{"last_updated":1702551987,"ttl":30,"version":"2.2","data":{"bikes":[{"bike_id":"aba73269-eac1-4a01-9e09-70ddb68fbd12","system_id":"levelo_inurba_marseille","lat":43.31341,"lon":5.367098,"is_reserved":false,"is_disabled":false,"rental_uris":{"android":"levelo://app?vid=aba73269-eac1-4a01-9e09-70ddb68fbd12","ios":"levelo://app?vid=aba73269-eac1-4a01-9e09-70ddb68fbd12"},"vehicle_type_id":"4","last_reported":1702551988,"current_range_meters":31200,"station_id":"ce4bgr92rcd13ifvqc6g","pricing_plan_id":"free"},{"bike_id":"79b27502-46cd-423f-9fcb-ffae1d3f261a","system_id":"levelo_inurba_marseille","lat":43.313404,"lon":5.367167,"is_reserved":false,"is_disabled":false,"rental_uris":{"android":"levelo://app?vid=79b27502-46cd-423f-9fcb-ffae1d3f261a","ios":"levelo://app?vid=79b27502-46cd-423f-9fcb-ffae1d3f261a"},"vehicle_type_id":"4","last_reported":1702551988,"current_range_meters":26000,"station_id":"ce4bgr92rcd13ifvqc6g","pricing_plan_id":"free"},{"bike_id":"63506cc9-8014-44db-b920-011f0d9737ca","system_id":"levelo_inurba_marseille","lat":43.313408,"lon":5.367209,"is_reserved":false,"is_disabled":false,"rental_uris":{"android":"levelo://app?vid=63506cc9-8014-44db-b920-011f0d9737ca","ios":"levelo://app?vid=63506cc9-8014-44db-b920-011f0d9737ca"},"vehicle_type_id":"4","last_reported":1702551988,"current_range_meters":16800,"station_id":"ce4bgr92rcd13ifvqc6g","pricing_plan_id":"free"},{"bike_id":"fd0d3195-a222-4a69-a6a8-0786757b5026","system_id":"levelo_inurba_marseille","lat":43.313391,"lon":5.36706,"is_reserved":false,"is_disabled":false,"rental_uris":{"android":"levelo://app?vid=fd0d3195-a222-4a69-a6a8-0786757b5026","ios":"levelo://app?vid=fd0d3195-a222-4a69-a6a8-0786757b5026"},"vehicle_type_id":"4","last_reported":1702551988,"current_range_meters":21200,"station_id":"ce4bgr92rcd13ifvqc6g","pricing_plan_id":"free"},{"bike_id":"a723faf6-6dfb-426d-a6cf-68dca6c2720e","system_id":"levelo_inurba_marseille","lat":43.313391,"lon":5.36706,"is_reserved":false,"is_disabled":false,"rental_uris":{"android":"levelo://app?vid=a723faf6-6dfb-426d-a6cf-68dca6c2720e","ios":"levelo://app?vid=a723faf6-6dfb-426d-a6cf-68dca6c2720e"},"vehicle_type_id":"4","last_reported":1702551988,"current_range_meters":18000,"station_id":"ce4bgr92rcd13ifvqc6g","pricing_plan_id":"free"},{"bike_id":"132756b2-21b0-4b37-a3ac-98574bf56a76","system_id":"levelo_inurba_marseille","lat":43.313391,"lon":5.36706,"is_reserved":false,"is_disabled":false,"rental_uris":{"android":"levelo://app?vid=132756b2-21b0-4b37-a3ac-98574bf56a76","ios":"levelo://app?vid=132756b2-21b0-4b37-a3ac-98574bf56a76"},"vehicle_type_id":"4","last_reported":1702551988,"current_range_meters":15600,"station_id":"ce4bgr92rcd13ifvqc6g","pricing_plan_id":"free"},{"bike_id":"49e5abb6-f09f-4b7e-bdeb-52461f3f6eb2","system_id":"levelo_inurba_marseille","lat":43.313391,"lon":5.36706,"is_reserved":false,"is_disabled":false,"rental_uris":{"android":"levelo://app?vid=49e5abb6-f09f-4b7e-bdeb-52461f3f6eb2","ios":"levelo://app?vid=49e5abb6-f09f-4b7e-bdeb-52461f3f6eb2"},"vehicle_type_id":"4","last_reported":1702551988,"current_range_meters":18000,"station_id":"ce4bgr92rcd13ifvqc6g","pricing_plan_id":"free"},{"bike_id":"c1c32b59-86c7-419d-9316-35ad06227fd4","system_id":"levelo_inurba_marseille","lat":43.31341,"lon":5.367098,"is_reserved":false,"is_disabled":false,"rental_uris":{"android":"levelo://app?vid=c1c32b59-86c7-419d-9316-35ad06227fd4","ios":"levelo://app?vid=c1c32b59-86c7-419d-9316-35ad06227fd4"},"vehicle_type_id":"4","last_reported":1702551988,"current_range_meters":31200,"station_id":"ce4bgr92rcd13ifvqc6g","pricing_plan_id":"free"},{"bike_id":"2723693b-cb06-4ecf-a1c2-912360eb8da6","system_id":"levelo_inurba_marseille","lat":43.31341,"lon":5.367098,"is_reserved":false,"is_disabled":false,"rental_uris":{"android":"levelo://app?vid=2723693b-cb06-4ecf-a1c2-912360eb8da6","ios":"levelo://app?vid=2723693b-cb06-4ecf-a1c2-912360eb8da6"},"vehicle_type_id":"4","last_reported":1702551988,"current_range_meters":26000,"station_id":"ce4bgr92rcd13ifvqc6g","pricing_plan_id":"free"},{"bike_id":"0349cfe3-d4fc-4c2f-a928-645bcf88f8c7","system_id":"levelo_inurba_marseille","lat":43.313391,"lon":5.36706,"is_reserved":false,"is_disabled":false,"rental_uris":{"android":"levelo://app?vid=0349cfe3-d4fc-4c2f-a928-645bcf88f8c7","ios":"levelo://app?vid=0349cfe3-d4fc-4c2f-a928-645bcf88f8c7"},"vehicle_type_id":"4","last_reported":1702551988,"current_range_meters":31600,"station_id":"ce4bgr92rcd13ifvqc6g","pricing_plan_id":"free"},{"bike_id":"5e870a68-e5e1-4f23-9b79-346d0b2e9ca3","system_id":"levelo_inurba_marseille","lat":43.313391,"lon":5.36706,"is_reserved":false,"is_disabled":false,"rental_uris":{"android":"levelo://app?vid=5e870a68-e5e1-4f23-9b79-346d0b2e9ca3","ios":"levelo://app?vid=5e870a68-e5e1-4f23-9b79-346d0b2e9ca3"},"vehicle_type_id":"4","last_reported":1702551988,"current_range_meters":27600,"station_id":"ce4bgr92rcd13ifvqc6g","pricing_plan_id":"free"},{"bike_id":"a48d9ac0-3c23-4594-aef1-26f94e1c11e1","system_id":"levelo_inurba_marseille","lat":43.31341,"lon":5.367098,"is_reserved":false,"is_disabled":false,"rental_uris":{"android":"levelo://app?vid=a48d9ac0-3c23-4594-aef1-26f94e1c11e1","ios":"levelo://app?vid=a48d9ac0-3c23-4594-aef1-26f94e1c11e1"},"vehicle_type_id":"4","last_reported":1702551988,"current_range_meters":23600,"station_id":"ce4bgr92rcd13ifvqc6g","pricing_plan_id":"free"},{"bike_id":"4e8da820-d94c-4282-a15b-0d99d45343d6","system_id":"levelo_inurba_marseille","lat":43.312239,"lon":5.368562,"is_reserved":false,"is_disabled":false,"rental_uris":{"android":"levelo://app?vid=4e8da820-d94c-4282-a15b-0d99d45343d6","ios":"levelo://app?vid=4e8da820-d94c-4282-a15b-0d99d45343d6"},"vehicle_type_id":"4","last_reported":1702551988,"current_range_meters":31600,"station_id":"ce4bgl92rcd13ifvqbq0","pricing_plan_id":"free"},{"bike_id":"8a1e4348-2c8a-4472-9baa-89aef761af6e","system_id":"levelo_inurba_marseille","lat":43.312239,"lon":5.368562,"is_reserved":false,"is_disabled":false,"rental_uris":{"android":"levelo://app?vid=8a1e4348-2c8a-4472-9baa-89aef761af6e","ios":"levelo://app?vid=8a1e4348-2c8a-4472-9baa-89aef761af6e"},"vehicle_type_id":"4","last_reported":1702551988,"current_range_meters":12800,"station_id":"ce4bgl92rcd13ifvqbq0","pricing_plan_id":"free"},{"bike_id":"5a037603-ad63-44df-b177-426009f2951c","system_id":"levelo_inurba_marseille","lat":43.312239,"lon":5.368562,"is_reserved":false,"is_disabled":false,"rental_uris":{"android":"levelo://app?vid=5a037603-ad63-44df-b177-426009f2951c","ios":"levelo://app?vid=5a037603-ad63-44df-b177-426009f2951c"},"vehicle_type_id":"4","last_reported":1702551988,"current_range_meters":31200,"station_id":"ce4bgl92rcd13ifvqbq0","pricing_plan_id":"free"},{"bike_id":"6c3a0d4b-2bbe-4572-8781-7c0588b0af67","system_id":"levelo_inurba_marseille","lat":43.312239,"lon":5.368562,"is_reserved":false,"is_disabled":false,"rental_uris":{"android":"levelo://app?vid=6c3a0d4b-2bbe-4572-8781-7c0588b0af67","ios":"levelo://app?vid=6c3a0d4b-2bbe-4572-8781-7c0588b0af67"},"vehicle_type_id":"4","last_reported":1702551988,"current_range_meters":13200,"station_id":"ce4bgl92rcd13ifvqbq0","pricing_plan_id":"free"},{"bike_id":"e1ae7124-1e20-4fff-ad1e-0516cca62f81","system_id":"levelo_inurba_marseille","lat":43.312239,"lon":5.368562,"is_reserved":false,"is_disabled":false,"rental_uris":{"android":"levelo://app?vid=e1ae7124-1e20-4fff-ad1e-0516cca62f81","ios":"levelo://app?vid=e1ae7124-1e20-4fff-ad1e-0516cca62f81"},"vehicle_type_id":"4","last_reported":1702551988,"current_range_meters":30400,"station_id":"ce4bgl92rcd13ifvqbq0","pricing_plan_id":"free"},{"bike_id":"59074f10-9bc7-4ffd-8bc8-559090846504","system_id":"levelo_inurba_marseille","lat":43.312239,"lon":5.368562,"is_reserved":false,"is_disabled":false,"rental_uris":{"android":"levelo://app?vid=59074f10-9bc7-4ffd-8bc8-559090846504","ios":"levelo://app?vid=59074f10-9bc7-4ffd-8bc8-559090846504"},"vehicle_type_id":"4","last_reported":1702551988,"current_range_meters":22400,"station_id":"ce4bgl92rcd13ifvqbq0","pricing_plan_id":"free"},{"bike_id":"0581b477-8132-431c-ab0d-7296e23f07bb","system_id":"levelo_inurba_marseille","lat":43.312239,"lon":5.368562,"is_reserved":false,"is_disabled":false,"rental_uris":{"android":"levelo://app?vid=0581b477-8132-431c-ab0d-7296e23f07bb","ios":"levelo://app?vid=0581b477-8132-431c-ab0d-7296e23f07bb"},"vehicle_type_id":"4","last_reported":1702551988,"current_range_meters":31200,"station_id":"ce4bgl92rcd13ifvqbq0","pricing_plan_id":"free"},{"bike_id":"b78c9a51-0e04-4998-b6ca-7a16de769080","system_id":"levelo_inurba_marseille","lat":43.312239,"lon":5.368562,"is_reserved":false,"is_disabled":false,"rental_uris":{"android":"levelo://app?vid=b78c9a51-0e04-4998-b6ca-7a16de769080","ios":"levelo://app?vid=b78c9a51-0e04-4998-b6ca-7a16de769080"},"vehicle_type_id":"4","last_reported":1702551988,"current_range_meters":31600,"station_id":"ce4bgl92rcd13ifvqbq0","pricing_plan_id":"free"},{"bike_id":"dca2b111-d324-4194-89c5-abf8ada894d9","system_id":"levelo_inurba_marseille","lat":43.312239,"lon":5.368562,"is_reserved":false,"is_disabled":false,"rental_uris":{"android":"levelo://app?vid=dca2b111-d324-4194-89c5-abf8ada894d9","ios":"levelo://app?vid=dca2b111-d324-4194-89c5-abf8ada894d9"},"vehicle_type_id":"4","last_reported":1702551988,"current_range_meters":6800,"station_id":"ce4bgl92rcd13ifvqbq0","pricing_plan_id":"free"},{"bike_id":"782ba954-8744-44a8-ac2c-1af11b08b18d","system_id":"levelo_inurba_marseille","lat":43.312239,"lon":5.368562,"is_reserved":false,"is_disabled":false,"rental_uris":{"android":"levelo://app?vid=782ba954-8744-44a8-ac2c-1af11b08b18d","ios":"levelo://app?vid=782ba954-8744-44a8-ac2c-1af11b08b18d"},"vehicle_type_id":"4","last_reported":1702551988,"current_range_meters":4800,"station_id":"ce4bgl92rcd13ifvqbq0","pricing_plan_id":"free"},{"bike_id":"4582da45-96bf-4ebe-9e31-ad0e506cdf31","system_id":"levelo_inurba_marseille","lat":43.309076,"lon":5.368465,"is_reserved":false,"is_disabled":false,"rental_uris":{"android":"levelo://app?vid=4582da45-96bf-4ebe-9e31-ad0e506cdf31","ios":"levelo://app?vid=4582da45-96bf-4ebe-9e31-ad0e506cdf31"},"vehicle_type_id":"4","last_reported":1702551988,"current_range_meters":29600,"station_id":"ce4bgn92rcd13ifvqbvg","pricing_plan_id":"free"},{"bike_id":"e6534fab-2876-43a3-8c8d-0b18f049716d","system_id":"levelo_inurba_marseille","lat":43.309076,"lon":5.368465,"is_reserved":false,"is_disabled":false,"rental_uris":{"android":"levelo://app?vid=e6534fab-2876-43a3-8c8d-0b18f049716d","ios":"levelo://app?vid=e6534fab-2876-43a3-8c8d-0b18f049716d"},"vehicle_type_id":"4","last_reported":1702551988,"current_range_meters":30000,"station_id":"ce4bgn92rcd13ifvqbvg","pricing_plan_id":"free"},{"bike_id":"556d34cd-1b95-4563-8298-2b71ac4f9ccb","system_id":"levelo_inurba_marseille","lat":43.309076,"lon":5.368465,"is_reserved":false,"is_disabled":false,"rental_uris":{"android":"levelo://app?vid=556d34cd-1b95-4563-8298-2b71ac4f9ccb","ios":"levelo://app?vid=556d34cd-1b95-4563-8298-2b71ac4f9ccb"},"vehicle_type_id":"4","last_reported":1702551988,"current_range_meters":31200,"station_id":"ce4bgn92rcd13ifvqbvg","pricing_plan_id":"free"},{"bike_id":"3f8b821f-e430-4a35-bf14-f8b6e777ea11","system_id":"levelo_inurba_marseille","lat":43.313939,"lon":5.375306,"is_reserved":false,"is_disabled":false,"rental_uris":{"android":"levelo://app?vid=3f8b821f-e430-4a35-bf14-f8b6e777ea11","ios":"levelo://app?vid=3f8b821f-e430-4a35-bf14-f8b6e777ea11"},"vehicle_type_id":"4","last_reported":1702551988,"current_range_meters":4000,"station_id":"","pricing_plan_id":"free"},{"bike_id":"6da48164-a4d2-4a94-b07d-91eb2ff23267","system_id":"levelo_inurba_marseille","lat":43.305712,"lon":5.365641,"is_reserved":false,"is_disabled":false,"rental_uris":{"android":"levelo://app?vid=6da48164-a4d2-4a94-b07d-91eb2ff23267","ios":"levelo://app?vid=6da48164-a4d2-4a94-b07d-91eb2ff23267"},"vehicle_type_id":"4","last_reported":1702551988,"current_range_meters":14800,"station_id":"ce4bgs12rcd13ifvqcag","pricing_plan_id":"free"},{"bike_id":"1c6cd74b-0d6e-4d0d-9b64-cb0c496145ff","system_id":"levelo_inurba_marseille","lat":43.305368,"lon":5.367343,"is_reserved":false,"is_disabled":false,"rental_uris":{"android":"levelo://app?vid=1c6cd74b-0d6e-4d0d-9b64-cb0c496145ff","ios":"levelo://app?vid=1c6cd74b-0d6e-4d0d-9b64-cb0c496145ff"},"vehicle_type_id":"4","last_reported":1702551988,"current_range_meters":0,"station_id":"ce4bgrp2rcd13ifvqc9g","pricing_plan_id":"free"},{"bike_id":"955e4ab2-16e5-44e8-a986-a2f50ff96c06","system_id":"levelo_inurba_marseille","lat":43.305382,"lon":5.365389,"is_reserved":false,"is_disabled":false,"rental_uris":{"android":"levelo://app?vid=955e4ab2-16e5-44e8-a986-a2f50ff96c06","ios":"levelo://app?vid=955e4ab2-16e5-44e8-a986-a2f50ff96c06"},"vehicle_type_id":"4","last_reported":1702551988,"current_range_meters":23600,"station_id":"","pricing_plan_id":"free"},{"bike_id":"6f7a5797-45cc-42e5-b267-d28a5c797124","system_id":"levelo_inurba_marseille","lat":43.305706,"lon":5.365654,"is_reserved":false,"is_disabled":false,"rental_uris":{"android":"levelo://app?vid=6f7a5797-45cc-42e5-b267-d28a5c797124","ios":"levelo://app?vid=6f7a5797-45cc-42e5-b267-d28a5c797124"},"vehicle_type_id":"4","last_reported":1702551988,"current_range_meters":30400,"station_id":"ce4bgs12rcd13ifvqcag","pricing_plan_id":"free"},{"bike_id":"93504e30-03ae-435d-8d48-00c6b53a9018","system_id":"levelo_inurba_marseille","lat":43.305989,"lon":5.37225,"is_reserved":false,"is_disabled":false,"rental_uris":{"android":"levelo://app?vid=93504e30-03ae-435d-8d48-00c6b53a9018","ios":"levelo://app?vid=93504e30-03ae-435d-8d48-00c6b53a9018"},"vehicle_type_id":"4","last_reported":1702551988,"current_range_meters":20000,"station_id":"ce4bgqh2rcd13ifvqc4g","pricing_plan_id":"free"},{"bike_id":"b8895a69-7c2f-4678-a3c1-00631a94e332","system_id":"levelo_inurba_marseille","lat":43.303046,"lon":5.368981,"is_reserved":false,"is_disabled":false,"rental_uris":{"android":"levelo://app?vid=b8895a69-7c2f-4678-a3c1-00631a94e332","ios":"levelo://app?vid=b8895a69-7c2f-4678-a3c1-00631a94e332"},"vehicle_type_id":"4","last_reported":1702551988,"current_range_meters":22800,"station_id":"ce4bgqh2rcd13ifvqc5g","pricing_plan_id":"free"},{"bike_id":"90fd2d25-2b3c-4421-ae18-c31dabaa6bd6","system_id":"levelo_inurba_marseille","lat":43.301939,"lon":5.366286,"is_reserved":false,"is_disabled":false,"rental_uris":{"android":"levelo://app?vid=90fd2d25-2b3c-4421-ae18-c31dabaa6bd6","ios":"levelo://app?vid=90fd2d25-2b3c-4421-ae18-c31dabaa6bd6"},"vehicle_type_id":"4","last_reported":1702551988,"current_range_meters":4000,"station_id":"ce4bgrh2rcd13ifvqc8g","pricing_plan_id":"free"},{"bike_id":"75e8823e-a923-4218-abe0-4854621efb56","system_id":"levelo_inurba_marseille","lat":43.301939,"lon":5.366286,"is_reserved":false,"is_disabled":false,"rental_uris":{"android":"levelo://app?vid=75e8823e-a923-4218-abe0-4854621efb56","ios":"levelo://app?vid=75e8823e-a923-4218-abe0-4854621efb56"},"vehicle_type_id":"4","last_reported":1702551988,"current_range_meters":6800,"station_id":"ce4bgrh2rcd13ifvqc8g","pricing_plan_id":"free"},{"bike_id":"865d57e9-784b-473a-bf5e-3030fb56cd18","system_id":"levelo_inurba_marseille","lat":43.30794,"lon":5.38155,"is_reserved":false,"is_disabled":false,"rental_uris":{"android":"levelo://app?vid=865d57e9-784b-473a-bf5e-3030fb56cd18","ios":"levelo://app?vid=865d57e9-784b-473a-bf5e-3030fb56cd18"},"vehicle_type_id":"4","last_reported":1702551988,"current_range_meters":14000,"station_id":"ce4bgt12rcd13ifvqce0","pricing_plan_id":"free"},{"bike_id":"a58902d9-0036-4d40-8349-687be8349090","system_id":"levelo_inurba_marseille","lat":43.301429,"lon":5.37413,"is_reserved":false,"is_disabled":false,"rental_uris":{"android":"levelo://app?vid=a58902d9-0036-4d40-8349-687be8349090","ios":"levelo://app?vid=a58902d9-0036-4d40-8349-687be8349090"},"vehicle_type_id":"4","last_reported":1702551988,"current_range_meters":25600,"station_id":"ce4bgs92rcd13ifvqcc0","pricing_plan_id":"free"},{"bike_id":"f835b577-fbb6-411e-8fb2-7d818fb82187","system_id":"levelo_inurba_marseille","lat":43.298433,"lon":5.362774,"is_reserved":false,"is_disabled":false,"rental_uris":{"android":"levelo://app?vid=f835b577-fbb6-411e-8fb2-7d818fb82187","ios":"levelo://app?vid=f835b577-fbb6-411e-8fb2-7d818fb82187"},"vehicle_type_id":"4","last_reported":1702551988,"current_range_meters":29200,"station_id":"ce4bgpp2rcd13ifvqc3g","pricing_plan_id":"free"},{"bike_id":"62c4f95f-ec48-4f8f-96b5-1da2ba2b0a34","system_id":"levelo_inurba_marseille","lat":43.31151,"lon":5.38683,"is_reserved":false,"is_disabled":false,"rental_uris":{"android":"levelo://app?vid=62c4f95f-ec48-4f8f-96b5-1da2ba2b0a34","ios":"levelo://app?vid=62c4f95f-ec48-4f8f-96b5-1da2ba2b0a34"},"vehicle_type_id":"4","last_reported":1702551988,"current_range_meters":10000,"station_id":"ce4bgv12rcd13ifvqcp0","pricing_plan_id":"free"},{"bike_id":"89922cd2-70b7-46b2-b74e-0b5990682f5e","system_id":"levelo_inurba_marseille","lat":43.298433,"lon":5.362774,"is_reserved":false,"is_disabled":false,"rental_uris":{"android":"levelo://app?vid=89922cd2-70b7-46b2-b74e-0b5990682f5e","ios":"levelo://app?vid=89922cd2-70b7-46b2-b74e-0b5990682f5e"},"vehicle_type_id":"4","last_reported":1702551988,"current_range_meters":16000,"station_id":"ce4bgpp2rcd13ifvqc3g","pricing_plan_id":"free"},{"bike_id":"ef1106cb-f131-49ab-93c5-811fe1dd48b5","system_id":"levelo_inurba_marseille","lat":43.298433,"lon":5.362774,"is_reserved":false,"is_disabled":false,"rental_uris":{"android":"levelo://app?vid=ef1106cb-f131-49ab-93c5-811fe1dd48b5","ios":"levelo://app?vid=ef1106cb-f131-49ab-93c5-811fe1dd48b5"},"vehicle_type_id":"4","last_reported":1702551988,"current_range_meters":31200,"station_id":"ce4bgpp2rcd13ifvqc3g","pricing_plan_id":"free"},{"bike_id":"6543c6e0-9993-4f3e-a468-370625d715e5","system_id":"levelo_inurba_marseille","lat":43.298433,"lon":5.362774,"is_reserved":false,"is_disabled":false,"rental_uris":{"android":"levelo://app?vid=6543c6e0-9993-4f3e-a468-370625d715e5","ios":"levelo://app?vid=6543c6e0-9993-4f3e-a468-370625d715e5"},"vehicle_type_id":"4","last_reported":1702551988,"current_range_meters":27600,"station_id":"ce4bgpp2rcd13ifvqc3g","pricing_plan_id":"free"},{"bike_id":"68c11159-ade3-4a85-85b7-59a5cb531b38","system_id":"levelo_inurba_marseille","lat":43.298433,"lon":5.362774,"is_reserved":false,"is_disabled":false,"rental_uris":{"android":"levelo://app?vid=68c11159-ade3-4a85-85b7-59a5cb531b38","ios":"levelo://app?vid=68c11159-ade3-4a85-85b7-59a5cb531b38"},"vehicle_type_id":"4","last_reported":1702551988,"current_range_meters":28000,"station_id":"ce4bgpp2rcd13ifvqc3g","pricing_plan_id":"free"},{"bike_id":"cf880a93-689f-496b-b06b-64d66a80d22d","system_id":"levelo_inurba_marseille","lat":43.298433,"lon":5.362774,"is_reserved":false,"is_disabled":false,"rental_uris":{"android":"levelo://app?vid=cf880a93-689f-496b-b06b-64d66a80d22d","ios":"levelo://app?vid=cf880a93-689f-496b-b06b-64d66a80d22d"},"vehicle_type_id":"4","last_reported":1702551988,"current_range_meters":25200,"station_id":"ce4bgpp2rcd13ifvqc3g","pricing_plan_id":"free"},{"bike_id":"29f4352f-c186-40b7-addf-3d4f1a2aba93","system_id":"levelo_inurba_marseille","lat":43.299243,"lon":5.37481,"is_reserved":false,"is_disabled":false,"rental_uris":{"android":"levelo://app?vid=29f4352f-c186-40b7-addf-3d4f1a2aba93","ios":"levelo://app?vid=29f4352f-c186-40b7-addf-3d4f1a2aba93"},"vehicle_type_id":"4","last_reported":1702551988,"current_range_meters":20800,"station_id":"ce4bgjh2rcd13ifvqbg0","pricing_plan_id":"free"},{"bike_id":"ed5f0256-776d-4300-ad00-c107bee05a60","system_id":"levelo_inurba_marseille","lat":43.322872,"lon":5.382756,"is_reserved":false,"is_disabled":false,"rental_uris":{"android":"levelo://app?vid=ed5f0256-776d-4300-ad00-c107bee05a60","ios":"levelo://app?vid=ed5f0256-776d-4300-ad00-c107bee05a60"},"vehicle_type_id":"4","last_reported":1702551988,"current_range_meters":22000,"station_id":"ce4bhr12rcd13ifvqhqg","pricing_plan_id":"free"},{"bike_id":"bd00e485-7c02-4bb9-b4cc-9d22889f68bf","system_id":"levelo_inurba_marseille","lat":43.299028,"lon":5.381509,"is_reserved":false,"is_disabled":false,"rental_uris":{"android":"levelo://app?vid=bd00e485-7c02-4bb9-b4cc-9d22889f68bf","ios":"levelo://app?vid=bd00e485-7c02-4bb9-b4cc-9d22889f68bf"},"vehicle_type_id":"4","last_reported":1702551988,"current_range_meters":9200,"station_id":"ce4bgj12rcd13ifvqbc0","pricing_plan_id":"free"},{"bike_id":"a39937d3-c359-412a-9a42-7ef7a805f88a","system_id":"levelo_inurba_marseille","lat":43.30964,"lon":5.39034,"is_reserved":false,"is_disabled":false,"rental_uris":{"android":"levelo://app?vid=a39937d3-c359-412a-9a42-7ef7a805f88a","ios":"levelo://app?vid=a39937d3-c359-412a-9a42-7ef7a805f88a"},"vehicle_type_id":"4","last_reported":1702551988,"current_range_meters":17200,"station_id":"ce4bgup2rcd13ifvqco0","pricing_plan_id":"free"},{"bike_id":"0f325b54-5e36-48c7-843c-54deeb5fa3d0","system_id":"levelo_inurba_marseille","lat":43.29798,"lon":5.38099,"is_reserved":false,"is_disabled":false,"rental_uris":{"android":"levelo://app?vid=0f325b54-5e36-48c7-843c-54deeb5fa3d0","ios":"levelo://app?vid=0f325b54-5e36-48c7-843c-54deeb5fa3d0"},"vehicle_type_id":"4","last_reported":1702551988,"current_range_meters":26800,"station_id":"ce4bgip2rcd13ifvqbb0","pricing_plan_id":"free"},{"bike_id":"4614f992-8b71-4481-9a24-983c671b1938","system_id":"levelo_inurba_marseille","lat":43.29798,"lon":5.38106,"is_reserved":false,"is_disabled":false,"rental_uris":{"android":"levelo://app?vid=4614f992-8b71-4481-9a24-983c671b1938","ios":"levelo://app?vid=4614f992-8b71-4481-9a24-983c671b1938"},"vehicle_type_id":"4","last_reported":1702551988,"current_range_meters":11600,"station_id":"ce4bgip2rcd13ifvqbb0","pricing_plan_id":"free"},{"bike_id":"bea81821-8d1e-45af-93f6-d7ec1dbd86c1","system_id":"levelo_inurba_marseille","lat":43.29572,"lon":5.37504,"is_reserved":false,"is_disabled":false,"rental_uris":{"android":"levelo://app?vid=bea81821-8d1e-45af-93f6-d7ec1dbd86c1","ios":"levelo://app?vid=bea81821-8d1e-45af-93f6-d7ec1dbd86c1"},"vehicle_type_id":"4","last_reported":1702551988,"current_range_meters":0,"station_id":"ce4bgh92rcd13ifvqb50","pricing_plan_id":"free"},{"bike_id":"bb67a993-5592-4d9d-befa-d042b291a345","system_id":"levelo_inurba_marseille","lat":43.29792,"lon":5.381115,"is_reserved":false,"is_disabled":false,"rental_uris":{"android":"levelo://app?vid=bb67a993-5592-4d9d-befa-d042b291a345","ios":"levelo://app?vid=bb67a993-5592-4d9d-befa-d042b291a345"},"vehicle_type_id":"4","last_reported":1702551988,"current_range_meters":3600,"station_id":"ce4bgip2rcd13ifvqbb0","pricing_plan_id":"free"},{"bike_id":"93846422-cb2e-46e0-8354-25fd62a996ed","system_id":"levelo_inurba_marseille","lat":43.32367,"lon":5.388836,"is_reserved":false,"is_disabled":false,"rental_uris":{"android":"levelo://app?vid=93846422-cb2e-46e0-8354-25fd62a996ed","ios":"levelo://app?vid=93846422-cb2e-46e0-8354-25fd62a996ed"},"vehicle_type_id":"4","last_reported":1702551988,"current_range_meters":15600,"station_id":"ce4bhqp2rcd13ifvqhog","pricing_plan_id":"free"},{"bike_id":"03f6119d-7ba1-4608-b75b-b20f3efbdaef","system_id":"levelo_inurba_marseille","lat":43.32364,"lon":5.38894,"is_reserved":false,"is_disabled":false,"rental_uris":{"android":"levelo://app?vid=03f6119d-7ba1-4608-b75b-b20f3efbdaef","ios":"levelo://app?vid=03f6119d-7ba1-4608-b75b-b20f3efbdaef"},"vehicle_type_id":"4","last_reported":1702551988,"current_range_meters":11600,"station_id":"ce4bhqp2rcd13ifvqhog","pricing_plan_id":"free"},{"bike_id":"120b0bce-8212-4c85-9d5b-25407aa26e7b","system_id":"levelo_inurba_marseille","lat":43.293259,"lon":5.371586,"is_reserved":false,"is_disabled":false,"rental_uris":{"android":"levelo://app?vid=120b0bce-8212-4c85-9d5b-25407aa26e7b","ios":"levelo://app?vid=120b0bce-8212-4c85-9d5b-25407aa26e7b"},"vehicle_type_id":"4","last_reported":1702551988,"current_range_meters":26000,"station_id":"ce4bgh92rcd13ifvqb40","pricing_plan_id":"free"},{"bike_id":"801619cd-48ad-4516-a08e-5d636e4123c0","system_id":"levelo_inurba_marseille","lat":43.2936,"lon":5.37835,"is_reserved":false,"is_disabled":false,"rental_uris":{"android":"levelo://app?vid=801619cd-48ad-4516-a08e-5d636e4123c0","ios":"levelo://app?vid=801619cd-48ad-4516-a08e-5d636e4123c0"},"vehicle_type_id":"4","last_reported":1702551988,"current_range_meters":21200,"station_id":"ce4bgjh2rcd13ifvqbf0","pricing_plan_id":"free"},{"bike_id":"1e5e9ebf-0f1b-47e9-872b-fd5de078c80e","system_id":"levelo_inurba_marseille","lat":43.300852,"lon":5.390859,"is_reserved":false,"is_disabled":false,"rental_uris":{"android":"levelo://app?vid=1e5e9ebf-0f1b-47e9-872b-fd5de078c80e","ios":"levelo://app?vid=1e5e9ebf-0f1b-47e9-872b-fd5de078c80e"},"vehicle_type_id":"4","last_reported":1702551988,"current_range_meters":26800,"station_id":"ce4bh192rcd13ifvqdb0","pricing_plan_id":"free"},{"bike_id":"9c61b2b4-06db-448a-92ff-20a1340e9310","system_id":"levelo_inurba_marseille","lat":43.292663,"lon":5.376389,"is_reserved":false,"is_disabled":false,"rental_uris":{"android":"levelo://app?vid=9c61b2b4-06db-448a-92ff-20a1340e9310","ios":"levelo://app?vid=9c61b2b4-06db-448a-92ff-20a1340e9310"},"vehicle_type_id":"4","last_reported":1702551988,"current_range_meters":3600,"station_id":"ce4bgi12rcd13ifvqb80","pricing_plan_id":"free"},{"bike_id":"77446f8f-c86a-4cc6-90f6-f253b0a993d8","system_id":"levelo_inurba_marseille","lat":43.291671,"lon":5.371575,"is_reserved":false,"is_disabled":false,"rental_uris":{"android":"levelo://app?vid=77446f8f-c86a-4cc6-90f6-f253b0a993d8","ios":"levelo://app?vid=77446f8f-c86a-4cc6-90f6-f253b0a993d8"},"vehicle_type_id":"4","last_reported":1702551988,"current_range_meters":17600,"station_id":"ce4bha92rcd13ifvqeh0","pricing_plan_id":"free"},{"bike_id":"772b95e7-3284-4495-96bb-39bcc898f014","system_id":"levelo_inurba_marseille","lat":43.291994,"lon":5.357886,"is_reserved":false,"is_disabled":false,"rental_uris":{"android":"levelo://app?vid=772b95e7-3284-4495-96bb-39bcc898f014","ios":"levelo://app?vid=772b95e7-3284-4495-96bb-39bcc898f014"},"vehicle_type_id":"4","last_reported":1702551988,"current_range_meters":9600,"station_id":"ce4bhb12rcd13ifvqel0","pricing_plan_id":"free"},{"bike_id":"abb89bfa-4b50-41ea-b419-7f09f5c7a4d6","system_id":"levelo_inurba_marseille","lat":43.290779,"lon":5.371482,"is_reserved":false,"is_disabled":false,"rental_uris":{"android":"levelo://app?vid=abb89bfa-4b50-41ea-b419-7f09f5c7a4d6","ios":"levelo://app?vid=abb89bfa-4b50-41ea-b419-7f09f5c7a4d6"},"vehicle_type_id":"4","last_reported":1702551988,"current_range_meters":14000,"station_id":"ce4bh5p2rcd13ifvqe4g","pricing_plan_id":"free"},{"bike_id":"d2dbdea2-abe9-49db-8720-20b7d9018aae","system_id":"levelo_inurba_marseille","lat":43.330442,"lon":5.389148,"is_reserved":false,"is_disabled":false,"rental_uris":{"android":"levelo://app?vid=d2dbdea2-abe9-49db-8720-20b7d9018aae","ios":"levelo://app?vid=d2dbdea2-abe9-49db-8720-20b7d9018aae"},"vehicle_type_id":"4","last_reported":1702551988,"current_range_meters":28400,"station_id":"ce4bhr92rcd13ifvqhrg","pricing_plan_id":"free"},{"bike_id":"e2e2dd06-1a46-49df-8d0f-078795431126","system_id":"levelo_inurba_marseille","lat":43.290995,"lon":5.381361,"is_reserved":false,"is_disabled":false,"rental_uris":{"android":"levelo://app?vid=e2e2dd06-1a46-49df-8d0f-078795431126","ios":"levelo://app?vid=e2e2dd06-1a46-49df-8d0f-078795431126"},"vehicle_type_id":"4","last_reported":1702551988,"current_range_meters":24400,"station_id":"ce4bh512rcd13ifvqe2g","pricing_plan_id":"free"},{"bike_id":"63071938-a9c0-45b7-9e9e-7e084c140631","system_id":"levelo_inurba_marseille","lat":43.33716,"lon":5.374,"is_reserved":false,"is_disabled":false,"rental_uris":{"android":"levelo://app?vid=63071938-a9c0-45b7-9e9e-7e084c140631","ios":"levelo://app?vid=63071938-a9c0-45b7-9e9e-7e084c140631"},"vehicle_type_id":"4","last_reported":1702551988,"current_range_meters":30000,"station_id":"","pricing_plan_id":"free"},{"bike_id":"9eda67c0-dd5f-415f-b043-976642b604df","system_id":"levelo_inurba_marseille","lat":43.31275,"lon":5.40164,"is_reserved":false,"is_disabled":false,"rental_uris":{"android":"levelo://app?vid=9eda67c0-dd5f-415f-b043-976642b604df","ios":"levelo://app?vid=9eda67c0-dd5f-415f-b043-976642b604df"},"vehicle_type_id":"4","last_reported":1702551988,"current_range_meters":29200,"station_id":"ce4bh092rcd13ifvqd30","pricing_plan_id":"free"},{"bike_id":"7cb685f7-2b7c-4d9f-a0e9-3b366b74433c","system_id":"levelo_inurba_marseille","lat":43.306412,"lon":5.401035,"is_reserved":false,"is_disabled":false,"rental_uris":{"android":"levelo://app?vid=7cb685f7-2b7c-4d9f-a0e9-3b366b74433c","ios":"levelo://app?vid=7cb685f7-2b7c-4d9f-a0e9-3b366b74433c"},"vehicle_type_id":"4","last_reported":1702551988,"current_range_meters":28800,"station_id":"ce4bh112rcd13ifvqda0","pricing_plan_id":"free"},{"bike_id":"7108d13b-16a0-48b8-bac4-3630ba0cf199","system_id":"levelo_inurba_marseille","lat":43.298681,"lon":5.397225,"is_reserved":false,"is_disabled":false,"rental_uris":{"android":"levelo://app?vid=7108d13b-16a0-48b8-bac4-3630ba0cf199","ios":"levelo://app?vid=7108d13b-16a0-48b8-bac4-3630ba0cf199"},"vehicle_type_id":"4","last_reported":1702551988,"current_range_meters":11200,"station_id":"ce4bh0h2rcd13ifvqd50","pricing_plan_id":"free"},{"bike_id":"0a36a5da-bf5a-4b0c-b051-1b451283adbb","system_id":"levelo_inurba_marseille","lat":43.286649,"lon":5.363418,"is_reserved":false,"is_disabled":false,"rental_uris":{"android":"levelo://app?vid=0a36a5da-bf5a-4b0c-b051-1b451283adbb","ios":"levelo://app?vid=0a36a5da-bf5a-4b0c-b051-1b451283adbb"},"vehicle_type_id":"4","last_reported":1702551988,"current_range_meters":31200,"station_id":"","pricing_plan_id":"free"},{"bike_id":"b619a5cf-df35-4152-bb26-6305339f3eb0","system_id":"levelo_inurba_marseille","lat":43.286961,"lon":5.373785,"is_reserved":false,"is_disabled":false,"rental_uris":{"android":"levelo://app?vid=b619a5cf-df35-4152-bb26-6305339f3eb0","ios":"levelo://app?vid=b619a5cf-df35-4152-bb26-6305339f3eb0"},"vehicle_type_id":"4","last_reported":1702551988,"current_range_meters":29600,"station_id":"ce4bh3p2rcd13ifvqdq0","pricing_plan_id":"free"},{"bike_id":"2e561e80-6259-4368-86e7-4f23807a139a","system_id":"levelo_inurba_marseille","lat":43.31686,"lon":5.40474,"is_reserved":false,"is_disabled":false,"rental_uris":{"android":"levelo://app?vid=2e561e80-6259-4368-86e7-4f23807a139a","ios":"levelo://app?vid=2e561e80-6259-4368-86e7-4f23807a139a"},"vehicle_type_id":"4","last_reported":1702551988,"current_range_meters":14800,"station_id":"ce4bh012rcd13ifvqd00","pricing_plan_id":"free"},{"bike_id":"ef37165a-6e57-4fd5-adda-47685ac05bef","system_id":"levelo_inurba_marseille","lat":43.31688,"lon":5.40481,"is_reserved":false,"is_disabled":false,"rental_uris":{"android":"levelo://app?vid=ef37165a-6e57-4fd5-adda-47685ac05bef","ios":"levelo://app?vid=ef37165a-6e57-4fd5-adda-47685ac05bef"},"vehicle_type_id":"4","last_reported":1702551988,"current_range_meters":24000,"station_id":"ce4bh012rcd13ifvqd00","pricing_plan_id":"free"},{"bike_id":"2554802f-e4bf-4e58-b76b-73659721c96d","system_id":"levelo_inurba_marseille","lat":43.284538,"lon":5.358657,"is_reserved":false,"is_disabled":false,"rental_uris":{"android":"levelo://app?vid=2554802f-e4bf-4e58-b76b-73659721c96d","ios":"levelo://app?vid=2554802f-e4bf-4e58-b76b-73659721c96d"},"vehicle_type_id":"4","last_reported":1702551988,"current_range_meters":6400,"station_id":"ce4bhah2rcd13ifvqei0","pricing_plan_id":"free"},{"bike_id":"9f83e53b-dd86-47f2-9569-ca4eb3ecc427","system_id":"levelo_inurba_marseille","lat":43.284534,"lon":5.358662,"is_reserved":false,"is_disabled":false,"rental_uris":{"android":"levelo://app?vid=9f83e53b-dd86-47f2-9569-ca4eb3ecc427","ios":"levelo://app?vid=9f83e53b-dd86-47f2-9569-ca4eb3ecc427"},"vehicle_type_id":"4","last_reported":1702551988,"current_range_meters":24800,"station_id":"ce4bhah2rcd13ifvqei0","pricing_plan_id":"free"},{"bike_id":"bbb00f67-cf65-4f13-9f01-e2aee0844f8e","system_id":"levelo_inurba_marseille","lat":43.28612,"lon":5.35101,"is_reserved":false,"is_disabled":false,"rental_uris":{"android":"levelo://app?vid=bbb00f67-cf65-4f13-9f01-e2aee0844f8e","ios":"levelo://app?vid=bbb00f67-cf65-4f13-9f01-e2aee0844f8e"},"vehicle_type_id":"4","last_reported":1702551988,"current_range_meters":0,"station_id":"ce4bhch2rcd13ifvqeug","pricing_plan_id":"free"},{"bike_id":"f36e3590-0789-4fa1-9d37-fdf58997967a","system_id":"levelo_inurba_marseille","lat":43.283998,"lon":5.375062,"is_reserved":false,"is_disabled":false,"rental_uris":{"android":"levelo://app?vid=f36e3590-0789-4fa1-9d37-fdf58997967a","ios":"levelo://app?vid=f36e3590-0789-4fa1-9d37-fdf58997967a"},"vehicle_type_id":"4","last_reported":1702551988,"current_range_meters":4800,"station_id":"ce4bh412rcd13ifvqds0","pricing_plan_id":"free"},{"bike_id":"e48ef7b1-a491-49ba-89ae-9e260d5b4141","system_id":"levelo_inurba_marseille","lat":43.319179,"lon":5.407725,"is_reserved":false,"is_disabled":false,"rental_uris":{"android":"levelo://app?vid=e48ef7b1-a491-49ba-89ae-9e260d5b4141","ios":"levelo://app?vid=e48ef7b1-a491-49ba-89ae-9e260d5b4141"},"vehicle_type_id":"4","last_reported":1702551988,"current_range_meters":22000,"station_id":"ce4bhq12rcd13ifvqhig","pricing_plan_id":"free"},{"bike_id":"bd474e43-59de-405e-b26a-94da8973e5b2","system_id":"levelo_inurba_marseille","lat":43.33717,"lon":5.391857,"is_reserved":false,"is_disabled":false,"rental_uris":{"android":"levelo://app?vid=bd474e43-59de-405e-b26a-94da8973e5b2","ios":"levelo://app?vid=bd474e43-59de-405e-b26a-94da8973e5b2"},"vehicle_type_id":"4","last_reported":1702551988,"current_range_meters":30000,"station_id":"ce4bhr92rcd13ifvqhsg","pricing_plan_id":"free"},{"bike_id":"2c92f10e-fa6e-4ddb-9530-d6f90043c9b5","system_id":"levelo_inurba_marseille","lat":43.33717,"lon":5.391857,"is_reserved":false,"is_disabled":false,"rental_uris":{"android":"levelo://app?vid=2c92f10e-fa6e-4ddb-9530-d6f90043c9b5","ios":"levelo://app?vid=2c92f10e-fa6e-4ddb-9530-d6f90043c9b5"},"vehicle_type_id":"4","last_reported":1702551988,"current_range_meters":28800,"station_id":"ce4bhr92rcd13ifvqhsg","pricing_plan_id":"free"},{"bike_id":"6a0e3959-5c1c-4915-af23-f855ad339bdb","system_id":"levelo_inurba_marseille","lat":43.284793,"lon":5.384119,"is_reserved":false,"is_disabled":false,"rental_uris":{"android":"levelo://app?vid=6a0e3959-5c1c-4915-af23-f855ad339bdb","ios":"levelo://app?vid=6a0e3959-5c1c-4915-af23-f855ad339bdb"},"vehicle_type_id":"4","last_reported":1702551988,"current_range_meters":26800,"station_id":"ce4bh512rcd13ifvqe3g","pricing_plan_id":"free"},{"bike_id":"9af2be0b-184d-497d-8ebc-0f1b309cdcdc","system_id":"levelo_inurba_marseille","lat":43.283494,"lon":5.380945,"is_reserved":false,"is_disabled":false,"rental_uris":{"android":"levelo://app?vid=9af2be0b-184d-497d-8ebc-0f1b309cdcdc","ios":"levelo://app?vid=9af2be0b-184d-497d-8ebc-0f1b309cdcdc"},"vehicle_type_id":"4","last_reported":1702551988,"current_range_meters":10000,"station_id":"ce4bh412rcd13ifvqdr0","pricing_plan_id":"free"},{"bike_id":"91cd5c30-d67c-441a-bae1-35ff9c05725c","system_id":"levelo_inurba_marseille","lat":43.284217,"lon":5.349697,"is_reserved":false,"is_disabled":false,"rental_uris":{"android":"levelo://app?vid=91cd5c30-d67c-441a-bae1-35ff9c05725c","ios":"levelo://app?vid=91cd5c30-d67c-441a-bae1-35ff9c05725c"},"vehicle_type_id":"4","last_reported":1702551988,"current_range_meters":27200,"station_id":"ce4bhbh2rcd13ifvqepg","pricing_plan_id":"free"},{"bike_id":"517b10ef-3790-40ca-aeb4-c2a7c310a26a","system_id":"levelo_inurba_marseille","lat":43.283502,"lon":5.386471,"is_reserved":false,"is_disabled":false,"rental_uris":{"android":"levelo://app?vid=517b10ef-3790-40ca-aeb4-c2a7c310a26a","ios":"levelo://app?vid=517b10ef-3790-40ca-aeb4-c2a7c310a26a"},"vehicle_type_id":"4","last_reported":1702551988,"current_range_meters":17200,"station_id":"ce4bh492rcd13ifvqdvg","pricing_plan_id":"free"},{"bike_id":"6090e039-d2c7-424d-85e8-cfd8f21be97d","system_id":"levelo_inurba_marseille","lat":43.283502,"lon":5.386471,"is_reserved":false,"is_disabled":false,"rental_uris":{"android":"levelo://app?vid=6090e039-d2c7-424d-85e8-cfd8f21be97d","ios":"levelo://app?vid=6090e039-d2c7-424d-85e8-cfd8f21be97d"},"vehicle_type_id":"4","last_reported":1702551988,"current_range_meters":24000,"station_id":"ce4bh492rcd13ifvqdvg","pricing_plan_id":"free"},{"bike_id":"ec299351-50a2-4f19-840e-13a2e5e86ce2","system_id":"levelo_inurba_marseille","lat":43.281044,"lon":5.378308,"is_reserved":false,"is_disabled":false,"rental_uris":{"android":"levelo://app?vid=ec299351-50a2-4f19-840e-13a2e5e86ce2","ios":"levelo://app?vid=ec299351-50a2-4f19-840e-13a2e5e86ce2"},"vehicle_type_id":"4","last_reported":1702551988,"current_range_meters":1200,"station_id":"ce4bha12rcd13ifvqee0","pricing_plan_id":"free"},{"bike_id":"2851c1df-23c9-4a2b-905a-ef300c5165b2","system_id":"levelo_inurba_marseille","lat":43.29041,"lon":5.399634,"is_reserved":false,"is_disabled":false,"rental_uris":{"android":"levelo://app?vid=2851c1df-23c9-4a2b-905a-ef300c5165b2","ios":"levelo://app?vid=2851c1df-23c9-4a2b-905a-ef300c5165b2"},"vehicle_type_id":"4","last_reported":1702551988,"current_range_meters":15200,"station_id":"ce4bh392rcd13ifvqdm0","pricing_plan_id":"free"},{"bike_id":"1f25b588-453f-4d1d-9e00-d06ff9d70975","system_id":"levelo_inurba_marseille","lat":43.326605,"lon":5.409903,"is_reserved":false,"is_disabled":false,"rental_uris":{"android":"levelo://app?vid=1f25b588-453f-4d1d-9e00-d06ff9d70975","ios":"levelo://app?vid=1f25b588-453f-4d1d-9e00-d06ff9d70975"},"vehicle_type_id":"4","last_reported":1702551988,"current_range_meters":19600,"station_id":"ce4bhpp2rcd13ifvqhgg","pricing_plan_id":"free"},{"bike_id":"71a9ded1-b787-43be-99d2-13a4d2a48e00","system_id":"levelo_inurba_marseille","lat":43.279087,"lon":5.380114,"is_reserved":false,"is_disabled":false,"rental_uris":{"android":"levelo://app?vid=71a9ded1-b787-43be-99d2-13a4d2a48e00","ios":"levelo://app?vid=71a9ded1-b787-43be-99d2-13a4d2a48e00"},"vehicle_type_id":"4","last_reported":1702551988,"current_range_meters":26800,"station_id":"ce4bhf92rcd13ifvqf50","pricing_plan_id":"free"},{"bike_id":"31468838-9d92-4c2c-a5d2-e908342ffa24","system_id":"levelo_inurba_marseille","lat":43.275625,"lon":5.384392,"is_reserved":false,"is_disabled":false,"rental_uris":{"android":"levelo://app?vid=31468838-9d92-4c2c-a5d2-e908342ffa24","ios":"levelo://app?vid=31468838-9d92-4c2c-a5d2-e908342ffa24"},"vehicle_type_id":"4","last_reported":1702551988,"current_range_meters":22400,"station_id":"ce4bhh92rcd13ifvqfi0","pricing_plan_id":"free"},{"bike_id":"301b4436-6b58-4f72-934e-6369965ae6cf","system_id":"levelo_inurba_marseille","lat":43.276771,"lon":5.388799,"is_reserved":false,"is_disabled":false,"rental_uris":{"android":"levelo://app?vid=301b4436-6b58-4f72-934e-6369965ae6cf","ios":"levelo://app?vid=301b4436-6b58-4f72-934e-6369965ae6cf"},"vehicle_type_id":"4","last_reported":1702551988,"current_range_meters":23200,"station_id":"ce4bhi12rcd13ifvqfo0","pricing_plan_id":"free"},{"bike_id":"b247ed0a-4850-4260-b834-860ac593a91b","system_id":"levelo_inurba_marseille","lat":43.279975,"lon":5.40009,"is_reserved":false,"is_disabled":false,"rental_uris":{"android":"levelo://app?vid=b247ed0a-4850-4260-b834-860ac593a91b","ios":"levelo://app?vid=b247ed0a-4850-4260-b834-860ac593a91b"},"vehicle_type_id":"4","last_reported":1702551988,"current_range_meters":31200,"station_id":"ce4bho92rcd13ifvqh4g","pricing_plan_id":"free"},{"bike_id":"76da4408-ac97-408f-84ce-61ce9c9ceb78","system_id":"levelo_inurba_marseille","lat":43.279952,"lon":5.400085,"is_reserved":false,"is_disabled":false,"rental_uris":{"android":"levelo://app?vid=76da4408-ac97-408f-84ce-61ce9c9ceb78","ios":"levelo://app?vid=76da4408-ac97-408f-84ce-61ce9c9ceb78"},"vehicle_type_id":"4","last_reported":1702551988,"current_range_meters":28800,"station_id":"ce4bho92rcd13ifvqh4g","pricing_plan_id":"free"},{"bike_id":"55f8cf7b-a384-4860-b1f5-075034029351","system_id":"levelo_inurba_marseille","lat":43.31715,"lon":5.42399,"is_reserved":false,"is_disabled":false,"rental_uris":{"android":"levelo://app?vid=55f8cf7b-a384-4860-b1f5-075034029351","ios":"levelo://app?vid=55f8cf7b-a384-4860-b1f5-075034029351"},"vehicle_type_id":"4","last_reported":1702551988,"current_range_meters":21200,"station_id":"ce4bhp92rcd13ifvqhbg","pricing_plan_id":"free"},{"bike_id":"3ca2c2d2-99b0-4aa6-a05d-e30f02e6a7fb","system_id":"levelo_inurba_marseille","lat":43.27588,"lon":5.39495,"is_reserved":false,"is_disabled":false,"rental_uris":{"android":"levelo://app?vid=3ca2c2d2-99b0-4aa6-a05d-e30f02e6a7fb","ios":"levelo://app?vid=3ca2c2d2-99b0-4aa6-a05d-e30f02e6a7fb"},"vehicle_type_id":"4","last_reported":1702551988,"current_range_meters":10800,"station_id":"","pricing_plan_id":"free"},{"bike_id":"add5a893-8c2e-4470-8056-d96aa756baee","system_id":"levelo_inurba_marseille","lat":43.273125,"lon":5.390731,"is_reserved":false,"is_disabled":false,"rental_uris":{"android":"levelo://app?vid=add5a893-8c2e-4470-8056-d96aa756baee","ios":"levelo://app?vid=add5a893-8c2e-4470-8056-d96aa756baee"},"vehicle_type_id":"4","last_reported":1702551988,"current_range_meters":28000,"station_id":"ce4bhgp2rcd13ifvqfe0","pricing_plan_id":"free"},{"bike_id":"ce4ef713-5a04-4a85-b3be-e8870b0fed9e","system_id":"levelo_inurba_marseille","lat":43.295523,"lon":5.422926,"is_reserved":false,"is_disabled":false,"rental_uris":{"android":"levelo://app?vid=ce4ef713-5a04-4a85-b3be-e8870b0fed9e","ios":"levelo://app?vid=ce4ef713-5a04-4a85-b3be-e8870b0fed9e"},"vehicle_type_id":"4","last_reported":1702551988,"current_range_meters":22800,"station_id":"ce4bhph2rcd13ifvqhdg","pricing_plan_id":"free"},{"bike_id":"6449e1ff-a617-4be8-8210-091849262769","system_id":"levelo_inurba_marseille","lat":43.278128,"lon":5.407195,"is_reserved":false,"is_disabled":false,"rental_uris":{"android":"levelo://app?vid=6449e1ff-a617-4be8-8210-091849262769","ios":"levelo://app?vid=6449e1ff-a617-4be8-8210-091849262769"},"vehicle_type_id":"4","last_reported":1702551988,"current_range_meters":28400,"station_id":"ce4bhnh2rcd13ifvqgtg","pricing_plan_id":"free"},{"bike_id":"9ee2ba19-e221-4350-ba06-a0af7035b063","system_id":"levelo_inurba_marseille","lat":43.26681,"lon":5.382694,"is_reserved":false,"is_disabled":false,"rental_uris":{"android":"levelo://app?vid=9ee2ba19-e221-4350-ba06-a0af7035b063","ios":"levelo://app?vid=9ee2ba19-e221-4350-ba06-a0af7035b063"},"vehicle_type_id":"4","last_reported":1702551988,"current_range_meters":25200,"station_id":"ce4bhg92rcd13ifvqf90","pricing_plan_id":"free"},{"bike_id":"973b5e4d-38de-48af-a280-e58f2599a3d6","system_id":"levelo_inurba_marseille","lat":43.265714,"lon":5.372891,"is_reserved":false,"is_disabled":false,"rental_uris":{"android":"levelo://app?vid=973b5e4d-38de-48af-a280-e58f2599a3d6","ios":"levelo://app?vid=973b5e4d-38de-48af-a280-e58f2599a3d6"},"vehicle_type_id":"4","last_reported":1702551988,"current_range_meters":22400,"station_id":"ce4bhg12rcd13ifvqf70","pricing_plan_id":"free"},{"bike_id":"f7ba1bd1-0b64-4579-812f-07ee12780698","system_id":"levelo_inurba_marseille","lat":43.26554,"lon":5.37282,"is_reserved":false,"is_disabled":false,"rental_uris":{"android":"levelo://app?vid=f7ba1bd1-0b64-4579-812f-07ee12780698","ios":"levelo://app?vid=f7ba1bd1-0b64-4579-812f-07ee12780698"},"vehicle_type_id":"4","last_reported":1702551988,"current_range_meters":3600,"station_id":"ce4bhg12rcd13ifvqf70","pricing_plan_id":"free"},{"bike_id":"ae6278bf-716a-4e19-9821-fac4483e8758","system_id":"levelo_inurba_marseille","lat":43.27996,"lon":5.416624,"is_reserved":false,"is_disabled":false,"rental_uris":{"android":"levelo://app?vid=ae6278bf-716a-4e19-9821-fac4483e8758","ios":"levelo://app?vid=ae6278bf-716a-4e19-9821-fac4483e8758"},"vehicle_type_id":"4","last_reported":1702551988,"current_range_meters":26000,"station_id":"ce4bho12rcd13ifvqh1g","pricing_plan_id":"free"},{"bike_id":"a6d385b2-8cdf-48f8-90f9-c3e1054b94e0","system_id":"levelo_inurba_marseille","lat":43.267966,"lon":5.393976,"is_reserved":false,"is_disabled":false,"rental_uris":{"android":"levelo://app?vid=a6d385b2-8cdf-48f8-90f9-c3e1054b94e0","ios":"levelo://app?vid=a6d385b2-8cdf-48f8-90f9-c3e1054b94e0"},"vehicle_type_id":"4","last_reported":1702551988,"current_range_meters":23200,"station_id":"ce4bhh12rcd13ifvqfg0","pricing_plan_id":"free"},{"bike_id":"097a253b-da47-4e01-852a-1412cc7bf2d5","system_id":"levelo_inurba_marseille","lat":43.27996,"lon":5.416624,"is_reserved":false,"is_disabled":false,"rental_uris":{"android":"levelo://app?vid=097a253b-da47-4e01-852a-1412cc7bf2d5","ios":"levelo://app?vid=097a253b-da47-4e01-852a-1412cc7bf2d5"},"vehicle_type_id":"4","last_reported":1702551988,"current_range_meters":8400,"station_id":"ce4bho12rcd13ifvqh1g","pricing_plan_id":"free"},{"bike_id":"cb005592-38f4-431f-ab84-96deae7d62ad","system_id":"levelo_inurba_marseille","lat":43.26577,"lon":5.3901,"is_reserved":false,"is_disabled":false,"rental_uris":{"android":"levelo://app?vid=cb005592-38f4-431f-ab84-96deae7d62ad","ios":"levelo://app?vid=cb005592-38f4-431f-ab84-96deae7d62ad"},"vehicle_type_id":"4","last_reported":1702551988,"current_range_meters":17200,"station_id":"ce4bhe12rcd13ifvqf30","pricing_plan_id":"free"},{"bike_id":"245311a4-52f3-4dab-9992-3a38f707dba6","system_id":"levelo_inurba_marseille","lat":43.26567,"lon":5.39009,"is_reserved":false,"is_disabled":false,"rental_uris":{"android":"levelo://app?vid=245311a4-52f3-4dab-9992-3a38f707dba6","ios":"levelo://app?vid=245311a4-52f3-4dab-9992-3a38f707dba6"},"vehicle_type_id":"4","last_reported":1702551988,"current_range_meters":18800,"station_id":"ce4bhe12rcd13ifvqf30","pricing_plan_id":"free"},{"bike_id":"65dadbe2-7477-4b7f-b014-46e6128594d5","system_id":"levelo_inurba_marseille","lat":43.265571,"lon":5.390032,"is_reserved":false,"is_disabled":false,"rental_uris":{"android":"levelo://app?vid=65dadbe2-7477-4b7f-b014-46e6128594d5","ios":"levelo://app?vid=65dadbe2-7477-4b7f-b014-46e6128594d5"},"vehicle_type_id":"4","last_reported":1702551988,"current_range_meters":15200,"station_id":"ce4bhe12rcd13ifvqf30","pricing_plan_id":"free"},{"bike_id":"8e30cebd-1d3b-4915-8953-50dbaef6fce4","system_id":"levelo_inurba_marseille","lat":43.26949,"lon":5.40262,"is_reserved":false,"is_disabled":false,"rental_uris":{"android":"levelo://app?vid=8e30cebd-1d3b-4915-8953-50dbaef6fce4","ios":"levelo://app?vid=8e30cebd-1d3b-4915-8953-50dbaef6fce4"},"vehicle_type_id":"4","last_reported":1702551988,"current_range_meters":19600,"station_id":"cjm6bp8fraef2m0cb0m0","pricing_plan_id":"free"},{"bike_id":"d1d32a8f-6061-42f8-beac-ce290461e74b","system_id":"levelo_inurba_marseille","lat":43.271368,"lon":5.40928,"is_reserved":false,"is_disabled":false,"rental_uris":{"android":"levelo://app?vid=d1d32a8f-6061-42f8-beac-ce290461e74b","ios":"levelo://app?vid=d1d32a8f-6061-42f8-beac-ce290461e74b"},"vehicle_type_id":"4","last_reported":1702551988,"current_range_meters":24400,"station_id":"ce4bhl12rcd13ifvqgf0","pricing_plan_id":"free"},{"bike_id":"96dd960e-9e5f-4ba8-a693-12d87ec3b4a9","system_id":"levelo_inurba_marseille","lat":43.271388,"lon":5.409269,"is_reserved":false,"is_disabled":false,"rental_uris":{"android":"levelo://app?vid=96dd960e-9e5f-4ba8-a693-12d87ec3b4a9","ios":"levelo://app?vid=96dd960e-9e5f-4ba8-a693-12d87ec3b4a9"},"vehicle_type_id":"4","last_reported":1702551988,"current_range_meters":31200,"station_id":"ce4bhl12rcd13ifvqgf0","pricing_plan_id":"free"},{"bike_id":"293b0fd3-65b1-42bb-807b-a77a51ee2260","system_id":"levelo_inurba_marseille","lat":43.271388,"lon":5.409269,"is_reserved":false,"is_disabled":false,"rental_uris":{"android":"levelo://app?vid=293b0fd3-65b1-42bb-807b-a77a51ee2260","ios":"levelo://app?vid=293b0fd3-65b1-42bb-807b-a77a51ee2260"},"vehicle_type_id":"4","last_reported":1702551988,"current_range_meters":30400,"station_id":"ce4bhl12rcd13ifvqgf0","pricing_plan_id":"free"},{"bike_id":"3c0fb327-530e-4804-9292-a3e2517c081d","system_id":"levelo_inurba_marseille","lat":43.271368,"lon":5.40928,"is_reserved":false,"is_disabled":false,"rental_uris":{"android":"levelo://app?vid=3c0fb327-530e-4804-9292-a3e2517c081d","ios":"levelo://app?vid=3c0fb327-530e-4804-9292-a3e2517c081d"},"vehicle_type_id":"4","last_reported":1702551988,"current_range_meters":18000,"station_id":"ce4bhl12rcd13ifvqgf0","pricing_plan_id":"free"},{"bike_id":"7d5f7346-2fb8-4a87-8aa5-074b5a79ac77","system_id":"levelo_inurba_marseille","lat":43.271368,"lon":5.40928,"is_reserved":false,"is_disabled":false,"rental_uris":{"android":"levelo://app?vid=7d5f7346-2fb8-4a87-8aa5-074b5a79ac77","ios":"levelo://app?vid=7d5f7346-2fb8-4a87-8aa5-074b5a79ac77"},"vehicle_type_id":"4","last_reported":1702551988,"current_range_meters":28000,"station_id":"ce4bhl12rcd13ifvqgf0","pricing_plan_id":"free"},{"bike_id":"c1a8efc5-2e3d-49d0-904c-c79a29112631","system_id":"levelo_inurba_marseille","lat":43.26202,"lon":5.379299,"is_reserved":false,"is_disabled":false,"rental_uris":{"android":"levelo://app?vid=c1a8efc5-2e3d-49d0-904c-c79a29112631","ios":"levelo://app?vid=c1a8efc5-2e3d-49d0-904c-c79a29112631"},"vehicle_type_id":"4","last_reported":1702551988,"current_range_meters":31200,"station_id":"ce4bhjp2rcd13ifvqg90","pricing_plan_id":"free"},{"bike_id":"81a6f7c7-e876-4da9-9acc-cd51e761bff2","system_id":"levelo_inurba_marseille","lat":43.267959,"lon":5.402687,"is_reserved":false,"is_disabled":false,"rental_uris":{"android":"levelo://app?vid=81a6f7c7-e876-4da9-9acc-cd51e761bff2","ios":"levelo://app?vid=81a6f7c7-e876-4da9-9acc-cd51e761bff2"},"vehicle_type_id":"4","last_reported":1702551988,"current_range_meters":14800,"station_id":"ce501612rcd8frsf0b60","pricing_plan_id":"free"},{"bike_id":"96ba9d10-482b-4b54-ba33-7a67558f4e06","system_id":"levelo_inurba_marseille","lat":43.264991,"lon":5.395354,"is_reserved":false,"is_disabled":false,"rental_uris":{"android":"levelo://app?vid=96ba9d10-482b-4b54-ba33-7a67558f4e06","ios":"levelo://app?vid=96ba9d10-482b-4b54-ba33-7a67558f4e06"},"vehicle_type_id":"4","last_reported":1702551988,"current_range_meters":15200,"station_id":"","pricing_plan_id":"free"},{"bike_id":"38a4a3ac-b01c-43e0-abb4-5a012521fc8c","system_id":"levelo_inurba_marseille","lat":43.298768,"lon":5.43643,"is_reserved":false,"is_disabled":false,"rental_uris":{"android":"levelo://app?vid=38a4a3ac-b01c-43e0-abb4-5a012521fc8c","ios":"levelo://app?vid=38a4a3ac-b01c-43e0-abb4-5a012521fc8c"},"vehicle_type_id":"4","last_reported":1702551988,"current_range_meters":30800,"station_id":"ce4bhpp2rcd13ifvqhfg","pricing_plan_id":"free"},{"bike_id":"9f0d14c4-70a6-4f28-8c0f-a768d3a644f7","system_id":"levelo_inurba_marseille","lat":43.260225,"lon":5.375455,"is_reserved":false,"is_disabled":false,"rental_uris":{"android":"levelo://app?vid=9f0d14c4-70a6-4f28-8c0f-a768d3a644f7","ios":"levelo://app?vid=9f0d14c4-70a6-4f28-8c0f-a768d3a644f7"},"vehicle_type_id":"4","last_reported":1702551988,"current_range_meters":13600,"station_id":"ce4bhgh2rcd13ifvqfa0","pricing_plan_id":"free"},{"bike_id":"77b2a286-354b-40cc-be5e-9ae26145de61","system_id":"levelo_inurba_marseille","lat":43.28153,"lon":5.42647,"is_reserved":false,"is_disabled":false,"rental_uris":{"android":"levelo://app?vid=77b2a286-354b-40cc-be5e-9ae26145de61","ios":"levelo://app?vid=77b2a286-354b-40cc-be5e-9ae26145de61"},"vehicle_type_id":"4","last_reported":1702551988,"current_range_meters":22800,"station_id":"ce4bhnh2rcd13ifvqgug","pricing_plan_id":"free"},{"bike_id":"6c291e9b-d89d-44c2-a954-65d77e5af433","system_id":"levelo_inurba_marseille","lat":43.281548,"lon":5.42643,"is_reserved":false,"is_disabled":false,"rental_uris":{"android":"levelo://app?vid=6c291e9b-d89d-44c2-a954-65d77e5af433","ios":"levelo://app?vid=6c291e9b-d89d-44c2-a954-65d77e5af433"},"vehicle_type_id":"4","last_reported":1702551988,"current_range_meters":22000,"station_id":"ce4bhnh2rcd13ifvqgug","pricing_plan_id":"free"},{"bike_id":"e9ebb918-c38e-461b-b1a2-1b26ed9053cb","system_id":"levelo_inurba_marseille","lat":43.27488,"lon":5.42458,"is_reserved":false,"is_disabled":false,"rental_uris":{"android":"levelo://app?vid=e9ebb918-c38e-461b-b1a2-1b26ed9053cb","ios":"levelo://app?vid=e9ebb918-c38e-461b-b1a2-1b26ed9053cb"},"vehicle_type_id":"4","last_reported":1702551988,"current_range_meters":8800,"station_id":"ce4bhn92rcd13ifvqgrg","pricing_plan_id":"free"},{"bike_id":"20e2eeed-0b00-48de-a845-977035bd5de1","system_id":"levelo_inurba_marseille","lat":43.25582,"lon":5.38228,"is_reserved":false,"is_disabled":false,"rental_uris":{"android":"levelo://app?vid=20e2eeed-0b00-48de-a845-977035bd5de1","ios":"levelo://app?vid=20e2eeed-0b00-48de-a845-977035bd5de1"},"vehicle_type_id":"4","last_reported":1702551988,"current_range_meters":8000,"station_id":"ce4bhih2rcd13ifvqfs0","pricing_plan_id":"free"},{"bike_id":"b6684eb6-42db-49c6-acdd-10132acf1f69","system_id":"levelo_inurba_marseille","lat":43.25582,"lon":5.38239,"is_reserved":false,"is_disabled":false,"rental_uris":{"android":"levelo://app?vid=b6684eb6-42db-49c6-acdd-10132acf1f69","ios":"levelo://app?vid=b6684eb6-42db-49c6-acdd-10132acf1f69"},"vehicle_type_id":"4","last_reported":1702551988,"current_range_meters":17600,"station_id":"ce4bhih2rcd13ifvqfs0","pricing_plan_id":"free"},{"bike_id":"8196ce98-9699-47f4-914f-236c98cf2440","system_id":"levelo_inurba_marseille","lat":43.254947,"lon":5.376454,"is_reserved":false,"is_disabled":false,"rental_uris":{"android":"levelo://app?vid=8196ce98-9699-47f4-914f-236c98cf2440","ios":"levelo://app?vid=8196ce98-9699-47f4-914f-236c98cf2440"},"vehicle_type_id":"4","last_reported":1702551988,"current_range_meters":30000,"station_id":"ce4bhh12rcd13ifvqff0","pricing_plan_id":"free"},{"bike_id":"dcd474fc-fa65-466b-8d04-28e140a15b36","system_id":"levelo_inurba_marseille","lat":43.258658,"lon":5.398935,"is_reserved":false,"is_disabled":false,"rental_uris":{"android":"levelo://app?vid=dcd474fc-fa65-466b-8d04-28e140a15b36","ios":"levelo://app?vid=dcd474fc-fa65-466b-8d04-28e140a15b36"},"vehicle_type_id":"4","last_reported":1702551988,"current_range_meters":27200,"station_id":"ce4bhl92rcd13ifvqghg","pricing_plan_id":"free"},{"bike_id":"e7837494-a45a-4524-b894-6c2393a131ff","system_id":"levelo_inurba_marseille","lat":43.258658,"lon":5.398935,"is_reserved":false,"is_disabled":false,"rental_uris":{"android":"levelo://app?vid=e7837494-a45a-4524-b894-6c2393a131ff","ios":"levelo://app?vid=e7837494-a45a-4524-b894-6c2393a131ff"},"vehicle_type_id":"4","last_reported":1702551988,"current_range_meters":20800,"station_id":"ce4bhl92rcd13ifvqghg","pricing_plan_id":"free"},{"bike_id":"9e26352a-23fd-49f3-8864-54f8c14248a4","system_id":"levelo_inurba_marseille","lat":43.250023,"lon":5.38919,"is_reserved":false,"is_disabled":false,"rental_uris":{"android":"levelo://app?vid=9e26352a-23fd-49f3-8864-54f8c14248a4","ios":"levelo://app?vid=9e26352a-23fd-49f3-8864-54f8c14248a4"},"vehicle_type_id":"4","last_reported":1702551988,"current_range_meters":13600,"station_id":"ce4bhgp2rcd13ifvqfd0","pricing_plan_id":"free"},{"bike_id":"19d9b9ef-2dd2-43fc-931d-065a383ff580","system_id":"levelo_inurba_marseille","lat":43.250023,"lon":5.38919,"is_reserved":false,"is_disabled":false,"rental_uris":{"android":"levelo://app?vid=19d9b9ef-2dd2-43fc-931d-065a383ff580","ios":"levelo://app?vid=19d9b9ef-2dd2-43fc-931d-065a383ff580"},"vehicle_type_id":"4","last_reported":1702551988,"current_range_meters":29600,"station_id":"ce4bhgp2rcd13ifvqfd0","pricing_plan_id":"free"},{"bike_id":"5df306f0-6c4c-4d4f-a5df-785fbc76a77f","system_id":"levelo_inurba_marseille","lat":43.250023,"lon":5.38919,"is_reserved":false,"is_disabled":false,"rental_uris":{"android":"levelo://app?vid=5df306f0-6c4c-4d4f-a5df-785fbc76a77f","ios":"levelo://app?vid=5df306f0-6c4c-4d4f-a5df-785fbc76a77f"},"vehicle_type_id":"4","last_reported":1702551988,"current_range_meters":26000,"station_id":"ce4bhgp2rcd13ifvqfd0","pricing_plan_id":"free"},{"bike_id":"a43ea9e9-96d9-40ea-8b56-bed80959eb8a","system_id":"levelo_inurba_marseille","lat":43.2479,"lon":5.374457,"is_reserved":false,"is_disabled":false,"rental_uris":{"android":"levelo://app?vid=a43ea9e9-96d9-40ea-8b56-bed80959eb8a","ios":"levelo://app?vid=a43ea9e9-96d9-40ea-8b56-bed80959eb8a"},"vehicle_type_id":"4","last_reported":1702551988,"current_range_meters":30000,"station_id":"ce4bhgh2rcd13ifvqfb0","pricing_plan_id":"free"},{"bike_id":"5301bbb4-6ed7-4d3e-a1c2-7bed95ae2af0","system_id":"levelo_inurba_marseille","lat":43.2479,"lon":5.374457,"is_reserved":false,"is_disabled":false,"rental_uris":{"android":"levelo://app?vid=5301bbb4-6ed7-4d3e-a1c2-7bed95ae2af0","ios":"levelo://app?vid=5301bbb4-6ed7-4d3e-a1c2-7bed95ae2af0"},"vehicle_type_id":"4","last_reported":1702551988,"current_range_meters":0,"station_id":"ce4bhgh2rcd13ifvqfb0","pricing_plan_id":"free"},{"bike_id":"921c24bb-24a2-4cf0-a4be-de99c76b1499","system_id":"levelo_inurba_marseille","lat":43.2479,"lon":5.374457,"is_reserved":false,"is_disabled":false,"rental_uris":{"android":"levelo://app?vid=921c24bb-24a2-4cf0-a4be-de99c76b1499","ios":"levelo://app?vid=921c24bb-24a2-4cf0-a4be-de99c76b1499"},"vehicle_type_id":"4","last_reported":1702551988,"current_range_meters":26000,"station_id":"ce4bhgh2rcd13ifvqfb0","pricing_plan_id":"free"},{"bike_id":"b3778f4b-17a5-414d-a355-5d6709a05873","system_id":"levelo_inurba_marseille","lat":43.24803,"lon":5.38211,"is_reserved":false,"is_disabled":false,"rental_uris":{"android":"levelo://app?vid=b3778f4b-17a5-414d-a355-5d6709a05873","ios":"levelo://app?vid=b3778f4b-17a5-414d-a355-5d6709a05873"},"vehicle_type_id":"4","last_reported":1702551988,"current_range_meters":21200,"station_id":"","pricing_plan_id":"free"},{"bike_id":"39e5cddd-4c40-4512-aadc-9af9b554a6e5","system_id":"levelo_inurba_marseille","lat":43.25102,"lon":5.403214,"is_reserved":false,"is_disabled":false,"rental_uris":{"android":"levelo://app?vid=39e5cddd-4c40-4512-aadc-9af9b554a6e5","ios":"levelo://app?vid=39e5cddd-4c40-4512-aadc-9af9b554a6e5"},"vehicle_type_id":"4","last_reported":1702551988,"current_range_meters":25200,"station_id":"ce4bhlh2rcd13ifvqgig","pricing_plan_id":"free"},{"bike_id":"9abe0036-e77a-4443-a894-112b24232a08","system_id":"levelo_inurba_marseille","lat":43.25102,"lon":5.403214,"is_reserved":false,"is_disabled":false,"rental_uris":{"android":"levelo://app?vid=9abe0036-e77a-4443-a894-112b24232a08","ios":"levelo://app?vid=9abe0036-e77a-4443-a894-112b24232a08"},"vehicle_type_id":"4","last_reported":1702551988,"current_range_meters":10800,"station_id":"ce4bhlh2rcd13ifvqgig","pricing_plan_id":"free"},{"bike_id":"99416ee2-4d02-4ca9-9413-f1ebc361a373","system_id":"levelo_inurba_marseille","lat":43.245581,"lon":5.395069,"is_reserved":false,"is_disabled":false,"rental_uris":{"android":"levelo://app?vid=99416ee2-4d02-4ca9-9413-f1ebc361a373","ios":"levelo://app?vid=99416ee2-4d02-4ca9-9413-f1ebc361a373"},"vehicle_type_id":"4","last_reported":1702551988,"current_range_meters":21200,"station_id":"ce4bhlp2rcd13ifvqgjg","pricing_plan_id":"free"},{"bike_id":"ee40f195-e1e3-4db2-86f3-5750704ca69c","system_id":"levelo_inurba_marseille","lat":43.245581,"lon":5.395069,"is_reserved":false,"is_disabled":false,"rental_uris":{"android":"levelo://app?vid=ee40f195-e1e3-4db2-86f3-5750704ca69c","ios":"levelo://app?vid=ee40f195-e1e3-4db2-86f3-5750704ca69c"},"vehicle_type_id":"4","last_reported":1702551988,"current_range_meters":18800,"station_id":"ce4bhlp2rcd13ifvqgjg","pricing_plan_id":"free"},{"bike_id":"40f07d53-9cd1-446d-90bc-1407182a05c7","system_id":"levelo_inurba_marseille","lat":43.245581,"lon":5.395069,"is_reserved":false,"is_disabled":false,"rental_uris":{"android":"levelo://app?vid=40f07d53-9cd1-446d-90bc-1407182a05c7","ios":"levelo://app?vid=40f07d53-9cd1-446d-90bc-1407182a05c7"},"vehicle_type_id":"4","last_reported":1702551988,"current_range_meters":30400,"station_id":"ce4bhlp2rcd13ifvqgjg","pricing_plan_id":"free"},{"bike_id":"e38e9900-7f6a-498a-9915-2a1e73258f9e","system_id":"levelo_inurba_marseille","lat":43.23962,"lon":5.36636,"is_reserved":false,"is_disabled":false,"rental_uris":{"android":"levelo://app?vid=e38e9900-7f6a-498a-9915-2a1e73258f9e","ios":"levelo://app?vid=e38e9900-7f6a-498a-9915-2a1e73258f9e"},"vehicle_type_id":"4","last_reported":1702551988,"current_range_meters":14800,"station_id":"ce4bhi12rcd13ifvqfp0","pricing_plan_id":"free"},{"bike_id":"3a814a24-07d8-4e6f-9e30-e43634a525e4","system_id":"levelo_inurba_marseille","lat":43.23961,"lon":5.36638,"is_reserved":false,"is_disabled":false,"rental_uris":{"android":"levelo://app?vid=3a814a24-07d8-4e6f-9e30-e43634a525e4","ios":"levelo://app?vid=3a814a24-07d8-4e6f-9e30-e43634a525e4"},"vehicle_type_id":"4","last_reported":1702551988,"current_range_meters":7200,"station_id":"ce4bhi12rcd13ifvqfp0","pricing_plan_id":"free"},{"bike_id":"3b8d5fcd-8f99-47b2-a788-b7236d49b7ad","system_id":"levelo_inurba_marseille","lat":43.241782,"lon":5.397261,"is_reserved":false,"is_disabled":false,"rental_uris":{"android":"levelo://app?vid=3b8d5fcd-8f99-47b2-a788-b7236d49b7ad","ios":"levelo://app?vid=3b8d5fcd-8f99-47b2-a788-b7236d49b7ad"},"vehicle_type_id":"4","last_reported":1702551988,"current_range_meters":28400,"station_id":"ce4bhn12rcd13ifvqgpg","pricing_plan_id":"free"},{"bike_id":"065ae836-be92-4fe9-a603-2b3cc8022284","system_id":"levelo_inurba_marseille","lat":43.241782,"lon":5.397261,"is_reserved":false,"is_disabled":false,"rental_uris":{"android":"levelo://app?vid=065ae836-be92-4fe9-a603-2b3cc8022284","ios":"levelo://app?vid=065ae836-be92-4fe9-a603-2b3cc8022284"},"vehicle_type_id":"4","last_reported":1702551988,"current_range_meters":25200,"station_id":"ce4bhn12rcd13ifvqgpg","pricing_plan_id":"free"},{"bike_id":"ecd6c5bf-322c-46e7-bfe6-98e71f9148ac","system_id":"levelo_inurba_marseille","lat":43.241782,"lon":5.397261,"is_reserved":false,"is_disabled":false,"rental_uris":{"android":"levelo://app?vid=ecd6c5bf-322c-46e7-bfe6-98e71f9148ac","ios":"levelo://app?vid=ecd6c5bf-322c-46e7-bfe6-98e71f9148ac"},"vehicle_type_id":"4","last_reported":1702551988,"current_range_meters":21600,"station_id":"ce4bhn12rcd13ifvqgpg","pricing_plan_id":"free"},{"bike_id":"46e85755-7f44-4770-9e69-88e3e5d2d0d4","system_id":"levelo_inurba_marseille","lat":43.231794,"lon":5.400052,"is_reserved":false,"is_disabled":false,"rental_uris":{"android":"levelo://app?vid=46e85755-7f44-4770-9e69-88e3e5d2d0d4","ios":"levelo://app?vid=46e85755-7f44-4770-9e69-88e3e5d2d0d4"},"vehicle_type_id":"4","last_reported":1702551988,"current_range_meters":17600,"station_id":"ce4bhn12rcd13ifvqgqg","pricing_plan_id":"free"},{"bike_id":"1e83289b-6bab-48ae-8f5b-498ecf95fc11","system_id":"levelo_inurba_marseille","lat":43.231794,"lon":5.400052,"is_reserved":false,"is_disabled":false,"rental_uris":{"android":"levelo://app?vid=1e83289b-6bab-48ae-8f5b-498ecf95fc11","ios":"levelo://app?vid=1e83289b-6bab-48ae-8f5b-498ecf95fc11"},"vehicle_type_id":"4","last_reported":1702551988,"current_range_meters":20800,"station_id":"ce4bhn12rcd13ifvqgqg","pricing_plan_id":"free"},{"bike_id":"5d66a1e1-407e-43b7-8a1f-b43437a90341","system_id":"levelo_inurba_marseille","lat":43.231794,"lon":5.400052,"is_reserved":false,"is_disabled":false,"rental_uris":{"android":"levelo://app?vid=5d66a1e1-407e-43b7-8a1f-b43437a90341","ios":"levelo://app?vid=5d66a1e1-407e-43b7-8a1f-b43437a90341"},"vehicle_type_id":"4","last_reported":1702551988,"current_range_meters":31600,"station_id":"ce4bhn12rcd13ifvqgqg","pricing_plan_id":"free"},{"bike_id":"1ad64d7a-9f94-42c8-8c31-dd9aed00b79b","system_id":"levelo_inurba_marseille","lat":43.23184,"lon":5.3999,"is_reserved":false,"is_disabled":false,"rental_uris":{"android":"levelo://app?vid=1ad64d7a-9f94-42c8-8c31-dd9aed00b79b","ios":"levelo://app?vid=1ad64d7a-9f94-42c8-8c31-dd9aed00b79b"},"vehicle_type_id":"4","last_reported":1702551988,"current_range_meters":19600,"station_id":"ce4bhn12rcd13ifvqgqg","pricing_plan_id":"free"},{"bike_id":"2bfd76a0-1e79-4241-ad52-f5a596eddc26","system_id":"levelo_inurba_marseille","lat":43.231562,"lon":5.436933,"is_reserved":false,"is_disabled":false,"rental_uris":{"android":"levelo://app?vid=2bfd76a0-1e79-4241-ad52-f5a596eddc26","ios":"levelo://app?vid=2bfd76a0-1e79-4241-ad52-f5a596eddc26"},"vehicle_type_id":"4","last_reported":1702551988,"current_range_meters":28800,"station_id":"ce4bhmp2rcd13ifvqgog","pricing_plan_id":"free"},{"bike_id":"750f3e7f-b07c-4539-bbd5-e2a1a8ef1403","system_id":"levelo_inurba_marseille","lat":43.231533,"lon":5.437159,"is_reserved":false,"is_disabled":false,"rental_uris":{"android":"levelo://app?vid=750f3e7f-b07c-4539-bbd5-e2a1a8ef1403","ios":"levelo://app?vid=750f3e7f-b07c-4539-bbd5-e2a1a8ef1403"},"vehicle_type_id":"4","last_reported":1702551988,"current_range_meters":14400,"station_id":"ce4bhmp2rcd13ifvqgog","pricing_plan_id":"free"}]}}