{"last_updated":1747231841,"ttl":60,"version":"2.2","data":{"bikes":[{"bike_id":"c0b9fd4f-e181-46ce-b0bf-f5119973334f","system_id":"levelo_inurba_marseille","lat":43.33771,"lon":5.37424,"is_reserved":false,"is_disabled":false,"rental_uris":{"android":"levelo://app?vid=c0b9fd4f-e181-46ce-b0bf-f5119973334f","ios":"levelo://app?vid=c0b9fd4f-e181-46ce-b0bf-f5119973334f"},"vehicle_type_id":"4","last_reported":1747231841,"current_range_meters":18800,"station_id":"","pricing_plan_id":"cebpf4jnsgd1na2vs0mg"},{"bike_id":"3fae8334-a9d0-4ed3-aa20-0276813b60f6","system_id":"levelo_inurba_marseille","lat":43.26835,"lon":5.38453,"is_reserved":false,"is_disabled":true,"rental_uris":{"android":"levelo://app?vid=3fae8334-a9d0-4ed3-aa20-0276813b60f6","ios":"levelo://app?vid=3fae8334-a9d0-4ed3-aa20-0276813b60f6"},"vehicle_type_id":"4","last_reported":1747231841,"current_range_meters":0,"station_id":"","pricing_plan_id":"cebpf4jnsgd1na2vs0mg"},{"bike_id":"fc2577e7-1497-425b-9d4f-ab8d7dc843c6","system_id":"levelo_inurba_marseille","lat":43.33771,"lon":5.37485,"is_reserved":false,"is_disabled":true,"rental_uris":{"android":"levelo://app?vid=fc2577e7-1497-425b-9d4f-ab8d7dc843c6","ios":"levelo://app?vid=fc2577e7-1497-425b-9d4f-ab8d7dc843c6"},"vehicle_type_id":"4","last_reported":1747231841,"current_range_meters":0,"station_id":"","pricing_plan_id":"cebpf4jnsgd1na2vs0mg"},{"bike_id":"bce6dd6c-5f15-4ae5-8f21-e71db397b253","system_id":"levelo_inurba_marseille","lat":43.305465,"lon":5.365433,"is_reserved":false,"is_disabled":true,"rental_uris":{"android":"levelo://app?vid=bce6dd6c-5f15-4ae5-8f21-e71db397b253","ios":"levelo://app?vid=bce6dd6c-5f15-4ae5-8f21-e71db397b253"},"vehicle_type_id":"4","last_reported":1747231841,"current_range_meters":0,"station_id":"","pricing_plan_id":"cebpf4jnsgd1na2vs0mg"},{"bike_id":"6347b4a4-5dba-428e-b8ac-9084a2f0a08b","system_id":"levelo_inurba_marseille","lat":43.30786,"lon":5.37255,"is_reserved":false,"is_disabled":true,"rental_uris":{"android":"levelo://app?vid=6347b4a4-5dba-428e-b8ac-9084a2f0a08b","ios":"levelo://app?vid=6347b4a4-5dba-428e-b8ac-9084a2f0a08b"},"vehicle_type_id":"4","last_reported":1747231841,"current_range_meters":0,"station_id":"","pricing_plan_id":"cebpf4jnsgd1na2vs0mg"},{"bike_id":"0fedde00-40eb-40d2-8fc2-e61ecce46b7b","system_id":"levelo_inurba_marseille","lat":43.28294,"lon":5.43204,"is_reserved":false,"is_disabled":true,"rental_uris":{"android":"levelo://app?vid=0fedde00-40eb-40d2-8fc2-e61ecce46b7b","ios":"levelo://app?vid=0fedde00-40eb-40d2-8fc2-e61ecce46b7b"},"vehicle_type_id":"4","last_reported":1747231841,"current_range_meters":0,"station_id":"","pricing_plan_id":"cebpf4jnsgd1na2vs0mg"},{"bike_id":"16e98c4e-da7f-4160-a41d-37f546e0efaa","system_id":"levelo_inurba_marseille","lat":43.29567,"lon":5.3621,"is_reserved":false,"is_disabled":true,"rental_uris":{"android":"levelo://app?vid=16e98c4e-da7f-4160-a41d-37f546e0efaa","ios":"levelo://app?vid=16e98c4e-da7f-4160-a41d-37f546e0efaa"},"vehicle_type_id":"4","last_reported":1747231841,"current_range_meters":0,"station_id":"","pricing_plan_id":"cebpf4jnsgd1na2vs0mg"},{"bike_id":"792567c6-0442-4011-aff0-9c05e25deb48","system_id":"levelo_inurba_marseille","lat":43.28071,"lon":5.44168,"is_reserved":false,"is_disabled":true,"rental_uris":{"android":"levelo://app?vid=792567c6-0442-4011-aff0-9c05e25deb48","ios":"levelo://app?vid=792567c6-0442-4011-aff0-9c05e25deb48"},"vehicle_type_id":"4","last_reported":1747231841,"current_range_meters":0,"station_id":"","pricing_plan_id":"cebpf4jnsgd1na2vs0mg"},{"bike_id":"e8bae715-5c54-47e1-99f4-ad65f4ca3a61","system_id":"levelo_inurba_marseille","lat":43.295715,"lon":5.375247,"is_reserved":false,"is_disabled":false,"rental_uris":{"android":"levelo://app?vid=e8bae715-5c54-47e1-99f4-ad65f4ca3a61","ios":"levelo://app?vid=e8bae715-5c54-47e1-99f4-ad65f4ca3a61"},"vehicle_type_id":"4","last_reported":1747231841,"current_range_meters":0,"station_id":"ce4bgh92rcd13ifvqb50","pricing_plan_id":"cebpf4jnsgd1na2vs0mg"},{"bike_id":"f0a49a95-3732-41af-9316-4c7a479b49b8","system_id":"levelo_inurba_marseille","lat":43.29371,"lon":5.37843,"is_reserved":false,"is_disabled":true,"rental_uris":{"android":"levelo://app?vid=f0a49a95-3732-41af-9316-4c7a479b49b8","ios":"levelo://app?vid=f0a49a95-3732-41af-9316-4c7a479b49b8"},"vehicle_type_id":"4","last_reported":1747231841,"current_range_meters":0,"station_id":"ce4bgjh2rcd13ifvqbf0","pricing_plan_id":"cebpf4jnsgd1na2vs0mg"},{"bike_id":"f60a245c-57ce-4b10-ae93-649bdf1e3cdb","system_id":"levelo_inurba_marseille","lat":43.3044,"lon":5.39749,"is_reserved":false,"is_disabled":true,"rental_uris":{"android":"levelo://app?vid=f60a245c-57ce-4b10-ae93-649bdf1e3cdb","ios":"levelo://app?vid=f60a245c-57ce-4b10-ae93-649bdf1e3cdb"},"vehicle_type_id":"4","last_reported":1747231841,"current_range_meters":0,"station_id":"ce4bh092rcd13ifvqd20","pricing_plan_id":"cebpf4jnsgd1na2vs0mg"},{"bike_id":"9c4de7ba-913a-4938-8774-b7e353831566","system_id":"levelo_inurba_marseille","lat":43.30598,"lon":5.39363,"is_reserved":false,"is_disabled":true,"rental_uris":{"android":"levelo://app?vid=9c4de7ba-913a-4938-8774-b7e353831566","ios":"levelo://app?vid=9c4de7ba-913a-4938-8774-b7e353831566"},"vehicle_type_id":"4","last_reported":1747231841,"current_range_meters":0,"station_id":"ce4bh0p2rcd13ifvqd80","pricing_plan_id":"cebpf4jnsgd1na2vs0mg"},{"bike_id":"53248056-3298-43c7-86ca-8a7abee6461d","system_id":"levelo_inurba_marseille","lat":43.29524,"lon":5.394,"is_reserved":false,"is_disabled":true,"rental_uris":{"android":"levelo://app?vid=53248056-3298-43c7-86ca-8a7abee6461d","ios":"levelo://app?vid=53248056-3298-43c7-86ca-8a7abee6461d"},"vehicle_type_id":"4","last_reported":1747231841,"current_range_meters":0,"station_id":"ce4bh292rcd13ifvqdf0","pricing_plan_id":"cebpf4jnsgd1na2vs0mg"},{"bike_id":"c465d145-3b6a-40ad-a2d9-396664be2891","system_id":"levelo_inurba_marseille","lat":43.28465,"lon":5.3589,"is_reserved":false,"is_disabled":true,"rental_uris":{"android":"levelo://app?vid=c465d145-3b6a-40ad-a2d9-396664be2891","ios":"levelo://app?vid=c465d145-3b6a-40ad-a2d9-396664be2891"},"vehicle_type_id":"4","last_reported":1747231841,"current_range_meters":0,"station_id":"ce4bhah2rcd13ifvqei0","pricing_plan_id":"cebpf4jnsgd1na2vs0mg"},{"bike_id":"49513294-ccea-499d-b001-7df97fc96be7","system_id":"levelo_inurba_marseille","lat":43.27373,"lon":5.36257,"is_reserved":false,"is_disabled":true,"rental_uris":{"android":"levelo://app?vid=49513294-ccea-499d-b001-7df97fc96be7","ios":"levelo://app?vid=49513294-ccea-499d-b001-7df97fc96be7"},"vehicle_type_id":"4","last_reported":1747231841,"current_range_meters":0,"station_id":"ce4bhbh2rcd13ifvqeo0","pricing_plan_id":"cebpf4jnsgd1na2vs0mg"},{"bike_id":"b565f841-0f11-48b7-b746-11c4eb43b83d","system_id":"levelo_inurba_marseille","lat":43.27376,"lon":5.36256,"is_reserved":false,"is_disabled":true,"rental_uris":{"android":"levelo://app?vid=b565f841-0f11-48b7-b746-11c4eb43b83d","ios":"levelo://app?vid=b565f841-0f11-48b7-b746-11c4eb43b83d"},"vehicle_type_id":"4","last_reported":1747231841,"current_range_meters":0,"station_id":"ce4bhbh2rcd13ifvqeo0","pricing_plan_id":"cebpf4jnsgd1na2vs0mg"},{"bike_id":"7f2294db-8a9e-40fc-9c29-f50e7c4666df","system_id":"levelo_inurba_marseille","lat":43.27922,"lon":5.39577,"is_reserved":false,"is_disabled":true,"rental_uris":{"android":"levelo://app?vid=7f2294db-8a9e-40fc-9c29-f50e7c4666df","ios":"levelo://app?vid=7f2294db-8a9e-40fc-9c29-f50e7c4666df"},"vehicle_type_id":"4","last_reported":1747231841,"current_range_meters":0,"station_id":"ce4bhf92rcd13ifvqf40","pricing_plan_id":"cebpf4jnsgd1na2vs0mg"},{"bike_id":"f3fd69d4-efb4-47cf-98ad-2a450a9fc845","system_id":"levelo_inurba_marseille","lat":43.27951,"lon":5.38712,"is_reserved":false,"is_disabled":true,"rental_uris":{"android":"levelo://app?vid=f3fd69d4-efb4-47cf-98ad-2a450a9fc845","ios":"levelo://app?vid=f3fd69d4-efb4-47cf-98ad-2a450a9fc845"},"vehicle_type_id":"4","last_reported":1747231841,"current_range_meters":0,"station_id":"ce4bhg12rcd13ifvqf80","pricing_plan_id":"cebpf4jnsgd1na2vs0mg"},{"bike_id":"1bd120ab-991a-4293-bb2f-ced1d0b0de2c","system_id":"levelo_inurba_marseille","lat":43.26007,"lon":5.37604,"is_reserved":false,"is_disabled":true,"rental_uris":{"android":"levelo://app?vid=1bd120ab-991a-4293-bb2f-ced1d0b0de2c","ios":"levelo://app?vid=1bd120ab-991a-4293-bb2f-ced1d0b0de2c"},"vehicle_type_id":"4","last_reported":1747231841,"current_range_meters":0,"station_id":"ce4bhgh2rcd13ifvqfa0","pricing_plan_id":"cebpf4jnsgd1na2vs0mg"},{"bike_id":"7d648bb7-ab7e-409a-add7-d4a17f03de12","system_id":"levelo_inurba_marseille","lat":43.23154,"lon":5.43698,"is_reserved":false,"is_disabled":true,"rental_uris":{"android":"levelo://app?vid=7d648bb7-ab7e-409a-add7-d4a17f03de12","ios":"levelo://app?vid=7d648bb7-ab7e-409a-add7-d4a17f03de12"},"vehicle_type_id":"4","last_reported":1747231841,"current_range_meters":0,"station_id":"ce4bhmp2rcd13ifvqgog","pricing_plan_id":"cebpf4jnsgd1na2vs0mg"},{"bike_id":"b888f7f8-4b39-4d74-94cd-1eb33d886fec","system_id":"levelo_inurba_marseille","lat":43.24099,"lon":5.37762,"is_reserved":false,"is_disabled":true,"rental_uris":{"android":"levelo://app?vid=b888f7f8-4b39-4d74-94cd-1eb33d886fec","ios":"levelo://app?vid=b888f7f8-4b39-4d74-94cd-1eb33d886fec"},"vehicle_type_id":"4","last_reported":1747231841,"current_range_meters":0,"station_id":"ce4bhnp2rcd13ifvqgvg","pricing_plan_id":"cebpf4jnsgd1na2vs0mg"},{"bike_id":"ed488f03-2bfd-4262-be23-5465f5bb4de8","system_id":"levelo_inurba_marseille","lat":43.29921,"lon":5.37488,"is_reserved":false,"is_disabled":true,"rental_uris":{"android":"levelo://app?vid=ed488f03-2bfd-4262-be23-5465f5bb4de8","ios":"levelo://app?vid=ed488f03-2bfd-4262-be23-5465f5bb4de8"},"vehicle_type_id":"4","last_reported":1747231841,"current_range_meters":400,"station_id":"ce4bgjh2rcd13ifvqbg0","pricing_plan_id":"cebpf4jnsgd1na2vs0mg"},{"bike_id":"3c526299-0e62-4434-97a6-ed9a9806682c","system_id":"levelo_inurba_marseille","lat":43.284633,"lon":5.358993,"is_reserved":false,"is_disabled":true,"rental_uris":{"android":"levelo://app?vid=3c526299-0e62-4434-97a6-ed9a9806682c","ios":"levelo://app?vid=3c526299-0e62-4434-97a6-ed9a9806682c"},"vehicle_type_id":"4","last_reported":1747231841,"current_range_meters":800,"station_id":"ce4bhah2rcd13ifvqei0","pricing_plan_id":"cebpf4jnsgd1na2vs0mg"},{"bike_id":"e30137bb-5652-40d5-bf80-0503a0478e6d","system_id":"levelo_inurba_marseille","lat":43.27377,"lon":5.36262,"is_reserved":false,"is_disabled":true,"rental_uris":{"android":"levelo://app?vid=e30137bb-5652-40d5-bf80-0503a0478e6d","ios":"levelo://app?vid=e30137bb-5652-40d5-bf80-0503a0478e6d"},"vehicle_type_id":"4","last_reported":1747231841,"current_range_meters":800,"station_id":"ce4bhbh2rcd13ifvqeo0","pricing_plan_id":"cebpf4jnsgd1na2vs0mg"},{"bike_id":"06af2ae3-9c85-488d-9cf8-f0c29c4b01c7","system_id":"levelo_inurba_marseille","lat":43.24096,"lon":5.37697,"is_reserved":false,"is_disabled":true,"rental_uris":{"android":"levelo://app?vid=06af2ae3-9c85-488d-9cf8-f0c29c4b01c7","ios":"levelo://app?vid=06af2ae3-9c85-488d-9cf8-f0c29c4b01c7"},"vehicle_type_id":"4","last_reported":1747231841,"current_range_meters":1200,"station_id":"","pricing_plan_id":"cebpf4jnsgd1na2vs0mg"},{"bike_id":"66ff5175-3001-4524-b2b9-8cab149aca17","system_id":"levelo_inurba_marseille","lat":43.29575,"lon":5.37526,"is_reserved":false,"is_disabled":true,"rental_uris":{"android":"levelo://app?vid=66ff5175-3001-4524-b2b9-8cab149aca17","ios":"levelo://app?vid=66ff5175-3001-4524-b2b9-8cab149aca17"},"vehicle_type_id":"4","last_reported":1747231841,"current_range_meters":1200,"station_id":"ce4bgh92rcd13ifvqb50","pricing_plan_id":"cebpf4jnsgd1na2vs0mg"},{"bike_id":"999edec2-6299-447f-9df0-93db7168f594","system_id":"levelo_inurba_marseille","lat":43.29717,"lon":5.37693,"is_reserved":false,"is_disabled":true,"rental_uris":{"android":"levelo://app?vid=999edec2-6299-447f-9df0-93db7168f594","ios":"levelo://app?vid=999edec2-6299-447f-9df0-93db7168f594"},"vehicle_type_id":"4","last_reported":1747231841,"current_range_meters":1200,"station_id":"ce4bgkh2rcd13ifvqbl0","pricing_plan_id":"cebpf4jnsgd1na2vs0mg"},{"bike_id":"2b34012d-c6d3-4a2c-9a90-6747abedfd1d","system_id":"levelo_inurba_marseille","lat":43.265573,"lon":5.372804,"is_reserved":false,"is_disabled":true,"rental_uris":{"android":"levelo://app?vid=2b34012d-c6d3-4a2c-9a90-6747abedfd1d","ios":"levelo://app?vid=2b34012d-c6d3-4a2c-9a90-6747abedfd1d"},"vehicle_type_id":"4","last_reported":1747231841,"current_range_meters":1200,"station_id":"ce4bhg12rcd13ifvqf70","pricing_plan_id":"cebpf4jnsgd1na2vs0mg"},{"bike_id":"83eba8cf-56f2-44e2-8d0a-aad691db871c","system_id":"levelo_inurba_marseille","lat":43.24167,"lon":5.36405,"is_reserved":false,"is_disabled":true,"rental_uris":{"android":"levelo://app?vid=83eba8cf-56f2-44e2-8d0a-aad691db871c","ios":"levelo://app?vid=83eba8cf-56f2-44e2-8d0a-aad691db871c"},"vehicle_type_id":"4","last_reported":1747231841,"current_range_meters":1200,"station_id":"cpo36qri1sfpv3e86is0","pricing_plan_id":"cebpf4jnsgd1na2vs0mg"},{"bike_id":"4a15612d-7510-410e-91a2-8240e8849cc3","system_id":"levelo_inurba_marseille","lat":43.24167,"lon":5.36406,"is_reserved":false,"is_disabled":true,"rental_uris":{"android":"levelo://app?vid=4a15612d-7510-410e-91a2-8240e8849cc3","ios":"levelo://app?vid=4a15612d-7510-410e-91a2-8240e8849cc3"},"vehicle_type_id":"4","last_reported":1747231841,"current_range_meters":1200,"station_id":"cpo36qri1sfpv3e86is0","pricing_plan_id":"cebpf4jnsgd1na2vs0mg"},{"bike_id":"4498204c-5578-4157-8790-804113671624","system_id":"levelo_inurba_marseille","lat":43.28946,"lon":5.39627,"is_reserved":false,"is_disabled":true,"rental_uris":{"android":"levelo://app?vid=4498204c-5578-4157-8790-804113671624","ios":"levelo://app?vid=4498204c-5578-4157-8790-804113671624"},"vehicle_type_id":"4","last_reported":1747231841,"current_range_meters":1600,"station_id":"ce4bh3h2rcd13ifvqdn0","pricing_plan_id":"cebpf4jnsgd1na2vs0mg"},{"bike_id":"a2d4ea75-c49f-4ff9-b305-f027ee87e375","system_id":"levelo_inurba_marseille","lat":43.2439,"lon":5.37083,"is_reserved":false,"is_disabled":true,"rental_uris":{"android":"levelo://app?vid=a2d4ea75-c49f-4ff9-b305-f027ee87e375","ios":"levelo://app?vid=a2d4ea75-c49f-4ff9-b305-f027ee87e375"},"vehicle_type_id":"4","last_reported":1747231841,"current_range_meters":1600,"station_id":"ce4bhhh2rcd13ifvqfk0","pricing_plan_id":"cebpf4jnsgd1na2vs0mg"},{"bike_id":"57ddeb2b-38aa-457b-9ea6-1c47cf7c50f9","system_id":"levelo_inurba_marseille","lat":43.28809,"lon":5.38258,"is_reserved":false,"is_disabled":false,"rental_uris":{"android":"levelo://app?vid=57ddeb2b-38aa-457b-9ea6-1c47cf7c50f9","ios":"levelo://app?vid=57ddeb2b-38aa-457b-9ea6-1c47cf7c50f9"},"vehicle_type_id":"4","last_reported":1747231841,"current_range_meters":3200,"station_id":"","pricing_plan_id":"cebpf4jnsgd1na2vs0mg"},{"bike_id":"ab606039-2f93-4559-9df5-5411572fd0b9","system_id":"levelo_inurba_marseille","lat":43.25501,"lon":5.3765,"is_reserved":false,"is_disabled":false,"rental_uris":{"android":"levelo://app?vid=ab606039-2f93-4559-9df5-5411572fd0b9","ios":"levelo://app?vid=ab606039-2f93-4559-9df5-5411572fd0b9"},"vehicle_type_id":"4","last_reported":1747231841,"current_range_meters":3200,"station_id":"ce4bhh12rcd13ifvqff0","pricing_plan_id":"cebpf4jnsgd1na2vs0mg"},{"bike_id":"9192df86-c52a-48f2-94ef-4e33dc3a0ace","system_id":"levelo_inurba_marseille","lat":43.29028,"lon":5.38644,"is_reserved":false,"is_disabled":false,"rental_uris":{"android":"levelo://app?vid=9192df86-c52a-48f2-94ef-4e33dc3a0ace","ios":"levelo://app?vid=9192df86-c52a-48f2-94ef-4e33dc3a0ace"},"vehicle_type_id":"4","last_reported":1747231841,"current_range_meters":3600,"station_id":"ce4bh4p2rcd13ifvqe0g","pricing_plan_id":"cebpf4jnsgd1na2vs0mg"},{"bike_id":"6112ac47-9ed1-4713-991f-32b1f9690f95","system_id":"levelo_inurba_marseille","lat":43.23148,"lon":5.43729,"is_reserved":false,"is_disabled":false,"rental_uris":{"android":"levelo://app?vid=6112ac47-9ed1-4713-991f-32b1f9690f95","ios":"levelo://app?vid=6112ac47-9ed1-4713-991f-32b1f9690f95"},"vehicle_type_id":"4","last_reported":1747231841,"current_range_meters":3600,"station_id":"ce4bhmp2rcd13ifvqgog","pricing_plan_id":"cebpf4jnsgd1na2vs0mg"},{"bike_id":"09061689-3bdb-4fc5-802b-2eb15c8bfaa8","system_id":"levelo_inurba_marseille","lat":43.28608,"lon":5.35105,"is_reserved":false,"is_disabled":false,"rental_uris":{"android":"levelo://app?vid=09061689-3bdb-4fc5-802b-2eb15c8bfaa8","ios":"levelo://app?vid=09061689-3bdb-4fc5-802b-2eb15c8bfaa8"},"vehicle_type_id":"4","last_reported":1747231841,"current_range_meters":4400,"station_id":"ce4bhch2rcd13ifvqeug","pricing_plan_id":"cebpf4jnsgd1na2vs0mg"},{"bike_id":"a0c329d9-983c-46df-8418-51236113916b","system_id":"levelo_inurba_marseille","lat":43.28627,"lon":5.35092,"is_reserved":false,"is_disabled":false,"rental_uris":{"android":"levelo://app?vid=a0c329d9-983c-46df-8418-51236113916b","ios":"levelo://app?vid=a0c329d9-983c-46df-8418-51236113916b"},"vehicle_type_id":"4","last_reported":1747231841,"current_range_meters":4400,"station_id":"ce4bhch2rcd13ifvqeug","pricing_plan_id":"cebpf4jnsgd1na2vs0mg"},{"bike_id":"7d659a94-5e57-42b8-952a-c3403ac394fe","system_id":"levelo_inurba_marseille","lat":43.25492,"lon":5.37656,"is_reserved":false,"is_disabled":false,"rental_uris":{"android":"levelo://app?vid=7d659a94-5e57-42b8-952a-c3403ac394fe","ios":"levelo://app?vid=7d659a94-5e57-42b8-952a-c3403ac394fe"},"vehicle_type_id":"4","last_reported":1747231841,"current_range_meters":4400,"station_id":"ce4bhh12rcd13ifvqff0","pricing_plan_id":"cebpf4jnsgd1na2vs0mg"},{"bike_id":"e42e17e5-d574-40b9-811b-e914acd6632f","system_id":"levelo_inurba_marseille","lat":43.23054,"lon":5.35511,"is_reserved":false,"is_disabled":false,"rental_uris":{"android":"levelo://app?vid=e42e17e5-d574-40b9-811b-e914acd6632f","ios":"levelo://app?vid=e42e17e5-d574-40b9-811b-e914acd6632f"},"vehicle_type_id":"4","last_reported":1747231841,"current_range_meters":4400,"station_id":"cpo3342slgdg3j2ifvpg","pricing_plan_id":"cebpf4jnsgd1na2vs0mg"},{"bike_id":"1407530e-4914-43e5-a2c5-490f84db347c","system_id":"levelo_inurba_marseille","lat":43.29029,"lon":5.38647,"is_reserved":false,"is_disabled":false,"rental_uris":{"android":"levelo://app?vid=1407530e-4914-43e5-a2c5-490f84db347c","ios":"levelo://app?vid=1407530e-4914-43e5-a2c5-490f84db347c"},"vehicle_type_id":"4","last_reported":1747231841,"current_range_meters":4800,"station_id":"ce4bh4p2rcd13ifvqe0g","pricing_plan_id":"cebpf4jnsgd1na2vs0mg"},{"bike_id":"447faffc-7793-47ab-b471-974d87ec97c3","system_id":"levelo_inurba_marseille","lat":43.26563,"lon":5.39011,"is_reserved":false,"is_disabled":false,"rental_uris":{"android":"levelo://app?vid=447faffc-7793-47ab-b471-974d87ec97c3","ios":"levelo://app?vid=447faffc-7793-47ab-b471-974d87ec97c3"},"vehicle_type_id":"4","last_reported":1747231841,"current_range_meters":4800,"station_id":"ce4bhe12rcd13ifvqf30","pricing_plan_id":"cebpf4jnsgd1na2vs0mg"},{"bike_id":"6045b9ca-5615-4aac-aeaa-4db8256c8a70","system_id":"levelo_inurba_marseille","lat":43.29301,"lon":5.37457,"is_reserved":false,"is_disabled":false,"rental_uris":{"android":"levelo://app?vid=6045b9ca-5615-4aac-aeaa-4db8256c8a70","ios":"levelo://app?vid=6045b9ca-5615-4aac-aeaa-4db8256c8a70"},"vehicle_type_id":"4","last_reported":1747231841,"current_range_meters":5600,"station_id":"ce4bgi12rcd13ifvqb70","pricing_plan_id":"cebpf4jnsgd1na2vs0mg"},{"bike_id":"2a3219e1-db60-448b-88d8-020ab40060fd","system_id":"levelo_inurba_marseille","lat":43.29099,"lon":5.38148,"is_reserved":false,"is_disabled":false,"rental_uris":{"android":"levelo://app?vid=2a3219e1-db60-448b-88d8-020ab40060fd","ios":"levelo://app?vid=2a3219e1-db60-448b-88d8-020ab40060fd"},"vehicle_type_id":"4","last_reported":1747231841,"current_range_meters":5600,"station_id":"ce4bh512rcd13ifvqe2g","pricing_plan_id":"cebpf4jnsgd1na2vs0mg"},{"bike_id":"00e1d07f-8cd1-4b67-b271-d8a43b30f800","system_id":"levelo_inurba_marseille","lat":43.25496,"lon":5.37648,"is_reserved":false,"is_disabled":false,"rental_uris":{"android":"levelo://app?vid=00e1d07f-8cd1-4b67-b271-d8a43b30f800","ios":"levelo://app?vid=00e1d07f-8cd1-4b67-b271-d8a43b30f800"},"vehicle_type_id":"4","last_reported":1747231841,"current_range_meters":5600,"station_id":"ce4bhh12rcd13ifvqff0","pricing_plan_id":"cebpf4jnsgd1na2vs0mg"},{"bike_id":"cb899b2b-7e02-4938-8b30-eb443e46fff7","system_id":"levelo_inurba_marseille","lat":43.25609,"lon":5.38271,"is_reserved":false,"is_disabled":false,"rental_uris":{"android":"levelo://app?vid=cb899b2b-7e02-4938-8b30-eb443e46fff7","ios":"levelo://app?vid=cb899b2b-7e02-4938-8b30-eb443e46fff7"},"vehicle_type_id":"4","last_reported":1747231841,"current_range_meters":5600,"station_id":"ce4bhih2rcd13ifvqfs0","pricing_plan_id":"cebpf4jnsgd1na2vs0mg"},{"bike_id":"4245aaff-57f3-4185-9f30-8e2db8e927a3","system_id":"levelo_inurba_marseille","lat":43.26938,"lon":5.40262,"is_reserved":false,"is_disabled":false,"rental_uris":{"android":"levelo://app?vid=4245aaff-57f3-4185-9f30-8e2db8e927a3","ios":"levelo://app?vid=4245aaff-57f3-4185-9f30-8e2db8e927a3"},"vehicle_type_id":"4","last_reported":1747231841,"current_range_meters":5600,"station_id":"cjm6bp8fraef2m0cb0m0","pricing_plan_id":"cebpf4jnsgd1na2vs0mg"},{"bike_id":"3979e694-7a41-46a0-81d9-93ba15312c30","system_id":"levelo_inurba_marseille","lat":43.25823,"lon":5.39432,"is_reserved":false,"is_disabled":false,"rental_uris":{"android":"levelo://app?vid=3979e694-7a41-46a0-81d9-93ba15312c30","ios":"levelo://app?vid=3979e694-7a41-46a0-81d9-93ba15312c30"},"vehicle_type_id":"4","last_reported":1747231841,"current_range_meters":6000,"station_id":"ce4bhip2rcd13ifvqft0","pricing_plan_id":"cebpf4jnsgd1na2vs0mg"},{"bike_id":"a0a2982b-abeb-43d8-b83c-eea9e98b63b1","system_id":"levelo_inurba_marseille","lat":43.33029,"lon":5.3904,"is_reserved":false,"is_disabled":false,"rental_uris":{"android":"levelo://app?vid=a0a2982b-abeb-43d8-b83c-eea9e98b63b1","ios":"levelo://app?vid=a0a2982b-abeb-43d8-b83c-eea9e98b63b1"},"vehicle_type_id":"4","last_reported":1747231841,"current_range_meters":6000,"station_id":"ce4bhr92rcd13ifvqhrg","pricing_plan_id":"cebpf4jnsgd1na2vs0mg"},{"bike_id":"56bea2d5-1851-4bc0-b9ec-2abbd891bd8c","system_id":"levelo_inurba_marseille","lat":43.24171,"lon":5.36406,"is_reserved":false,"is_disabled":false,"rental_uris":{"android":"levelo://app?vid=56bea2d5-1851-4bc0-b9ec-2abbd891bd8c","ios":"levelo://app?vid=56bea2d5-1851-4bc0-b9ec-2abbd891bd8c"},"vehicle_type_id":"4","last_reported":1747231841,"current_range_meters":6000,"station_id":"cpo36qri1sfpv3e86is0","pricing_plan_id":"cebpf4jnsgd1na2vs0mg"},{"bike_id":"ce4325af-2448-4172-bdec-81d552ee0b62","system_id":"levelo_inurba_marseille","lat":43.261796,"lon":5.42023,"is_reserved":false,"is_disabled":false,"rental_uris":{"android":"levelo://app?vid=ce4325af-2448-4172-bdec-81d552ee0b62","ios":"levelo://app?vid=ce4325af-2448-4172-bdec-81d552ee0b62"},"vehicle_type_id":"4","last_reported":1747231841,"current_range_meters":6400,"station_id":"","pricing_plan_id":"cebpf4jnsgd1na2vs0mg"},{"bike_id":"3b763487-9989-4bfd-963d-7d6731a25421","system_id":"levelo_inurba_marseille","lat":43.305452,"lon":5.366931,"is_reserved":false,"is_disabled":false,"rental_uris":{"android":"levelo://app?vid=3b763487-9989-4bfd-963d-7d6731a25421","ios":"levelo://app?vid=3b763487-9989-4bfd-963d-7d6731a25421"},"vehicle_type_id":"4","last_reported":1747231841,"current_range_meters":6400,"station_id":"ce4bgrp2rcd13ifvqc9g","pricing_plan_id":"cebpf4jnsgd1na2vs0mg"},{"bike_id":"3a6b66e7-b6ab-43d9-86d3-d92632224581","system_id":"levelo_inurba_marseille","lat":43.28496,"lon":5.38579,"is_reserved":false,"is_disabled":false,"rental_uris":{"android":"levelo://app?vid=3a6b66e7-b6ab-43d9-86d3-d92632224581","ios":"levelo://app?vid=3a6b66e7-b6ab-43d9-86d3-d92632224581"},"vehicle_type_id":"4","last_reported":1747231841,"current_range_meters":6400,"station_id":"ce4bh8p2rcd13ifvqeb0","pricing_plan_id":"cebpf4jnsgd1na2vs0mg"},{"bike_id":"f590cb75-d57c-4300-bc51-eca2443445a0","system_id":"levelo_inurba_marseille","lat":43.26063,"lon":5.39402,"is_reserved":false,"is_disabled":false,"rental_uris":{"android":"levelo://app?vid=f590cb75-d57c-4300-bc51-eca2443445a0","ios":"levelo://app?vid=f590cb75-d57c-4300-bc51-eca2443445a0"},"vehicle_type_id":"4","last_reported":1747231841,"current_range_meters":6400,"station_id":"ce4bhh92rcd13ifvqfj0","pricing_plan_id":"cebpf4jnsgd1na2vs0mg"},{"bike_id":"91ec453e-4b86-48c2-940e-6a9d67d81d13","system_id":"levelo_inurba_marseille","lat":43.239658,"lon":5.366347,"is_reserved":false,"is_disabled":false,"rental_uris":{"android":"levelo://app?vid=91ec453e-4b86-48c2-940e-6a9d67d81d13","ios":"levelo://app?vid=91ec453e-4b86-48c2-940e-6a9d67d81d13"},"vehicle_type_id":"4","last_reported":1747231841,"current_range_meters":6400,"station_id":"ce4bhi12rcd13ifvqfp0","pricing_plan_id":"cebpf4jnsgd1na2vs0mg"},{"bike_id":"58f0e172-59b4-4a47-887a-39ef25694545","system_id":"levelo_inurba_marseille","lat":43.29228,"lon":5.36061,"is_reserved":false,"is_disabled":false,"rental_uris":{"android":"levelo://app?vid=58f0e172-59b4-4a47-887a-39ef25694545","ios":"levelo://app?vid=58f0e172-59b4-4a47-887a-39ef25694545"},"vehicle_type_id":"4","last_reported":1747231841,"current_range_meters":6800,"station_id":"ce4bhbh2rcd13ifvqeqg","pricing_plan_id":"cebpf4jnsgd1na2vs0mg"},{"bike_id":"b24c4cc9-0237-48e6-b08e-44e8f74de6bb","system_id":"levelo_inurba_marseille","lat":43.26057,"lon":5.39395,"is_reserved":false,"is_disabled":false,"rental_uris":{"android":"levelo://app?vid=b24c4cc9-0237-48e6-b08e-44e8f74de6bb","ios":"levelo://app?vid=b24c4cc9-0237-48e6-b08e-44e8f74de6bb"},"vehicle_type_id":"4","last_reported":1747231841,"current_range_meters":6800,"station_id":"ce4bhh92rcd13ifvqfj0","pricing_plan_id":"cebpf4jnsgd1na2vs0mg"},{"bike_id":"134a89ce-f753-43dc-889c-6928be5ff929","system_id":"levelo_inurba_marseille","lat":43.25872,"lon":5.399,"is_reserved":false,"is_disabled":false,"rental_uris":{"android":"levelo://app?vid=134a89ce-f753-43dc-889c-6928be5ff929","ios":"levelo://app?vid=134a89ce-f753-43dc-889c-6928be5ff929"},"vehicle_type_id":"4","last_reported":1747231841,"current_range_meters":6800,"station_id":"ce4bhl92rcd13ifvqghg","pricing_plan_id":"cebpf4jnsgd1na2vs0mg"},{"bike_id":"63a46c1f-1f6f-4920-8160-55e3842e65d0","system_id":"levelo_inurba_marseille","lat":43.24551,"lon":5.39541,"is_reserved":false,"is_disabled":false,"rental_uris":{"android":"levelo://app?vid=63a46c1f-1f6f-4920-8160-55e3842e65d0","ios":"levelo://app?vid=63a46c1f-1f6f-4920-8160-55e3842e65d0"},"vehicle_type_id":"4","last_reported":1747231841,"current_range_meters":6800,"station_id":"ce4bhlp2rcd13ifvqgjg","pricing_plan_id":"cebpf4jnsgd1na2vs0mg"},{"bike_id":"5de1e8df-cec1-47cf-b554-41f6e726d337","system_id":"levelo_inurba_marseille","lat":43.274154,"lon":5.406123,"is_reserved":false,"is_disabled":false,"rental_uris":{"android":"levelo://app?vid=5de1e8df-cec1-47cf-b554-41f6e726d337","ios":"levelo://app?vid=5de1e8df-cec1-47cf-b554-41f6e726d337"},"vehicle_type_id":"4","last_reported":1747231841,"current_range_meters":7200,"station_id":"","pricing_plan_id":"cebpf4jnsgd1na2vs0mg"},{"bike_id":"b747fd0a-f5c1-463a-b5c8-e37a901ab552","system_id":"levelo_inurba_marseille","lat":43.30306,"lon":5.39209,"is_reserved":false,"is_disabled":false,"rental_uris":{"android":"levelo://app?vid=b747fd0a-f5c1-463a-b5c8-e37a901ab552","ios":"levelo://app?vid=b747fd0a-f5c1-463a-b5c8-e37a901ab552"},"vehicle_type_id":"4","last_reported":1747231841,"current_range_meters":7200,"station_id":"ce4bgkh2rcd13ifvqbk0","pricing_plan_id":"cebpf4jnsgd1na2vs0mg"},{"bike_id":"3165ae0c-ccad-43cc-aa1a-39c920f98288","system_id":"levelo_inurba_marseille","lat":43.31116,"lon":5.37773,"is_reserved":false,"is_disabled":false,"rental_uris":{"android":"levelo://app?vid=3165ae0c-ccad-43cc-aa1a-39c920f98288","ios":"levelo://app?vid=3165ae0c-ccad-43cc-aa1a-39c920f98288"},"vehicle_type_id":"4","last_reported":1747231841,"current_range_meters":7200,"station_id":"ce4bgt92rcd13ifvqcg0","pricing_plan_id":"cebpf4jnsgd1na2vs0mg"},{"bike_id":"9248ac96-d396-489e-9895-5f39f609e596","system_id":"levelo_inurba_marseille","lat":43.30891,"lon":5.39657,"is_reserved":false,"is_disabled":false,"rental_uris":{"android":"levelo://app?vid=9248ac96-d396-489e-9895-5f39f609e596","ios":"levelo://app?vid=9248ac96-d396-489e-9895-5f39f609e596"},"vehicle_type_id":"4","last_reported":1747231841,"current_range_meters":7200,"station_id":"ce4bh012rcd13ifvqcv0","pricing_plan_id":"cebpf4jnsgd1na2vs0mg"},{"bike_id":"38c58fdc-0752-4504-bcc1-4174bb46b154","system_id":"levelo_inurba_marseille","lat":43.27375,"lon":5.36255,"is_reserved":false,"is_disabled":false,"rental_uris":{"android":"levelo://app?vid=38c58fdc-0752-4504-bcc1-4174bb46b154","ios":"levelo://app?vid=38c58fdc-0752-4504-bcc1-4174bb46b154"},"vehicle_type_id":"4","last_reported":1747231841,"current_range_meters":7200,"station_id":"ce4bhbh2rcd13ifvqeo0","pricing_plan_id":"cebpf4jnsgd1na2vs0mg"},{"bike_id":"367b852d-7d5a-459c-a4fd-b7302e74b50f","system_id":"levelo_inurba_marseille","lat":43.26555,"lon":5.37287,"is_reserved":false,"is_disabled":false,"rental_uris":{"android":"levelo://app?vid=367b852d-7d5a-459c-a4fd-b7302e74b50f","ios":"levelo://app?vid=367b852d-7d5a-459c-a4fd-b7302e74b50f"},"vehicle_type_id":"4","last_reported":1747231841,"current_range_meters":7200,"station_id":"ce4bhg12rcd13ifvqf70","pricing_plan_id":"cebpf4jnsgd1na2vs0mg"},{"bike_id":"ad082153-9bc3-4c71-95b2-26283986eebb","system_id":"levelo_inurba_marseille","lat":43.27967,"lon":5.3875,"is_reserved":false,"is_disabled":false,"rental_uris":{"android":"levelo://app?vid=ad082153-9bc3-4c71-95b2-26283986eebb","ios":"levelo://app?vid=ad082153-9bc3-4c71-95b2-26283986eebb"},"vehicle_type_id":"4","last_reported":1747231841,"current_range_meters":7200,"station_id":"ce4bhg12rcd13ifvqf80","pricing_plan_id":"cebpf4jnsgd1na2vs0mg"},{"bike_id":"f37b7848-b34f-4203-8cd6-ee4ac88ff930","system_id":"levelo_inurba_marseille","lat":43.23959,"lon":5.36635,"is_reserved":false,"is_disabled":false,"rental_uris":{"android":"levelo://app?vid=f37b7848-b34f-4203-8cd6-ee4ac88ff930","ios":"levelo://app?vid=f37b7848-b34f-4203-8cd6-ee4ac88ff930"},"vehicle_type_id":"4","last_reported":1747231841,"current_range_meters":7200,"station_id":"ce4bhi12rcd13ifvqfp0","pricing_plan_id":"cebpf4jnsgd1na2vs0mg"},{"bike_id":"29c25830-a4d4-4c9a-8dd2-2aea37e4d171","system_id":"levelo_inurba_marseille","lat":43.25132,"lon":5.40323,"is_reserved":false,"is_disabled":false,"rental_uris":{"android":"levelo://app?vid=29c25830-a4d4-4c9a-8dd2-2aea37e4d171","ios":"levelo://app?vid=29c25830-a4d4-4c9a-8dd2-2aea37e4d171"},"vehicle_type_id":"4","last_reported":1747231841,"current_range_meters":7200,"station_id":"ce4bhlh2rcd13ifvqgig","pricing_plan_id":"cebpf4jnsgd1na2vs0mg"},{"bike_id":"39fb690a-b29b-4c90-a201-457e2b83107c","system_id":"levelo_inurba_marseille","lat":43.30546,"lon":5.36714,"is_reserved":false,"is_disabled":false,"rental_uris":{"android":"levelo://app?vid=39fb690a-b29b-4c90-a201-457e2b83107c","ios":"levelo://app?vid=39fb690a-b29b-4c90-a201-457e2b83107c"},"vehicle_type_id":"4","last_reported":1747231841,"current_range_meters":8000,"station_id":"ce4bgrp2rcd13ifvqc9g","pricing_plan_id":"cebpf4jnsgd1na2vs0mg"},{"bike_id":"75576a8f-9d63-4bf9-830f-2391eba1c9d2","system_id":"levelo_inurba_marseille","lat":43.31119,"lon":5.37773,"is_reserved":false,"is_disabled":false,"rental_uris":{"android":"levelo://app?vid=75576a8f-9d63-4bf9-830f-2391eba1c9d2","ios":"levelo://app?vid=75576a8f-9d63-4bf9-830f-2391eba1c9d2"},"vehicle_type_id":"4","last_reported":1747231841,"current_range_meters":8000,"station_id":"ce4bgt92rcd13ifvqcg0","pricing_plan_id":"cebpf4jnsgd1na2vs0mg"},{"bike_id":"e56e8629-46e2-4cc1-926d-137cf25d49c5","system_id":"levelo_inurba_marseille","lat":43.27057,"lon":5.40259,"is_reserved":false,"is_disabled":false,"rental_uris":{"android":"levelo://app?vid=e56e8629-46e2-4cc1-926d-137cf25d49c5","ios":"levelo://app?vid=e56e8629-46e2-4cc1-926d-137cf25d49c5"},"vehicle_type_id":"4","last_reported":1747231841,"current_range_meters":8000,"station_id":"ce4bhk92rcd13ifvqgc0","pricing_plan_id":"cebpf4jnsgd1na2vs0mg"},{"bike_id":"bf9a4507-0806-4935-903f-73e55376c212","system_id":"levelo_inurba_marseille","lat":43.30921,"lon":5.37289,"is_reserved":false,"is_disabled":false,"rental_uris":{"android":"levelo://app?vid=bf9a4507-0806-4935-903f-73e55376c212","ios":"levelo://app?vid=bf9a4507-0806-4935-903f-73e55376c212"},"vehicle_type_id":"4","last_reported":1747231841,"current_range_meters":8400,"station_id":"","pricing_plan_id":"cebpf4jnsgd1na2vs0mg"},{"bike_id":"4486d209-d89c-40c3-8d06-4875670f74f7","system_id":"levelo_inurba_marseille","lat":43.28856,"lon":5.35858,"is_reserved":false,"is_disabled":false,"rental_uris":{"android":"levelo://app?vid=4486d209-d89c-40c3-8d06-4875670f74f7","ios":"levelo://app?vid=4486d209-d89c-40c3-8d06-4875670f74f7"},"vehicle_type_id":"4","last_reported":1747231841,"current_range_meters":8400,"station_id":"ce4bhb12rcd13ifvqem0","pricing_plan_id":"cebpf4jnsgd1na2vs0mg"},{"bike_id":"89b9075d-5740-40ac-b44a-2cc6a3cecd65","system_id":"levelo_inurba_marseille","lat":43.26196,"lon":5.37449,"is_reserved":false,"is_disabled":false,"rental_uris":{"android":"levelo://app?vid=89b9075d-5740-40ac-b44a-2cc6a3cecd65","ios":"levelo://app?vid=89b9075d-5740-40ac-b44a-2cc6a3cecd65"},"vehicle_type_id":"4","last_reported":1747231841,"current_range_meters":8400,"station_id":"ce4bhgp2rcd13ifvqfc0","pricing_plan_id":"cebpf4jnsgd1na2vs0mg"},{"bike_id":"6ec4bb85-84ec-4027-b206-4e608baac030","system_id":"levelo_inurba_marseille","lat":43.280674,"lon":5.396396,"is_reserved":false,"is_disabled":false,"rental_uris":{"android":"levelo://app?vid=6ec4bb85-84ec-4027-b206-4e608baac030","ios":"levelo://app?vid=6ec4bb85-84ec-4027-b206-4e608baac030"},"vehicle_type_id":"4","last_reported":1747231841,"current_range_meters":8400,"station_id":"ce4bho12rcd13ifvqh2g","pricing_plan_id":"cebpf4jnsgd1na2vs0mg"},{"bike_id":"7b24559c-7f3e-4648-a528-580ee6d9fd97","system_id":"levelo_inurba_marseille","lat":43.2942,"lon":5.38633,"is_reserved":false,"is_disabled":false,"rental_uris":{"android":"levelo://app?vid=7b24559c-7f3e-4648-a528-580ee6d9fd97","ios":"levelo://app?vid=7b24559c-7f3e-4648-a528-580ee6d9fd97"},"vehicle_type_id":"4","last_reported":1747231841,"current_range_meters":8800,"station_id":"ce4bh2h2rcd13ifvqdh0","pricing_plan_id":"cebpf4jnsgd1na2vs0mg"},{"bike_id":"e722aa06-3d09-44a2-adbd-d9bfca2fdbf8","system_id":"levelo_inurba_marseille","lat":43.26566,"lon":5.37298,"is_reserved":false,"is_disabled":false,"rental_uris":{"android":"levelo://app?vid=e722aa06-3d09-44a2-adbd-d9bfca2fdbf8","ios":"levelo://app?vid=e722aa06-3d09-44a2-adbd-d9bfca2fdbf8"},"vehicle_type_id":"4","last_reported":1747231841,"current_range_meters":8800,"station_id":"ce4bhg12rcd13ifvqf70","pricing_plan_id":"cebpf4jnsgd1na2vs0mg"},{"bike_id":"9f9a3cdb-3b9a-42cf-bc72-12a447b7f001","system_id":"levelo_inurba_marseille","lat":43.23147,"lon":5.43738,"is_reserved":false,"is_disabled":false,"rental_uris":{"android":"levelo://app?vid=9f9a3cdb-3b9a-42cf-bc72-12a447b7f001","ios":"levelo://app?vid=9f9a3cdb-3b9a-42cf-bc72-12a447b7f001"},"vehicle_type_id":"4","last_reported":1747231841,"current_range_meters":8800,"station_id":"ce4bhmp2rcd13ifvqgog","pricing_plan_id":"cebpf4jnsgd1na2vs0mg"},{"bike_id":"6c5e2750-bf55-4812-bb81-a9df60873a61","system_id":"levelo_inurba_marseille","lat":43.29639,"lon":5.36185,"is_reserved":false,"is_disabled":false,"rental_uris":{"android":"levelo://app?vid=6c5e2750-bf55-4812-bb81-a9df60873a61","ios":"levelo://app?vid=6c5e2750-bf55-4812-bb81-a9df60873a61"},"vehicle_type_id":"4","last_reported":1747231841,"current_range_meters":9200,"station_id":"","pricing_plan_id":"cebpf4jnsgd1na2vs0mg"},{"bike_id":"299a220f-9f4c-42b7-bc63-8661116409d7","system_id":"levelo_inurba_marseille","lat":43.30901,"lon":5.36873,"is_reserved":false,"is_disabled":false,"rental_uris":{"android":"levelo://app?vid=299a220f-9f4c-42b7-bc63-8661116409d7","ios":"levelo://app?vid=299a220f-9f4c-42b7-bc63-8661116409d7"},"vehicle_type_id":"4","last_reported":1747231841,"current_range_meters":9200,"station_id":"ce4bgn92rcd13ifvqbvg","pricing_plan_id":"cebpf4jnsgd1na2vs0mg"},{"bike_id":"e4202679-f486-4ba0-99e8-555bc080a764","system_id":"levelo_inurba_marseille","lat":43.29772,"lon":5.37093,"is_reserved":false,"is_disabled":false,"rental_uris":{"android":"levelo://app?vid=e4202679-f486-4ba0-99e8-555bc080a764","ios":"levelo://app?vid=e4202679-f486-4ba0-99e8-555bc080a764"},"vehicle_type_id":"4","last_reported":1747231841,"current_range_meters":9200,"station_id":"ce4bgop2rcd13ifvqc1g","pricing_plan_id":"cebpf4jnsgd1na2vs0mg"},{"bike_id":"cd3c345e-0e03-48b7-bce3-055f1e2a407e","system_id":"levelo_inurba_marseille","lat":43.283694,"lon":5.375158,"is_reserved":false,"is_disabled":false,"rental_uris":{"android":"levelo://app?vid=cd3c345e-0e03-48b7-bce3-055f1e2a407e","ios":"levelo://app?vid=cd3c345e-0e03-48b7-bce3-055f1e2a407e"},"vehicle_type_id":"4","last_reported":1747231841,"current_range_meters":9200,"station_id":"ce4bh412rcd13ifvqds0","pricing_plan_id":"cebpf4jnsgd1na2vs0mg"},{"bike_id":"87d2d281-0206-4493-b91c-1290f8c34095","system_id":"levelo_inurba_marseille","lat":43.28676,"lon":5.36349,"is_reserved":false,"is_disabled":false,"rental_uris":{"android":"levelo://app?vid=87d2d281-0206-4493-b91c-1290f8c34095","ios":"levelo://app?vid=87d2d281-0206-4493-b91c-1290f8c34095"},"vehicle_type_id":"4","last_reported":1747231841,"current_range_meters":9200,"station_id":"ce4bhah2rcd13ifvqej0","pricing_plan_id":"cebpf4jnsgd1na2vs0mg"},{"bike_id":"dcffc799-d226-4953-a0af-39eab1d9a71a","system_id":"levelo_inurba_marseille","lat":43.28937,"lon":5.36637,"is_reserved":false,"is_disabled":false,"rental_uris":{"android":"levelo://app?vid=dcffc799-d226-4953-a0af-39eab1d9a71a","ios":"levelo://app?vid=dcffc799-d226-4953-a0af-39eab1d9a71a"},"vehicle_type_id":"4","last_reported":1747231841,"current_range_meters":9200,"station_id":"ce4bhap2rcd13ifvqek0","pricing_plan_id":"cebpf4jnsgd1na2vs0mg"},{"bike_id":"57d49cf5-8f74-4aa0-a244-f892b4cf2a25","system_id":"levelo_inurba_marseille","lat":43.290039,"lon":5.356119,"is_reserved":false,"is_disabled":false,"rental_uris":{"android":"levelo://app?vid=57d49cf5-8f74-4aa0-a244-f892b4cf2a25","ios":"levelo://app?vid=57d49cf5-8f74-4aa0-a244-f892b4cf2a25"},"vehicle_type_id":"4","last_reported":1747231841,"current_range_meters":9200,"station_id":"ce4bhb92rcd13ifvqen0","pricing_plan_id":"cebpf4jnsgd1na2vs0mg"},{"bike_id":"059d4258-589e-46ae-a7d7-fbabc7ad93bb","system_id":"levelo_inurba_marseille","lat":43.27815,"lon":5.40721,"is_reserved":false,"is_disabled":false,"rental_uris":{"android":"levelo://app?vid=059d4258-589e-46ae-a7d7-fbabc7ad93bb","ios":"levelo://app?vid=059d4258-589e-46ae-a7d7-fbabc7ad93bb"},"vehicle_type_id":"4","last_reported":1747231841,"current_range_meters":9200,"station_id":"ce4bhnh2rcd13ifvqgtg","pricing_plan_id":"cebpf4jnsgd1na2vs0mg"},{"bike_id":"495be828-8779-4cc3-8feb-aa2180666bea","system_id":"levelo_inurba_marseille","lat":43.27815,"lon":5.40711,"is_reserved":false,"is_disabled":false,"rental_uris":{"android":"levelo://app?vid=495be828-8779-4cc3-8feb-aa2180666bea","ios":"levelo://app?vid=495be828-8779-4cc3-8feb-aa2180666bea"},"vehicle_type_id":"4","last_reported":1747231841,"current_range_meters":9200,"station_id":"ce4bhnh2rcd13ifvqgtg","pricing_plan_id":"cebpf4jnsgd1na2vs0mg"},{"bike_id":"4c37a37a-6698-4f96-86f3-c34278deb234","system_id":"levelo_inurba_marseille","lat":43.29198,"lon":5.39318,"is_reserved":false,"is_disabled":false,"rental_uris":{"android":"levelo://app?vid=4c37a37a-6698-4f96-86f3-c34278deb234","ios":"levelo://app?vid=4c37a37a-6698-4f96-86f3-c34278deb234"},"vehicle_type_id":"4","last_reported":1747231841,"current_range_meters":9600,"station_id":"ce4bh192rcd13ifvqdd0","pricing_plan_id":"cebpf4jnsgd1na2vs0mg"},{"bike_id":"55f73752-94d2-4ff9-9bf5-56809c0754dd","system_id":"levelo_inurba_marseille","lat":43.27572,"lon":5.3842,"is_reserved":false,"is_disabled":false,"rental_uris":{"android":"levelo://app?vid=55f73752-94d2-4ff9-9bf5-56809c0754dd","ios":"levelo://app?vid=55f73752-94d2-4ff9-9bf5-56809c0754dd"},"vehicle_type_id":"4","last_reported":1747231841,"current_range_meters":9600,"station_id":"ce4bhh92rcd13ifvqfi0","pricing_plan_id":"cebpf4jnsgd1na2vs0mg"},{"bike_id":"e6ae43cc-bfd1-4764-9a04-fdcacfe6e804","system_id":"levelo_inurba_marseille","lat":43.32519,"lon":5.41455,"is_reserved":false,"is_disabled":false,"rental_uris":{"android":"levelo://app?vid=e6ae43cc-bfd1-4764-9a04-fdcacfe6e804","ios":"levelo://app?vid=e6ae43cc-bfd1-4764-9a04-fdcacfe6e804"},"vehicle_type_id":"4","last_reported":1747231841,"current_range_meters":9600,"station_id":"ce4bhq12rcd13ifvqhhg","pricing_plan_id":"cebpf4jnsgd1na2vs0mg"},{"bike_id":"d559a899-b1bd-4a71-a12e-4458bcd0cdbf","system_id":"levelo_inurba_marseille","lat":43.23054,"lon":5.35504,"is_reserved":false,"is_disabled":false,"rental_uris":{"android":"levelo://app?vid=d559a899-b1bd-4a71-a12e-4458bcd0cdbf","ios":"levelo://app?vid=d559a899-b1bd-4a71-a12e-4458bcd0cdbf"},"vehicle_type_id":"4","last_reported":1747231841,"current_range_meters":9600,"station_id":"cpo3342slgdg3j2ifvpg","pricing_plan_id":"cebpf4jnsgd1na2vs0mg"},{"bike_id":"7bf0ba81-f343-4610-af34-aaf7cf02aa91","system_id":"levelo_inurba_marseille","lat":43.258209,"lon":5.394414,"is_reserved":false,"is_disabled":false,"rental_uris":{"android":"levelo://app?vid=7bf0ba81-f343-4610-af34-aaf7cf02aa91","ios":"levelo://app?vid=7bf0ba81-f343-4610-af34-aaf7cf02aa91"},"vehicle_type_id":"4","last_reported":1747231841,"current_range_meters":10000,"station_id":"ce4bhip2rcd13ifvqft0","pricing_plan_id":"cebpf4jnsgd1na2vs0mg"},{"bike_id":"2d9c08c0-bf40-45c9-b1a8-d15c183a79bf","system_id":"levelo_inurba_marseille","lat":43.24174,"lon":5.39726,"is_reserved":false,"is_disabled":false,"rental_uris":{"android":"levelo://app?vid=2d9c08c0-bf40-45c9-b1a8-d15c183a79bf","ios":"levelo://app?vid=2d9c08c0-bf40-45c9-b1a8-d15c183a79bf"},"vehicle_type_id":"4","last_reported":1747231841,"current_range_meters":10000,"station_id":"ce4bhn12rcd13ifvqgpg","pricing_plan_id":"cebpf4jnsgd1na2vs0mg"},{"bike_id":"3faf053c-e846-4d83-83ee-8fd51efc38bb","system_id":"levelo_inurba_marseille","lat":43.32107,"lon":5.36792,"is_reserved":false,"is_disabled":false,"rental_uris":{"android":"levelo://app?vid=3faf053c-e846-4d83-83ee-8fd51efc38bb","ios":"levelo://app?vid=3faf053c-e846-4d83-83ee-8fd51efc38bb"},"vehicle_type_id":"4","last_reported":1747231841,"current_range_meters":10000,"station_id":"ce4bhrh2rcd13ifvqhug","pricing_plan_id":"cebpf4jnsgd1na2vs0mg"},{"bike_id":"0166375f-957f-413e-8f37-cf91c53e02cc","system_id":"levelo_inurba_marseille","lat":43.30141,"lon":5.38775,"is_reserved":false,"is_disabled":false,"rental_uris":{"android":"levelo://app?vid=0166375f-957f-413e-8f37-cf91c53e02cc","ios":"levelo://app?vid=0166375f-957f-413e-8f37-cf91c53e02cc"},"vehicle_type_id":"4","last_reported":1747231841,"current_range_meters":10800,"station_id":"ce4bghh2rcd13ifvqb60","pricing_plan_id":"cebpf4jnsgd1na2vs0mg"},{"bike_id":"9af79325-d40f-413d-8987-1b5250103306","system_id":"levelo_inurba_marseille","lat":43.296279,"lon":5.377199,"is_reserved":false,"is_disabled":false,"rental_uris":{"android":"levelo://app?vid=9af79325-d40f-413d-8987-1b5250103306","ios":"levelo://app?vid=9af79325-d40f-413d-8987-1b5250103306"},"vehicle_type_id":"4","last_reported":1747231841,"current_range_meters":10800,"station_id":"ce4bgi92rcd13ifvqb90","pricing_plan_id":"cebpf4jnsgd1na2vs0mg"},{"bike_id":"ac2d63e1-97f3-4ec1-b8b7-f1be48b399e7","system_id":"levelo_inurba_marseille","lat":43.31222,"lon":5.3685,"is_reserved":false,"is_disabled":false,"rental_uris":{"android":"levelo://app?vid=ac2d63e1-97f3-4ec1-b8b7-f1be48b399e7","ios":"levelo://app?vid=ac2d63e1-97f3-4ec1-b8b7-f1be48b399e7"},"vehicle_type_id":"4","last_reported":1747231841,"current_range_meters":10800,"station_id":"ce4bgl92rcd13ifvqbq0","pricing_plan_id":"cebpf4jnsgd1na2vs0mg"},{"bike_id":"f1e2f264-7ffc-4fbb-8a0b-d3adae3ee856","system_id":"levelo_inurba_marseille","lat":43.30095,"lon":5.39074,"is_reserved":false,"is_disabled":false,"rental_uris":{"android":"levelo://app?vid=f1e2f264-7ffc-4fbb-8a0b-d3adae3ee856","ios":"levelo://app?vid=f1e2f264-7ffc-4fbb-8a0b-d3adae3ee856"},"vehicle_type_id":"4","last_reported":1747231841,"current_range_meters":10800,"station_id":"ce4bh192rcd13ifvqdb0","pricing_plan_id":"cebpf4jnsgd1na2vs0mg"},{"bike_id":"fb67fc33-bb79-4c29-ac44-88f113c1c0b7","system_id":"levelo_inurba_marseille","lat":43.27369,"lon":5.36254,"is_reserved":false,"is_disabled":false,"rental_uris":{"android":"levelo://app?vid=fb67fc33-bb79-4c29-ac44-88f113c1c0b7","ios":"levelo://app?vid=fb67fc33-bb79-4c29-ac44-88f113c1c0b7"},"vehicle_type_id":"4","last_reported":1747231841,"current_range_meters":10800,"station_id":"ce4bhbh2rcd13ifvqeo0","pricing_plan_id":"cebpf4jnsgd1na2vs0mg"},{"bike_id":"940b3909-b6f0-4f89-adfd-175725c0aab3","system_id":"levelo_inurba_marseille","lat":43.25922,"lon":5.40933,"is_reserved":false,"is_disabled":false,"rental_uris":{"android":"levelo://app?vid=940b3909-b6f0-4f89-adfd-175725c0aab3","ios":"levelo://app?vid=940b3909-b6f0-4f89-adfd-175725c0aab3"},"vehicle_type_id":"4","last_reported":1747231841,"current_range_meters":10800,"station_id":"ce4bhm92rcd13ifvqglg","pricing_plan_id":"cebpf4jnsgd1na2vs0mg"},{"bike_id":"45cd3168-9d91-47df-b3a8-3a2e83ff8fd8","system_id":"levelo_inurba_marseille","lat":43.23155,"lon":5.43734,"is_reserved":false,"is_disabled":false,"rental_uris":{"android":"levelo://app?vid=45cd3168-9d91-47df-b3a8-3a2e83ff8fd8","ios":"levelo://app?vid=45cd3168-9d91-47df-b3a8-3a2e83ff8fd8"},"vehicle_type_id":"4","last_reported":1747231841,"current_range_meters":10800,"station_id":"ce4bhmp2rcd13ifvqgog","pricing_plan_id":"cebpf4jnsgd1na2vs0mg"},{"bike_id":"3e2545e8-4b1a-413c-8c69-6ace6a43b265","system_id":"levelo_inurba_marseille","lat":43.23202,"lon":5.39995,"is_reserved":false,"is_disabled":false,"rental_uris":{"android":"levelo://app?vid=3e2545e8-4b1a-413c-8c69-6ace6a43b265","ios":"levelo://app?vid=3e2545e8-4b1a-413c-8c69-6ace6a43b265"},"vehicle_type_id":"4","last_reported":1747231841,"current_range_meters":10800,"station_id":"ce4bhn12rcd13ifvqgqg","pricing_plan_id":"cebpf4jnsgd1na2vs0mg"},{"bike_id":"75b37818-ac15-4b95-8916-4667a8c2a8c8","system_id":"levelo_inurba_marseille","lat":43.29919,"lon":5.37468,"is_reserved":false,"is_disabled":false,"rental_uris":{"android":"levelo://app?vid=75b37818-ac15-4b95-8916-4667a8c2a8c8","ios":"levelo://app?vid=75b37818-ac15-4b95-8916-4667a8c2a8c8"},"vehicle_type_id":"4","last_reported":1747231841,"current_range_meters":11200,"station_id":"ce4bgjh2rcd13ifvqbg0","pricing_plan_id":"cebpf4jnsgd1na2vs0mg"},{"bike_id":"481e6ad6-80f6-4e18-a6a8-0eb0f324f9fb","system_id":"levelo_inurba_marseille","lat":43.3089,"lon":5.39656,"is_reserved":false,"is_disabled":false,"rental_uris":{"android":"levelo://app?vid=481e6ad6-80f6-4e18-a6a8-0eb0f324f9fb","ios":"levelo://app?vid=481e6ad6-80f6-4e18-a6a8-0eb0f324f9fb"},"vehicle_type_id":"4","last_reported":1747231841,"current_range_meters":11200,"station_id":"ce4bh012rcd13ifvqcv0","pricing_plan_id":"cebpf4jnsgd1na2vs0mg"},{"bike_id":"f6e26417-3a0d-48ce-b9e1-c4ad9fc09c21","system_id":"levelo_inurba_marseille","lat":43.33741,"lon":5.39191,"is_reserved":false,"is_disabled":false,"rental_uris":{"android":"levelo://app?vid=f6e26417-3a0d-48ce-b9e1-c4ad9fc09c21","ios":"levelo://app?vid=f6e26417-3a0d-48ce-b9e1-c4ad9fc09c21"},"vehicle_type_id":"4","last_reported":1747231841,"current_range_meters":11200,"station_id":"ce4bhr92rcd13ifvqhsg","pricing_plan_id":"cebpf4jnsgd1na2vs0mg"},{"bike_id":"ff8a048f-f51d-49f7-822e-57bcea13ff1f","system_id":"levelo_inurba_marseille","lat":43.29716,"lon":5.37698,"is_reserved":false,"is_disabled":false,"rental_uris":{"android":"levelo://app?vid=ff8a048f-f51d-49f7-822e-57bcea13ff1f","ios":"levelo://app?vid=ff8a048f-f51d-49f7-822e-57bcea13ff1f"},"vehicle_type_id":"4","last_reported":1747231841,"current_range_meters":11600,"station_id":"ce4bgkh2rcd13ifvqbl0","pricing_plan_id":"cebpf4jnsgd1na2vs0mg"},{"bike_id":"34ca7c98-ce4b-4373-8f84-af071a13feed","system_id":"levelo_inurba_marseille","lat":43.30142,"lon":5.39849,"is_reserved":false,"is_disabled":false,"rental_uris":{"android":"levelo://app?vid=34ca7c98-ce4b-4373-8f84-af071a13feed","ios":"levelo://app?vid=34ca7c98-ce4b-4373-8f84-af071a13feed"},"vehicle_type_id":"4","last_reported":1747231841,"current_range_meters":11600,"station_id":"ce4bh0h2rcd13ifvqd40","pricing_plan_id":"cebpf4jnsgd1na2vs0mg"},{"bike_id":"2703c67c-b133-4b9b-b86e-11d4f4ba1585","system_id":"levelo_inurba_marseille","lat":43.28851,"lon":5.39315,"is_reserved":false,"is_disabled":false,"rental_uris":{"android":"levelo://app?vid=2703c67c-b133-4b9b-b86e-11d4f4ba1585","ios":"levelo://app?vid=2703c67c-b133-4b9b-b86e-11d4f4ba1585"},"vehicle_type_id":"4","last_reported":1747231841,"current_range_meters":11600,"station_id":"ce4bh2p2rcd13ifvqdi0","pricing_plan_id":"cebpf4jnsgd1na2vs0mg"},{"bike_id":"7e36d6b9-ba7a-4451-8154-4ce6b6033214","system_id":"levelo_inurba_marseille","lat":43.29576,"lon":5.39988,"is_reserved":false,"is_disabled":false,"rental_uris":{"android":"levelo://app?vid=7e36d6b9-ba7a-4451-8154-4ce6b6033214","ios":"levelo://app?vid=7e36d6b9-ba7a-4451-8154-4ce6b6033214"},"vehicle_type_id":"4","last_reported":1747231841,"current_range_meters":11600,"station_id":"ce4bh312rcd13ifvqdj0","pricing_plan_id":"cebpf4jnsgd1na2vs0mg"},{"bike_id":"cb449aeb-63bf-4e11-a01d-928c7eea1054","system_id":"levelo_inurba_marseille","lat":43.28618,"lon":5.35106,"is_reserved":false,"is_disabled":false,"rental_uris":{"android":"levelo://app?vid=cb449aeb-63bf-4e11-a01d-928c7eea1054","ios":"levelo://app?vid=cb449aeb-63bf-4e11-a01d-928c7eea1054"},"vehicle_type_id":"4","last_reported":1747231841,"current_range_meters":11600,"station_id":"ce4bhch2rcd13ifvqeug","pricing_plan_id":"cebpf4jnsgd1na2vs0mg"},{"bike_id":"99245192-b4c3-4186-9d00-6601686a2ebc","system_id":"levelo_inurba_marseille","lat":43.274254,"lon":5.39419,"is_reserved":false,"is_disabled":false,"rental_uris":{"android":"levelo://app?vid=99245192-b4c3-4186-9d00-6601686a2ebc","ios":"levelo://app?vid=99245192-b4c3-4186-9d00-6601686a2ebc"},"vehicle_type_id":"4","last_reported":1747231841,"current_range_meters":11600,"station_id":"ce4bhdp2rcd13ifvqf20","pricing_plan_id":"cebpf4jnsgd1na2vs0mg"},{"bike_id":"223a3864-5e43-4edb-aca2-1488cfc98b3d","system_id":"levelo_inurba_marseille","lat":43.24665,"lon":5.38168,"is_reserved":false,"is_disabled":false,"rental_uris":{"android":"levelo://app?vid=223a3864-5e43-4edb-aca2-1488cfc98b3d","ios":"levelo://app?vid=223a3864-5e43-4edb-aca2-1488cfc98b3d"},"vehicle_type_id":"4","last_reported":1747231841,"current_range_meters":11600,"station_id":"ce4bhih2rcd13ifvqfr0","pricing_plan_id":"cebpf4jnsgd1na2vs0mg"},{"bike_id":"39aa1628-822e-4ce2-a2a5-c0f8adefac2f","system_id":"levelo_inurba_marseille","lat":43.337173,"lon":5.3919,"is_reserved":false,"is_disabled":false,"rental_uris":{"android":"levelo://app?vid=39aa1628-822e-4ce2-a2a5-c0f8adefac2f","ios":"levelo://app?vid=39aa1628-822e-4ce2-a2a5-c0f8adefac2f"},"vehicle_type_id":"4","last_reported":1747231841,"current_range_meters":11600,"station_id":"ce4bhr92rcd13ifvqhsg","pricing_plan_id":"cebpf4jnsgd1na2vs0mg"},{"bike_id":"40115fd5-f59f-4b0c-9552-a95b14ed5e7f","system_id":"levelo_inurba_marseille","lat":43.30903,"lon":5.36887,"is_reserved":false,"is_disabled":false,"rental_uris":{"android":"levelo://app?vid=40115fd5-f59f-4b0c-9552-a95b14ed5e7f","ios":"levelo://app?vid=40115fd5-f59f-4b0c-9552-a95b14ed5e7f"},"vehicle_type_id":"4","last_reported":1747231841,"current_range_meters":12000,"station_id":"ce4bgn92rcd13ifvqbvg","pricing_plan_id":"cebpf4jnsgd1na2vs0mg"},{"bike_id":"cbc0453b-ed64-4559-a3f0-a09f04f55843","system_id":"levelo_inurba_marseille","lat":43.3079,"lon":5.37653,"is_reserved":false,"is_disabled":false,"rental_uris":{"android":"levelo://app?vid=cbc0453b-ed64-4559-a3f0-a09f04f55843","ios":"levelo://app?vid=cbc0453b-ed64-4559-a3f0-a09f04f55843"},"vehicle_type_id":"4","last_reported":1747231841,"current_range_meters":12000,"station_id":"ce4bgv92rcd13ifvqcq0","pricing_plan_id":"cebpf4jnsgd1na2vs0mg"},{"bike_id":"4cc64465-6c97-4dba-9dd4-f3c8ed30da99","system_id":"levelo_inurba_marseille","lat":43.27373,"lon":5.36264,"is_reserved":false,"is_disabled":false,"rental_uris":{"android":"levelo://app?vid=4cc64465-6c97-4dba-9dd4-f3c8ed30da99","ios":"levelo://app?vid=4cc64465-6c97-4dba-9dd4-f3c8ed30da99"},"vehicle_type_id":"4","last_reported":1747231841,"current_range_meters":12000,"station_id":"ce4bhbh2rcd13ifvqeo0","pricing_plan_id":"cebpf4jnsgd1na2vs0mg"},{"bike_id":"7b10275e-c069-4713-89a7-4555daa74fb1","system_id":"levelo_inurba_marseille","lat":43.27568,"lon":5.38411,"is_reserved":false,"is_disabled":false,"rental_uris":{"android":"levelo://app?vid=7b10275e-c069-4713-89a7-4555daa74fb1","ios":"levelo://app?vid=7b10275e-c069-4713-89a7-4555daa74fb1"},"vehicle_type_id":"4","last_reported":1747231841,"current_range_meters":12000,"station_id":"ce4bhh92rcd13ifvqfi0","pricing_plan_id":"cebpf4jnsgd1na2vs0mg"},{"bike_id":"5ab18e08-2f04-47c7-87e7-98718991724a","system_id":"levelo_inurba_marseille","lat":43.23148,"lon":5.43722,"is_reserved":false,"is_disabled":false,"rental_uris":{"android":"levelo://app?vid=5ab18e08-2f04-47c7-87e7-98718991724a","ios":"levelo://app?vid=5ab18e08-2f04-47c7-87e7-98718991724a"},"vehicle_type_id":"4","last_reported":1747231841,"current_range_meters":12000,"station_id":"ce4bhmp2rcd13ifvqgog","pricing_plan_id":"cebpf4jnsgd1na2vs0mg"},{"bike_id":"790ff7b8-740f-4af6-9f14-f0470d7f37e2","system_id":"levelo_inurba_marseille","lat":43.28611,"lon":5.37062,"is_reserved":false,"is_disabled":false,"rental_uris":{"android":"levelo://app?vid=790ff7b8-740f-4af6-9f14-f0470d7f37e2","ios":"levelo://app?vid=790ff7b8-740f-4af6-9f14-f0470d7f37e2"},"vehicle_type_id":"4","last_reported":1747231841,"current_range_meters":12000,"station_id":"ce4bht12rcd13ifvqi60","pricing_plan_id":"cebpf4jnsgd1na2vs0mg"},{"bike_id":"32ce4f05-31dc-45c7-9c21-6e856696fd7d","system_id":"levelo_inurba_marseille","lat":43.30442,"lon":5.38875,"is_reserved":false,"is_disabled":false,"rental_uris":{"android":"levelo://app?vid=32ce4f05-31dc-45c7-9c21-6e856696fd7d","ios":"levelo://app?vid=32ce4f05-31dc-45c7-9c21-6e856696fd7d"},"vehicle_type_id":"4","last_reported":1747231841,"current_range_meters":12400,"station_id":"ce4bgk12rcd13ifvqbi0","pricing_plan_id":"cebpf4jnsgd1na2vs0mg"},{"bike_id":"743dd6ab-c4e1-408b-9474-c6f2c1432b8c","system_id":"levelo_inurba_marseille","lat":43.30545,"lon":5.36521,"is_reserved":false,"is_disabled":false,"rental_uris":{"android":"levelo://app?vid=743dd6ab-c4e1-408b-9474-c6f2c1432b8c","ios":"levelo://app?vid=743dd6ab-c4e1-408b-9474-c6f2c1432b8c"},"vehicle_type_id":"4","last_reported":1747231841,"current_range_meters":12400,"station_id":"ce4bgs12rcd13ifvqcag","pricing_plan_id":"cebpf4jnsgd1na2vs0mg"},{"bike_id":"cb6899e8-2598-4fcc-ae16-3a09a3a911a4","system_id":"levelo_inurba_marseille","lat":43.28424,"lon":5.34987,"is_reserved":false,"is_disabled":false,"rental_uris":{"android":"levelo://app?vid=cb6899e8-2598-4fcc-ae16-3a09a3a911a4","ios":"levelo://app?vid=cb6899e8-2598-4fcc-ae16-3a09a3a911a4"},"vehicle_type_id":"4","last_reported":1747231841,"current_range_meters":12400,"station_id":"ce4bhbh2rcd13ifvqepg","pricing_plan_id":"cebpf4jnsgd1na2vs0mg"},{"bike_id":"dc673568-28db-4bb2-bce5-8c48c407c9cd","system_id":"levelo_inurba_marseille","lat":43.2657,"lon":5.39008,"is_reserved":false,"is_disabled":false,"rental_uris":{"android":"levelo://app?vid=dc673568-28db-4bb2-bce5-8c48c407c9cd","ios":"levelo://app?vid=dc673568-28db-4bb2-bce5-8c48c407c9cd"},"vehicle_type_id":"4","last_reported":1747231841,"current_range_meters":12400,"station_id":"ce4bhe12rcd13ifvqf30","pricing_plan_id":"cebpf4jnsgd1na2vs0mg"},{"bike_id":"ef8b8435-5a14-4516-ac5d-8d497e1e85ba","system_id":"levelo_inurba_marseille","lat":43.25929,"lon":5.40915,"is_reserved":false,"is_disabled":false,"rental_uris":{"android":"levelo://app?vid=ef8b8435-5a14-4516-ac5d-8d497e1e85ba","ios":"levelo://app?vid=ef8b8435-5a14-4516-ac5d-8d497e1e85ba"},"vehicle_type_id":"4","last_reported":1747231841,"current_range_meters":12400,"station_id":"ce4bhm92rcd13ifvqglg","pricing_plan_id":"cebpf4jnsgd1na2vs0mg"},{"bike_id":"93cbfbfc-6591-4301-8eed-9baad3765e77","system_id":"levelo_inurba_marseille","lat":43.30106,"lon":5.40084,"is_reserved":false,"is_disabled":false,"rental_uris":{"android":"levelo://app?vid=93cbfbfc-6591-4301-8eed-9baad3765e77","ios":"levelo://app?vid=93cbfbfc-6591-4301-8eed-9baad3765e77"},"vehicle_type_id":"4","last_reported":1747231841,"current_range_meters":12400,"station_id":"ce4bhop2rcd13ifvqh8g","pricing_plan_id":"cebpf4jnsgd1na2vs0mg"},{"bike_id":"1e297e0e-a907-489c-9a22-1dfb89bfb64f","system_id":"levelo_inurba_marseille","lat":43.29225,"lon":5.36449,"is_reserved":false,"is_disabled":false,"rental_uris":{"android":"levelo://app?vid=1e297e0e-a907-489c-9a22-1dfb89bfb64f","ios":"levelo://app?vid=1e297e0e-a907-489c-9a22-1dfb89bfb64f"},"vehicle_type_id":"4","last_reported":1747231841,"current_range_meters":12800,"station_id":"","pricing_plan_id":"cebpf4jnsgd1na2vs0mg"},{"bike_id":"b29287fd-0cf6-47b2-b897-0c6f31921225","system_id":"levelo_inurba_marseille","lat":43.27388,"lon":5.36267,"is_reserved":false,"is_disabled":false,"rental_uris":{"android":"levelo://app?vid=b29287fd-0cf6-47b2-b897-0c6f31921225","ios":"levelo://app?vid=b29287fd-0cf6-47b2-b897-0c6f31921225"},"vehicle_type_id":"4","last_reported":1747231841,"current_range_meters":12800,"station_id":"ce4bhbh2rcd13ifvqeo0","pricing_plan_id":"cebpf4jnsgd1na2vs0mg"},{"bike_id":"8f26761f-61bc-4df8-bf2a-8b78bd3ab5b0","system_id":"levelo_inurba_marseille","lat":43.26939,"lon":5.38928,"is_reserved":false,"is_disabled":false,"rental_uris":{"android":"levelo://app?vid=8f26761f-61bc-4df8-bf2a-8b78bd3ab5b0","ios":"levelo://app?vid=8f26761f-61bc-4df8-bf2a-8b78bd3ab5b0"},"vehicle_type_id":"4","last_reported":1747231841,"current_range_meters":12800,"station_id":"ce4bhhh2rcd13ifvqfl0","pricing_plan_id":"cebpf4jnsgd1na2vs0mg"},{"bike_id":"1dffea47-932b-472d-a926-7c8a262923fb","system_id":"levelo_inurba_marseille","lat":43.2594,"lon":5.40908,"is_reserved":false,"is_disabled":false,"rental_uris":{"android":"levelo://app?vid=1dffea47-932b-472d-a926-7c8a262923fb","ios":"levelo://app?vid=1dffea47-932b-472d-a926-7c8a262923fb"},"vehicle_type_id":"4","last_reported":1747231841,"current_range_meters":12800,"station_id":"ce4bhm92rcd13ifvqglg","pricing_plan_id":"cebpf4jnsgd1na2vs0mg"},{"bike_id":"0f842b8f-fc76-4c1a-acf4-502756644c04","system_id":"levelo_inurba_marseille","lat":43.26805,"lon":5.40266,"is_reserved":false,"is_disabled":false,"rental_uris":{"android":"levelo://app?vid=0f842b8f-fc76-4c1a-acf4-502756644c04","ios":"levelo://app?vid=0f842b8f-fc76-4c1a-acf4-502756644c04"},"vehicle_type_id":"4","last_reported":1747231841,"current_range_meters":12800,"station_id":"ce501612rcd8frsf0b60","pricing_plan_id":"cebpf4jnsgd1na2vs0mg"},{"bike_id":"07ae5e72-3948-4428-95ce-5f3d75b51fba","system_id":"levelo_inurba_marseille","lat":43.29372,"lon":5.37858,"is_reserved":false,"is_disabled":false,"rental_uris":{"android":"levelo://app?vid=07ae5e72-3948-4428-95ce-5f3d75b51fba","ios":"levelo://app?vid=07ae5e72-3948-4428-95ce-5f3d75b51fba"},"vehicle_type_id":"4","last_reported":1747231841,"current_range_meters":13600,"station_id":"ce4bgjh2rcd13ifvqbf0","pricing_plan_id":"cebpf4jnsgd1na2vs0mg"},{"bike_id":"519e556e-526e-4e03-b6ed-37eaaf8115e2","system_id":"levelo_inurba_marseille","lat":43.28565,"lon":5.3949,"is_reserved":false,"is_disabled":false,"rental_uris":{"android":"levelo://app?vid=519e556e-526e-4e03-b6ed-37eaaf8115e2","ios":"levelo://app?vid=519e556e-526e-4e03-b6ed-37eaaf8115e2"},"vehicle_type_id":"4","last_reported":1747231841,"current_range_meters":13600,"station_id":"ce4bh292rcd13ifvqdg0","pricing_plan_id":"cebpf4jnsgd1na2vs0mg"},{"bike_id":"5d59e912-457b-4bb9-96fc-6e3a170035e6","system_id":"levelo_inurba_marseille","lat":43.29423,"lon":5.38616,"is_reserved":false,"is_disabled":false,"rental_uris":{"android":"levelo://app?vid=5d59e912-457b-4bb9-96fc-6e3a170035e6","ios":"levelo://app?vid=5d59e912-457b-4bb9-96fc-6e3a170035e6"},"vehicle_type_id":"4","last_reported":1747231841,"current_range_meters":13600,"station_id":"ce4bh2h2rcd13ifvqdh0","pricing_plan_id":"cebpf4jnsgd1na2vs0mg"},{"bike_id":"114cb68a-6040-4822-87d3-c74c0b6aa633","system_id":"levelo_inurba_marseille","lat":43.27426,"lon":5.39418,"is_reserved":false,"is_disabled":false,"rental_uris":{"android":"levelo://app?vid=114cb68a-6040-4822-87d3-c74c0b6aa633","ios":"levelo://app?vid=114cb68a-6040-4822-87d3-c74c0b6aa633"},"vehicle_type_id":"4","last_reported":1747231841,"current_range_meters":13600,"station_id":"ce4bhdp2rcd13ifvqf20","pricing_plan_id":"cebpf4jnsgd1na2vs0mg"},{"bike_id":"c9287562-64ec-4c4e-b72d-7bdeee670ec1","system_id":"levelo_inurba_marseille","lat":43.2657,"lon":5.39001,"is_reserved":false,"is_disabled":false,"rental_uris":{"android":"levelo://app?vid=c9287562-64ec-4c4e-b72d-7bdeee670ec1","ios":"levelo://app?vid=c9287562-64ec-4c4e-b72d-7bdeee670ec1"},"vehicle_type_id":"4","last_reported":1747231841,"current_range_meters":13600,"station_id":"ce4bhe12rcd13ifvqf30","pricing_plan_id":"cebpf4jnsgd1na2vs0mg"},{"bike_id":"4b9e106d-a4cd-4b43-b97a-ca269dedd597","system_id":"levelo_inurba_marseille","lat":43.254905,"lon":5.376618,"is_reserved":false,"is_disabled":false,"rental_uris":{"android":"levelo://app?vid=4b9e106d-a4cd-4b43-b97a-ca269dedd597","ios":"levelo://app?vid=4b9e106d-a4cd-4b43-b97a-ca269dedd597"},"vehicle_type_id":"4","last_reported":1747231841,"current_range_meters":13600,"station_id":"ce4bhh12rcd13ifvqff0","pricing_plan_id":"cebpf4jnsgd1na2vs0mg"},{"bike_id":"2a9b2fab-b301-42ee-9ed7-3ebf422d8233","system_id":"levelo_inurba_marseille","lat":43.32379,"lon":5.38875,"is_reserved":false,"is_disabled":false,"rental_uris":{"android":"levelo://app?vid=2a9b2fab-b301-42ee-9ed7-3ebf422d8233","ios":"levelo://app?vid=2a9b2fab-b301-42ee-9ed7-3ebf422d8233"},"vehicle_type_id":"4","last_reported":1747231841,"current_range_meters":14000,"station_id":"ce4bhqp2rcd13ifvqhog","pricing_plan_id":"cebpf4jnsgd1na2vs0mg"},{"bike_id":"1650302b-497b-4bbd-8c2a-9edef6b2a9c9","system_id":"levelo_inurba_marseille","lat":43.28448,"lon":5.34966,"is_reserved":false,"is_disabled":false,"rental_uris":{"android":"levelo://app?vid=1650302b-497b-4bbd-8c2a-9edef6b2a9c9","ios":"levelo://app?vid=1650302b-497b-4bbd-8c2a-9edef6b2a9c9"},"vehicle_type_id":"4","last_reported":1747231841,"current_range_meters":14400,"station_id":"ce4bhbh2rcd13ifvqepg","pricing_plan_id":"cebpf4jnsgd1na2vs0mg"},{"bike_id":"25881b82-1df5-42df-981f-15e0b80288cb","system_id":"levelo_inurba_marseille","lat":43.24808,"lon":5.37458,"is_reserved":false,"is_disabled":false,"rental_uris":{"android":"levelo://app?vid=25881b82-1df5-42df-981f-15e0b80288cb","ios":"levelo://app?vid=25881b82-1df5-42df-981f-15e0b80288cb"},"vehicle_type_id":"4","last_reported":1747231841,"current_range_meters":14400,"station_id":"ce4bhgh2rcd13ifvqfb0","pricing_plan_id":"cebpf4jnsgd1na2vs0mg"},{"bike_id":"1feda3f1-70ba-4895-83be-f925da859e67","system_id":"levelo_inurba_marseille","lat":43.25864,"lon":5.39918,"is_reserved":false,"is_disabled":false,"rental_uris":{"android":"levelo://app?vid=1feda3f1-70ba-4895-83be-f925da859e67","ios":"levelo://app?vid=1feda3f1-70ba-4895-83be-f925da859e67"},"vehicle_type_id":"4","last_reported":1747231841,"current_range_meters":14400,"station_id":"ce4bhl92rcd13ifvqghg","pricing_plan_id":"cebpf4jnsgd1na2vs0mg"},{"bike_id":"d517cce2-0c4d-4069-8b5c-645bcccd7ad5","system_id":"levelo_inurba_marseille","lat":43.30806,"lon":5.3814,"is_reserved":false,"is_disabled":false,"rental_uris":{"android":"levelo://app?vid=d517cce2-0c4d-4069-8b5c-645bcccd7ad5","ios":"levelo://app?vid=d517cce2-0c4d-4069-8b5c-645bcccd7ad5"},"vehicle_type_id":"4","last_reported":1747231841,"current_range_meters":14800,"station_id":"ce4bgt12rcd13ifvqce0","pricing_plan_id":"cebpf4jnsgd1na2vs0mg"},{"bike_id":"0b863341-8499-495d-8401-6476296f638b","system_id":"levelo_inurba_marseille","lat":43.28417,"lon":5.34981,"is_reserved":false,"is_disabled":false,"rental_uris":{"android":"levelo://app?vid=0b863341-8499-495d-8401-6476296f638b","ios":"levelo://app?vid=0b863341-8499-495d-8401-6476296f638b"},"vehicle_type_id":"4","last_reported":1747231841,"current_range_meters":14800,"station_id":"ce4bhbh2rcd13ifvqepg","pricing_plan_id":"cebpf4jnsgd1na2vs0mg"},{"bike_id":"56b96fda-1e00-4926-b4b0-b4a75d574bc0","system_id":"levelo_inurba_marseille","lat":43.28256,"lon":5.35082,"is_reserved":false,"is_disabled":false,"rental_uris":{"android":"levelo://app?vid=56b96fda-1e00-4926-b4b0-b4a75d574bc0","ios":"levelo://app?vid=56b96fda-1e00-4926-b4b0-b4a75d574bc0"},"vehicle_type_id":"4","last_reported":1747231841,"current_range_meters":14800,"station_id":"ce4bhbp2rcd13ifvqerg","pricing_plan_id":"cebpf4jnsgd1na2vs0mg"},{"bike_id":"c2ebd2f1-7e68-4ddb-a45b-03d6986839c7","system_id":"levelo_inurba_marseille","lat":43.27568,"lon":5.38418,"is_reserved":false,"is_disabled":false,"rental_uris":{"android":"levelo://app?vid=c2ebd2f1-7e68-4ddb-a45b-03d6986839c7","ios":"levelo://app?vid=c2ebd2f1-7e68-4ddb-a45b-03d6986839c7"},"vehicle_type_id":"4","last_reported":1747231841,"current_range_meters":14800,"station_id":"ce4bhh92rcd13ifvqfi0","pricing_plan_id":"cebpf4jnsgd1na2vs0mg"},{"bike_id":"253a42be-1b55-4fb1-89f4-c2d1510887e7","system_id":"levelo_inurba_marseille","lat":43.30971,"lon":5.39018,"is_reserved":false,"is_disabled":false,"rental_uris":{"android":"levelo://app?vid=253a42be-1b55-4fb1-89f4-c2d1510887e7","ios":"levelo://app?vid=253a42be-1b55-4fb1-89f4-c2d1510887e7"},"vehicle_type_id":"4","last_reported":1747231841,"current_range_meters":15200,"station_id":"ce4bgup2rcd13ifvqco0","pricing_plan_id":"cebpf4jnsgd1na2vs0mg"},{"bike_id":"5533707b-6b0e-4756-95e6-d9fcd5942b34","system_id":"levelo_inurba_marseille","lat":43.29008,"lon":5.35618,"is_reserved":false,"is_disabled":false,"rental_uris":{"android":"levelo://app?vid=5533707b-6b0e-4756-95e6-d9fcd5942b34","ios":"levelo://app?vid=5533707b-6b0e-4756-95e6-d9fcd5942b34"},"vehicle_type_id":"4","last_reported":1747231841,"current_range_meters":15200,"station_id":"ce4bhb92rcd13ifvqen0","pricing_plan_id":"cebpf4jnsgd1na2vs0mg"},{"bike_id":"efaa262f-249c-4e61-941f-c35f022064a4","system_id":"levelo_inurba_marseille","lat":43.28942,"lon":5.36391,"is_reserved":false,"is_disabled":false,"rental_uris":{"android":"levelo://app?vid=efaa262f-249c-4e61-941f-c35f022064a4","ios":"levelo://app?vid=efaa262f-249c-4e61-941f-c35f022064a4"},"vehicle_type_id":"4","last_reported":1747231841,"current_range_meters":15200,"station_id":"ce4bhc92rcd13ifvqetg","pricing_plan_id":"cebpf4jnsgd1na2vs0mg"},{"bike_id":"7426cd5b-3524-47ea-97ec-3d12b0c808f8","system_id":"levelo_inurba_marseille","lat":43.308,"lon":5.3816,"is_reserved":false,"is_disabled":false,"rental_uris":{"android":"levelo://app?vid=7426cd5b-3524-47ea-97ec-3d12b0c808f8","ios":"levelo://app?vid=7426cd5b-3524-47ea-97ec-3d12b0c808f8"},"vehicle_type_id":"4","last_reported":1747231841,"current_range_meters":16000,"station_id":"ce4bgt12rcd13ifvqce0","pricing_plan_id":"cebpf4jnsgd1na2vs0mg"},{"bike_id":"47a684a4-3831-482b-b563-72f0814dd47f","system_id":"levelo_inurba_marseille","lat":43.2927,"lon":5.38435,"is_reserved":false,"is_disabled":false,"rental_uris":{"android":"levelo://app?vid=47a684a4-3831-482b-b563-72f0814dd47f","ios":"levelo://app?vid=47a684a4-3831-482b-b563-72f0814dd47f"},"vehicle_type_id":"4","last_reported":1747231841,"current_range_meters":16400,"station_id":"ce4bh692rcd13ifvqea0","pricing_plan_id":"cebpf4jnsgd1na2vs0mg"},{"bike_id":"6f106923-e4a6-4cd6-8b4b-3f6fa2925f7b","system_id":"levelo_inurba_marseille","lat":43.29005,"lon":5.35614,"is_reserved":false,"is_disabled":false,"rental_uris":{"android":"levelo://app?vid=6f106923-e4a6-4cd6-8b4b-3f6fa2925f7b","ios":"levelo://app?vid=6f106923-e4a6-4cd6-8b4b-3f6fa2925f7b"},"vehicle_type_id":"4","last_reported":1747231841,"current_range_meters":16400,"station_id":"ce4bhb92rcd13ifvqen0","pricing_plan_id":"cebpf4jnsgd1na2vs0mg"},{"bike_id":"76c722f6-7b3d-4572-95d7-073aea98ffac","system_id":"levelo_inurba_marseille","lat":43.28001,"lon":5.40009,"is_reserved":false,"is_disabled":false,"rental_uris":{"android":"levelo://app?vid=76c722f6-7b3d-4572-95d7-073aea98ffac","ios":"levelo://app?vid=76c722f6-7b3d-4572-95d7-073aea98ffac"},"vehicle_type_id":"4","last_reported":1747231841,"current_range_meters":16400,"station_id":"ce4bho92rcd13ifvqh4g","pricing_plan_id":"cebpf4jnsgd1na2vs0mg"},{"bike_id":"a0fd54c0-4c17-41ee-9f2f-af0a81d9b4a1","system_id":"levelo_inurba_marseille","lat":43.33735,"lon":5.39188,"is_reserved":false,"is_disabled":false,"rental_uris":{"android":"levelo://app?vid=a0fd54c0-4c17-41ee-9f2f-af0a81d9b4a1","ios":"levelo://app?vid=a0fd54c0-4c17-41ee-9f2f-af0a81d9b4a1"},"vehicle_type_id":"4","last_reported":1747231841,"current_range_meters":16400,"station_id":"ce4bhr92rcd13ifvqhsg","pricing_plan_id":"cebpf4jnsgd1na2vs0mg"},{"bike_id":"626f8d70-ba14-45ab-8cc0-611248241630","system_id":"levelo_inurba_marseille","lat":43.298161,"lon":5.374198,"is_reserved":false,"is_disabled":false,"rental_uris":{"android":"levelo://app?vid=626f8d70-ba14-45ab-8cc0-611248241630","ios":"levelo://app?vid=626f8d70-ba14-45ab-8cc0-611248241630"},"vehicle_type_id":"4","last_reported":1747231841,"current_range_meters":16400,"station_id":"ce4bhrh2rcd13ifvqhug","pricing_plan_id":"cebpf4jnsgd1na2vs0mg"},{"bike_id":"1d942bfe-9c5f-4ec2-b628-6b4c07d42b6d","system_id":"levelo_inurba_marseille","lat":43.26262,"lon":5.37496,"is_reserved":false,"is_disabled":false,"rental_uris":{"android":"levelo://app?vid=1d942bfe-9c5f-4ec2-b628-6b4c07d42b6d","ios":"levelo://app?vid=1d942bfe-9c5f-4ec2-b628-6b4c07d42b6d"},"vehicle_type_id":"4","last_reported":1747231841,"current_range_meters":16800,"station_id":"","pricing_plan_id":"cebpf4jnsgd1na2vs0mg"},{"bike_id":"f6df2748-7ae3-43a2-80f5-55d5872891de","system_id":"levelo_inurba_marseille","lat":43.29914,"lon":5.38141,"is_reserved":false,"is_disabled":false,"rental_uris":{"android":"levelo://app?vid=f6df2748-7ae3-43a2-80f5-55d5872891de","ios":"levelo://app?vid=f6df2748-7ae3-43a2-80f5-55d5872891de"},"vehicle_type_id":"4","last_reported":1747231841,"current_range_meters":16800,"station_id":"ce4bgj12rcd13ifvqbc0","pricing_plan_id":"cebpf4jnsgd1na2vs0mg"},{"bike_id":"6ed6b045-5fdd-4b23-810c-9f519910480c","system_id":"levelo_inurba_marseille","lat":43.30914,"lon":5.36898,"is_reserved":false,"is_disabled":false,"rental_uris":{"android":"levelo://app?vid=6ed6b045-5fdd-4b23-810c-9f519910480c","ios":"levelo://app?vid=6ed6b045-5fdd-4b23-810c-9f519910480c"},"vehicle_type_id":"4","last_reported":1747231841,"current_range_meters":16800,"station_id":"ce4bgn92rcd13ifvqbvg","pricing_plan_id":"cebpf4jnsgd1na2vs0mg"},{"bike_id":"29da195a-23e3-480c-b01e-b147eecbc0a4","system_id":"levelo_inurba_marseille","lat":43.27356,"lon":5.36222,"is_reserved":false,"is_disabled":false,"rental_uris":{"android":"levelo://app?vid=29da195a-23e3-480c-b01e-b147eecbc0a4","ios":"levelo://app?vid=29da195a-23e3-480c-b01e-b147eecbc0a4"},"vehicle_type_id":"4","last_reported":1747231841,"current_range_meters":16800,"station_id":"ce4bhbh2rcd13ifvqeo0","pricing_plan_id":"cebpf4jnsgd1na2vs0mg"},{"bike_id":"fa7eb952-5a4d-4c3a-8371-ce3eca68d8f2","system_id":"levelo_inurba_marseille","lat":43.26679,"lon":5.38282,"is_reserved":false,"is_disabled":false,"rental_uris":{"android":"levelo://app?vid=fa7eb952-5a4d-4c3a-8371-ce3eca68d8f2","ios":"levelo://app?vid=fa7eb952-5a4d-4c3a-8371-ce3eca68d8f2"},"vehicle_type_id":"4","last_reported":1747231841,"current_range_meters":16800,"station_id":"ce4bhg92rcd13ifvqf90","pricing_plan_id":"cebpf4jnsgd1na2vs0mg"},{"bike_id":"8582b504-f92d-46a4-a5b0-0d2fb83d5b45","system_id":"levelo_inurba_marseille","lat":43.26789,"lon":5.39416,"is_reserved":false,"is_disabled":false,"rental_uris":{"android":"levelo://app?vid=8582b504-f92d-46a4-a5b0-0d2fb83d5b45","ios":"levelo://app?vid=8582b504-f92d-46a4-a5b0-0d2fb83d5b45"},"vehicle_type_id":"4","last_reported":1747231841,"current_range_meters":16800,"station_id":"ce4bhh12rcd13ifvqfg0","pricing_plan_id":"cebpf4jnsgd1na2vs0mg"},{"bike_id":"81df83bd-96fe-4025-8404-279d0c4d21a9","system_id":"levelo_inurba_marseille","lat":43.25927,"lon":5.40891,"is_reserved":false,"is_disabled":false,"rental_uris":{"android":"levelo://app?vid=81df83bd-96fe-4025-8404-279d0c4d21a9","ios":"levelo://app?vid=81df83bd-96fe-4025-8404-279d0c4d21a9"},"vehicle_type_id":"4","last_reported":1747231841,"current_range_meters":16800,"station_id":"ce4bhm92rcd13ifvqglg","pricing_plan_id":"cebpf4jnsgd1na2vs0mg"},{"bike_id":"5b2bf2cc-e79c-4a99-a91f-20d49657d90b","system_id":"levelo_inurba_marseille","lat":43.2417,"lon":5.39768,"is_reserved":false,"is_disabled":false,"rental_uris":{"android":"levelo://app?vid=5b2bf2cc-e79c-4a99-a91f-20d49657d90b","ios":"levelo://app?vid=5b2bf2cc-e79c-4a99-a91f-20d49657d90b"},"vehicle_type_id":"4","last_reported":1747231841,"current_range_meters":16800,"station_id":"ce4bhn12rcd13ifvqgpg","pricing_plan_id":"cebpf4jnsgd1na2vs0mg"},{"bike_id":"523d7554-8537-47c6-bdd2-3488212ffae1","system_id":"levelo_inurba_marseille","lat":43.23186,"lon":5.39977,"is_reserved":false,"is_disabled":false,"rental_uris":{"android":"levelo://app?vid=523d7554-8537-47c6-bdd2-3488212ffae1","ios":"levelo://app?vid=523d7554-8537-47c6-bdd2-3488212ffae1"},"vehicle_type_id":"4","last_reported":1747231841,"current_range_meters":16800,"station_id":"ce4bhn12rcd13ifvqgqg","pricing_plan_id":"cebpf4jnsgd1na2vs0mg"},{"bike_id":"e9ea8835-9e38-4a32-993c-910d09e36fe3","system_id":"levelo_inurba_marseille","lat":43.27947,"lon":5.4105,"is_reserved":false,"is_disabled":false,"rental_uris":{"android":"levelo://app?vid=e9ea8835-9e38-4a32-993c-910d09e36fe3","ios":"levelo://app?vid=e9ea8835-9e38-4a32-993c-910d09e36fe3"},"vehicle_type_id":"4","last_reported":1747231841,"current_range_meters":16800,"station_id":"ce4bhnp2rcd13ifvqh0g","pricing_plan_id":"cebpf4jnsgd1na2vs0mg"},{"bike_id":"495c2835-8720-4df8-8ddf-7e635f5da6e1","system_id":"levelo_inurba_marseille","lat":43.284664,"lon":5.358888,"is_reserved":false,"is_disabled":false,"rental_uris":{"android":"levelo://app?vid=495c2835-8720-4df8-8ddf-7e635f5da6e1","ios":"levelo://app?vid=495c2835-8720-4df8-8ddf-7e635f5da6e1"},"vehicle_type_id":"4","last_reported":1747231841,"current_range_meters":17200,"station_id":"ce4bhah2rcd13ifvqei0","pricing_plan_id":"cebpf4jnsgd1na2vs0mg"},{"bike_id":"ae236008-c91c-41b1-a45c-d8d61680b83e","system_id":"levelo_inurba_marseille","lat":43.27562,"lon":5.38453,"is_reserved":false,"is_disabled":false,"rental_uris":{"android":"levelo://app?vid=ae236008-c91c-41b1-a45c-d8d61680b83e","ios":"levelo://app?vid=ae236008-c91c-41b1-a45c-d8d61680b83e"},"vehicle_type_id":"4","last_reported":1747231841,"current_range_meters":17200,"station_id":"ce4bhh92rcd13ifvqfi0","pricing_plan_id":"cebpf4jnsgd1na2vs0mg"},{"bike_id":"16c6b493-da0f-44c8-8270-19e6f664cdd9","system_id":"levelo_inurba_marseille","lat":43.33745,"lon":5.3919,"is_reserved":false,"is_disabled":false,"rental_uris":{"android":"levelo://app?vid=16c6b493-da0f-44c8-8270-19e6f664cdd9","ios":"levelo://app?vid=16c6b493-da0f-44c8-8270-19e6f664cdd9"},"vehicle_type_id":"4","last_reported":1747231841,"current_range_meters":17200,"station_id":"ce4bhr92rcd13ifvqhsg","pricing_plan_id":"cebpf4jnsgd1na2vs0mg"},{"bike_id":"122c70d0-bda8-41b0-9314-1ec9a2d121ca","system_id":"levelo_inurba_marseille","lat":43.337444,"lon":5.374475,"is_reserved":false,"is_disabled":false,"rental_uris":{"android":"levelo://app?vid=122c70d0-bda8-41b0-9314-1ec9a2d121ca","ios":"levelo://app?vid=122c70d0-bda8-41b0-9314-1ec9a2d121ca"},"vehicle_type_id":"4","last_reported":1747231841,"current_range_meters":17600,"station_id":"","pricing_plan_id":"cebpf4jnsgd1na2vs0mg"},{"bike_id":"22ffacea-0b6d-41d9-8f60-a6ab885f9782","system_id":"levelo_inurba_marseille","lat":43.30954,"lon":5.39032,"is_reserved":false,"is_disabled":false,"rental_uris":{"android":"levelo://app?vid=22ffacea-0b6d-41d9-8f60-a6ab885f9782","ios":"levelo://app?vid=22ffacea-0b6d-41d9-8f60-a6ab885f9782"},"vehicle_type_id":"4","last_reported":1747231841,"current_range_meters":17600,"station_id":"ce4bgup2rcd13ifvqco0","pricing_plan_id":"cebpf4jnsgd1na2vs0mg"},{"bike_id":"6636ff13-4969-41b9-bcc1-0171aa3933a8","system_id":"levelo_inurba_marseille","lat":43.31171,"lon":5.38729,"is_reserved":false,"is_disabled":false,"rental_uris":{"android":"levelo://app?vid=6636ff13-4969-41b9-bcc1-0171aa3933a8","ios":"levelo://app?vid=6636ff13-4969-41b9-bcc1-0171aa3933a8"},"vehicle_type_id":"4","last_reported":1747231841,"current_range_meters":17600,"station_id":"ce4bgv12rcd13ifvqcp0","pricing_plan_id":"cebpf4jnsgd1na2vs0mg"},{"bike_id":"3eb37e7a-5933-41c5-9616-00dff0b0d705","system_id":"levelo_inurba_marseille","lat":43.24183,"lon":5.39732,"is_reserved":false,"is_disabled":false,"rental_uris":{"android":"levelo://app?vid=3eb37e7a-5933-41c5-9616-00dff0b0d705","ios":"levelo://app?vid=3eb37e7a-5933-41c5-9616-00dff0b0d705"},"vehicle_type_id":"4","last_reported":1747231841,"current_range_meters":17600,"station_id":"ce4bhn12rcd13ifvqgpg","pricing_plan_id":"cebpf4jnsgd1na2vs0mg"},{"bike_id":"ac0112c9-313e-422c-910b-a3523b05b0c9","system_id":"levelo_inurba_marseille","lat":43.23061,"lon":5.3549,"is_reserved":false,"is_disabled":false,"rental_uris":{"android":"levelo://app?vid=ac0112c9-313e-422c-910b-a3523b05b0c9","ios":"levelo://app?vid=ac0112c9-313e-422c-910b-a3523b05b0c9"},"vehicle_type_id":"4","last_reported":1747231841,"current_range_meters":17600,"station_id":"cpo3342slgdg3j2ifvpg","pricing_plan_id":"cebpf4jnsgd1na2vs0mg"},{"bike_id":"480ff27b-365f-407a-80d6-06f33a7e08b9","system_id":"levelo_inurba_marseille","lat":43.3211,"lon":5.36769,"is_reserved":false,"is_disabled":false,"rental_uris":{"android":"levelo://app?vid=480ff27b-365f-407a-80d6-06f33a7e08b9","ios":"levelo://app?vid=480ff27b-365f-407a-80d6-06f33a7e08b9"},"vehicle_type_id":"4","last_reported":1747231841,"current_range_meters":18000,"station_id":"","pricing_plan_id":"cebpf4jnsgd1na2vs0mg"},{"bike_id":"d74dda0c-2ae8-4a20-aee3-80ba3b692d64","system_id":"levelo_inurba_marseille","lat":43.30484,"lon":5.37189,"is_reserved":false,"is_disabled":false,"rental_uris":{"android":"levelo://app?vid=d74dda0c-2ae8-4a20-aee3-80ba3b692d64","ios":"levelo://app?vid=d74dda0c-2ae8-4a20-aee3-80ba3b692d64"},"vehicle_type_id":"4","last_reported":1747231841,"current_range_meters":18000,"station_id":"","pricing_plan_id":"cebpf4jnsgd1na2vs0mg"},{"bike_id":"e20cf462-5601-4538-a886-15e59bbf6b7f","system_id":"levelo_inurba_marseille","lat":43.29373,"lon":5.37856,"is_reserved":false,"is_disabled":false,"rental_uris":{"android":"levelo://app?vid=e20cf462-5601-4538-a886-15e59bbf6b7f","ios":"levelo://app?vid=e20cf462-5601-4538-a886-15e59bbf6b7f"},"vehicle_type_id":"4","last_reported":1747231841,"current_range_meters":18000,"station_id":"ce4bgjh2rcd13ifvqbf0","pricing_plan_id":"cebpf4jnsgd1na2vs0mg"},{"bike_id":"071bae66-a3c2-407f-a4ef-b9866a42fb1d","system_id":"levelo_inurba_marseille","lat":43.3122,"lon":5.36848,"is_reserved":false,"is_disabled":false,"rental_uris":{"android":"levelo://app?vid=071bae66-a3c2-407f-a4ef-b9866a42fb1d","ios":"levelo://app?vid=071bae66-a3c2-407f-a4ef-b9866a42fb1d"},"vehicle_type_id":"4","last_reported":1747231841,"current_range_meters":18000,"station_id":"ce4bgl92rcd13ifvqbq0","pricing_plan_id":"cebpf4jnsgd1na2vs0mg"},{"bike_id":"4395f287-f09b-458a-b728-d6a369797ac2","system_id":"levelo_inurba_marseille","lat":43.313328,"lon":5.396897,"is_reserved":false,"is_disabled":false,"rental_uris":{"android":"levelo://app?vid=4395f287-f09b-458a-b728-d6a369797ac2","ios":"levelo://app?vid=4395f287-f09b-458a-b728-d6a369797ac2"},"vehicle_type_id":"4","last_reported":1747231841,"current_range_meters":18000,"station_id":"ce4bgvp2rcd13ifvqcu0","pricing_plan_id":"cebpf4jnsgd1na2vs0mg"},{"bike_id":"0a41f867-9e4f-4d2a-bc2e-ffc9fda63c73","system_id":"levelo_inurba_marseille","lat":43.26559,"lon":5.37308,"is_reserved":false,"is_disabled":false,"rental_uris":{"android":"levelo://app?vid=0a41f867-9e4f-4d2a-bc2e-ffc9fda63c73","ios":"levelo://app?vid=0a41f867-9e4f-4d2a-bc2e-ffc9fda63c73"},"vehicle_type_id":"4","last_reported":1747231841,"current_range_meters":18000,"station_id":"ce4bhg12rcd13ifvqf70","pricing_plan_id":"cebpf4jnsgd1na2vs0mg"},{"bike_id":"83579664-ba89-4192-a06b-7c1498833543","system_id":"levelo_inurba_marseille","lat":43.266845,"lon":5.38271,"is_reserved":false,"is_disabled":false,"rental_uris":{"android":"levelo://app?vid=83579664-ba89-4192-a06b-7c1498833543","ios":"levelo://app?vid=83579664-ba89-4192-a06b-7c1498833543"},"vehicle_type_id":"4","last_reported":1747231841,"current_range_meters":18000,"station_id":"ce4bhg92rcd13ifvqf90","pricing_plan_id":"cebpf4jnsgd1na2vs0mg"},{"bike_id":"905e2290-2ea4-4c48-9fb6-5f5bfbea177c","system_id":"levelo_inurba_marseille","lat":43.26205,"lon":5.37927,"is_reserved":false,"is_disabled":false,"rental_uris":{"android":"levelo://app?vid=905e2290-2ea4-4c48-9fb6-5f5bfbea177c","ios":"levelo://app?vid=905e2290-2ea4-4c48-9fb6-5f5bfbea177c"},"vehicle_type_id":"4","last_reported":1747231841,"current_range_meters":18000,"station_id":"ce4bhjp2rcd13ifvqg90","pricing_plan_id":"cebpf4jnsgd1na2vs0mg"},{"bike_id":"e9df6016-ff13-44dd-92a9-83eedb198774","system_id":"levelo_inurba_marseille","lat":43.28444,"lon":5.39213,"is_reserved":false,"is_disabled":false,"rental_uris":{"android":"levelo://app?vid=e9df6016-ff13-44dd-92a9-83eedb198774","ios":"levelo://app?vid=e9df6016-ff13-44dd-92a9-83eedb198774"},"vehicle_type_id":"4","last_reported":1747231841,"current_range_meters":18000,"station_id":"ce4bhoh2rcd13ifvqh5g","pricing_plan_id":"cebpf4jnsgd1na2vs0mg"},{"bike_id":"92c09459-ccd1-46d5-b153-058bf7221695","system_id":"levelo_inurba_marseille","lat":43.27623,"lon":5.36106,"is_reserved":false,"is_disabled":false,"rental_uris":{"android":"levelo://app?vid=92c09459-ccd1-46d5-b153-058bf7221695","ios":"levelo://app?vid=92c09459-ccd1-46d5-b153-058bf7221695"},"vehicle_type_id":"4","last_reported":1747231841,"current_range_meters":18800,"station_id":"ce4bgj92rcd13ifvqbe0","pricing_plan_id":"cebpf4jnsgd1na2vs0mg"},{"bike_id":"61ce1d70-e2a9-4eaf-a390-76e3fb4a1dd3","system_id":"levelo_inurba_marseille","lat":43.31178,"lon":5.38712,"is_reserved":false,"is_disabled":false,"rental_uris":{"android":"levelo://app?vid=61ce1d70-e2a9-4eaf-a390-76e3fb4a1dd3","ios":"levelo://app?vid=61ce1d70-e2a9-4eaf-a390-76e3fb4a1dd3"},"vehicle_type_id":"4","last_reported":1747231841,"current_range_meters":18800,"station_id":"ce4bgv12rcd13ifvqcp0","pricing_plan_id":"cebpf4jnsgd1na2vs0mg"},{"bike_id":"fe413c89-4a6c-4f62-a3d8-e3e7e6507510","system_id":"levelo_inurba_marseille","lat":43.28575,"lon":5.39499,"is_reserved":false,"is_disabled":false,"rental_uris":{"android":"levelo://app?vid=fe413c89-4a6c-4f62-a3d8-e3e7e6507510","ios":"levelo://app?vid=fe413c89-4a6c-4f62-a3d8-e3e7e6507510"},"vehicle_type_id":"4","last_reported":1747231841,"current_range_meters":18800,"station_id":"ce4bh292rcd13ifvqdg0","pricing_plan_id":"cebpf4jnsgd1na2vs0mg"},{"bike_id":"46538967-3968-4e16-bd88-7218ec6b9052","system_id":"levelo_inurba_marseille","lat":43.28374,"lon":5.38639,"is_reserved":false,"is_disabled":false,"rental_uris":{"android":"levelo://app?vid=46538967-3968-4e16-bd88-7218ec6b9052","ios":"levelo://app?vid=46538967-3968-4e16-bd88-7218ec6b9052"},"vehicle_type_id":"4","last_reported":1747231841,"current_range_meters":18800,"station_id":"ce4bh492rcd13ifvqdvg","pricing_plan_id":"cebpf4jnsgd1na2vs0mg"},{"bike_id":"b23d6598-2615-4544-8627-a4f8c6fa8800","system_id":"levelo_inurba_marseille","lat":43.23148,"lon":5.43722,"is_reserved":false,"is_disabled":false,"rental_uris":{"android":"levelo://app?vid=b23d6598-2615-4544-8627-a4f8c6fa8800","ios":"levelo://app?vid=b23d6598-2615-4544-8627-a4f8c6fa8800"},"vehicle_type_id":"4","last_reported":1747231841,"current_range_meters":18800,"station_id":"ce4bhmp2rcd13ifvqgog","pricing_plan_id":"cebpf4jnsgd1na2vs0mg"},{"bike_id":"297a85b0-fa8c-489e-bd98-6fd7f3aae510","system_id":"levelo_inurba_marseille","lat":43.24173,"lon":5.39733,"is_reserved":false,"is_disabled":false,"rental_uris":{"android":"levelo://app?vid=297a85b0-fa8c-489e-bd98-6fd7f3aae510","ios":"levelo://app?vid=297a85b0-fa8c-489e-bd98-6fd7f3aae510"},"vehicle_type_id":"4","last_reported":1747231841,"current_range_meters":18800,"station_id":"ce4bhn12rcd13ifvqgpg","pricing_plan_id":"cebpf4jnsgd1na2vs0mg"},{"bike_id":"4e725639-2a8a-4377-9871-94ec45b4f430","system_id":"levelo_inurba_marseille","lat":43.23184,"lon":5.39993,"is_reserved":false,"is_disabled":false,"rental_uris":{"android":"levelo://app?vid=4e725639-2a8a-4377-9871-94ec45b4f430","ios":"levelo://app?vid=4e725639-2a8a-4377-9871-94ec45b4f430"},"vehicle_type_id":"4","last_reported":1747231841,"current_range_meters":18800,"station_id":"ce4bhn12rcd13ifvqgqg","pricing_plan_id":"cebpf4jnsgd1na2vs0mg"},{"bike_id":"9a959ce2-c91c-4c23-865e-416fde1834df","system_id":"levelo_inurba_marseille","lat":43.28606,"lon":5.37066,"is_reserved":false,"is_disabled":false,"rental_uris":{"android":"levelo://app?vid=9a959ce2-c91c-4c23-865e-416fde1834df","ios":"levelo://app?vid=9a959ce2-c91c-4c23-865e-416fde1834df"},"vehicle_type_id":"4","last_reported":1747231841,"current_range_meters":18800,"station_id":"ce4bht12rcd13ifvqi60","pricing_plan_id":"cebpf4jnsgd1na2vs0mg"},{"bike_id":"222fde1c-1746-41f9-b7c0-550e0b3297b3","system_id":"levelo_inurba_marseille","lat":43.28119,"lon":5.44224,"is_reserved":false,"is_disabled":false,"rental_uris":{"android":"levelo://app?vid=222fde1c-1746-41f9-b7c0-550e0b3297b3","ios":"levelo://app?vid=222fde1c-1746-41f9-b7c0-550e0b3297b3"},"vehicle_type_id":"4","last_reported":1747231841,"current_range_meters":19200,"station_id":"","pricing_plan_id":"cebpf4jnsgd1na2vs0mg"},{"bike_id":"1def4d9e-ba54-4554-8279-72b57c0de750","system_id":"levelo_inurba_marseille","lat":43.337444,"lon":5.374475,"is_reserved":false,"is_disabled":false,"rental_uris":{"android":"levelo://app?vid=1def4d9e-ba54-4554-8279-72b57c0de750","ios":"levelo://app?vid=1def4d9e-ba54-4554-8279-72b57c0de750"},"vehicle_type_id":"4","last_reported":1747231841,"current_range_meters":19200,"station_id":"","pricing_plan_id":"cebpf4jnsgd1na2vs0mg"},{"bike_id":"59522c92-ae68-47cb-8192-6c1f292c4785","system_id":"levelo_inurba_marseille","lat":43.284184,"lon":5.34982,"is_reserved":false,"is_disabled":false,"rental_uris":{"android":"levelo://app?vid=59522c92-ae68-47cb-8192-6c1f292c4785","ios":"levelo://app?vid=59522c92-ae68-47cb-8192-6c1f292c4785"},"vehicle_type_id":"4","last_reported":1747231841,"current_range_meters":19200,"station_id":"ce4bhbh2rcd13ifvqepg","pricing_plan_id":"cebpf4jnsgd1na2vs0mg"},{"bike_id":"a97e7f2f-a4bd-43dc-a4a3-f47c4b150cbd","system_id":"levelo_inurba_marseille","lat":43.241852,"lon":5.397351,"is_reserved":false,"is_disabled":false,"rental_uris":{"android":"levelo://app?vid=a97e7f2f-a4bd-43dc-a4a3-f47c4b150cbd","ios":"levelo://app?vid=a97e7f2f-a4bd-43dc-a4a3-f47c4b150cbd"},"vehicle_type_id":"4","last_reported":1747231841,"current_range_meters":19200,"station_id":"ce4bhn12rcd13ifvqgpg","pricing_plan_id":"cebpf4jnsgd1na2vs0mg"},{"bike_id":"dc53ac2c-033a-4bd1-9d45-c92b72b8ce0a","system_id":"levelo_inurba_marseille","lat":43.280784,"lon":5.396569,"is_reserved":false,"is_disabled":false,"rental_uris":{"android":"levelo://app?vid=dc53ac2c-033a-4bd1-9d45-c92b72b8ce0a","ios":"levelo://app?vid=dc53ac2c-033a-4bd1-9d45-c92b72b8ce0a"},"vehicle_type_id":"4","last_reported":1747231841,"current_range_meters":19200,"station_id":"ce4bho12rcd13ifvqh2g","pricing_plan_id":"cebpf4jnsgd1na2vs0mg"},{"bike_id":"6393e2c6-933e-4b66-a767-c66a3857ec0a","system_id":"levelo_inurba_marseille","lat":43.30357,"lon":5.41877,"is_reserved":false,"is_disabled":false,"rental_uris":{"android":"levelo://app?vid=6393e2c6-933e-4b66-a767-c66a3857ec0a","ios":"levelo://app?vid=6393e2c6-933e-4b66-a767-c66a3857ec0a"},"vehicle_type_id":"4","last_reported":1747231841,"current_range_meters":19200,"station_id":"ce4bhop2rcd13ifvqh7g","pricing_plan_id":"cebpf4jnsgd1na2vs0mg"},{"bike_id":"74e465a6-62f1-45be-9144-40f0ae71c9e6","system_id":"levelo_inurba_marseille","lat":43.323545,"lon":5.367441,"is_reserved":false,"is_disabled":false,"rental_uris":{"android":"levelo://app?vid=74e465a6-62f1-45be-9144-40f0ae71c9e6","ios":"levelo://app?vid=74e465a6-62f1-45be-9144-40f0ae71c9e6"},"vehicle_type_id":"4","last_reported":1747231841,"current_range_meters":19200,"station_id":"ce4bhsh2rcd13ifvqi2g","pricing_plan_id":"cebpf4jnsgd1na2vs0mg"},{"bike_id":"10ad9cb5-22c1-40cb-b009-4f338421d23a","system_id":"levelo_inurba_marseille","lat":43.29583,"lon":5.36732,"is_reserved":false,"is_disabled":false,"rental_uris":{"android":"levelo://app?vid=10ad9cb5-22c1-40cb-b009-4f338421d23a","ios":"levelo://app?vid=10ad9cb5-22c1-40cb-b009-4f338421d23a"},"vehicle_type_id":"4","last_reported":1747231841,"current_range_meters":19600,"station_id":"ce4bgph2rcd13ifvqc2g","pricing_plan_id":"cebpf4jnsgd1na2vs0mg"},{"bike_id":"690f74d4-763d-485e-9c79-fc957afae451","system_id":"levelo_inurba_marseille","lat":43.29001,"lon":5.35627,"is_reserved":false,"is_disabled":false,"rental_uris":{"android":"levelo://app?vid=690f74d4-763d-485e-9c79-fc957afae451","ios":"levelo://app?vid=690f74d4-763d-485e-9c79-fc957afae451"},"vehicle_type_id":"4","last_reported":1747231841,"current_range_meters":19600,"station_id":"ce4bhb92rcd13ifvqen0","pricing_plan_id":"cebpf4jnsgd1na2vs0mg"},{"bike_id":"b5a4422c-2f62-4480-a8ba-a9cc5aa8c726","system_id":"levelo_inurba_marseille","lat":43.26558,"lon":5.37284,"is_reserved":false,"is_disabled":false,"rental_uris":{"android":"levelo://app?vid=b5a4422c-2f62-4480-a8ba-a9cc5aa8c726","ios":"levelo://app?vid=b5a4422c-2f62-4480-a8ba-a9cc5aa8c726"},"vehicle_type_id":"4","last_reported":1747231841,"current_range_meters":19600,"station_id":"ce4bhg12rcd13ifvqf70","pricing_plan_id":"cebpf4jnsgd1na2vs0mg"},{"bike_id":"5766e2cb-0f22-44c2-aff4-fafe3037b8fc","system_id":"levelo_inurba_marseille","lat":43.25111,"lon":5.40367,"is_reserved":false,"is_disabled":false,"rental_uris":{"android":"levelo://app?vid=5766e2cb-0f22-44c2-aff4-fafe3037b8fc","ios":"levelo://app?vid=5766e2cb-0f22-44c2-aff4-fafe3037b8fc"},"vehicle_type_id":"4","last_reported":1747231841,"current_range_meters":19600,"station_id":"ce4bhlh2rcd13ifvqgig","pricing_plan_id":"cebpf4jnsgd1na2vs0mg"},{"bike_id":"c0e3712f-33bb-466a-9906-8f7372f57966","system_id":"levelo_inurba_marseille","lat":43.31761,"lon":5.39017,"is_reserved":false,"is_disabled":false,"rental_uris":{"android":"levelo://app?vid=c0e3712f-33bb-466a-9906-8f7372f57966","ios":"levelo://app?vid=c0e3712f-33bb-466a-9906-8f7372f57966"},"vehicle_type_id":"4","last_reported":1747231841,"current_range_meters":19600,"station_id":"ce4bhqp2rcd13ifvqhng","pricing_plan_id":"cebpf4jnsgd1na2vs0mg"},{"bike_id":"236fe8a1-bb49-4378-9a13-707d1ea97db2","system_id":"levelo_inurba_marseille","lat":43.3211,"lon":5.36766,"is_reserved":false,"is_disabled":false,"rental_uris":{"android":"levelo://app?vid=236fe8a1-bb49-4378-9a13-707d1ea97db2","ios":"levelo://app?vid=236fe8a1-bb49-4378-9a13-707d1ea97db2"},"vehicle_type_id":"4","last_reported":1747231841,"current_range_meters":19600,"station_id":"ce4bhrh2rcd13ifvqhug","pricing_plan_id":"cebpf4jnsgd1na2vs0mg"},{"bike_id":"344cf636-191d-4d9f-baa9-14a496ceb661","system_id":"levelo_inurba_marseille","lat":43.2695,"lon":5.4026,"is_reserved":false,"is_disabled":false,"rental_uris":{"android":"levelo://app?vid=344cf636-191d-4d9f-baa9-14a496ceb661","ios":"levelo://app?vid=344cf636-191d-4d9f-baa9-14a496ceb661"},"vehicle_type_id":"4","last_reported":1747231841,"current_range_meters":19600,"station_id":"cjm6bp8fraef2m0cb0m0","pricing_plan_id":"cebpf4jnsgd1na2vs0mg"},{"bike_id":"000ee981-9b18-40cb-a9eb-40c8b9a86983","system_id":"levelo_inurba_marseille","lat":43.30189,"lon":5.36625,"is_reserved":false,"is_disabled":false,"rental_uris":{"android":"levelo://app?vid=000ee981-9b18-40cb-a9eb-40c8b9a86983","ios":"levelo://app?vid=000ee981-9b18-40cb-a9eb-40c8b9a86983"},"vehicle_type_id":"4","last_reported":1747231841,"current_range_meters":20000,"station_id":"ce4bgrh2rcd13ifvqc8g","pricing_plan_id":"cebpf4jnsgd1na2vs0mg"},{"bike_id":"7654affe-36bc-4b41-8a77-f265a7072b29","system_id":"levelo_inurba_marseille","lat":43.273394,"lon":5.391078,"is_reserved":false,"is_disabled":false,"rental_uris":{"android":"levelo://app?vid=7654affe-36bc-4b41-8a77-f265a7072b29","ios":"levelo://app?vid=7654affe-36bc-4b41-8a77-f265a7072b29"},"vehicle_type_id":"4","last_reported":1747231841,"current_range_meters":20000,"station_id":"ce4bh492rcd13ifvqdug","pricing_plan_id":"cebpf4jnsgd1na2vs0mg"},{"bike_id":"53d5cf4b-53af-4ff4-b893-2ecbd6f431e9","system_id":"levelo_inurba_marseille","lat":43.29091,"lon":5.38122,"is_reserved":false,"is_disabled":false,"rental_uris":{"android":"levelo://app?vid=53d5cf4b-53af-4ff4-b893-2ecbd6f431e9","ios":"levelo://app?vid=53d5cf4b-53af-4ff4-b893-2ecbd6f431e9"},"vehicle_type_id":"4","last_reported":1747231841,"current_range_meters":20000,"station_id":"ce4bh512rcd13ifvqe2g","pricing_plan_id":"cebpf4jnsgd1na2vs0mg"},{"bike_id":"4cb4acc1-345f-4d09-bb5b-bfdb53bd2768","system_id":"levelo_inurba_marseille","lat":43.25102,"lon":5.39536,"is_reserved":false,"is_disabled":false,"rental_uris":{"android":"levelo://app?vid=4cb4acc1-345f-4d09-bb5b-bfdb53bd2768","ios":"levelo://app?vid=4cb4acc1-345f-4d09-bb5b-bfdb53bd2768"},"vehicle_type_id":"4","last_reported":1747231841,"current_range_meters":20000,"station_id":"ce4bhm12rcd13ifvqgkg","pricing_plan_id":"cebpf4jnsgd1na2vs0mg"},{"bike_id":"1ae0b734-22b3-4b50-80d3-c63698279b7b","system_id":"levelo_inurba_marseille","lat":43.30587,"lon":5.37112,"is_reserved":false,"is_disabled":false,"rental_uris":{"android":"levelo://app?vid=1ae0b734-22b3-4b50-80d3-c63698279b7b","ios":"levelo://app?vid=1ae0b734-22b3-4b50-80d3-c63698279b7b"},"vehicle_type_id":"4","last_reported":1747231841,"current_range_meters":20400,"station_id":"","pricing_plan_id":"cebpf4jnsgd1na2vs0mg"},{"bike_id":"e4800d65-0709-4fcf-9dbd-e3873786a028","system_id":"levelo_inurba_marseille","lat":43.30307,"lon":5.39216,"is_reserved":false,"is_disabled":false,"rental_uris":{"android":"levelo://app?vid=e4800d65-0709-4fcf-9dbd-e3873786a028","ios":"levelo://app?vid=e4800d65-0709-4fcf-9dbd-e3873786a028"},"vehicle_type_id":"4","last_reported":1747231841,"current_range_meters":20400,"station_id":"ce4bgkh2rcd13ifvqbk0","pricing_plan_id":"cebpf4jnsgd1na2vs0mg"},{"bike_id":"14ebf711-30f5-4e0c-8357-f5302666956b","system_id":"levelo_inurba_marseille","lat":43.28723,"lon":5.3793,"is_reserved":false,"is_disabled":false,"rental_uris":{"android":"levelo://app?vid=14ebf711-30f5-4e0c-8357-f5302666956b","ios":"levelo://app?vid=14ebf711-30f5-4e0c-8357-f5302666956b"},"vehicle_type_id":"4","last_reported":1747231841,"current_range_meters":20400,"station_id":"ce4bh9p2rcd13ifvqec0","pricing_plan_id":"cebpf4jnsgd1na2vs0mg"},{"bike_id":"3510939f-7cd9-4aa4-b8cb-9520e70f17e7","system_id":"levelo_inurba_marseille","lat":43.2842,"lon":5.34988,"is_reserved":false,"is_disabled":false,"rental_uris":{"android":"levelo://app?vid=3510939f-7cd9-4aa4-b8cb-9520e70f17e7","ios":"levelo://app?vid=3510939f-7cd9-4aa4-b8cb-9520e70f17e7"},"vehicle_type_id":"4","last_reported":1747231841,"current_range_meters":20400,"station_id":"ce4bhbh2rcd13ifvqepg","pricing_plan_id":"cebpf4jnsgd1na2vs0mg"},{"bike_id":"cb75fe0c-0fc8-4887-8bec-21b7c054e55f","system_id":"levelo_inurba_marseille","lat":43.2656,"lon":5.37287,"is_reserved":false,"is_disabled":false,"rental_uris":{"android":"levelo://app?vid=cb75fe0c-0fc8-4887-8bec-21b7c054e55f","ios":"levelo://app?vid=cb75fe0c-0fc8-4887-8bec-21b7c054e55f"},"vehicle_type_id":"4","last_reported":1747231841,"current_range_meters":20400,"station_id":"ce4bhg12rcd13ifvqf70","pricing_plan_id":"cebpf4jnsgd1na2vs0mg"},{"bike_id":"9a3073dc-5a2e-4077-a920-6fe6567152fc","system_id":"levelo_inurba_marseille","lat":43.25577,"lon":5.38204,"is_reserved":false,"is_disabled":false,"rental_uris":{"android":"levelo://app?vid=9a3073dc-5a2e-4077-a920-6fe6567152fc","ios":"levelo://app?vid=9a3073dc-5a2e-4077-a920-6fe6567152fc"},"vehicle_type_id":"4","last_reported":1747231841,"current_range_meters":20400,"station_id":"ce4bhih2rcd13ifvqfs0","pricing_plan_id":"cebpf4jnsgd1na2vs0mg"},{"bike_id":"cf77ecea-ae96-45a1-95ab-6a75b51383e0","system_id":"levelo_inurba_marseille","lat":43.24547,"lon":5.39528,"is_reserved":false,"is_disabled":false,"rental_uris":{"android":"levelo://app?vid=cf77ecea-ae96-45a1-95ab-6a75b51383e0","ios":"levelo://app?vid=cf77ecea-ae96-45a1-95ab-6a75b51383e0"},"vehicle_type_id":"4","last_reported":1747231841,"current_range_meters":20400,"station_id":"ce4bhlp2rcd13ifvqgjg","pricing_plan_id":"cebpf4jnsgd1na2vs0mg"},{"bike_id":"ecd26ce9-592b-4c5c-a9e0-2196cc8eccdb","system_id":"levelo_inurba_marseille","lat":43.23187,"lon":5.39988,"is_reserved":false,"is_disabled":false,"rental_uris":{"android":"levelo://app?vid=ecd26ce9-592b-4c5c-a9e0-2196cc8eccdb","ios":"levelo://app?vid=ecd26ce9-592b-4c5c-a9e0-2196cc8eccdb"},"vehicle_type_id":"4","last_reported":1747231841,"current_range_meters":20400,"station_id":"ce4bhn12rcd13ifvqgqg","pricing_plan_id":"cebpf4jnsgd1na2vs0mg"},{"bike_id":"7922656e-2239-47c0-af52-f0f323542cc6","system_id":"levelo_inurba_marseille","lat":43.24168,"lon":5.36408,"is_reserved":false,"is_disabled":false,"rental_uris":{"android":"levelo://app?vid=7922656e-2239-47c0-af52-f0f323542cc6","ios":"levelo://app?vid=7922656e-2239-47c0-af52-f0f323542cc6"},"vehicle_type_id":"4","last_reported":1747231841,"current_range_meters":20400,"station_id":"cpo36qri1sfpv3e86is0","pricing_plan_id":"cebpf4jnsgd1na2vs0mg"},{"bike_id":"9a402898-f116-408b-8709-c62dd77d2b5d","system_id":"levelo_inurba_marseille","lat":43.29368,"lon":5.42836,"is_reserved":false,"is_disabled":false,"rental_uris":{"android":"levelo://app?vid=9a402898-f116-408b-8709-c62dd77d2b5d","ios":"levelo://app?vid=9a402898-f116-408b-8709-c62dd77d2b5d"},"vehicle_type_id":"4","last_reported":1747231841,"current_range_meters":20800,"station_id":"","pricing_plan_id":"cebpf4jnsgd1na2vs0mg"},{"bike_id":"ee26a8a3-32d0-43e7-a355-5c5105da713c","system_id":"levelo_inurba_marseille","lat":43.30431,"lon":5.38885,"is_reserved":false,"is_disabled":false,"rental_uris":{"android":"levelo://app?vid=ee26a8a3-32d0-43e7-a355-5c5105da713c","ios":"levelo://app?vid=ee26a8a3-32d0-43e7-a355-5c5105da713c"},"vehicle_type_id":"4","last_reported":1747231841,"current_range_meters":20800,"station_id":"ce4bgk12rcd13ifvqbi0","pricing_plan_id":"cebpf4jnsgd1na2vs0mg"},{"bike_id":"a18b7cbb-cd4a-4a43-80f9-027b5b1335ad","system_id":"levelo_inurba_marseille","lat":43.28037,"lon":5.36987,"is_reserved":false,"is_disabled":false,"rental_uris":{"android":"levelo://app?vid=a18b7cbb-cd4a-4a43-80f9-027b5b1335ad","ios":"levelo://app?vid=a18b7cbb-cd4a-4a43-80f9-027b5b1335ad"},"vehicle_type_id":"4","last_reported":1747231841,"current_range_meters":20800,"station_id":"ce4bha12rcd13ifvqef0","pricing_plan_id":"cebpf4jnsgd1na2vs0mg"},{"bike_id":"6bba6b06-f4a4-461c-a264-06b4db723daf","system_id":"levelo_inurba_marseille","lat":43.24182,"lon":5.3973,"is_reserved":false,"is_disabled":false,"rental_uris":{"android":"levelo://app?vid=6bba6b06-f4a4-461c-a264-06b4db723daf","ios":"levelo://app?vid=6bba6b06-f4a4-461c-a264-06b4db723daf"},"vehicle_type_id":"4","last_reported":1747231841,"current_range_meters":20800,"station_id":"ce4bhn12rcd13ifvqgpg","pricing_plan_id":"cebpf4jnsgd1na2vs0mg"},{"bike_id":"15f1e21f-1748-41ee-948c-18881b32ce79","system_id":"levelo_inurba_marseille","lat":43.32044,"lon":5.41548,"is_reserved":false,"is_disabled":false,"rental_uris":{"android":"levelo://app?vid=15f1e21f-1748-41ee-948c-18881b32ce79","ios":"levelo://app?vid=15f1e21f-1748-41ee-948c-18881b32ce79"},"vehicle_type_id":"4","last_reported":1747231841,"current_range_meters":20800,"station_id":"ce4bhq92rcd13ifvqhkg","pricing_plan_id":"cebpf4jnsgd1na2vs0mg"},