{"last_updated":1703603214,"ttl":30,"version":"2.2","data":{"bikes":[{"bike_id":"017043ed-9c86-4ccc-9db9-4432568e53df","system_id":"levelo_inurba_marseille","lat":43.309076,"lon":5.368465,"is_reserved":false,"is_disabled":false,"rental_uris":{"android":"levelo://app?vid=017043ed-9c86-4ccc-9db9-4432568e53df","ios":"levelo://app?vid=017043ed-9c86-4ccc-9db9-4432568e53df"},"vehicle_type_id":"4","last_reported":1703603214,"current_range_meters":29200,"station_id":"ce4bgn92rcd13ifvqbvg","pricing_plan_id":"free"},{"bike_id":"fd265cff-00c3-431a-a744-8d812c402b68","system_id":"levelo_inurba_marseille","lat":43.31487,"lon":5.37309,"is_reserved":false,"is_disabled":false,"rental_uris":{"android":"levelo://app?vid=fd265cff-00c3-431a-a744-8d812c402b68","ios":"levelo://app?vid=fd265cff-00c3-431a-a744-8d812c402b68"},"vehicle_type_id":"4","last_reported":1703603214,"current_range_meters":22000,"station_id":"ce4bgt12rcd13ifvqcd0","pricing_plan_id":"free"},{"bike_id":"4bde8aee-9e18-46f6-b8dc-c48475d27629","system_id":"levelo_inurba_marseille","lat":43.309039,"lon":5.371797,"is_reserved":false,"is_disabled":false,"rental_uris":{"android":"levelo://app?vid=4bde8aee-9e18-46f6-b8dc-c48475d27629","ios":"levelo://app?vid=4bde8aee-9e18-46f6-b8dc-c48475d27629"},"vehicle_type_id":"4","last_reported":1703603214,"current_range_meters":30400,"station_id":"ce4bguh2rcd13ifvqckg","pricing_plan_id":"free"},{"bike_id":"98fc8f36-009c-49c0-bde9-eaacf0237add","system_id":"levelo_inurba_marseille","lat":43.314942,"lon":5.373917,"is_reserved":false,"is_disabled":false,"rental_uris":{"android":"levelo://app?vid=98fc8f36-009c-49c0-bde9-eaacf0237add","ios":"levelo://app?vid=98fc8f36-009c-49c0-bde9-eaacf0237add"},"vehicle_type_id":"4","last_reported":1703603214,"current_range_meters":25600,"station_id":"","pricing_plan_id":"free"},{"bike_id":"437be774-9347-4f56-865e-861017296255","system_id":"levelo_inurba_marseille","lat":43.318964,"lon":5.36877,"is_reserved":false,"is_disabled":false,"rental_uris":{"android":"levelo://app?vid=437be774-9347-4f56-865e-861017296255","ios":"levelo://app?vid=437be774-9347-4f56-865e-861017296255"},"vehicle_type_id":"4","last_reported":1703603214,"current_range_meters":11600,"station_id":"","pricing_plan_id":"free"},{"bike_id":"86f6680d-ed19-4b19-9048-5e0dde2c212f","system_id":"levelo_inurba_marseille","lat":43.304606,"lon":5.379026,"is_reserved":false,"is_disabled":false,"rental_uris":{"android":"levelo://app?vid=86f6680d-ed19-4b19-9048-5e0dde2c212f","ios":"levelo://app?vid=86f6680d-ed19-4b19-9048-5e0dde2c212f"},"vehicle_type_id":"4","last_reported":1703603214,"current_range_meters":14400,"station_id":"ce4bgup2rcd13ifvqcn0","pricing_plan_id":"free"},{"bike_id":"6229a11e-67ff-4128-994f-a106996e1234","system_id":"levelo_inurba_marseille","lat":43.31186,"lon":5.37611,"is_reserved":false,"is_disabled":false,"rental_uris":{"android":"levelo://app?vid=6229a11e-67ff-4128-994f-a106996e1234","ios":"levelo://app?vid=6229a11e-67ff-4128-994f-a106996e1234"},"vehicle_type_id":"4","last_reported":1703603214,"current_range_meters":24000,"station_id":"","pricing_plan_id":"free"},{"bike_id":"875ee364-0e05-49e5-9dc2-45301d558867","system_id":"levelo_inurba_marseille","lat":43.305712,"lon":5.365641,"is_reserved":false,"is_disabled":false,"rental_uris":{"android":"levelo://app?vid=875ee364-0e05-49e5-9dc2-45301d558867","ios":"levelo://app?vid=875ee364-0e05-49e5-9dc2-45301d558867"},"vehicle_type_id":"4","last_reported":1703603214,"current_range_meters":9200,"station_id":"ce4bgs12rcd13ifvqcag","pricing_plan_id":"free"},{"bike_id":"ed0ee458-d167-4624-8c61-96e3c5ea9645","system_id":"levelo_inurba_marseille","lat":43.305706,"lon":5.365654,"is_reserved":false,"is_disabled":false,"rental_uris":{"android":"levelo://app?vid=ed0ee458-d167-4624-8c61-96e3c5ea9645","ios":"levelo://app?vid=ed0ee458-d167-4624-8c61-96e3c5ea9645"},"vehicle_type_id":"4","last_reported":1703603214,"current_range_meters":1600,"station_id":"ce4bgs12rcd13ifvqcag","pricing_plan_id":"free"},{"bike_id":"7c536ef7-2c5f-4d25-b55d-67bcd64fe9a8","system_id":"levelo_inurba_marseille","lat":43.305706,"lon":5.365654,"is_reserved":false,"is_disabled":false,"rental_uris":{"android":"levelo://app?vid=7c536ef7-2c5f-4d25-b55d-67bcd64fe9a8","ios":"levelo://app?vid=7c536ef7-2c5f-4d25-b55d-67bcd64fe9a8"},"vehicle_type_id":"4","last_reported":1703603214,"current_range_meters":24000,"station_id":"ce4bgs12rcd13ifvqcag","pricing_plan_id":"free"},{"bike_id":"95417db7-44f4-400a-9818-eb04508220ba","system_id":"levelo_inurba_marseille","lat":43.305368,"lon":5.367343,"is_reserved":false,"is_disabled":false,"rental_uris":{"android":"levelo://app?vid=95417db7-44f4-400a-9818-eb04508220ba","ios":"levelo://app?vid=95417db7-44f4-400a-9818-eb04508220ba"},"vehicle_type_id":"4","last_reported":1703603214,"current_range_meters":23200,"station_id":"ce4bgrp2rcd13ifvqc9g","pricing_plan_id":"free"},{"bike_id":"b2c725c5-046f-470a-9013-10c97dd32b51","system_id":"levelo_inurba_marseille","lat":43.305706,"lon":5.365654,"is_reserved":false,"is_disabled":false,"rental_uris":{"android":"levelo://app?vid=b2c725c5-046f-470a-9013-10c97dd32b51","ios":"levelo://app?vid=b2c725c5-046f-470a-9013-10c97dd32b51"},"vehicle_type_id":"4","last_reported":1703603214,"current_range_meters":22000,"station_id":"ce4bgs12rcd13ifvqcag","pricing_plan_id":"free"},{"bike_id":"ee591ac4-17d1-4cb5-bf94-a826d6b50a1a","system_id":"levelo_inurba_marseille","lat":43.305706,"lon":5.365654,"is_reserved":false,"is_disabled":false,"rental_uris":{"android":"levelo://app?vid=ee591ac4-17d1-4cb5-bf94-a826d6b50a1a","ios":"levelo://app?vid=ee591ac4-17d1-4cb5-bf94-a826d6b50a1a"},"vehicle_type_id":"4","last_reported":1703603214,"current_range_meters":12000,"station_id":"ce4bgs12rcd13ifvqcag","pricing_plan_id":"free"},{"bike_id":"dd7e7d7e-454a-4915-9681-bcb8078f5928","system_id":"levelo_inurba_marseille","lat":43.305706,"lon":5.365654,"is_reserved":false,"is_disabled":false,"rental_uris":{"android":"levelo://app?vid=dd7e7d7e-454a-4915-9681-bcb8078f5928","ios":"levelo://app?vid=dd7e7d7e-454a-4915-9681-bcb8078f5928"},"vehicle_type_id":"4","last_reported":1703603214,"current_range_meters":22000,"station_id":"ce4bgs12rcd13ifvqcag","pricing_plan_id":"free"},{"bike_id":"3d6da6d2-99d3-4eca-96b4-b261f1cb746a","system_id":"levelo_inurba_marseille","lat":43.305989,"lon":5.37225,"is_reserved":false,"is_disabled":false,"rental_uris":{"android":"levelo://app?vid=3d6da6d2-99d3-4eca-96b4-b261f1cb746a","ios":"levelo://app?vid=3d6da6d2-99d3-4eca-96b4-b261f1cb746a"},"vehicle_type_id":"4","last_reported":1703603214,"current_range_meters":29200,"station_id":"ce4bgqh2rcd13ifvqc4g","pricing_plan_id":"free"},{"bike_id":"693bab79-617b-49b0-a20f-464e84378b4a","system_id":"levelo_inurba_marseille","lat":43.311122,"lon":5.377746,"is_reserved":false,"is_disabled":false,"rental_uris":{"android":"levelo://app?vid=693bab79-617b-49b0-a20f-464e84378b4a","ios":"levelo://app?vid=693bab79-617b-49b0-a20f-464e84378b4a"},"vehicle_type_id":"4","last_reported":1703603214,"current_range_meters":31200,"station_id":"ce4bgt92rcd13ifvqcg0","pricing_plan_id":"free"},{"bike_id":"53bf41ef-cf78-423b-99cf-11270ba412f6","system_id":"levelo_inurba_marseille","lat":43.307945,"lon":5.376487,"is_reserved":false,"is_disabled":false,"rental_uris":{"android":"levelo://app?vid=53bf41ef-cf78-423b-99cf-11270ba412f6","ios":"levelo://app?vid=53bf41ef-cf78-423b-99cf-11270ba412f6"},"vehicle_type_id":"4","last_reported":1703603214,"current_range_meters":3600,"station_id":"ce4bgv92rcd13ifvqcq0","pricing_plan_id":"free"},{"bike_id":"e1bff199-0791-4bab-9636-aca3c92bcb3a","system_id":"levelo_inurba_marseille","lat":43.30784,"lon":5.37652,"is_reserved":false,"is_disabled":false,"rental_uris":{"android":"levelo://app?vid=e1bff199-0791-4bab-9636-aca3c92bcb3a","ios":"levelo://app?vid=e1bff199-0791-4bab-9636-aca3c92bcb3a"},"vehicle_type_id":"4","last_reported":1703603214,"current_range_meters":28000,"station_id":"ce4bgv92rcd13ifvqcq0","pricing_plan_id":"free"},{"bike_id":"e25a536f-1b6a-4896-a9d0-fc56e838306c","system_id":"levelo_inurba_marseille","lat":43.307945,"lon":5.376487,"is_reserved":false,"is_disabled":false,"rental_uris":{"android":"levelo://app?vid=e25a536f-1b6a-4896-a9d0-fc56e838306c","ios":"levelo://app?vid=e25a536f-1b6a-4896-a9d0-fc56e838306c"},"vehicle_type_id":"4","last_reported":1703603214,"current_range_meters":8400,"station_id":"ce4bgv92rcd13ifvqcq0","pricing_plan_id":"free"},{"bike_id":"69ebe6e9-d538-446a-9e1a-575f9bbf66a1","system_id":"levelo_inurba_marseille","lat":43.305706,"lon":5.365654,"is_reserved":false,"is_disabled":false,"rental_uris":{"android":"levelo://app?vid=69ebe6e9-d538-446a-9e1a-575f9bbf66a1","ios":"levelo://app?vid=69ebe6e9-d538-446a-9e1a-575f9bbf66a1"},"vehicle_type_id":"4","last_reported":1703603214,"current_range_meters":25200,"station_id":"ce4bgs12rcd13ifvqcag","pricing_plan_id":"free"},{"bike_id":"36c4061c-c567-431e-87f1-6a753cd4db92","system_id":"levelo_inurba_marseille","lat":43.303046,"lon":5.368981,"is_reserved":false,"is_disabled":false,"rental_uris":{"android":"levelo://app?vid=36c4061c-c567-431e-87f1-6a753cd4db92","ios":"levelo://app?vid=36c4061c-c567-431e-87f1-6a753cd4db92"},"vehicle_type_id":"4","last_reported":1703603214,"current_range_meters":31600,"station_id":"ce4bgqh2rcd13ifvqc5g","pricing_plan_id":"free"},{"bike_id":"0e248e90-c6e3-4fca-8b14-3fbbd568d31d","system_id":"levelo_inurba_marseille","lat":43.30304,"lon":5.368987,"is_reserved":false,"is_disabled":false,"rental_uris":{"android":"levelo://app?vid=0e248e90-c6e3-4fca-8b14-3fbbd568d31d","ios":"levelo://app?vid=0e248e90-c6e3-4fca-8b14-3fbbd568d31d"},"vehicle_type_id":"4","last_reported":1703603214,"current_range_meters":30400,"station_id":"ce4bgqh2rcd13ifvqc5g","pricing_plan_id":"free"},{"bike_id":"480bb4f5-5af6-4613-97bd-0c13c551ef86","system_id":"levelo_inurba_marseille","lat":43.303046,"lon":5.368981,"is_reserved":false,"is_disabled":false,"rental_uris":{"android":"levelo://app?vid=480bb4f5-5af6-4613-97bd-0c13c551ef86","ios":"levelo://app?vid=480bb4f5-5af6-4613-97bd-0c13c551ef86"},"vehicle_type_id":"4","last_reported":1703603214,"current_range_meters":24000,"station_id":"ce4bgqh2rcd13ifvqc5g","pricing_plan_id":"free"},{"bike_id":"c8ca17db-ae13-4738-9ca4-5dae90bd13b9","system_id":"levelo_inurba_marseille","lat":43.303046,"lon":5.368981,"is_reserved":false,"is_disabled":false,"rental_uris":{"android":"levelo://app?vid=c8ca17db-ae13-4738-9ca4-5dae90bd13b9","ios":"levelo://app?vid=c8ca17db-ae13-4738-9ca4-5dae90bd13b9"},"vehicle_type_id":"4","last_reported":1703603214,"current_range_meters":26400,"station_id":"ce4bgqh2rcd13ifvqc5g","pricing_plan_id":"free"},{"bike_id":"965f9f83-28e6-4848-bbc6-59bd4bf76e17","system_id":"levelo_inurba_marseille","lat":43.301939,"lon":5.366286,"is_reserved":false,"is_disabled":false,"rental_uris":{"android":"levelo://app?vid=965f9f83-28e6-4848-bbc6-59bd4bf76e17","ios":"levelo://app?vid=965f9f83-28e6-4848-bbc6-59bd4bf76e17"},"vehicle_type_id":"4","last_reported":1703603214,"current_range_meters":25200,"station_id":"ce4bgrh2rcd13ifvqc8g","pricing_plan_id":"free"},{"bike_id":"a14c9360-724c-4f3a-a46b-f91814898a85","system_id":"levelo_inurba_marseille","lat":43.308012,"lon":5.381511,"is_reserved":false,"is_disabled":false,"rental_uris":{"android":"levelo://app?vid=a14c9360-724c-4f3a-a46b-f91814898a85","ios":"levelo://app?vid=a14c9360-724c-4f3a-a46b-f91814898a85"},"vehicle_type_id":"4","last_reported":1703603214,"current_range_meters":24400,"station_id":"ce4bgt12rcd13ifvqce0","pricing_plan_id":"free"},{"bike_id":"f9c0218b-5208-4023-a3a0-7953bfc9adf2","system_id":"levelo_inurba_marseille","lat":43.30468,"lon":5.37893,"is_reserved":false,"is_disabled":false,"rental_uris":{"android":"levelo://app?vid=f9c0218b-5208-4023-a3a0-7953bfc9adf2","ios":"levelo://app?vid=f9c0218b-5208-4023-a3a0-7953bfc9adf2"},"vehicle_type_id":"4","last_reported":1703603214,"current_range_meters":31200,"station_id":"ce4bgup2rcd13ifvqcn0","pricing_plan_id":"free"},{"bike_id":"7de95c21-6433-417e-b250-c7c1af8bb93c","system_id":"levelo_inurba_marseille","lat":43.30472,"lon":5.37901,"is_reserved":false,"is_disabled":false,"rental_uris":{"android":"levelo://app?vid=7de95c21-6433-417e-b250-c7c1af8bb93c","ios":"levelo://app?vid=7de95c21-6433-417e-b250-c7c1af8bb93c"},"vehicle_type_id":"4","last_reported":1703603214,"current_range_meters":16000,"station_id":"ce4bgup2rcd13ifvqcn0","pricing_plan_id":"free"},{"bike_id":"015f3b0c-adfc-4673-bcc3-428f9b23222e","system_id":"levelo_inurba_marseille","lat":43.30471,"lon":5.37901,"is_reserved":false,"is_disabled":false,"rental_uris":{"android":"levelo://app?vid=015f3b0c-adfc-4673-bcc3-428f9b23222e","ios":"levelo://app?vid=015f3b0c-adfc-4673-bcc3-428f9b23222e"},"vehicle_type_id":"4","last_reported":1703603214,"current_range_meters":21200,"station_id":"ce4bgup2rcd13ifvqcn0","pricing_plan_id":"free"},{"bike_id":"a9bb2618-5a29-43e2-b671-aa5febeaa61d","system_id":"levelo_inurba_marseille","lat":43.30462,"lon":5.379025,"is_reserved":false,"is_disabled":false,"rental_uris":{"android":"levelo://app?vid=a9bb2618-5a29-43e2-b671-aa5febeaa61d","ios":"levelo://app?vid=a9bb2618-5a29-43e2-b671-aa5febeaa61d"},"vehicle_type_id":"4","last_reported":1703603214,"current_range_meters":27200,"station_id":"ce4bgup2rcd13ifvqcn0","pricing_plan_id":"free"},{"bike_id":"87256b0e-1874-48f0-aceb-5bd7cef4dded","system_id":"levelo_inurba_marseille","lat":43.304606,"lon":5.379026,"is_reserved":false,"is_disabled":false,"rental_uris":{"android":"levelo://app?vid=87256b0e-1874-48f0-aceb-5bd7cef4dded","ios":"levelo://app?vid=87256b0e-1874-48f0-aceb-5bd7cef4dded"},"vehicle_type_id":"4","last_reported":1703603214,"current_range_meters":31200,"station_id":"ce4bgup2rcd13ifvqcn0","pricing_plan_id":"free"},{"bike_id":"103f8ccc-d954-40de-8f4a-8e9c3c3c43ae","system_id":"levelo_inurba_marseille","lat":43.304606,"lon":5.379026,"is_reserved":false,"is_disabled":false,"rental_uris":{"android":"levelo://app?vid=103f8ccc-d954-40de-8f4a-8e9c3c3c43ae","ios":"levelo://app?vid=103f8ccc-d954-40de-8f4a-8e9c3c3c43ae"},"vehicle_type_id":"4","last_reported":1703603214,"current_range_meters":11200,"station_id":"ce4bgup2rcd13ifvqcn0","pricing_plan_id":"free"},{"bike_id":"aae06b8e-34c5-4dc3-b902-060a6c0755d4","system_id":"levelo_inurba_marseille","lat":43.3045,"lon":5.37907,"is_reserved":false,"is_disabled":false,"rental_uris":{"android":"levelo://app?vid=aae06b8e-34c5-4dc3-b902-060a6c0755d4","ios":"levelo://app?vid=aae06b8e-34c5-4dc3-b902-060a6c0755d4"},"vehicle_type_id":"4","last_reported":1703603214,"current_range_meters":21600,"station_id":"ce4bgup2rcd13ifvqcn0","pricing_plan_id":"free"},{"bike_id":"f5c0e4d6-16bd-47eb-ba92-aa201d0984ce","system_id":"levelo_inurba_marseille","lat":43.324841,"lon":5.365619,"is_reserved":false,"is_disabled":false,"rental_uris":{"android":"levelo://app?vid=f5c0e4d6-16bd-47eb-ba92-aa201d0984ce","ios":"levelo://app?vid=f5c0e4d6-16bd-47eb-ba92-aa201d0984ce"},"vehicle_type_id":"4","last_reported":1703603214,"current_range_meters":29200,"station_id":"ce4bhs12rcd13ifvqhvg","pricing_plan_id":"free"},{"bike_id":"c71dd009-75f2-420d-85f5-bc66201ab595","system_id":"levelo_inurba_marseille","lat":43.302784,"lon":5.377158,"is_reserved":false,"is_disabled":false,"rental_uris":{"android":"levelo://app?vid=c71dd009-75f2-420d-85f5-bc66201ab595","ios":"levelo://app?vid=c71dd009-75f2-420d-85f5-bc66201ab595"},"vehicle_type_id":"4","last_reported":1703603214,"current_range_meters":13200,"station_id":"ce4bguh2rcd13ifvqcj0","pricing_plan_id":"free"},{"bike_id":"9fd0f1fb-194c-4d6c-a7e1-13975396e81c","system_id":"levelo_inurba_marseille","lat":43.301453,"lon":5.37416,"is_reserved":false,"is_disabled":false,"rental_uris":{"android":"levelo://app?vid=9fd0f1fb-194c-4d6c-a7e1-13975396e81c","ios":"levelo://app?vid=9fd0f1fb-194c-4d6c-a7e1-13975396e81c"},"vehicle_type_id":"4","last_reported":1703603214,"current_range_meters":13200,"station_id":"","pricing_plan_id":"free"},{"bike_id":"70b0ad2a-6533-4324-9176-53aa3f1f6a7a","system_id":"levelo_inurba_marseille","lat":43.32,"lon":5.3814,"is_reserved":false,"is_disabled":false,"rental_uris":{"android":"levelo://app?vid=70b0ad2a-6533-4324-9176-53aa3f1f6a7a","ios":"levelo://app?vid=70b0ad2a-6533-4324-9176-53aa3f1f6a7a"},"vehicle_type_id":"4","last_reported":1703603214,"current_range_meters":2800,"station_id":"ce4bhr12rcd13ifvqhpg","pricing_plan_id":"free"},{"bike_id":"28e05efb-a4cd-4a75-b37c-fadd87475b54","system_id":"levelo_inurba_marseille","lat":43.319935,"lon":5.381699,"is_reserved":false,"is_disabled":false,"rental_uris":{"android":"levelo://app?vid=28e05efb-a4cd-4a75-b37c-fadd87475b54","ios":"levelo://app?vid=28e05efb-a4cd-4a75-b37c-fadd87475b54"},"vehicle_type_id":"4","last_reported":1703603214,"current_range_meters":9200,"station_id":"ce4bhr12rcd13ifvqhpg","pricing_plan_id":"free"},{"bike_id":"07f9dc04-883c-4025-9202-13faf1dfed74","system_id":"levelo_inurba_marseille","lat":43.313571,"lon":5.384829,"is_reserved":false,"is_disabled":false,"rental_uris":{"android":"levelo://app?vid=07f9dc04-883c-4025-9202-13faf1dfed74","ios":"levelo://app?vid=07f9dc04-883c-4025-9202-13faf1dfed74"},"vehicle_type_id":"4","last_reported":1703603214,"current_range_meters":29600,"station_id":"ce4bgt92rcd13ifvqcf0","pricing_plan_id":"free"},{"bike_id":"98d9adc7-7e96-4973-9a29-d11d19a8ad12","system_id":"levelo_inurba_marseille","lat":43.299724,"lon":5.371829,"is_reserved":false,"is_disabled":false,"rental_uris":{"android":"levelo://app?vid=98d9adc7-7e96-4973-9a29-d11d19a8ad12","ios":"levelo://app?vid=98d9adc7-7e96-4973-9a29-d11d19a8ad12"},"vehicle_type_id":"4","last_reported":1703603214,"current_range_meters":22000,"station_id":"ce4bgr92rcd13ifvqc7g","pricing_plan_id":"free"},{"bike_id":"e14436d6-14f0-48ea-884f-027a656dbc59","system_id":"levelo_inurba_marseille","lat":43.299222,"lon":5.365554,"is_reserved":false,"is_disabled":false,"rental_uris":{"android":"levelo://app?vid=e14436d6-14f0-48ea-884f-027a656dbc59","ios":"levelo://app?vid=e14436d6-14f0-48ea-884f-027a656dbc59"},"vehicle_type_id":"4","last_reported":1703603214,"current_range_meters":21200,"station_id":"ce4bgm92rcd13ifvqbr0","pricing_plan_id":"free"},{"bike_id":"1cf95733-baeb-4982-96fb-a4413851cdf7","system_id":"levelo_inurba_marseille","lat":43.299222,"lon":5.365554,"is_reserved":false,"is_disabled":false,"rental_uris":{"android":"levelo://app?vid=1cf95733-baeb-4982-96fb-a4413851cdf7","ios":"levelo://app?vid=1cf95733-baeb-4982-96fb-a4413851cdf7"},"vehicle_type_id":"4","last_reported":1703603214,"current_range_meters":8000,"station_id":"ce4bgm92rcd13ifvqbr0","pricing_plan_id":"free"},{"bike_id":"6229263c-108d-4bd5-9b30-eff981ca1f5e","system_id":"levelo_inurba_marseille","lat":43.299287,"lon":5.36556,"is_reserved":false,"is_disabled":false,"rental_uris":{"android":"levelo://app?vid=6229263c-108d-4bd5-9b30-eff981ca1f5e","ios":"levelo://app?vid=6229263c-108d-4bd5-9b30-eff981ca1f5e"},"vehicle_type_id":"4","last_reported":1703603214,"current_range_meters":20400,"station_id":"ce4bgm92rcd13ifvqbr0","pricing_plan_id":"free"},{"bike_id":"c90a5cbf-09e3-4586-94d5-b0434082822b","system_id":"levelo_inurba_marseille","lat":43.299222,"lon":5.365554,"is_reserved":false,"is_disabled":false,"rental_uris":{"android":"levelo://app?vid=c90a5cbf-09e3-4586-94d5-b0434082822b","ios":"levelo://app?vid=c90a5cbf-09e3-4586-94d5-b0434082822b"},"vehicle_type_id":"4","last_reported":1703603214,"current_range_meters":24400,"station_id":"ce4bgm92rcd13ifvqbr0","pricing_plan_id":"free"},{"bike_id":"242173a6-86a9-4a69-9d62-18818bc143a1","system_id":"levelo_inurba_marseille","lat":43.299724,"lon":5.371829,"is_reserved":false,"is_disabled":false,"rental_uris":{"android":"levelo://app?vid=242173a6-86a9-4a69-9d62-18818bc143a1","ios":"levelo://app?vid=242173a6-86a9-4a69-9d62-18818bc143a1"},"vehicle_type_id":"4","last_reported":1703603214,"current_range_meters":30400,"station_id":"ce4bgr92rcd13ifvqc7g","pricing_plan_id":"free"},{"bike_id":"a5172819-5ff6-4eaf-98c2-1162910b4ee0","system_id":"levelo_inurba_marseille","lat":43.305364,"lon":5.384119,"is_reserved":false,"is_disabled":false,"rental_uris":{"android":"levelo://app?vid=a5172819-5ff6-4eaf-98c2-1162910b4ee0","ios":"levelo://app?vid=a5172819-5ff6-4eaf-98c2-1162910b4ee0"},"vehicle_type_id":"4","last_reported":1703603214,"current_range_meters":28400,"station_id":"ce4bgg92rcd13ifvqb30","pricing_plan_id":"free"},{"bike_id":"0b027942-0182-4d86-990d-704fbc027420","system_id":"levelo_inurba_marseille","lat":43.298433,"lon":5.362774,"is_reserved":false,"is_disabled":false,"rental_uris":{"android":"levelo://app?vid=0b027942-0182-4d86-990d-704fbc027420","ios":"levelo://app?vid=0b027942-0182-4d86-990d-704fbc027420"},"vehicle_type_id":"4","last_reported":1703603214,"current_range_meters":32000,"station_id":"ce4bgpp2rcd13ifvqc3g","pricing_plan_id":"free"},{"bike_id":"ef44a586-c848-4b52-891c-78f89a8b17a2","system_id":"levelo_inurba_marseille","lat":43.298433,"lon":5.362774,"is_reserved":false,"is_disabled":false,"rental_uris":{"android":"levelo://app?vid=ef44a586-c848-4b52-891c-78f89a8b17a2","ios":"levelo://app?vid=ef44a586-c848-4b52-891c-78f89a8b17a2"},"vehicle_type_id":"4","last_reported":1703603214,"current_range_meters":17600,"station_id":"ce4bgpp2rcd13ifvqc3g","pricing_plan_id":"free"},{"bike_id":"60a9e46e-d4ca-4956-ba81-bde3eeb8ce9e","system_id":"levelo_inurba_marseille","lat":43.298433,"lon":5.362774,"is_reserved":false,"is_disabled":false,"rental_uris":{"android":"levelo://app?vid=60a9e46e-d4ca-4956-ba81-bde3eeb8ce9e","ios":"levelo://app?vid=60a9e46e-d4ca-4956-ba81-bde3eeb8ce9e"},"vehicle_type_id":"4","last_reported":1703603214,"current_range_meters":31200,"station_id":"ce4bgpp2rcd13ifvqc3g","pricing_plan_id":"free"},{"bike_id":"b9608b36-0adc-4921-b944-3344c4704f12","system_id":"levelo_inurba_marseille","lat":43.298433,"lon":5.362774,"is_reserved":false,"is_disabled":false,"rental_uris":{"android":"levelo://app?vid=b9608b36-0adc-4921-b944-3344c4704f12","ios":"levelo://app?vid=b9608b36-0adc-4921-b944-3344c4704f12"},"vehicle_type_id":"4","last_reported":1703603214,"current_range_meters":24400,"station_id":"ce4bgpp2rcd13ifvqc3g","pricing_plan_id":"free"},{"bike_id":"e786662e-fc12-4212-9bc5-64336eb19af9","system_id":"levelo_inurba_marseille","lat":43.298433,"lon":5.362774,"is_reserved":false,"is_disabled":false,"rental_uris":{"android":"levelo://app?vid=e786662e-fc12-4212-9bc5-64336eb19af9","ios":"levelo://app?vid=e786662e-fc12-4212-9bc5-64336eb19af9"},"vehicle_type_id":"4","last_reported":1703603214,"current_range_meters":15600,"station_id":"ce4bgpp2rcd13ifvqc3g","pricing_plan_id":"free"},{"bike_id":"a59685be-ebb7-4179-940a-73c7d8588409","system_id":"levelo_inurba_marseille","lat":43.29845,"lon":5.36266,"is_reserved":false,"is_disabled":false,"rental_uris":{"android":"levelo://app?vid=a59685be-ebb7-4179-940a-73c7d8588409","ios":"levelo://app?vid=a59685be-ebb7-4179-940a-73c7d8588409"},"vehicle_type_id":"4","last_reported":1703603214,"current_range_meters":26800,"station_id":"ce4bgpp2rcd13ifvqc3g","pricing_plan_id":"free"},{"bike_id":"c17127a1-5834-401d-a635-16f5d0d3625b","system_id":"levelo_inurba_marseille","lat":43.29845,"lon":5.36262,"is_reserved":false,"is_disabled":false,"rental_uris":{"android":"levelo://app?vid=c17127a1-5834-401d-a635-16f5d0d3625b","ios":"levelo://app?vid=c17127a1-5834-401d-a635-16f5d0d3625b"},"vehicle_type_id":"4","last_reported":1703603214,"current_range_meters":26000,"station_id":"ce4bgpp2rcd13ifvqc3g","pricing_plan_id":"free"},{"bike_id":"4c92b629-1a1d-4404-b422-334632944f73","system_id":"levelo_inurba_marseille","lat":43.298433,"lon":5.362774,"is_reserved":false,"is_disabled":false,"rental_uris":{"android":"levelo://app?vid=4c92b629-1a1d-4404-b422-334632944f73","ios":"levelo://app?vid=4c92b629-1a1d-4404-b422-334632944f73"},"vehicle_type_id":"4","last_reported":1703603214,"current_range_meters":1200,"station_id":"ce4bgpp2rcd13ifvqc3g","pricing_plan_id":"free"},{"bike_id":"ffa18e00-56e1-42d2-b5e3-5555b04a51b4","system_id":"levelo_inurba_marseille","lat":43.298421,"lon":5.362658,"is_reserved":false,"is_disabled":false,"rental_uris":{"android":"levelo://app?vid=ffa18e00-56e1-42d2-b5e3-5555b04a51b4","ios":"levelo://app?vid=ffa18e00-56e1-42d2-b5e3-5555b04a51b4"},"vehicle_type_id":"4","last_reported":1703603214,"current_range_meters":31200,"station_id":"ce4bgpp2rcd13ifvqc3g","pricing_plan_id":"free"},{"bike_id":"755e31db-0c7e-4e3e-9d1d-38bd7d5b4038","system_id":"levelo_inurba_marseille","lat":43.298433,"lon":5.362774,"is_reserved":false,"is_disabled":false,"rental_uris":{"android":"levelo://app?vid=755e31db-0c7e-4e3e-9d1d-38bd7d5b4038","ios":"levelo://app?vid=755e31db-0c7e-4e3e-9d1d-38bd7d5b4038"},"vehicle_type_id":"4","last_reported":1703603214,"current_range_meters":30800,"station_id":"ce4bgpp2rcd13ifvqc3g","pricing_plan_id":"free"},{"bike_id":"3540d652-83ee-4e54-82bb-c4527c65e1e6","system_id":"levelo_inurba_marseille","lat":43.299243,"lon":5.374807,"is_reserved":false,"is_disabled":false,"rental_uris":{"android":"levelo://app?vid=3540d652-83ee-4e54-82bb-c4527c65e1e6","ios":"levelo://app?vid=3540d652-83ee-4e54-82bb-c4527c65e1e6"},"vehicle_type_id":"4","last_reported":1703603214,"current_range_meters":21200,"station_id":"ce4bgjh2rcd13ifvqbg0","pricing_plan_id":"free"},{"bike_id":"6b851782-af4a-469a-90d1-befb1e03d233","system_id":"levelo_inurba_marseille","lat":43.2984,"lon":5.36265,"is_reserved":false,"is_disabled":false,"rental_uris":{"android":"levelo://app?vid=6b851782-af4a-469a-90d1-befb1e03d233","ios":"levelo://app?vid=6b851782-af4a-469a-90d1-befb1e03d233"},"vehicle_type_id":"4","last_reported":1703603214,"current_range_meters":26800,"station_id":"ce4bgpp2rcd13ifvqc3g","pricing_plan_id":"free"},{"bike_id":"8b414ef6-e648-4831-9810-a223151100af","system_id":"levelo_inurba_marseille","lat":43.298367,"lon":5.362651,"is_reserved":false,"is_disabled":false,"rental_uris":{"android":"levelo://app?vid=8b414ef6-e648-4831-9810-a223151100af","ios":"levelo://app?vid=8b414ef6-e648-4831-9810-a223151100af"},"vehicle_type_id":"4","last_reported":1703603214,"current_range_meters":31200,"station_id":"ce4bgpp2rcd13ifvqc3g","pricing_plan_id":"free"},{"bike_id":"bd81edee-9a04-4438-abb8-587bbcc0890d","system_id":"levelo_inurba_marseille","lat":43.311722,"lon":5.387247,"is_reserved":false,"is_disabled":false,"rental_uris":{"android":"levelo://app?vid=bd81edee-9a04-4438-abb8-587bbcc0890d","ios":"levelo://app?vid=bd81edee-9a04-4438-abb8-587bbcc0890d"},"vehicle_type_id":"4","last_reported":1703603214,"current_range_meters":21600,"station_id":"ce4bgv12rcd13ifvqcp0","pricing_plan_id":"free"},{"bike_id":"7f82a62b-99c4-4508-933c-ac67bda5ac8e","system_id":"levelo_inurba_marseille","lat":43.311722,"lon":5.387247,"is_reserved":false,"is_disabled":false,"rental_uris":{"android":"levelo://app?vid=7f82a62b-99c4-4508-933c-ac67bda5ac8e","ios":"levelo://app?vid=7f82a62b-99c4-4508-933c-ac67bda5ac8e"},"vehicle_type_id":"4","last_reported":1703603214,"current_range_meters":26000,"station_id":"ce4bgv12rcd13ifvqcp0","pricing_plan_id":"free"},{"bike_id":"43b5dd5a-24fa-4b55-9681-b7ae0a0d5968","system_id":"levelo_inurba_marseille","lat":43.299243,"lon":5.37481,"is_reserved":false,"is_disabled":false,"rental_uris":{"android":"levelo://app?vid=43b5dd5a-24fa-4b55-9681-b7ae0a0d5968","ios":"levelo://app?vid=43b5dd5a-24fa-4b55-9681-b7ae0a0d5968"},"vehicle_type_id":"4","last_reported":1703603214,"current_range_meters":28400,"station_id":"ce4bgjh2rcd13ifvqbg0","pricing_plan_id":"free"},{"bike_id":"f0847710-54c2-4e7f-b401-fb7aa27219e2","system_id":"levelo_inurba_marseille","lat":43.29798,"lon":5.370903,"is_reserved":false,"is_disabled":false,"rental_uris":{"android":"levelo://app?vid=f0847710-54c2-4e7f-b401-fb7aa27219e2","ios":"levelo://app?vid=f0847710-54c2-4e7f-b401-fb7aa27219e2"},"vehicle_type_id":"4","last_reported":1703603214,"current_range_meters":10400,"station_id":"ce4bgop2rcd13ifvqc1g","pricing_plan_id":"free"},{"bike_id":"702ba885-cbd7-4ae9-af14-d89902cde706","system_id":"levelo_inurba_marseille","lat":43.297828,"lon":5.371012,"is_reserved":false,"is_disabled":false,"rental_uris":{"android":"levelo://app?vid=702ba885-cbd7-4ae9-af14-d89902cde706","ios":"levelo://app?vid=702ba885-cbd7-4ae9-af14-d89902cde706"},"vehicle_type_id":"4","last_reported":1703603214,"current_range_meters":28400,"station_id":"ce4bgop2rcd13ifvqc1g","pricing_plan_id":"free"},{"bike_id":"5fed18d1-7f81-4167-a351-7c4be7bb7921","system_id":"levelo_inurba_marseille","lat":43.32825,"lon":5.36681,"is_reserved":false,"is_disabled":false,"rental_uris":{"android":"levelo://app?vid=5fed18d1-7f81-4167-a351-7c4be7bb7921","ios":"levelo://app?vid=5fed18d1-7f81-4167-a351-7c4be7bb7921"},"vehicle_type_id":"4","last_reported":1703603214,"current_range_meters":2000,"station_id":"ce4bhs92rcd13ifvqi0g","pricing_plan_id":"free"},{"bike_id":"51714c4a-3132-4951-88ec-80e85fa125e8","system_id":"levelo_inurba_marseille","lat":43.32826,"lon":5.366859,"is_reserved":false,"is_disabled":false,"rental_uris":{"android":"levelo://app?vid=51714c4a-3132-4951-88ec-80e85fa125e8","ios":"levelo://app?vid=51714c4a-3132-4951-88ec-80e85fa125e8"},"vehicle_type_id":"4","last_reported":1703603214,"current_range_meters":5600,"station_id":"ce4bhs92rcd13ifvqi0g","pricing_plan_id":"free"},{"bike_id":"5c89eee7-6e83-42b4-bd81-efdcf68f6666","system_id":"levelo_inurba_marseille","lat":43.32826,"lon":5.36684,"is_reserved":false,"is_disabled":false,"rental_uris":{"android":"levelo://app?vid=5c89eee7-6e83-42b4-bd81-efdcf68f6666","ios":"levelo://app?vid=5c89eee7-6e83-42b4-bd81-efdcf68f6666"},"vehicle_type_id":"4","last_reported":1703603214,"current_range_meters":28800,"station_id":"ce4bhs92rcd13ifvqi0g","pricing_plan_id":"free"},{"bike_id":"a448ca86-2b35-41e1-89c4-32a99bab0563","system_id":"levelo_inurba_marseille","lat":43.328371,"lon":5.366909,"is_reserved":false,"is_disabled":false,"rental_uris":{"android":"levelo://app?vid=a448ca86-2b35-41e1-89c4-32a99bab0563","ios":"levelo://app?vid=a448ca86-2b35-41e1-89c4-32a99bab0563"},"vehicle_type_id":"4","last_reported":1703603214,"current_range_meters":7200,"station_id":"ce4bhs92rcd13ifvqi0g","pricing_plan_id":"free"},{"bike_id":"904f83aa-e9ab-401d-84c1-9edfed82b884","system_id":"levelo_inurba_marseille","lat":43.328371,"lon":5.366909,"is_reserved":false,"is_disabled":false,"rental_uris":{"android":"levelo://app?vid=904f83aa-e9ab-401d-84c1-9edfed82b884","ios":"levelo://app?vid=904f83aa-e9ab-401d-84c1-9edfed82b884"},"vehicle_type_id":"4","last_reported":1703603214,"current_range_meters":18800,"station_id":"ce4bhs92rcd13ifvqi0g","pricing_plan_id":"free"},{"bike_id":"6f67326a-1664-406f-9978-902e013e2357","system_id":"levelo_inurba_marseille","lat":43.328371,"lon":5.366909,"is_reserved":false,"is_disabled":false,"rental_uris":{"android":"levelo://app?vid=6f67326a-1664-406f-9978-902e013e2357","ios":"levelo://app?vid=6f67326a-1664-406f-9978-902e013e2357"},"vehicle_type_id":"4","last_reported":1703603214,"current_range_meters":10800,"station_id":"ce4bhs92rcd13ifvqi0g","pricing_plan_id":"free"},{"bike_id":"de708f00-7118-4d7c-9021-d7dcbd798473","system_id":"levelo_inurba_marseille","lat":43.328371,"lon":5.366909,"is_reserved":false,"is_disabled":false,"rental_uris":{"android":"levelo://app?vid=de708f00-7118-4d7c-9021-d7dcbd798473","ios":"levelo://app?vid=de708f00-7118-4d7c-9021-d7dcbd798473"},"vehicle_type_id":"4","last_reported":1703603214,"current_range_meters":24800,"station_id":"ce4bhs92rcd13ifvqi0g","pricing_plan_id":"free"},{"bike_id":"e9f46362-e80a-4c59-bbab-8b56e9a56a3b","system_id":"levelo_inurba_marseille","lat":43.297163,"lon":5.365866,"is_reserved":false,"is_disabled":false,"rental_uris":{"android":"levelo://app?vid=e9f46362-e80a-4c59-bbab-8b56e9a56a3b","ios":"levelo://app?vid=e9f46362-e80a-4c59-bbab-8b56e9a56a3b"},"vehicle_type_id":"4","last_reported":1703603214,"current_range_meters":15600,"station_id":"ce4bgn12rcd13ifvqbt0","pricing_plan_id":"free"},{"bike_id":"40c2b532-aa81-4c78-b896-98260fc2f589","system_id":"levelo_inurba_marseille","lat":43.297163,"lon":5.365866,"is_reserved":false,"is_disabled":false,"rental_uris":{"android":"levelo://app?vid=40c2b532-aa81-4c78-b896-98260fc2f589","ios":"levelo://app?vid=40c2b532-aa81-4c78-b896-98260fc2f589"},"vehicle_type_id":"4","last_reported":1703603214,"current_range_meters":30800,"station_id":"ce4bgn12rcd13ifvqbt0","pricing_plan_id":"free"},{"bike_id":"17622a52-3714-49f4-8db4-9ef73bd6c6c7","system_id":"levelo_inurba_marseille","lat":43.297163,"lon":5.365866,"is_reserved":false,"is_disabled":false,"rental_uris":{"android":"levelo://app?vid=17622a52-3714-49f4-8db4-9ef73bd6c6c7","ios":"levelo://app?vid=17622a52-3714-49f4-8db4-9ef73bd6c6c7"},"vehicle_type_id":"4","last_reported":1703603214,"current_range_meters":16400,"station_id":"ce4bgn12rcd13ifvqbt0","pricing_plan_id":"free"},{"bike_id":"6f1b7b06-1f77-4b88-bf73-5d81f3ee7e07","system_id":"levelo_inurba_marseille","lat":43.2968,"lon":5.37291,"is_reserved":false,"is_disabled":false,"rental_uris":{"android":"levelo://app?vid=6f1b7b06-1f77-4b88-bf73-5d81f3ee7e07","ios":"levelo://app?vid=6f1b7b06-1f77-4b88-bf73-5d81f3ee7e07"},"vehicle_type_id":"4","last_reported":1703603214,"current_range_meters":30400,"station_id":"ce4bgk12rcd13ifvqbj0","pricing_plan_id":"free"},{"bike_id":"921b424d-ad0d-4c7a-9d74-66e3a49bfa19","system_id":"levelo_inurba_marseille","lat":43.32934,"lon":5.36612,"is_reserved":false,"is_disabled":false,"rental_uris":{"android":"levelo://app?vid=921b424d-ad0d-4c7a-9d74-66e3a49bfa19","ios":"levelo://app?vid=921b424d-ad0d-4c7a-9d74-66e3a49bfa19"},"vehicle_type_id":"4","last_reported":1703603214,"current_range_meters":20800,"station_id":"","pricing_plan_id":"free"},{"bike_id":"3111f196-8e87-4834-8eee-91cda3418c2b","system_id":"levelo_inurba_marseille","lat":43.296935,"lon":5.376544,"is_reserved":false,"is_disabled":false,"rental_uris":{"android":"levelo://app?vid=3111f196-8e87-4834-8eee-91cda3418c2b","ios":"levelo://app?vid=3111f196-8e87-4834-8eee-91cda3418c2b"},"vehicle_type_id":"4","last_reported":1703603214,"current_range_meters":22000,"station_id":"ce4bgkh2rcd13ifvqbl0","pricing_plan_id":"free"},{"bike_id":"8882a937-1c69-4f4a-b9af-23eafa31c777","system_id":"levelo_inurba_marseille","lat":43.297013,"lon":5.376705,"is_reserved":false,"is_disabled":false,"rental_uris":{"android":"levelo://app?vid=8882a937-1c69-4f4a-b9af-23eafa31c777","ios":"levelo://app?vid=8882a937-1c69-4f4a-b9af-23eafa31c777"},"vehicle_type_id":"4","last_reported":1703603214,"current_range_meters":23200,"station_id":"ce4bh3p2rcd13ifvqdq0","pricing_plan_id":"free"},{"bike_id":"6630e8ed-1566-484d-9bc5-1cd9908d4453","system_id":"levelo_inurba_marseille","lat":43.317557,"lon":5.390173,"is_reserved":false,"is_disabled":false,"rental_uris":{"android":"levelo://app?vid=6630e8ed-1566-484d-9bc5-1cd9908d4453","ios":"levelo://app?vid=6630e8ed-1566-484d-9bc5-1cd9908d4453"},"vehicle_type_id":"4","last_reported":1703603214,"current_range_meters":21200,"station_id":"ce4bhqp2rcd13ifvqhng","pricing_plan_id":"free"},{"bike_id":"1f8b878f-f671-4790-8d5b-c4dcdaf0ca88","system_id":"levelo_inurba_marseille","lat":43.317557,"lon":5.390173,"is_reserved":false,"is_disabled":false,"rental_uris":{"android":"levelo://app?vid=1f8b878f-f671-4790-8d5b-c4dcdaf0ca88","ios":"levelo://app?vid=1f8b878f-f671-4790-8d5b-c4dcdaf0ca88"},"vehicle_type_id":"4","last_reported":1703603214,"current_range_meters":28000,"station_id":"ce4bhqp2rcd13ifvqhng","pricing_plan_id":"free"},{"bike_id":"6557636f-7f37-4eaa-86b4-326ee1fc8062","system_id":"levelo_inurba_marseille","lat":43.298037,"lon":5.381066,"is_reserved":false,"is_disabled":false,"rental_uris":{"android":"levelo://app?vid=6557636f-7f37-4eaa-86b4-326ee1fc8062","ios":"levelo://app?vid=6557636f-7f37-4eaa-86b4-326ee1fc8062"},"vehicle_type_id":"4","last_reported":1703603214,"current_range_meters":14400,"station_id":"ce4bgip2rcd13ifvqbb0","pricing_plan_id":"free"},{"bike_id":"12e64ea1-7bd5-4efe-91c9-c1d9dbd51072","system_id":"levelo_inurba_marseille","lat":43.295748,"lon":5.37522,"is_reserved":false,"is_disabled":false,"rental_uris":{"android":"levelo://app?vid=12e64ea1-7bd5-4efe-91c9-c1d9dbd51072","ios":"levelo://app?vid=12e64ea1-7bd5-4efe-91c9-c1d9dbd51072"},"vehicle_type_id":"4","last_reported":1703603214,"current_range_meters":30800,"station_id":"ce4bgh92rcd13ifvqb50","pricing_plan_id":"free"},{"bike_id":"4b0dd71d-717e-4fe3-bb11-2178200db020","system_id":"levelo_inurba_marseille","lat":43.295748,"lon":5.37522,"is_reserved":false,"is_disabled":false,"rental_uris":{"android":"levelo://app?vid=4b0dd71d-717e-4fe3-bb11-2178200db020","ios":"levelo://app?vid=4b0dd71d-717e-4fe3-bb11-2178200db020"},"vehicle_type_id":"4","last_reported":1703603214,"current_range_meters":9600,"station_id":"ce4bgh92rcd13ifvqb50","pricing_plan_id":"free"},{"bike_id":"0e4b3388-f0e7-444e-9940-c245a4787ec6","system_id":"levelo_inurba_marseille","lat":43.296277,"lon":5.377108,"is_reserved":false,"is_disabled":false,"rental_uris":{"android":"levelo://app?vid=0e4b3388-f0e7-444e-9940-c245a4787ec6","ios":"levelo://app?vid=0e4b3388-f0e7-444e-9940-c245a4787ec6"},"vehicle_type_id":"4","last_reported":1703603214,"current_range_meters":24400,"station_id":"ce4bgi92rcd13ifvqb90","pricing_plan_id":"free"},{"bike_id":"0d361364-c11d-4831-9fe7-5359a24774db","system_id":"levelo_inurba_marseille","lat":43.295748,"lon":5.37522,"is_reserved":false,"is_disabled":false,"rental_uris":{"android":"levelo://app?vid=0d361364-c11d-4831-9fe7-5359a24774db","ios":"levelo://app?vid=0d361364-c11d-4831-9fe7-5359a24774db"},"vehicle_type_id":"4","last_reported":1703603214,"current_range_meters":29200,"station_id":"ce4bgh92rcd13ifvqb50","pricing_plan_id":"free"},{"bike_id":"837e8676-0a49-4c64-b3ca-41c4f3fde297","system_id":"levelo_inurba_marseille","lat":43.296263,"lon":5.377094,"is_reserved":false,"is_disabled":false,"rental_uris":{"android":"levelo://app?vid=837e8676-0a49-4c64-b3ca-41c4f3fde297","ios":"levelo://app?vid=837e8676-0a49-4c64-b3ca-41c4f3fde297"},"vehicle_type_id":"4","last_reported":1703603214,"current_range_meters":31600,"station_id":"ce4bgi92rcd13ifvqb90","pricing_plan_id":"free"},{"bike_id":"b978d28c-0b7b-4d50-a610-76950565619a","system_id":"levelo_inurba_marseille","lat":43.296277,"lon":5.377108,"is_reserved":false,"is_disabled":false,"rental_uris":{"android":"levelo://app?vid=b978d28c-0b7b-4d50-a610-76950565619a","ios":"levelo://app?vid=b978d28c-0b7b-4d50-a610-76950565619a"},"vehicle_type_id":"4","last_reported":1703603214,"current_range_meters":22400,"station_id":"ce4bgi92rcd13ifvqb90","pricing_plan_id":"free"},{"bike_id":"bdd447e5-88a8-4725-99db-3c799dd20d5f","system_id":"levelo_inurba_marseille","lat":43.296263,"lon":5.377094,"is_reserved":false,"is_disabled":false,"rental_uris":{"android":"levelo://app?vid=bdd447e5-88a8-4725-99db-3c799dd20d5f","ios":"levelo://app?vid=bdd447e5-88a8-4725-99db-3c799dd20d5f"},"vehicle_type_id":"4","last_reported":1703603214,"current_range_meters":29200,"station_id":"ce4bgi92rcd13ifvqb90","pricing_plan_id":"free"},{"bike_id":"ba88d1e0-808f-4d49-b6ae-d2edaa3a17fb","system_id":"levelo_inurba_marseille","lat":43.295279,"lon":5.375048,"is_reserved":false,"is_disabled":false,"rental_uris":{"android":"levelo://app?vid=ba88d1e0-808f-4d49-b6ae-d2edaa3a17fb","ios":"levelo://app?vid=ba88d1e0-808f-4d49-b6ae-d2edaa3a17fb"},"vehicle_type_id":"4","last_reported":1703603214,"current_range_meters":31200,"station_id":"ce4bgkp2rcd13ifvqbmg","pricing_plan_id":"free"},{"bike_id":"dc17ef8c-437f-4995-a998-3d72a64fd9f8","system_id":"levelo_inurba_marseille","lat":43.32367,"lon":5.388836,"is_reserved":false,"is_disabled":false,"rental_uris":{"android":"levelo://app?vid=dc17ef8c-437f-4995-a998-3d72a64fd9f8","ios":"levelo://app?vid=dc17ef8c-437f-4995-a998-3d72a64fd9f8"},"vehicle_type_id":"4","last_reported":1703603214,"current_range_meters":400,"station_id":"ce4bhqp2rcd13ifvqhog","pricing_plan_id":"free"},{"bike_id":"85db7e24-c752-45e6-854e-723bb59632f1","system_id":"levelo_inurba_marseille","lat":43.32367,"lon":5.388836,"is_reserved":false,"is_disabled":false,"rental_uris":{"android":"levelo://app?vid=85db7e24-c752-45e6-854e-723bb59632f1","ios":"levelo://app?vid=85db7e24-c752-45e6-854e-723bb59632f1"},"vehicle_type_id":"4","last_reported":1703603214,"current_range_meters":23600,"station_id":"ce4bhqp2rcd13ifvqhog","pricing_plan_id":"free"},{"bike_id":"ad5b86d2-9018-4b7d-93ba-aeaaa5a0e592","system_id":"levelo_inurba_marseille","lat":43.29602,"lon":5.381084,"is_reserved":false,"is_disabled":false,"rental_uris":{"android":"levelo://app?vid=ad5b86d2-9018-4b7d-93ba-aeaaa5a0e592","ios":"levelo://app?vid=ad5b86d2-9018-4b7d-93ba-aeaaa5a0e592"},"vehicle_type_id":"4","last_reported":1703603214,"current_range_meters":24000,"station_id":"ce4bgl12rcd13ifvqbo0","pricing_plan_id":"free"},{"bike_id":"e0f74817-3071-444d-9d77-cd26f5d66ea5","system_id":"levelo_inurba_marseille","lat":43.293259,"lon":5.371586,"is_reserved":false,"is_disabled":false,"rental_uris":{"android":"levelo://app?vid=e0f74817-3071-444d-9d77-cd26f5d66ea5","ios":"levelo://app?vid=e0f74817-3071-444d-9d77-cd26f5d66ea5"},"vehicle_type_id":"4","last_reported":1703603214,"current_range_meters":31600,"station_id":"ce4bgh92rcd13ifvqb40","pricing_plan_id":"free"},{"bike_id":"471c8537-e563-42a6-82bf-6644210c6661","system_id":"levelo_inurba_marseille","lat":43.293009,"lon":5.374584,"is_reserved":false,"is_disabled":false,"rental_uris":{"android":"levelo://app?vid=471c8537-e563-42a6-82bf-6644210c6661","ios":"levelo://app?vid=471c8537-e563-42a6-82bf-6644210c6661"},"vehicle_type_id":"4","last_reported":1703603214,"current_range_meters":20400,"station_id":"ce4bgi12rcd13ifvqb70","pricing_plan_id":"free"},{"bike_id":"adf1ae38-10dd-44c8-8e44-9a62505be298","system_id":"levelo_inurba_marseille","lat":43.303002,"lon":5.392142,"is_reserved":false,"is_disabled":false,"rental_uris":{"android":"levelo://app?vid=adf1ae38-10dd-44c8-8e44-9a62505be298","ios":"levelo://app?vid=adf1ae38-10dd-44c8-8e44-9a62505be298"},"vehicle_type_id":"4","last_reported":1703603214,"current_range_meters":800,"station_id":"ce4bgkh2rcd13ifvqbk0","pricing_plan_id":"free"},{"bike_id":"70afaf04-4fa4-474d-a325-2a367d2bf725","system_id":"levelo_inurba_marseille","lat":43.2936,"lon":5.37835,"is_reserved":false,"is_disabled":false,"rental_uris":{"android":"levelo://app?vid=70afaf04-4fa4-474d-a325-2a367d2bf725","ios":"levelo://app?vid=70afaf04-4fa4-474d-a325-2a367d2bf725"},"vehicle_type_id":"4","last_reported":1703603214,"current_range_meters":19600,"station_id":"ce4bgjh2rcd13ifvqbf0","pricing_plan_id":"free"},{"bike_id":"54ebf056-b2a1-4843-863f-ee2c94a9a867","system_id":"levelo_inurba_marseille","lat":43.2936,"lon":5.37835,"is_reserved":false,"is_disabled":false,"rental_uris":{"android":"levelo://app?vid=54ebf056-b2a1-4843-863f-ee2c94a9a867","ios":"levelo://app?vid=54ebf056-b2a1-4843-863f-ee2c94a9a867"},"vehicle_type_id":"4","last_reported":1703603214,"current_range_meters":8800,"station_id":"ce4bgjh2rcd13ifvqbf0","pricing_plan_id":"free"},{"bike_id":"1a48defe-435d-42b9-b8f4-4fe03d93e8e0","system_id":"levelo_inurba_marseille","lat":43.300852,"lon":5.390859,"is_reserved":false,"is_disabled":false,"rental_uris":{"android":"levelo://app?vid=1a48defe-435d-42b9-b8f4-4fe03d93e8e0","ios":"levelo://app?vid=1a48defe-435d-42b9-b8f4-4fe03d93e8e0"},"vehicle_type_id":"4","last_reported":1703603214,"current_range_meters":31600,"station_id":"ce4bh192rcd13ifvqdb0","pricing_plan_id":"free"},{"bike_id":"74f4f29a-1352-46a0-ad1d-2d77bf12c2f2","system_id":"levelo_inurba_marseille","lat":43.30085,"lon":5.390856,"is_reserved":false,"is_disabled":false,"rental_uris":{"android":"levelo://app?vid=74f4f29a-1352-46a0-ad1d-2d77bf12c2f2","ios":"levelo://app?vid=74f4f29a-1352-46a0-ad1d-2d77bf12c2f2"},"vehicle_type_id":"4","last_reported":1703603214,"current_range_meters":24400,"station_id":"ce4bh192rcd13ifvqdb0","pricing_plan_id":"free"},{"bike_id":"a6c478e6-554c-4570-a53b-a57aeca6c785","system_id":"levelo_inurba_marseille","lat":43.292311,"lon":5.360731,"is_reserved":false,"is_disabled":false,"rental_uris":{"android":"levelo://app?vid=a6c478e6-554c-4570-a53b-a57aeca6c785","ios":"levelo://app?vid=a6c478e6-554c-4570-a53b-a57aeca6c785"},"vehicle_type_id":"4","last_reported":1703603214,"current_range_meters":19600,"station_id":"ce4bhbh2rcd13ifvqeqg","pricing_plan_id":"free"},{"bike_id":"e5e5eb52-82fb-4b4f-9218-8ef18c0f3e49","system_id":"levelo_inurba_marseille","lat":43.30085,"lon":5.390856,"is_reserved":false,"is_disabled":false,"rental_uris":{"android":"levelo://app?vid=e5e5eb52-82fb-4b4f-9218-8ef18c0f3e49","ios":"levelo://app?vid=e5e5eb52-82fb-4b4f-9218-8ef18c0f3e49"},"vehicle_type_id":"4","last_reported":1703603214,"current_range_meters":5600,"station_id":"ce4bh192rcd13ifvqdb0","pricing_plan_id":"free"},{"bike_id":"3bb8d376-dbd2-41c8-81d7-29c11ff68e70","system_id":"levelo_inurba_marseille","lat":43.29889,"lon":5.38894,"is_reserved":false,"is_disabled":false,"rental_uris":{"android":"levelo://app?vid=3bb8d376-dbd2-41c8-81d7-29c11ff68e70","ios":"levelo://app?vid=3bb8d376-dbd2-41c8-81d7-29c11ff68e70"},"vehicle_type_id":"4","last_reported":1703603214,"current_range_meters":20800,"station_id":"","pricing_plan_id":"free"},{"bike_id":"c72eb268-34a3-442d-a857-7a01ceb3d460","system_id":"levelo_inurba_marseille","lat":43.291671,"lon":5.371575,"is_reserved":false,"is_disabled":false,"rental_uris":{"android":"levelo://app?vid=c72eb268-34a3-442d-a857-7a01ceb3d460","ios":"levelo://app?vid=c72eb268-34a3-442d-a857-7a01ceb3d460"},"vehicle_type_id":"4","last_reported":1703603214,"current_range_meters":31600,"station_id":"ce4bha92rcd13ifvqeh0","pricing_plan_id":"free"},{"bike_id":"3ef9d71a-056c-4c1f-98b4-46e1d7aed9b4","system_id":"levelo_inurba_marseille","lat":43.291675,"lon":5.371583,"is_reserved":false,"is_disabled":false,"rental_uris":{"android":"levelo://app?vid=3ef9d71a-056c-4c1f-98b4-46e1d7aed9b4","ios":"levelo://app?vid=3ef9d71a-056c-4c1f-98b4-46e1d7aed9b4"},"vehicle_type_id":"4","last_reported":1703603214,"current_range_meters":16400,"station_id":"ce4bha92rcd13ifvqeh0","pricing_plan_id":"free"},{"bike_id":"f8ad87fb-faf9-4310-8434-bc415fdf4816","system_id":"levelo_inurba_marseille","lat":43.29867,"lon":5.38909,"is_reserved":false,"is_disabled":false,"rental_uris":{"android":"levelo://app?vid=f8ad87fb-faf9-4310-8434-bc415fdf4816","ios":"levelo://app?vid=f8ad87fb-faf9-4310-8434-bc415fdf4816"},"vehicle_type_id":"4","last_reported":1703603214,"current_range_meters":22400,"station_id":"","pricing_plan_id":"free"},{"bike_id":"2e2f5058-0de0-4941-bc5c-391537d16491","system_id":"levelo_inurba_marseille","lat":43.313291,"lon":5.396838,"is_reserved":false,"is_disabled":false,"rental_uris":{"android":"levelo://app?vid=2e2f5058-0de0-4941-bc5c-391537d16491","ios":"levelo://app?vid=2e2f5058-0de0-4941-bc5c-391537d16491"},"vehicle_type_id":"4","last_reported":1703603214,"current_range_meters":30800,"station_id":"ce4bgvp2rcd13ifvqcu0","pricing_plan_id":"free"},{"bike_id":"83da56ef-c98e-4a29-9845-cefd5b085f83","system_id":"levelo_inurba_marseille","lat":43.309038,"lon":5.396546,"is_reserved":false,"is_disabled":false,"rental_uris":{"android":"levelo://app?vid=83da56ef-c98e-4a29-9845-cefd5b085f83","ios":"levelo://app?vid=83da56ef-c98e-4a29-9845-cefd5b085f83"},"vehicle_type_id":"4","last_reported":1703603214,"current_range_meters":22800,"station_id":"ce4bh012rcd13ifvqcv0","pricing_plan_id":"free"},{"bike_id":"ed238374-9335-438f-80df-c5336487543d","system_id":"levelo_inurba_marseille","lat":43.290779,"lon":5.371482,"is_reserved":false,"is_disabled":false,"rental_uris":{"android":"levelo://app?vid=ed238374-9335-438f-80df-c5336487543d","ios":"levelo://app?vid=ed238374-9335-438f-80df-c5336487543d"},"vehicle_type_id":"4","last_reported":1703603214,"current_range_meters":20400,"station_id":"ce4bh5p2rcd13ifvqe4g","pricing_plan_id":"free"},{"bike_id":"a64cf6ae-5c16-4b43-8ab2-e2c65726198e","system_id":"levelo_inurba_marseille","lat":43.30211,"lon":5.39466,"is_reserved":false,"is_disabled":false,"rental_uris":{"android":"levelo://app?vid=a64cf6ae-5c16-4b43-8ab2-e2c65726198e","ios":"levelo://app?vid=a64cf6ae-5c16-4b43-8ab2-e2c65726198e"},"vehicle_type_id":"4","last_reported":1703603214,"current_range_meters":1600,"station_id":"ce4bh0p2rcd13ifvqd70","pricing_plan_id":"free"},{"bike_id":"a899b957-f31d-418b-8379-94ce35e00c0e","system_id":"levelo_inurba_marseille","lat":43.290631,"lon":5.359244,"is_reserved":false,"is_disabled":false,"rental_uris":{"android":"levelo://app?vid=a899b957-f31d-418b-8379-94ce35e00c0e","ios":"levelo://app?vid=a899b957-f31d-418b-8379-94ce35e00c0e"},"vehicle_type_id":"4","last_reported":1703603214,"current_range_meters":12000,"station_id":"ce4bha92rcd13ifvqeg0","pricing_plan_id":"free"},{"bike_id":"73423b72-c39b-4ae8-8f75-5b3f7261b4b2","system_id":"levelo_inurba_marseille","lat":43.290327,"lon":5.375711,"is_reserved":false,"is_disabled":false,"rental_uris":{"android":"levelo://app?vid=73423b72-c39b-4ae8-8f75-5b3f7261b4b2","ios":"levelo://app?vid=73423b72-c39b-4ae8-8f75-5b3f7261b4b2"},"vehicle_type_id":"4","last_reported":1703603214,"current_range_meters":27200,"station_id":"ce4bh692rcd13ifvqe90","pricing_plan_id":"free"},{"bike_id":"0e03c4e4-f3f5-4cb0-a8ec-c27748569350","system_id":"levelo_inurba_marseille","lat":43.294153,"lon":5.386305,"is_reserved":false,"is_disabled":false,"rental_uris":{"android":"levelo://app?vid=0e03c4e4-f3f5-4cb0-a8ec-c27748569350","ios":"levelo://app?vid=0e03c4e4-f3f5-4cb0-a8ec-c27748569350"},"vehicle_type_id":"4","last_reported":1703603214,"current_range_meters":18000,"station_id":"ce4bh2h2rcd13ifvqdh0","pricing_plan_id":"free"},{"bike_id":"3186d49c-8357-4526-87c4-f650aa134c4c","system_id":"levelo_inurba_marseille","lat":43.289526,"lon":5.364196,"is_reserved":false,"is_disabled":false,"rental_uris":{"android":"levelo://app?vid=3186d49c-8357-4526-87c4-f650aa134c4c","ios":"levelo://app?vid=3186d49c-8357-4526-87c4-f650aa134c4c"},"vehicle_type_id":"4","last_reported":1703603214,"current_range_meters":30800,"station_id":"","pricing_plan_id":"free"},{"bike_id":"d1fca6b5-645a-4d5a-b750-7a4a907412b4","system_id":"levelo_inurba_marseille","lat":43.294162,"lon":5.386292,"is_reserved":false,"is_disabled":false,"rental_uris":{"android":"levelo://app?vid=d1fca6b5-645a-4d5a-b750-7a4a907412b4","ios":"levelo://app?vid=d1fca6b5-645a-4d5a-b750-7a4a907412b4"},"vehicle_type_id":"4","last_reported":1703603214,"current_range_meters":24000,"station_id":"ce4bh2h2rcd13ifvqdh0","pricing_plan_id":"free"},{"bike_id":"04a29f43-a762-4724-9b3b-a55c832cbf9e","system_id":"levelo_inurba_marseille","lat":43.289184,"lon":5.366408,"is_reserved":false,"is_disabled":false,"rental_uris":{"android":"levelo://app?vid=04a29f43-a762-4724-9b3b-a55c832cbf9e","ios":"levelo://app?vid=04a29f43-a762-4724-9b3b-a55c832cbf9e"},"vehicle_type_id":"4","last_reported":1703603214,"current_range_meters":24800,"station_id":"ce4bhap2rcd13ifvqek0","pricing_plan_id":"free"},{"bike_id":"8be999f0-b7f5-4ce6-8d0c-805a33b6aa2e","system_id":"levelo_inurba_marseille","lat":43.289184,"lon":5.366408,"is_reserved":false,"is_disabled":false,"rental_uris":{"android":"levelo://app?vid=8be999f0-b7f5-4ce6-8d0c-805a33b6aa2e","ios":"levelo://app?vid=8be999f0-b7f5-4ce6-8d0c-805a33b6aa2e"},"vehicle_type_id":"4","last_reported":1703603214,"current_range_meters":24400,"station_id":"ce4bhap2rcd13ifvqek0","pricing_plan_id":"free"},{"bike_id":"062433c1-9de9-47aa-8b3b-a9cafeaa4854","system_id":"levelo_inurba_marseille","lat":43.292642,"lon":5.384254,"is_reserved":false,"is_disabled":false,"rental_uris":{"android":"levelo://app?vid=062433c1-9de9-47aa-8b3b-a9cafeaa4854","ios":"levelo://app?vid=062433c1-9de9-47aa-8b3b-a9cafeaa4854"},"vehicle_type_id":"4","last_reported":1703603214,"current_range_meters":23200,"station_id":"ce4bh692rcd13ifvqea0","pricing_plan_id":"free"},{"bike_id":"35353a2c-73e3-4c56-b941-da7aa811a02e","system_id":"levelo_inurba_marseille","lat":43.29266,"lon":5.38444,"is_reserved":false,"is_disabled":false,"rental_uris":{"android":"levelo://app?vid=35353a2c-73e3-4c56-b941-da7aa811a02e","ios":"levelo://app?vid=35353a2c-73e3-4c56-b941-da7aa811a02e"},"vehicle_type_id":"4","last_reported":1703603214,"current_range_meters":20000,"station_id":"ce4bh692rcd13ifvqea0","pricing_plan_id":"free"},{"bike_id":"962ceae2-0985-499b-9693-2cf357bcdd5e","system_id":"levelo_inurba_marseille","lat":43.290104,"lon":5.356111,"is_reserved":false,"is_disabled":false,"rental_uris":{"android":"levelo://app?vid=962ceae2-0985-499b-9693-2cf357bcdd5e","ios":"levelo://app?vid=962ceae2-0985-499b-9693-2cf357bcdd5e"},"vehicle_type_id":"4","last_reported":1703603214,"current_range_meters":14000,"station_id":"ce4bhb92rcd13ifvqen0","pricing_plan_id":"free"},{"bike_id":"389b2b5c-75e4-4f8b-8209-de11f9f8e70e","system_id":"levelo_inurba_marseille","lat":43.2901,"lon":5.3561,"is_reserved":false,"is_disabled":false,"rental_uris":{"android":"levelo://app?vid=389b2b5c-75e4-4f8b-8209-de11f9f8e70e","ios":"levelo://app?vid=389b2b5c-75e4-4f8b-8209-de11f9f8e70e"},"vehicle_type_id":"4","last_reported":1703603214,"current_range_meters":28000,"station_id":"ce4bhb92rcd13ifvqen0","pricing_plan_id":"free"},{"bike_id":"5dfe7574-f8a6-4479-b3bf-e54f9a5ad0ef","system_id":"levelo_inurba_marseille","lat":43.290104,"lon":5.356111,"is_reserved":false,"is_disabled":false,"rental_uris":{"android":"levelo://app?vid=5dfe7574-f8a6-4479-b3bf-e54f9a5ad0ef","ios":"levelo://app?vid=5dfe7574-f8a6-4479-b3bf-e54f9a5ad0ef"},"vehicle_type_id":"4","last_reported":1703603214,"current_range_meters":20000,"station_id":"ce4bhb92rcd13ifvqen0","pricing_plan_id":"free"},{"bike_id":"15ff4234-c785-4e0d-b386-71e3a33eb42b","system_id":"levelo_inurba_marseille","lat":43.290103,"lon":5.356114,"is_reserved":false,"is_disabled":false,"rental_uris":{"android":"levelo://app?vid=15ff4234-c785-4e0d-b386-71e3a33eb42b","ios":"levelo://app?vid=15ff4234-c785-4e0d-b386-71e3a33eb42b"},"vehicle_type_id":"4","last_reported":1703603214,"current_range_meters":17600,"station_id":"ce4bhb92rcd13ifvqen0","pricing_plan_id":"free"},{"bike_id":"20965fbb-1c62-4620-9c40-d56941f0e8a2","system_id":"levelo_inurba_marseille","lat":43.290104,"lon":5.356111,"is_reserved":false,"is_disabled":false,"rental_uris":{"android":"levelo://app?vid=20965fbb-1c62-4620-9c40-d56941f0e8a2","ios":"levelo://app?vid=20965fbb-1c62-4620-9c40-d56941f0e8a2"},"vehicle_type_id":"4","last_reported":1703603214,"current_range_meters":26400,"station_id":"ce4bhb92rcd13ifvqen0","pricing_plan_id":"free"},{"bike_id":"3bbf96cf-252c-4c40-8898-89ce884592d0","system_id":"levelo_inurba_marseille","lat":43.297807,"lon":5.39332,"is_reserved":false,"is_disabled":false,"rental_uris":{"android":"levelo://app?vid=3bbf96cf-252c-4c40-8898-89ce884592d0","ios":"levelo://app?vid=3bbf96cf-252c-4c40-8898-89ce884592d0"},"vehicle_type_id":"4","last_reported":1703603214,"current_range_meters":22000,"station_id":"chh1huq6cuj3fo74tm60","pricing_plan_id":"free"},{"bike_id":"2a45dfb3-ed36-4258-9b24-e16363f0b9c5","system_id":"levelo_inurba_marseille","lat":43.289741,"lon":5.378306,"is_reserved":false,"is_disabled":false,"rental_uris":{"android":"levelo://app?vid=2a45dfb3-ed36-4258-9b24-e16363f0b9c5","ios":"levelo://app?vid=2a45dfb3-ed36-4258-9b24-e16363f0b9c5"},"vehicle_type_id":"4","last_reported":1703603214,"current_range_meters":25600,"station_id":"ce4bh9p2rcd13ifvqed0","pricing_plan_id":"free"},{"bike_id":"f3c63c7b-09e2-4734-8986-14ad4d133994","system_id":"levelo_inurba_marseille","lat":43.330442,"lon":5.389148,"is_reserved":false,"is_disabled":false,"rental_uris":{"android":"levelo://app?vid=f3c63c7b-09e2-4734-8986-14ad4d133994","ios":"levelo://app?vid=f3c63c7b-09e2-4734-8986-14ad4d133994"},"vehicle_type_id":"4","last_reported":1703603214,"current_range_meters":10800,"station_id":"ce4bhr92rcd13ifvqhrg","pricing_plan_id":"free"},{"bike_id":"01eec893-cb22-47ea-ba6f-18aee64380c7","system_id":"levelo_inurba_marseille","lat":43.33017,"lon":5.39087,"is_reserved":false,"is_disabled":false,"rental_uris":{"android":"levelo://app?vid=01eec893-cb22-47ea-ba6f-18aee64380c7","ios":"levelo://app?vid=01eec893-cb22-47ea-ba6f-18aee64380c7"},"vehicle_type_id":"4","last_reported":1703603214,"current_range_meters":10000,"station_id":"","pricing_plan_id":"free"},{"bike_id":"ae1cfe2c-5020-4207-9a5e-0dc360fe23ea","system_id":"levelo_inurba_marseille","lat":43.2901,"lon":5.381269,"is_reserved":false,"is_disabled":false,"rental_uris":{"android":"levelo://app?vid=ae1cfe2c-5020-4207-9a5e-0dc360fe23ea","ios":"levelo://app?vid=ae1cfe2c-5020-4207-9a5e-0dc360fe23ea"},"vehicle_type_id":"4","last_reported":1703603214,"current_range_meters":30000,"station_id":"ce4bh4p2rcd13ifvqe1g","pricing_plan_id":"free"},{"bike_id":"690063b9-d6d3-4e05-8ff4-9d44607eb754","system_id":"levelo_inurba_marseille","lat":43.28856,"lon":5.358371,"is_reserved":false,"is_disabled":false,"rental_uris":{"android":"levelo://app?vid=690063b9-d6d3-4e05-8ff4-9d44607eb754","ios":"levelo://app?vid=690063b9-d6d3-4e05-8ff4-9d44607eb754"},"vehicle_type_id":"4","last_reported":1703603214,"current_range_meters":21200,"station_id":"ce4bhb12rcd13ifvqem0","pricing_plan_id":"free"},{"bike_id":"7a543b19-90cd-4a87-b80d-37f423d89307","system_id":"levelo_inurba_marseille","lat":43.33037,"lon":5.3913,"is_reserved":false,"is_disabled":false,"rental_uris":{"android":"levelo://app?vid=7a543b19-90cd-4a87-b80d-37f423d89307","ios":"levelo://app?vid=7a543b19-90cd-4a87-b80d-37f423d89307"},"vehicle_type_id":"4","last_reported":1703603214,"current_range_meters":8400,"station_id":"","pricing_plan_id":"free"},{"bike_id":"324608cd-33b0-417a-a71b-0f42b835dbd1","system_id":"levelo_inurba_marseille","lat":43.337459,"lon":5.374819,"is_reserved":false,"is_disabled":false,"rental_uris":{"android":"levelo://app?vid=324608cd-33b0-417a-a71b-0f42b835dbd1","ios":"levelo://app?vid=324608cd-33b0-417a-a71b-0f42b835dbd1"},"vehicle_type_id":"4","last_reported":1703603214,"current_range_meters":30000,"station_id":"","pricing_plan_id":"free"},{"bike_id":"b0a6e700-fd6a-4382-9c50-41fab89bed9c","system_id":"levelo_inurba_marseille","lat":43.312609,"lon":5.401662,"is_reserved":false,"is_disabled":false,"rental_uris":{"android":"levelo://app?vid=b0a6e700-fd6a-4382-9c50-41fab89bed9c","ios":"levelo://app?vid=b0a6e700-fd6a-4382-9c50-41fab89bed9c"},"vehicle_type_id":"4","last_reported":1703603214,"current_range_meters":25600,"station_id":"ce4bh092rcd13ifvqd30","pricing_plan_id":"free"},{"bike_id":"458dd5a6-7327-4f4a-9aff-75ca80234434","system_id":"levelo_inurba_marseille","lat":43.30642,"lon":5.401031,"is_reserved":false,"is_disabled":false,"rental_uris":{"android":"levelo://app?vid=458dd5a6-7327-4f4a-9aff-75ca80234434","ios":"levelo://app?vid=458dd5a6-7327-4f4a-9aff-75ca80234434"},"vehicle_type_id":"4","last_reported":1703603214,"current_range_meters":800,"station_id":"ce4bh112rcd13ifvqda0","pricing_plan_id":"free"},{"bike_id":"e101af2c-c501-4e28-8d72-12ad3a8d21a2","system_id":"levelo_inurba_marseille","lat":43.33774,"lon":5.37426,"is_reserved":false,"is_disabled":false,"rental_uris":{"android":"levelo://app?vid=e101af2c-c501-4e28-8d72-12ad3a8d21a2","ios":"levelo://app?vid=e101af2c-c501-4e28-8d72-12ad3a8d21a2"},"vehicle_type_id":"4","last_reported":1703603214,"current_range_meters":24800,"station_id":"","pricing_plan_id":"free"},{"bike_id":"ccd1f0ce-f601-476d-840c-0c19b09994c1","system_id":"levelo_inurba_marseille","lat":43.301117,"lon":5.398795,"is_reserved":false,"is_disabled":false,"rental_uris":{"android":"levelo://app?vid=ccd1f0ce-f601-476d-840c-0c19b09994c1","ios":"levelo://app?vid=ccd1f0ce-f601-476d-840c-0c19b09994c1"},"vehicle_type_id":"4","last_reported":1703603214,"current_range_meters":15600,"station_id":"ce4bh0h2rcd13ifvqd40","pricing_plan_id":"free"},{"bike_id":"9010a516-95e6-406b-917f-5e2a36fd62b8","system_id":"levelo_inurba_marseille","lat":43.286591,"lon":5.363346,"is_reserved":false,"is_disabled":false,"rental_uris":{"android":"levelo://app?vid=9010a516-95e6-406b-917f-5e2a36fd62b8","ios":"levelo://app?vid=9010a516-95e6-406b-917f-5e2a36fd62b8"},"vehicle_type_id":"4","last_reported":1703603214,"current_range_meters":400,"station_id":"ce4bhah2rcd13ifvqej0","pricing_plan_id":"free"},{"bike_id":"4c12211b-d197-43bb-a417-2c741bdc947b","system_id":"levelo_inurba_marseille","lat":43.295196,"lon":5.39397,"is_reserved":false,"is_disabled":false,"rental_uris":{"android":"levelo://app?vid=4c12211b-d197-43bb-a417-2c741bdc947b","ios":"levelo://app?vid=4c12211b-d197-43bb-a417-2c741bdc947b"},"vehicle_type_id":"4","last_reported":1703603214,"current_range_meters":4400,"station_id":"ce4bh292rcd13ifvqdf0","pricing_plan_id":"free"},{"bike_id":"dbd4cdf4-390b-470e-99aa-f72065db0bbb","system_id":"levelo_inurba_marseille","lat":43.286591,"lon":5.363346,"is_reserved":false,"is_disabled":false,"rental_uris":{"android":"levelo://app?vid=dbd4cdf4-390b-470e-99aa-f72065db0bbb","ios":"levelo://app?vid=dbd4cdf4-390b-470e-99aa-f72065db0bbb"},"vehicle_type_id":"4","last_reported":1703603214,"current_range_meters":12400,"station_id":"ce4bhah2rcd13ifvqej0","pricing_plan_id":"free"},{"bike_id":"f5662da7-99f7-42df-b18c-d7c542832286","system_id":"levelo_inurba_marseille","lat":43.286591,"lon":5.363346,"is_reserved":false,"is_disabled":false,"rental_uris":{"android":"levelo://app?vid=f5662da7-99f7-42df-b18c-d7c542832286","ios":"levelo://app?vid=f5662da7-99f7-42df-b18c-d7c542832286"},"vehicle_type_id":"4","last_reported":1703603214,"current_range_meters":23200,"station_id":"ce4bhah2rcd13ifvqej0","pricing_plan_id":"free"},{"bike_id":"a175bbac-d93e-48bb-9660-906c906801f7","system_id":"levelo_inurba_marseille","lat":43.286591,"lon":5.363346,"is_reserved":false,"is_disabled":false,"rental_uris":{"android":"levelo://app?vid=a175bbac-d93e-48bb-9660-906c906801f7","ios":"levelo://app?vid=a175bbac-d93e-48bb-9660-906c906801f7"},"vehicle_type_id":"4","last_reported":1703603214,"current_range_meters":22000,"station_id":"ce4bhah2rcd13ifvqej0","pricing_plan_id":"free"},{"bike_id":"7260845c-a0df-4ce3-b635-e91590bb4f9a","system_id":"levelo_inurba_marseille","lat":43.286072,"lon":5.370693,"is_reserved":false,"is_disabled":false,"rental_uris":{"android":"levelo://app?vid=7260845c-a0df-4ce3-b635-e91590bb4f9a","ios":"levelo://app?vid=7260845c-a0df-4ce3-b635-e91590bb4f9a"},"vehicle_type_id":"4","last_reported":1703603214,"current_range_meters":20000,"station_id":"ce4bht12rcd13ifvqi60","pricing_plan_id":"free"},{"bike_id":"b8ae8959-d827-4ceb-8ce0-3e03906d250d","system_id":"levelo_inurba_marseille","lat":43.28605,"lon":5.37068,"is_reserved":false,"is_disabled":false,"rental_uris":{"android":"levelo://app?vid=b8ae8959-d827-4ceb-8ce0-3e03906d250d","ios":"levelo://app?vid=b8ae8959-d827-4ceb-8ce0-3e03906d250d"},"vehicle_type_id":"4","last_reported":1703603214,"current_range_meters":26400,"station_id":"ce4bht12rcd13ifvqi60","pricing_plan_id":"free"},{"bike_id":"e42f2d48-1eac-4ea9-97da-9a200b97c493","system_id":"levelo_inurba_marseille","lat":43.28604,"lon":5.37065,"is_reserved":false,"is_disabled":false,"rental_uris":{"android":"levelo://app?vid=e42f2d48-1eac-4ea9-97da-9a200b97c493","ios":"levelo://app?vid=e42f2d48-1eac-4ea9-97da-9a200b97c493"},"vehicle_type_id":"4","last_reported":1703603214,"current_range_meters":24800,"station_id":"ce4bht12rcd13ifvqi60","pricing_plan_id":"free"},{"bike_id":"0ade99fb-20fc-423b-a697-58876a6bf0b1","system_id":"levelo_inurba_marseille","lat":43.287001,"lon":5.379446,"is_reserved":false,"is_disabled":false,"rental_uris":{"android":"levelo://app?vid=0ade99fb-20fc-423b-a697-58876a6bf0b1","ios":"levelo://app?vid=0ade99fb-20fc-423b-a697-58876a6bf0b1"},"vehicle_type_id":"4","last_reported":1703603214,"current_range_meters":18000,"station_id":"ce4bh9p2rcd13ifvqec0","pricing_plan_id":"free"},{"bike_id":"e2adfa7c-882e-48a1-9ee4-b36e6186ebbf","system_id":"levelo_inurba_marseille","lat":43.330912,"lon":5.396935,"is_reserved":false,"is_disabled":false,"rental_uris":{"android":"levelo://app?vid=e2adfa7c-882e-48a1-9ee4-b36e6186ebbf","ios":"levelo://app?vid=e2adfa7c-882e-48a1-9ee4-b36e6186ebbf"},"vehicle_type_id":"4","last_reported":1703603214,"current_range_meters":2800,"station_id":"","pricing_plan_id":"free"},{"bike_id":"4df3254e-2eff-42fb-b6ff-68ab0af643d1","system_id":"levelo_inurba_marseille","lat":43.284538,"lon":5.358657,"is_reserved":false,"is_disabled":false,"rental_uris":{"android":"levelo://app?vid=4df3254e-2eff-42fb-b6ff-68ab0af643d1","ios":"levelo://app?vid=4df3254e-2eff-42fb-b6ff-68ab0af643d1"},"vehicle_type_id":"4","last_reported":1703603214,"current_range_meters":19600,"station_id":"ce4bhah2rcd13ifvqei0","pricing_plan_id":"free"},{"bike_id":"d4a8c6f5-1913-4f5f-bcba-c2528c2f764a","system_id":"levelo_inurba_marseille","lat":43.284538,"lon":5.358657,"is_reserved":false,"is_disabled":false,"rental_uris":{"android":"levelo://app?vid=d4a8c6f5-1913-4f5f-bcba-c2528c2f764a","ios":"levelo://app?vid=d4a8c6f5-1913-4f5f-bcba-c2528c2f764a"},"vehicle_type_id":"4","last_reported":1703603214,"current_range_meters":31600,"station_id":"ce4bhah2rcd13ifvqei0","pricing_plan_id":"free"},{"bike_id":"ee180cde-ae7d-470c-809e-2c7bba1aea03","system_id":"levelo_inurba_marseille","lat":43.294314,"lon":5.397498,"is_reserved":false,"is_disabled":false,"rental_uris":{"android":"levelo://app?vid=ee180cde-ae7d-470c-809e-2c7bba1aea03","ios":"levelo://app?vid=ee180cde-ae7d-470c-809e-2c7bba1aea03"},"vehicle_type_id":"4","last_reported":1703603214,"current_range_meters":25600,"station_id":"ce4bh3h2rcd13ifvqdo0","pricing_plan_id":"free"},{"bike_id":"c5c52ae5-62cc-4efa-801f-61722ac75fcf","system_id":"levelo_inurba_marseille","lat":43.285848,"lon":5.350787,"is_reserved":false,"is_disabled":false,"rental_uris":{"android":"levelo://app?vid=c5c52ae5-62cc-4efa-801f-61722ac75fcf","ios":"levelo://app?vid=c5c52ae5-62cc-4efa-801f-61722ac75fcf"},"vehicle_type_id":"4","last_reported":1703603214,"current_range_meters":10800,"station_id":"ce4bhch2rcd13ifvqeug","pricing_plan_id":"free"},{"bike_id":"8469af65-3f66-40ff-918a-740d59d3f43e","system_id":"levelo_inurba_marseille","lat":43.294314,"lon":5.397498,"is_reserved":false,"is_disabled":false,"rental_uris":{"android":"levelo://app?vid=8469af65-3f66-40ff-918a-740d59d3f43e","ios":"levelo://app?vid=8469af65-3f66-40ff-918a-740d59d3f43e"},"vehicle_type_id":"4","last_reported":1703603214,"current_range_meters":28400,"station_id":"ce4bh3h2rcd13ifvqdo0","pricing_plan_id":"free"},{"bike_id":"dba9cd74-7c25-40ef-8d90-65862ecce165","system_id":"levelo_inurba_marseille","lat":43.295713,"lon":5.399639,"is_reserved":false,"is_disabled":false,"rental_uris":{"android":"levelo://app?vid=dba9cd74-7c25-40ef-8d90-65862ecce165","ios":"levelo://app?vid=dba9cd74-7c25-40ef-8d90-65862ecce165"},"vehicle_type_id":"4","last_reported":1703603214,"current_range_meters":13600,"station_id":"ce4bh312rcd13ifvqdj0","pricing_plan_id":"free"},{"bike_id":"12634f20-8f42-4088-8d25-83792f20cebf","system_id":"levelo_inurba_marseille","lat":43.286039,"lon":5.370681,"is_reserved":false,"is_disabled":false,"rental_uris":{"android":"levelo://app?vid=12634f20-8f42-4088-8d25-83792f20cebf","ios":"levelo://app?vid=12634f20-8f42-4088-8d25-83792f20cebf"},"vehicle_type_id":"4","last_reported":1703603214,"current_range_meters":8800,"station_id":"ce4bht12rcd13ifvqi60","pricing_plan_id":"free"},{"bike_id":"ff6ebe2d-10e0-4bee-8d5b-0d34d0573673","system_id":"levelo_inurba_marseille","lat":43.33715,"lon":5.39161,"is_reserved":false,"is_disabled":false,"rental_uris":{"android":"levelo://app?vid=ff6ebe2d-10e0-4bee-8d5b-0d34d0573673","ios":"levelo://app?vid=ff6ebe2d-10e0-4bee-8d5b-0d34d0573673"},"vehicle_type_id":"4","last_reported":1703603214,"current_range_meters":17600,"station_id":"ce4bhr92rcd13ifvqhsg","pricing_plan_id":"free"},{"bike_id":"32358c1c-e30e-473f-9e3b-ee56f5e3d31c","system_id":"levelo_inurba_marseille","lat":43.323464,"lon":5.406297,"is_reserved":false,"is_disabled":false,"rental_uris":{"android":"levelo://app?vid=32358c1c-e30e-473f-9e3b-ee56f5e3d31c","ios":"levelo://app?vid=32358c1c-e30e-473f-9e3b-ee56f5e3d31c"},"vehicle_type_id":"4","last_reported":1703603214,"current_range_meters":28800,"station_id":"ce4bhq92rcd13ifvqhjg","pricing_plan_id":"free"},{"bike_id":"69061f06-d8ba-4fc6-b6f0-46579ed76476","system_id":"levelo_inurba_marseille","lat":43.28471,"lon":5.38416,"is_reserved":false,"is_disabled":false,"rental_uris":{"android":"levelo://app?vid=69061f06-d8ba-4fc6-b6f0-46579ed76476","ios":"levelo://app?vid=69061f06-d8ba-4fc6-b6f0-46579ed76476"},"vehicle_type_id":"4","last_reported":1703603214,"current_range_meters":27600,"station_id":"ce4bh512rcd13ifvqe3g","pricing_plan_id":"free"},{"bike_id":"34593ba9-767f-4ef5-ae4e-ed65d6538299","system_id":"levelo_inurba_marseille","lat":43.284787,"lon":5.384116,"is_reserved":false,"is_disabled":false,"rental_uris":{"android":"levelo://app?vid=34593ba9-767f-4ef5-ae4e-ed65d6538299","ios":"levelo://app?vid=34593ba9-767f-4ef5-ae4e-ed65d6538299"},"vehicle_type_id":"4","last_reported":1703603214,"current_range_meters":26000,"station_id":"ce4bh512rcd13ifvqe3g","pricing_plan_id":"free"},{"bike_id":"fea4b9ee-19e0-4716-9f94-4df9a96fcb90","system_id":"levelo_inurba_marseille","lat":43.297946,"lon":5.404063,"is_reserved":false,"is_disabled":false,"rental_uris":{"android":"levelo://app?vid=fea4b9ee-19e0-4716-9f94-4df9a96fcb90","ios":"levelo://app?vid=fea4b9ee-19e0-4716-9f94-4df9a96fcb90"},"vehicle_type_id":"4","last_reported":1703603214,"current_range_meters":14400,"station_id":"ce4bh112rcd13ifvqd90","pricing_plan_id":"free"},{"bike_id":"50692be3-15e4-4f0c-815a-27fae0272cad","system_id":"levelo_inurba_marseille","lat":43.284787,"lon":5.384116,"is_reserved":false,"is_disabled":false,"rental_uris":{"android":"levelo://app?vid=50692be3-15e4-4f0c-815a-27fae0272cad","ios":"levelo://app?vid=50692be3-15e4-4f0c-815a-27fae0272cad"},"vehicle_type_id":"4","last_reported":1703603214,"current_range_meters":31600,"station_id":"ce4bh512rcd13ifvqe3g","pricing_plan_id":"free"},{"bike_id":"0c42fa24-df28-4a31-9078-869414e2a519","system_id":"levelo_inurba_marseille","lat":43.29795,"lon":5.404086,"is_reserved":false,"is_disabled":false,"rental_uris":{"android":"levelo://app?vid=0c42fa24-df28-4a31-9078-869414e2a519","ios":"levelo://app?vid=0c42fa24-df28-4a31-9078-869414e2a519"},"vehicle_type_id":"4","last_reported":1703603214,"current_range_meters":30400,"station_id":"ce4bh112rcd13ifvqd90","pricing_plan_id":"free"},{"bike_id":"ada66e7f-47b5-4491-8025-acc259f17bbb","system_id":"levelo_inurba_marseille","lat":43.284793,"lon":5.384119,"is_reserved":false,"is_disabled":false,"rental_uris":{"android":"levelo://app?vid=ada66e7f-47b5-4491-8025-acc259f17bbb","ios":"levelo://app?vid=ada66e7f-47b5-4491-8025-acc259f17bbb"},"vehicle_type_id":"4","last_reported":1703603214,"current_range_meters":24800,"station_id":"ce4bh512rcd13ifvqe3g","pricing_plan_id":"free"},{"bike_id":"e85196b0-3649-4506-bc51-0cc61f81e92f","system_id":"levelo_inurba_marseille","lat":43.283498,"lon":5.380948,"is_reserved":false,"is_disabled":false,"rental_uris":{"android":"levelo://app?vid=e85196b0-3649-4506-bc51-0cc61f81e92f","ios":"levelo://app?vid=e85196b0-3649-4506-bc51-0cc61f81e92f"},"vehicle_type_id":"4","last_reported":1703603214,"current_range_meters":27600,"station_id":"ce4bh412rcd13ifvqdr0","pricing_plan_id":"free"},{"bike_id":"e0b68692-8b72-46fb-ac41-394761fb3425","system_id":"levelo_inurba_marseille","lat":43.283494,"lon":5.380945,"is_reserved":false,"is_disabled":false,"rental_uris":{"android":"levelo://app?vid=e0b68692-8b72-46fb-ac41-394761fb3425","ios":"levelo://app?vid=e0b68692-8b72-46fb-ac41-394761fb3425"},"vehicle_type_id":"4","last_reported":1703603214,"current_range_meters":27600,"station_id":"ce4bh412rcd13ifvqdr0","pricing_plan_id":"free"},{"bike_id":"e485450b-2736-4f4c-b94b-0da5a69b88aa","system_id":"levelo_inurba_marseille","lat":43.33385,"lon":5.39822,"is_reserved":false,"is_disabled":false,"rental_uris":{"android":"levelo://app?vid=e485450b-2736-4f4c-b94b-0da5a69b88aa","ios":"levelo://app?vid=e485450b-2736-4f4c-b94b-0da5a69b88aa"},"vehicle_type_id":"4","last_reported":1703603214,"current_range_meters":22000,"station_id":"","pricing_plan_id":"free"},{"bike_id":"b9bd8e06-1824-46ab-9591-cf46f87a3e1d","system_id":"levelo_inurba_marseille","lat":43.292724,"lon":5.401131,"is_reserved":false,"is_disabled":false,"rental_uris":{"android":"levelo://app?vid=b9bd8e06-1824-46ab-9591-cf46f87a3e1d","ios":"levelo://app?vid=b9bd8e06-1824-46ab-9591-cf46f87a3e1d"},"vehicle_type_id":"4","last_reported":1703603214,"current_range_meters":18400,"station_id":"ce4bh312rcd13ifvqdk0","pricing_plan_id":"free"},{"bike_id":"3ba9add2-2b23-48c5-9a30-c8b926e2ffd6","system_id":"levelo_inurba_marseille","lat":43.282754,"lon":5.350519,"is_reserved":false,"is_disabled":false,"rental_uris":{"android":"levelo://app?vid=3ba9add2-2b23-48c5-9a30-c8b926e2ffd6","ios":"levelo://app?vid=3ba9add2-2b23-48c5-9a30-c8b926e2ffd6"},"vehicle_type_id":"4","last_reported":1703603214,"current_range_meters":30400,"station_id":"ce4bhbp2rcd13ifvqerg","pricing_plan_id":"free"},{"bike_id":"594ecde2-ba6d-4171-97d2-60af9b6b9a64","system_id":"levelo_inurba_marseille","lat":43.2827,"lon":5.35076,"is_reserved":false,"is_disabled":false,"rental_uris":{"android":"levelo://app?vid=594ecde2-ba6d-4171-97d2-60af9b6b9a64","ios":"levelo://app?vid=594ecde2-ba6d-4171-97d2-60af9b6b9a64"},"vehicle_type_id":"4","last_reported":1703603214,"current_range_meters":13200,"station_id":"ce4bhbp2rcd13ifvqerg","pricing_plan_id":"free"},{"bike_id":"eca99aeb-e84e-4747-899f-9cbdd22f6457","system_id":"levelo_inurba_marseille","lat":43.282754,"lon":5.350519,"is_reserved":false,"is_disabled":false,"rental_uris":{"android":"levelo://app?vid=eca99aeb-e84e-4747-899f-9cbdd22f6457","ios":"levelo://app?vid=eca99aeb-e84e-4747-899f-9cbdd22f6457"},"vehicle_type_id":"4","last_reported":1703603214,"current_range_meters":21200,"station_id":"ce4bhbp2rcd13ifvqerg","pricing_plan_id":"free"},{"bike_id":"6e616716-4eb2-46b3-8a70-5c6ac321244a","system_id":"levelo_inurba_marseille","lat":43.283502,"lon":5.386471,"is_reserved":false,"is_disabled":false,"rental_uris":{"android":"levelo://app?vid=6e616716-4eb2-46b3-8a70-5c6ac321244a","ios":"levelo://app?vid=6e616716-4eb2-46b3-8a70-5c6ac321244a"},"vehicle_type_id":"4","last_reported":1703603214,"current_range_meters":26400,"station_id":"ce4bh492rcd13ifvqdvg","pricing_plan_id":"free"},{"bike_id":"a7241d5c-5d81-486d-bb24-2a125409238d","system_id":"levelo_inurba_marseille","lat":43.28039,"lon":5.369297,"is_reserved":false,"is_disabled":false,"rental_uris":{"android":"levelo://app?vid=a7241d5c-5d81-486d-bb24-2a125409238d","ios":"levelo://app?vid=a7241d5c-5d81-486d-bb24-2a125409238d"},"vehicle_type_id":"4","last_reported":1703603214,"current_range_meters":28800,"station_id":"ce4bha12rcd13ifvqef0","pricing_plan_id":"free"},{"bike_id":"6e04ba8a-f88e-44d7-a29d-a07af31055f1","system_id":"levelo_inurba_marseille","lat":43.28031,"lon":5.369467,"is_reserved":false,"is_disabled":false,"rental_uris":{"android":"levelo://app?vid=6e04ba8a-f88e-44d7-a29d-a07af31055f1","ios":"levelo://app?vid=6e04ba8a-f88e-44d7-a29d-a07af31055f1"},"vehicle_type_id":"4","last_reported":1703603214,"current_range_meters":28000,"station_id":"","pricing_plan_id":"free"},{"bike_id":"79a654b4-7e2e-4782-9a88-01bb282d237a","system_id":"levelo_inurba_marseille","lat":43.29041,"lon":5.399634,"is_reserved":false,"is_disabled":false,"rental_uris":{"android":"levelo://app?vid=79a654b4-7e2e-4782-9a88-01bb282d237a","ios":"levelo://app?vid=79a654b4-7e2e-4782-9a88-01bb282d237a"},"vehicle_type_id":"4","last_reported":1703603214,"current_range_meters":24000,"station_id":"ce4bh392rcd13ifvqdm0","pricing_plan_id":"free"},{"bike_id":"90b73811-d34a-4cb3-9347-5fe3441de397","system_id":"levelo_inurba_marseille","lat":43.290412,"lon":5.399633,"is_reserved":false,"is_disabled":false,"rental_uris":{"android":"levelo://app?vid=90b73811-d34a-4cb3-9347-5fe3441de397","ios":"levelo://app?vid=90b73811-d34a-4cb3-9347-5fe3441de397"},"vehicle_type_id":"4","last_reported":1703603214,"current_range_meters":25600,"station_id":"ce4bh392rcd13ifvqdm0","pricing_plan_id":"free"},{"bike_id":"728db37e-43ee-4eaa-826d-2a288cb4f624","system_id":"levelo_inurba_marseille","lat":43.281044,"lon":5.378308,"is_reserved":false,"is_disabled":false,"rental_uris":{"android":"levelo://app?vid=728db37e-43ee-4eaa-826d-2a288cb4f624","ios":"levelo://app?vid=728db37e-43ee-4eaa-826d-2a288cb4f624"},"vehicle_type_id":"4","last_reported":1703603214,"current_range_meters":27600,"station_id":"ce4bha12rcd13ifvqee0","pricing_plan_id":"free"},{"bike_id":"82495da6-7621-44f9-a49a-03759fc7ba8b","system_id":"levelo_inurba_marseille","lat":43.284462,"lon":5.392121,"is_reserved":false,"is_disabled":false,"rental_uris":{"android":"levelo://app?vid=82495da6-7621-44f9-a49a-03759fc7ba8b","ios":"levelo://app?vid=82495da6-7621-44f9-a49a-03759fc7ba8b"},"vehicle_type_id":"4","last_reported":1703603214,"current_range_meters":25200,"station_id":"ce4bhoh2rcd13ifvqh5g","pricing_plan_id":"free"},{"bike_id":"6db115f2-2b8f-4ffa-9e31-b66bc9e104e2","system_id":"levelo_inurba_marseille","lat":43.284462,"lon":5.392121,"is_reserved":false,"is_disabled":false,"rental_uris":{"android":"levelo://app?vid=6db115f2-2b8f-4ffa-9e31-b66bc9e104e2","ios":"levelo://app?vid=6db115f2-2b8f-4ffa-9e31-b66bc9e104e2"},"vehicle_type_id":"4","last_reported":1703603214,"current_range_meters":31600,"station_id":"ce4bhoh2rcd13ifvqh5g","pricing_plan_id":"free"},{"bike_id":"59694483-c0c7-4e2b-a041-eb5f09ee04a9","system_id":"levelo_inurba_marseille","lat":43.285742,"lon":5.395004,"is_reserved":false,"is_disabled":false,"rental_uris":{"android":"levelo://app?vid=59694483-c0c7-4e2b-a041-eb5f09ee04a9","ios":"levelo://app?vid=59694483-c0c7-4e2b-a041-eb5f09ee04a9"},"vehicle_type_id":"4","last_reported":1703603214,"current_range_meters":6400,"station_id":"ce4bh292rcd13ifvqdg0","pricing_plan_id":"free"},{"bike_id":"ac9dac70-196c-44e2-9dfb-24b71db226e1","system_id":"levelo_inurba_marseille","lat":43.326605,"lon":5.409903,"is_reserved":false,"is_disabled":false,"rental_uris":{"android":"levelo://app?vid=ac9dac70-196c-44e2-9dfb-24b71db226e1","ios":"levelo://app?vid=ac9dac70-196c-44e2-9dfb-24b71db226e1"},"vehicle_type_id":"4","last_reported":1703603214,"current_range_meters":22000,"station_id":"ce4bhpp2rcd13ifvqhgg","pricing_plan_id":"free"},{"bike_id":"9cf45c35-815a-40c0-9a54-650270c813b2","system_id":"levelo_inurba_marseille","lat":43.304188,"lon":5.412904,"is_reserved":false,"is_disabled":false,"rental_uris":{"android":"levelo://app?vid=9cf45c35-815a-40c0-9a54-650270c813b2","ios":"levelo://app?vid=9cf45c35-815a-40c0-9a54-650270c813b2"},"vehicle_type_id":"4","last_reported":1703603214,"current_range_meters":7600,"station_id":"ce4bhop2rcd13ifvqh8g","pricing_plan_id":"free"},{"bike_id":"bc83ed84-f61e-479d-af8f-4ea1e019dd6a","system_id":"levelo_inurba_marseille","lat":43.287154,"lon":5.399979,"is_reserved":false,"is_disabled":false,"rental_uris":{"android":"levelo://app?vid=bc83ed84-f61e-479d-af8f-4ea1e019dd6a","ios":"levelo://app?vid=bc83ed84-f61e-479d-af8f-4ea1e019dd6a"},"vehicle_type_id":"4","last_reported":1703603214,"current_range_meters":28400,"station_id":"ce4bho92rcd13ifvqh3g","pricing_plan_id":"free"},{"bike_id":"30f310ab-2186-4843-98a8-0917e06193d3","system_id":"levelo_inurba_marseille","lat":43.287154,"lon":5.399979,"is_reserved":false,"is_disabled":false,"rental_uris":{"android":"levelo://app?vid=30f310ab-2186-4843-98a8-0917e06193d3","ios":"levelo://app?vid=30f310ab-2186-4843-98a8-0917e06193d3"},"vehicle_type_id":"4","last_reported":1703603214,"current_range_meters":30400,"station_id":"ce4bho92rcd13ifvqh3g","pricing_plan_id":"free"},{"bike_id":"bf83e1d9-0520-4b94-9f30-a575f70d310c","system_id":"levelo_inurba_marseille","lat":43.287154,"lon":5.399979,"is_reserved":false,"is_disabled":false,"rental_uris":{"android":"levelo://app?vid=bf83e1d9-0520-4b94-9f30-a575f70d310c","ios":"levelo://app?vid=bf83e1d9-0520-4b94-9f30-a575f70d310c"},"vehicle_type_id":"4","last_reported":1703603214,"current_range_meters":30400,"station_id":"ce4bho92rcd13ifvqh3g","pricing_plan_id":"free"},{"bike_id":"85944aa3-9566-4184-94f0-1190b9e7e8cb","system_id":"levelo_inurba_marseille","lat":43.28707,"lon":5.39992,"is_reserved":false,"is_disabled":false,"rental_uris":{"android":"levelo://app?vid=85944aa3-9566-4184-94f0-1190b9e7e8cb","ios":"levelo://app?vid=85944aa3-9566-4184-94f0-1190b9e7e8cb"},"vehicle_type_id":"4","last_reported":1703603214,"current_range_meters":28400,"station_id":"ce4bho92rcd13ifvqh3g","pricing_plan_id":"free"},{"bike_id":"1eb93d35-7b9b-4680-8eb9-eb025c4bf302","system_id":"levelo_inurba_marseille","lat":43.287154,"lon":5.399979,"is_reserved":false,"is_disabled":false,"rental_uris":{"android":"levelo://app?vid=1eb93d35-7b9b-4680-8eb9-eb025c4bf302","ios":"levelo://app?vid=1eb93d35-7b9b-4680-8eb9-eb025c4bf302"},"vehicle_type_id":"4","last_reported":1703603214,"current_range_meters":22000,"station_id":"ce4bho92rcd13ifvqh3g","pricing_plan_id":"free"},{"bike_id":"1f49b234-69ed-438e-8d08-179a4fc9c8c6","system_id":"levelo_inurba_marseille","lat":43.320045,"lon":5.415046,"is_reserved":false,"is_disabled":false,"rental_uris":{"android":"levelo://app?vid=1f49b234-69ed-438e-8d08-179a4fc9c8c6","ios":"levelo://app?vid=1f49b234-69ed-438e-8d08-179a4fc9c8c6"},"vehicle_type_id":"4","last_reported":1703603214,"current_range_meters":31200,"station_id":"ce4bhq92rcd13ifvqhkg","pricing_plan_id":"free"},{"bike_id":"c7bd3360-8623-45a1-80df-ba9edb342255","system_id":"levelo_inurba_marseille","lat":43.320045,"lon":5.415046,"is_reserved":false,"is_disabled":false,"rental_uris":{"android":"levelo://app?vid=c7bd3360-8623-45a1-80df-ba9edb342255","ios":"levelo://app?vid=c7bd3360-8623-45a1-80df-ba9edb342255"},"vehicle_type_id":"4","last_reported":1703603214,"current_range_meters":9200,"station_id":"ce4bhq92rcd13ifvqhkg","pricing_plan_id":"free"},{"bike_id":"387750e4-51b8-4418-92c2-682d88f04745","system_id":"levelo_inurba_marseille","lat":43.320045,"lon":5.415048,"is_reserved":false,"is_disabled":false,"rental_uris":{"android":"levelo://app?vid=387750e4-51b8-4418-92c2-682d88f04745","ios":"levelo://app?vid=387750e4-51b8-4418-92c2-682d88f04745"},"vehicle_type_id":"4","last_reported":1703603214,"current_range_meters":30400,"station_id":"ce4bhq92rcd13ifvqhkg","pricing_plan_id":"free"},{"bike_id":"0f9ba54f-2d34-4815-a7a3-85ee9d8e32a4","system_id":"levelo_inurba_marseille","lat":43.320045,"lon":5.415048,"is_reserved":false,"is_disabled":false,"rental_uris":{"android":"levelo://app?vid=0f9ba54f-2d34-4815-a7a3-85ee9d8e32a4","ios":"levelo://app?vid=0f9ba54f-2d34-4815-a7a3-85ee9d8e32a4"},"vehicle_type_id":"4","last_reported":1703603214,"current_range_meters":29600,"station_id":"ce4bhq92rcd13ifvqhkg","pricing_plan_id":"free"},{"bike_id":"0c5a5d98-eaad-40b2-af25-a1132f16165a","system_id":"levelo_inurba_marseille","lat":43.292571,"lon":5.409107,"is_reserved":false,"is_disabled":false,"rental_uris":{"android":"levelo://app?vid=0c5a5d98-eaad-40b2-af25-a1132f16165a","ios":"levelo://app?vid=0c5a5d98-eaad-40b2-af25-a1132f16165a"},"vehicle_type_id":"4","last_reported":1703603214,"current_range_meters":12400,"station_id":"ce4bh192rcd13ifvqdc0","pricing_plan_id":"free"},{"bike_id":"fec83181-1bcb-421d-8c90-7f426d72188a","system_id":"levelo_inurba_marseille","lat":43.292594,"lon":5.40903,"is_reserved":false,"is_disabled":false,"rental_uris":{"android":"levelo://app?vid=fec83181-1bcb-421d-8c90-7f426d72188a","ios":"levelo://app?vid=fec83181-1bcb-421d-8c90-7f426d72188a"},"vehicle_type_id":"4","last_reported":1703603214,"current_range_meters":20000,"station_id":"ce4bh192rcd13ifvqdc0","pricing_plan_id":"free"},{"bike_id":"8dc4a5bb-1084-4d65-a32c-faaa259b0626","system_id":"levelo_inurba_marseille","lat":43.292571,"lon":5.409107,"is_reserved":false,"is_disabled":false,"rental_uris":{"android":"levelo://app?vid=8dc4a5bb-1084-4d65-a32c-faaa259b0626","ios":"levelo://app?vid=8dc4a5bb-1084-4d65-a32c-faaa259b0626"},"vehicle_type_id":"4","last_reported":1703603214,"current_range_meters":15200,"station_id":"ce4bh192rcd13ifvqdc0","pricing_plan_id":"free"},{"bike_id":"11bfe843-22bd-4dfe-9a34-43ec002dbd62","system_id":"levelo_inurba_marseille","lat":43.292571,"lon":5.409107,"is_reserved":false,"is_disabled":false,"rental_uris":{"android":"levelo://app?vid=11bfe843-22bd-4dfe-9a34-43ec002dbd62","ios":"levelo://app?vid=11bfe843-22bd-4dfe-9a34-43ec002dbd62"},"vehicle_type_id":"4","last_reported":1703603214,"current_range_meters":31600,"station_id":"ce4bh192rcd13ifvqdc0","pricing_plan_id":"free"},{"bike_id":"45918fa4-cf1a-4ae5-9a54-72e6ab924d02","system_id":"levelo_inurba_marseille","lat":43.27618,"lon":5.361009,"is_reserved":false,"is_disabled":false,"rental_uris":{"android":"levelo://app?vid=45918fa4-cf1a-4ae5-9a54-72e6ab924d02","ios":"levelo://app?vid=45918fa4-cf1a-4ae5-9a54-72e6ab924d02"},"vehicle_type_id":"4","last_reported":1703603214,"current_range_meters":18400,"station_id":"ce4bgj92rcd13ifvqbe0","pricing_plan_id":"free"},{"bike_id":"6b8e0832-c8c2-4adb-8ef8-366a36cffb8c","system_id":"levelo_inurba_marseille","lat":43.276179,"lon":5.361009,"is_reserved":false,"is_disabled":false,"rental_uris":{"android":"levelo://app?vid=6b8e0832-c8c2-4adb-8ef8-366a36cffb8c","ios":"levelo://app?vid=6b8e0832-c8c2-4adb-8ef8-366a36cffb8c"},"vehicle_type_id":"4","last_reported":1703603214,"current_range_meters":18800,"station_id":"ce4bgj92rcd13ifvqbe0","pricing_plan_id":"free"},{"bike_id":"cda41a4d-b5d5-4fb6-b81d-8278fc56f44b","system_id":"levelo_inurba_marseille","lat":43.261782,"lon":5.374515,"is_reserved":false,"is_disabled":false,"rental_uris":{"android":"levelo://app?vid=cda41a4d-b5d5-4fb6-b81d-8278fc56f44b","ios":"levelo://app?vid=cda41a4d-b5d5-4fb6-b81d-8278fc56f44b"},"vehicle_type_id":"4","last_reported":1703603214,"current_range_meters":0,"station_id":"ce4bhgp2rcd13ifvqfc0","pricing_plan_id":"free"},{"bike_id":"7ff67f23-16a0-49eb-aab1-302ad8cb1ef0","system_id":"levelo_inurba_marseille","lat":43.273613,"lon":5.362705,"is_reserved":false,"is_disabled":false,"rental_uris":{"android":"levelo://app?vid=7ff67f23-16a0-49eb-aab1-302ad8cb1ef0","ios":"levelo://app?vid=7ff67f23-16a0-49eb-aab1-302ad8cb1ef0"},"vehicle_type_id":"4","last_reported":1703603214,"current_range_meters":23600,"station_id":"ce4bhbh2rcd13ifvqeo0","pricing_plan_id":"free"},{"bike_id":"5fd6c4d3-3f55-4134-98e3-205e0ba26463","system_id":"levelo_inurba_marseille","lat":43.273609,"lon":5.362708,"is_reserved":false,"is_disabled":false,"rental_uris":{"android":"levelo://app?vid=5fd6c4d3-3f55-4134-98e3-205e0ba26463","ios":"levelo://app?vid=5fd6c4d3-3f55-4134-98e3-205e0ba26463"},"vehicle_type_id":"4","last_reported":1703603214,"current_range_meters":21600,"station_id":"ce4bhbh2rcd13ifvqeo0","pricing_plan_id":"free"},{"bike_id":"1fcdf268-430f-4071-b92b-ece532327c2d","system_id":"levelo_inurba_marseille","lat":43.276771,"lon":5.388799,"is_reserved":false,"is_disabled":false,"rental_uris":{"android":"levelo://app?vid=1fcdf268-430f-4071-b92b-ece532327c2d","ios":"levelo://app?vid=1fcdf268-430f-4071-b92b-ece532327c2d"},"vehicle_type_id":"4","last_reported":1703603214,"current_range_meters":22000,"station_id":"ce4bhi12rcd13ifvqfo0","pricing_plan_id":"free"},{"bike_id":"95478ae3-8894-4208-8c91-fb93ac6214c1","system_id":"levelo_inurba_marseille","lat":43.317121,"lon":5.423936,"is_reserved":false,"is_disabled":false,"rental_uris":{"android":"levelo://app?vid=95478ae3-8894-4208-8c91-fb93ac6214c1","ios":"levelo://app?vid=95478ae3-8894-4208-8c91-fb93ac6214c1"},"vehicle_type_id":"4","last_reported":1703603214,"current_range_meters":25200,"station_id":"ce4bhp92rcd13ifvqhbg","pricing_plan_id":"free"},{"bike_id":"136cb9da-15ee-40e3-bc2c-40c9c9d6a86d","system_id":"levelo_inurba_marseille","lat":43.317121,"lon":5.423936,"is_reserved":false,"is_disabled":false,"rental_uris":{"android":"levelo://app?vid=136cb9da-15ee-40e3-bc2c-40c9c9d6a86d","ios":"levelo://app?vid=136cb9da-15ee-40e3-bc2c-40c9c9d6a86d"},"vehicle_type_id":"4","last_reported":1703603214,"current_range_meters":30800,"station_id":"ce4bhp92rcd13ifvqhbg","pricing_plan_id":"free"},{"bike_id":"c807b277-1704-46fd-9976-fda8eb7df135","system_id":"levelo_inurba_marseille","lat":43.310802,"lon":5.424277,"is_reserved":false,"is_disabled":false,"rental_uris":{"android":"levelo://app?vid=c807b277-1704-46fd-9976-fda8eb7df135","ios":"levelo://app?vid=c807b277-1704-46fd-9976-fda8eb7df135"},"vehicle_type_id":"4","last_reported":1703603214,"current_range_meters":21600,"station_id":"ce4bhp92rcd13ifvqhag","pricing_plan_id":"free"},{"bike_id":"c228ce51-0034-408b-93aa-dbde9bbacd8a","system_id":"levelo_inurba_marseille","lat":43.31084,"lon":5.42431,"is_reserved":false,"is_disabled":false,"rental_uris":{"android":"levelo://app?vid=c228ce51-0034-408b-93aa-dbde9bbacd8a","ios":"levelo://app?vid=c228ce51-0034-408b-93aa-dbde9bbacd8a"},"vehicle_type_id":"4","last_reported":1703603214,"current_range_meters":30400,"station_id":"ce4bhp92rcd13ifvqhag","pricing_plan_id":"free"},{"bike_id":"a5ef3ffe-074d-4034-8a49-1265e8309ea7","system_id":"levelo_inurba_marseille","lat":43.31085,"lon":5.42433,"is_reserved":false,"is_disabled":false,"rental_uris":{"android":"levelo://app?vid=a5ef3ffe-074d-4034-8a49-1265e8309ea7","ios":"levelo://app?vid=a5ef3ffe-074d-4034-8a49-1265e8309ea7"},"vehicle_type_id":"4","last_reported":1703603214,"current_range_meters":31200,"station_id":"ce4bhp92rcd13ifvqhag","pricing_plan_id":"free"},{"bike_id":"8688502e-c777-4738-8968-43d18688f77f","system_id":"levelo_inurba_marseille","lat":43.31082,"lon":5.42433,"is_reserved":false,"is_disabled":false,"rental_uris":{"android":"levelo://app?vid=8688502e-c777-4738-8968-43d18688f77f","ios":"levelo://app?vid=8688502e-c777-4738-8968-43d18688f77f"},"vehicle_type_id":"4","last_reported":1703603214,"current_range_meters":31200,"station_id":"ce4bhp92rcd13ifvqhag","pricing_plan_id":"free"},{"bike_id":"55c634c8-65ee-47b8-9656-14180506d92f","system_id":"levelo_inurba_marseille","lat":43.31082,"lon":5.42433,"is_reserved":false,"is_disabled":false,"rental_uris":{"android":"levelo://app?vid=55c634c8-65ee-47b8-9656-14180506d92f","ios":"levelo://app?vid=55c634c8-65ee-47b8-9656-14180506d92f"},"vehicle_type_id":"4","last_reported":1703603214,"current_range_meters":25600,"station_id":"ce4bhp92rcd13ifvqhag","pricing_plan_id":"free"},{"bike_id":"40000c49-67f1-4183-81bd-797685f5b1f8","system_id":"levelo_inurba_marseille","lat":43.31081,"lon":5.42435,"is_reserved":false,"is_disabled":false,"rental_uris":{"android":"levelo://app?vid=40000c49-67f1-4183-81bd-797685f5b1f8","ios":"levelo://app?vid=40000c49-67f1-4183-81bd-797685f5b1f8"},"vehicle_type_id":"4","last_reported":1703603214,"current_range_meters":29200,"station_id":"ce4bhp92rcd13ifvqhag","pricing_plan_id":"free"},{"bike_id":"c830441a-27e9-494a-8622-34ca6c78b4ee","system_id":"levelo_inurba_marseille","lat":43.31076,"lon":5.42435,"is_reserved":false,"is_disabled":false,"rental_uris":{"android":"levelo://app?vid=c830441a-27e9-494a-8622-34ca6c78b4ee","ios":"levelo://app?vid=c830441a-27e9-494a-8622-34ca6c78b4ee"},"vehicle_type_id":"4","last_reported":1703603214,"current_range_meters":24400,"station_id":"ce4bhp92rcd13ifvqhag","pricing_plan_id":"free"},{"bike_id":"68736a0c-c45e-44b7-9894-9250e5012bfe","system_id":"levelo_inurba_marseille","lat":43.31083,"lon":5.42436,"is_reserved":false,"is_disabled":false,"rental_uris":{"android":"levelo://app?vid=68736a0c-c45e-44b7-9894-9250e5012bfe","ios":"levelo://app?vid=68736a0c-c45e-44b7-9894-9250e5012bfe"},"vehicle_type_id":"4","last_reported":1703603214,"current_range_meters":26800,"station_id":"ce4bhp92rcd13ifvqhag","pricing_plan_id":"free"},{"bike_id":"b2974ce4-58ca-4652-8486-f4891c019db7","system_id":"levelo_inurba_marseille","lat":43.310785,"lon":5.424305,"is_reserved":false,"is_disabled":false,"rental_uris":{"android":"levelo://app?vid=b2974ce4-58ca-4652-8486-f4891c019db7","ios":"levelo://app?vid=b2974ce4-58ca-4652-8486-f4891c019db7"},"vehicle_type_id":"4","last_reported":1703603214,"current_range_meters":27600,"station_id":"ce4bhp92rcd13ifvqhag","pricing_plan_id":"free"},{"bike_id":"bb90a34b-3d33-434d-960c-40abe2f16ea4","system_id":"levelo_inurba_marseille","lat":43.31082,"lon":5.42439,"is_reserved":false,"is_disabled":false,"rental_uris":{"android":"levelo://app?vid=bb90a34b-3d33-434d-960c-40abe2f16ea4","ios":"levelo://app?vid=bb90a34b-3d33-434d-960c-40abe2f16ea4"},"vehicle_type_id":"4","last_reported":1703603214,"current_range_meters":28400,"station_id":"ce4bhp92rcd13ifvqhag","pricing_plan_id":"free"},{"bike_id":"1d15b6fb-4c0e-4446-a794-4d1a49148511","system_id":"levelo_inurba_marseille","lat":43.274103,"lon":5.394016,"is_reserved":false,"is_disabled":false,"rental_uris":{"android":"levelo://app?vid=1d15b6fb-4c0e-4446-a794-4d1a49148511","ios":"levelo://app?vid=1d15b6fb-4c0e-4446-a794-4d1a49148511"},"vehicle_type_id":"4","last_reported":1703603214,"current_range_meters":12400,"station_id":"ce4bhdp2rcd13ifvqf20","pricing_plan_id":"free"},{"bike_id":"80176651-f608-4378-b5e2-19d27fdce81e","system_id":"levelo_inurba_marseille","lat":43.273125,"lon":5.390731,"is_reserved":false,"is_disabled":false,"rental_uris":{"android":"levelo://app?vid=80176651-f608-4378-b5e2-19d27fdce81e","ios":"levelo://app?vid=80176651-f608-4378-b5e2-19d27fdce81e"},"vehicle_type_id":"4","last_reported":1703603214,"current_range_meters":30400,"station_id":"ce4bhgp2rcd13ifvqfe0","pricing_plan_id":"free"},{"bike_id":"d1e397f3-b139-4ced-98a7-ebc706af9675","system_id":"levelo_inurba_marseille","lat":43.304096,"lon":5.425385,"is_reserved":false,"is_disabled":false,"rental_uris":{"android":"levelo://app?vid=d1e397f3-b139-4ced-98a7-ebc706af9675","ios":"levelo://app?vid=d1e397f3-b139-4ced-98a7-ebc706af9675"},"vehicle_type_id":"4","last_reported":1703603214,"current_range_meters":800,"station_id":"ce4bhoh2rcd13ifvqh6g","pricing_plan_id":"free"},{"bike_id":"f6133491-ff83-415f-8a7d-195abfef63a4","system_id":"levelo_inurba_marseille","lat":43.304096,"lon":5.425385,"is_reserved":false,"is_disabled":false,"rental_uris":{"android":"levelo://app?vid=f6133491-ff83-415f-8a7d-195abfef63a4","ios":"levelo://app?vid=f6133491-ff83-415f-8a7d-195abfef63a4"},"vehicle_type_id":"4","last_reported":1703603214,"current_range_meters":28400,"station_id":"ce4bhoh2rcd13ifvqh6g","pricing_plan_id":"free"},{"bike_id":"04b44689-b179-4800-8622-740e783d0e47","system_id":"levelo_inurba_marseille","lat":43.304096,"lon":5.425385,"is_reserved":false,"is_disabled":false,"rental_uris":{"android":"levelo://app?vid=04b44689-b179-4800-8622-740e783d0e47","ios":"levelo://app?vid=04b44689-b179-4800-8622-740e783d0e47"},"vehicle_type_id":"4","last_reported":1703603214,"current_range_meters":30400,"station_id":"ce4bhoh2rcd13ifvqh6g","pricing_plan_id":"free"},{"bike_id":"41382738-9e52-4dc6-a61d-5eed9f020555","system_id":"levelo_inurba_marseille","lat":43.304096,"lon":5.425385,"is_reserved":false,"is_disabled":false,"rental_uris":{"android":"levelo://app?vid=41382738-9e52-4dc6-a61d-5eed9f020555","ios":"levelo://app?vid=41382738-9e52-4dc6-a61d-5eed9f020555"},"vehicle_type_id":"4","last_reported":1703603214,"current_range_meters":18000,"station_id":"ce4bhoh2rcd13ifvqh6g","pricing_plan_id":"free"},{"bike_id":"e192df68-2c2b-482d-b6fd-3b8920434290","system_id":"levelo_inurba_marseille","lat":43.29555,"lon":5.42285,"is_reserved":false,"is_disabled":false,"rental_uris":{"android":"levelo://app?vid=e192df68-2c2b-482d-b6fd-3b8920434290","ios":"levelo://app?vid=e192df68-2c2b-482d-b6fd-3b8920434290"},"vehicle_type_id":"4","last_reported":1703603214,"current_range_meters":31200,"station_id":"ce4bhph2rcd13ifvqhdg","pricing_plan_id":"free"},{"bike_id":"23dbbee6-d4a1-4819-8d81-04184524b313","system_id":"levelo_inurba_marseille","lat":43.295511,"lon":5.422926,"is_reserved":false,"is_disabled":false,"rental_uris":{"android":"levelo://app?vid=23dbbee6-d4a1-4819-8d81-04184524b313","ios":"levelo://app?vid=23dbbee6-d4a1-4819-8d81-04184524b313"},"vehicle_type_id":"4","last_reported":1703603214,"current_range_meters":24000,"station_id":"ce4bhph2rcd13ifvqhdg","pricing_plan_id":"free"},{"bike_id":"d2d49e02-d402-4a3f-804c-fe5289fc6d34","system_id":"levelo_inurba_marseille","lat":43.272124,"lon":5.391768,"is_reserved":false,"is_disabled":false,"rental_uris":{"android":"levelo://app?vid=d2d49e02-d402-4a3f-804c-fe5289fc6d34","ios":"levelo://app?vid=d2d49e02-d402-4a3f-804c-fe5289fc6d34"},"vehicle_type_id":"4","last_reported":1703603214,"current_range_meters":30800,"station_id":"ce4bhhp2rcd13ifvqfm0","pricing_plan_id":"free"},{"bike_id":"179c072f-4dba-41d7-912b-c57e385c3e94","system_id":"levelo_inurba_marseille","lat":43.272116,"lon":5.391747,"is_reserved":false,"is_disabled":false,"rental_uris":{"android":"levelo://app?vid=179c072f-4dba-41d7-912b-c57e385c3e94","ios":"levelo://app?vid=179c072f-4dba-41d7-912b-c57e385c3e94"},"vehicle_type_id":"4","last_reported":1703603214,"current_range_meters":26000,"station_id":"ce4bhhp2rcd13ifvqfm0","pricing_plan_id":"free"},{"bike_id":"0d882357-f428-4cfb-959c-0de8819b1da6","system_id":"levelo_inurba_marseille","lat":43.272116,"lon":5.391763,"is_reserved":false,"is_disabled":false,"rental_uris":{"android":"levelo://app?vid=0d882357-f428-4cfb-959c-0de8819b1da6","ios":"levelo://app?vid=0d882357-f428-4cfb-959c-0de8819b1da6"},"vehicle_type_id":"4","last_reported":1703603214,"current_range_meters":13600,"station_id":"ce4bhhp2rcd13ifvqfm0","pricing_plan_id":"free"},{"bike_id":"e8706573-0362-4e96-94c3-7c676f07d149","system_id":"levelo_inurba_marseille","lat":43.269467,"lon":5.386439,"is_reserved":false,"is_disabled":false,"rental_uris":{"android":"levelo://app?vid=e8706573-0362-4e96-94c3-7c676f07d149","ios":"levelo://app?vid=e8706573-0362-4e96-94c3-7c676f07d149"},"vehicle_type_id":"4","last_reported":1703603214,"current_range_meters":4800,"station_id":"ce4bhh92rcd13ifvqfh0","pricing_plan_id":"free"},{"bike_id":"1654d11a-8bc1-48d0-8ea2-9ef7c191e376","system_id":"levelo_inurba_marseille","lat":43.279465,"lon":5.410561,"is_reserved":false,"is_disabled":false,"rental_uris":{"android":"levelo://app?vid=1654d11a-8bc1-48d0-8ea2-9ef7c191e376","ios":"levelo://app?vid=1654d11a-8bc1-48d0-8ea2-9ef7c191e376"},"vehicle_type_id":"4","last_reported":1703603214,"current_range_meters":29200,"station_id":"ce4bhnp2rcd13ifvqh0g","pricing_plan_id":"free"},{"bike_id":"80a87b91-559f-423c-9e89-a48615c09940","system_id":"levelo_inurba_marseille","lat":43.279465,"lon":5.410561,"is_reserved":false,"is_disabled":false,"rental_uris":{"android":"levelo://app?vid=80a87b91-559f-423c-9e89-a48615c09940","ios":"levelo://app?vid=80a87b91-559f-423c-9e89-a48615c09940"},"vehicle_type_id":"4","last_reported":1703603214,"current_range_meters":18400,"station_id":"ce4bhnp2rcd13ifvqh0g","pricing_plan_id":"free"},{"bike_id":"87b486a3-c53e-46d8-ac8f-3f0c00d9d069","system_id":"levelo_inurba_marseille","lat":43.269319,"lon":5.389397,"is_reserved":false,"is_disabled":false,"rental_uris":{"android":"levelo://app?vid=87b486a3-c53e-46d8-ac8f-3f0c00d9d069","ios":"levelo://app?vid=87b486a3-c53e-46d8-ac8f-3f0c00d9d069"},"vehicle_type_id":"4","last_reported":1703603214,"current_range_meters":27200,"station_id":"ce4bhhh2rcd13ifvqfl0","pricing_plan_id":"free"},{"bike_id":"d21546a3-2cb2-453d-9ac1-54c25e2758fd","system_id":"levelo_inurba_marseille","lat":43.26681,"lon":5.382694,"is_reserved":false,"is_disabled":false,"rental_uris":{"android":"levelo://app?vid=d21546a3-2cb2-453d-9ac1-54c25e2758fd","ios":"levelo://app?vid=d21546a3-2cb2-453d-9ac1-54c25e2758fd"},"vehicle_type_id":"4","last_reported":1703603214,"current_range_meters":26800,"station_id":"ce4bhg92rcd13ifvqf90","pricing_plan_id":"free"},{"bike_id":"e9898c28-a815-4561-ba5f-86f800c6489d","system_id":"levelo_inurba_marseille","lat":43.27986,"lon":5.41652,"is_reserved":false,"is_disabled":false,"rental_uris":{"android":"levelo://app?vid=e9898c28-a815-4561-ba5f-86f800c6489d","ios":"levelo://app?vid=e9898c28-a815-4561-ba5f-86f800c6489d"},"vehicle_type_id":"4","last_reported":1703603214,"current_range_meters":17200,"station_id":"ce4bho12rcd13ifvqh1g","pricing_plan_id":"free"},