{"last_updated":1757711273,"ttl":60,"version":"2.2","data":{"bikes":[{"bike_id":"c4196c16-2637-4053-a48d-450d9544839a","system_id":"levelo_inurba_marseille","lat":43.30405,"lon":5.389,"is_reserved":false,"is_disabled":false,"rental_uris":{"android":"levelo://app?vid=c4196c16-2637-4053-a48d-450d9544839a","ios":"levelo://app?vid=c4196c16-2637-4053-a48d-450d9544839a"},"vehicle_type_id":"4","last_reported":1757711273,"current_range_meters":2800,"station_id":"ce4bgk12rcd13ifvqbi0","pricing_plan_id":"cebpf4jnsgd1na2vs0mg"},{"bike_id":"58aadb38-e2f3-477c-b26d-56b4c5ca7b0c","system_id":"levelo_inurba_marseille","lat":43.304203,"lon":5.412843,"is_reserved":false,"is_disabled":false,"rental_uris":{"android":"levelo://app?vid=58aadb38-e2f3-477c-b26d-56b4c5ca7b0c","ios":"levelo://app?vid=58aadb38-e2f3-477c-b26d-56b4c5ca7b0c"},"vehicle_type_id":"4","last_reported":1757711273,"current_range_meters":3200,"station_id":"ce4bhop2rcd13ifvqh8g","pricing_plan_id":"cebpf4jnsgd1na2vs0mg"},{"bike_id":"f96b701e-7897-4097-85fe-b03340fba83d","system_id":"levelo_inurba_marseille","lat":43.29519,"lon":5.38567,"is_reserved":false,"is_disabled":true,"rental_uris":{"android":"levelo://app?vid=f96b701e-7897-4097-85fe-b03340fba83d","ios":"levelo://app?vid=f96b701e-7897-4097-85fe-b03340fba83d"},"vehicle_type_id":"4","last_reported":1757711273,"current_range_meters":3200,"station_id":"ce4bgih2rcd13ifvqba0","pricing_plan_id":"cebpf4jnsgd1na2vs0mg"},{"bike_id":"de41831f-1383-4c07-837b-2009251864cd","system_id":"levelo_inurba_marseille","lat":43.22563,"lon":5.41623,"is_reserved":false,"is_disabled":false,"rental_uris":{"android":"levelo://app?vid=de41831f-1383-4c07-837b-2009251864cd","ios":"levelo://app?vid=de41831f-1383-4c07-837b-2009251864cd"},"vehicle_type_id":"4","last_reported":1757711273,"current_range_meters":3200,"station_id":"st_d2o4gvlbi1j2169b742g","pricing_plan_id":"cebpf4jnsgd1na2vs0mg"},{"bike_id":"ffbec829-f87e-450b-aaa0-6fbcb173e077","system_id":"levelo_inurba_marseille","lat":43.29446,"lon":5.39743,"is_reserved":false,"is_disabled":false,"rental_uris":{"android":"levelo://app?vid=ffbec829-f87e-450b-aaa0-6fbcb173e077","ios":"levelo://app?vid=ffbec829-f87e-450b-aaa0-6fbcb173e077"},"vehicle_type_id":"4","last_reported":1757711273,"current_range_meters":3200,"station_id":"ce4bh3h2rcd13ifvqdo0","pricing_plan_id":"cebpf4jnsgd1na2vs0mg"},{"bike_id":"be991777-0a36-436a-9880-deda5bbd9572","system_id":"levelo_inurba_marseille","lat":43.28095,"lon":5.40714,"is_reserved":false,"is_disabled":false,"rental_uris":{"android":"levelo://app?vid=be991777-0a36-436a-9880-deda5bbd9572","ios":"levelo://app?vid=be991777-0a36-436a-9880-deda5bbd9572"},"vehicle_type_id":"4","last_reported":1757711273,"current_range_meters":3200,"station_id":"","pricing_plan_id":"cebpf4jnsgd1na2vs0mg"},{"bike_id":"885201bb-4b20-436c-82a5-5d655a75e50e","system_id":"levelo_inurba_marseille","lat":43.33618,"lon":5.36241,"is_reserved":false,"is_disabled":false,"rental_uris":{"android":"levelo://app?vid=885201bb-4b20-436c-82a5-5d655a75e50e","ios":"levelo://app?vid=885201bb-4b20-436c-82a5-5d655a75e50e"},"vehicle_type_id":"4","last_reported":1757711273,"current_range_meters":3200,"station_id":"","pricing_plan_id":"cebpf4jnsgd1na2vs0mg"},{"bike_id":"a43e72fe-69d9-4ead-8a51-6f17d3558021","system_id":"levelo_inurba_marseille","lat":43.22573,"lon":5.41637,"is_reserved":false,"is_disabled":false,"rental_uris":{"android":"levelo://app?vid=a43e72fe-69d9-4ead-8a51-6f17d3558021","ios":"levelo://app?vid=a43e72fe-69d9-4ead-8a51-6f17d3558021"},"vehicle_type_id":"4","last_reported":1757711273,"current_range_meters":3600,"station_id":"st_d2o4gvlbi1j2169b742g","pricing_plan_id":"cebpf4jnsgd1na2vs0mg"},{"bike_id":"8d3788ae-5f26-4c5c-b177-25063bea97e2","system_id":"levelo_inurba_marseille","lat":43.28614,"lon":5.35106,"is_reserved":false,"is_disabled":false,"rental_uris":{"android":"levelo://app?vid=8d3788ae-5f26-4c5c-b177-25063bea97e2","ios":"levelo://app?vid=8d3788ae-5f26-4c5c-b177-25063bea97e2"},"vehicle_type_id":"4","last_reported":1757711273,"current_range_meters":3600,"station_id":"ce4bhch2rcd13ifvqeug","pricing_plan_id":"cebpf4jnsgd1na2vs0mg"},{"bike_id":"fcda51fd-c787-43e5-82c3-c8578711573c","system_id":"levelo_inurba_marseille","lat":43.30915,"lon":5.36724,"is_reserved":false,"is_disabled":false,"rental_uris":{"android":"levelo://app?vid=fcda51fd-c787-43e5-82c3-c8578711573c","ios":"levelo://app?vid=fcda51fd-c787-43e5-82c3-c8578711573c"},"vehicle_type_id":"4","last_reported":1757711273,"current_range_meters":3600,"station_id":"","pricing_plan_id":"cebpf4jnsgd1na2vs0mg"},{"bike_id":"bbcaf3b7-9a6b-4fc7-a11f-ca120bbcf6ef","system_id":"levelo_inurba_marseille","lat":43.28414,"lon":5.34981,"is_reserved":false,"is_disabled":false,"rental_uris":{"android":"levelo://app?vid=bbcaf3b7-9a6b-4fc7-a11f-ca120bbcf6ef","ios":"levelo://app?vid=bbcaf3b7-9a6b-4fc7-a11f-ca120bbcf6ef"},"vehicle_type_id":"4","last_reported":1757711273,"current_range_meters":4000,"station_id":"ce4bhbh2rcd13ifvqepg","pricing_plan_id":"cebpf4jnsgd1na2vs0mg"},{"bike_id":"17c45cf0-12a1-4060-8dda-cb2fb5905ddd","system_id":"levelo_inurba_marseille","lat":43.28482,"lon":5.38424,"is_reserved":false,"is_disabled":false,"rental_uris":{"android":"levelo://app?vid=17c45cf0-12a1-4060-8dda-cb2fb5905ddd","ios":"levelo://app?vid=17c45cf0-12a1-4060-8dda-cb2fb5905ddd"},"vehicle_type_id":"4","last_reported":1757711273,"current_range_meters":4400,"station_id":"ce4bh512rcd13ifvqe3g","pricing_plan_id":"cebpf4jnsgd1na2vs0mg"},{"bike_id":"329e783f-5914-40db-aab9-40352bcdacdf","system_id":"levelo_inurba_marseille","lat":43.229268,"lon":5.353819,"is_reserved":false,"is_disabled":false,"rental_uris":{"android":"levelo://app?vid=329e783f-5914-40db-aab9-40352bcdacdf","ios":"levelo://app?vid=329e783f-5914-40db-aab9-40352bcdacdf"},"vehicle_type_id":"4","last_reported":1757711273,"current_range_meters":4400,"station_id":"cpo3532slgdg3j2ikp40","pricing_plan_id":"cebpf4jnsgd1na2vs0mg"},{"bike_id":"3b870fac-9936-4d11-8fe3-59dd33ac3271","system_id":"levelo_inurba_marseille","lat":43.295715,"lon":5.375241,"is_reserved":false,"is_disabled":false,"rental_uris":{"android":"levelo://app?vid=3b870fac-9936-4d11-8fe3-59dd33ac3271","ios":"levelo://app?vid=3b870fac-9936-4d11-8fe3-59dd33ac3271"},"vehicle_type_id":"4","last_reported":1757711273,"current_range_meters":4400,"station_id":"ce4bgh92rcd13ifvqb50","pricing_plan_id":"cebpf4jnsgd1na2vs0mg"},{"bike_id":"9c3a2073-bc98-42a1-a691-0a7b7be57bf8","system_id":"levelo_inurba_marseille","lat":43.29519,"lon":5.36444,"is_reserved":false,"is_disabled":false,"rental_uris":{"android":"levelo://app?vid=9c3a2073-bc98-42a1-a691-0a7b7be57bf8","ios":"levelo://app?vid=9c3a2073-bc98-42a1-a691-0a7b7be57bf8"},"vehicle_type_id":"4","last_reported":1757711273,"current_range_meters":4400,"station_id":"","pricing_plan_id":"cebpf4jnsgd1na2vs0mg"},{"bike_id":"d3d2a43f-c498-4abc-82ce-a39672257ccc","system_id":"levelo_inurba_marseille","lat":43.27068,"lon":5.422774,"is_reserved":false,"is_disabled":false,"rental_uris":{"android":"levelo://app?vid=d3d2a43f-c498-4abc-82ce-a39672257ccc","ios":"levelo://app?vid=d3d2a43f-c498-4abc-82ce-a39672257ccc"},"vehicle_type_id":"4","last_reported":1757711273,"current_range_meters":4800,"station_id":"ce4bhk92rcd13ifvqgb0","pricing_plan_id":"cebpf4jnsgd1na2vs0mg"},{"bike_id":"505735f4-b451-4038-88fc-b91d6adccb43","system_id":"levelo_inurba_marseille","lat":43.25722,"lon":5.41106,"is_reserved":false,"is_disabled":false,"rental_uris":{"android":"levelo://app?vid=505735f4-b451-4038-88fc-b91d6adccb43","ios":"levelo://app?vid=505735f4-b451-4038-88fc-b91d6adccb43"},"vehicle_type_id":"4","last_reported":1757711273,"current_range_meters":4800,"station_id":"ce4bhkp2rcd13ifvqgd0","pricing_plan_id":"cebpf4jnsgd1na2vs0mg"},{"bike_id":"45490700-6139-4cd2-bef8-6a171c517cc8","system_id":"levelo_inurba_marseille","lat":43.28717,"lon":5.39991,"is_reserved":false,"is_disabled":false,"rental_uris":{"android":"levelo://app?vid=45490700-6139-4cd2-bef8-6a171c517cc8","ios":"levelo://app?vid=45490700-6139-4cd2-bef8-6a171c517cc8"},"vehicle_type_id":"4","last_reported":1757711273,"current_range_meters":4800,"station_id":"ce4bho92rcd13ifvqh3g","pricing_plan_id":"cebpf4jnsgd1na2vs0mg"},{"bike_id":"7f34d3be-70f7-4af0-9578-addff9a1a7c4","system_id":"levelo_inurba_marseille","lat":43.26838,"lon":5.40679,"is_reserved":false,"is_disabled":true,"rental_uris":{"android":"levelo://app?vid=7f34d3be-70f7-4af0-9578-addff9a1a7c4","ios":"levelo://app?vid=7f34d3be-70f7-4af0-9578-addff9a1a7c4"},"vehicle_type_id":"4","last_reported":1757711273,"current_range_meters":4800,"station_id":"","pricing_plan_id":"cebpf4jnsgd1na2vs0mg"},{"bike_id":"8723e2a1-4b6b-4daf-8dbb-b117101cec76","system_id":"levelo_inurba_marseille","lat":43.29567,"lon":5.39979,"is_reserved":false,"is_disabled":false,"rental_uris":{"android":"levelo://app?vid=8723e2a1-4b6b-4daf-8dbb-b117101cec76","ios":"levelo://app?vid=8723e2a1-4b6b-4daf-8dbb-b117101cec76"},"vehicle_type_id":"4","last_reported":1757711273,"current_range_meters":4800,"station_id":"ce4bh312rcd13ifvqdj0","pricing_plan_id":"cebpf4jnsgd1na2vs0mg"},{"bike_id":"2f90fbdf-e2db-444f-928b-42e117670f18","system_id":"levelo_inurba_marseille","lat":43.337608,"lon":5.374358,"is_reserved":false,"is_disabled":false,"rental_uris":{"android":"levelo://app?vid=2f90fbdf-e2db-444f-928b-42e117670f18","ios":"levelo://app?vid=2f90fbdf-e2db-444f-928b-42e117670f18"},"vehicle_type_id":"4","last_reported":1757711273,"current_range_meters":5600,"station_id":"","pricing_plan_id":"cebpf4jnsgd1na2vs0mg"},{"bike_id":"6627b7c8-d245-498c-97ae-1bca49ecd6d9","system_id":"levelo_inurba_marseille","lat":43.32078,"lon":5.44776,"is_reserved":false,"is_disabled":false,"rental_uris":{"android":"levelo://app?vid=6627b7c8-d245-498c-97ae-1bca49ecd6d9","ios":"levelo://app?vid=6627b7c8-d245-498c-97ae-1bca49ecd6d9"},"vehicle_type_id":"4","last_reported":1757711273,"current_range_meters":5600,"station_id":"","pricing_plan_id":"cebpf4jnsgd1na2vs0mg"},{"bike_id":"6e39d4d5-f2da-4d1c-baa3-169a85085c26","system_id":"levelo_inurba_marseille","lat":43.24811,"lon":5.37456,"is_reserved":false,"is_disabled":false,"rental_uris":{"android":"levelo://app?vid=6e39d4d5-f2da-4d1c-baa3-169a85085c26","ios":"levelo://app?vid=6e39d4d5-f2da-4d1c-baa3-169a85085c26"},"vehicle_type_id":"4","last_reported":1757711273,"current_range_meters":6000,"station_id":"ce4bhgh2rcd13ifvqfb0","pricing_plan_id":"cebpf4jnsgd1na2vs0mg"},{"bike_id":"63596c4c-ad22-4f80-a4d4-4147cef00861","system_id":"levelo_inurba_marseille","lat":43.299751,"lon":5.371863,"is_reserved":false,"is_disabled":false,"rental_uris":{"android":"levelo://app?vid=63596c4c-ad22-4f80-a4d4-4147cef00861","ios":"levelo://app?vid=63596c4c-ad22-4f80-a4d4-4147cef00861"},"vehicle_type_id":"4","last_reported":1757711273,"current_range_meters":4800,"station_id":"ce4bgr92rcd13ifvqc7g","pricing_plan_id":"cebpf4jnsgd1na2vs0mg"},{"bike_id":"7ca9c8c0-0ba1-46c1-82d7-00280a54cffe","system_id":"levelo_inurba_marseille","lat":43.30468,"lon":5.37508,"is_reserved":false,"is_disabled":false,"rental_uris":{"android":"levelo://app?vid=7ca9c8c0-0ba1-46c1-82d7-00280a54cffe","ios":"levelo://app?vid=7ca9c8c0-0ba1-46c1-82d7-00280a54cffe"},"vehicle_type_id":"4","last_reported":1757711273,"current_range_meters":5600,"station_id":"","pricing_plan_id":"cebpf4jnsgd1na2vs0mg"},{"bike_id":"c14ddda8-05f2-4275-9b78-7f7a5455b6b9","system_id":"levelo_inurba_marseille","lat":43.30777,"lon":5.37391,"is_reserved":false,"is_disabled":false,"rental_uris":{"android":"levelo://app?vid=c14ddda8-05f2-4275-9b78-7f7a5455b6b9","ios":"levelo://app?vid=c14ddda8-05f2-4275-9b78-7f7a5455b6b9"},"vehicle_type_id":"4","last_reported":1757711273,"current_range_meters":6000,"station_id":"","pricing_plan_id":"cebpf4jnsgd1na2vs0mg"},{"bike_id":"7cdfeefc-2a2c-4a33-b3b3-0a27fbbdf878","system_id":"levelo_inurba_marseille","lat":43.28711,"lon":5.36116,"is_reserved":false,"is_disabled":false,"rental_uris":{"android":"levelo://app?vid=7cdfeefc-2a2c-4a33-b3b3-0a27fbbdf878","ios":"levelo://app?vid=7cdfeefc-2a2c-4a33-b3b3-0a27fbbdf878"},"vehicle_type_id":"4","last_reported":1757711273,"current_range_meters":6000,"station_id":"cki0cbj6b192h4jlfktg","pricing_plan_id":"cebpf4jnsgd1na2vs0mg"},{"bike_id":"127dd6c2-1942-450c-a677-d801ab312ec2","system_id":"levelo_inurba_marseille","lat":43.25069,"lon":5.39539,"is_reserved":false,"is_disabled":false,"rental_uris":{"android":"levelo://app?vid=127dd6c2-1942-450c-a677-d801ab312ec2","ios":"levelo://app?vid=127dd6c2-1942-450c-a677-d801ab312ec2"},"vehicle_type_id":"4","last_reported":1757711273,"current_range_meters":6000,"station_id":"ce4bhm12rcd13ifvqgkg","pricing_plan_id":"cebpf4jnsgd1na2vs0mg"},{"bike_id":"c5c5955e-98bd-435e-a3f0-077a3ad783d0","system_id":"levelo_inurba_marseille","lat":43.28897,"lon":5.43121,"is_reserved":false,"is_disabled":false,"rental_uris":{"android":"levelo://app?vid=c5c5955e-98bd-435e-a3f0-077a3ad783d0","ios":"levelo://app?vid=c5c5955e-98bd-435e-a3f0-077a3ad783d0"},"vehicle_type_id":"4","last_reported":1757711273,"current_range_meters":6000,"station_id":"","pricing_plan_id":"cebpf4jnsgd1na2vs0mg"},{"bike_id":"97514a44-1f4d-4ae1-a270-04ca7b75c621","system_id":"levelo_inurba_marseille","lat":43.28861,"lon":5.42532,"is_reserved":false,"is_disabled":false,"rental_uris":{"android":"levelo://app?vid=97514a44-1f4d-4ae1-a270-04ca7b75c621","ios":"levelo://app?vid=97514a44-1f4d-4ae1-a270-04ca7b75c621"},"vehicle_type_id":"4","last_reported":1757711273,"current_range_meters":6400,"station_id":"","pricing_plan_id":"cebpf4jnsgd1na2vs0mg"},{"bike_id":"2a8d9ebb-6c86-4800-887f-3663d62b34e8","system_id":"levelo_inurba_marseille","lat":43.255024,"lon":5.376489,"is_reserved":false,"is_disabled":false,"rental_uris":{"android":"levelo://app?vid=2a8d9ebb-6c86-4800-887f-3663d62b34e8","ios":"levelo://app?vid=2a8d9ebb-6c86-4800-887f-3663d62b34e8"},"vehicle_type_id":"4","last_reported":1757711273,"current_range_meters":6400,"station_id":"ce4bhh12rcd13ifvqff0","pricing_plan_id":"cebpf4jnsgd1na2vs0mg"},{"bike_id":"3f7c3fa4-a713-4418-afb0-1ef0e8bb03db","system_id":"levelo_inurba_marseille","lat":43.24679,"lon":5.38159,"is_reserved":false,"is_disabled":false,"rental_uris":{"android":"levelo://app?vid=3f7c3fa4-a713-4418-afb0-1ef0e8bb03db","ios":"levelo://app?vid=3f7c3fa4-a713-4418-afb0-1ef0e8bb03db"},"vehicle_type_id":"4","last_reported":1757711273,"current_range_meters":6400,"station_id":"ce4bhih2rcd13ifvqfr0","pricing_plan_id":"cebpf4jnsgd1na2vs0mg"},{"bike_id":"5c3b8324-4f47-40ae-b829-94061268861d","system_id":"levelo_inurba_marseille","lat":43.22573,"lon":5.41627,"is_reserved":false,"is_disabled":false,"rental_uris":{"android":"levelo://app?vid=5c3b8324-4f47-40ae-b829-94061268861d","ios":"levelo://app?vid=5c3b8324-4f47-40ae-b829-94061268861d"},"vehicle_type_id":"4","last_reported":1757711273,"current_range_meters":6400,"station_id":"st_d2o4gvlbi1j2169b742g","pricing_plan_id":"cebpf4jnsgd1na2vs0mg"},{"bike_id":"1e75b484-aa2e-4da3-88ac-818421fb629b","system_id":"levelo_inurba_marseille","lat":43.26228,"lon":5.40453,"is_reserved":false,"is_disabled":false,"rental_uris":{"android":"levelo://app?vid=1e75b484-aa2e-4da3-88ac-818421fb629b","ios":"levelo://app?vid=1e75b484-aa2e-4da3-88ac-818421fb629b"},"vehicle_type_id":"4","last_reported":1757711273,"current_range_meters":6800,"station_id":"ce4bhmh2rcd13ifvqgmg","pricing_plan_id":"cebpf4jnsgd1na2vs0mg"},{"bike_id":"9f62d3cc-89e5-4301-b022-b0c7fa009bf9","system_id":"levelo_inurba_marseille","lat":43.24809,"lon":5.37454,"is_reserved":false,"is_disabled":false,"rental_uris":{"android":"levelo://app?vid=9f62d3cc-89e5-4301-b022-b0c7fa009bf9","ios":"levelo://app?vid=9f62d3cc-89e5-4301-b022-b0c7fa009bf9"},"vehicle_type_id":"4","last_reported":1757711273,"current_range_meters":6800,"station_id":"ce4bhgh2rcd13ifvqfb0","pricing_plan_id":"cebpf4jnsgd1na2vs0mg"},{"bike_id":"9ef26e0c-6f01-4b10-90fe-cec11146e852","system_id":"levelo_inurba_marseille","lat":43.31011,"lon":5.37312,"is_reserved":false,"is_disabled":false,"rental_uris":{"android":"levelo://app?vid=9ef26e0c-6f01-4b10-90fe-cec11146e852","ios":"levelo://app?vid=9ef26e0c-6f01-4b10-90fe-cec11146e852"},"vehicle_type_id":"4","last_reported":1757711273,"current_range_meters":6800,"station_id":"","pricing_plan_id":"cebpf4jnsgd1na2vs0mg"},{"bike_id":"a7a3371c-ff74-4507-87fd-42cf22fbff6d","system_id":"levelo_inurba_marseille","lat":43.28932,"lon":5.38393,"is_reserved":false,"is_disabled":false,"rental_uris":{"android":"levelo://app?vid=a7a3371c-ff74-4507-87fd-42cf22fbff6d","ios":"levelo://app?vid=a7a3371c-ff74-4507-87fd-42cf22fbff6d"},"vehicle_type_id":"4","last_reported":1757711273,"current_range_meters":6800,"station_id":"ce4bh612rcd13ifvqe6g","pricing_plan_id":"cebpf4jnsgd1na2vs0mg"},{"bike_id":"145ae111-52a5-4cae-b9c2-05adbdbf07e6","system_id":"levelo_inurba_marseille","lat":43.29522,"lon":5.38556,"is_reserved":false,"is_disabled":false,"rental_uris":{"android":"levelo://app?vid=145ae111-52a5-4cae-b9c2-05adbdbf07e6","ios":"levelo://app?vid=145ae111-52a5-4cae-b9c2-05adbdbf07e6"},"vehicle_type_id":"4","last_reported":1757711273,"current_range_meters":6800,"station_id":"ce4bgih2rcd13ifvqba0","pricing_plan_id":"cebpf4jnsgd1na2vs0mg"},{"bike_id":"156d00f8-389c-42d2-b8f1-ec13ca69d7b1","system_id":"levelo_inurba_marseille","lat":43.30306,"lon":5.39209,"is_reserved":false,"is_disabled":true,"rental_uris":{"android":"levelo://app?vid=156d00f8-389c-42d2-b8f1-ec13ca69d7b1","ios":"levelo://app?vid=156d00f8-389c-42d2-b8f1-ec13ca69d7b1"},"vehicle_type_id":"4","last_reported":1757711273,"current_range_meters":6800,"station_id":"ce4bgkh2rcd13ifvqbk0","pricing_plan_id":"cebpf4jnsgd1na2vs0mg"},{"bike_id":"f5e74068-3dab-4b3e-a870-458b45c653da","system_id":"levelo_inurba_marseille","lat":43.27376,"lon":5.3626,"is_reserved":false,"is_disabled":false,"rental_uris":{"android":"levelo://app?vid=f5e74068-3dab-4b3e-a870-458b45c653da","ios":"levelo://app?vid=f5e74068-3dab-4b3e-a870-458b45c653da"},"vehicle_type_id":"4","last_reported":1757711273,"current_range_meters":7200,"station_id":"ce4bhbh2rcd13ifvqeo0","pricing_plan_id":"cebpf4jnsgd1na2vs0mg"},{"bike_id":"2137201b-2bdc-47a1-87ec-c1b6d5dcb1d7","system_id":"levelo_inurba_marseille","lat":43.2781,"lon":5.40716,"is_reserved":false,"is_disabled":false,"rental_uris":{"android":"levelo://app?vid=2137201b-2bdc-47a1-87ec-c1b6d5dcb1d7","ios":"levelo://app?vid=2137201b-2bdc-47a1-87ec-c1b6d5dcb1d7"},"vehicle_type_id":"4","last_reported":1757711273,"current_range_meters":7200,"station_id":"ce4bhnh2rcd13ifvqgtg","pricing_plan_id":"cebpf4jnsgd1na2vs0mg"},{"bike_id":"ca6d52f9-f537-4238-b982-81aca0a31600","system_id":"levelo_inurba_marseille","lat":43.30212,"lon":5.45369,"is_reserved":false,"is_disabled":false,"rental_uris":{"android":"levelo://app?vid=ca6d52f9-f537-4238-b982-81aca0a31600","ios":"levelo://app?vid=ca6d52f9-f537-4238-b982-81aca0a31600"},"vehicle_type_id":"4","last_reported":1757711273,"current_range_meters":7200,"station_id":"","pricing_plan_id":"cebpf4jnsgd1na2vs0mg"},{"bike_id":"51793d0b-9786-4fe7-9b4c-071410771bee","system_id":"levelo_inurba_marseille","lat":43.27493,"lon":5.4245,"is_reserved":false,"is_disabled":false,"rental_uris":{"android":"levelo://app?vid=51793d0b-9786-4fe7-9b4c-071410771bee","ios":"levelo://app?vid=51793d0b-9786-4fe7-9b4c-071410771bee"},"vehicle_type_id":"4","last_reported":1757711273,"current_range_meters":8000,"station_id":"ce4bhn92rcd13ifvqgrg","pricing_plan_id":"cebpf4jnsgd1na2vs0mg"},{"bike_id":"5f2c0397-404f-46d4-b455-199285197a5d","system_id":"levelo_inurba_marseille","lat":43.24636,"lon":5.43147,"is_reserved":false,"is_disabled":false,"rental_uris":{"android":"levelo://app?vid=5f2c0397-404f-46d4-b455-199285197a5d","ios":"levelo://app?vid=5f2c0397-404f-46d4-b455-199285197a5d"},"vehicle_type_id":"4","last_reported":1757711273,"current_range_meters":8000,"station_id":"st_d2m6c4gdas8pm72e190g","pricing_plan_id":"cebpf4jnsgd1na2vs0mg"},{"bike_id":"f3ee055f-d759-468a-adf4-829717f84c2a","system_id":"levelo_inurba_marseille","lat":43.305985,"lon":5.371739,"is_reserved":false,"is_disabled":false,"rental_uris":{"android":"levelo://app?vid=f3ee055f-d759-468a-adf4-829717f84c2a","ios":"levelo://app?vid=f3ee055f-d759-468a-adf4-829717f84c2a"},"vehicle_type_id":"4","last_reported":1757711273,"current_range_meters":7200,"station_id":"ce4bgqh2rcd13ifvqc4g","pricing_plan_id":"cebpf4jnsgd1na2vs0mg"},{"bike_id":"ae1316c1-f848-4cdd-9100-531e051ac79e","system_id":"levelo_inurba_marseille","lat":43.25494,"lon":5.37655,"is_reserved":false,"is_disabled":false,"rental_uris":{"android":"levelo://app?vid=ae1316c1-f848-4cdd-9100-531e051ac79e","ios":"levelo://app?vid=ae1316c1-f848-4cdd-9100-531e051ac79e"},"vehicle_type_id":"4","last_reported":1757711273,"current_range_meters":8000,"station_id":"ce4bhh12rcd13ifvqff0","pricing_plan_id":"cebpf4jnsgd1na2vs0mg"},{"bike_id":"85bd5459-5b3c-423c-90a5-65977c644259","system_id":"levelo_inurba_marseille","lat":43.2254,"lon":5.34835,"is_reserved":false,"is_disabled":true,"rental_uris":{"android":"levelo://app?vid=85bd5459-5b3c-423c-90a5-65977c644259","ios":"levelo://app?vid=85bd5459-5b3c-423c-90a5-65977c644259"},"vehicle_type_id":"4","last_reported":1757711273,"current_range_meters":8000,"station_id":"","pricing_plan_id":"cebpf4jnsgd1na2vs0mg"},{"bike_id":"7aad21d7-d182-4743-92fa-3fd14885009f","system_id":"levelo_inurba_marseille","lat":43.28935,"lon":5.36638,"is_reserved":false,"is_disabled":false,"rental_uris":{"android":"levelo://app?vid=7aad21d7-d182-4743-92fa-3fd14885009f","ios":"levelo://app?vid=7aad21d7-d182-4743-92fa-3fd14885009f"},"vehicle_type_id":"4","last_reported":1757711273,"current_range_meters":8000,"station_id":"ce4bhap2rcd13ifvqek0","pricing_plan_id":"cebpf4jnsgd1na2vs0mg"},{"bike_id":"8e823669-a05c-4f14-a05f-6373bb94f16b","system_id":"levelo_inurba_marseille","lat":43.307288,"lon":5.372792,"is_reserved":false,"is_disabled":false,"rental_uris":{"android":"levelo://app?vid=8e823669-a05c-4f14-a05f-6373bb94f16b","ios":"levelo://app?vid=8e823669-a05c-4f14-a05f-6373bb94f16b"},"vehicle_type_id":"4","last_reported":1757711273,"current_range_meters":8400,"station_id":"","pricing_plan_id":"cebpf4jnsgd1na2vs0mg"},{"bike_id":"0a180902-13a6-4de2-a6fc-e04d96d9b351","system_id":"levelo_inurba_marseille","lat":43.28908,"lon":5.38399,"is_reserved":false,"is_disabled":true,"rental_uris":{"android":"levelo://app?vid=0a180902-13a6-4de2-a6fc-e04d96d9b351","ios":"levelo://app?vid=0a180902-13a6-4de2-a6fc-e04d96d9b351"},"vehicle_type_id":"4","last_reported":1757711273,"current_range_meters":8400,"station_id":"ce4bh612rcd13ifvqe6g","pricing_plan_id":"cebpf4jnsgd1na2vs0mg"},{"bike_id":"3262e763-5a88-4d25-99b0-6e608bc390d7","system_id":"levelo_inurba_marseille","lat":43.29062,"lon":5.37158,"is_reserved":false,"is_disabled":true,"rental_uris":{"android":"levelo://app?vid=3262e763-5a88-4d25-99b0-6e608bc390d7","ios":"levelo://app?vid=3262e763-5a88-4d25-99b0-6e608bc390d7"},"vehicle_type_id":"4","last_reported":1757711273,"current_range_meters":8400,"station_id":"ce4bh5p2rcd13ifvqe4g","pricing_plan_id":"cebpf4jnsgd1na2vs0mg"},{"bike_id":"50960d59-75e3-4c48-a5ec-da1f40c993cb","system_id":"levelo_inurba_marseille","lat":43.31479,"lon":5.3731,"is_reserved":false,"is_disabled":false,"rental_uris":{"android":"levelo://app?vid=50960d59-75e3-4c48-a5ec-da1f40c993cb","ios":"levelo://app?vid=50960d59-75e3-4c48-a5ec-da1f40c993cb"},"vehicle_type_id":"4","last_reported":1757711273,"current_range_meters":8400,"station_id":"ce4bgt12rcd13ifvqcd0","pricing_plan_id":"cebpf4jnsgd1na2vs0mg"},{"bike_id":"869a7da9-149a-4754-8084-c2ca160e15d1","system_id":"levelo_inurba_marseille","lat":43.2476,"lon":5.37482,"is_reserved":false,"is_disabled":false,"rental_uris":{"android":"levelo://app?vid=869a7da9-149a-4754-8084-c2ca160e15d1","ios":"levelo://app?vid=869a7da9-149a-4754-8084-c2ca160e15d1"},"vehicle_type_id":"4","last_reported":1757711273,"current_range_meters":8400,"station_id":"ce4bhgh2rcd13ifvqfb0","pricing_plan_id":"cebpf4jnsgd1na2vs0mg"},{"bike_id":"2de18e2b-51db-4e17-a8ee-d2cd5cd17828","system_id":"levelo_inurba_marseille","lat":43.244526,"lon":5.37904,"is_reserved":false,"is_disabled":false,"rental_uris":{"android":"levelo://app?vid=2de18e2b-51db-4e17-a8ee-d2cd5cd17828","ios":"levelo://app?vid=2de18e2b-51db-4e17-a8ee-d2cd5cd17828"},"vehicle_type_id":"4","last_reported":1757711273,"current_range_meters":8400,"station_id":"ce4bhih2rcd13ifvqfr0","pricing_plan_id":"cebpf4jnsgd1na2vs0mg"},{"bike_id":"fe8d88d6-81c3-42a8-85bb-3d0aa4841db3","system_id":"levelo_inurba_marseille","lat":43.337444,"lon":5.374475,"is_reserved":false,"is_disabled":false,"rental_uris":{"android":"levelo://app?vid=fe8d88d6-81c3-42a8-85bb-3d0aa4841db3","ios":"levelo://app?vid=fe8d88d6-81c3-42a8-85bb-3d0aa4841db3"},"vehicle_type_id":"4","last_reported":1757711273,"current_range_meters":8400,"station_id":"","pricing_plan_id":"cebpf4jnsgd1na2vs0mg"},{"bike_id":"d1de2b7d-3583-4df3-8bfa-43eda5116068","system_id":"levelo_inurba_marseille","lat":43.3374,"lon":5.37468,"is_reserved":false,"is_disabled":false,"rental_uris":{"android":"levelo://app?vid=d1de2b7d-3583-4df3-8bfa-43eda5116068","ios":"levelo://app?vid=d1de2b7d-3583-4df3-8bfa-43eda5116068"},"vehicle_type_id":"4","last_reported":1757711273,"current_range_meters":8400,"station_id":"","pricing_plan_id":"cebpf4jnsgd1na2vs0mg"},{"bike_id":"d1208639-5703-4ac3-a303-6e72a5788218","system_id":"levelo_inurba_marseille","lat":43.33753,"lon":5.37475,"is_reserved":false,"is_disabled":false,"rental_uris":{"android":"levelo://app?vid=d1208639-5703-4ac3-a303-6e72a5788218","ios":"levelo://app?vid=d1208639-5703-4ac3-a303-6e72a5788218"},"vehicle_type_id":"4","last_reported":1757711273,"current_range_meters":8400,"station_id":"","pricing_plan_id":"cebpf4jnsgd1na2vs0mg"},{"bike_id":"60b2d016-2ccf-41aa-9293-dd665af26767","system_id":"levelo_inurba_marseille","lat":43.297101,"lon":5.377007,"is_reserved":false,"is_disabled":false,"rental_uris":{"android":"levelo://app?vid=60b2d016-2ccf-41aa-9293-dd665af26767","ios":"levelo://app?vid=60b2d016-2ccf-41aa-9293-dd665af26767"},"vehicle_type_id":"4","last_reported":1757711273,"current_range_meters":8800,"station_id":"","pricing_plan_id":"cebpf4jnsgd1na2vs0mg"},{"bike_id":"296528f5-ef67-4039-b5d9-a1cc08efa64b","system_id":"levelo_inurba_marseille","lat":43.31117,"lon":5.37792,"is_reserved":false,"is_disabled":false,"rental_uris":{"android":"levelo://app?vid=296528f5-ef67-4039-b5d9-a1cc08efa64b","ios":"levelo://app?vid=296528f5-ef67-4039-b5d9-a1cc08efa64b"},"vehicle_type_id":"4","last_reported":1757711273,"current_range_meters":8800,"station_id":"ce4bgt92rcd13ifvqcg0","pricing_plan_id":"cebpf4jnsgd1na2vs0mg"},{"bike_id":"487ebec8-7483-4a49-a70c-4efc6d0b250a","system_id":"levelo_inurba_marseille","lat":43.25328,"lon":5.42167,"is_reserved":false,"is_disabled":false,"rental_uris":{"android":"levelo://app?vid=487ebec8-7483-4a49-a70c-4efc6d0b250a","ios":"levelo://app?vid=487ebec8-7483-4a49-a70c-4efc6d0b250a"},"vehicle_type_id":"4","last_reported":1757711273,"current_range_meters":8800,"station_id":"st_d2m65c5bi1j21697t3ng","pricing_plan_id":"cebpf4jnsgd1na2vs0mg"},{"bike_id":"4858d9c3-5545-444d-a530-e02470e1cd92","system_id":"levelo_inurba_marseille","lat":43.31169,"lon":5.38715,"is_reserved":false,"is_disabled":false,"rental_uris":{"android":"levelo://app?vid=4858d9c3-5545-444d-a530-e02470e1cd92","ios":"levelo://app?vid=4858d9c3-5545-444d-a530-e02470e1cd92"},"vehicle_type_id":"4","last_reported":1757711273,"current_range_meters":8800,"station_id":"ce4bgv12rcd13ifvqcp0","pricing_plan_id":"cebpf4jnsgd1na2vs0mg"},{"bike_id":"8d13458d-baa9-46c5-b134-800a7618623b","system_id":"levelo_inurba_marseille","lat":43.24385,"lon":5.37068,"is_reserved":false,"is_disabled":false,"rental_uris":{"android":"levelo://app?vid=8d13458d-baa9-46c5-b134-800a7618623b","ios":"levelo://app?vid=8d13458d-baa9-46c5-b134-800a7618623b"},"vehicle_type_id":"4","last_reported":1757711273,"current_range_meters":8800,"station_id":"ce4bhhh2rcd13ifvqfk0","pricing_plan_id":"cebpf4jnsgd1na2vs0mg"},{"bike_id":"b716545b-6c67-41bf-8d45-d879002426c3","system_id":"levelo_inurba_marseille","lat":43.31998,"lon":5.38176,"is_reserved":false,"is_disabled":false,"rental_uris":{"android":"levelo://app?vid=b716545b-6c67-41bf-8d45-d879002426c3","ios":"levelo://app?vid=b716545b-6c67-41bf-8d45-d879002426c3"},"vehicle_type_id":"4","last_reported":1757711273,"current_range_meters":9200,"station_id":"ce4bhr12rcd13ifvqhpg","pricing_plan_id":"cebpf4jnsgd1na2vs0mg"},{"bike_id":"659ec8bf-5825-4c94-849d-9720835a0beb","system_id":"levelo_inurba_marseille","lat":43.25088,"lon":5.39526,"is_reserved":false,"is_disabled":false,"rental_uris":{"android":"levelo://app?vid=659ec8bf-5825-4c94-849d-9720835a0beb","ios":"levelo://app?vid=659ec8bf-5825-4c94-849d-9720835a0beb"},"vehicle_type_id":"4","last_reported":1757711273,"current_range_meters":9200,"station_id":"ce4bhm12rcd13ifvqgkg","pricing_plan_id":"cebpf4jnsgd1na2vs0mg"},{"bike_id":"966fccfb-edf5-45b0-8efd-ce67125d4a08","system_id":"levelo_inurba_marseille","lat":43.30001,"lon":5.37798,"is_reserved":false,"is_disabled":false,"rental_uris":{"android":"levelo://app?vid=966fccfb-edf5-45b0-8efd-ce67125d4a08","ios":"levelo://app?vid=966fccfb-edf5-45b0-8efd-ce67125d4a08"},"vehicle_type_id":"4","last_reported":1757711273,"current_range_meters":9200,"station_id":"","pricing_plan_id":"cebpf4jnsgd1na2vs0mg"},{"bike_id":"54868907-63ea-40a5-8f3a-4ac6edb4c05c","system_id":"levelo_inurba_marseille","lat":43.29206,"lon":5.37769,"is_reserved":false,"is_disabled":false,"rental_uris":{"android":"levelo://app?vid=54868907-63ea-40a5-8f3a-4ac6edb4c05c","ios":"levelo://app?vid=54868907-63ea-40a5-8f3a-4ac6edb4c05c"},"vehicle_type_id":"4","last_reported":1757711273,"current_range_meters":9200,"station_id":"","pricing_plan_id":"cebpf4jnsgd1na2vs0mg"},{"bike_id":"430b2697-f90d-49b5-bd9d-2b6d27bdf16b","system_id":"levelo_inurba_marseille","lat":43.32101,"lon":5.36779,"is_reserved":false,"is_disabled":false,"rental_uris":{"android":"levelo://app?vid=430b2697-f90d-49b5-bd9d-2b6d27bdf16b","ios":"levelo://app?vid=430b2697-f90d-49b5-bd9d-2b6d27bdf16b"},"vehicle_type_id":"4","last_reported":1757711273,"current_range_meters":9600,"station_id":"ce4bhrh2rcd13ifvqhug","pricing_plan_id":"cebpf4jnsgd1na2vs0mg"},{"bike_id":"b2083b1b-095d-48a2-b1a0-832cfd9422d2","system_id":"levelo_inurba_marseille","lat":43.29872,"lon":5.39741,"is_reserved":false,"is_disabled":false,"rental_uris":{"android":"levelo://app?vid=b2083b1b-095d-48a2-b1a0-832cfd9422d2","ios":"levelo://app?vid=b2083b1b-095d-48a2-b1a0-832cfd9422d2"},"vehicle_type_id":"4","last_reported":1757711273,"current_range_meters":9600,"station_id":"ce4bh0h2rcd13ifvqd50","pricing_plan_id":"cebpf4jnsgd1na2vs0mg"},{"bike_id":"2c391566-752c-4551-9bfc-d1b085699401","system_id":"levelo_inurba_marseille","lat":43.2731,"lon":5.39082,"is_reserved":false,"is_disabled":true,"rental_uris":{"android":"levelo://app?vid=2c391566-752c-4551-9bfc-d1b085699401","ios":"levelo://app?vid=2c391566-752c-4551-9bfc-d1b085699401"},"vehicle_type_id":"4","last_reported":1757711273,"current_range_meters":9600,"station_id":"ce4bhgp2rcd13ifvqfe0","pricing_plan_id":"cebpf4jnsgd1na2vs0mg"},{"bike_id":"82491e25-e9b9-4c3b-b7c4-d51bc2758b25","system_id":"levelo_inurba_marseille","lat":43.33736,"lon":5.3918,"is_reserved":false,"is_disabled":true,"rental_uris":{"android":"levelo://app?vid=82491e25-e9b9-4c3b-b7c4-d51bc2758b25","ios":"levelo://app?vid=82491e25-e9b9-4c3b-b7c4-d51bc2758b25"},"vehicle_type_id":"4","last_reported":1757711273,"current_range_meters":9600,"station_id":"ce4bhr92rcd13ifvqhsg","pricing_plan_id":"cebpf4jnsgd1na2vs0mg"},{"bike_id":"3bd595b7-af3b-43b1-8697-1bcb2a61af6f","system_id":"levelo_inurba_marseille","lat":43.27996,"lon":5.40008,"is_reserved":false,"is_disabled":true,"rental_uris":{"android":"levelo://app?vid=3bd595b7-af3b-43b1-8697-1bcb2a61af6f","ios":"levelo://app?vid=3bd595b7-af3b-43b1-8697-1bcb2a61af6f"},"vehicle_type_id":"4","last_reported":1757711273,"current_range_meters":9600,"station_id":"ce4bho92rcd13ifvqh4g","pricing_plan_id":"cebpf4jnsgd1na2vs0mg"},{"bike_id":"270770cf-9106-4984-9830-a1f711b1a3ec","system_id":"levelo_inurba_marseille","lat":43.27373,"lon":5.36256,"is_reserved":false,"is_disabled":false,"rental_uris":{"android":"levelo://app?vid=270770cf-9106-4984-9830-a1f711b1a3ec","ios":"levelo://app?vid=270770cf-9106-4984-9830-a1f711b1a3ec"},"vehicle_type_id":"4","last_reported":1757711273,"current_range_meters":9600,"station_id":"ce4bhbh2rcd13ifvqeo0","pricing_plan_id":"cebpf4jnsgd1na2vs0mg"},{"bike_id":"7db384a7-4267-4cd8-b9e7-7ca132b3d121","system_id":"levelo_inurba_marseille","lat":43.33885,"lon":5.3555,"is_reserved":false,"is_disabled":false,"rental_uris":{"android":"levelo://app?vid=7db384a7-4267-4cd8-b9e7-7ca132b3d121","ios":"levelo://app?vid=7db384a7-4267-4cd8-b9e7-7ca132b3d121"},"vehicle_type_id":"4","last_reported":1757711273,"current_range_meters":9600,"station_id":"","pricing_plan_id":"cebpf4jnsgd1na2vs0mg"},{"bike_id":"069b0fee-af69-4958-a06e-d0bd95d527ee","system_id":"levelo_inurba_marseille","lat":43.212,"lon":5.35091,"is_reserved":false,"is_disabled":false,"rental_uris":{"android":"levelo://app?vid=069b0fee-af69-4958-a06e-d0bd95d527ee","ios":"levelo://app?vid=069b0fee-af69-4958-a06e-d0bd95d527ee"},"vehicle_type_id":"4","last_reported":1757711273,"current_range_meters":9600,"station_id":"","pricing_plan_id":"cebpf4jnsgd1na2vs0mg"},{"bike_id":"eec5ce73-152c-4e5d-b67e-4f785ec5a7bc","system_id":"levelo_inurba_marseille","lat":43.30587,"lon":5.39355,"is_reserved":false,"is_disabled":false,"rental_uris":{"android":"levelo://app?vid=eec5ce73-152c-4e5d-b67e-4f785ec5a7bc","ios":"levelo://app?vid=eec5ce73-152c-4e5d-b67e-4f785ec5a7bc"},"vehicle_type_id":"4","last_reported":1757711273,"current_range_meters":9600,"station_id":"ce4bh0p2rcd13ifvqd80","pricing_plan_id":"cebpf4jnsgd1na2vs0mg"},{"bike_id":"a04535ae-765a-420e-b94f-129b6d3028ab","system_id":"levelo_inurba_marseille","lat":43.27484,"lon":5.42459,"is_reserved":false,"is_disabled":false,"rental_uris":{"android":"levelo://app?vid=a04535ae-765a-420e-b94f-129b6d3028ab","ios":"levelo://app?vid=a04535ae-765a-420e-b94f-129b6d3028ab"},"vehicle_type_id":"4","last_reported":1757711273,"current_range_meters":9600,"station_id":"ce4bhn92rcd13ifvqgrg","pricing_plan_id":"cebpf4jnsgd1na2vs0mg"},{"bike_id":"bde43026-5ee2-4507-a34f-7aaa01267faa","system_id":"levelo_inurba_marseille","lat":43.27312,"lon":5.39098,"is_reserved":false,"is_disabled":true,"rental_uris":{"android":"levelo://app?vid=bde43026-5ee2-4507-a34f-7aaa01267faa","ios":"levelo://app?vid=bde43026-5ee2-4507-a34f-7aaa01267faa"},"vehicle_type_id":"4","last_reported":1757711273,"current_range_meters":10000,"station_id":"ce4bhgp2rcd13ifvqfe0","pricing_plan_id":"cebpf4jnsgd1na2vs0mg"},{"bike_id":"ba2f1959-ad57-4458-adbd-b14fbb1b820f","system_id":"levelo_inurba_marseille","lat":43.33723,"lon":5.39191,"is_reserved":false,"is_disabled":false,"rental_uris":{"android":"levelo://app?vid=ba2f1959-ad57-4458-adbd-b14fbb1b820f","ios":"levelo://app?vid=ba2f1959-ad57-4458-adbd-b14fbb1b820f"},"vehicle_type_id":"4","last_reported":1757711273,"current_range_meters":10000,"station_id":"ce4bhr92rcd13ifvqhsg","pricing_plan_id":"cebpf4jnsgd1na2vs0mg"},{"bike_id":"ced5462d-ee0d-4d22-a76c-c1aecf6c99da","system_id":"levelo_inurba_marseille","lat":43.24384,"lon":5.37063,"is_reserved":false,"is_disabled":true,"rental_uris":{"android":"levelo://app?vid=ced5462d-ee0d-4d22-a76c-c1aecf6c99da","ios":"levelo://app?vid=ced5462d-ee0d-4d22-a76c-c1aecf6c99da"},"vehicle_type_id":"4","last_reported":1757711273,"current_range_meters":10000,"station_id":"ce4bhhh2rcd13ifvqfk0","pricing_plan_id":"cebpf4jnsgd1na2vs0mg"},{"bike_id":"7819e6a3-28a0-4be3-9641-2b4ce9eaabab","system_id":"levelo_inurba_marseille","lat":43.28937,"lon":5.38385,"is_reserved":false,"is_disabled":false,"rental_uris":{"android":"levelo://app?vid=7819e6a3-28a0-4be3-9641-2b4ce9eaabab","ios":"levelo://app?vid=7819e6a3-28a0-4be3-9641-2b4ce9eaabab"},"vehicle_type_id":"4","last_reported":1757711273,"current_range_meters":10000,"station_id":"ce4bh612rcd13ifvqe6g","pricing_plan_id":"cebpf4jnsgd1na2vs0mg"},{"bike_id":"b127266c-1968-4726-b432-7cfbba5bebf5","system_id":"levelo_inurba_marseille","lat":43.30423,"lon":5.39748,"is_reserved":false,"is_disabled":false,"rental_uris":{"android":"levelo://app?vid=b127266c-1968-4726-b432-7cfbba5bebf5","ios":"levelo://app?vid=b127266c-1968-4726-b432-7cfbba5bebf5"},"vehicle_type_id":"4","last_reported":1757711273,"current_range_meters":10800,"station_id":"ce4bh092rcd13ifvqd20","pricing_plan_id":"cebpf4jnsgd1na2vs0mg"},{"bike_id":"967d7854-6355-461f-86f6-4faa14f5fca6","system_id":"levelo_inurba_marseille","lat":43.28946,"lon":5.36644,"is_reserved":false,"is_disabled":false,"rental_uris":{"android":"levelo://app?vid=967d7854-6355-461f-86f6-4faa14f5fca6","ios":"levelo://app?vid=967d7854-6355-461f-86f6-4faa14f5fca6"},"vehicle_type_id":"4","last_reported":1757711273,"current_range_meters":10800,"station_id":"ce4bhap2rcd13ifvqek0","pricing_plan_id":"cebpf4jnsgd1na2vs0mg"},{"bike_id":"68422fda-945c-402d-b886-a4fecef0c346","system_id":"levelo_inurba_marseille","lat":43.29169,"lon":5.37157,"is_reserved":false,"is_disabled":true,"rental_uris":{"android":"levelo://app?vid=68422fda-945c-402d-b886-a4fecef0c346","ios":"levelo://app?vid=68422fda-945c-402d-b886-a4fecef0c346"},"vehicle_type_id":"4","last_reported":1757711273,"current_range_meters":10800,"station_id":"ce4bha92rcd13ifvqeh0","pricing_plan_id":"cebpf4jnsgd1na2vs0mg"},{"bike_id":"f4928273-4e80-4e22-b0cc-e64fad2ef321","system_id":"levelo_inurba_marseille","lat":43.29264,"lon":5.38435,"is_reserved":false,"is_disabled":false,"rental_uris":{"android":"levelo://app?vid=f4928273-4e80-4e22-b0cc-e64fad2ef321","ios":"levelo://app?vid=f4928273-4e80-4e22-b0cc-e64fad2ef321"},"vehicle_type_id":"4","last_reported":1757711273,"current_range_meters":10800,"station_id":"ce4bh692rcd13ifvqea0","pricing_plan_id":"cebpf4jnsgd1na2vs0mg"},{"bike_id":"0e0c8dec-1a42-46dd-bb35-7088192ded70","system_id":"levelo_inurba_marseille","lat":43.29727,"lon":5.37154,"is_reserved":false,"is_disabled":false,"rental_uris":{"android":"levelo://app?vid=0e0c8dec-1a42-46dd-bb35-7088192ded70","ios":"levelo://app?vid=0e0c8dec-1a42-46dd-bb35-7088192ded70"},"vehicle_type_id":"4","last_reported":1757711273,"current_range_meters":11200,"station_id":"","pricing_plan_id":"cebpf4jnsgd1na2vs0mg"},{"bike_id":"c286afa3-951c-4440-8c09-7607963f7236","system_id":"levelo_inurba_marseille","lat":43.30018,"lon":5.37121,"is_reserved":false,"is_disabled":false,"rental_uris":{"android":"levelo://app?vid=c286afa3-951c-4440-8c09-7607963f7236","ios":"levelo://app?vid=c286afa3-951c-4440-8c09-7607963f7236"},"vehicle_type_id":"4","last_reported":1757711273,"current_range_meters":11200,"station_id":"","pricing_plan_id":"cebpf4jnsgd1na2vs0mg"},{"bike_id":"e0a47ffa-0cad-408c-96af-bc4ad9c798d9","system_id":"levelo_inurba_marseille","lat":43.241745,"lon":5.363915,"is_reserved":false,"is_disabled":false,"rental_uris":{"android":"levelo://app?vid=e0a47ffa-0cad-408c-96af-bc4ad9c798d9","ios":"levelo://app?vid=e0a47ffa-0cad-408c-96af-bc4ad9c798d9"},"vehicle_type_id":"4","last_reported":1757711273,"current_range_meters":11200,"station_id":"cpo36qri1sfpv3e86is0","pricing_plan_id":"cebpf4jnsgd1na2vs0mg"},{"bike_id":"b0f2aaf4-4e39-4c7a-b9f5-3a739f8bdaa5","system_id":"levelo_inurba_marseille","lat":43.28482,"lon":5.38445,"is_reserved":false,"is_disabled":true,"rental_uris":{"android":"levelo://app?vid=b0f2aaf4-4e39-4c7a-b9f5-3a739f8bdaa5","ios":"levelo://app?vid=b0f2aaf4-4e39-4c7a-b9f5-3a739f8bdaa5"},"vehicle_type_id":"4","last_reported":1757711273,"current_range_meters":11200,"station_id":"ce4bh512rcd13ifvqe3g","pricing_plan_id":"cebpf4jnsgd1na2vs0mg"},{"bike_id":"b6826780-8dd1-4f45-9b17-8562da4c9c45","system_id":"levelo_inurba_marseille","lat":43.25111,"lon":5.40313,"is_reserved":false,"is_disabled":false,"rental_uris":{"android":"levelo://app?vid=b6826780-8dd1-4f45-9b17-8562da4c9c45","ios":"levelo://app?vid=b6826780-8dd1-4f45-9b17-8562da4c9c45"},"vehicle_type_id":"4","last_reported":1757711273,"current_range_meters":11200,"station_id":"ce4bhlh2rcd13ifvqgig","pricing_plan_id":"cebpf4jnsgd1na2vs0mg"},{"bike_id":"d3491c91-4335-45c9-a9f9-c845ee4fe492","system_id":"levelo_inurba_marseille","lat":43.26196,"lon":5.3746,"is_reserved":false,"is_disabled":false,"rental_uris":{"android":"levelo://app?vid=d3491c91-4335-45c9-a9f9-c845ee4fe492","ios":"levelo://app?vid=d3491c91-4335-45c9-a9f9-c845ee4fe492"},"vehicle_type_id":"4","last_reported":1757711273,"current_range_meters":11600,"station_id":"ce4bhgp2rcd13ifvqfc0","pricing_plan_id":"cebpf4jnsgd1na2vs0mg"},{"bike_id":"b9129be8-ef64-4127-bd3d-55286b1311b2","system_id":"levelo_inurba_marseille","lat":43.29563,"lon":5.39969,"is_reserved":false,"is_disabled":false,"rental_uris":{"android":"levelo://app?vid=b9129be8-ef64-4127-bd3d-55286b1311b2","ios":"levelo://app?vid=b9129be8-ef64-4127-bd3d-55286b1311b2"},"vehicle_type_id":"4","last_reported":1757711273,"current_range_meters":11200,"station_id":"ce4bh312rcd13ifvqdj0","pricing_plan_id":"cebpf4jnsgd1na2vs0mg"},{"bike_id":"34a7c858-535f-4a6b-855f-a85831c975e6","system_id":"levelo_inurba_marseille","lat":43.29861,"lon":5.39743,"is_reserved":false,"is_disabled":false,"rental_uris":{"android":"levelo://app?vid=34a7c858-535f-4a6b-855f-a85831c975e6","ios":"levelo://app?vid=34a7c858-535f-4a6b-855f-a85831c975e6"},"vehicle_type_id":"4","last_reported":1757711273,"current_range_meters":11600,"station_id":"ce4bh0h2rcd13ifvqd50","pricing_plan_id":"cebpf4jnsgd1na2vs0mg"},{"bike_id":"77fbaa02-91df-48b2-8514-72567d842973","system_id":"levelo_inurba_marseille","lat":43.29282,"lon":5.38485,"is_reserved":false,"is_disabled":false,"rental_uris":{"android":"levelo://app?vid=77fbaa02-91df-48b2-8514-72567d842973","ios":"levelo://app?vid=77fbaa02-91df-48b2-8514-72567d842973"},"vehicle_type_id":"4","last_reported":1757711273,"current_range_meters":11600,"station_id":"","pricing_plan_id":"cebpf4jnsgd1na2vs0mg"},{"bike_id":"d36118c9-1e47-4ef7-b028-6e7ca8fc89d7","system_id":"levelo_inurba_marseille","lat":43.24816,"lon":5.37463,"is_reserved":false,"is_disabled":false,"rental_uris":{"android":"levelo://app?vid=d36118c9-1e47-4ef7-b028-6e7ca8fc89d7","ios":"levelo://app?vid=d36118c9-1e47-4ef7-b028-6e7ca8fc89d7"},"vehicle_type_id":"4","last_reported":1757711273,"current_range_meters":11600,"station_id":"ce4bhgh2rcd13ifvqfb0","pricing_plan_id":"cebpf4jnsgd1na2vs0mg"},{"bike_id":"9b8549b1-8f6c-4047-9665-55154feeec7e","system_id":"levelo_inurba_marseille","lat":43.28348,"lon":5.38105,"is_reserved":false,"is_disabled":false,"rental_uris":{"android":"levelo://app?vid=9b8549b1-8f6c-4047-9665-55154feeec7e","ios":"levelo://app?vid=9b8549b1-8f6c-4047-9665-55154feeec7e"},"vehicle_type_id":"4","last_reported":1757711273,"current_range_meters":11600,"station_id":"ce4bh412rcd13ifvqdr0","pricing_plan_id":"cebpf4jnsgd1na2vs0mg"},{"bike_id":"dcc07ce4-ae62-4a3c-bd29-370803b52e24","system_id":"levelo_inurba_marseille","lat":43.30796,"lon":5.38162,"is_reserved":false,"is_disabled":false,"rental_uris":{"android":"levelo://app?vid=dcc07ce4-ae62-4a3c-bd29-370803b52e24","ios":"levelo://app?vid=dcc07ce4-ae62-4a3c-bd29-370803b52e24"},"vehicle_type_id":"4","last_reported":1757711273,"current_range_meters":12000,"station_id":"ce4bgt12rcd13ifvqce0","pricing_plan_id":"cebpf4jnsgd1na2vs0mg"},{"bike_id":"51667cd9-048f-4c21-beef-ab93b8cf3d07","system_id":"levelo_inurba_marseille","lat":43.26548,"lon":5.39062,"is_reserved":false,"is_disabled":true,"rental_uris":{"android":"levelo://app?vid=51667cd9-048f-4c21-beef-ab93b8cf3d07","ios":"levelo://app?vid=51667cd9-048f-4c21-beef-ab93b8cf3d07"},"vehicle_type_id":"4","last_reported":1757711273,"current_range_meters":12000,"station_id":"ce4bhe12rcd13ifvqf30","pricing_plan_id":"cebpf4jnsgd1na2vs0mg"},{"bike_id":"ba36c5db-04e8-4251-b6c7-387f7addbee7","system_id":"levelo_inurba_marseille","lat":43.305492,"lon":5.365412,"is_reserved":false,"is_disabled":false,"rental_uris":{"android":"levelo://app?vid=ba36c5db-04e8-4251-b6c7-387f7addbee7","ios":"levelo://app?vid=ba36c5db-04e8-4251-b6c7-387f7addbee7"},"vehicle_type_id":"4","last_reported":1757711273,"current_range_meters":12000,"station_id":"ce4bgs12rcd13ifvqcag","pricing_plan_id":"cebpf4jnsgd1na2vs0mg"},{"bike_id":"3033d3c0-eafe-49a7-903b-043a10e6b21d","system_id":"levelo_inurba_marseille","lat":43.29254,"lon":5.38451,"is_reserved":false,"is_disabled":false,"rental_uris":{"android":"levelo://app?vid=3033d3c0-eafe-49a7-903b-043a10e6b21d","ios":"levelo://app?vid=3033d3c0-eafe-49a7-903b-043a10e6b21d"},"vehicle_type_id":"4","last_reported":1757711273,"current_range_meters":12000,"station_id":"ce4bh692rcd13ifvqea0","pricing_plan_id":"cebpf4jnsgd1na2vs0mg"},{"bike_id":"972b4c5f-3a00-4bb2-9116-b81f2cecc9f2","system_id":"levelo_inurba_marseille","lat":43.33764,"lon":5.37483,"is_reserved":false,"is_disabled":false,"rental_uris":{"android":"levelo://app?vid=972b4c5f-3a00-4bb2-9116-b81f2cecc9f2","ios":"levelo://app?vid=972b4c5f-3a00-4bb2-9116-b81f2cecc9f2"},"vehicle_type_id":"4","last_reported":1757711273,"current_range_meters":12000,"station_id":"","pricing_plan_id":"cebpf4jnsgd1na2vs0mg"},{"bike_id":"8a125bca-38aa-4a61-b5dc-4566e4a718b0","system_id":"levelo_inurba_marseille","lat":43.295283,"lon":5.385352,"is_reserved":false,"is_disabled":false,"rental_uris":{"android":"levelo://app?vid=8a125bca-38aa-4a61-b5dc-4566e4a718b0","ios":"levelo://app?vid=8a125bca-38aa-4a61-b5dc-4566e4a718b0"},"vehicle_type_id":"4","last_reported":1757711273,"current_range_meters":12400,"station_id":"ce4bgih2rcd13ifvqba0","pricing_plan_id":"cebpf4jnsgd1na2vs0mg"},{"bike_id":"d48f27bf-e088-448e-9388-03a1f9ffbcfa","system_id":"levelo_inurba_marseille","lat":43.29959,"lon":5.41319,"is_reserved":false,"is_disabled":false,"rental_uris":{"android":"levelo://app?vid=d48f27bf-e088-448e-9388-03a1f9ffbcfa","ios":"levelo://app?vid=d48f27bf-e088-448e-9388-03a1f9ffbcfa"},"vehicle_type_id":"4","last_reported":1757711273,"current_range_meters":12400,"station_id":"ce4bhp12rcd13ifvqh9g","pricing_plan_id":"cebpf4jnsgd1na2vs0mg"},{"bike_id":"aad1ad00-1958-48b0-a482-661db1a506a6","system_id":"levelo_inurba_marseille","lat":43.30471,"lon":5.37913,"is_reserved":false,"is_disabled":true,"rental_uris":{"android":"levelo://app?vid=aad1ad00-1958-48b0-a482-661db1a506a6","ios":"levelo://app?vid=aad1ad00-1958-48b0-a482-661db1a506a6"},"vehicle_type_id":"4","last_reported":1757711273,"current_range_meters":12400,"station_id":"ce4bgup2rcd13ifvqcn0","pricing_plan_id":"cebpf4jnsgd1na2vs0mg"},{"bike_id":"e77461fd-9a53-40b2-b8aa-bd1c93db50c1","system_id":"levelo_inurba_marseille","lat":43.32354,"lon":5.38196,"is_reserved":false,"is_disabled":false,"rental_uris":{"android":"levelo://app?vid=e77461fd-9a53-40b2-b8aa-bd1c93db50c1","ios":"levelo://app?vid=e77461fd-9a53-40b2-b8aa-bd1c93db50c1"},"vehicle_type_id":"4","last_reported":1757711273,"current_range_meters":12400,"station_id":"","pricing_plan_id":"cebpf4jnsgd1na2vs0mg"},{"bike_id":"e0e4e605-51bf-4691-b384-fccd0bc8bc26","system_id":"levelo_inurba_marseille","lat":43.31239,"lon":5.36884,"is_reserved":false,"is_disabled":false,"rental_uris":{"android":"levelo://app?vid=e0e4e605-51bf-4691-b384-fccd0bc8bc26","ios":"levelo://app?vid=e0e4e605-51bf-4691-b384-fccd0bc8bc26"},"vehicle_type_id":"4","last_reported":1757711273,"current_range_meters":12400,"station_id":"ce4bgl92rcd13ifvqbq0","pricing_plan_id":"cebpf4jnsgd1na2vs0mg"},{"bike_id":"ff04b8cb-3a30-463d-895b-f35a6c7a766c","system_id":"levelo_inurba_marseille","lat":43.25824,"lon":5.39432,"is_reserved":false,"is_disabled":false,"rental_uris":{"android":"levelo://app?vid=ff04b8cb-3a30-463d-895b-f35a6c7a766c","ios":"levelo://app?vid=ff04b8cb-3a30-463d-895b-f35a6c7a766c"},"vehicle_type_id":"4","last_reported":1757711273,"current_range_meters":12000,"station_id":"ce4bhip2rcd13ifvqft0","pricing_plan_id":"cebpf4jnsgd1na2vs0mg"},{"bike_id":"b2434b0c-4689-4f45-8c34-f1f2e1211270","system_id":"levelo_inurba_marseille","lat":43.261876,"lon":5.374647,"is_reserved":false,"is_disabled":false,"rental_uris":{"android":"levelo://app?vid=b2434b0c-4689-4f45-8c34-f1f2e1211270","ios":"levelo://app?vid=b2434b0c-4689-4f45-8c34-f1f2e1211270"},"vehicle_type_id":"4","last_reported":1757711273,"current_range_meters":12800,"station_id":"ce4bhgp2rcd13ifvqfc0","pricing_plan_id":"cebpf4jnsgd1na2vs0mg"},{"bike_id":"d1a2d227-a72b-48f9-803e-12a9db38892f","system_id":"levelo_inurba_marseille","lat":43.30749,"lon":5.37086,"is_reserved":false,"is_disabled":false,"rental_uris":{"android":"levelo://app?vid=d1a2d227-a72b-48f9-803e-12a9db38892f","ios":"levelo://app?vid=d1a2d227-a72b-48f9-803e-12a9db38892f"},"vehicle_type_id":"4","last_reported":1757711273,"current_range_meters":12800,"station_id":"","pricing_plan_id":"cebpf4jnsgd1na2vs0mg"},{"bike_id":"13e14250-7ddb-4c7c-b698-57a655607d6a","system_id":"levelo_inurba_marseille","lat":43.337727,"lon":5.374723,"is_reserved":false,"is_disabled":false,"rental_uris":{"android":"levelo://app?vid=13e14250-7ddb-4c7c-b698-57a655607d6a","ios":"levelo://app?vid=13e14250-7ddb-4c7c-b698-57a655607d6a"},"vehicle_type_id":"4","last_reported":1757711273,"current_range_meters":12800,"station_id":"ce4bgqh2rcd13ifvqc4g","pricing_plan_id":"cebpf4jnsgd1na2vs0mg"},{"bike_id":"4d4ae18d-81d3-4161-97a6-a40d95f4554a","system_id":"levelo_inurba_marseille","lat":43.30134,"lon":5.38797,"is_reserved":false,"is_disabled":true,"rental_uris":{"android":"levelo://app?vid=4d4ae18d-81d3-4161-97a6-a40d95f4554a","ios":"levelo://app?vid=4d4ae18d-81d3-4161-97a6-a40d95f4554a"},"vehicle_type_id":"4","last_reported":1757711273,"current_range_meters":12800,"station_id":"ce4bghh2rcd13ifvqb60","pricing_plan_id":"cebpf4jnsgd1na2vs0mg"},{"bike_id":"b6ae03dd-a32f-46eb-8333-774b474fe8dd","system_id":"levelo_inurba_marseille","lat":43.27067,"lon":5.39286,"is_reserved":false,"is_disabled":false,"rental_uris":{"android":"levelo://app?vid=b6ae03dd-a32f-46eb-8333-774b474fe8dd","ios":"levelo://app?vid=b6ae03dd-a32f-46eb-8333-774b474fe8dd"},"vehicle_type_id":"4","last_reported":1757711273,"current_range_meters":12800,"station_id":"","pricing_plan_id":"cebpf4jnsgd1na2vs0mg"},{"bike_id":"b558f3d9-0976-438a-9dec-f10977a5d937","system_id":"levelo_inurba_marseille","lat":43.260675,"lon":5.393976,"is_reserved":false,"is_disabled":false,"rental_uris":{"android":"levelo://app?vid=b558f3d9-0976-438a-9dec-f10977a5d937","ios":"levelo://app?vid=b558f3d9-0976-438a-9dec-f10977a5d937"},"vehicle_type_id":"4","last_reported":1757711273,"current_range_meters":12800,"station_id":"ce4bhh92rcd13ifvqfj0","pricing_plan_id":"cebpf4jnsgd1na2vs0mg"},{"bike_id":"222ce376-8a33-4d7e-afd6-3838e114059d","system_id":"levelo_inurba_marseille","lat":43.2927,"lon":5.38444,"is_reserved":false,"is_disabled":false,"rental_uris":{"android":"levelo://app?vid=222ce376-8a33-4d7e-afd6-3838e114059d","ios":"levelo://app?vid=222ce376-8a33-4d7e-afd6-3838e114059d"},"vehicle_type_id":"4","last_reported":1757711273,"current_range_meters":12800,"station_id":"ce4bh692rcd13ifvqea0","pricing_plan_id":"cebpf4jnsgd1na2vs0mg"},{"bike_id":"bcf2e8fd-fb61-4873-91eb-a8095d0ca138","system_id":"levelo_inurba_marseille","lat":43.30538,"lon":5.36704,"is_reserved":false,"is_disabled":false,"rental_uris":{"android":"levelo://app?vid=bcf2e8fd-fb61-4873-91eb-a8095d0ca138","ios":"levelo://app?vid=bcf2e8fd-fb61-4873-91eb-a8095d0ca138"},"vehicle_type_id":"4","last_reported":1757711273,"current_range_meters":13600,"station_id":"ce4bgrp2rcd13ifvqc9g","pricing_plan_id":"cebpf4jnsgd1na2vs0mg"},{"bike_id":"6515536f-56de-4109-b7a1-24c742aed225","system_id":"levelo_inurba_marseille","lat":43.32017,"lon":5.37243,"is_reserved":false,"is_disabled":false,"rental_uris":{"android":"levelo://app?vid=6515536f-56de-4109-b7a1-24c742aed225","ios":"levelo://app?vid=6515536f-56de-4109-b7a1-24c742aed225"},"vehicle_type_id":"4","last_reported":1757711273,"current_range_meters":13600,"station_id":"","pricing_plan_id":"cebpf4jnsgd1na2vs0mg"},{"bike_id":"e8a0b414-1bb4-4947-8eeb-759272e60916","system_id":"levelo_inurba_marseille","lat":43.297095,"lon":5.376972,"is_reserved":false,"is_disabled":false,"rental_uris":{"android":"levelo://app?vid=e8a0b414-1bb4-4947-8eeb-759272e60916","ios":"levelo://app?vid=e8a0b414-1bb4-4947-8eeb-759272e60916"},"vehicle_type_id":"4","last_reported":1757711273,"current_range_meters":13600,"station_id":"ce4bgkh2rcd13ifvqbl0","pricing_plan_id":"cebpf4jnsgd1na2vs0mg"},{"bike_id":"1e089dec-8dba-4541-8742-f2117c732575","system_id":"levelo_inurba_marseille","lat":43.29771,"lon":5.38133,"is_reserved":false,"is_disabled":false,"rental_uris":{"android":"levelo://app?vid=1e089dec-8dba-4541-8742-f2117c732575","ios":"levelo://app?vid=1e089dec-8dba-4541-8742-f2117c732575"},"vehicle_type_id":"4","last_reported":1757711273,"current_range_meters":13600,"station_id":"ce4bgip2rcd13ifvqbb0","pricing_plan_id":"cebpf4jnsgd1na2vs0mg"},{"bike_id":"dae24b3a-dbb3-4940-b2cc-5cf677018d3c","system_id":"levelo_inurba_marseille","lat":43.28988,"lon":5.37823,"is_reserved":false,"is_disabled":false,"rental_uris":{"android":"levelo://app?vid=dae24b3a-dbb3-4940-b2cc-5cf677018d3c","ios":"levelo://app?vid=dae24b3a-dbb3-4940-b2cc-5cf677018d3c"},"vehicle_type_id":"4","last_reported":1757711273,"current_range_meters":13600,"station_id":"ce4bh9p2rcd13ifvqed0","pricing_plan_id":"cebpf4jnsgd1na2vs0mg"},{"bike_id":"4a7fe6e2-8bf8-4262-8910-8d24890467f0","system_id":"levelo_inurba_marseille","lat":43.29257,"lon":5.38435,"is_reserved":false,"is_disabled":false,"rental_uris":{"android":"levelo://app?vid=4a7fe6e2-8bf8-4262-8910-8d24890467f0","ios":"levelo://app?vid=4a7fe6e2-8bf8-4262-8910-8d24890467f0"},"vehicle_type_id":"4","last_reported":1757711273,"current_range_meters":14000,"station_id":"ce4bh692rcd13ifvqea0","pricing_plan_id":"cebpf4jnsgd1na2vs0mg"},{"bike_id":"fb135702-3497-4a53-8709-882e75f58370","system_id":"levelo_inurba_marseille","lat":43.28615,"lon":5.35098,"is_reserved":false,"is_disabled":false,"rental_uris":{"android":"levelo://app?vid=fb135702-3497-4a53-8709-882e75f58370","ios":"levelo://app?vid=fb135702-3497-4a53-8709-882e75f58370"},"vehicle_type_id":"4","last_reported":1757711273,"current_range_meters":14000,"station_id":"ce4bhch2rcd13ifvqeug","pricing_plan_id":"cebpf4jnsgd1na2vs0mg"},{"bike_id":"3e1f731b-79bb-492c-a194-3603c13076b9","system_id":"levelo_inurba_marseille","lat":43.25502,"lon":5.3765,"is_reserved":false,"is_disabled":false,"rental_uris":{"android":"levelo://app?vid=3e1f731b-79bb-492c-a194-3603c13076b9","ios":"levelo://app?vid=3e1f731b-79bb-492c-a194-3603c13076b9"},"vehicle_type_id":"4","last_reported":1757711273,"current_range_meters":14000,"station_id":"ce4bhh12rcd13ifvqff0","pricing_plan_id":"cebpf4jnsgd1na2vs0mg"},{"bike_id":"1fa0487b-5fae-4916-a05a-6dab1e6a33a0","system_id":"levelo_inurba_marseille","lat":43.25821,"lon":5.3944,"is_reserved":false,"is_disabled":false,"rental_uris":{"android":"levelo://app?vid=1fa0487b-5fae-4916-a05a-6dab1e6a33a0","ios":"levelo://app?vid=1fa0487b-5fae-4916-a05a-6dab1e6a33a0"},"vehicle_type_id":"4","last_reported":1757711273,"current_range_meters":14000,"station_id":"ce4bhip2rcd13ifvqft0","pricing_plan_id":"cebpf4jnsgd1na2vs0mg"},{"bike_id":"a9dd239d-c821-4547-a71f-93364a17f0be","system_id":"levelo_inurba_marseille","lat":43.24655,"lon":5.38172,"is_reserved":false,"is_disabled":false,"rental_uris":{"android":"levelo://app?vid=a9dd239d-c821-4547-a71f-93364a17f0be","ios":"levelo://app?vid=a9dd239d-c821-4547-a71f-93364a17f0be"},"vehicle_type_id":"4","last_reported":1757711273,"current_range_meters":14000,"station_id":"ce4bhih2rcd13ifvqfr0","pricing_plan_id":"cebpf4jnsgd1na2vs0mg"},{"bike_id":"4266b374-d4bf-4fd2-bb94-51b2d7d40946","system_id":"levelo_inurba_marseille","lat":43.22573,"lon":5.41638,"is_reserved":false,"is_disabled":false,"rental_uris":{"android":"levelo://app?vid=4266b374-d4bf-4fd2-bb94-51b2d7d40946","ios":"levelo://app?vid=4266b374-d4bf-4fd2-bb94-51b2d7d40946"},"vehicle_type_id":"4","last_reported":1757711273,"current_range_meters":14000,"station_id":"st_d2o4gvlbi1j2169b742g","pricing_plan_id":"cebpf4jnsgd1na2vs0mg"},{"bike_id":"10df895c-67b8-4f3c-9b12-1003221936d4","system_id":"levelo_inurba_marseille","lat":43.280061,"lon":5.379176,"is_reserved":false,"is_disabled":false,"rental_uris":{"android":"levelo://app?vid=10df895c-67b8-4f3c-9b12-1003221936d4","ios":"levelo://app?vid=10df895c-67b8-4f3c-9b12-1003221936d4"},"vehicle_type_id":"4","last_reported":1757711273,"current_range_meters":14400,"station_id":"ce4bha12rcd13ifvqee0","pricing_plan_id":"cebpf4jnsgd1na2vs0mg"},{"bike_id":"a274935f-87cf-47c9-94d9-f83a22c03a42","system_id":"levelo_inurba_marseille","lat":43.27062,"lon":5.40253,"is_reserved":false,"is_disabled":false,"rental_uris":{"android":"levelo://app?vid=a274935f-87cf-47c9-94d9-f83a22c03a42","ios":"levelo://app?vid=a274935f-87cf-47c9-94d9-f83a22c03a42"},"vehicle_type_id":"4","last_reported":1757711273,"current_range_meters":14400,"station_id":"ce4bhk92rcd13ifvqgc0","pricing_plan_id":"cebpf4jnsgd1na2vs0mg"},{"bike_id":"0a588a56-0b1a-4e56-a849-52a1cf1de40a","system_id":"levelo_inurba_marseille","lat":43.288557,"lon":5.358367,"is_reserved":false,"is_disabled":false,"rental_uris":{"android":"levelo://app?vid=0a588a56-0b1a-4e56-a849-52a1cf1de40a","ios":"levelo://app?vid=0a588a56-0b1a-4e56-a849-52a1cf1de40a"},"vehicle_type_id":"4","last_reported":1757711273,"current_range_meters":14400,"station_id":"ce4bhb12rcd13ifvqem0","pricing_plan_id":"cebpf4jnsgd1na2vs0mg"},{"bike_id":"490f973f-e2c1-49a1-bb75-9f340abe86ae","system_id":"levelo_inurba_marseille","lat":43.30329,"lon":5.40436,"is_reserved":false,"is_disabled":false,"rental_uris":{"android":"levelo://app?vid=490f973f-e2c1-49a1-bb75-9f340abe86ae","ios":"levelo://app?vid=490f973f-e2c1-49a1-bb75-9f340abe86ae"},"vehicle_type_id":"4","last_reported":1757711273,"current_range_meters":14400,"station_id":"ce4bh012rcd13ifvqd10","pricing_plan_id":"cebpf4jnsgd1na2vs0mg"},{"bike_id":"9ea214cd-c5f8-441b-9338-7fcf595de156","system_id":"levelo_inurba_marseille","lat":43.21177,"lon":5.35086,"is_reserved":false,"is_disabled":false,"rental_uris":{"android":"levelo://app?vid=9ea214cd-c5f8-441b-9338-7fcf595de156","ios":"levelo://app?vid=9ea214cd-c5f8-441b-9338-7fcf595de156"},"vehicle_type_id":"4","last_reported":1757711273,"current_range_meters":14800,"station_id":"st_cvj6sg6p6f1abm77japg","pricing_plan_id":"cebpf4jnsgd1na2vs0mg"},{"bike_id":"a24c4696-920b-4645-847f-87e0b46915a6","system_id":"levelo_inurba_marseille","lat":43.3252,"lon":5.42466,"is_reserved":false,"is_disabled":false,"rental_uris":{"android":"levelo://app?vid=a24c4696-920b-4645-847f-87e0b46915a6","ios":"levelo://app?vid=a24c4696-920b-4645-847f-87e0b46915a6"},"vehicle_type_id":"4","last_reported":1757711273,"current_range_meters":14800,"station_id":"","pricing_plan_id":"cebpf4jnsgd1na2vs0mg"},{"bike_id":"652a81c2-f0b6-4210-b4e2-a05ae0e0daea","system_id":"levelo_inurba_marseille","lat":43.29547,"lon":5.38531,"is_reserved":false,"is_disabled":false,"rental_uris":{"android":"levelo://app?vid=652a81c2-f0b6-4210-b4e2-a05ae0e0daea","ios":"levelo://app?vid=652a81c2-f0b6-4210-b4e2-a05ae0e0daea"},"vehicle_type_id":"4","last_reported":1757711273,"current_range_meters":14800,"station_id":"ce4bgih2rcd13ifvqba0","pricing_plan_id":"cebpf4jnsgd1na2vs0mg"},{"bike_id":"985c4f56-c378-4f55-b5bf-d2ba1346b657","system_id":"levelo_inurba_marseille","lat":43.28912,"lon":5.384,"is_reserved":false,"is_disabled":true,"rental_uris":{"android":"levelo://app?vid=985c4f56-c378-4f55-b5bf-d2ba1346b657","ios":"levelo://app?vid=985c4f56-c378-4f55-b5bf-d2ba1346b657"},"vehicle_type_id":"4","last_reported":1757711273,"current_range_meters":14800,"station_id":"ce4bh612rcd13ifvqe6g","pricing_plan_id":"cebpf4jnsgd1na2vs0mg"},{"bike_id":"b2aeb6a5-74a2-46fb-ba9a-314058d95425","system_id":"levelo_inurba_marseille","lat":43.23189,"lon":5.35555,"is_reserved":false,"is_disabled":false,"rental_uris":{"android":"levelo://app?vid=b2aeb6a5-74a2-46fb-ba9a-314058d95425","ios":"levelo://app?vid=b2aeb6a5-74a2-46fb-ba9a-314058d95425"},"vehicle_type_id":"4","last_reported":1757711273,"current_range_meters":14800,"station_id":"ce4bhu92rcd13ifvqi70","pricing_plan_id":"cebpf4jnsgd1na2vs0mg"},{"bike_id":"9fdce098-492a-40f9-ae29-95caf53fef79","system_id":"levelo_inurba_marseille","lat":43.3269,"lon":5.39162,"is_reserved":false,"is_disabled":false,"rental_uris":{"android":"levelo://app?vid=9fdce098-492a-40f9-ae29-95caf53fef79","ios":"levelo://app?vid=9fdce098-492a-40f9-ae29-95caf53fef79"},"vehicle_type_id":"4","last_reported":1757711273,"current_range_meters":14800,"station_id":"","pricing_plan_id":"cebpf4jnsgd1na2vs0mg"},{"bike_id":"c66a57e8-42e8-4061-81b6-b2c9d14103da","system_id":"levelo_inurba_marseille","lat":43.31707,"lon":5.37731,"is_reserved":false,"is_disabled":false,"rental_uris":{"android":"levelo://app?vid=c66a57e8-42e8-4061-81b6-b2c9d14103da","ios":"levelo://app?vid=c66a57e8-42e8-4061-81b6-b2c9d14103da"},"vehicle_type_id":"4","last_reported":1757711273,"current_range_meters":14800,"station_id":"ce4bgth2rcd13ifvqch0","pricing_plan_id":"cebpf4jnsgd1na2vs0mg"},{"bike_id":"eb63930d-877a-441f-b341-64b2d52383d4","system_id":"levelo_inurba_marseille","lat":43.33019,"lon":5.39056,"is_reserved":false,"is_disabled":false,"rental_uris":{"android":"levelo://app?vid=eb63930d-877a-441f-b341-64b2d52383d4","ios":"levelo://app?vid=eb63930d-877a-441f-b341-64b2d52383d4"},"vehicle_type_id":"4","last_reported":1757711273,"current_range_meters":14800,"station_id":"ce4bhr92rcd13ifvqhrg","pricing_plan_id":"cebpf4jnsgd1na2vs0mg"},{"bike_id":"178a2efa-32a9-4b0c-8923-f95f6655a5bb","system_id":"levelo_inurba_marseille","lat":43.29532,"lon":5.38545,"is_reserved":false,"is_disabled":false,"rental_uris":{"android":"levelo://app?vid=178a2efa-32a9-4b0c-8923-f95f6655a5bb","ios":"levelo://app?vid=178a2efa-32a9-4b0c-8923-f95f6655a5bb"},"vehicle_type_id":"4","last_reported":1757711273,"current_range_meters":14800,"station_id":"ce4bgih2rcd13ifvqba0","pricing_plan_id":"cebpf4jnsgd1na2vs0mg"},{"bike_id":"5ee899e1-68d7-4a39-996d-8daf640fe12a","system_id":"levelo_inurba_marseille","lat":43.32658,"lon":5.41003,"is_reserved":false,"is_disabled":false,"rental_uris":{"android":"levelo://app?vid=5ee899e1-68d7-4a39-996d-8daf640fe12a","ios":"levelo://app?vid=5ee899e1-68d7-4a39-996d-8daf640fe12a"},"vehicle_type_id":"4","last_reported":1757711273,"current_range_meters":14800,"station_id":"ce4bhpp2rcd13ifvqhgg","pricing_plan_id":"cebpf4jnsgd1na2vs0mg"},{"bike_id":"10dfb71d-b4fe-4c66-9e42-a774a54e4626","system_id":"levelo_inurba_marseille","lat":43.25112,"lon":5.40321,"is_reserved":false,"is_disabled":false,"rental_uris":{"android":"levelo://app?vid=10dfb71d-b4fe-4c66-9e42-a774a54e4626","ios":"levelo://app?vid=10dfb71d-b4fe-4c66-9e42-a774a54e4626"},"vehicle_type_id":"4","last_reported":1757711273,"current_range_meters":14800,"station_id":"","pricing_plan_id":"cebpf4jnsgd1na2vs0mg"},{"bike_id":"3fc6a18c-8671-4c7f-8795-3c2670177943","system_id":"levelo_inurba_marseille","lat":43.2951,"lon":5.38542,"is_reserved":false,"is_disabled":false,"rental_uris":{"android":"levelo://app?vid=3fc6a18c-8671-4c7f-8795-3c2670177943","ios":"levelo://app?vid=3fc6a18c-8671-4c7f-8795-3c2670177943"},"vehicle_type_id":"4","last_reported":1757711273,"current_range_meters":14800,"station_id":"ce4bgih2rcd13ifvqba0","pricing_plan_id":"cebpf4jnsgd1na2vs0mg"},{"bike_id":"ac714968-1945-4f16-8339-1c5ccf793ef5","system_id":"levelo_inurba_marseille","lat":43.32143,"lon":5.36779,"is_reserved":false,"is_disabled":false,"rental_uris":{"android":"levelo://app?vid=ac714968-1945-4f16-8339-1c5ccf793ef5","ios":"levelo://app?vid=ac714968-1945-4f16-8339-1c5ccf793ef5"},"vehicle_type_id":"4","last_reported":1757711273,"current_range_meters":15200,"station_id":"","pricing_plan_id":"cebpf4jnsgd1na2vs0mg"},{"bike_id":"858374bb-59c5-4ecc-9916-a26e9e545707","system_id":"levelo_inurba_marseille","lat":43.25398,"lon":5.41901,"is_reserved":false,"is_disabled":false,"rental_uris":{"android":"levelo://app?vid=858374bb-59c5-4ecc-9916-a26e9e545707","ios":"levelo://app?vid=858374bb-59c5-4ecc-9916-a26e9e545707"},"vehicle_type_id":"4","last_reported":1757711273,"current_range_meters":15200,"station_id":"","pricing_plan_id":"cebpf4jnsgd1na2vs0mg"},{"bike_id":"7f696ba1-833f-412e-8b5d-d4d815a574fc","system_id":"levelo_inurba_marseille","lat":43.29836,"lon":5.37164,"is_reserved":false,"is_disabled":false,"rental_uris":{"android":"levelo://app?vid=7f696ba1-833f-412e-8b5d-d4d815a574fc","ios":"levelo://app?vid=7f696ba1-833f-412e-8b5d-d4d815a574fc"},"vehicle_type_id":"4","last_reported":1757711273,"current_range_meters":15200,"station_id":"","pricing_plan_id":"cebpf4jnsgd1na2vs0mg"},{"bike_id":"0c0ff4e5-6c5c-480a-a88f-762b61a2bfa0","system_id":"levelo_inurba_marseille","lat":43.29536,"lon":5.38547,"is_reserved":false,"is_disabled":true,"rental_uris":{"android":"levelo://app?vid=0c0ff4e5-6c5c-480a-a88f-762b61a2bfa0","ios":"levelo://app?vid=0c0ff4e5-6c5c-480a-a88f-762b61a2bfa0"},"vehicle_type_id":"4","last_reported":1757711273,"current_range_meters":15200,"station_id":"ce4bgih2rcd13ifvqba0","pricing_plan_id":"cebpf4jnsgd1na2vs0mg"},{"bike_id":"c0545557-0d6c-4b0e-9279-c18ab3d2597f","system_id":"levelo_inurba_marseille","lat":43.32444,"lon":5.3658,"is_reserved":false,"is_disabled":false,"rental_uris":{"android":"levelo://app?vid=c0545557-0d6c-4b0e-9279-c18ab3d2597f","ios":"levelo://app?vid=c0545557-0d6c-4b0e-9279-c18ab3d2597f"},"vehicle_type_id":"4","last_reported":1757711273,"current_range_meters":15200,"station_id":"ce4bhs12rcd13ifvqhvg","pricing_plan_id":"cebpf4jnsgd1na2vs0mg"},{"bike_id":"2de5a5d7-09b7-403a-80c0-0ee4122787f0","system_id":"levelo_inurba_marseille","lat":43.29807,"lon":5.40397,"is_reserved":false,"is_disabled":false,"rental_uris":{"android":"levelo://app?vid=2de5a5d7-09b7-403a-80c0-0ee4122787f0","ios":"levelo://app?vid=2de5a5d7-09b7-403a-80c0-0ee4122787f0"},"vehicle_type_id":"4","last_reported":1757711273,"current_range_meters":15200,"station_id":"ce4bh112rcd13ifvqd90","pricing_plan_id":"cebpf4jnsgd1na2vs0mg"},{"bike_id":"1a56e511-f10f-4fed-9328-c4cbbc9cec58","system_id":"levelo_inurba_marseille","lat":43.29261,"lon":5.38396,"is_reserved":false,"is_disabled":false,"rental_uris":{"android":"levelo://app?vid=1a56e511-f10f-4fed-9328-c4cbbc9cec58","ios":"levelo://app?vid=1a56e511-f10f-4fed-9328-c4cbbc9cec58"},"vehicle_type_id":"4","last_reported":1757711273,"current_range_meters":16000,"station_id":"ce4bh692rcd13ifvqea0","pricing_plan_id":"cebpf4jnsgd1na2vs0mg"},{"bike_id":"fa598d9f-c511-4d86-b266-8f2a04717c18","system_id":"levelo_inurba_marseille","lat":43.24806,"lon":5.37462,"is_reserved":false,"is_disabled":false,"rental_uris":{"android":"levelo://app?vid=fa598d9f-c511-4d86-b266-8f2a04717c18","ios":"levelo://app?vid=fa598d9f-c511-4d86-b266-8f2a04717c18"},"vehicle_type_id":"4","last_reported":1757711273,"current_range_meters":16000,"station_id":"ce4bhgh2rcd13ifvqfb0","pricing_plan_id":"cebpf4jnsgd1na2vs0mg"},{"bike_id":"e4d962a7-5832-4055-8403-ca0baaa222a4","system_id":"levelo_inurba_marseille","lat":43.27975,"lon":5.38735,"is_reserved":false,"is_disabled":false,"rental_uris":{"android":"levelo://app?vid=e4d962a7-5832-4055-8403-ca0baaa222a4","ios":"levelo://app?vid=e4d962a7-5832-4055-8403-ca0baaa222a4"},"vehicle_type_id":"4","last_reported":1757711273,"current_range_meters":15200,"station_id":"ce4bhg12rcd13ifvqf80","pricing_plan_id":"cebpf4jnsgd1na2vs0mg"},{"bike_id":"e43fdc27-4283-4e61-97ff-9c2689a8903a","system_id":"levelo_inurba_marseille","lat":43.246598,"lon":5.381612,"is_reserved":false,"is_disabled":false,"rental_uris":{"android":"levelo://app?vid=e43fdc27-4283-4e61-97ff-9c2689a8903a","ios":"levelo://app?vid=e43fdc27-4283-4e61-97ff-9c2689a8903a"},"vehicle_type_id":"4","last_reported":1757711273,"current_range_meters":16000,"station_id":"ce4bhih2rcd13ifvqfr0","pricing_plan_id":"cebpf4jnsgd1na2vs0mg"},{"bike_id":"85e137ee-ba02-4875-8407-865445509c75","system_id":"levelo_inurba_marseille","lat":43.28148,"lon":5.4266,"is_reserved":false,"is_disabled":false,"rental_uris":{"android":"levelo://app?vid=85e137ee-ba02-4875-8407-865445509c75","ios":"levelo://app?vid=85e137ee-ba02-4875-8407-865445509c75"},"vehicle_type_id":"4","last_reported":1757711273,"current_range_meters":16000,"station_id":"ce4bhnh2rcd13ifvqgug","pricing_plan_id":"cebpf4jnsgd1na2vs0mg"},{"bike_id":"e7a329bd-ed66-4ac7-aaba-63f2810ddd86","system_id":"levelo_inurba_marseille","lat":43.31883,"lon":5.37218,"is_reserved":false,"is_disabled":false,"rental_uris":{"android":"levelo://app?vid=e7a329bd-ed66-4ac7-aaba-63f2810ddd86","ios":"levelo://app?vid=e7a329bd-ed66-4ac7-aaba-63f2810ddd86"},"vehicle_type_id":"4","last_reported":1757711273,"current_range_meters":16000,"station_id":"","pricing_plan_id":"cebpf4jnsgd1na2vs0mg"},{"bike_id":"a8200689-d7b2-4d2e-b5a2-52cc95231e31","system_id":"levelo_inurba_marseille","lat":43.241618,"lon":5.364003,"is_reserved":false,"is_disabled":false,"rental_uris":{"android":"levelo://app?vid=a8200689-d7b2-4d2e-b5a2-52cc95231e31","ios":"levelo://app?vid=a8200689-d7b2-4d2e-b5a2-52cc95231e31"},"vehicle_type_id":"4","last_reported":1757711273,"current_range_meters":16000,"station_id":"cpo36qri1sfpv3e86is0","pricing_plan_id":"cebpf4jnsgd1na2vs0mg"},{"bike_id":"d63048a4-eb32-4a80-bee5-789603a2ce1f","system_id":"levelo_inurba_marseille","lat":43.30599,"lon":5.37229,"is_reserved":false,"is_disabled":false,"rental_uris":{"android":"levelo://app?vid=d63048a4-eb32-4a80-bee5-789603a2ce1f","ios":"levelo://app?vid=d63048a4-eb32-4a80-bee5-789603a2ce1f"},"vehicle_type_id":"4","last_reported":1757711273,"current_range_meters":16000,"station_id":"ce4bgqh2rcd13ifvqc4g","pricing_plan_id":"cebpf4jnsgd1na2vs0mg"},{"bike_id":"171948e4-625b-4ea9-83a9-511894dd43da","system_id":"levelo_inurba_marseille","lat":43.29262,"lon":5.38449,"is_reserved":false,"is_disabled":false,"rental_uris":{"android":"levelo://app?vid=171948e4-625b-4ea9-83a9-511894dd43da","ios":"levelo://app?vid=171948e4-625b-4ea9-83a9-511894dd43da"},"vehicle_type_id":"4","last_reported":1757711273,"current_range_meters":16000,"station_id":"ce4bh692rcd13ifvqea0","pricing_plan_id":"cebpf4jnsgd1na2vs0mg"},{"bike_id":"7068895e-81c5-46c1-85a7-fdbb8280530f","system_id":"levelo_inurba_marseille","lat":43.239652,"lon":5.366269,"is_reserved":false,"is_disabled":false,"rental_uris":{"android":"levelo://app?vid=7068895e-81c5-46c1-85a7-fdbb8280530f","ios":"levelo://app?vid=7068895e-81c5-46c1-85a7-fdbb8280530f"},"vehicle_type_id":"4","last_reported":1757711273,"current_range_meters":16000,"station_id":"ce4bhi12rcd13ifvqfp0","pricing_plan_id":"cebpf4jnsgd1na2vs0mg"},{"bike_id":"0c78ed8a-2af8-4f2c-895d-0de884f1c9f2","system_id":"levelo_inurba_marseille","lat":43.29894,"lon":5.43669,"is_reserved":false,"is_disabled":false,"rental_uris":{"android":"levelo://app?vid=0c78ed8a-2af8-4f2c-895d-0de884f1c9f2","ios":"levelo://app?vid=0c78ed8a-2af8-4f2c-895d-0de884f1c9f2"},"vehicle_type_id":"4","last_reported":1757711273,"current_range_meters":16000,"station_id":"ce4bhpp2rcd13ifvqhfg","pricing_plan_id":"cebpf4jnsgd1na2vs0mg"},{"bike_id":"3b7f3839-8d9c-48a7-9d6b-d24e73539e33","system_id":"levelo_inurba_marseille","lat":43.295286,"lon":5.385484,"is_reserved":false,"is_disabled":false,"rental_uris":{"android":"levelo://app?vid=3b7f3839-8d9c-48a7-9d6b-d24e73539e33","ios":"levelo://app?vid=3b7f3839-8d9c-48a7-9d6b-d24e73539e33"},"vehicle_type_id":"4","last_reported":1757711273,"current_range_meters":16000,"station_id":"ce4bgih2rcd13ifvqba0","pricing_plan_id":"cebpf4jnsgd1na2vs0mg"},{"bike_id":"091601b3-3c5a-42ff-866e-cde10b59b3c0","system_id":"levelo_inurba_marseille","lat":43.30732,"lon":5.37439,"is_reserved":false,"is_disabled":false,"rental_uris":{"android":"levelo://app?vid=091601b3-3c5a-42ff-866e-cde10b59b3c0","ios":"levelo://app?vid=091601b3-3c5a-42ff-866e-cde10b59b3c0"},"vehicle_type_id":"4","last_reported":1757711273,"current_range_meters":16000,"station_id":"","pricing_plan_id":"cebpf4jnsgd1na2vs0mg"},{"bike_id":"39c8e79c-8fdb-43bf-bb5b-3b331524bba4","system_id":"levelo_inurba_marseille","lat":43.29456,"lon":5.438512,"is_reserved":false,"is_disabled":false,"rental_uris":{"android":"levelo://app?vid=39c8e79c-8fdb-43bf-bb5b-3b331524bba4","ios":"levelo://app?vid=39c8e79c-8fdb-43bf-bb5b-3b331524bba4"},"vehicle_type_id":"4","last_reported":1757711273,"current_range_meters":16000,"station_id":"","pricing_plan_id":"cebpf4jnsgd1na2vs0mg"},{"bike_id":"794cc232-3d6b-41cf-96d8-1b6745bec950","system_id":"levelo_inurba_marseille","lat":43.2971,"lon":5.37959,"is_reserved":false,"is_disabled":false,"rental_uris":{"android":"levelo://app?vid=794cc232-3d6b-41cf-96d8-1b6745bec950","ios":"levelo://app?vid=794cc232-3d6b-41cf-96d8-1b6745bec950"},"vehicle_type_id":"4","last_reported":1757711273,"current_range_meters":16000,"station_id":"","pricing_plan_id":"cebpf4jnsgd1na2vs0mg"},{"bike_id":"d2b05643-3adc-4495-b143-da602aba231f","system_id":"levelo_inurba_marseille","lat":43.29263,"lon":5.38447,"is_reserved":false,"is_disabled":false,"rental_uris":{"android":"levelo://app?vid=d2b05643-3adc-4495-b143-da602aba231f","ios":"levelo://app?vid=d2b05643-3adc-4495-b143-da602aba231f"},"vehicle_type_id":"4","last_reported":1757711273,"current_range_meters":16400,"station_id":"ce4bh692rcd13ifvqea0","pricing_plan_id":"cebpf4jnsgd1na2vs0mg"},{"bike_id":"5d2d49c3-df0a-4e43-a031-b4854d84eee8","system_id":"levelo_inurba_marseille","lat":43.239568,"lon":5.366367,"is_reserved":false,"is_disabled":false,"rental_uris":{"android":"levelo://app?vid=5d2d49c3-df0a-4e43-a031-b4854d84eee8","ios":"levelo://app?vid=5d2d49c3-df0a-4e43-a031-b4854d84eee8"},"vehicle_type_id":"4","last_reported":1757711273,"current_range_meters":16400,"station_id":"ce4bhi12rcd13ifvqfp0","pricing_plan_id":"cebpf4jnsgd1na2vs0mg"},{"bike_id":"432e629e-4e7f-4108-a5e5-cf5d09c76dca","system_id":"levelo_inurba_marseille","lat":43.29549,"lon":5.42293,"is_reserved":false,"is_disabled":false,"rental_uris":{"android":"levelo://app?vid=432e629e-4e7f-4108-a5e5-cf5d09c76dca","ios":"levelo://app?vid=432e629e-4e7f-4108-a5e5-cf5d09c76dca"},"vehicle_type_id":"4","last_reported":1757711273,"current_range_meters":16400,"station_id":"ce4bhph2rcd13ifvqhdg","pricing_plan_id":"cebpf4jnsgd1na2vs0mg"},{"bike_id":"7f4d53b4-9dde-47e9-9dfc-bfb205cc37fc","system_id":"levelo_inurba_marseille","lat":43.29894,"lon":5.38886,"is_reserved":false,"is_disabled":false,"rental_uris":{"android":"levelo://app?vid=7f4d53b4-9dde-47e9-9dfc-bfb205cc37fc","ios":"levelo://app?vid=7f4d53b4-9dde-47e9-9dfc-bfb205cc37fc"},"vehicle_type_id":"4","last_reported":1757711273,"current_range_meters":16400,"station_id":"ce4bh392rcd13ifvqdl0","pricing_plan_id":"cebpf4jnsgd1na2vs0mg"},{"bike_id":"6d4cedc3-848a-4553-923b-40ae2b032d0e","system_id":"levelo_inurba_marseille","lat":43.31168,"lon":5.38723,"is_reserved":false,"is_disabled":false,"rental_uris":{"android":"levelo://app?vid=6d4cedc3-848a-4553-923b-40ae2b032d0e","ios":"levelo://app?vid=6d4cedc3-848a-4553-923b-40ae2b032d0e"},"vehicle_type_id":"4","last_reported":1757711273,"current_range_meters":16000,"station_id":"ce4bgv12rcd13ifvqcp0","pricing_plan_id":"cebpf4jnsgd1na2vs0mg"},{"bike_id":"c021ea9e-72e5-44e2-bb77-3d43d8c9f999","system_id":"levelo_inurba_marseille","lat":43.2854,"lon":5.40166,"is_reserved":false,"is_disabled":false,"rental_uris":{"android":"levelo://app?vid=c021ea9e-72e5-44e2-bb77-3d43d8c9f999","ios":"levelo://app?vid=c021ea9e-72e5-44e2-bb77-3d43d8c9f999"},"vehicle_type_id":"4","last_reported":1757711273,"current_range_meters":16400,"station_id":"","pricing_plan_id":"cebpf4jnsgd1na2vs0mg"},{"bike_id":"140f33b8-1102-4f7e-b0ef-d83c5cd8bb96","system_id":"levelo_inurba_marseille","lat":43.23205,"lon":5.35544,"is_reserved":false,"is_disabled":false,"rental_uris":{"android":"levelo://app?vid=140f33b8-1102-4f7e-b0ef-d83c5cd8bb96","ios":"levelo://app?vid=140f33b8-1102-4f7e-b0ef-d83c5cd8bb96"},"vehicle_type_id":"4","last_reported":1757711273,"current_range_meters":16400,"station_id":"ce4bhu92rcd13ifvqi70","pricing_plan_id":"cebpf4jnsgd1na2vs0mg"},{"bike_id":"1ec8cb90-da43-43d7-b7c6-92a31249ce6b","system_id":"levelo_inurba_marseille","lat":43.30905,"lon":5.36853,"is_reserved":false,"is_disabled":false,"rental_uris":{"android":"levelo://app?vid=1ec8cb90-da43-43d7-b7c6-92a31249ce6b","ios":"levelo://app?vid=1ec8cb90-da43-43d7-b7c6-92a31249ce6b"},"vehicle_type_id":"4","last_reported":1757711273,"current_range_meters":16400,"station_id":"ce4bgn92rcd13ifvqbvg","pricing_plan_id":"cebpf4jnsgd1na2vs0mg"},{"bike_id":"a4689a23-4bda-450d-a70c-6f1875ca6252","system_id":"levelo_inurba_marseille","lat":43.25103,"lon":5.4036,"is_reserved":false,"is_disabled":false,"rental_uris":{"android":"levelo://app?vid=a4689a23-4bda-450d-a70c-6f1875ca6252","ios":"levelo://app?vid=a4689a23-4bda-450d-a70c-6f1875ca6252"},"vehicle_type_id":"4","last_reported":1757711273,"current_range_meters":16000,"station_id":"ce4bhlh2rcd13ifvqgig","pricing_plan_id":"cebpf4jnsgd1na2vs0mg"},{"bike_id":"d5fe8587-d577-4927-9f03-bf5f1fa338f3","system_id":"levelo_inurba_marseille","lat":43.32633,"lon":5.37522,"is_reserved":false,"is_disabled":false,"rental_uris":{"android":"levelo://app?vid=d5fe8587-d577-4927-9f03-bf5f1fa338f3","ios":"levelo://app?vid=d5fe8587-d577-4927-9f03-bf5f1fa338f3"},"vehicle_type_id":"4","last_reported":1757711273,"current_range_meters":16400,"station_id":"","pricing_plan_id":"cebpf4jnsgd1na2vs0mg"},{"bike_id":"104d5998-aa96-4214-8793-6aa7ba0ef9e7","system_id":"levelo_inurba_marseille","lat":43.292572,"lon":5.384369,"is_reserved":false,"is_disabled":false,"rental_uris":{"android":"levelo://app?vid=104d5998-aa96-4214-8793-6aa7ba0ef9e7","ios":"levelo://app?vid=104d5998-aa96-4214-8793-6aa7ba0ef9e7"},"vehicle_type_id":"4","last_reported":1757711273,"current_range_meters":16400,"station_id":"ce4bh692rcd13ifvqea0","pricing_plan_id":"cebpf4jnsgd1na2vs0mg"},{"bike_id":"6bc4356b-2683-48df-86f6-4f8709c558c6","system_id":"levelo_inurba_marseille","lat":43.24955,"lon":5.40486,"is_reserved":false,"is_disabled":false,"rental_uris":{"android":"levelo://app?vid=6bc4356b-2683-48df-86f6-4f8709c558c6","ios":"levelo://app?vid=6bc4356b-2683-48df-86f6-4f8709c558c6"},"vehicle_type_id":"4","last_reported":1757711273,"current_range_meters":16800,"station_id":"st_d2ngiaodas8pm72gd1h0","pricing_plan_id":"cebpf4jnsgd1na2vs0mg"},{"bike_id":"02dbb44c-70e3-4a7a-b86e-6159cc35ba47","system_id":"levelo_inurba_marseille","lat":43.29587,"lon":5.38689,"is_reserved":false,"is_disabled":false,"rental_uris":{"android":"levelo://app?vid=02dbb44c-70e3-4a7a-b86e-6159cc35ba47","ios":"levelo://app?vid=02dbb44c-70e3-4a7a-b86e-6159cc35ba47"},"vehicle_type_id":"4","last_reported":1757711273,"current_range_meters":16800,"station_id":"ce4bgih2rcd13ifvqba0","pricing_plan_id":"cebpf4jnsgd1na2vs0mg"},{"bike_id":"4f3c0b34-d342-466a-a243-f2e18ef6f515","system_id":"levelo_inurba_marseille","lat":43.24814,"lon":5.37463,"is_reserved":false,"is_disabled":false,"rental_uris":{"android":"levelo://app?vid=4f3c0b34-d342-466a-a243-f2e18ef6f515","ios":"levelo://app?vid=4f3c0b34-d342-466a-a243-f2e18ef6f515"},"vehicle_type_id":"4","last_reported":1757711273,"current_range_meters":16800,"station_id":"ce4bhgh2rcd13ifvqfb0","pricing_plan_id":"cebpf4jnsgd1na2vs0mg"},{"bike_id":"d987f56d-76e3-4f7b-9b84-5022d38036d0","system_id":"levelo_inurba_marseille","lat":43.25337,"lon":5.42172,"is_reserved":false,"is_disabled":false,"rental_uris":{"android":"levelo://app?vid=d987f56d-76e3-4f7b-9b84-5022d38036d0","ios":"levelo://app?vid=d987f56d-76e3-4f7b-9b84-5022d38036d0"},"vehicle_type_id":"4","last_reported":1757711273,"current_range_meters":17200,"station_id":"st_d2m65c5bi1j21697t3ng","pricing_plan_id":"cebpf4jnsgd1na2vs0mg"},{"bike_id":"55d59e02-f5a5-4e1a-9360-556e842fa2a4","system_id":"levelo_inurba_marseille","lat":43.33764,"lon":5.37496,"is_reserved":false,"is_disabled":false,"rental_uris":{"android":"levelo://app?vid=55d59e02-f5a5-4e1a-9360-556e842fa2a4","ios":"levelo://app?vid=55d59e02-f5a5-4e1a-9360-556e842fa2a4"},"vehicle_type_id":"4","last_reported":1757711273,"current_range_meters":17200,"station_id":"","pricing_plan_id":"cebpf4jnsgd1na2vs0mg"},{"bike_id":"0f0e66ec-5f1c-40a8-8c5d-5ba1924a75a6","system_id":"levelo_inurba_marseille","lat":43.28404,"lon":5.37534,"is_reserved":false,"is_disabled":true,"rental_uris":{"android":"levelo://app?vid=0f0e66ec-5f1c-40a8-8c5d-5ba1924a75a6","ios":"levelo://app?vid=0f0e66ec-5f1c-40a8-8c5d-5ba1924a75a6"},"vehicle_type_id":"4","last_reported":1757711273,"current_range_meters":17200,"station_id":"ce4bh412rcd13ifvqds0","pricing_plan_id":"cebpf4jnsgd1na2vs0mg"},{"bike_id":"d8e0ec4a-5e20-4c40-8747-0a1d961db4a0","system_id":"levelo_inurba_marseille","lat":43.2953,"lon":5.3854,"is_reserved":false,"is_disabled":false,"rental_uris":{"android":"levelo://app?vid=d8e0ec4a-5e20-4c40-8747-0a1d961db4a0","ios":"levelo://app?vid=d8e0ec4a-5e20-4c40-8747-0a1d961db4a0"},"vehicle_type_id":"4","last_reported":1757711273,"current_range_meters":17200,"station_id":"ce4bgih2rcd13ifvqba0","pricing_plan_id":"cebpf4jnsgd1na2vs0mg"},{"bike_id":"84be000e-b186-4e60-8aaa-b7a0f42a7175","system_id":"levelo_inurba_marseille","lat":43.337776,"lon":5.374315,"is_reserved":false,"is_disabled":false,"rental_uris":{"android":"levelo://app?vid=84be000e-b186-4e60-8aaa-b7a0f42a7175","ios":"levelo://app?vid=84be000e-b186-4e60-8aaa-b7a0f42a7175"},"vehicle_type_id":"4","last_reported":1757711273,"current_range_meters":17200,"station_id":"","pricing_plan_id":"cebpf4jnsgd1na2vs0mg"},{"bike_id":"7dc00165-e583-4bd0-bbf8-f77743c96ba8","system_id":"levelo_inurba_marseille","lat":43.32347,"lon":5.36699,"is_reserved":false,"is_disabled":false,"rental_uris":{"android":"levelo://app?vid=7dc00165-e583-4bd0-bbf8-f77743c96ba8","ios":"levelo://app?vid=7dc00165-e583-4bd0-bbf8-f77743c96ba8"},"vehicle_type_id":"4","last_reported":1757711273,"current_range_meters":17200,"station_id":"ce4bhsh2rcd13ifvqi2g","pricing_plan_id":"cebpf4jnsgd1na2vs0mg"},{"bike_id":"22056c1f-5a5a-4970-84ab-9172106e8c1b","system_id":"levelo_inurba_marseille","lat":43.26263,"lon":5.39884,"is_reserved":false,"is_disabled":false,"rental_uris":{"android":"levelo://app?vid=22056c1f-5a5a-4970-84ab-9172106e8c1b","ios":"levelo://app?vid=22056c1f-5a5a-4970-84ab-9172106e8c1b"},"vehicle_type_id":"4","last_reported":1757711273,"current_range_meters":17200,"station_id":"","pricing_plan_id":"cebpf4jnsgd1na2vs0mg"},{"bike_id":"ba3bd1bb-48a6-44ab-9913-ecc7cc15b20c","system_id":"levelo_inurba_marseille","lat":43.298834,"lon":5.389072,"is_reserved":false,"is_disabled":false,"rental_uris":{"android":"levelo://app?vid=ba3bd1bb-48a6-44ab-9913-ecc7cc15b20c","ios":"levelo://app?vid=ba3bd1bb-48a6-44ab-9913-ecc7cc15b20c"},"vehicle_type_id":"4","last_reported":1757711273,"current_range_meters":17200,"station_id":"ce4bh392rcd13ifvqdl0","pricing_plan_id":"cebpf4jnsgd1na2vs0mg"},{"bike_id":"49672130-5e5d-4bd8-b10c-10c3bec7a880","system_id":"levelo_inurba_marseille","lat":43.35019,"lon":5.35059,"is_reserved":false,"is_disabled":false,"rental_uris":{"android":"levelo://app?vid=49672130-5e5d-4bd8-b10c-10c3bec7a880","ios":"levelo://app?vid=49672130-5e5d-4bd8-b10c-10c3bec7a880"},"vehicle_type_id":"4","last_reported":1757711273,"current_range_meters":17600,"station_id":"","pricing_plan_id":"cebpf4jnsgd1na2vs0mg"},{"bike_id":"eff1e460-2fa7-4e28-9c48-585cab0d64da","system_id":"levelo_inurba_marseille","lat":43.29912,"lon":5.38032,"is_reserved":false,"is_disabled":false,"rental_uris":{"android":"levelo://app?vid=eff1e460-2fa7-4e28-9c48-585cab0d64da","ios":"levelo://app?vid=eff1e460-2fa7-4e28-9c48-585cab0d64da"},"vehicle_type_id":"4","last_reported":1757711273,"current_range_meters":17600,"station_id":"","pricing_plan_id":"cebpf4jnsgd1na2vs0mg"},{"bike_id":"eae42758-dbde-4d01-8bc9-b35c7f8d1b9c","system_id":"levelo_inurba_marseille","lat":43.26552,"lon":5.37288,"is_reserved":false,"is_disabled":false,"rental_uris":{"android":"levelo://app?vid=eae42758-dbde-4d01-8bc9-b35c7f8d1b9c","ios":"levelo://app?vid=eae42758-dbde-4d01-8bc9-b35c7f8d1b9c"},"vehicle_type_id":"4","last_reported":1757711273,"current_range_meters":17600,"station_id":"ce4bhg12rcd13ifvqf70","pricing_plan_id":"cebpf4jnsgd1na2vs0mg"},{"bike_id":"beb6189c-c21e-4836-b631-6b5c31a632d8","system_id":"levelo_inurba_marseille","lat":43.22563,"lon":5.41643,"is_reserved":false,"is_disabled":false,"rental_uris":{"android":"levelo://app?vid=beb6189c-c21e-4836-b631-6b5c31a632d8","ios":"levelo://app?vid=beb6189c-c21e-4836-b631-6b5c31a632d8"},"vehicle_type_id":"4","last_reported":1757711273,"current_range_meters":17600,"station_id":"st_d2o4gvlbi1j2169b742g","pricing_plan_id":"cebpf4jnsgd1na2vs0mg"},{"bike_id":"906de893-16cd-4234-9138-4cb387edb602","system_id":"levelo_inurba_marseille","lat":43.27996,"lon":5.41667,"is_reserved":false,"is_disabled":false,"rental_uris":{"android":"levelo://app?vid=906de893-16cd-4234-9138-4cb387edb602","ios":"levelo://app?vid=906de893-16cd-4234-9138-4cb387edb602"},"vehicle_type_id":"4","last_reported":1757711273,"current_range_meters":17600,"station_id":"ce4bho12rcd13ifvqh1g","pricing_plan_id":"cebpf4jnsgd1na2vs0mg"},{"bike_id":"9f910472-1001-4afa-a88e-31cf2a75f934","system_id":"levelo_inurba_marseille","lat":43.22575,"lon":5.41645,"is_reserved":false,"is_disabled":false,"rental_uris":{"android":"levelo://app?vid=9f910472-1001-4afa-a88e-31cf2a75f934","ios":"levelo://app?vid=9f910472-1001-4afa-a88e-31cf2a75f934"},"vehicle_type_id":"4","last_reported":1757711273,"current_range_meters":17600,"station_id":"st_d2o4gvlbi1j2169b742g","pricing_plan_id":"cebpf4jnsgd1na2vs0mg"},{"bike_id":"d9c11a94-d122-4240-b95b-24fdee8810ac","system_id":"levelo_inurba_marseille","lat":43.28278,"lon":5.39914,"is_reserved":false,"is_disabled":false,"rental_uris":{"android":"levelo://app?vid=d9c11a94-d122-4240-b95b-24fdee8810ac","ios":"levelo://app?vid=d9c11a94-d122-4240-b95b-24fdee8810ac"},"vehicle_type_id":"4","last_reported":1757711273,"current_range_meters":17600,"station_id":"","pricing_plan_id":"cebpf4jnsgd1na2vs0mg"},{"bike_id":"022dc2f6-d634-412d-9719-c945a70c13d2","system_id":"levelo_inurba_marseille","lat":43.25504,"lon":5.37653,"is_reserved":false,"is_disabled":false,"rental_uris":{"android":"levelo://app?vid=022dc2f6-d634-412d-9719-c945a70c13d2","ios":"levelo://app?vid=022dc2f6-d634-412d-9719-c945a70c13d2"},"vehicle_type_id":"4","last_reported":1757711273,"current_range_meters":17200,"station_id":"ce4bhh12rcd13ifvqff0","pricing_plan_id":"cebpf4jnsgd1na2vs0mg"},{"bike_id":"d50939ff-72cd-4b68-8002-44541c79e2d1","system_id":"levelo_inurba_marseille","lat":43.336,"lon":5.41027,"is_reserved":false,"is_disabled":false,"rental_uris":{"android":"levelo://app?vid=d50939ff-72cd-4b68-8002-44541c79e2d1","ios":"levelo://app?vid=d50939ff-72cd-4b68-8002-44541c79e2d1"},"vehicle_type_id":"4","last_reported":1757711273,"current_range_meters":17600,"station_id":"ce4bhqh2rcd13ifvqhmg","pricing_plan_id":"cebpf4jnsgd1na2vs0mg"},{"bike_id":"812b7ebd-96c4-4c4e-bd18-371fb61ff318","system_id":"levelo_inurba_marseille","lat":43.29983,"lon":5.37181,"is_reserved":false,"is_disabled":false,"rental_uris":{"android":"levelo://app?vid=812b7ebd-96c4-4c4e-bd18-371fb61ff318","ios":"levelo://app?vid=812b7ebd-96c4-4c4e-bd18-371fb61ff318"},"vehicle_type_id":"4","last_reported":1757711273,"current_range_meters":17600,"station_id":"ce4bgr92rcd13ifvqc7g","pricing_plan_id":"cebpf4jnsgd1na2vs0mg"},{"bike_id":"1bc90c8e-ac25-4ee6-97a6-2ae2d690da5f","system_id":"levelo_inurba_marseille","lat":43.2951,"lon":5.37508,"is_reserved":false,"is_disabled":false,"rental_uris":{"android":"levelo://app?vid=1bc90c8e-ac25-4ee6-97a6-2ae2d690da5f","ios":"levelo://app?vid=1bc90c8e-ac25-4ee6-97a6-2ae2d690da5f"},"vehicle_type_id":"4","last_reported":1757711273,"current_range_meters":18000,"station_id":"ce4bgkp2rcd13ifvqbmg","pricing_plan_id":"cebpf4jnsgd1na2vs0mg"},{"bike_id":"c64581ca-910b-4768-9541-64d9566cd765","system_id":"levelo_inurba_marseille","lat":43.30434,"lon":5.38884,"is_reserved":false,"is_disabled":false,"rental_uris":{"android":"levelo://app?vid=c64581ca-910b-4768-9541-64d9566cd765","ios":"levelo://app?vid=c64581ca-910b-4768-9541-64d9566cd765"},"vehicle_type_id":"4","last_reported":1757711273,"current_range_meters":18000,"station_id":"ce4bgk12rcd13ifvqbi0","pricing_plan_id":"cebpf4jnsgd1na2vs0mg"},{"bike_id":"4d6e6605-7f16-44fa-a19a-c138ee7cb360","system_id":"levelo_inurba_marseille","lat":43.33738,"lon":5.37474,"is_reserved":false,"is_disabled":false,"rental_uris":{"android":"levelo://app?vid=4d6e6605-7f16-44fa-a19a-c138ee7cb360","ios":"levelo://app?vid=4d6e6605-7f16-44fa-a19a-c138ee7cb360"},"vehicle_type_id":"4","last_reported":1757711273,"current_range_meters":18000,"station_id":"","pricing_plan_id":"cebpf4jnsgd1na2vs0mg"},{"bike_id":"b57379b3-0a84-40b1-977a-4e20c33178ce","system_id":"levelo_inurba_marseille","lat":43.29027,"lon":5.38631,"is_reserved":false,"is_disabled":false,"rental_uris":{"android":"levelo://app?vid=b57379b3-0a84-40b1-977a-4e20c33178ce","ios":"levelo://app?vid=b57379b3-0a84-40b1-977a-4e20c33178ce"},"vehicle_type_id":"4","last_reported":1757711273,"current_range_meters":18000,"station_id":"ce4bh4p2rcd13ifvqe0g","pricing_plan_id":"cebpf4jnsgd1na2vs0mg"},{"bike_id":"31195751-bbc1-4ea5-8068-c21d8881b649","system_id":"levelo_inurba_marseille","lat":43.24071,"lon":5.37735,"is_reserved":false,"is_disabled":false,"rental_uris":{"android":"levelo://app?vid=31195751-bbc1-4ea5-8068-c21d8881b649","ios":"levelo://app?vid=31195751-bbc1-4ea5-8068-c21d8881b649"},"vehicle_type_id":"4","last_reported":1757711273,"current_range_meters":18800,"station_id":"ce4bhnp2rcd13ifvqgvg","pricing_plan_id":"cebpf4jnsgd1na2vs0mg"},{"bike_id":"0698b43c-1f5f-4fe9-bc60-835539c760ec","system_id":"levelo_inurba_marseille","lat":43.287478,"lon":5.37012,"is_reserved":false,"is_disabled":false,"rental_uris":{"android":"levelo://app?vid=0698b43c-1f5f-4fe9-bc60-835539c760ec","ios":"levelo://app?vid=0698b43c-1f5f-4fe9-bc60-835539c760ec"},"vehicle_type_id":"4","last_reported":1757711273,"current_range_meters":18800,"station_id":"","pricing_plan_id":"cebpf4jnsgd1na2vs0mg"},{"bike_id":"6ce09d0f-f80f-40c7-88c5-4e4555de0566","system_id":"levelo_inurba_marseille","lat":43.29496,"lon":5.39403,"is_reserved":false,"is_disabled":true,"rental_uris":{"android":"levelo://app?vid=6ce09d0f-f80f-40c7-88c5-4e4555de0566","ios":"levelo://app?vid=6ce09d0f-f80f-40c7-88c5-4e4555de0566"},"vehicle_type_id":"4","last_reported":1757711273,"current_range_meters":18800,"station_id":"ce4bh292rcd13ifvqdf0","pricing_plan_id":"cebpf4jnsgd1na2vs0mg"},{"bike_id":"11d844a8-1821-4567-88e5-77e42a6a7d67","system_id":"levelo_inurba_marseille","lat":43.27971,"lon":5.38712,"is_reserved":false,"is_disabled":true,"rental_uris":{"android":"levelo://app?vid=11d844a8-1821-4567-88e5-77e42a6a7d67","ios":"levelo://app?vid=11d844a8-1821-4567-88e5-77e42a6a7d67"},"vehicle_type_id":"4","last_reported":1757711273,"current_range_meters":18800,"station_id":"ce4bhg12rcd13ifvqf80","pricing_plan_id":"cebpf4jnsgd1na2vs0mg"},{"bike_id":"ee42c31a-b74b-4b2d-917a-cd50dc10c6ce","system_id":"levelo_inurba_marseille","lat":43.33048,"lon":5.39031,"is_reserved":false,"is_disabled":false,"rental_uris":{"android":"levelo://app?vid=ee42c31a-b74b-4b2d-917a-cd50dc10c6ce","ios":"levelo://app?vid=ee42c31a-b74b-4b2d-917a-cd50dc10c6ce"},"vehicle_type_id":"4","last_reported":1757711273,"current_range_meters":18800,"station_id":"ce4bhr92rcd13ifvqhrg","pricing_plan_id":"cebpf4jnsgd1na2vs0mg"},{"bike_id":"17f041a6-d908-42a0-b681-b599fa4f79f7","system_id":"levelo_inurba_marseille","lat":43.25719,"lon":5.41117,"is_reserved":false,"is_disabled":false,"rental_uris":{"android":"levelo://app?vid=17f041a6-d908-42a0-b681-b599fa4f79f7","ios":"levelo://app?vid=17f041a6-d908-42a0-b681-b599fa4f79f7"},"vehicle_type_id":"4","last_reported":1757711273,"current_range_meters":18800,"station_id":"ce4bhkp2rcd13ifvqgd0","pricing_plan_id":"cebpf4jnsgd1na2vs0mg"},{"bike_id":"d29aa95b-4089-4422-8ca8-23e03388a606","system_id":"levelo_inurba_marseille","lat":43.28157,"lon":5.42645,"is_reserved":false,"is_disabled":false,"rental_uris":{"android":"levelo://app?vid=d29aa95b-4089-4422-8ca8-23e03388a606","ios":"levelo://app?vid=d29aa95b-4089-4422-8ca8-23e03388a606"},"vehicle_type_id":"4","last_reported":1757711273,"current_range_meters":18800,"station_id":"ce4bhnh2rcd13ifvqgug","pricing_plan_id":"cebpf4jnsgd1na2vs0mg"},{"bike_id":"c5cba6d7-e282-4417-a818-5fc0802dcb08","system_id":"levelo_inurba_marseille","lat":43.33761,"lon":5.3745,"is_reserved":false,"is_disabled":false,"rental_uris":{"android":"levelo://app?vid=c5cba6d7-e282-4417-a818-5fc0802dcb08","ios":"levelo://app?vid=c5cba6d7-e282-4417-a818-5fc0802dcb08"},"vehicle_type_id":"4","last_reported":1757711273,"current_range_meters":18800,"station_id":"","pricing_plan_id":"cebpf4jnsgd1na2vs0mg"},{"bike_id":"20d065d5-5c87-4d39-bd2d-8931f9056037","system_id":"levelo_inurba_marseille","lat":43.28846,"lon":5.39299,"is_reserved":false,"is_disabled":false,"rental_uris":{"android":"levelo://app?vid=20d065d5-5c87-4d39-bd2d-8931f9056037","ios":"levelo://app?vid=20d065d5-5c87-4d39-bd2d-8931f9056037"},"vehicle_type_id":"4","last_reported":1757711273,"current_range_meters":18800,"station_id":"ce4bh2p2rcd13ifvqdi0","pricing_plan_id":"cebpf4jnsgd1na2vs0mg"},{"bike_id":"8880a4d3-608e-4905-be22-7c2884265063","system_id":"levelo_inurba_marseille","lat":43.25499,"lon":5.37655,"is_reserved":false,"is_disabled":false,"rental_uris":{"android":"levelo://app?vid=8880a4d3-608e-4905-be22-7c2884265063","ios":"levelo://app?vid=8880a4d3-608e-4905-be22-7c2884265063"},"vehicle_type_id":"4","last_reported":1757711273,"current_range_meters":18800,"station_id":"ce4bhh12rcd13ifvqff0","pricing_plan_id":"cebpf4jnsgd1na2vs0mg"},{"bike_id":"40207740-3997-48f7-a3a9-b19ccf0a0c3b","system_id":"levelo_inurba_marseille","lat":43.30415,"lon":5.41295,"is_reserved":false,"is_disabled":false,"rental_uris":{"android":"levelo://app?vid=40207740-3997-48f7-a3a9-b19ccf0a0c3b","ios":"levelo://app?vid=40207740-3997-48f7-a3a9-b19ccf0a0c3b"},"vehicle_type_id":"4","last_reported":1757711273,"current_range_meters":18800,"station_id":"ce4bhop2rcd13ifvqh8g","pricing_plan_id":"cebpf4jnsgd1na2vs0mg"},{"bike_id":"c682ef70-00bc-4415-9b10-9a35bd5ddcc1","system_id":"levelo_inurba_marseille","lat":43.27494,"lon":5.42451,"is_reserved":false,"is_disabled":false,"rental_uris":{"android":"levelo://app?vid=c682ef70-00bc-4415-9b10-9a35bd5ddcc1","ios":"levelo://app?vid=c682ef70-00bc-4415-9b10-9a35bd5ddcc1"},"vehicle_type_id":"4","last_reported":1757711273,"current_range_meters":19200,"station_id":"ce4bhn92rcd13ifvqgrg","pricing_plan_id":"cebpf4jnsgd1na2vs0mg"},{"bike_id":"15aae810-266c-4922-b0d0-f7bc1c5e405e","system_id":"levelo_inurba_marseille","lat":43.26208,"lon":5.37446,"is_reserved":false,"is_disabled":false,"rental_uris":{"android":"levelo://app?vid=15aae810-266c-4922-b0d0-f7bc1c5e405e","ios":"levelo://app?vid=15aae810-266c-4922-b0d0-f7bc1c5e405e"},"vehicle_type_id":"4","last_reported":1757711273,"current_range_meters":19200,"station_id":"ce4bhgp2rcd13ifvqfc0","pricing_plan_id":"cebpf4jnsgd1na2vs0mg"},{"bike_id":"d01cd58f-a670-4849-9838-82d08f217298","system_id":"levelo_inurba_marseille","lat":43.32483,"lon":5.36572,"is_reserved":false,"is_disabled":false,"rental_uris":{"android":"levelo://app?vid=d01cd58f-a670-4849-9838-82d08f217298","ios":"levelo://app?vid=d01cd58f-a670-4849-9838-82d08f217298"},"vehicle_type_id":"4","last_reported":1757711273,"current_range_meters":19200,"station_id":"ce4bhs12rcd13ifvqhvg","pricing_plan_id":"cebpf4jnsgd1na2vs0mg"},{"bike_id":"cacb15ba-fef5-42c0-a7cc-70358faeffdb","system_id":"levelo_inurba_marseille","lat":43.25114,"lon":5.40321,"is_reserved":false,"is_disabled":false,"rental_uris":{"android":"levelo://app?vid=cacb15ba-fef5-42c0-a7cc-70358faeffdb","ios":"levelo://app?vid=cacb15ba-fef5-42c0-a7cc-70358faeffdb"},"vehicle_type_id":"4","last_reported":1757711273,"current_range_meters":19200,"station_id":"ce4bhlh2rcd13ifvqgig","pricing_plan_id":"cebpf4jnsgd1na2vs0mg"},{"bike_id":"39a5770b-4a4d-4691-a011-808b644e6c2b","system_id":"levelo_inurba_marseille","lat":43.275852,"lon":5.417641,"is_reserved":false,"is_disabled":false,"rental_uris":{"android":"levelo://app?vid=39a5770b-4a4d-4691-a011-808b644e6c2b","ios":"levelo://app?vid=39a5770b-4a4d-4691-a011-808b644e6c2b"},"vehicle_type_id":"4","last_reported":1757711273,"current_range_meters":19200,"station_id":"","pricing_plan_id":"cebpf4jnsgd1na2vs0mg"},{"bike_id":"223d843b-d5d9-4e73-afd1-b133f1ff801b","system_id":"levelo_inurba_marseille","lat":43.3011,"lon":5.38845,"is_reserved":false,"is_disabled":false,"rental_uris":{"android":"levelo://app?vid=223d843b-d5d9-4e73-afd1-b133f1ff801b","ios":"levelo://app?vid=223d843b-d5d9-4e73-afd1-b133f1ff801b"},"vehicle_type_id":"4","last_reported":1757711273,"current_range_meters":19200,"station_id":"","pricing_plan_id":"cebpf4jnsgd1na2vs0mg"},{"bike_id":"96895084-d9d8-4f6e-97e7-22af71940810","system_id":"levelo_inurba_marseille","lat":43.26208,"lon":5.37444,"is_reserved":false,"is_disabled":false,"rental_uris":{"android":"levelo://app?vid=96895084-d9d8-4f6e-97e7-22af71940810","ios":"levelo://app?vid=96895084-d9d8-4f6e-97e7-22af71940810"},"vehicle_type_id":"4","last_reported":1757711273,"current_range_meters":19200,"station_id":"ce4bhgp2rcd13ifvqfc0","pricing_plan_id":"cebpf4jnsgd1na2vs0mg"},{"bike_id":"0cbb96e7-4cae-467d-8710-beac27752cf5","system_id":"levelo_inurba_marseille","lat":43.29536,"lon":5.38527,"is_reserved":false,"is_disabled":false,"rental_uris":{"android":"levelo://app?vid=0cbb96e7-4cae-467d-8710-beac27752cf5","ios":"levelo://app?vid=0cbb96e7-4cae-467d-8710-beac27752cf5"},"vehicle_type_id":"4","last_reported":1757711273,"current_range_meters":19200,"station_id":"ce4bgih2rcd13ifvqba0","pricing_plan_id":"cebpf4jnsgd1na2vs0mg"},{"bike_id":"80fd1709-bb93-4c5c-a741-1108cb51f5e9","system_id":"levelo_inurba_marseille","lat":43.29558,"lon":5.38548,"is_reserved":false,"is_disabled":false,"rental_uris":{"android":"levelo://app?vid=80fd1709-bb93-4c5c-a741-1108cb51f5e9","ios":"levelo://app?vid=80fd1709-bb93-4c5c-a741-1108cb51f5e9"},"vehicle_type_id":"4","last_reported":1757711273,"current_range_meters":19200,"station_id":"ce4bgih2rcd13ifvqba0","pricing_plan_id":"cebpf4jnsgd1na2vs0mg"},{"bike_id":"69b0398b-4ff2-48c0-bd0e-f349a8e35bf4","system_id":"levelo_inurba_marseille","lat":43.30426,"lon":5.38902,"is_reserved":false,"is_disabled":false,"rental_uris":{"android":"levelo://app?vid=69b0398b-4ff2-48c0-bd0e-f349a8e35bf4","ios":"levelo://app?vid=69b0398b-4ff2-48c0-bd0e-f349a8e35bf4"},"vehicle_type_id":"4","last_reported":1757711273,"current_range_meters":18800,"station_id":"ce4bgk12rcd13ifvqbi0","pricing_plan_id":"cebpf4jnsgd1na2vs0mg"},{"bike_id":"3d8a4083-69a9-4225-baa1-5e34563e9f77","system_id":"levelo_inurba_marseille","lat":43.24489,"lon":5.41191,"is_reserved":false,"is_disabled":false,"rental_uris":{"android":"levelo://app?vid=3d8a4083-69a9-4225-baa1-5e34563e9f77","ios":"levelo://app?vid=3d8a4083-69a9-4225-baa1-5e34563e9f77"},"vehicle_type_id":"4","last_reported":1757711273,"current_range_meters":19600,"station_id":"","pricing_plan_id":"cebpf4jnsgd1na2vs0mg"},{"bike_id":"68ef2a8a-a0c9-4830-a3bd-dd38a5c61f28","system_id":"levelo_inurba_marseille","lat":43.28424,"lon":5.34976,"is_reserved":false,"is_disabled":false,"rental_uris":{"android":"levelo://app?vid=68ef2a8a-a0c9-4830-a3bd-dd38a5c61f28","ios":"levelo://app?vid=68ef2a8a-a0c9-4830-a3bd-dd38a5c61f28"},"vehicle_type_id":"4","last_reported":1757711273,"current_range_meters":19600,"station_id":"ce4bhbh2rcd13ifvqepg","pricing_plan_id":"cebpf4jnsgd1na2vs0mg"},{"bike_id":"74583e61-6ead-498c-a938-dac952ad7a25","system_id":"levelo_inurba_marseille","lat":43.23199,"lon":5.35552,"is_reserved":false,"is_disabled":false,"rental_uris":{"android":"levelo://app?vid=74583e61-6ead-498c-a938-dac952ad7a25","ios":"levelo://app?vid=74583e61-6ead-498c-a938-dac952ad7a25"},"vehicle_type_id":"4","last_reported":1757711273,"current_range_meters":19600,"station_id":"ce4bhu92rcd13ifvqi70","pricing_plan_id":"cebpf4jnsgd1na2vs0mg"},