{"last_updated":1730603992,"ttl":60,"version":"2.2","data":{"bikes":[{"bike_id":"daa5500f-6039-4d77-bf02-00710b3acec6","system_id":"levelo_inurba_marseille","lat":43.25937,"lon":5.40915,"is_reserved":false,"is_disabled":false,"rental_uris":{"android":"levelo://app?vid=daa5500f-6039-4d77-bf02-00710b3acec6","ios":"levelo://app?vid=daa5500f-6039-4d77-bf02-00710b3acec6"},"vehicle_type_id":"4","last_reported":1730603992,"current_range_meters":7200,"station_id":"ce4bhm92rcd13ifvqglg","pricing_plan_id":"cebpf4jnsgd1na2vs0mg"},{"bike_id":"2acfc2b2-8dbb-4e8e-88cd-56d90f75bbc8","system_id":"levelo_inurba_marseille","lat":43.27812,"lon":5.40753,"is_reserved":false,"is_disabled":false,"rental_uris":{"android":"levelo://app?vid=2acfc2b2-8dbb-4e8e-88cd-56d90f75bbc8","ios":"levelo://app?vid=2acfc2b2-8dbb-4e8e-88cd-56d90f75bbc8"},"vehicle_type_id":"4","last_reported":1730603992,"current_range_meters":38800,"station_id":"ce4bhnh2rcd13ifvqgtg","pricing_plan_id":"cebpf4jnsgd1na2vs0mg"},{"bike_id":"b2208492-3a90-45d4-9964-766200fbca1d","system_id":"levelo_inurba_marseille","lat":43.30599,"lon":5.37208,"is_reserved":false,"is_disabled":false,"rental_uris":{"android":"levelo://app?vid=b2208492-3a90-45d4-9964-766200fbca1d","ios":"levelo://app?vid=b2208492-3a90-45d4-9964-766200fbca1d"},"vehicle_type_id":"4","last_reported":1730603992,"current_range_meters":37600,"station_id":"ce4bgqh2rcd13ifvqc4g","pricing_plan_id":"cebpf4jnsgd1na2vs0mg"},{"bike_id":"5662c3ec-16ac-4646-ad92-7b800105b64d","system_id":"levelo_inurba_marseille","lat":43.25111,"lon":5.40334,"is_reserved":false,"is_disabled":false,"rental_uris":{"android":"levelo://app?vid=5662c3ec-16ac-4646-ad92-7b800105b64d","ios":"levelo://app?vid=5662c3ec-16ac-4646-ad92-7b800105b64d"},"vehicle_type_id":"4","last_reported":1730603992,"current_range_meters":8400,"station_id":"ce4bhlh2rcd13ifvqgig","pricing_plan_id":"cebpf4jnsgd1na2vs0mg"},{"bike_id":"ef905ccb-094d-49fd-89b7-9c270a631138","system_id":"levelo_inurba_marseille","lat":43.30252,"lon":5.40084,"is_reserved":false,"is_disabled":false,"rental_uris":{"android":"levelo://app?vid=ef905ccb-094d-49fd-89b7-9c270a631138","ios":"levelo://app?vid=ef905ccb-094d-49fd-89b7-9c270a631138"},"vehicle_type_id":"4","last_reported":1730603992,"current_range_meters":32400,"station_id":"ce4bgvh2rcd13ifvqcs0","pricing_plan_id":"cebpf4jnsgd1na2vs0mg"},{"bike_id":"af5d94d7-827f-43e3-8f15-29310db548f0","system_id":"levelo_inurba_marseille","lat":43.26032,"lon":5.37549,"is_reserved":false,"is_disabled":false,"rental_uris":{"android":"levelo://app?vid=af5d94d7-827f-43e3-8f15-29310db548f0","ios":"levelo://app?vid=af5d94d7-827f-43e3-8f15-29310db548f0"},"vehicle_type_id":"4","last_reported":1730603992,"current_range_meters":38000,"station_id":"ce4bhgh2rcd13ifvqfa0","pricing_plan_id":"cebpf4jnsgd1na2vs0mg"},{"bike_id":"4c6246a4-6094-437e-8304-0ef2ce800373","system_id":"levelo_inurba_marseille","lat":43.26196,"lon":5.3745,"is_reserved":false,"is_disabled":false,"rental_uris":{"android":"levelo://app?vid=4c6246a4-6094-437e-8304-0ef2ce800373","ios":"levelo://app?vid=4c6246a4-6094-437e-8304-0ef2ce800373"},"vehicle_type_id":"4","last_reported":1730603992,"current_range_meters":38800,"station_id":"ce4bhgp2rcd13ifvqfc0","pricing_plan_id":"cebpf4jnsgd1na2vs0mg"},{"bike_id":"28aa8fa8-f63b-4178-8926-c2a33a53a040","system_id":"levelo_inurba_marseille","lat":43.28461,"lon":5.35881,"is_reserved":false,"is_disabled":false,"rental_uris":{"android":"levelo://app?vid=28aa8fa8-f63b-4178-8926-c2a33a53a040","ios":"levelo://app?vid=28aa8fa8-f63b-4178-8926-c2a33a53a040"},"vehicle_type_id":"4","last_reported":1730603992,"current_range_meters":38000,"station_id":"ce4bhah2rcd13ifvqei0","pricing_plan_id":"cebpf4jnsgd1na2vs0mg"},{"bike_id":"d8474b11-3da8-4703-9e3c-f7203eda963e","system_id":"levelo_inurba_marseille","lat":43.29436,"lon":5.39756,"is_reserved":false,"is_disabled":false,"rental_uris":{"android":"levelo://app?vid=d8474b11-3da8-4703-9e3c-f7203eda963e","ios":"levelo://app?vid=d8474b11-3da8-4703-9e3c-f7203eda963e"},"vehicle_type_id":"4","last_reported":1730603992,"current_range_meters":34800,"station_id":"ce4bh3h2rcd13ifvqdo0","pricing_plan_id":"cebpf4jnsgd1na2vs0mg"},{"bike_id":"f09a2e3e-a687-4ccb-9ce7-accc19389448","system_id":"levelo_inurba_marseille","lat":43.23965,"lon":5.36631,"is_reserved":false,"is_disabled":false,"rental_uris":{"android":"levelo://app?vid=f09a2e3e-a687-4ccb-9ce7-accc19389448","ios":"levelo://app?vid=f09a2e3e-a687-4ccb-9ce7-accc19389448"},"vehicle_type_id":"4","last_reported":1730603992,"current_range_meters":38800,"station_id":"ce4bhi12rcd13ifvqfp0","pricing_plan_id":"cebpf4jnsgd1na2vs0mg"},{"bike_id":"3b142ed8-dad4-4c8e-8ee5-2ab75f6954b3","system_id":"levelo_inurba_marseille","lat":43.28442,"lon":5.39186,"is_reserved":false,"is_disabled":false,"rental_uris":{"android":"levelo://app?vid=3b142ed8-dad4-4c8e-8ee5-2ab75f6954b3","ios":"levelo://app?vid=3b142ed8-dad4-4c8e-8ee5-2ab75f6954b3"},"vehicle_type_id":"4","last_reported":1730603992,"current_range_meters":30800,"station_id":"ce4bhoh2rcd13ifvqh5g","pricing_plan_id":"cebpf4jnsgd1na2vs0mg"},{"bike_id":"c8510f52-755d-4904-97e5-da8d5e0f4e03","system_id":"levelo_inurba_marseille","lat":43.28931,"lon":5.36388,"is_reserved":false,"is_disabled":false,"rental_uris":{"android":"levelo://app?vid=c8510f52-755d-4904-97e5-da8d5e0f4e03","ios":"levelo://app?vid=c8510f52-755d-4904-97e5-da8d5e0f4e03"},"vehicle_type_id":"4","last_reported":1730603992,"current_range_meters":25600,"station_id":"ce4bhc92rcd13ifvqetg","pricing_plan_id":"cebpf4jnsgd1na2vs0mg"},{"bike_id":"578eb1da-bafd-4680-a32e-1e17baa994e5","system_id":"levelo_inurba_marseille","lat":43.2792,"lon":5.39588,"is_reserved":false,"is_disabled":false,"rental_uris":{"android":"levelo://app?vid=578eb1da-bafd-4680-a32e-1e17baa994e5","ios":"levelo://app?vid=578eb1da-bafd-4680-a32e-1e17baa994e5"},"vehicle_type_id":"4","last_reported":1730603992,"current_range_meters":30800,"station_id":"ce4bhf92rcd13ifvqf40","pricing_plan_id":"cebpf4jnsgd1na2vs0mg"},{"bike_id":"463a5fa2-247f-46f7-a9ca-b55d6029c4c8","system_id":"levelo_inurba_marseille","lat":43.274938,"lon":5.424519,"is_reserved":false,"is_disabled":false,"rental_uris":{"android":"levelo://app?vid=463a5fa2-247f-46f7-a9ca-b55d6029c4c8","ios":"levelo://app?vid=463a5fa2-247f-46f7-a9ca-b55d6029c4c8"},"vehicle_type_id":"4","last_reported":1730603992,"current_range_meters":38800,"station_id":"ce4bhn92rcd13ifvqgrg","pricing_plan_id":"cebpf4jnsgd1na2vs0mg"},{"bike_id":"b807c2f1-95a4-4e27-9e31-29516db018c5","system_id":"levelo_inurba_marseille","lat":43.26693,"lon":5.38271,"is_reserved":false,"is_disabled":false,"rental_uris":{"android":"levelo://app?vid=b807c2f1-95a4-4e27-9e31-29516db018c5","ios":"levelo://app?vid=b807c2f1-95a4-4e27-9e31-29516db018c5"},"vehicle_type_id":"4","last_reported":1730603992,"current_range_meters":38000,"station_id":"ce4bhg92rcd13ifvqf90","pricing_plan_id":"cebpf4jnsgd1na2vs0mg"},{"bike_id":"9b2cb7e0-8e32-4e54-adfc-c22281f4e63d","system_id":"levelo_inurba_marseille","lat":43.28622,"lon":5.35102,"is_reserved":false,"is_disabled":false,"rental_uris":{"android":"levelo://app?vid=9b2cb7e0-8e32-4e54-adfc-c22281f4e63d","ios":"levelo://app?vid=9b2cb7e0-8e32-4e54-adfc-c22281f4e63d"},"vehicle_type_id":"4","last_reported":1730603992,"current_range_meters":27600,"station_id":"ce4bhch2rcd13ifvqeug","pricing_plan_id":"cebpf4jnsgd1na2vs0mg"},{"bike_id":"e144e1df-d688-47fd-b9b8-8449f8de3b99","system_id":"levelo_inurba_marseille","lat":43.28929,"lon":5.36398,"is_reserved":false,"is_disabled":false,"rental_uris":{"android":"levelo://app?vid=e144e1df-d688-47fd-b9b8-8449f8de3b99","ios":"levelo://app?vid=e144e1df-d688-47fd-b9b8-8449f8de3b99"},"vehicle_type_id":"4","last_reported":1730603992,"current_range_meters":35600,"station_id":"ce4bhc92rcd13ifvqetg","pricing_plan_id":"cebpf4jnsgd1na2vs0mg"},{"bike_id":"7c742342-036e-4e20-af2f-732ff5eef3fe","system_id":"levelo_inurba_marseille","lat":43.30604,"lon":5.37215,"is_reserved":false,"is_disabled":false,"rental_uris":{"android":"levelo://app?vid=7c742342-036e-4e20-af2f-732ff5eef3fe","ios":"levelo://app?vid=7c742342-036e-4e20-af2f-732ff5eef3fe"},"vehicle_type_id":"4","last_reported":1730603992,"current_range_meters":39200,"station_id":"ce4bgqh2rcd13ifvqc4g","pricing_plan_id":"cebpf4jnsgd1na2vs0mg"},{"bike_id":"16869cb2-a83c-40e2-9d7b-80e1114c2015","system_id":"levelo_inurba_marseille","lat":43.2293,"lon":5.35382,"is_reserved":false,"is_disabled":false,"rental_uris":{"android":"levelo://app?vid=16869cb2-a83c-40e2-9d7b-80e1114c2015","ios":"levelo://app?vid=16869cb2-a83c-40e2-9d7b-80e1114c2015"},"vehicle_type_id":"4","last_reported":1730603992,"current_range_meters":38400,"station_id":"cpo3532slgdg3j2ikp40","pricing_plan_id":"cebpf4jnsgd1na2vs0mg"},{"bike_id":"5818a6ac-2d40-4bf0-a920-aefa2e8a89fa","system_id":"levelo_inurba_marseille","lat":43.2649,"lon":5.39549,"is_reserved":false,"is_disabled":false,"rental_uris":{"android":"levelo://app?vid=5818a6ac-2d40-4bf0-a920-aefa2e8a89fa","ios":"levelo://app?vid=5818a6ac-2d40-4bf0-a920-aefa2e8a89fa"},"vehicle_type_id":"4","last_reported":1730603992,"current_range_meters":26000,"station_id":"ce4bhi12rcd13ifvqfq0","pricing_plan_id":"cebpf4jnsgd1na2vs0mg"},{"bike_id":"19635d09-a8d1-4f0d-8934-de2bc8e9e9f6","system_id":"levelo_inurba_marseille","lat":43.2835,"lon":5.38105,"is_reserved":false,"is_disabled":false,"rental_uris":{"android":"levelo://app?vid=19635d09-a8d1-4f0d-8934-de2bc8e9e9f6","ios":"levelo://app?vid=19635d09-a8d1-4f0d-8934-de2bc8e9e9f6"},"vehicle_type_id":"4","last_reported":1730603992,"current_range_meters":35600,"station_id":"ce4bh412rcd13ifvqdr0","pricing_plan_id":"cebpf4jnsgd1na2vs0mg"},{"bike_id":"89b18f9a-0054-45a4-ac00-b8aa361474b0","system_id":"levelo_inurba_marseille","lat":43.27496,"lon":5.42447,"is_reserved":false,"is_disabled":false,"rental_uris":{"android":"levelo://app?vid=89b18f9a-0054-45a4-ac00-b8aa361474b0","ios":"levelo://app?vid=89b18f9a-0054-45a4-ac00-b8aa361474b0"},"vehicle_type_id":"4","last_reported":1730603992,"current_range_meters":8400,"station_id":"ce4bhn92rcd13ifvqgrg","pricing_plan_id":"cebpf4jnsgd1na2vs0mg"},{"bike_id":"ad6fe96e-3332-410a-8646-ece0965352c2","system_id":"levelo_inurba_marseille","lat":43.26655,"lon":5.42532,"is_reserved":false,"is_disabled":false,"rental_uris":{"android":"levelo://app?vid=ad6fe96e-3332-410a-8646-ece0965352c2","ios":"levelo://app?vid=ad6fe96e-3332-410a-8646-ece0965352c2"},"vehicle_type_id":"4","last_reported":1730603992,"current_range_meters":3200,"station_id":"","pricing_plan_id":"cebpf4jnsgd1na2vs0mg"},{"bike_id":"3aae935e-f19b-4b82-860a-9e86c4796487","system_id":"levelo_inurba_marseille","lat":43.25863,"lon":5.39898,"is_reserved":false,"is_disabled":false,"rental_uris":{"android":"levelo://app?vid=3aae935e-f19b-4b82-860a-9e86c4796487","ios":"levelo://app?vid=3aae935e-f19b-4b82-860a-9e86c4796487"},"vehicle_type_id":"4","last_reported":1730603992,"current_range_meters":6400,"station_id":"ce4bhl92rcd13ifvqghg","pricing_plan_id":"cebpf4jnsgd1na2vs0mg"},{"bike_id":"09cd329c-1fa7-4b20-a274-2cdef2d8cd4f","system_id":"levelo_inurba_marseille","lat":43.24073,"lon":5.37756,"is_reserved":false,"is_disabled":false,"rental_uris":{"android":"levelo://app?vid=09cd329c-1fa7-4b20-a274-2cdef2d8cd4f","ios":"levelo://app?vid=09cd329c-1fa7-4b20-a274-2cdef2d8cd4f"},"vehicle_type_id":"4","last_reported":1730603992,"current_range_meters":38800,"station_id":"ce4bhnp2rcd13ifvqgvg","pricing_plan_id":"cebpf4jnsgd1na2vs0mg"},{"bike_id":"60b1bb62-9591-4289-b228-572329c85e90","system_id":"levelo_inurba_marseille","lat":43.30254,"lon":5.40071,"is_reserved":false,"is_disabled":false,"rental_uris":{"android":"levelo://app?vid=60b1bb62-9591-4289-b228-572329c85e90","ios":"levelo://app?vid=60b1bb62-9591-4289-b228-572329c85e90"},"vehicle_type_id":"4","last_reported":1730603992,"current_range_meters":19600,"station_id":"ce4bgvh2rcd13ifvqcs0","pricing_plan_id":"cebpf4jnsgd1na2vs0mg"},{"bike_id":"750ef8cf-4e1b-4907-b457-aebbb2bb1456","system_id":"levelo_inurba_marseille","lat":43.26943,"lon":5.40253,"is_reserved":false,"is_disabled":false,"rental_uris":{"android":"levelo://app?vid=750ef8cf-4e1b-4907-b457-aebbb2bb1456","ios":"levelo://app?vid=750ef8cf-4e1b-4907-b457-aebbb2bb1456"},"vehicle_type_id":"4","last_reported":1730603992,"current_range_meters":32000,"station_id":"cjm6bp8fraef2m0cb0m0","pricing_plan_id":"cebpf4jnsgd1na2vs0mg"},{"bike_id":"3c330f08-508b-4866-b688-f0374209e3dc","system_id":"levelo_inurba_marseille","lat":43.25124,"lon":5.40323,"is_reserved":false,"is_disabled":false,"rental_uris":{"android":"levelo://app?vid=3c330f08-508b-4866-b688-f0374209e3dc","ios":"levelo://app?vid=3c330f08-508b-4866-b688-f0374209e3dc"},"vehicle_type_id":"4","last_reported":1730603992,"current_range_meters":16800,"station_id":"ce4bhlh2rcd13ifvqgig","pricing_plan_id":"cebpf4jnsgd1na2vs0mg"},{"bike_id":"15736683-0b6e-481d-a28a-78e7b74ded0d","system_id":"levelo_inurba_marseille","lat":43.3135,"lon":5.38503,"is_reserved":false,"is_disabled":false,"rental_uris":{"android":"levelo://app?vid=15736683-0b6e-481d-a28a-78e7b74ded0d","ios":"levelo://app?vid=15736683-0b6e-481d-a28a-78e7b74ded0d"},"vehicle_type_id":"4","last_reported":1730603992,"current_range_meters":26000,"station_id":"ce4bgt92rcd13ifvqcf0","pricing_plan_id":"cebpf4jnsgd1na2vs0mg"},{"bike_id":"544023ec-9270-4974-8448-54ce637c9af0","system_id":"levelo_inurba_marseille","lat":43.28852,"lon":5.35844,"is_reserved":false,"is_disabled":false,"rental_uris":{"android":"levelo://app?vid=544023ec-9270-4974-8448-54ce637c9af0","ios":"levelo://app?vid=544023ec-9270-4974-8448-54ce637c9af0"},"vehicle_type_id":"4","last_reported":1730603992,"current_range_meters":26000,"station_id":"ce4bhb12rcd13ifvqem0","pricing_plan_id":"cebpf4jnsgd1na2vs0mg"},{"bike_id":"52013de1-79e8-4318-b990-f0f49d7fb45d","system_id":"levelo_inurba_marseille","lat":43.29596,"lon":5.38096,"is_reserved":false,"is_disabled":false,"rental_uris":{"android":"levelo://app?vid=52013de1-79e8-4318-b990-f0f49d7fb45d","ios":"levelo://app?vid=52013de1-79e8-4318-b990-f0f49d7fb45d"},"vehicle_type_id":"4","last_reported":1730603992,"current_range_meters":28400,"station_id":"ce4bgl12rcd13ifvqbo0","pricing_plan_id":"cebpf4jnsgd1na2vs0mg"},{"bike_id":"22cb7bf5-d924-4c42-b792-42240584238f","system_id":"levelo_inurba_marseille","lat":43.23153,"lon":5.43724,"is_reserved":false,"is_disabled":false,"rental_uris":{"android":"levelo://app?vid=22cb7bf5-d924-4c42-b792-42240584238f","ios":"levelo://app?vid=22cb7bf5-d924-4c42-b792-42240584238f"},"vehicle_type_id":"4","last_reported":1730603992,"current_range_meters":38000,"station_id":"ce4bhmp2rcd13ifvqgog","pricing_plan_id":"cebpf4jnsgd1na2vs0mg"},{"bike_id":"f3644f25-acbb-49ac-ab9c-e91b11f01fa4","system_id":"levelo_inurba_marseille","lat":43.25867,"lon":5.39905,"is_reserved":false,"is_disabled":false,"rental_uris":{"android":"levelo://app?vid=f3644f25-acbb-49ac-ab9c-e91b11f01fa4","ios":"levelo://app?vid=f3644f25-acbb-49ac-ab9c-e91b11f01fa4"},"vehicle_type_id":"4","last_reported":1730603992,"current_range_meters":27600,"station_id":"ce4bhl92rcd13ifvqghg","pricing_plan_id":"cebpf4jnsgd1na2vs0mg"},{"bike_id":"eeda0a49-c95e-447a-b118-263faeb6a58f","system_id":"levelo_inurba_marseille","lat":43.31467,"lon":5.37375,"is_reserved":false,"is_disabled":false,"rental_uris":{"android":"levelo://app?vid=eeda0a49-c95e-447a-b118-263faeb6a58f","ios":"levelo://app?vid=eeda0a49-c95e-447a-b118-263faeb6a58f"},"vehicle_type_id":"4","last_reported":1730603992,"current_range_meters":16800,"station_id":"","pricing_plan_id":"cebpf4jnsgd1na2vs0mg"},{"bike_id":"ec473227-d5ab-4d2c-8391-309efdcae35f","system_id":"levelo_inurba_marseille","lat":43.23154,"lon":5.43707,"is_reserved":false,"is_disabled":false,"rental_uris":{"android":"levelo://app?vid=ec473227-d5ab-4d2c-8391-309efdcae35f","ios":"levelo://app?vid=ec473227-d5ab-4d2c-8391-309efdcae35f"},"vehicle_type_id":"4","last_reported":1730603992,"current_range_meters":37600,"station_id":"ce4bhmp2rcd13ifvqgog","pricing_plan_id":"cebpf4jnsgd1na2vs0mg"},{"bike_id":"b3e3d2fe-c276-4883-af68-8ff6e4926bab","system_id":"levelo_inurba_marseille","lat":43.25135,"lon":5.403335,"is_reserved":false,"is_disabled":false,"rental_uris":{"android":"levelo://app?vid=b3e3d2fe-c276-4883-af68-8ff6e4926bab","ios":"levelo://app?vid=b3e3d2fe-c276-4883-af68-8ff6e4926bab"},"vehicle_type_id":"4","last_reported":1730603992,"current_range_meters":32400,"station_id":"ce4bhlh2rcd13ifvqgig","pricing_plan_id":"cebpf4jnsgd1na2vs0mg"},{"bike_id":"1c491c83-6d95-4733-bcd3-d913645851d2","system_id":"levelo_inurba_marseille","lat":43.28413,"lon":5.37522,"is_reserved":false,"is_disabled":false,"rental_uris":{"android":"levelo://app?vid=1c491c83-6d95-4733-bcd3-d913645851d2","ios":"levelo://app?vid=1c491c83-6d95-4733-bcd3-d913645851d2"},"vehicle_type_id":"4","last_reported":1730603992,"current_range_meters":38800,"station_id":"ce4bh412rcd13ifvqds0","pricing_plan_id":"cebpf4jnsgd1na2vs0mg"},{"bike_id":"8c700365-5361-436a-a6a9-30a114bbca07","system_id":"levelo_inurba_marseille","lat":43.28452,"lon":5.35886,"is_reserved":false,"is_disabled":false,"rental_uris":{"android":"levelo://app?vid=8c700365-5361-436a-a6a9-30a114bbca07","ios":"levelo://app?vid=8c700365-5361-436a-a6a9-30a114bbca07"},"vehicle_type_id":"4","last_reported":1730603992,"current_range_meters":26000,"station_id":"ce4bhah2rcd13ifvqei0","pricing_plan_id":"cebpf4jnsgd1na2vs0mg"},{"bike_id":"19a6d47e-53d7-42cf-9934-34fc3fd9053c","system_id":"levelo_inurba_marseille","lat":43.32289,"lon":5.38273,"is_reserved":false,"is_disabled":false,"rental_uris":{"android":"levelo://app?vid=19a6d47e-53d7-42cf-9934-34fc3fd9053c","ios":"levelo://app?vid=19a6d47e-53d7-42cf-9934-34fc3fd9053c"},"vehicle_type_id":"4","last_reported":1730603992,"current_range_meters":37600,"station_id":"ce4bhr12rcd13ifvqhqg","pricing_plan_id":"cebpf4jnsgd1na2vs0mg"},{"bike_id":"6e2c93b7-ebb4-422a-b427-e48707211c9b","system_id":"levelo_inurba_marseille","lat":43.30421,"lon":5.41281,"is_reserved":false,"is_disabled":false,"rental_uris":{"android":"levelo://app?vid=6e2c93b7-ebb4-422a-b427-e48707211c9b","ios":"levelo://app?vid=6e2c93b7-ebb4-422a-b427-e48707211c9b"},"vehicle_type_id":"4","last_reported":1730603992,"current_range_meters":39200,"station_id":"ce4bhop2rcd13ifvqh8g","pricing_plan_id":"cebpf4jnsgd1na2vs0mg"},{"bike_id":"b8f9d2ad-48b8-4fa6-9457-d84ee72bf475","system_id":"levelo_inurba_marseille","lat":43.30803,"lon":5.4352,"is_reserved":false,"is_disabled":false,"rental_uris":{"android":"levelo://app?vid=b8f9d2ad-48b8-4fa6-9457-d84ee72bf475","ios":"levelo://app?vid=b8f9d2ad-48b8-4fa6-9457-d84ee72bf475"},"vehicle_type_id":"4","last_reported":1730603992,"current_range_meters":15200,"station_id":"ce4bhph2rcd13ifvqheg","pricing_plan_id":"cebpf4jnsgd1na2vs0mg"},{"bike_id":"9261d8fd-2b22-40f2-b50d-5da3e250e66c","system_id":"levelo_inurba_marseille","lat":43.27625,"lon":5.36122,"is_reserved":false,"is_disabled":false,"rental_uris":{"android":"levelo://app?vid=9261d8fd-2b22-40f2-b50d-5da3e250e66c","ios":"levelo://app?vid=9261d8fd-2b22-40f2-b50d-5da3e250e66c"},"vehicle_type_id":"4","last_reported":1730603992,"current_range_meters":8000,"station_id":"ce4bgj92rcd13ifvqbe0","pricing_plan_id":"cebpf4jnsgd1na2vs0mg"},{"bike_id":"3ff434e7-d97e-42fe-864b-d72cec550722","system_id":"levelo_inurba_marseille","lat":43.2511,"lon":5.40332,"is_reserved":false,"is_disabled":false,"rental_uris":{"android":"levelo://app?vid=3ff434e7-d97e-42fe-864b-d72cec550722","ios":"levelo://app?vid=3ff434e7-d97e-42fe-864b-d72cec550722"},"vehicle_type_id":"4","last_reported":1730603992,"current_range_meters":28000,"station_id":"ce4bhlh2rcd13ifvqgig","pricing_plan_id":"cebpf4jnsgd1na2vs0mg"},{"bike_id":"62567c44-6575-4800-85dc-335520f77987","system_id":"levelo_inurba_marseille","lat":43.28858,"lon":5.35842,"is_reserved":false,"is_disabled":false,"rental_uris":{"android":"levelo://app?vid=62567c44-6575-4800-85dc-335520f77987","ios":"levelo://app?vid=62567c44-6575-4800-85dc-335520f77987"},"vehicle_type_id":"4","last_reported":1730603992,"current_range_meters":39200,"station_id":"ce4bhb12rcd13ifvqem0","pricing_plan_id":"cebpf4jnsgd1na2vs0mg"},{"bike_id":"a3ff93bb-1257-42af-aa61-6a8dc0551888","system_id":"levelo_inurba_marseille","lat":43.31722,"lon":5.42403,"is_reserved":false,"is_disabled":false,"rental_uris":{"android":"levelo://app?vid=a3ff93bb-1257-42af-aa61-6a8dc0551888","ios":"levelo://app?vid=a3ff93bb-1257-42af-aa61-6a8dc0551888"},"vehicle_type_id":"4","last_reported":1730603992,"current_range_meters":16000,"station_id":"ce4bhp92rcd13ifvqhbg","pricing_plan_id":"cebpf4jnsgd1na2vs0mg"},{"bike_id":"dba3c29b-3433-4dd1-a290-c8b09348f9fc","system_id":"levelo_inurba_marseille","lat":43.26061,"lon":5.39404,"is_reserved":false,"is_disabled":false,"rental_uris":{"android":"levelo://app?vid=dba3c29b-3433-4dd1-a290-c8b09348f9fc","ios":"levelo://app?vid=dba3c29b-3433-4dd1-a290-c8b09348f9fc"},"vehicle_type_id":"4","last_reported":1730603992,"current_range_meters":39200,"station_id":"ce4bhh92rcd13ifvqfj0","pricing_plan_id":"cebpf4jnsgd1na2vs0mg"},{"bike_id":"6323ae90-eaed-4799-998b-6223d9f08d3d","system_id":"levelo_inurba_marseille","lat":43.29195,"lon":5.39316,"is_reserved":false,"is_disabled":false,"rental_uris":{"android":"levelo://app?vid=6323ae90-eaed-4799-998b-6223d9f08d3d","ios":"levelo://app?vid=6323ae90-eaed-4799-998b-6223d9f08d3d"},"vehicle_type_id":"4","last_reported":1730603992,"current_range_meters":38400,"station_id":"ce4bh192rcd13ifvqdd0","pricing_plan_id":"cebpf4jnsgd1na2vs0mg"},{"bike_id":"598535da-1e32-42e0-bd65-4ba25549dd70","system_id":"levelo_inurba_marseille","lat":43.31462,"lon":5.37377,"is_reserved":false,"is_disabled":false,"rental_uris":{"android":"levelo://app?vid=598535da-1e32-42e0-bd65-4ba25549dd70","ios":"levelo://app?vid=598535da-1e32-42e0-bd65-4ba25549dd70"},"vehicle_type_id":"4","last_reported":1730603992,"current_range_meters":32400,"station_id":"","pricing_plan_id":"cebpf4jnsgd1na2vs0mg"},{"bike_id":"2378f453-72a7-4eb2-ab3b-946285d406fd","system_id":"levelo_inurba_marseille","lat":43.29229,"lon":5.37755,"is_reserved":false,"is_disabled":false,"rental_uris":{"android":"levelo://app?vid=2378f453-72a7-4eb2-ab3b-946285d406fd","ios":"levelo://app?vid=2378f453-72a7-4eb2-ab3b-946285d406fd"},"vehicle_type_id":"4","last_reported":1730603992,"current_range_meters":16400,"station_id":"ce4bgi12rcd13ifvqb70","pricing_plan_id":"cebpf4jnsgd1na2vs0mg"},{"bike_id":"99d7c7dc-2e91-4267-811b-4302f16a1504","system_id":"levelo_inurba_marseille","lat":43.25115,"lon":5.40329,"is_reserved":false,"is_disabled":false,"rental_uris":{"android":"levelo://app?vid=99d7c7dc-2e91-4267-811b-4302f16a1504","ios":"levelo://app?vid=99d7c7dc-2e91-4267-811b-4302f16a1504"},"vehicle_type_id":"4","last_reported":1730603992,"current_range_meters":4000,"station_id":"ce4bhlh2rcd13ifvqgig","pricing_plan_id":"cebpf4jnsgd1na2vs0mg"},{"bike_id":"2fecd123-2276-416f-a249-18b8dca5a399","system_id":"levelo_inurba_marseille","lat":43.32368,"lon":5.38892,"is_reserved":false,"is_disabled":false,"rental_uris":{"android":"levelo://app?vid=2fecd123-2276-416f-a249-18b8dca5a399","ios":"levelo://app?vid=2fecd123-2276-416f-a249-18b8dca5a399"},"vehicle_type_id":"4","last_reported":1730603992,"current_range_meters":14400,"station_id":"ce4bhqp2rcd13ifvqhog","pricing_plan_id":"cebpf4jnsgd1na2vs0mg"},{"bike_id":"d5ab64bc-b165-47e8-95d6-a9a3f40957db","system_id":"levelo_inurba_marseille","lat":43.29558,"lon":5.42283,"is_reserved":false,"is_disabled":false,"rental_uris":{"android":"levelo://app?vid=d5ab64bc-b165-47e8-95d6-a9a3f40957db","ios":"levelo://app?vid=d5ab64bc-b165-47e8-95d6-a9a3f40957db"},"vehicle_type_id":"4","last_reported":1730603992,"current_range_meters":23200,"station_id":"ce4bhph2rcd13ifvqhdg","pricing_plan_id":"cebpf4jnsgd1na2vs0mg"},{"bike_id":"66db9776-16e5-46ec-8dae-5270ee1c00e8","system_id":"levelo_inurba_marseille","lat":43.27992,"lon":5.41658,"is_reserved":false,"is_disabled":false,"rental_uris":{"android":"levelo://app?vid=66db9776-16e5-46ec-8dae-5270ee1c00e8","ios":"levelo://app?vid=66db9776-16e5-46ec-8dae-5270ee1c00e8"},"vehicle_type_id":"4","last_reported":1730603992,"current_range_meters":25200,"station_id":"ce4bho12rcd13ifvqh1g","pricing_plan_id":"cebpf4jnsgd1na2vs0mg"},{"bike_id":"73c275bf-7a27-4795-a2af-ee837a10340a","system_id":"levelo_inurba_marseille","lat":43.29193,"lon":5.39337,"is_reserved":false,"is_disabled":false,"rental_uris":{"android":"levelo://app?vid=73c275bf-7a27-4795-a2af-ee837a10340a","ios":"levelo://app?vid=73c275bf-7a27-4795-a2af-ee837a10340a"},"vehicle_type_id":"4","last_reported":1730603992,"current_range_meters":38800,"station_id":"ce4bh192rcd13ifvqdd0","pricing_plan_id":"cebpf4jnsgd1na2vs0mg"},{"bike_id":"ea6eac24-7b51-434a-8f51-d28eece06440","system_id":"levelo_inurba_marseille","lat":43.288,"lon":5.36105,"is_reserved":false,"is_disabled":false,"rental_uris":{"android":"levelo://app?vid=ea6eac24-7b51-434a-8f51-d28eece06440","ios":"levelo://app?vid=ea6eac24-7b51-434a-8f51-d28eece06440"},"vehicle_type_id":"4","last_reported":1730603992,"current_range_meters":10800,"station_id":"","pricing_plan_id":"cebpf4jnsgd1na2vs0mg"},{"bike_id":"777d5571-5eae-4329-9c0f-98b63f655476","system_id":"levelo_inurba_marseille","lat":43.30256,"lon":5.40081,"is_reserved":false,"is_disabled":false,"rental_uris":{"android":"levelo://app?vid=777d5571-5eae-4329-9c0f-98b63f655476","ios":"levelo://app?vid=777d5571-5eae-4329-9c0f-98b63f655476"},"vehicle_type_id":"4","last_reported":1730603992,"current_range_meters":38800,"station_id":"ce4bgvh2rcd13ifvqcs0","pricing_plan_id":"cebpf4jnsgd1na2vs0mg"},{"bike_id":"53b9355c-0cdb-4c5b-958b-593bd1d6d6b3","system_id":"levelo_inurba_marseille","lat":43.301794,"lon":5.382477,"is_reserved":false,"is_disabled":false,"rental_uris":{"android":"levelo://app?vid=53b9355c-0cdb-4c5b-958b-593bd1d6d6b3","ios":"levelo://app?vid=53b9355c-0cdb-4c5b-958b-593bd1d6d6b3"},"vehicle_type_id":"4","last_reported":1730603992,"current_range_meters":38000,"station_id":"ce4bgjp2rcd13ifvqbh0","pricing_plan_id":"cebpf4jnsgd1na2vs0mg"},{"bike_id":"76ba84d0-dc5b-448d-ad77-dd1f6b9fbaa7","system_id":"levelo_inurba_marseille","lat":43.26965,"lon":5.3862,"is_reserved":false,"is_disabled":false,"rental_uris":{"android":"levelo://app?vid=76ba84d0-dc5b-448d-ad77-dd1f6b9fbaa7","ios":"levelo://app?vid=76ba84d0-dc5b-448d-ad77-dd1f6b9fbaa7"},"vehicle_type_id":"4","last_reported":1730603992,"current_range_meters":38800,"station_id":"ce4bhh92rcd13ifvqfh0","pricing_plan_id":"cebpf4jnsgd1na2vs0mg"},{"bike_id":"2b5b25bd-fbdb-4d1c-b795-ab43ad5c34c1","system_id":"levelo_inurba_marseille","lat":43.28847,"lon":5.393,"is_reserved":false,"is_disabled":false,"rental_uris":{"android":"levelo://app?vid=2b5b25bd-fbdb-4d1c-b795-ab43ad5c34c1","ios":"levelo://app?vid=2b5b25bd-fbdb-4d1c-b795-ab43ad5c34c1"},"vehicle_type_id":"4","last_reported":1730603992,"current_range_meters":10000,"station_id":"ce4bh2p2rcd13ifvqdi0","pricing_plan_id":"cebpf4jnsgd1na2vs0mg"},{"bike_id":"fb60f436-07fe-4450-a0d1-374a6c3171e4","system_id":"levelo_inurba_marseille","lat":43.29015,"lon":5.35616,"is_reserved":false,"is_disabled":false,"rental_uris":{"android":"levelo://app?vid=fb60f436-07fe-4450-a0d1-374a6c3171e4","ios":"levelo://app?vid=fb60f436-07fe-4450-a0d1-374a6c3171e4"},"vehicle_type_id":"4","last_reported":1730603992,"current_range_meters":33600,"station_id":"ce4bhb92rcd13ifvqen0","pricing_plan_id":"cebpf4jnsgd1na2vs0mg"},{"bike_id":"f35f56e7-b14f-4a09-b37b-49f6770fbb8d","system_id":"levelo_inurba_marseille","lat":43.30421,"lon":5.39761,"is_reserved":false,"is_disabled":false,"rental_uris":{"android":"levelo://app?vid=f35f56e7-b14f-4a09-b37b-49f6770fbb8d","ios":"levelo://app?vid=f35f56e7-b14f-4a09-b37b-49f6770fbb8d"},"vehicle_type_id":"4","last_reported":1730603992,"current_range_meters":11200,"station_id":"ce4bh092rcd13ifvqd20","pricing_plan_id":"cebpf4jnsgd1na2vs0mg"},{"bike_id":"a1f78ab3-4e75-44e2-a948-d2b63dc06c7f","system_id":"levelo_inurba_marseille","lat":43.31332,"lon":5.39705,"is_reserved":false,"is_disabled":false,"rental_uris":{"android":"levelo://app?vid=a1f78ab3-4e75-44e2-a948-d2b63dc06c7f","ios":"levelo://app?vid=a1f78ab3-4e75-44e2-a948-d2b63dc06c7f"},"vehicle_type_id":"4","last_reported":1730603992,"current_range_meters":38400,"station_id":"ce4bgvp2rcd13ifvqcu0","pricing_plan_id":"cebpf4jnsgd1na2vs0mg"},{"bike_id":"c8893d8e-f81f-4744-85fb-448d69741653","system_id":"levelo_inurba_marseille","lat":43.27618,"lon":5.36111,"is_reserved":false,"is_disabled":false,"rental_uris":{"android":"levelo://app?vid=c8893d8e-f81f-4744-85fb-448d69741653","ios":"levelo://app?vid=c8893d8e-f81f-4744-85fb-448d69741653"},"vehicle_type_id":"4","last_reported":1730603992,"current_range_meters":8400,"station_id":"ce4bgj92rcd13ifvqbe0","pricing_plan_id":"cebpf4jnsgd1na2vs0mg"},{"bike_id":"adb40b94-5219-4fad-a471-3058c310ba27","system_id":"levelo_inurba_marseille","lat":43.30302,"lon":5.39216,"is_reserved":false,"is_disabled":false,"rental_uris":{"android":"levelo://app?vid=adb40b94-5219-4fad-a471-3058c310ba27","ios":"levelo://app?vid=adb40b94-5219-4fad-a471-3058c310ba27"},"vehicle_type_id":"4","last_reported":1730603992,"current_range_meters":30400,"station_id":"ce4bgkh2rcd13ifvqbk0","pricing_plan_id":"cebpf4jnsgd1na2vs0mg"},{"bike_id":"28a1f131-18c7-4a58-81ac-573655f32bef","system_id":"levelo_inurba_marseille","lat":43.287009,"lon":5.37394,"is_reserved":false,"is_disabled":false,"rental_uris":{"android":"levelo://app?vid=28a1f131-18c7-4a58-81ac-573655f32bef","ios":"levelo://app?vid=28a1f131-18c7-4a58-81ac-573655f32bef"},"vehicle_type_id":"4","last_reported":1730603992,"current_range_meters":35200,"station_id":"ce4bh3p2rcd13ifvqdq0","pricing_plan_id":"cebpf4jnsgd1na2vs0mg"},{"bike_id":"d5bdf440-de6f-4bf3-9aaa-d81dd81e2ef7","system_id":"levelo_inurba_marseille","lat":43.31725,"lon":5.424,"is_reserved":false,"is_disabled":false,"rental_uris":{"android":"levelo://app?vid=d5bdf440-de6f-4bf3-9aaa-d81dd81e2ef7","ios":"levelo://app?vid=d5bdf440-de6f-4bf3-9aaa-d81dd81e2ef7"},"vehicle_type_id":"4","last_reported":1730603992,"current_range_meters":38000,"station_id":"ce4bhp92rcd13ifvqhbg","pricing_plan_id":"cebpf4jnsgd1na2vs0mg"},{"bike_id":"264d4768-e819-437b-8292-2e4e716c0b1e","system_id":"levelo_inurba_marseille","lat":43.28854,"lon":5.39316,"is_reserved":false,"is_disabled":false,"rental_uris":{"android":"levelo://app?vid=264d4768-e819-437b-8292-2e4e716c0b1e","ios":"levelo://app?vid=264d4768-e819-437b-8292-2e4e716c0b1e"},"vehicle_type_id":"4","last_reported":1730603992,"current_range_meters":38400,"station_id":"ce4bh2p2rcd13ifvqdi0","pricing_plan_id":"cebpf4jnsgd1na2vs0mg"},{"bike_id":"3b7b5df4-9521-42f4-847d-dc13fd129948","system_id":"levelo_inurba_marseille","lat":43.2836,"lon":5.386264,"is_reserved":false,"is_disabled":false,"rental_uris":{"android":"levelo://app?vid=3b7b5df4-9521-42f4-847d-dc13fd129948","ios":"levelo://app?vid=3b7b5df4-9521-42f4-847d-dc13fd129948"},"vehicle_type_id":"4","last_reported":1730603992,"current_range_meters":38800,"station_id":"ce4bh492rcd13ifvqdvg","pricing_plan_id":"cebpf4jnsgd1na2vs0mg"},{"bike_id":"60b2fd11-3cbf-4232-bd92-7ecebd78b656","system_id":"levelo_inurba_marseille","lat":43.28342,"lon":5.3811,"is_reserved":false,"is_disabled":false,"rental_uris":{"android":"levelo://app?vid=60b2fd11-3cbf-4232-bd92-7ecebd78b656","ios":"levelo://app?vid=60b2fd11-3cbf-4232-bd92-7ecebd78b656"},"vehicle_type_id":"4","last_reported":1730603992,"current_range_meters":38800,"station_id":"ce4bh412rcd13ifvqdr0","pricing_plan_id":"cebpf4jnsgd1na2vs0mg"},{"bike_id":"15dfa336-cdc5-4e32-a889-621804f040c0","system_id":"levelo_inurba_marseille","lat":43.27814,"lon":5.40711,"is_reserved":false,"is_disabled":false,"rental_uris":{"android":"levelo://app?vid=15dfa336-cdc5-4e32-a889-621804f040c0","ios":"levelo://app?vid=15dfa336-cdc5-4e32-a889-621804f040c0"},"vehicle_type_id":"4","last_reported":1730603992,"current_range_meters":38000,"station_id":"ce4bhnh2rcd13ifvqgtg","pricing_plan_id":"cebpf4jnsgd1na2vs0mg"},{"bike_id":"229d9a32-79b7-4f8e-8885-55369bff5631","system_id":"levelo_inurba_marseille","lat":43.29049,"lon":5.39942,"is_reserved":false,"is_disabled":false,"rental_uris":{"android":"levelo://app?vid=229d9a32-79b7-4f8e-8885-55369bff5631","ios":"levelo://app?vid=229d9a32-79b7-4f8e-8885-55369bff5631"},"vehicle_type_id":"4","last_reported":1730603992,"current_range_meters":33200,"station_id":"ce4bh392rcd13ifvqdm0","pricing_plan_id":"cebpf4jnsgd1na2vs0mg"},{"bike_id":"75576e24-6890-4288-9aa5-db2804891d6f","system_id":"levelo_inurba_marseille","lat":43.26948,"lon":5.40245,"is_reserved":false,"is_disabled":false,"rental_uris":{"android":"levelo://app?vid=75576e24-6890-4288-9aa5-db2804891d6f","ios":"levelo://app?vid=75576e24-6890-4288-9aa5-db2804891d6f"},"vehicle_type_id":"4","last_reported":1730603992,"current_range_meters":38800,"station_id":"cjm6bp8fraef2m0cb0m0","pricing_plan_id":"cebpf4jnsgd1na2vs0mg"},{"bike_id":"e79c4254-4bc4-4047-b95c-94e62a1af652","system_id":"levelo_inurba_marseille","lat":43.29582,"lon":5.39982,"is_reserved":false,"is_disabled":false,"rental_uris":{"android":"levelo://app?vid=e79c4254-4bc4-4047-b95c-94e62a1af652","ios":"levelo://app?vid=e79c4254-4bc4-4047-b95c-94e62a1af652"},"vehicle_type_id":"4","last_reported":1730603992,"current_range_meters":28000,"station_id":"ce4bh312rcd13ifvqdj0","pricing_plan_id":"cebpf4jnsgd1na2vs0mg"},{"bike_id":"54337fac-085e-4782-bad6-db9a84abd2e2","system_id":"levelo_inurba_marseille","lat":43.31701,"lon":5.37771,"is_reserved":false,"is_disabled":false,"rental_uris":{"android":"levelo://app?vid=54337fac-085e-4782-bad6-db9a84abd2e2","ios":"levelo://app?vid=54337fac-085e-4782-bad6-db9a84abd2e2"},"vehicle_type_id":"4","last_reported":1730603992,"current_range_meters":38800,"station_id":"ce4bgth2rcd13ifvqch0","pricing_plan_id":"cebpf4jnsgd1na2vs0mg"},{"bike_id":"067f8d51-b65c-422f-9eef-fff392264ea6","system_id":"levelo_inurba_marseille","lat":43.28927,"lon":5.36383,"is_reserved":false,"is_disabled":false,"rental_uris":{"android":"levelo://app?vid=067f8d51-b65c-422f-9eef-fff392264ea6","ios":"levelo://app?vid=067f8d51-b65c-422f-9eef-fff392264ea6"},"vehicle_type_id":"4","last_reported":1730603992,"current_range_meters":34000,"station_id":"ce4bhc92rcd13ifvqetg","pricing_plan_id":"cebpf4jnsgd1na2vs0mg"},{"bike_id":"62139fac-bd2e-4ba1-972e-9e0307f4bc5b","system_id":"levelo_inurba_marseille","lat":43.28473,"lon":5.38423,"is_reserved":false,"is_disabled":false,"rental_uris":{"android":"levelo://app?vid=62139fac-bd2e-4ba1-972e-9e0307f4bc5b","ios":"levelo://app?vid=62139fac-bd2e-4ba1-972e-9e0307f4bc5b"},"vehicle_type_id":"4","last_reported":1730603992,"current_range_meters":38800,"station_id":"ce4bh512rcd13ifvqe3g","pricing_plan_id":"cebpf4jnsgd1na2vs0mg"},{"bike_id":"f9499f1e-1832-4de7-97a8-24c240b0bd64","system_id":"levelo_inurba_marseille","lat":43.243864,"lon":5.370552,"is_reserved":false,"is_disabled":false,"rental_uris":{"android":"levelo://app?vid=f9499f1e-1832-4de7-97a8-24c240b0bd64","ios":"levelo://app?vid=f9499f1e-1832-4de7-97a8-24c240b0bd64"},"vehicle_type_id":"4","last_reported":1730603992,"current_range_meters":37600,"station_id":"ce4bhhh2rcd13ifvqfk0","pricing_plan_id":"cebpf4jnsgd1na2vs0mg"},{"bike_id":"551b2b3f-bd56-485c-8f32-235c28833653","system_id":"levelo_inurba_marseille","lat":43.27998,"lon":5.41669,"is_reserved":false,"is_disabled":false,"rental_uris":{"android":"levelo://app?vid=551b2b3f-bd56-485c-8f32-235c28833653","ios":"levelo://app?vid=551b2b3f-bd56-485c-8f32-235c28833653"},"vehicle_type_id":"4","last_reported":1730603992,"current_range_meters":37600,"station_id":"ce4bho12rcd13ifvqh1g","pricing_plan_id":"cebpf4jnsgd1na2vs0mg"},{"bike_id":"242a0022-7ff2-4146-b8c8-168460a54332","system_id":"levelo_inurba_marseille","lat":43.28694,"lon":5.37381,"is_reserved":false,"is_disabled":false,"rental_uris":{"android":"levelo://app?vid=242a0022-7ff2-4146-b8c8-168460a54332","ios":"levelo://app?vid=242a0022-7ff2-4146-b8c8-168460a54332"},"vehicle_type_id":"4","last_reported":1730603992,"current_range_meters":38800,"station_id":"ce4bh3p2rcd13ifvqdq0","pricing_plan_id":"cebpf4jnsgd1na2vs0mg"},{"bike_id":"6157d426-3266-4deb-ace6-913f4e23e949","system_id":"levelo_inurba_marseille","lat":43.31714,"lon":5.4371,"is_reserved":false,"is_disabled":false,"rental_uris":{"android":"levelo://app?vid=6157d426-3266-4deb-ace6-913f4e23e949","ios":"levelo://app?vid=6157d426-3266-4deb-ace6-913f4e23e949"},"vehicle_type_id":"4","last_reported":1730603992,"current_range_meters":36400,"station_id":"ce4bhp92rcd13ifvqhcg","pricing_plan_id":"cebpf4jnsgd1na2vs0mg"},{"bike_id":"bb77766c-bd6a-4d75-b2a0-07423588e7be","system_id":"levelo_inurba_marseille","lat":43.32,"lon":5.38153,"is_reserved":false,"is_disabled":false,"rental_uris":{"android":"levelo://app?vid=bb77766c-bd6a-4d75-b2a0-07423588e7be","ios":"levelo://app?vid=bb77766c-bd6a-4d75-b2a0-07423588e7be"},"vehicle_type_id":"4","last_reported":1730603992,"current_range_meters":36000,"station_id":"ce4bhr12rcd13ifvqhpg","pricing_plan_id":"cebpf4jnsgd1na2vs0mg"},{"bike_id":"933e88ac-d979-43a7-a64b-221565f81a6f","system_id":"levelo_inurba_marseille","lat":43.23957,"lon":5.36631,"is_reserved":false,"is_disabled":false,"rental_uris":{"android":"levelo://app?vid=933e88ac-d979-43a7-a64b-221565f81a6f","ios":"levelo://app?vid=933e88ac-d979-43a7-a64b-221565f81a6f"},"vehicle_type_id":"4","last_reported":1730603992,"current_range_meters":38800,"station_id":"ce4bhi12rcd13ifvqfp0","pricing_plan_id":"cebpf4jnsgd1na2vs0mg"},{"bike_id":"0de993bb-b64a-4032-abce-b87c2b2ec7e9","system_id":"levelo_inurba_marseille","lat":43.28163,"lon":5.42652,"is_reserved":false,"is_disabled":false,"rental_uris":{"android":"levelo://app?vid=0de993bb-b64a-4032-abce-b87c2b2ec7e9","ios":"levelo://app?vid=0de993bb-b64a-4032-abce-b87c2b2ec7e9"},"vehicle_type_id":"4","last_reported":1730603992,"current_range_meters":38800,"station_id":"ce4bhnh2rcd13ifvqgug","pricing_plan_id":"cebpf4jnsgd1na2vs0mg"},{"bike_id":"ad7a53a7-630b-497b-81ac-3627e9827bd3","system_id":"levelo_inurba_marseille","lat":43.26498,"lon":5.39557,"is_reserved":false,"is_disabled":false,"rental_uris":{"android":"levelo://app?vid=ad7a53a7-630b-497b-81ac-3627e9827bd3","ios":"levelo://app?vid=ad7a53a7-630b-497b-81ac-3627e9827bd3"},"vehicle_type_id":"4","last_reported":1730603992,"current_range_meters":37600,"station_id":"ce4bhi12rcd13ifvqfq0","pricing_plan_id":"cebpf4jnsgd1na2vs0mg"},{"bike_id":"354a6fd1-74b0-49f0-98b7-db661db92bd6","system_id":"levelo_inurba_marseille","lat":43.28269,"lon":5.3507,"is_reserved":false,"is_disabled":false,"rental_uris":{"android":"levelo://app?vid=354a6fd1-74b0-49f0-98b7-db661db92bd6","ios":"levelo://app?vid=354a6fd1-74b0-49f0-98b7-db661db92bd6"},"vehicle_type_id":"4","last_reported":1730603992,"current_range_meters":37600,"station_id":"ce4bhbp2rcd13ifvqerg","pricing_plan_id":"cebpf4jnsgd1na2vs0mg"},{"bike_id":"69295eff-cedc-4c7f-b846-077388dbe1b6","system_id":"levelo_inurba_marseille","lat":43.29806,"lon":5.39052,"is_reserved":false,"is_disabled":false,"rental_uris":{"android":"levelo://app?vid=69295eff-cedc-4c7f-b846-077388dbe1b6","ios":"levelo://app?vid=69295eff-cedc-4c7f-b846-077388dbe1b6"},"vehicle_type_id":"4","last_reported":1730603992,"current_range_meters":20000,"station_id":"","pricing_plan_id":"cebpf4jnsgd1na2vs0mg"},{"bike_id":"9ef9444c-bdd9-4c6e-ac63-11514764c079","system_id":"levelo_inurba_marseille","lat":43.29558,"lon":5.42281,"is_reserved":false,"is_disabled":false,"rental_uris":{"android":"levelo://app?vid=9ef9444c-bdd9-4c6e-ac63-11514764c079","ios":"levelo://app?vid=9ef9444c-bdd9-4c6e-ac63-11514764c079"},"vehicle_type_id":"4","last_reported":1730603992,"current_range_meters":32400,"station_id":"ce4bhph2rcd13ifvqhdg","pricing_plan_id":"cebpf4jnsgd1na2vs0mg"},{"bike_id":"da5e546b-59a1-4b3d-9b15-47964e308c96","system_id":"levelo_inurba_marseille","lat":43.29573,"lon":5.39974,"is_reserved":false,"is_disabled":false,"rental_uris":{"android":"levelo://app?vid=da5e546b-59a1-4b3d-9b15-47964e308c96","ios":"levelo://app?vid=da5e546b-59a1-4b3d-9b15-47964e308c96"},"vehicle_type_id":"4","last_reported":1730603992,"current_range_meters":32800,"station_id":"ce4bh312rcd13ifvqdj0","pricing_plan_id":"cebpf4jnsgd1na2vs0mg"},{"bike_id":"fd5904ae-87c2-409c-86c6-cedc16820701","system_id":"levelo_inurba_marseille","lat":43.31174,"lon":5.38712,"is_reserved":false,"is_disabled":false,"rental_uris":{"android":"levelo://app?vid=fd5904ae-87c2-409c-86c6-cedc16820701","ios":"levelo://app?vid=fd5904ae-87c2-409c-86c6-cedc16820701"},"vehicle_type_id":"4","last_reported":1730603992,"current_range_meters":37600,"station_id":"ce4bgv12rcd13ifvqcp0","pricing_plan_id":"cebpf4jnsgd1na2vs0mg"},{"bike_id":"b9fd93d9-e34c-46a8-83b6-0d0cc667a268","system_id":"levelo_inurba_marseille","lat":43.24801,"lon":5.37455,"is_reserved":false,"is_disabled":false,"rental_uris":{"android":"levelo://app?vid=b9fd93d9-e34c-46a8-83b6-0d0cc667a268","ios":"levelo://app?vid=b9fd93d9-e34c-46a8-83b6-0d0cc667a268"},"vehicle_type_id":"4","last_reported":1730603992,"current_range_meters":38000,"station_id":"ce4bhgh2rcd13ifvqfb0","pricing_plan_id":"cebpf4jnsgd1na2vs0mg"},{"bike_id":"2006c763-5d5d-4a90-b0eb-2cbd7baf8745","system_id":"levelo_inurba_marseille","lat":43.29717,"lon":5.39147,"is_reserved":false,"is_disabled":false,"rental_uris":{"android":"levelo://app?vid=2006c763-5d5d-4a90-b0eb-2cbd7baf8745","ios":"levelo://app?vid=2006c763-5d5d-4a90-b0eb-2cbd7baf8745"},"vehicle_type_id":"4","last_reported":1730603992,"current_range_meters":22400,"station_id":"","pricing_plan_id":"cebpf4jnsgd1na2vs0mg"},{"bike_id":"255ea6d3-7ac6-4345-8335-502748145960","system_id":"levelo_inurba_marseille","lat":43.24181,"lon":5.39734,"is_reserved":false,"is_disabled":false,"rental_uris":{"android":"levelo://app?vid=255ea6d3-7ac6-4345-8335-502748145960","ios":"levelo://app?vid=255ea6d3-7ac6-4345-8335-502748145960"},"vehicle_type_id":"4","last_reported":1730603992,"current_range_meters":34800,"station_id":"ce4bhn12rcd13ifvqgpg","pricing_plan_id":"cebpf4jnsgd1na2vs0mg"},{"bike_id":"b71aec61-79a9-4056-9e3a-b2a2b46e4408","system_id":"levelo_inurba_marseille","lat":43.28154,"lon":5.42642,"is_reserved":false,"is_disabled":false,"rental_uris":{"android":"levelo://app?vid=b71aec61-79a9-4056-9e3a-b2a2b46e4408","ios":"levelo://app?vid=b71aec61-79a9-4056-9e3a-b2a2b46e4408"},"vehicle_type_id":"4","last_reported":1730603992,"current_range_meters":18800,"station_id":"ce4bhnh2rcd13ifvqgug","pricing_plan_id":"cebpf4jnsgd1na2vs0mg"},{"bike_id":"a5e5686b-78b3-4a90-88b3-8326b4aff7e8","system_id":"levelo_inurba_marseille","lat":43.31073,"lon":5.38358,"is_reserved":false,"is_disabled":false,"rental_uris":{"android":"levelo://app?vid=a5e5686b-78b3-4a90-88b3-8326b4aff7e8","ios":"levelo://app?vid=a5e5686b-78b3-4a90-88b3-8326b4aff7e8"},"vehicle_type_id":"4","last_reported":1730603992,"current_range_meters":35200,"station_id":"ce4bgv92rcd13ifvqcr0","pricing_plan_id":"cebpf4jnsgd1na2vs0mg"},{"bike_id":"8fc6076b-c1fa-41b1-b819-d80a620d67c9","system_id":"levelo_inurba_marseille","lat":43.29049,"lon":5.35926,"is_reserved":false,"is_disabled":false,"rental_uris":{"android":"levelo://app?vid=8fc6076b-c1fa-41b1-b819-d80a620d67c9","ios":"levelo://app?vid=8fc6076b-c1fa-41b1-b819-d80a620d67c9"},"vehicle_type_id":"4","last_reported":1730603992,"current_range_meters":37600,"station_id":"ce4bha92rcd13ifvqeg0","pricing_plan_id":"cebpf4jnsgd1na2vs0mg"},{"bike_id":"d44c011e-46f8-493c-be76-a26178c2219f","system_id":"levelo_inurba_marseille","lat":43.28673,"lon":5.36364,"is_reserved":false,"is_disabled":false,"rental_uris":{"android":"levelo://app?vid=d44c011e-46f8-493c-be76-a26178c2219f","ios":"levelo://app?vid=d44c011e-46f8-493c-be76-a26178c2219f"},"vehicle_type_id":"4","last_reported":1730603992,"current_range_meters":38800,"station_id":"ce4bhah2rcd13ifvqej0","pricing_plan_id":"cebpf4jnsgd1na2vs0mg"},{"bike_id":"8365c946-beae-47ce-87c4-1094a86c3535","system_id":"levelo_inurba_marseille","lat":43.25122,"lon":5.40321,"is_reserved":false,"is_disabled":false,"rental_uris":{"android":"levelo://app?vid=8365c946-beae-47ce-87c4-1094a86c3535","ios":"levelo://app?vid=8365c946-beae-47ce-87c4-1094a86c3535"},"vehicle_type_id":"4","last_reported":1730603992,"current_range_meters":38800,"station_id":"ce4bhlh2rcd13ifvqgig","pricing_plan_id":"cebpf4jnsgd1na2vs0mg"},{"bike_id":"1891da9e-84eb-4db0-8985-88dfff9d5a7d","system_id":"levelo_inurba_marseille","lat":43.30421,"lon":5.41282,"is_reserved":false,"is_disabled":false,"rental_uris":{"android":"levelo://app?vid=1891da9e-84eb-4db0-8985-88dfff9d5a7d","ios":"levelo://app?vid=1891da9e-84eb-4db0-8985-88dfff9d5a7d"},"vehicle_type_id":"4","last_reported":1730603992,"current_range_meters":24800,"station_id":"ce4bhop2rcd13ifvqh8g","pricing_plan_id":"cebpf4jnsgd1na2vs0mg"},{"bike_id":"5a16a1d7-fcff-4bbb-a040-afd12b10f6b1","system_id":"levelo_inurba_marseille","lat":43.30803,"lon":5.38152,"is_reserved":false,"is_disabled":false,"rental_uris":{"android":"levelo://app?vid=5a16a1d7-fcff-4bbb-a040-afd12b10f6b1","ios":"levelo://app?vid=5a16a1d7-fcff-4bbb-a040-afd12b10f6b1"},"vehicle_type_id":"4","last_reported":1730603992,"current_range_meters":39200,"station_id":"ce4bgt12rcd13ifvqce0","pricing_plan_id":"cebpf4jnsgd1na2vs0mg"},{"bike_id":"6ad55cdf-2774-45a0-a6bf-37c2c4a8a57c","system_id":"levelo_inurba_marseille","lat":43.28477,"lon":5.38406,"is_reserved":false,"is_disabled":false,"rental_uris":{"android":"levelo://app?vid=6ad55cdf-2774-45a0-a6bf-37c2c4a8a57c","ios":"levelo://app?vid=6ad55cdf-2774-45a0-a6bf-37c2c4a8a57c"},"vehicle_type_id":"4","last_reported":1730603992,"current_range_meters":4000,"station_id":"ce4bh512rcd13ifvqe3g","pricing_plan_id":"cebpf4jnsgd1na2vs0mg"},{"bike_id":"8415b057-9b50-4fe5-80f4-bcd9c5e9cdef","system_id":"levelo_inurba_marseille","lat":43.28034,"lon":5.3694,"is_reserved":false,"is_disabled":false,"rental_uris":{"android":"levelo://app?vid=8415b057-9b50-4fe5-80f4-bcd9c5e9cdef","ios":"levelo://app?vid=8415b057-9b50-4fe5-80f4-bcd9c5e9cdef"},"vehicle_type_id":"4","last_reported":1730603992,"current_range_meters":6400,"station_id":"ce4bha12rcd13ifvqef0","pricing_plan_id":"cebpf4jnsgd1na2vs0mg"},{"bike_id":"1b760ddd-e34d-491f-9c82-3266310982c8","system_id":"levelo_inurba_marseille","lat":43.26563,"lon":5.37286,"is_reserved":false,"is_disabled":false,"rental_uris":{"android":"levelo://app?vid=1b760ddd-e34d-491f-9c82-3266310982c8","ios":"levelo://app?vid=1b760ddd-e34d-491f-9c82-3266310982c8"},"vehicle_type_id":"4","last_reported":1730603992,"current_range_meters":5600,"station_id":"ce4bhg12rcd13ifvqf70","pricing_plan_id":"cebpf4jnsgd1na2vs0mg"},{"bike_id":"f23be71f-f673-44e6-b886-5c52a18cc4aa","system_id":"levelo_inurba_marseille","lat":43.284068,"lon":5.375168,"is_reserved":false,"is_disabled":false,"rental_uris":{"android":"levelo://app?vid=f23be71f-f673-44e6-b886-5c52a18cc4aa","ios":"levelo://app?vid=f23be71f-f673-44e6-b886-5c52a18cc4aa"},"vehicle_type_id":"4","last_reported":1730603992,"current_range_meters":38800,"station_id":"ce4bh412rcd13ifvqds0","pricing_plan_id":"cebpf4jnsgd1na2vs0mg"},{"bike_id":"c5f21006-d62c-4ee5-b5d2-a3e69bef4285","system_id":"levelo_inurba_marseille","lat":43.29271,"lon":5.40126,"is_reserved":false,"is_disabled":false,"rental_uris":{"android":"levelo://app?vid=c5f21006-d62c-4ee5-b5d2-a3e69bef4285","ios":"levelo://app?vid=c5f21006-d62c-4ee5-b5d2-a3e69bef4285"},"vehicle_type_id":"4","last_reported":1730603992,"current_range_meters":28000,"station_id":"ce4bh312rcd13ifvqdk0","pricing_plan_id":"cebpf4jnsgd1na2vs0mg"},{"bike_id":"b5c19e9a-d6cf-43a9-903b-707cf3abac38","system_id":"levelo_inurba_marseille","lat":43.28731,"lon":5.36099,"is_reserved":false,"is_disabled":false,"rental_uris":{"android":"levelo://app?vid=b5c19e9a-d6cf-43a9-903b-707cf3abac38","ios":"levelo://app?vid=b5c19e9a-d6cf-43a9-903b-707cf3abac38"},"vehicle_type_id":"4","last_reported":1730603992,"current_range_meters":35600,"station_id":"cki0cbj6b192h4jlfktg","pricing_plan_id":"cebpf4jnsgd1na2vs0mg"},{"bike_id":"d3ae8054-535d-4288-b44c-84c3071021e3","system_id":"levelo_inurba_marseille","lat":43.25121,"lon":5.40322,"is_reserved":false,"is_disabled":false,"rental_uris":{"android":"levelo://app?vid=d3ae8054-535d-4288-b44c-84c3071021e3","ios":"levelo://app?vid=d3ae8054-535d-4288-b44c-84c3071021e3"},"vehicle_type_id":"4","last_reported":1730603992,"current_range_meters":16400,"station_id":"ce4bhlh2rcd13ifvqgig","pricing_plan_id":"cebpf4jnsgd1na2vs0mg"},{"bike_id":"38f76228-741a-4f06-9884-77f77e60cf4a","system_id":"levelo_inurba_marseille","lat":43.230691,"lon":5.40494,"is_reserved":false,"is_disabled":false,"rental_uris":{"android":"levelo://app?vid=38f76228-741a-4f06-9884-77f77e60cf4a","ios":"levelo://app?vid=38f76228-741a-4f06-9884-77f77e60cf4a"},"vehicle_type_id":"4","last_reported":1730603992,"current_range_meters":8000,"station_id":"","pricing_plan_id":"cebpf4jnsgd1na2vs0mg"},{"bike_id":"1e337e8c-1ba4-4386-ae7f-0381fae966f8","system_id":"levelo_inurba_marseille","lat":43.317048,"lon":5.377469,"is_reserved":false,"is_disabled":false,"rental_uris":{"android":"levelo://app?vid=1e337e8c-1ba4-4386-ae7f-0381fae966f8","ios":"levelo://app?vid=1e337e8c-1ba4-4386-ae7f-0381fae966f8"},"vehicle_type_id":"4","last_reported":1730603992,"current_range_meters":32800,"station_id":"ce4bgth2rcd13ifvqch0","pricing_plan_id":"cebpf4jnsgd1na2vs0mg"},{"bike_id":"61497ec0-6b91-4085-893e-2dc4cbab5392","system_id":"levelo_inurba_marseille","lat":43.32371,"lon":5.38896,"is_reserved":false,"is_disabled":false,"rental_uris":{"android":"levelo://app?vid=61497ec0-6b91-4085-893e-2dc4cbab5392","ios":"levelo://app?vid=61497ec0-6b91-4085-893e-2dc4cbab5392"},"vehicle_type_id":"4","last_reported":1730603992,"current_range_meters":24800,"station_id":"ce4bhqp2rcd13ifvqhog","pricing_plan_id":"cebpf4jnsgd1na2vs0mg"},{"bike_id":"21f0deb2-cc7f-4625-b4fb-7f1b443a14ac","system_id":"levelo_inurba_marseille","lat":43.283752,"lon":5.386361,"is_reserved":false,"is_disabled":false,"rental_uris":{"android":"levelo://app?vid=21f0deb2-cc7f-4625-b4fb-7f1b443a14ac","ios":"levelo://app?vid=21f0deb2-cc7f-4625-b4fb-7f1b443a14ac"},"vehicle_type_id":"4","last_reported":1730603992,"current_range_meters":33600,"station_id":"ce4bh492rcd13ifvqdvg","pricing_plan_id":"cebpf4jnsgd1na2vs0mg"},{"bike_id":"889215a8-e707-4816-a3e4-27d415c3aab1","system_id":"levelo_inurba_marseille","lat":43.29275,"lon":5.40149,"is_reserved":false,"is_disabled":false,"rental_uris":{"android":"levelo://app?vid=889215a8-e707-4816-a3e4-27d415c3aab1","ios":"levelo://app?vid=889215a8-e707-4816-a3e4-27d415c3aab1"},"vehicle_type_id":"4","last_reported":1730603992,"current_range_meters":38000,"station_id":"ce4bh312rcd13ifvqdk0","pricing_plan_id":"cebpf4jnsgd1na2vs0mg"},{"bike_id":"2d1b510e-28ee-43bd-99a9-d8972623938f","system_id":"levelo_inurba_marseille","lat":43.28402,"lon":5.37524,"is_reserved":false,"is_disabled":false,"rental_uris":{"android":"levelo://app?vid=2d1b510e-28ee-43bd-99a9-d8972623938f","ios":"levelo://app?vid=2d1b510e-28ee-43bd-99a9-d8972623938f"},"vehicle_type_id":"4","last_reported":1730603992,"current_range_meters":11200,"station_id":"ce4bh412rcd13ifvqds0","pricing_plan_id":"cebpf4jnsgd1na2vs0mg"},{"bike_id":"e55d8d6f-7394-4584-af8a-c65aaa7989ef","system_id":"levelo_inurba_marseille","lat":43.26068,"lon":5.39393,"is_reserved":false,"is_disabled":false,"rental_uris":{"android":"levelo://app?vid=e55d8d6f-7394-4584-af8a-c65aaa7989ef","ios":"levelo://app?vid=e55d8d6f-7394-4584-af8a-c65aaa7989ef"},"vehicle_type_id":"4","last_reported":1730603992,"current_range_meters":7200,"station_id":"ce4bhh92rcd13ifvqfj0","pricing_plan_id":"cebpf4jnsgd1na2vs0mg"},{"bike_id":"2171b370-882b-48fc-80a1-24884f7d3b56","system_id":"levelo_inurba_marseille","lat":43.30538,"lon":5.38429,"is_reserved":false,"is_disabled":false,"rental_uris":{"android":"levelo://app?vid=2171b370-882b-48fc-80a1-24884f7d3b56","ios":"levelo://app?vid=2171b370-882b-48fc-80a1-24884f7d3b56"},"vehicle_type_id":"4","last_reported":1730603992,"current_range_meters":38800,"station_id":"ce4bgg92rcd13ifvqb30","pricing_plan_id":"cebpf4jnsgd1na2vs0mg"},{"bike_id":"d3f56f17-ac1a-464c-b9d7-9bc3311153ab","system_id":"levelo_inurba_marseille","lat":43.24668,"lon":5.3816,"is_reserved":false,"is_disabled":false,"rental_uris":{"android":"levelo://app?vid=d3f56f17-ac1a-464c-b9d7-9bc3311153ab","ios":"levelo://app?vid=d3f56f17-ac1a-464c-b9d7-9bc3311153ab"},"vehicle_type_id":"4","last_reported":1730603992,"current_range_meters":6800,"station_id":"ce4bhih2rcd13ifvqfr0","pricing_plan_id":"cebpf4jnsgd1na2vs0mg"},{"bike_id":"c9836de4-dae6-4bfc-aef6-8b7c0c537e63","system_id":"levelo_inurba_marseille","lat":43.25869,"lon":5.39898,"is_reserved":false,"is_disabled":false,"rental_uris":{"android":"levelo://app?vid=c9836de4-dae6-4bfc-aef6-8b7c0c537e63","ios":"levelo://app?vid=c9836de4-dae6-4bfc-aef6-8b7c0c537e63"},"vehicle_type_id":"4","last_reported":1730603992,"current_range_meters":38800,"station_id":"ce4bhl92rcd13ifvqghg","pricing_plan_id":"cebpf4jnsgd1na2vs0mg"},{"bike_id":"3a63cdb9-541a-46b5-b98d-4808f2a40168","system_id":"levelo_inurba_marseille","lat":43.29445,"lon":5.39752,"is_reserved":false,"is_disabled":false,"rental_uris":{"android":"levelo://app?vid=3a63cdb9-541a-46b5-b98d-4808f2a40168","ios":"levelo://app?vid=3a63cdb9-541a-46b5-b98d-4808f2a40168"},"vehicle_type_id":"4","last_reported":1730603992,"current_range_meters":22000,"station_id":"ce4bh3h2rcd13ifvqdo0","pricing_plan_id":"cebpf4jnsgd1na2vs0mg"},{"bike_id":"38475408-a590-43ad-9d81-70bf6c6edf3e","system_id":"levelo_inurba_marseille","lat":43.28272,"lon":5.35078,"is_reserved":false,"is_disabled":false,"rental_uris":{"android":"levelo://app?vid=38475408-a590-43ad-9d81-70bf6c6edf3e","ios":"levelo://app?vid=38475408-a590-43ad-9d81-70bf6c6edf3e"},"vehicle_type_id":"4","last_reported":1730603992,"current_range_meters":38800,"station_id":"ce4bhbp2rcd13ifvqerg","pricing_plan_id":"cebpf4jnsgd1na2vs0mg"},{"bike_id":"529faf86-6b7c-4adc-b233-8e2adc8826d2","system_id":"levelo_inurba_marseille","lat":43.24804,"lon":5.37459,"is_reserved":false,"is_disabled":false,"rental_uris":{"android":"levelo://app?vid=529faf86-6b7c-4adc-b233-8e2adc8826d2","ios":"levelo://app?vid=529faf86-6b7c-4adc-b233-8e2adc8826d2"},"vehicle_type_id":"4","last_reported":1730603992,"current_range_meters":38800,"station_id":"ce4bhgh2rcd13ifvqfb0","pricing_plan_id":"cebpf4jnsgd1na2vs0mg"},{"bike_id":"76867c33-2a30-4764-ab43-24e998b967a2","system_id":"levelo_inurba_marseille","lat":43.25,"lon":5.38931,"is_reserved":false,"is_disabled":false,"rental_uris":{"android":"levelo://app?vid=76867c33-2a30-4764-ab43-24e998b967a2","ios":"levelo://app?vid=76867c33-2a30-4764-ab43-24e998b967a2"},"vehicle_type_id":"4","last_reported":1730603992,"current_range_meters":38800,"station_id":"ce4bhgp2rcd13ifvqfd0","pricing_plan_id":"cebpf4jnsgd1na2vs0mg"},{"bike_id":"e712b4bf-48ef-4b84-aa58-a26dceb1077d","system_id":"levelo_inurba_marseille","lat":43.24678,"lon":5.38164,"is_reserved":false,"is_disabled":false,"rental_uris":{"android":"levelo://app?vid=e712b4bf-48ef-4b84-aa58-a26dceb1077d","ios":"levelo://app?vid=e712b4bf-48ef-4b84-aa58-a26dceb1077d"},"vehicle_type_id":"4","last_reported":1730603992,"current_range_meters":33200,"station_id":"ce4bhih2rcd13ifvqfr0","pricing_plan_id":"cebpf4jnsgd1na2vs0mg"},{"bike_id":"49f0f2d2-d3bb-4098-8c41-801a52b040be","system_id":"levelo_inurba_marseille","lat":43.28332,"lon":5.38099,"is_reserved":false,"is_disabled":false,"rental_uris":{"android":"levelo://app?vid=49f0f2d2-d3bb-4098-8c41-801a52b040be","ios":"levelo://app?vid=49f0f2d2-d3bb-4098-8c41-801a52b040be"},"vehicle_type_id":"4","last_reported":1730603992,"current_range_meters":38400,"station_id":"ce4bh412rcd13ifvqdr0","pricing_plan_id":"cebpf4jnsgd1na2vs0mg"},{"bike_id":"d4472d20-9c4b-4c70-ad00-3a005519a429","system_id":"levelo_inurba_marseille","lat":43.35434,"lon":5.35725,"is_reserved":false,"is_disabled":false,"rental_uris":{"android":"levelo://app?vid=d4472d20-9c4b-4c70-ad00-3a005519a429","ios":"levelo://app?vid=d4472d20-9c4b-4c70-ad00-3a005519a429"},"vehicle_type_id":"4","last_reported":1730603992,"current_range_meters":17600,"station_id":"","pricing_plan_id":"cebpf4jnsgd1na2vs0mg"},{"bike_id":"6338020e-474a-4c99-b365-eea26fe54739","system_id":"levelo_inurba_marseille","lat":43.32288,"lon":5.38278,"is_reserved":false,"is_disabled":false,"rental_uris":{"android":"levelo://app?vid=6338020e-474a-4c99-b365-eea26fe54739","ios":"levelo://app?vid=6338020e-474a-4c99-b365-eea26fe54739"},"vehicle_type_id":"4","last_reported":1730603992,"current_range_meters":38800,"station_id":"ce4bhr12rcd13ifvqhqg","pricing_plan_id":"cebpf4jnsgd1na2vs0mg"},{"bike_id":"7dc33034-781d-4ebf-9295-58711817662e","system_id":"levelo_inurba_marseille","lat":43.28711,"lon":5.39988,"is_reserved":false,"is_disabled":false,"rental_uris":{"android":"levelo://app?vid=7dc33034-781d-4ebf-9295-58711817662e","ios":"levelo://app?vid=7dc33034-781d-4ebf-9295-58711817662e"},"vehicle_type_id":"4","last_reported":1730603992,"current_range_meters":19600,"station_id":"ce4bho92rcd13ifvqh3g","pricing_plan_id":"cebpf4jnsgd1na2vs0mg"},{"bike_id":"d2bbd494-df5d-4e7a-8e92-a7ee8ed7c076","system_id":"levelo_inurba_marseille","lat":43.28719,"lon":5.37936,"is_reserved":false,"is_disabled":false,"rental_uris":{"android":"levelo://app?vid=d2bbd494-df5d-4e7a-8e92-a7ee8ed7c076","ios":"levelo://app?vid=d2bbd494-df5d-4e7a-8e92-a7ee8ed7c076"},"vehicle_type_id":"4","last_reported":1730603992,"current_range_meters":14800,"station_id":"ce4bh9p2rcd13ifvqec0","pricing_plan_id":"cebpf4jnsgd1na2vs0mg"},{"bike_id":"ccf8f0af-3836-45e1-85d1-316001fc9f42","system_id":"levelo_inurba_marseille","lat":43.28696,"lon":5.37376,"is_reserved":false,"is_disabled":false,"rental_uris":{"android":"levelo://app?vid=ccf8f0af-3836-45e1-85d1-316001fc9f42","ios":"levelo://app?vid=ccf8f0af-3836-45e1-85d1-316001fc9f42"},"vehicle_type_id":"4","last_reported":1730603992,"current_range_meters":39200,"station_id":"ce4bh3p2rcd13ifvqdq0","pricing_plan_id":"cebpf4jnsgd1na2vs0mg"},{"bike_id":"99081d31-0c8e-498b-8e95-c319e84336b8","system_id":"levelo_inurba_marseille","lat":43.29017,"lon":5.3561,"is_reserved":false,"is_disabled":false,"rental_uris":{"android":"levelo://app?vid=99081d31-0c8e-498b-8e95-c319e84336b8","ios":"levelo://app?vid=99081d31-0c8e-498b-8e95-c319e84336b8"},"vehicle_type_id":"4","last_reported":1730603992,"current_range_meters":38800,"station_id":"ce4bhb92rcd13ifvqen0","pricing_plan_id":"cebpf4jnsgd1na2vs0mg"},{"bike_id":"16e32bf6-1a84-4f79-ae36-67e8fc527be4","system_id":"levelo_inurba_marseille","lat":43.30641,"lon":5.40088,"is_reserved":false,"is_disabled":false,"rental_uris":{"android":"levelo://app?vid=16e32bf6-1a84-4f79-ae36-67e8fc527be4","ios":"levelo://app?vid=16e32bf6-1a84-4f79-ae36-67e8fc527be4"},"vehicle_type_id":"4","last_reported":1730603992,"current_range_meters":38800,"station_id":"ce4bh112rcd13ifvqda0","pricing_plan_id":"cebpf4jnsgd1na2vs0mg"},{"bike_id":"c75783be-3c14-4f9d-98a2-e74758d1ce23","system_id":"levelo_inurba_marseille","lat":43.28278,"lon":5.35077,"is_reserved":false,"is_disabled":false,"rental_uris":{"android":"levelo://app?vid=c75783be-3c14-4f9d-98a2-e74758d1ce23","ios":"levelo://app?vid=c75783be-3c14-4f9d-98a2-e74758d1ce23"},"vehicle_type_id":"4","last_reported":1730603992,"current_range_meters":36400,"station_id":"ce4bhbp2rcd13ifvqerg","pricing_plan_id":"cebpf4jnsgd1na2vs0mg"},{"bike_id":"355ca52e-438b-476e-b77f-32a71a706438","system_id":"levelo_inurba_marseille","lat":43.300961,"lon":5.390734,"is_reserved":false,"is_disabled":false,"rental_uris":{"android":"levelo://app?vid=355ca52e-438b-476e-b77f-32a71a706438","ios":"levelo://app?vid=355ca52e-438b-476e-b77f-32a71a706438"},"vehicle_type_id":"4","last_reported":1730603992,"current_range_meters":38800,"station_id":"ce4bh192rcd13ifvqdb0","pricing_plan_id":"cebpf4jnsgd1na2vs0mg"},{"bike_id":"3077ce80-fe5b-4574-b2aa-2e026574bced","system_id":"levelo_inurba_marseille","lat":43.30809,"lon":5.38161,"is_reserved":false,"is_disabled":false,"rental_uris":{"android":"levelo://app?vid=3077ce80-fe5b-4574-b2aa-2e026574bced","ios":"levelo://app?vid=3077ce80-fe5b-4574-b2aa-2e026574bced"},"vehicle_type_id":"4","last_reported":1730603992,"current_range_meters":38000,"station_id":"ce4bgt12rcd13ifvqce0","pricing_plan_id":"cebpf4jnsgd1na2vs0mg"},{"bike_id":"d38e2970-cd95-460c-8752-b0514e97e786","system_id":"levelo_inurba_marseille","lat":43.30653,"lon":5.40071,"is_reserved":false,"is_disabled":false,"rental_uris":{"android":"levelo://app?vid=d38e2970-cd95-460c-8752-b0514e97e786","ios":"levelo://app?vid=d38e2970-cd95-460c-8752-b0514e97e786"},"vehicle_type_id":"4","last_reported":1730603992,"current_range_meters":35600,"station_id":"ce4bh112rcd13ifvqda0","pricing_plan_id":"cebpf4jnsgd1na2vs0mg"},{"bike_id":"7d1d8b3c-0803-4bf6-9721-d7161499653f","system_id":"levelo_inurba_marseille","lat":43.24075,"lon":5.37755,"is_reserved":false,"is_disabled":false,"rental_uris":{"android":"levelo://app?vid=7d1d8b3c-0803-4bf6-9721-d7161499653f","ios":"levelo://app?vid=7d1d8b3c-0803-4bf6-9721-d7161499653f"},"vehicle_type_id":"4","last_reported":1730603992,"current_range_meters":22800,"station_id":"ce4bhnp2rcd13ifvqgvg","pricing_plan_id":"cebpf4jnsgd1na2vs0mg"},{"bike_id":"f35cd096-8317-409a-9875-97da0ea574d4","system_id":"levelo_inurba_marseille","lat":43.325333,"lon":5.414571,"is_reserved":false,"is_disabled":false,"rental_uris":{"android":"levelo://app?vid=f35cd096-8317-409a-9875-97da0ea574d4","ios":"levelo://app?vid=f35cd096-8317-409a-9875-97da0ea574d4"},"vehicle_type_id":"4","last_reported":1730603992,"current_range_meters":38000,"station_id":"ce4bhq12rcd13ifvqhhg","pricing_plan_id":"cebpf4jnsgd1na2vs0mg"},{"bike_id":"75dcde3b-e30e-49c9-94a8-71caa44482f1","system_id":"levelo_inurba_marseille","lat":43.31537,"lon":5.38034,"is_reserved":false,"is_disabled":false,"rental_uris":{"android":"levelo://app?vid=75dcde3b-e30e-49c9-94a8-71caa44482f1","ios":"levelo://app?vid=75dcde3b-e30e-49c9-94a8-71caa44482f1"},"vehicle_type_id":"4","last_reported":1730603992,"current_range_meters":38800,"station_id":"ce4bhsp2rcd13ifvqi50","pricing_plan_id":"cebpf4jnsgd1na2vs0mg"},{"bike_id":"cd194c66-cb39-46cf-9fd8-b3971b5f865f","system_id":"levelo_inurba_marseille","lat":43.31476,"lon":5.37314,"is_reserved":false,"is_disabled":false,"rental_uris":{"android":"levelo://app?vid=cd194c66-cb39-46cf-9fd8-b3971b5f865f","ios":"levelo://app?vid=cd194c66-cb39-46cf-9fd8-b3971b5f865f"},"vehicle_type_id":"4","last_reported":1730603992,"current_range_meters":30000,"station_id":"ce4bgt12rcd13ifvqcd0","pricing_plan_id":"cebpf4jnsgd1na2vs0mg"},{"bike_id":"1ddde7ff-3953-4942-bfab-1d2712b93546","system_id":"levelo_inurba_marseille","lat":43.31712,"lon":5.37758,"is_reserved":false,"is_disabled":false,"rental_uris":{"android":"levelo://app?vid=1ddde7ff-3953-4942-bfab-1d2712b93546","ios":"levelo://app?vid=1ddde7ff-3953-4942-bfab-1d2712b93546"},"vehicle_type_id":"4","last_reported":1730603992,"current_range_meters":38800,"station_id":"ce4bgth2rcd13ifvqch0","pricing_plan_id":"cebpf4jnsgd1na2vs0mg"},{"bike_id":"7261abbc-bef1-40b4-8225-29e060af6a97","system_id":"levelo_inurba_marseille","lat":43.27988,"lon":5.41664,"is_reserved":false,"is_disabled":false,"rental_uris":{"android":"levelo://app?vid=7261abbc-bef1-40b4-8225-29e060af6a97","ios":"levelo://app?vid=7261abbc-bef1-40b4-8225-29e060af6a97"},"vehicle_type_id":"4","last_reported":1730603992,"current_range_meters":38400,"station_id":"ce4bho12rcd13ifvqh1g","pricing_plan_id":"cebpf4jnsgd1na2vs0mg"},{"bike_id":"1d9cf179-b508-4afd-8083-368b80ce465d","system_id":"levelo_inurba_marseille","lat":43.25823,"lon":5.39429,"is_reserved":false,"is_disabled":false,"rental_uris":{"android":"levelo://app?vid=1d9cf179-b508-4afd-8083-368b80ce465d","ios":"levelo://app?vid=1d9cf179-b508-4afd-8083-368b80ce465d"},"vehicle_type_id":"4","last_reported":1730603992,"current_range_meters":28400,"station_id":"ce4bhip2rcd13ifvqft0","pricing_plan_id":"cebpf4jnsgd1na2vs0mg"},{"bike_id":"18402065-9e87-476b-95ad-30853de181a0","system_id":"levelo_inurba_marseille","lat":43.32455,"lon":5.45543,"is_reserved":false,"is_disabled":false,"rental_uris":{"android":"levelo://app?vid=18402065-9e87-476b-95ad-30853de181a0","ios":"levelo://app?vid=18402065-9e87-476b-95ad-30853de181a0"},"vehicle_type_id":"4","last_reported":1730603992,"current_range_meters":4800,"station_id":"","pricing_plan_id":"cebpf4jnsgd1na2vs0mg"},{"bike_id":"2573c78b-8e91-4015-bba1-598cab8ef4ef","system_id":"levelo_inurba_marseille","lat":43.29277,"lon":5.40139,"is_reserved":false,"is_disabled":false,"rental_uris":{"android":"levelo://app?vid=2573c78b-8e91-4015-bba1-598cab8ef4ef","ios":"levelo://app?vid=2573c78b-8e91-4015-bba1-598cab8ef4ef"},"vehicle_type_id":"4","last_reported":1730603992,"current_range_meters":37600,"station_id":"ce4bh312rcd13ifvqdk0","pricing_plan_id":"cebpf4jnsgd1na2vs0mg"},{"bike_id":"eec19395-2e17-468b-b160-2203495fa39c","system_id":"levelo_inurba_marseille","lat":43.28703,"lon":5.39987,"is_reserved":false,"is_disabled":false,"rental_uris":{"android":"levelo://app?vid=eec19395-2e17-468b-b160-2203495fa39c","ios":"levelo://app?vid=eec19395-2e17-468b-b160-2203495fa39c"},"vehicle_type_id":"4","last_reported":1730603992,"current_range_meters":28000,"station_id":"ce4bho92rcd13ifvqh3g","pricing_plan_id":"cebpf4jnsgd1na2vs0mg"},{"bike_id":"4eb01b0d-49fc-48ee-b782-54d621657f1b","system_id":"levelo_inurba_marseille","lat":43.31896,"lon":5.40753,"is_reserved":false,"is_disabled":false,"rental_uris":{"android":"levelo://app?vid=4eb01b0d-49fc-48ee-b782-54d621657f1b","ios":"levelo://app?vid=4eb01b0d-49fc-48ee-b782-54d621657f1b"},"vehicle_type_id":"4","last_reported":1730603992,"current_range_meters":33200,"station_id":"ce4bhq12rcd13ifvqhig","pricing_plan_id":"cebpf4jnsgd1na2vs0mg"},{"bike_id":"1ca681a2-fca5-45e3-b510-c783aa846eaa","system_id":"levelo_inurba_marseille","lat":43.28574,"lon":5.39522,"is_reserved":false,"is_disabled":false,"rental_uris":{"android":"levelo://app?vid=1ca681a2-fca5-45e3-b510-c783aa846eaa","ios":"levelo://app?vid=1ca681a2-fca5-45e3-b510-c783aa846eaa"},"vehicle_type_id":"4","last_reported":1730603992,"current_range_meters":26000,"station_id":"ce4bh292rcd13ifvqdg0","pricing_plan_id":"cebpf4jnsgd1na2vs0mg"},{"bike_id":"28770d90-a747-4aa7-b51e-4e499c6f7582","system_id":"levelo_inurba_marseille","lat":43.33728,"lon":5.39179,"is_reserved":false,"is_disabled":false,"rental_uris":{"android":"levelo://app?vid=28770d90-a747-4aa7-b51e-4e499c6f7582","ios":"levelo://app?vid=28770d90-a747-4aa7-b51e-4e499c6f7582"},"vehicle_type_id":"4","last_reported":1730603992,"current_range_meters":30400,"station_id":"ce4bhr92rcd13ifvqhsg","pricing_plan_id":"cebpf4jnsgd1na2vs0mg"},{"bike_id":"d85910d8-d412-4b12-a122-3b51215851f8","system_id":"levelo_inurba_marseille","lat":43.31074,"lon":5.38362,"is_reserved":false,"is_disabled":false,"rental_uris":{"android":"levelo://app?vid=d85910d8-d412-4b12-a122-3b51215851f8","ios":"levelo://app?vid=d85910d8-d412-4b12-a122-3b51215851f8"},"vehicle_type_id":"4","last_reported":1730603992,"current_range_meters":32000,"station_id":"ce4bgv92rcd13ifvqcr0","pricing_plan_id":"cebpf4jnsgd1na2vs0mg"},{"bike_id":"61f26f1a-3012-4bcc-bbf3-435c78ebab81","system_id":"levelo_inurba_marseille","lat":43.27926,"lon":5.39572,"is_reserved":false,"is_disabled":false,"rental_uris":{"android":"levelo://app?vid=61f26f1a-3012-4bcc-bbf3-435c78ebab81","ios":"levelo://app?vid=61f26f1a-3012-4bcc-bbf3-435c78ebab81"},"vehicle_type_id":"4","last_reported":1730603992,"current_range_meters":27600,"station_id":"ce4bhf92rcd13ifvqf40","pricing_plan_id":"cebpf4jnsgd1na2vs0mg"},{"bike_id":"641b0db7-7360-4136-aa22-f190f407c863","system_id":"levelo_inurba_marseille","lat":43.29796,"lon":5.39349,"is_reserved":false,"is_disabled":false,"rental_uris":{"android":"levelo://app?vid=641b0db7-7360-4136-aa22-f190f407c863","ios":"levelo://app?vid=641b0db7-7360-4136-aa22-f190f407c863"},"vehicle_type_id":"4","last_reported":1730603992,"current_range_meters":24000,"station_id":"chh1huq6cuj3fo74tm60","pricing_plan_id":"cebpf4jnsgd1na2vs0mg"},{"bike_id":"751eec01-23b0-49aa-a2a3-e2d658155f8b","system_id":"levelo_inurba_marseille","lat":43.271846,"lon":5.40991,"is_reserved":false,"is_disabled":false,"rental_uris":{"android":"levelo://app?vid=751eec01-23b0-49aa-a2a3-e2d658155f8b","ios":"levelo://app?vid=751eec01-23b0-49aa-a2a3-e2d658155f8b"},"vehicle_type_id":"4","last_reported":1730603992,"current_range_meters":38800,"station_id":"ce4bhl12rcd13ifvqgf0","pricing_plan_id":"cebpf4jnsgd1na2vs0mg"},{"bike_id":"c7a6a60a-ebc3-43dc-847c-5817f23f3b49","system_id":"levelo_inurba_marseille","lat":43.25723,"lon":5.41105,"is_reserved":false,"is_disabled":false,"rental_uris":{"android":"levelo://app?vid=c7a6a60a-ebc3-43dc-847c-5817f23f3b49","ios":"levelo://app?vid=c7a6a60a-ebc3-43dc-847c-5817f23f3b49"},"vehicle_type_id":"4","last_reported":1730603992,"current_range_meters":8000,"station_id":"ce4bhkp2rcd13ifvqgd0","pricing_plan_id":"cebpf4jnsgd1na2vs0mg"},{"bike_id":"18d27624-2602-4653-ba11-7dedb28b39c0","system_id":"levelo_inurba_marseille","lat":43.30932,"lon":5.40148,"is_reserved":false,"is_disabled":false,"rental_uris":{"android":"levelo://app?vid=18d27624-2602-4653-ba11-7dedb28b39c0","ios":"levelo://app?vid=18d27624-2602-4653-ba11-7dedb28b39c0"},"vehicle_type_id":"4","last_reported":1730603992,"current_range_meters":25600,"station_id":"ce4bgvp2rcd13ifvqct0","pricing_plan_id":"cebpf4jnsgd1na2vs0mg"},{"bike_id":"1b22afb1-e566-455d-9848-d8ff891e663e","system_id":"levelo_inurba_marseille","lat":43.25124,"lon":5.40326,"is_reserved":false,"is_disabled":false,"rental_uris":{"android":"levelo://app?vid=1b22afb1-e566-455d-9848-d8ff891e663e","ios":"levelo://app?vid=1b22afb1-e566-455d-9848-d8ff891e663e"},"vehicle_type_id":"4","last_reported":1730603992,"current_range_meters":26000,"station_id":"ce4bhlh2rcd13ifvqgig","pricing_plan_id":"cebpf4jnsgd1na2vs0mg"},{"bike_id":"5a03d747-93d7-48f0-9f0e-1fd4e041e5ae","system_id":"levelo_inurba_marseille","lat":43.30098,"lon":5.39083,"is_reserved":false,"is_disabled":false,"rental_uris":{"android":"levelo://app?vid=5a03d747-93d7-48f0-9f0e-1fd4e041e5ae","ios":"levelo://app?vid=5a03d747-93d7-48f0-9f0e-1fd4e041e5ae"},"vehicle_type_id":"4","last_reported":1730603992,"current_range_meters":38800,"station_id":"ce4bh192rcd13ifvqdb0","pricing_plan_id":"cebpf4jnsgd1na2vs0mg"},{"bike_id":"0bbdb248-f4da-4d2c-bd87-5a0fa0739dd4","system_id":"levelo_inurba_marseille","lat":43.2407,"lon":5.37762,"is_reserved":false,"is_disabled":false,"rental_uris":{"android":"levelo://app?vid=0bbdb248-f4da-4d2c-bd87-5a0fa0739dd4","ios":"levelo://app?vid=0bbdb248-f4da-4d2c-bd87-5a0fa0739dd4"},"vehicle_type_id":"4","last_reported":1730603992,"current_range_meters":11200,"station_id":"ce4bhnp2rcd13ifvqgvg","pricing_plan_id":"cebpf4jnsgd1na2vs0mg"},{"bike_id":"37fe25be-a49e-4e62-a3e8-43f60282b067","system_id":"levelo_inurba_marseille","lat":43.28607,"lon":5.37068,"is_reserved":false,"is_disabled":false,"rental_uris":{"android":"levelo://app?vid=37fe25be-a49e-4e62-a3e8-43f60282b067","ios":"levelo://app?vid=37fe25be-a49e-4e62-a3e8-43f60282b067"},"vehicle_type_id":"4","last_reported":1730603992,"current_range_meters":24000,"station_id":"ce4bht12rcd13ifvqi60","pricing_plan_id":"cebpf4jnsgd1na2vs0mg"},{"bike_id":"c1e3f1fb-a976-4c88-946a-c0964acf9cad","system_id":"levelo_inurba_marseille","lat":43.27569,"lon":5.38422,"is_reserved":false,"is_disabled":false,"rental_uris":{"android":"levelo://app?vid=c1e3f1fb-a976-4c88-946a-c0964acf9cad","ios":"levelo://app?vid=c1e3f1fb-a976-4c88-946a-c0964acf9cad"},"vehicle_type_id":"4","last_reported":1730603992,"current_range_meters":38800,"station_id":"ce4bhh92rcd13ifvqfi0","pricing_plan_id":"cebpf4jnsgd1na2vs0mg"},{"bike_id":"3c142b9f-6d00-4e72-b257-549ba12f3702","system_id":"levelo_inurba_marseille","lat":43.292548,"lon":5.409098,"is_reserved":false,"is_disabled":false,"rental_uris":{"android":"levelo://app?vid=3c142b9f-6d00-4e72-b257-549ba12f3702","ios":"levelo://app?vid=3c142b9f-6d00-4e72-b257-549ba12f3702"},"vehicle_type_id":"4","last_reported":1730603992,"current_range_meters":34000,"station_id":"ce4bh192rcd13ifvqdc0","pricing_plan_id":"cebpf4jnsgd1na2vs0mg"},{"bike_id":"dfcf6a89-a923-4ca9-beae-4b01cfe38b57","system_id":"levelo_inurba_marseille","lat":43.31071,"lon":5.38362,"is_reserved":false,"is_disabled":false,"rental_uris":{"android":"levelo://app?vid=dfcf6a89-a923-4ca9-beae-4b01cfe38b57","ios":"levelo://app?vid=dfcf6a89-a923-4ca9-beae-4b01cfe38b57"},"vehicle_type_id":"4","last_reported":1730603992,"current_range_meters":22800,"station_id":"ce4bgv92rcd13ifvqcr0","pricing_plan_id":"cebpf4jnsgd1na2vs0mg"},{"bike_id":"4addb393-0f42-41ab-9a9c-32e4a28c4f71","system_id":"levelo_inurba_marseille","lat":43.26213,"lon":5.37442,"is_reserved":false,"is_disabled":false,"rental_uris":{"android":"levelo://app?vid=4addb393-0f42-41ab-9a9c-32e4a28c4f71","ios":"levelo://app?vid=4addb393-0f42-41ab-9a9c-32e4a28c4f71"},"vehicle_type_id":"4","last_reported":1730603992,"current_range_meters":36400,"station_id":"ce4bhgp2rcd13ifvqfc0","pricing_plan_id":"cebpf4jnsgd1na2vs0mg"},{"bike_id":"67f27790-369c-496e-9dda-769f0bfe7cd4","system_id":"levelo_inurba_marseille","lat":43.25503,"lon":5.37656,"is_reserved":false,"is_disabled":false,"rental_uris":{"android":"levelo://app?vid=67f27790-369c-496e-9dda-769f0bfe7cd4","ios":"levelo://app?vid=67f27790-369c-496e-9dda-769f0bfe7cd4"},"vehicle_type_id":"4","last_reported":1730603992,"current_range_meters":38000,"station_id":"ce4bhh12rcd13ifvqff0","pricing_plan_id":"cebpf4jnsgd1na2vs0mg"},{"bike_id":"e4076913-25a7-4304-83b4-9b1933c6ed9b","system_id":"levelo_inurba_marseille","lat":43.27998,"lon":5.4003,"is_reserved":false,"is_disabled":false,"rental_uris":{"android":"levelo://app?vid=e4076913-25a7-4304-83b4-9b1933c6ed9b","ios":"levelo://app?vid=e4076913-25a7-4304-83b4-9b1933c6ed9b"},"vehicle_type_id":"4","last_reported":1730603992,"current_range_meters":38800,"station_id":"ce4bho92rcd13ifvqh4g","pricing_plan_id":"cebpf4jnsgd1na2vs0mg"},{"bike_id":"f41faf26-2aaa-4db7-82f9-2606b3f6cffd","system_id":"levelo_inurba_marseille","lat":43.30934,"lon":5.40146,"is_reserved":false,"is_disabled":false,"rental_uris":{"android":"levelo://app?vid=f41faf26-2aaa-4db7-82f9-2606b3f6cffd","ios":"levelo://app?vid=f41faf26-2aaa-4db7-82f9-2606b3f6cffd"},"vehicle_type_id":"4","last_reported":1730603992,"current_range_meters":24000,"station_id":"ce4bgvp2rcd13ifvqct0","pricing_plan_id":"cebpf4jnsgd1na2vs0mg"},{"bike_id":"24ffd7c5-6473-484d-9c6b-b6420825c8ed","system_id":"levelo_inurba_marseille","lat":43.29895,"lon":5.43666,"is_reserved":false,"is_disabled":false,"rental_uris":{"android":"levelo://app?vid=24ffd7c5-6473-484d-9c6b-b6420825c8ed","ios":"levelo://app?vid=24ffd7c5-6473-484d-9c6b-b6420825c8ed"},"vehicle_type_id":"4","last_reported":1730603992,"current_range_meters":38800,"station_id":"ce4bhpp2rcd13ifvqhfg","pricing_plan_id":"cebpf4jnsgd1na2vs0mg"},{"bike_id":"bf065f7b-6980-42d6-8411-b0d25b1b490f","system_id":"levelo_inurba_marseille","lat":43.2928,"lon":5.4013,"is_reserved":false,"is_disabled":false,"rental_uris":{"android":"levelo://app?vid=bf065f7b-6980-42d6-8411-b0d25b1b490f","ios":"levelo://app?vid=bf065f7b-6980-42d6-8411-b0d25b1b490f"},"vehicle_type_id":"4","last_reported":1730603992,"current_range_meters":36800,"station_id":"ce4bh312rcd13ifvqdk0","pricing_plan_id":"cebpf4jnsgd1na2vs0mg"},{"bike_id":"85a63d61-293f-4adc-846f-079a8da5970c","system_id":"levelo_inurba_marseille","lat":43.28346,"lon":5.38113,"is_reserved":false,"is_disabled":false,"rental_uris":{"android":"levelo://app?vid=85a63d61-293f-4adc-846f-079a8da5970c","ios":"levelo://app?vid=85a63d61-293f-4adc-846f-079a8da5970c"},"vehicle_type_id":"4","last_reported":1730603992,"current_range_meters":11600,"station_id":"ce4bh412rcd13ifvqdr0","pricing_plan_id":"cebpf4jnsgd1na2vs0mg"},{"bike_id":"3e83e42e-84a1-4fa6-80cb-e77919db3747","system_id":"levelo_inurba_marseille","lat":43.2512,"lon":5.40319,"is_reserved":false,"is_disabled":false,"rental_uris":{"android":"levelo://app?vid=3e83e42e-84a1-4fa6-80cb-e77919db3747","ios":"levelo://app?vid=3e83e42e-84a1-4fa6-80cb-e77919db3747"},"vehicle_type_id":"4","last_reported":1730603992,"current_range_meters":20000,"station_id":"ce4bhlh2rcd13ifvqgig","pricing_plan_id":"cebpf4jnsgd1na2vs0mg"},{"bike_id":"6e6c1416-464f-4f03-9742-bebcc8a06f1e","system_id":"levelo_inurba_marseille","lat":43.31761,"lon":5.39022,"is_reserved":false,"is_disabled":false,"rental_uris":{"android":"levelo://app?vid=6e6c1416-464f-4f03-9742-bebcc8a06f1e","ios":"levelo://app?vid=6e6c1416-464f-4f03-9742-bebcc8a06f1e"},"vehicle_type_id":"4","last_reported":1730603992,"current_range_meters":38800,"station_id":"ce4bhqp2rcd13ifvqhng","pricing_plan_id":"cebpf4jnsgd1na2vs0mg"},{"bike_id":"68ee4823-8219-4e40-934b-3c46becc94f7","system_id":"levelo_inurba_marseille","lat":43.31068,"lon":5.38357,"is_reserved":false,"is_disabled":false,"rental_uris":{"android":"levelo://app?vid=68ee4823-8219-4e40-934b-3c46becc94f7","ios":"levelo://app?vid=68ee4823-8219-4e40-934b-3c46becc94f7"},"vehicle_type_id":"4","last_reported":1730603992,"current_range_meters":32000,"station_id":"ce4bgv92rcd13ifvqcr0","pricing_plan_id":"cebpf4jnsgd1na2vs0mg"},{"bike_id":"c14b910d-c438-4986-9edc-d74caf84b8bd","system_id":"levelo_inurba_marseille","lat":43.25823,"lon":5.39436,"is_reserved":false,"is_disabled":false,"rental_uris":{"android":"levelo://app?vid=c14b910d-c438-4986-9edc-d74caf84b8bd","ios":"levelo://app?vid=c14b910d-c438-4986-9edc-d74caf84b8bd"},"vehicle_type_id":"4","last_reported":1730603992,"current_range_meters":38800,"station_id":"ce4bhip2rcd13ifvqft0","pricing_plan_id":"cebpf4jnsgd1na2vs0mg"},{"bike_id":"92c54c22-1b80-485c-bf71-bfc1e98b94d2","system_id":"levelo_inurba_marseille","lat":43.2904,"lon":5.39977,"is_reserved":false,"is_disabled":false,"rental_uris":{"android":"levelo://app?vid=92c54c22-1b80-485c-bf71-bfc1e98b94d2","ios":"levelo://app?vid=92c54c22-1b80-485c-bf71-bfc1e98b94d2"},"vehicle_type_id":"4","last_reported":1730603992,"current_range_meters":34800,"station_id":"ce4bh392rcd13ifvqdm0","pricing_plan_id":"cebpf4jnsgd1na2vs0mg"},{"bike_id":"4b775463-cf5a-40b4-8149-f6b055abd79c","system_id":"levelo_inurba_marseille","lat":43.26486,"lon":5.39556,"is_reserved":false,"is_disabled":false,"rental_uris":{"android":"levelo://app?vid=4b775463-cf5a-40b4-8149-f6b055abd79c","ios":"levelo://app?vid=4b775463-cf5a-40b4-8149-f6b055abd79c"},"vehicle_type_id":"4","last_reported":1730603992,"current_range_meters":38800,"station_id":"ce4bhi12rcd13ifvqfq0","pricing_plan_id":"cebpf4jnsgd1na2vs0mg"},{"bike_id":"8db110e7-67ba-4660-9ad0-490ee93fab14","system_id":"levelo_inurba_marseille","lat":43.30795,"lon":5.38142,"is_reserved":false,"is_disabled":false,"rental_uris":{"android":"levelo://app?vid=8db110e7-67ba-4660-9ad0-490ee93fab14","ios":"levelo://app?vid=8db110e7-67ba-4660-9ad0-490ee93fab14"},"vehicle_type_id":"4","last_reported":1730603992,"current_range_meters":28000,"station_id":"ce4bgt12rcd13ifvqce0","pricing_plan_id":"cebpf4jnsgd1na2vs0mg"},{"bike_id":"b5aac5ca-e4da-48dc-8d9b-90b641ecb1ea","system_id":"levelo_inurba_marseille","lat":43.27075,"lon":5.42282,"is_reserved":false,"is_disabled":false,"rental_uris":{"android":"levelo://app?vid=b5aac5ca-e4da-48dc-8d9b-90b641ecb1ea","ios":"levelo://app?vid=b5aac5ca-e4da-48dc-8d9b-90b641ecb1ea"},"vehicle_type_id":"4","last_reported":1730603992,"current_range_meters":38800,"station_id":"ce4bhk92rcd13ifvqgb0","pricing_plan_id":"cebpf4jnsgd1na2vs0mg"},{"bike_id":"b2d284dc-f1c7-4801-80ea-9b41b504091e","system_id":"levelo_inurba_marseille","lat":43.30605,"lon":5.37213,"is_reserved":false,"is_disabled":false,"rental_uris":{"android":"levelo://app?vid=b2d284dc-f1c7-4801-80ea-9b41b504091e","ios":"levelo://app?vid=b2d284dc-f1c7-4801-80ea-9b41b504091e"},"vehicle_type_id":"4","last_reported":1730603992,"current_range_meters":34000,"station_id":"ce4bgqh2rcd13ifvqc4g","pricing_plan_id":"cebpf4jnsgd1na2vs0mg"},{"bike_id":"5bed4c60-b912-42f6-b099-933c6ebb8aca","system_id":"levelo_inurba_marseille","lat":43.2583,"lon":5.3943,"is_reserved":false,"is_disabled":false,"rental_uris":{"android":"levelo://app?vid=5bed4c60-b912-42f6-b099-933c6ebb8aca","ios":"levelo://app?vid=5bed4c60-b912-42f6-b099-933c6ebb8aca"},"vehicle_type_id":"4","last_reported":1730603992,"current_range_meters":36800,"station_id":"ce4bhip2rcd13ifvqft0","pricing_plan_id":"cebpf4jnsgd1na2vs0mg"},{"bike_id":"f83073ed-6616-4982-9b44-90dc927b86fa","system_id":"levelo_inurba_marseille","lat":43.30247,"lon":5.40069,"is_reserved":false,"is_disabled":false,"rental_uris":{"android":"levelo://app?vid=f83073ed-6616-4982-9b44-90dc927b86fa","ios":"levelo://app?vid=f83073ed-6616-4982-9b44-90dc927b86fa"},"vehicle_type_id":"4","last_reported":1730603992,"current_range_meters":28400,"station_id":"ce4bgvh2rcd13ifvqcs0","pricing_plan_id":"cebpf4jnsgd1na2vs0mg"},{"bike_id":"7c52dca3-7bef-4bad-9fba-b9cb071437ae","system_id":"levelo_inurba_marseille","lat":43.30803,"lon":5.3815,"is_reserved":false,"is_disabled":false,"rental_uris":{"android":"levelo://app?vid=7c52dca3-7bef-4bad-9fba-b9cb071437ae","ios":"levelo://app?vid=7c52dca3-7bef-4bad-9fba-b9cb071437ae"},"vehicle_type_id":"4","last_reported":1730603992,"current_range_meters":30400,"station_id":"ce4bgt12rcd13ifvqce0","pricing_plan_id":"cebpf4jnsgd1na2vs0mg"},{"bike_id":"e4c327ef-91e6-45d8-acea-b018f56189b1","system_id":"levelo_inurba_marseille","lat":43.28716,"lon":5.3999,"is_reserved":false,"is_disabled":false,"rental_uris":{"android":"levelo://app?vid=e4c327ef-91e6-45d8-acea-b018f56189b1","ios":"levelo://app?vid=e4c327ef-91e6-45d8-acea-b018f56189b1"},"vehicle_type_id":"4","last_reported":1730603992,"current_range_meters":37600,"station_id":"ce4bho92rcd13ifvqh3g","pricing_plan_id":"cebpf4jnsgd1na2vs0mg"},{"bike_id":"0ed19e93-f1b8-43b5-bce6-546c496d7ed7","system_id":"levelo_inurba_marseille","lat":43.29725,"lon":5.37685,"is_reserved":false,"is_disabled":false,"rental_uris":{"android":"levelo://app?vid=0ed19e93-f1b8-43b5-bce6-546c496d7ed7","ios":"levelo://app?vid=0ed19e93-f1b8-43b5-bce6-546c496d7ed7"},"vehicle_type_id":"4","last_reported":1730603992,"current_range_meters":37600,"station_id":"ce4bgkh2rcd13ifvqbl0","pricing_plan_id":"cebpf4jnsgd1na2vs0mg"},{"bike_id":"391ffe5e-43fd-4312-9196-a8696c38e0ab","system_id":"levelo_inurba_marseille","lat":43.337312,"lon":5.391884,"is_reserved":false,"is_disabled":false,"rental_uris":{"android":"levelo://app?vid=391ffe5e-43fd-4312-9196-a8696c38e0ab","ios":"levelo://app?vid=391ffe5e-43fd-4312-9196-a8696c38e0ab"},"vehicle_type_id":"4","last_reported":1730603992,"current_range_meters":33200,"station_id":"ce4bhr92rcd13ifvqhsg","pricing_plan_id":"cebpf4jnsgd1na2vs0mg"},{"bike_id":"44062d9d-68c9-40e6-abbd-6934a4ae966d","system_id":"levelo_inurba_marseille","lat":43.28943,"lon":5.36626,"is_reserved":false,"is_disabled":false,"rental_uris":{"android":"levelo://app?vid=44062d9d-68c9-40e6-abbd-6934a4ae966d","ios":"levelo://app?vid=44062d9d-68c9-40e6-abbd-6934a4ae966d"},"vehicle_type_id":"4","last_reported":1730603992,"current_range_meters":36800,"station_id":"ce4bhap2rcd13ifvqek0","pricing_plan_id":"cebpf4jnsgd1na2vs0mg"},{"bike_id":"853bab73-c324-4805-9610-3c8850fef994","system_id":"levelo_inurba_marseille","lat":43.26486,"lon":5.395439,"is_reserved":false,"is_disabled":false,"rental_uris":{"android":"levelo://app?vid=853bab73-c324-4805-9610-3c8850fef994","ios":"levelo://app?vid=853bab73-c324-4805-9610-3c8850fef994"},"vehicle_type_id":"4","last_reported":1730603992,"current_range_meters":18800,"station_id":"ce4bhi12rcd13ifvqfq0","pricing_plan_id":"cebpf4jnsgd1na2vs0mg"},{"bike_id":"de213bb6-a5fd-4947-bfd1-9283e2a994ee","system_id":"levelo_inurba_marseille","lat":43.3024,"lon":5.40054,"is_reserved":false,"is_disabled":false,"rental_uris":{"android":"levelo://app?vid=de213bb6-a5fd-4947-bfd1-9283e2a994ee","ios":"levelo://app?vid=de213bb6-a5fd-4947-bfd1-9283e2a994ee"},"vehicle_type_id":"4","last_reported":1730603992,"current_range_meters":2800,"station_id":"ce4bgvh2rcd13ifvqcs0","pricing_plan_id":"cebpf4jnsgd1na2vs0mg"},{"bike_id":"8c67d340-801d-46e5-b910-2f8aff3ff078","system_id":"levelo_inurba_marseille","lat":43.33326,"lon":5.37064,"is_reserved":false,"is_disabled":false,"rental_uris":{"android":"levelo://app?vid=8c67d340-801d-46e5-b910-2f8aff3ff078","ios":"levelo://app?vid=8c67d340-801d-46e5-b910-2f8aff3ff078"},"vehicle_type_id":"4","last_reported":1730603992,"current_range_meters":8000,"station_id":"","pricing_plan_id":"cebpf4jnsgd1na2vs0mg"},{"bike_id":"7f034553-16de-4103-b13b-8341e4a94743","system_id":"levelo_inurba_marseille","lat":43.295506,"lon":5.422939,"is_reserved":false,"is_disabled":false,"rental_uris":{"android":"levelo://app?vid=7f034553-16de-4103-b13b-8341e4a94743","ios":"levelo://app?vid=7f034553-16de-4103-b13b-8341e4a94743"},"vehicle_type_id":"4","last_reported":1730603992,"current_range_meters":38400,"station_id":"ce4bhph2rcd13ifvqhdg","pricing_plan_id":"cebpf4jnsgd1na2vs0mg"},{"bike_id":"54cc4ec6-c46d-4e95-9bf2-2a04f02a40ab","system_id":"levelo_inurba_marseille","lat":43.28415,"lon":5.37502,"is_reserved":false,"is_disabled":false,"rental_uris":{"android":"levelo://app?vid=54cc4ec6-c46d-4e95-9bf2-2a04f02a40ab","ios":"levelo://app?vid=54cc4ec6-c46d-4e95-9bf2-2a04f02a40ab"},"vehicle_type_id":"4","last_reported":1730603992,"current_range_meters":37600,"station_id":"ce4bh412rcd13ifvqds0","pricing_plan_id":"cebpf4jnsgd1na2vs0mg"},{"bike_id":"921069e2-e506-477e-8730-9e0ff76dae61","system_id":"levelo_inurba_marseille","lat":43.24076,"lon":5.37767,"is_reserved":false,"is_disabled":false,"rental_uris":{"android":"levelo://app?vid=921069e2-e506-477e-8730-9e0ff76dae61","ios":"levelo://app?vid=921069e2-e506-477e-8730-9e0ff76dae61"},"vehicle_type_id":"4","last_reported":1730603992,"current_range_meters":37600,"station_id":"ce4bhnp2rcd13ifvqgvg","pricing_plan_id":"cebpf4jnsgd1na2vs0mg"},{"bike_id":"e2634b22-5f17-4345-a889-22a44b7f45e9","system_id":"levelo_inurba_marseille","lat":43.27997,"lon":5.40021,"is_reserved":false,"is_disabled":false,"rental_uris":{"android":"levelo://app?vid=e2634b22-5f17-4345-a889-22a44b7f45e9","ios":"levelo://app?vid=e2634b22-5f17-4345-a889-22a44b7f45e9"},"vehicle_type_id":"4","last_reported":1730603992,"current_range_meters":19600,"station_id":"ce4bho92rcd13ifvqh4g","pricing_plan_id":"cebpf4jnsgd1na2vs0mg"},{"bike_id":"d06a2450-ac14-4b9e-9a4d-db6341132bb6","system_id":"levelo_inurba_marseille","lat":43.28344,"lon":5.38098,"is_reserved":false,"is_disabled":false,"rental_uris":{"android":"levelo://app?vid=d06a2450-ac14-4b9e-9a4d-db6341132bb6","ios":"levelo://app?vid=d06a2450-ac14-4b9e-9a4d-db6341132bb6"},"vehicle_type_id":"4","last_reported":1730603992,"current_range_meters":16400,"station_id":"ce4bh412rcd13ifvqdr0","pricing_plan_id":"cebpf4jnsgd1na2vs0mg"},{"bike_id":"704eba55-73fe-495c-8b3d-68b1d87c8902","system_id":"levelo_inurba_marseille","lat":43.29805,"lon":5.40406,"is_reserved":false,"is_disabled":false,"rental_uris":{"android":"levelo://app?vid=704eba55-73fe-495c-8b3d-68b1d87c8902","ios":"levelo://app?vid=704eba55-73fe-495c-8b3d-68b1d87c8902"},"vehicle_type_id":"4","last_reported":1730603992,"current_range_meters":24400,"station_id":"ce4bh112rcd13ifvqd90","pricing_plan_id":"cebpf4jnsgd1na2vs0mg"},{"bike_id":"b5c5b826-7f17-4ea6-9a4c-55108d171aa0","system_id":"levelo_inurba_marseille","lat":43.31277,"lon":5.40173,"is_reserved":false,"is_disabled":false,"rental_uris":{"android":"levelo://app?vid=b5c5b826-7f17-4ea6-9a4c-55108d171aa0","ios":"levelo://app?vid=b5c5b826-7f17-4ea6-9a4c-55108d171aa0"},"vehicle_type_id":"4","last_reported":1730603992,"current_range_meters":28000,"station_id":"ce4bh092rcd13ifvqd30","pricing_plan_id":"cebpf4jnsgd1na2vs0mg"},{"bike_id":"3c90fc8f-ed1d-4e88-8797-d27a0c30fd70","system_id":"levelo_inurba_marseille","lat":43.25721,"lon":5.41114,"is_reserved":false,"is_disabled":false,"rental_uris":{"android":"levelo://app?vid=3c90fc8f-ed1d-4e88-8797-d27a0c30fd70","ios":"levelo://app?vid=3c90fc8f-ed1d-4e88-8797-d27a0c30fd70"},"vehicle_type_id":"4","last_reported":1730603992,"current_range_meters":38800,"station_id":"ce4bhkp2rcd13ifvqgd0","pricing_plan_id":"cebpf4jnsgd1na2vs0mg"},{"bike_id":"d16597ad-1553-4bf6-a420-22d1707e70d3","system_id":"levelo_inurba_marseille","lat":43.32662,"lon":5.41,"is_reserved":false,"is_disabled":false,"rental_uris":{"android":"levelo://app?vid=d16597ad-1553-4bf6-a420-22d1707e70d3","ios":"levelo://app?vid=d16597ad-1553-4bf6-a420-22d1707e70d3"},"vehicle_type_id":"4","last_reported":1730603992,"current_range_meters":30800,"station_id":"ce4bhpp2rcd13ifvqhgg","pricing_plan_id":"cebpf4jnsgd1na2vs0mg"},{"bike_id":"4046578d-64b0-4da2-a67a-24cc0a3c974f","system_id":"levelo_inurba_marseille","lat":43.30435,"lon":5.38898,"is_reserved":false,"is_disabled":false,"rental_uris":{"android":"levelo://app?vid=4046578d-64b0-4da2-a67a-24cc0a3c974f","ios":"levelo://app?vid=4046578d-64b0-4da2-a67a-24cc0a3c974f"},"vehicle_type_id":"4","last_reported":1730603992,"current_range_meters":39200,"station_id":"ce4bgk12rcd13ifvqbi0","pricing_plan_id":"cebpf4jnsgd1na2vs0mg"},{"bike_id":"1b76da04-24af-4551-be92-5b5e0e7c5288","system_id":"levelo_inurba_marseille","lat":43.27496,"lon":5.424505,"is_reserved":false,"is_disabled":false,"rental_uris":{"android":"levelo://app?vid=1b76da04-24af-4551-be92-5b5e0e7c5288","ios":"levelo://app?vid=1b76da04-24af-4551-be92-5b5e0e7c5288"},"vehicle_type_id":"4","last_reported":1730603992,"current_range_meters":38800,"station_id":"ce4bhn92rcd13ifvqgrg","pricing_plan_id":"cebpf4jnsgd1na2vs0mg"},{"bike_id":"a2ba9ce6-372c-4752-ab21-416aa46676c7","system_id":"levelo_inurba_marseille","lat":43.29787,"lon":5.38117,"is_reserved":false,"is_disabled":false,"rental_uris":{"android":"levelo://app?vid=a2ba9ce6-372c-4752-ab21-416aa46676c7","ios":"levelo://app?vid=a2ba9ce6-372c-4752-ab21-416aa46676c7"},"vehicle_type_id":"4","last_reported":1730603992,"current_range_meters":20400,"station_id":"ce4bgip2rcd13ifvqbb0","pricing_plan_id":"cebpf4jnsgd1na2vs0mg"},{"bike_id":"540e2233-9952-44d3-9e22-d0acfe51609d","system_id":"levelo_inurba_marseille","lat":43.30436,"lon":5.38889,"is_reserved":false,"is_disabled":false,"rental_uris":{"android":"levelo://app?vid=540e2233-9952-44d3-9e22-d0acfe51609d","ios":"levelo://app?vid=540e2233-9952-44d3-9e22-d0acfe51609d"},"vehicle_type_id":"4","last_reported":1730603992,"current_range_meters":38800,"station_id":"ce4bgk12rcd13ifvqbi0","pricing_plan_id":"cebpf4jnsgd1na2vs0mg"},{"bike_id":"03523498-bdf2-43d9-aa27-669f03c4fc00","system_id":"levelo_inurba_marseille","lat":43.289419,"lon":5.363942,"is_reserved":false,"is_disabled":false,"rental_uris":{"android":"levelo://app?vid=03523498-bdf2-43d9-aa27-669f03c4fc00","ios":"levelo://app?vid=03523498-bdf2-43d9-aa27-669f03c4fc00"},"vehicle_type_id":"4","last_reported":1730603992,"current_range_meters":16400,"station_id":"ce4bhc92rcd13ifvqetg","pricing_plan_id":"cebpf4jnsgd1na2vs0mg"},{"bike_id":"aec75234-6564-49c7-9ae2-e5c212e97cf0","system_id":"levelo_inurba_marseille","lat":43.30649,"lon":5.40072,"is_reserved":false,"is_disabled":false,"rental_uris":{"android":"levelo://app?vid=aec75234-6564-49c7-9ae2-e5c212e97cf0","ios":"levelo://app?vid=aec75234-6564-49c7-9ae2-e5c212e97cf0"},"vehicle_type_id":"4","last_reported":1730603992,"current_range_meters":37600,"station_id":"ce4bh112rcd13ifvqda0","pricing_plan_id":"cebpf4jnsgd1na2vs0mg"},{"bike_id":"6fd7be55-81e8-4c8c-a5ca-7491ad5539b2","system_id":"levelo_inurba_marseille","lat":43.23195,"lon":5.39982,"is_reserved":false,"is_disabled":false,"rental_uris":{"android":"levelo://app?vid=6fd7be55-81e8-4c8c-a5ca-7491ad5539b2","ios":"levelo://app?vid=6fd7be55-81e8-4c8c-a5ca-7491ad5539b2"},"vehicle_type_id":"4","last_reported":1730603992,"current_range_meters":37600,"station_id":"ce4bhn12rcd13ifvqgqg","pricing_plan_id":"cebpf4jnsgd1na2vs0mg"},{"bike_id":"d5324ca5-5a3a-4892-bb8c-7dbf331e6ea6","system_id":"levelo_inurba_marseille","lat":43.324857,"lon":5.365691,"is_reserved":false,"is_disabled":false,"rental_uris":{"android":"levelo://app?vid=d5324ca5-5a3a-4892-bb8c-7dbf331e6ea6","ios":"levelo://app?vid=d5324ca5-5a3a-4892-bb8c-7dbf331e6ea6"},"vehicle_type_id":"4","last_reported":1730603992,"current_range_meters":38800,"station_id":"ce4bhs12rcd13ifvqhvg","pricing_plan_id":"cebpf4jnsgd1na2vs0mg"},{"bike_id":"e78203ce-34b1-4163-a0e0-e2d232fb52b4","system_id":"levelo_inurba_marseille","lat":43.30199,"lon":5.36627,"is_reserved":false,"is_disabled":false,"rental_uris":{"android":"levelo://app?vid=e78203ce-34b1-4163-a0e0-e2d232fb52b4","ios":"levelo://app?vid=e78203ce-34b1-4163-a0e0-e2d232fb52b4"},"vehicle_type_id":"4","last_reported":1730603992,"current_range_meters":38800,"station_id":"ce4bgrh2rcd13ifvqc8g","pricing_plan_id":"cebpf4jnsgd1na2vs0mg"},{"bike_id":"6be7270a-2704-4485-a493-6b103dd8c08b","system_id":"levelo_inurba_marseille","lat":43.28927,"lon":5.36643,"is_reserved":false,"is_disabled":false,"rental_uris":{"android":"levelo://app?vid=6be7270a-2704-4485-a493-6b103dd8c08b","ios":"levelo://app?vid=6be7270a-2704-4485-a493-6b103dd8c08b"},"vehicle_type_id":"4","last_reported":1730603992,"current_range_meters":39200,"station_id":"ce4bhap2rcd13ifvqek0","pricing_plan_id":"cebpf4jnsgd1na2vs0mg"},{"bike_id":"508d06dc-5186-47db-9a1e-12e21771d59f","system_id":"levelo_inurba_marseille","lat":43.28718,"lon":5.37928,"is_reserved":false,"is_disabled":false,"rental_uris":{"android":"levelo://app?vid=508d06dc-5186-47db-9a1e-12e21771d59f","ios":"levelo://app?vid=508d06dc-5186-47db-9a1e-12e21771d59f"},"vehicle_type_id":"4","last_reported":1730603992,"current_range_meters":38800,"station_id":"ce4bh9p2rcd13ifvqec0","pricing_plan_id":"cebpf4jnsgd1na2vs0mg"},{"bike_id":"2761995a-ee86-4ea3-a322-4933e1cca2b3","system_id":"levelo_inurba_marseille","lat":43.28706,"lon":5.39983,"is_reserved":false,"is_disabled":false,"rental_uris":{"android":"levelo://app?vid=2761995a-ee86-4ea3-a322-4933e1cca2b3","ios":"levelo://app?vid=2761995a-ee86-4ea3-a322-4933e1cca2b3"},"vehicle_type_id":"4","last_reported":1730603992,"current_range_meters":36800,"station_id":"ce4bho92rcd13ifvqh3g","pricing_plan_id":"cebpf4jnsgd1na2vs0mg"},{"bike_id":"5c74527c-010a-411f-8275-f8d2754af41e","system_id":"levelo_inurba_marseille","lat":43.28155,"lon":5.42641,"is_reserved":false,"is_disabled":false,"rental_uris":{"android":"levelo://app?vid=5c74527c-010a-411f-8275-f8d2754af41e","ios":"levelo://app?vid=5c74527c-010a-411f-8275-f8d2754af41e"},"vehicle_type_id":"4","last_reported":1730603992,"current_range_meters":38800,"station_id":"ce4bhnh2rcd13ifvqgug","pricing_plan_id":"cebpf4jnsgd1na2vs0mg"},{"bike_id":"94ad3583-312f-43ff-9ed0-d230108ff236","system_id":"levelo_inurba_marseille","lat":43.24671,"lon":5.38158,"is_reserved":false,"is_disabled":false,"rental_uris":{"android":"levelo://app?vid=94ad3583-312f-43ff-9ed0-d230108ff236","ios":"levelo://app?vid=94ad3583-312f-43ff-9ed0-d230108ff236"},"vehicle_type_id":"4","last_reported":1730603992,"current_range_meters":9200,"station_id":"ce4bhih2rcd13ifvqfr0","pricing_plan_id":"cebpf4jnsgd1na2vs0mg"},{"bike_id":"7a70292c-e0bd-4e5b-b30d-53e04ecd6bb8","system_id":"levelo_inurba_marseille","lat":43.32056,"lon":5.41566,"is_reserved":false,"is_disabled":false,"rental_uris":{"android":"levelo://app?vid=7a70292c-e0bd-4e5b-b30d-53e04ecd6bb8","ios":"levelo://app?vid=7a70292c-e0bd-4e5b-b30d-53e04ecd6bb8"},"vehicle_type_id":"4","last_reported":1730603992,"current_range_meters":39200,"station_id":"ce4bhq92rcd13ifvqhkg","pricing_plan_id":"cebpf4jnsgd1na2vs0mg"},{"bike_id":"92ce6d4a-e55a-47e8-9fd5-0286331b069e","system_id":"levelo_inurba_marseille","lat":43.2573,"lon":5.41107,"is_reserved":false,"is_disabled":false,"rental_uris":{"android":"levelo://app?vid=92ce6d4a-e55a-47e8-9fd5-0286331b069e","ios":"levelo://app?vid=92ce6d4a-e55a-47e8-9fd5-0286331b069e"},"vehicle_type_id":"4","last_reported":1730603992,"current_range_meters":38000,"station_id":"ce4bhkp2rcd13ifvqgd0","pricing_plan_id":"cebpf4jnsgd1na2vs0mg"},{"bike_id":"c2cf1ca5-0693-4565-b6b4-580010c52027","system_id":"levelo_inurba_marseille","lat":43.278132,"lon":5.407063,"is_reserved":false,"is_disabled":false,"rental_uris":{"android":"levelo://app?vid=c2cf1ca5-0693-4565-b6b4-580010c52027","ios":"levelo://app?vid=c2cf1ca5-0693-4565-b6b4-580010c52027"},"vehicle_type_id":"4","last_reported":1730603992,"current_range_meters":38800,"station_id":"ce4bhnh2rcd13ifvqgtg","pricing_plan_id":"cebpf4jnsgd1na2vs0mg"},{"bike_id":"cb7b5657-41ff-4a78-9343-6186d5242030","system_id":"levelo_inurba_marseille","lat":43.29555,"lon":5.42285,"is_reserved":false,"is_disabled":false,"rental_uris":{"android":"levelo://app?vid=cb7b5657-41ff-4a78-9343-6186d5242030","ios":"levelo://app?vid=cb7b5657-41ff-4a78-9343-6186d5242030"},"vehicle_type_id":"4","last_reported":1730603992,"current_range_meters":17200,"station_id":"ce4bhph2rcd13ifvqhdg","pricing_plan_id":"cebpf4jnsgd1na2vs0mg"},{"bike_id":"c36500d8-3c1b-40b4-b412-de69c457b9cb","system_id":"levelo_inurba_marseille","lat":43.27611,"lon":5.41748,"is_reserved":false,"is_disabled":false,"rental_uris":{"android":"levelo://app?vid=c36500d8-3c1b-40b4-b412-de69c457b9cb","ios":"levelo://app?vid=c36500d8-3c1b-40b4-b412-de69c457b9cb"},"vehicle_type_id":"4","last_reported":1730603992,"current_range_meters":9200,"station_id":"","pricing_plan_id":"cebpf4jnsgd1na2vs0mg"},{"bike_id":"477d9759-9655-4541-82c7-c27c886d0ee2","system_id":"levelo_inurba_marseille","lat":43.27812,"lon":5.40721,"is_reserved":false,"is_disabled":false,"rental_uris":{"android":"levelo://app?vid=477d9759-9655-4541-82c7-c27c886d0ee2","ios":"levelo://app?vid=477d9759-9655-4541-82c7-c27c886d0ee2"},"vehicle_type_id":"4","last_reported":1730603992,"current_range_meters":37600,"station_id":"ce4bhnh2rcd13ifvqgtg","pricing_plan_id":"cebpf4jnsgd1na2vs0mg"},{"bike_id":"944fddd6-b40e-4821-9ea8-a89df4cf3005","system_id":"levelo_inurba_marseille","lat":43.28698,"lon":5.37382,"is_reserved":false,"is_disabled":false,"rental_uris":{"android":"levelo://app?vid=944fddd6-b40e-4821-9ea8-a89df4cf3005","ios":"levelo://app?vid=944fddd6-b40e-4821-9ea8-a89df4cf3005"},"vehicle_type_id":"4","last_reported":1730603992,"current_range_meters":27600,"station_id":"ce4bh3p2rcd13ifvqdq0","pricing_plan_id":"cebpf4jnsgd1na2vs0mg"},{"bike_id":"7b951a56-4321-4508-9896-17f5811ff601","system_id":"levelo_inurba_marseille","lat":43.29094,"lon":5.38147,"is_reserved":false,"is_disabled":false,"rental_uris":{"android":"levelo://app?vid=7b951a56-4321-4508-9896-17f5811ff601","ios":"levelo://app?vid=7b951a56-4321-4508-9896-17f5811ff601"},"vehicle_type_id":"4","last_reported":1730603992,"current_range_meters":32800,"station_id":"ce4bh512rcd13ifvqe2g","pricing_plan_id":"cebpf4jnsgd1na2vs0mg"},{"bike_id":"5fccdc8c-66d4-4706-9e7b-ab05bf10c1d2","system_id":"levelo_inurba_marseille","lat":43.27943,"lon":5.41046,"is_reserved":false,"is_disabled":false,"rental_uris":{"android":"levelo://app?vid=5fccdc8c-66d4-4706-9e7b-ab05bf10c1d2","ios":"levelo://app?vid=5fccdc8c-66d4-4706-9e7b-ab05bf10c1d2"},"vehicle_type_id":"4","last_reported":1730603992,"current_range_meters":10800,"station_id":"ce4bhnp2rcd13ifvqh0g","pricing_plan_id":"cebpf4jnsgd1na2vs0mg"},{"bike_id":"ab9cb399-eeb7-4811-b418-db73fb440597","system_id":"levelo_inurba_marseille","lat":43.261979,"lon":5.37928,"is_reserved":false,"is_disabled":false,"rental_uris":{"android":"levelo://app?vid=ab9cb399-eeb7-4811-b418-db73fb440597","ios":"levelo://app?vid=ab9cb399-eeb7-4811-b418-db73fb440597"},"vehicle_type_id":"4","last_reported":1730603992,"current_range_meters":38800,"station_id":"ce4bhjp2rcd13ifvqg90","pricing_plan_id":"cebpf4jnsgd1na2vs0mg"},{"bike_id":"7f708895-ae9d-4c2a-9981-bf6833a6bb38","system_id":"levelo_inurba_marseille","lat":43.28697,"lon":5.39981,"is_reserved":false,"is_disabled":false,"rental_uris":{"android":"levelo://app?vid=7f708895-ae9d-4c2a-9981-bf6833a6bb38","ios":"levelo://app?vid=7f708895-ae9d-4c2a-9981-bf6833a6bb38"},"vehicle_type_id":"4","last_reported":1730603992,"current_range_meters":38800,"station_id":"ce4bho92rcd13ifvqh3g","pricing_plan_id":"cebpf4jnsgd1na2vs0mg"},