{"last_updated":1781563393,"ttl":60,"version":"2.2","data":{"bikes":[{"bike_id":"aa997b49-7107-451c-9394-34a2015508bd","system_id":"levelo_inurba_marseille","lat":43.337444,"lon":5.374475,"is_reserved":false,"is_disabled":false,"rental_uris":{"android":"levelo://app?vid=aa997b49-7107-451c-9394-34a2015508bd","ios":"levelo://app?vid=aa997b49-7107-451c-9394-34a2015508bd"},"vehicle_type_id":"4","last_reported":1781563394,"current_range_meters":0,"station_id":"","pricing_plan_id":"cebpf4jnsgd1na2vs0mg"},{"bike_id":"66f1dfcd-2d01-4ee7-932e-ce0948dd49e9","system_id":"levelo_inurba_marseille","lat":43.29985,"lon":5.37569,"is_reserved":false,"is_disabled":false,"rental_uris":{"android":"levelo://app?vid=66f1dfcd-2d01-4ee7-932e-ce0948dd49e9","ios":"levelo://app?vid=66f1dfcd-2d01-4ee7-932e-ce0948dd49e9"},"vehicle_type_id":"4","last_reported":1781563394,"current_range_meters":2800,"station_id":"","pricing_plan_id":"cebpf4jnsgd1na2vs0mg"},{"bike_id":"6dd630af-ef9d-412b-afc4-1c8f57900e01","system_id":"levelo_inurba_marseille","lat":43.25178,"lon":5.37423,"is_reserved":false,"is_disabled":false,"rental_uris":{"android":"levelo://app?vid=6dd630af-ef9d-412b-afc4-1c8f57900e01","ios":"levelo://app?vid=6dd630af-ef9d-412b-afc4-1c8f57900e01"},"vehicle_type_id":"4","last_reported":1781563394,"current_range_meters":2800,"station_id":"","pricing_plan_id":"cebpf4jnsgd1na2vs0mg"},{"bike_id":"8f56db5f-c128-44bc-bd29-68c508df7671","system_id":"levelo_inurba_marseille","lat":43.25326,"lon":5.42185,"is_reserved":false,"is_disabled":true,"rental_uris":{"android":"levelo://app?vid=8f56db5f-c128-44bc-bd29-68c508df7671","ios":"levelo://app?vid=8f56db5f-c128-44bc-bd29-68c508df7671"},"vehicle_type_id":"4","last_reported":1781563394,"current_range_meters":2800,"station_id":"st_d2m65c5bi1j21697t3ng","pricing_plan_id":"cebpf4jnsgd1na2vs0mg"},{"bike_id":"e289f967-4c82-4ba1-84f6-8de4789ce3a0","system_id":"levelo_inurba_marseille","lat":43.32656,"lon":5.41015,"is_reserved":false,"is_disabled":false,"rental_uris":{"android":"levelo://app?vid=e289f967-4c82-4ba1-84f6-8de4789ce3a0","ios":"levelo://app?vid=e289f967-4c82-4ba1-84f6-8de4789ce3a0"},"vehicle_type_id":"4","last_reported":1781563394,"current_range_meters":2800,"station_id":"ce4bhpp2rcd13ifvqhgg","pricing_plan_id":"cebpf4jnsgd1na2vs0mg"},{"bike_id":"bf5361a6-619b-43fe-a616-b2375c7dcbb2","system_id":"levelo_inurba_marseille","lat":43.29917,"lon":5.41005,"is_reserved":false,"is_disabled":false,"rental_uris":{"android":"levelo://app?vid=bf5361a6-619b-43fe-a616-b2375c7dcbb2","ios":"levelo://app?vid=bf5361a6-619b-43fe-a616-b2375c7dcbb2"},"vehicle_type_id":"4","last_reported":1781563394,"current_range_meters":2800,"station_id":"","pricing_plan_id":"cebpf4jnsgd1na2vs0mg"},{"bike_id":"7405e44d-16ec-4c18-bf44-cb41146181e3","system_id":"levelo_inurba_marseille","lat":43.26148,"lon":5.40544,"is_reserved":false,"is_disabled":false,"rental_uris":{"android":"levelo://app?vid=7405e44d-16ec-4c18-bf44-cb41146181e3","ios":"levelo://app?vid=7405e44d-16ec-4c18-bf44-cb41146181e3"},"vehicle_type_id":"4","last_reported":1781563394,"current_range_meters":2800,"station_id":"","pricing_plan_id":"cebpf4jnsgd1na2vs0mg"},{"bike_id":"7c6474f8-0bf7-48bf-aa35-087b35dbc42c","system_id":"levelo_inurba_marseille","lat":43.29593,"lon":5.38105,"is_reserved":false,"is_disabled":true,"rental_uris":{"android":"levelo://app?vid=7c6474f8-0bf7-48bf-aa35-087b35dbc42c","ios":"levelo://app?vid=7c6474f8-0bf7-48bf-aa35-087b35dbc42c"},"vehicle_type_id":"4","last_reported":1781563394,"current_range_meters":3200,"station_id":"ce4bgl12rcd13ifvqbo0","pricing_plan_id":"cebpf4jnsgd1na2vs0mg"},{"bike_id":"42562290-86f5-4c16-b982-1222da9d0479","system_id":"levelo_inurba_marseille","lat":43.30178,"lon":5.3663,"is_reserved":false,"is_disabled":false,"rental_uris":{"android":"levelo://app?vid=42562290-86f5-4c16-b982-1222da9d0479","ios":"levelo://app?vid=42562290-86f5-4c16-b982-1222da9d0479"},"vehicle_type_id":"4","last_reported":1781563394,"current_range_meters":3200,"station_id":"ce4bgrh2rcd13ifvqc8g","pricing_plan_id":"cebpf4jnsgd1na2vs0mg"},{"bike_id":"596ce3b1-87f7-408e-8d07-41f96804a7ec","system_id":"levelo_inurba_marseille","lat":43.24545,"lon":5.41149,"is_reserved":false,"is_disabled":true,"rental_uris":{"android":"levelo://app?vid=596ce3b1-87f7-408e-8d07-41f96804a7ec","ios":"levelo://app?vid=596ce3b1-87f7-408e-8d07-41f96804a7ec"},"vehicle_type_id":"4","last_reported":1781563394,"current_range_meters":3200,"station_id":"","pricing_plan_id":"cebpf4jnsgd1na2vs0mg"},{"bike_id":"d333c0fb-d617-428b-917f-64396a2a6c61","system_id":"levelo_inurba_marseille","lat":43.26206,"lon":5.38855,"is_reserved":false,"is_disabled":false,"rental_uris":{"android":"levelo://app?vid=d333c0fb-d617-428b-917f-64396a2a6c61","ios":"levelo://app?vid=d333c0fb-d617-428b-917f-64396a2a6c61"},"vehicle_type_id":"4","last_reported":1781563394,"current_range_meters":3200,"station_id":"","pricing_plan_id":"cebpf4jnsgd1na2vs0mg"},{"bike_id":"b97e21ea-4813-4813-8d0f-dc4ab370b953","system_id":"levelo_inurba_marseille","lat":43.29623,"lon":5.39094,"is_reserved":false,"is_disabled":false,"rental_uris":{"android":"levelo://app?vid=b97e21ea-4813-4813-8d0f-dc4ab370b953","ios":"levelo://app?vid=b97e21ea-4813-4813-8d0f-dc4ab370b953"},"vehicle_type_id":"4","last_reported":1781563394,"current_range_meters":3200,"station_id":"","pricing_plan_id":"cebpf4jnsgd1na2vs0mg"},{"bike_id":"992fd406-5ff4-453b-878c-9d325da0f227","system_id":"levelo_inurba_marseille","lat":43.2832,"lon":5.38826,"is_reserved":false,"is_disabled":false,"rental_uris":{"android":"levelo://app?vid=992fd406-5ff4-453b-878c-9d325da0f227","ios":"levelo://app?vid=992fd406-5ff4-453b-878c-9d325da0f227"},"vehicle_type_id":"4","last_reported":1781563394,"current_range_meters":3200,"station_id":"","pricing_plan_id":"cebpf4jnsgd1na2vs0mg"},{"bike_id":"2dcb2ba4-378e-456f-b8ea-c672171088c4","system_id":"levelo_inurba_marseille","lat":43.33541,"lon":5.37456,"is_reserved":false,"is_disabled":false,"rental_uris":{"android":"levelo://app?vid=2dcb2ba4-378e-456f-b8ea-c672171088c4","ios":"levelo://app?vid=2dcb2ba4-378e-456f-b8ea-c672171088c4"},"vehicle_type_id":"4","last_reported":1781563394,"current_range_meters":3200,"station_id":"st_d46tts09ee8s73dlu43g","pricing_plan_id":"cebpf4jnsgd1na2vs0mg"},{"bike_id":"662c8057-90c2-43e9-9005-f69f0deef184","system_id":"levelo_inurba_marseille","lat":43.29258,"lon":5.36846,"is_reserved":false,"is_disabled":false,"rental_uris":{"android":"levelo://app?vid=662c8057-90c2-43e9-9005-f69f0deef184","ios":"levelo://app?vid=662c8057-90c2-43e9-9005-f69f0deef184"},"vehicle_type_id":"4","last_reported":1781563394,"current_range_meters":3600,"station_id":"ce4bhbp2rcd13ifvqesg","pricing_plan_id":"cebpf4jnsgd1na2vs0mg"},{"bike_id":"ccab2dd4-bcdc-40a8-8382-56da510e5e6d","system_id":"levelo_inurba_marseille","lat":43.3144,"lon":5.3739,"is_reserved":false,"is_disabled":false,"rental_uris":{"android":"levelo://app?vid=ccab2dd4-bcdc-40a8-8382-56da510e5e6d","ios":"levelo://app?vid=ccab2dd4-bcdc-40a8-8382-56da510e5e6d"},"vehicle_type_id":"4","last_reported":1781563394,"current_range_meters":3600,"station_id":"","pricing_plan_id":"cebpf4jnsgd1na2vs0mg"},{"bike_id":"6f22ff3a-0a25-43bd-a428-94dc6e4b1e1f","system_id":"levelo_inurba_marseille","lat":43.29557,"lon":5.38145,"is_reserved":false,"is_disabled":false,"rental_uris":{"android":"levelo://app?vid=6f22ff3a-0a25-43bd-a428-94dc6e4b1e1f","ios":"levelo://app?vid=6f22ff3a-0a25-43bd-a428-94dc6e4b1e1f"},"vehicle_type_id":"4","last_reported":1781563394,"current_range_meters":3600,"station_id":"","pricing_plan_id":"cebpf4jnsgd1na2vs0mg"},{"bike_id":"a53cde0d-fede-45ed-863f-68054652a918","system_id":"levelo_inurba_marseille","lat":43.29037,"lon":5.39957,"is_reserved":false,"is_disabled":false,"rental_uris":{"android":"levelo://app?vid=a53cde0d-fede-45ed-863f-68054652a918","ios":"levelo://app?vid=a53cde0d-fede-45ed-863f-68054652a918"},"vehicle_type_id":"4","last_reported":1781563394,"current_range_meters":3600,"station_id":"ce4bh392rcd13ifvqdm0","pricing_plan_id":"cebpf4jnsgd1na2vs0mg"},{"bike_id":"11c33da6-b3d2-46a9-a954-cb01c922a54e","system_id":"levelo_inurba_marseille","lat":43.29885,"lon":5.38183,"is_reserved":false,"is_disabled":false,"rental_uris":{"android":"levelo://app?vid=11c33da6-b3d2-46a9-a954-cb01c922a54e","ios":"levelo://app?vid=11c33da6-b3d2-46a9-a954-cb01c922a54e"},"vehicle_type_id":"4","last_reported":1781563394,"current_range_meters":3600,"station_id":"ce4bgj12rcd13ifvqbc0","pricing_plan_id":"cebpf4jnsgd1na2vs0mg"},{"bike_id":"098c67d9-9e10-45a5-b9fd-cb14c66e33ff","system_id":"levelo_inurba_marseille","lat":43.27942,"lon":5.4105,"is_reserved":false,"is_disabled":false,"rental_uris":{"android":"levelo://app?vid=098c67d9-9e10-45a5-b9fd-cb14c66e33ff","ios":"levelo://app?vid=098c67d9-9e10-45a5-b9fd-cb14c66e33ff"},"vehicle_type_id":"4","last_reported":1781563394,"current_range_meters":3600,"station_id":"ce4bhnp2rcd13ifvqh0g","pricing_plan_id":"cebpf4jnsgd1na2vs0mg"},{"bike_id":"a6d49f47-59b5-4f8f-9eb8-4c33de290bb7","system_id":"levelo_inurba_marseille","lat":43.27426,"lon":5.39424,"is_reserved":false,"is_disabled":true,"rental_uris":{"android":"levelo://app?vid=a6d49f47-59b5-4f8f-9eb8-4c33de290bb7","ios":"levelo://app?vid=a6d49f47-59b5-4f8f-9eb8-4c33de290bb7"},"vehicle_type_id":"4","last_reported":1781563394,"current_range_meters":4000,"station_id":"ce4bhdp2rcd13ifvqf20","pricing_plan_id":"cebpf4jnsgd1na2vs0mg"},{"bike_id":"b55c9442-177c-4b20-a860-6b70d1610e2c","system_id":"levelo_inurba_marseille","lat":43.31472,"lon":5.38593,"is_reserved":false,"is_disabled":false,"rental_uris":{"android":"levelo://app?vid=b55c9442-177c-4b20-a860-6b70d1610e2c","ios":"levelo://app?vid=b55c9442-177c-4b20-a860-6b70d1610e2c"},"vehicle_type_id":"4","last_reported":1781563394,"current_range_meters":4000,"station_id":"","pricing_plan_id":"cebpf4jnsgd1na2vs0mg"},{"bike_id":"f20c30d3-a689-4bfe-86ed-2563c9c3b77d","system_id":"levelo_inurba_marseille","lat":43.30927,"lon":5.40136,"is_reserved":false,"is_disabled":false,"rental_uris":{"android":"levelo://app?vid=f20c30d3-a689-4bfe-86ed-2563c9c3b77d","ios":"levelo://app?vid=f20c30d3-a689-4bfe-86ed-2563c9c3b77d"},"vehicle_type_id":"4","last_reported":1781563394,"current_range_meters":4000,"station_id":"ce4bgvp2rcd13ifvqct0","pricing_plan_id":"cebpf4jnsgd1na2vs0mg"},{"bike_id":"feeb9f03-d9c6-4d99-9588-fc7b519f8f5d","system_id":"levelo_inurba_marseille","lat":43.28489,"lon":5.48401,"is_reserved":false,"is_disabled":false,"rental_uris":{"android":"levelo://app?vid=feeb9f03-d9c6-4d99-9588-fc7b519f8f5d","ios":"levelo://app?vid=feeb9f03-d9c6-4d99-9588-fc7b519f8f5d"},"vehicle_type_id":"4","last_reported":1781563394,"current_range_meters":4000,"station_id":"st_d3svhcjqgbts73a3dn0g","pricing_plan_id":"cebpf4jnsgd1na2vs0mg"},{"bike_id":"16a8babb-6c2c-495e-8729-7c8dedd151bd","system_id":"levelo_inurba_marseille","lat":43.31902,"lon":5.36816,"is_reserved":false,"is_disabled":false,"rental_uris":{"android":"levelo://app?vid=16a8babb-6c2c-495e-8729-7c8dedd151bd","ios":"levelo://app?vid=16a8babb-6c2c-495e-8729-7c8dedd151bd"},"vehicle_type_id":"4","last_reported":1781563394,"current_range_meters":4000,"station_id":"st_d6o2h0d0559c73evc1b0","pricing_plan_id":"cebpf4jnsgd1na2vs0mg"},{"bike_id":"92132944-91e0-4e0a-8448-3f1a1dc8d8c9","system_id":"levelo_inurba_marseille","lat":43.32514,"lon":5.38339,"is_reserved":false,"is_disabled":false,"rental_uris":{"android":"levelo://app?vid=92132944-91e0-4e0a-8448-3f1a1dc8d8c9","ios":"levelo://app?vid=92132944-91e0-4e0a-8448-3f1a1dc8d8c9"},"vehicle_type_id":"4","last_reported":1781563394,"current_range_meters":4000,"station_id":"st_d4asgbiv49dc73anf9m0","pricing_plan_id":"cebpf4jnsgd1na2vs0mg"},{"bike_id":"936dfda5-be18-4412-a93f-8c09c57a8772","system_id":"levelo_inurba_marseille","lat":43.29351,"lon":5.37425,"is_reserved":false,"is_disabled":false,"rental_uris":{"android":"levelo://app?vid=936dfda5-be18-4412-a93f-8c09c57a8772","ios":"levelo://app?vid=936dfda5-be18-4412-a93f-8c09c57a8772"},"vehicle_type_id":"4","last_reported":1781563394,"current_range_meters":4000,"station_id":"","pricing_plan_id":"cebpf4jnsgd1na2vs0mg"},{"bike_id":"00d3679f-9ab3-4943-871f-0dceeeed14e2","system_id":"levelo_inurba_marseille","lat":43.29521,"lon":5.39425,"is_reserved":false,"is_disabled":false,"rental_uris":{"android":"levelo://app?vid=00d3679f-9ab3-4943-871f-0dceeeed14e2","ios":"levelo://app?vid=00d3679f-9ab3-4943-871f-0dceeeed14e2"},"vehicle_type_id":"4","last_reported":1781563394,"current_range_meters":4000,"station_id":"ce4bh292rcd13ifvqdf0","pricing_plan_id":"cebpf4jnsgd1na2vs0mg"},{"bike_id":"3f2d41d9-3306-47aa-8863-b26ef73a2ce5","system_id":"levelo_inurba_marseille","lat":43.29996,"lon":5.37391,"is_reserved":false,"is_disabled":true,"rental_uris":{"android":"levelo://app?vid=3f2d41d9-3306-47aa-8863-b26ef73a2ce5","ios":"levelo://app?vid=3f2d41d9-3306-47aa-8863-b26ef73a2ce5"},"vehicle_type_id":"4","last_reported":1781563394,"current_range_meters":4000,"station_id":"","pricing_plan_id":"cebpf4jnsgd1na2vs0mg"},{"bike_id":"c4f6f0d0-62ab-49ad-aeec-8dfdbe470673","system_id":"levelo_inurba_marseille","lat":43.303128,"lon":5.369038,"is_reserved":false,"is_disabled":true,"rental_uris":{"android":"levelo://app?vid=c4f6f0d0-62ab-49ad-aeec-8dfdbe470673","ios":"levelo://app?vid=c4f6f0d0-62ab-49ad-aeec-8dfdbe470673"},"vehicle_type_id":"4","last_reported":1781563394,"current_range_meters":4000,"station_id":"ce4bhgh2rcd13ifvqfb0","pricing_plan_id":"cebpf4jnsgd1na2vs0mg"},{"bike_id":"dcd3d462-d0c5-4d07-90df-bc080d656cb6","system_id":"levelo_inurba_marseille","lat":43.2979,"lon":5.38538,"is_reserved":false,"is_disabled":false,"rental_uris":{"android":"levelo://app?vid=dcd3d462-d0c5-4d07-90df-bc080d656cb6","ios":"levelo://app?vid=dcd3d462-d0c5-4d07-90df-bc080d656cb6"},"vehicle_type_id":"4","last_reported":1781563394,"current_range_meters":4000,"station_id":"","pricing_plan_id":"cebpf4jnsgd1na2vs0mg"},{"bike_id":"fcc63f5f-5200-49ab-ae7a-b0a43ab9f9de","system_id":"levelo_inurba_marseille","lat":43.24945,"lon":5.40503,"is_reserved":false,"is_disabled":false,"rental_uris":{"android":"levelo://app?vid=fcc63f5f-5200-49ab-ae7a-b0a43ab9f9de","ios":"levelo://app?vid=fcc63f5f-5200-49ab-ae7a-b0a43ab9f9de"},"vehicle_type_id":"4","last_reported":1781563394,"current_range_meters":4000,"station_id":"st_d2ngiaodas8pm72gd1h0","pricing_plan_id":"cebpf4jnsgd1na2vs0mg"},{"bike_id":"bebe8c03-9684-4d05-b9e8-5857f587d6f6","system_id":"levelo_inurba_marseille","lat":43.29174,"lon":5.38456,"is_reserved":false,"is_disabled":false,"rental_uris":{"android":"levelo://app?vid=bebe8c03-9684-4d05-b9e8-5857f587d6f6","ios":"levelo://app?vid=bebe8c03-9684-4d05-b9e8-5857f587d6f6"},"vehicle_type_id":"4","last_reported":1781563394,"current_range_meters":4000,"station_id":"","pricing_plan_id":"cebpf4jnsgd1na2vs0mg"},{"bike_id":"46142ebd-3de9-448d-855f-36bd87e5fd0b","system_id":"levelo_inurba_marseille","lat":43.24069,"lon":5.37721,"is_reserved":false,"is_disabled":false,"rental_uris":{"android":"levelo://app?vid=46142ebd-3de9-448d-855f-36bd87e5fd0b","ios":"levelo://app?vid=46142ebd-3de9-448d-855f-36bd87e5fd0b"},"vehicle_type_id":"4","last_reported":1781563394,"current_range_meters":4400,"station_id":"ce4bhnp2rcd13ifvqgvg","pricing_plan_id":"cebpf4jnsgd1na2vs0mg"},{"bike_id":"2b0774fd-df4e-4faa-94e4-5ca52189b44e","system_id":"levelo_inurba_marseille","lat":43.29236,"lon":5.36053,"is_reserved":false,"is_disabled":true,"rental_uris":{"android":"levelo://app?vid=2b0774fd-df4e-4faa-94e4-5ca52189b44e","ios":"levelo://app?vid=2b0774fd-df4e-4faa-94e4-5ca52189b44e"},"vehicle_type_id":"4","last_reported":1781563394,"current_range_meters":4400,"station_id":"ce4bhbh2rcd13ifvqeqg","pricing_plan_id":"cebpf4jnsgd1na2vs0mg"},{"bike_id":"6a196ced-67e3-4dab-8bd0-3a8d7db0d897","system_id":"levelo_inurba_marseille","lat":43.33605,"lon":5.41023,"is_reserved":false,"is_disabled":false,"rental_uris":{"android":"levelo://app?vid=6a196ced-67e3-4dab-8bd0-3a8d7db0d897","ios":"levelo://app?vid=6a196ced-67e3-4dab-8bd0-3a8d7db0d897"},"vehicle_type_id":"4","last_reported":1781563394,"current_range_meters":4400,"station_id":"ce4bhqh2rcd13ifvqhmg","pricing_plan_id":"cebpf4jnsgd1na2vs0mg"},{"bike_id":"36833c4e-565c-466f-9792-8c290d5172fa","system_id":"levelo_inurba_marseille","lat":43.27629,"lon":5.36096,"is_reserved":false,"is_disabled":false,"rental_uris":{"android":"levelo://app?vid=36833c4e-565c-466f-9792-8c290d5172fa","ios":"levelo://app?vid=36833c4e-565c-466f-9792-8c290d5172fa"},"vehicle_type_id":"4","last_reported":1781563394,"current_range_meters":4400,"station_id":"ce4bgj92rcd13ifvqbe0","pricing_plan_id":"cebpf4jnsgd1na2vs0mg"},{"bike_id":"1c607608-32cd-4d7b-8766-f2c1cebd43e9","system_id":"levelo_inurba_marseille","lat":43.29552,"lon":5.4232,"is_reserved":false,"is_disabled":false,"rental_uris":{"android":"levelo://app?vid=1c607608-32cd-4d7b-8766-f2c1cebd43e9","ios":"levelo://app?vid=1c607608-32cd-4d7b-8766-f2c1cebd43e9"},"vehicle_type_id":"4","last_reported":1781563394,"current_range_meters":4400,"station_id":"ce4bhph2rcd13ifvqhdg","pricing_plan_id":"cebpf4jnsgd1na2vs0mg"},{"bike_id":"61a34d84-b380-4fda-a2f6-f1e34cfa8e9d","system_id":"levelo_inurba_marseille","lat":43.29253,"lon":5.38253,"is_reserved":false,"is_disabled":false,"rental_uris":{"android":"levelo://app?vid=61a34d84-b380-4fda-a2f6-f1e34cfa8e9d","ios":"levelo://app?vid=61a34d84-b380-4fda-a2f6-f1e34cfa8e9d"},"vehicle_type_id":"4","last_reported":1781563394,"current_range_meters":4400,"station_id":"","pricing_plan_id":"cebpf4jnsgd1na2vs0mg"},{"bike_id":"7daf4d11-d107-4a48-ba50-a8c155fd1028","system_id":"levelo_inurba_marseille","lat":43.337,"lon":5.39214,"is_reserved":false,"is_disabled":true,"rental_uris":{"android":"levelo://app?vid=7daf4d11-d107-4a48-ba50-a8c155fd1028","ios":"levelo://app?vid=7daf4d11-d107-4a48-ba50-a8c155fd1028"},"vehicle_type_id":"4","last_reported":1781563394,"current_range_meters":4400,"station_id":"","pricing_plan_id":"cebpf4jnsgd1na2vs0mg"},{"bike_id":"e3a905d4-c9c3-4770-b82f-da66d38b2d76","system_id":"levelo_inurba_marseille","lat":43.25091,"lon":5.39542,"is_reserved":false,"is_disabled":false,"rental_uris":{"android":"levelo://app?vid=e3a905d4-c9c3-4770-b82f-da66d38b2d76","ios":"levelo://app?vid=e3a905d4-c9c3-4770-b82f-da66d38b2d76"},"vehicle_type_id":"4","last_reported":1781563394,"current_range_meters":4400,"station_id":"ce4bhm12rcd13ifvqgkg","pricing_plan_id":"cebpf4jnsgd1na2vs0mg"},{"bike_id":"d8c1fb16-bfa7-45d5-9adf-585d5c5599e5","system_id":"levelo_inurba_marseille","lat":43.29554,"lon":5.42297,"is_reserved":false,"is_disabled":false,"rental_uris":{"android":"levelo://app?vid=d8c1fb16-bfa7-45d5-9adf-585d5c5599e5","ios":"levelo://app?vid=d8c1fb16-bfa7-45d5-9adf-585d5c5599e5"},"vehicle_type_id":"4","last_reported":1781563394,"current_range_meters":4400,"station_id":"ce4bhph2rcd13ifvqhdg","pricing_plan_id":"cebpf4jnsgd1na2vs0mg"},{"bike_id":"d6fe544c-861d-46b3-bd7e-3cdeadd1f48c","system_id":"levelo_inurba_marseille","lat":43.24363,"lon":5.36949,"is_reserved":false,"is_disabled":false,"rental_uris":{"android":"levelo://app?vid=d6fe544c-861d-46b3-bd7e-3cdeadd1f48c","ios":"levelo://app?vid=d6fe544c-861d-46b3-bd7e-3cdeadd1f48c"},"vehicle_type_id":"4","last_reported":1781563394,"current_range_meters":4400,"station_id":"","pricing_plan_id":"cebpf4jnsgd1na2vs0mg"},{"bike_id":"8e3bc2ea-5b0a-4080-a582-ed484844e256","system_id":"levelo_inurba_marseille","lat":43.2794,"lon":5.41043,"is_reserved":false,"is_disabled":false,"rental_uris":{"android":"levelo://app?vid=8e3bc2ea-5b0a-4080-a582-ed484844e256","ios":"levelo://app?vid=8e3bc2ea-5b0a-4080-a582-ed484844e256"},"vehicle_type_id":"4","last_reported":1781563394,"current_range_meters":4400,"station_id":"ce4bhnp2rcd13ifvqh0g","pricing_plan_id":"cebpf4jnsgd1na2vs0mg"},{"bike_id":"2d6eff47-7c68-48d6-9b92-11793de4ccee","system_id":"levelo_inurba_marseille","lat":43.30786,"lon":5.3765,"is_reserved":false,"is_disabled":false,"rental_uris":{"android":"levelo://app?vid=2d6eff47-7c68-48d6-9b92-11793de4ccee","ios":"levelo://app?vid=2d6eff47-7c68-48d6-9b92-11793de4ccee"},"vehicle_type_id":"4","last_reported":1781563394,"current_range_meters":4400,"station_id":"ce4bgv92rcd13ifvqcq0","pricing_plan_id":"cebpf4jnsgd1na2vs0mg"},{"bike_id":"e73e104a-f45a-4c39-b014-09a8d028261f","system_id":"levelo_inurba_marseille","lat":43.28703,"lon":5.37726,"is_reserved":false,"is_disabled":false,"rental_uris":{"android":"levelo://app?vid=e73e104a-f45a-4c39-b014-09a8d028261f","ios":"levelo://app?vid=e73e104a-f45a-4c39-b014-09a8d028261f"},"vehicle_type_id":"4","last_reported":1781563394,"current_range_meters":4800,"station_id":"","pricing_plan_id":"cebpf4jnsgd1na2vs0mg"},{"bike_id":"9aabb9cd-8524-48e4-bf52-6dd774a8bb60","system_id":"levelo_inurba_marseille","lat":43.32352,"lon":5.36736,"is_reserved":false,"is_disabled":false,"rental_uris":{"android":"levelo://app?vid=9aabb9cd-8524-48e4-bf52-6dd774a8bb60","ios":"levelo://app?vid=9aabb9cd-8524-48e4-bf52-6dd774a8bb60"},"vehicle_type_id":"4","last_reported":1781563394,"current_range_meters":4800,"station_id":"ce4bhsh2rcd13ifvqi2g","pricing_plan_id":"cebpf4jnsgd1na2vs0mg"},{"bike_id":"b1a7b4e2-c4de-4929-b9de-8b1c38cd950b","system_id":"levelo_inurba_marseille","lat":43.30839,"lon":5.3829,"is_reserved":false,"is_disabled":false,"rental_uris":{"android":"levelo://app?vid=b1a7b4e2-c4de-4929-b9de-8b1c38cd950b","ios":"levelo://app?vid=b1a7b4e2-c4de-4929-b9de-8b1c38cd950b"},"vehicle_type_id":"4","last_reported":1781563394,"current_range_meters":4800,"station_id":"","pricing_plan_id":"cebpf4jnsgd1na2vs0mg"},{"bike_id":"aab05655-8280-48ca-b97a-53048704e45d","system_id":"levelo_inurba_marseille","lat":43.24258,"lon":5.36788,"is_reserved":false,"is_disabled":false,"rental_uris":{"android":"levelo://app?vid=aab05655-8280-48ca-b97a-53048704e45d","ios":"levelo://app?vid=aab05655-8280-48ca-b97a-53048704e45d"},"vehicle_type_id":"4","last_reported":1781563394,"current_range_meters":4800,"station_id":"","pricing_plan_id":"cebpf4jnsgd1na2vs0mg"},{"bike_id":"ede501e1-ac6b-419f-91d8-52a9e484b3db","system_id":"levelo_inurba_marseille","lat":43.27075,"lon":5.42276,"is_reserved":false,"is_disabled":false,"rental_uris":{"android":"levelo://app?vid=ede501e1-ac6b-419f-91d8-52a9e484b3db","ios":"levelo://app?vid=ede501e1-ac6b-419f-91d8-52a9e484b3db"},"vehicle_type_id":"4","last_reported":1781563394,"current_range_meters":4800,"station_id":"ce4bhk92rcd13ifvqgb0","pricing_plan_id":"cebpf4jnsgd1na2vs0mg"},{"bike_id":"eaef5768-aa0c-480e-afc9-352621214e66","system_id":"levelo_inurba_marseille","lat":43.255167,"lon":5.37651,"is_reserved":false,"is_disabled":false,"rental_uris":{"android":"levelo://app?vid=eaef5768-aa0c-480e-afc9-352621214e66","ios":"levelo://app?vid=eaef5768-aa0c-480e-afc9-352621214e66"},"vehicle_type_id":"4","last_reported":1781563394,"current_range_meters":4800,"station_id":"ce4bhh12rcd13ifvqff0","pricing_plan_id":"cebpf4jnsgd1na2vs0mg"},{"bike_id":"28d68514-628b-497a-8dfc-b15d7e44b891","system_id":"levelo_inurba_marseille","lat":43.29691,"lon":5.36628,"is_reserved":false,"is_disabled":true,"rental_uris":{"android":"levelo://app?vid=28d68514-628b-497a-8dfc-b15d7e44b891","ios":"levelo://app?vid=28d68514-628b-497a-8dfc-b15d7e44b891"},"vehicle_type_id":"4","last_reported":1781563394,"current_range_meters":4800,"station_id":"ce4bgn12rcd13ifvqbt0","pricing_plan_id":"cebpf4jnsgd1na2vs0mg"},{"bike_id":"afdcb083-f067-4e00-bd48-40cdb4e0d89f","system_id":"levelo_inurba_marseille","lat":43.2582,"lon":5.39459,"is_reserved":false,"is_disabled":false,"rental_uris":{"android":"levelo://app?vid=afdcb083-f067-4e00-bd48-40cdb4e0d89f","ios":"levelo://app?vid=afdcb083-f067-4e00-bd48-40cdb4e0d89f"},"vehicle_type_id":"4","last_reported":1781563394,"current_range_meters":4800,"station_id":"ce4bhip2rcd13ifvqft0","pricing_plan_id":"cebpf4jnsgd1na2vs0mg"},{"bike_id":"9e52e5fc-e1d9-4df7-8d60-5ee633d3bd6b","system_id":"levelo_inurba_marseille","lat":43.3123,"lon":5.38474,"is_reserved":false,"is_disabled":false,"rental_uris":{"android":"levelo://app?vid=9e52e5fc-e1d9-4df7-8d60-5ee633d3bd6b","ios":"levelo://app?vid=9e52e5fc-e1d9-4df7-8d60-5ee633d3bd6b"},"vehicle_type_id":"4","last_reported":1781563394,"current_range_meters":4800,"station_id":"","pricing_plan_id":"cebpf4jnsgd1na2vs0mg"},{"bike_id":"d34cf526-e6c9-4995-b3d5-3a68c8a6a6c2","system_id":"levelo_inurba_marseille","lat":43.25114,"lon":5.4032,"is_reserved":false,"is_disabled":false,"rental_uris":{"android":"levelo://app?vid=d34cf526-e6c9-4995-b3d5-3a68c8a6a6c2","ios":"levelo://app?vid=d34cf526-e6c9-4995-b3d5-3a68c8a6a6c2"},"vehicle_type_id":"4","last_reported":1781563394,"current_range_meters":4800,"station_id":"ce4bhlh2rcd13ifvqgig","pricing_plan_id":"cebpf4jnsgd1na2vs0mg"},{"bike_id":"7ce70b01-18ea-4a57-a6ba-c4325dd34de0","system_id":"levelo_inurba_marseille","lat":43.29446,"lon":5.39762,"is_reserved":false,"is_disabled":false,"rental_uris":{"android":"levelo://app?vid=7ce70b01-18ea-4a57-a6ba-c4325dd34de0","ios":"levelo://app?vid=7ce70b01-18ea-4a57-a6ba-c4325dd34de0"},"vehicle_type_id":"4","last_reported":1781563394,"current_range_meters":4800,"station_id":"ce4bh3h2rcd13ifvqdo0","pricing_plan_id":"cebpf4jnsgd1na2vs0mg"},{"bike_id":"ad9fc3d6-18db-47eb-82f7-49728d600a2c","system_id":"levelo_inurba_marseille","lat":43.29109,"lon":5.38118,"is_reserved":false,"is_disabled":false,"rental_uris":{"android":"levelo://app?vid=ad9fc3d6-18db-47eb-82f7-49728d600a2c","ios":"levelo://app?vid=ad9fc3d6-18db-47eb-82f7-49728d600a2c"},"vehicle_type_id":"4","last_reported":1781563394,"current_range_meters":5600,"station_id":"ce4bh512rcd13ifvqe2g","pricing_plan_id":"cebpf4jnsgd1na2vs0mg"},{"bike_id":"9ed4071c-f5e5-4180-ab83-2724f8d151e0","system_id":"levelo_inurba_marseille","lat":43.2861,"lon":5.3988,"is_reserved":false,"is_disabled":false,"rental_uris":{"android":"levelo://app?vid=9ed4071c-f5e5-4180-ab83-2724f8d151e0","ios":"levelo://app?vid=9ed4071c-f5e5-4180-ab83-2724f8d151e0"},"vehicle_type_id":"4","last_reported":1781563394,"current_range_meters":5600,"station_id":"st_d4a7ka997mjs738ck50g","pricing_plan_id":"cebpf4jnsgd1na2vs0mg"},{"bike_id":"0ed74b88-02bb-4e6a-bac8-0265efdf81e4","system_id":"levelo_inurba_marseille","lat":43.2174,"lon":5.34598,"is_reserved":false,"is_disabled":true,"rental_uris":{"android":"levelo://app?vid=0ed74b88-02bb-4e6a-bac8-0265efdf81e4","ios":"levelo://app?vid=0ed74b88-02bb-4e6a-bac8-0265efdf81e4"},"vehicle_type_id":"4","last_reported":1781563394,"current_range_meters":5600,"station_id":"st_cvj6r9ubvosntc0bgbag","pricing_plan_id":"cebpf4jnsgd1na2vs0mg"},{"bike_id":"55c7953b-17ed-46d7-83ca-1f30038b80c0","system_id":"levelo_inurba_marseille","lat":43.28459,"lon":5.35888,"is_reserved":false,"is_disabled":false,"rental_uris":{"android":"levelo://app?vid=55c7953b-17ed-46d7-83ca-1f30038b80c0","ios":"levelo://app?vid=55c7953b-17ed-46d7-83ca-1f30038b80c0"},"vehicle_type_id":"4","last_reported":1781563394,"current_range_meters":5600,"station_id":"ce4bhah2rcd13ifvqei0","pricing_plan_id":"cebpf4jnsgd1na2vs0mg"},{"bike_id":"8dbdffd6-18cf-432c-9bd5-7d3e1f87b52d","system_id":"levelo_inurba_marseille","lat":43.23972,"lon":5.36618,"is_reserved":false,"is_disabled":false,"rental_uris":{"android":"levelo://app?vid=8dbdffd6-18cf-432c-9bd5-7d3e1f87b52d","ios":"levelo://app?vid=8dbdffd6-18cf-432c-9bd5-7d3e1f87b52d"},"vehicle_type_id":"4","last_reported":1781563394,"current_range_meters":5600,"station_id":"ce4bhi12rcd13ifvqfp0","pricing_plan_id":"cebpf4jnsgd1na2vs0mg"},{"bike_id":"55fc349a-9924-458f-813c-ac53d3cf4328","system_id":"levelo_inurba_marseille","lat":43.30303,"lon":5.39223,"is_reserved":false,"is_disabled":false,"rental_uris":{"android":"levelo://app?vid=55fc349a-9924-458f-813c-ac53d3cf4328","ios":"levelo://app?vid=55fc349a-9924-458f-813c-ac53d3cf4328"},"vehicle_type_id":"4","last_reported":1781563394,"current_range_meters":5600,"station_id":"ce4bgkh2rcd13ifvqbk0","pricing_plan_id":"cebpf4jnsgd1na2vs0mg"},{"bike_id":"ac0387b8-b30c-4b5d-ad98-7280018d1aa7","system_id":"levelo_inurba_marseille","lat":43.2466,"lon":5.38151,"is_reserved":false,"is_disabled":false,"rental_uris":{"android":"levelo://app?vid=ac0387b8-b30c-4b5d-ad98-7280018d1aa7","ios":"levelo://app?vid=ac0387b8-b30c-4b5d-ad98-7280018d1aa7"},"vehicle_type_id":"4","last_reported":1781563394,"current_range_meters":5600,"station_id":"ce4bhih2rcd13ifvqfr0","pricing_plan_id":"cebpf4jnsgd1na2vs0mg"},{"bike_id":"e5fc4621-c5a4-4c12-9489-89d196f79039","system_id":"levelo_inurba_marseille","lat":43.29354,"lon":5.37892,"is_reserved":false,"is_disabled":true,"rental_uris":{"android":"levelo://app?vid=e5fc4621-c5a4-4c12-9489-89d196f79039","ios":"levelo://app?vid=e5fc4621-c5a4-4c12-9489-89d196f79039"},"vehicle_type_id":"4","last_reported":1781563394,"current_range_meters":5600,"station_id":"ce4bgjh2rcd13ifvqbf0","pricing_plan_id":"cebpf4jnsgd1na2vs0mg"},{"bike_id":"c2cdc4fb-c88c-40fe-9359-d929da0af253","system_id":"levelo_inurba_marseille","lat":43.225344,"lon":5.348326,"is_reserved":false,"is_disabled":false,"rental_uris":{"android":"levelo://app?vid=c2cdc4fb-c88c-40fe-9359-d929da0af253","ios":"levelo://app?vid=c2cdc4fb-c88c-40fe-9359-d929da0af253"},"vehicle_type_id":"4","last_reported":1781563394,"current_range_meters":5600,"station_id":"st_cvj5dfep6f1abm77gieg","pricing_plan_id":"cebpf4jnsgd1na2vs0mg"},{"bike_id":"c4e93b03-0852-4089-919a-bb7436296e99","system_id":"levelo_inurba_marseille","lat":43.23189,"lon":5.39992,"is_reserved":false,"is_disabled":false,"rental_uris":{"android":"levelo://app?vid=c4e93b03-0852-4089-919a-bb7436296e99","ios":"levelo://app?vid=c4e93b03-0852-4089-919a-bb7436296e99"},"vehicle_type_id":"4","last_reported":1781563394,"current_range_meters":5600,"station_id":"ce4bhn12rcd13ifvqgqg","pricing_plan_id":"cebpf4jnsgd1na2vs0mg"},{"bike_id":"4dda2717-19b7-4c1b-8217-0b2a9fae8a2e","system_id":"levelo_inurba_marseille","lat":43.31715,"lon":5.37797,"is_reserved":false,"is_disabled":false,"rental_uris":{"android":"levelo://app?vid=4dda2717-19b7-4c1b-8217-0b2a9fae8a2e","ios":"levelo://app?vid=4dda2717-19b7-4c1b-8217-0b2a9fae8a2e"},"vehicle_type_id":"4","last_reported":1781563394,"current_range_meters":5600,"station_id":"ce4bgth2rcd13ifvqch0","pricing_plan_id":"cebpf4jnsgd1na2vs0mg"},{"bike_id":"8e03a099-3603-4e3e-ae5e-b9e0742fdeae","system_id":"levelo_inurba_marseille","lat":43.28617,"lon":5.39868,"is_reserved":false,"is_disabled":true,"rental_uris":{"android":"levelo://app?vid=8e03a099-3603-4e3e-ae5e-b9e0742fdeae","ios":"levelo://app?vid=8e03a099-3603-4e3e-ae5e-b9e0742fdeae"},"vehicle_type_id":"4","last_reported":1781563394,"current_range_meters":5600,"station_id":"st_d4a7ka997mjs738ck50g","pricing_plan_id":"cebpf4jnsgd1na2vs0mg"},{"bike_id":"37086bdb-0b16-420e-a396-3a7db4249bc8","system_id":"levelo_inurba_marseille","lat":43.23335,"lon":5.43622,"is_reserved":false,"is_disabled":false,"rental_uris":{"android":"levelo://app?vid=37086bdb-0b16-420e-a396-3a7db4249bc8","ios":"levelo://app?vid=37086bdb-0b16-420e-a396-3a7db4249bc8"},"vehicle_type_id":"4","last_reported":1781563394,"current_range_meters":5600,"station_id":"","pricing_plan_id":"cebpf4jnsgd1na2vs0mg"},{"bike_id":"b1394792-f380-4a20-af34-7e2fd2fd9e76","system_id":"levelo_inurba_marseille","lat":43.32191,"lon":5.44016,"is_reserved":false,"is_disabled":false,"rental_uris":{"android":"levelo://app?vid=b1394792-f380-4a20-af34-7e2fd2fd9e76","ios":"levelo://app?vid=b1394792-f380-4a20-af34-7e2fd2fd9e76"},"vehicle_type_id":"4","last_reported":1781563394,"current_range_meters":5600,"station_id":"","pricing_plan_id":"cebpf4jnsgd1na2vs0mg"},{"bike_id":"297278de-fd5f-4616-b21c-f978459a9284","system_id":"levelo_inurba_marseille","lat":43.2762,"lon":5.36117,"is_reserved":false,"is_disabled":false,"rental_uris":{"android":"levelo://app?vid=297278de-fd5f-4616-b21c-f978459a9284","ios":"levelo://app?vid=297278de-fd5f-4616-b21c-f978459a9284"},"vehicle_type_id":"4","last_reported":1781563394,"current_range_meters":5600,"station_id":"ce4bgj92rcd13ifvqbe0","pricing_plan_id":"cebpf4jnsgd1na2vs0mg"},{"bike_id":"c23fb373-7ad9-4348-a0f0-23ba5090a9b3","system_id":"levelo_inurba_marseille","lat":43.29291,"lon":5.38033,"is_reserved":false,"is_disabled":false,"rental_uris":{"android":"levelo://app?vid=c23fb373-7ad9-4348-a0f0-23ba5090a9b3","ios":"levelo://app?vid=c23fb373-7ad9-4348-a0f0-23ba5090a9b3"},"vehicle_type_id":"4","last_reported":1781563394,"current_range_meters":5600,"station_id":"","pricing_plan_id":"cebpf4jnsgd1na2vs0mg"},{"bike_id":"ba62d5c5-97a3-43d4-9bf4-71bdf2b6daaa","system_id":"levelo_inurba_marseille","lat":43.27944,"lon":5.41047,"is_reserved":false,"is_disabled":false,"rental_uris":{"android":"levelo://app?vid=ba62d5c5-97a3-43d4-9bf4-71bdf2b6daaa","ios":"levelo://app?vid=ba62d5c5-97a3-43d4-9bf4-71bdf2b6daaa"},"vehicle_type_id":"4","last_reported":1781563394,"current_range_meters":5600,"station_id":"ce4bhnp2rcd13ifvqh0g","pricing_plan_id":"cebpf4jnsgd1na2vs0mg"},{"bike_id":"8cae7b90-2d74-42dc-af11-7fb5ea3c3f9d","system_id":"levelo_inurba_marseille","lat":43.26556,"lon":5.37279,"is_reserved":false,"is_disabled":false,"rental_uris":{"android":"levelo://app?vid=8cae7b90-2d74-42dc-af11-7fb5ea3c3f9d","ios":"levelo://app?vid=8cae7b90-2d74-42dc-af11-7fb5ea3c3f9d"},"vehicle_type_id":"4","last_reported":1781563394,"current_range_meters":5600,"station_id":"ce4bhg12rcd13ifvqf70","pricing_plan_id":"cebpf4jnsgd1na2vs0mg"},{"bike_id":"065b6009-2e7a-45cb-bd50-ea574925cd7f","system_id":"levelo_inurba_marseille","lat":43.25411,"lon":5.42786,"is_reserved":false,"is_disabled":false,"rental_uris":{"android":"levelo://app?vid=065b6009-2e7a-45cb-bd50-ea574925cd7f","ios":"levelo://app?vid=065b6009-2e7a-45cb-bd50-ea574925cd7f"},"vehicle_type_id":"4","last_reported":1781563394,"current_range_meters":6000,"station_id":"","pricing_plan_id":"cebpf4jnsgd1na2vs0mg"},{"bike_id":"a7423333-6c27-4dfa-8b68-5eb468877668","system_id":"levelo_inurba_marseille","lat":43.32498,"lon":5.38267,"is_reserved":false,"is_disabled":false,"rental_uris":{"android":"levelo://app?vid=a7423333-6c27-4dfa-8b68-5eb468877668","ios":"levelo://app?vid=a7423333-6c27-4dfa-8b68-5eb468877668"},"vehicle_type_id":"4","last_reported":1781563394,"current_range_meters":6000,"station_id":"st_d4asgbiv49dc73anf9m0","pricing_plan_id":"cebpf4jnsgd1na2vs0mg"},{"bike_id":"34624d46-65a4-4a75-9d5f-549007b8851f","system_id":"levelo_inurba_marseille","lat":43.337533,"lon":5.374474,"is_reserved":false,"is_disabled":false,"rental_uris":{"android":"levelo://app?vid=34624d46-65a4-4a75-9d5f-549007b8851f","ios":"levelo://app?vid=34624d46-65a4-4a75-9d5f-549007b8851f"},"vehicle_type_id":"4","last_reported":1781563394,"current_range_meters":6000,"station_id":"","pricing_plan_id":"cebpf4jnsgd1na2vs0mg"},{"bike_id":"a1bcdc1e-01dd-44a7-a8e1-b215f8c90261","system_id":"levelo_inurba_marseille","lat":43.29021,"lon":5.38132,"is_reserved":false,"is_disabled":false,"rental_uris":{"android":"levelo://app?vid=a1bcdc1e-01dd-44a7-a8e1-b215f8c90261","ios":"levelo://app?vid=a1bcdc1e-01dd-44a7-a8e1-b215f8c90261"},"vehicle_type_id":"4","last_reported":1781563394,"current_range_meters":6000,"station_id":"ce4bh4p2rcd13ifvqe1g","pricing_plan_id":"cebpf4jnsgd1na2vs0mg"},{"bike_id":"ffcf8e0f-b1c2-403c-be8a-1b68faf82967","system_id":"levelo_inurba_marseille","lat":43.31476,"lon":5.37341,"is_reserved":false,"is_disabled":false,"rental_uris":{"android":"levelo://app?vid=ffcf8e0f-b1c2-403c-be8a-1b68faf82967","ios":"levelo://app?vid=ffcf8e0f-b1c2-403c-be8a-1b68faf82967"},"vehicle_type_id":"4","last_reported":1781563394,"current_range_meters":6000,"station_id":"ce4bgt12rcd13ifvqcd0","pricing_plan_id":"cebpf4jnsgd1na2vs0mg"},{"bike_id":"c8358c4f-314d-41c2-9d70-c9dd28e7c16d","system_id":"levelo_inurba_marseille","lat":43.33136,"lon":5.37938,"is_reserved":false,"is_disabled":false,"rental_uris":{"android":"levelo://app?vid=c8358c4f-314d-41c2-9d70-c9dd28e7c16d","ios":"levelo://app?vid=c8358c4f-314d-41c2-9d70-c9dd28e7c16d"},"vehicle_type_id":"4","last_reported":1781563394,"current_range_meters":6000,"station_id":"","pricing_plan_id":"cebpf4jnsgd1na2vs0mg"},{"bike_id":"625b259b-f1c3-4083-ad57-d5c97c3fea22","system_id":"levelo_inurba_marseille","lat":43.28736,"lon":5.36086,"is_reserved":false,"is_disabled":false,"rental_uris":{"android":"levelo://app?vid=625b259b-f1c3-4083-ad57-d5c97c3fea22","ios":"levelo://app?vid=625b259b-f1c3-4083-ad57-d5c97c3fea22"},"vehicle_type_id":"4","last_reported":1781563394,"current_range_meters":6000,"station_id":"cki0cbj6b192h4jlfktg","pricing_plan_id":"cebpf4jnsgd1na2vs0mg"},{"bike_id":"bdde4b0c-ad7e-4733-81e7-5b2dde516d3b","system_id":"levelo_inurba_marseille","lat":43.28654,"lon":5.3638,"is_reserved":false,"is_disabled":false,"rental_uris":{"android":"levelo://app?vid=bdde4b0c-ad7e-4733-81e7-5b2dde516d3b","ios":"levelo://app?vid=bdde4b0c-ad7e-4733-81e7-5b2dde516d3b"},"vehicle_type_id":"4","last_reported":1781563394,"current_range_meters":6000,"station_id":"","pricing_plan_id":"cebpf4jnsgd1na2vs0mg"},{"bike_id":"f965982f-f450-4c56-b1a2-9820a0cdc4b2","system_id":"levelo_inurba_marseille","lat":43.28,"lon":5.41675,"is_reserved":false,"is_disabled":false,"rental_uris":{"android":"levelo://app?vid=f965982f-f450-4c56-b1a2-9820a0cdc4b2","ios":"levelo://app?vid=f965982f-f450-4c56-b1a2-9820a0cdc4b2"},"vehicle_type_id":"4","last_reported":1781563394,"current_range_meters":6000,"station_id":"ce4bho12rcd13ifvqh1g","pricing_plan_id":"cebpf4jnsgd1na2vs0mg"},{"bike_id":"6258f2aa-4d47-40b6-b2bf-175666402769","system_id":"levelo_inurba_marseille","lat":43.29486,"lon":5.43315,"is_reserved":false,"is_disabled":false,"rental_uris":{"android":"levelo://app?vid=6258f2aa-4d47-40b6-b2bf-175666402769","ios":"levelo://app?vid=6258f2aa-4d47-40b6-b2bf-175666402769"},"vehicle_type_id":"4","last_reported":1781563394,"current_range_meters":6000,"station_id":"st_d3j5ugp08ojc73fj9d10","pricing_plan_id":"cebpf4jnsgd1na2vs0mg"},{"bike_id":"1dadd164-7d6d-4e5f-a0e8-c51aef004357","system_id":"levelo_inurba_marseille","lat":43.28479,"lon":5.48391,"is_reserved":false,"is_disabled":false,"rental_uris":{"android":"levelo://app?vid=1dadd164-7d6d-4e5f-a0e8-c51aef004357","ios":"levelo://app?vid=1dadd164-7d6d-4e5f-a0e8-c51aef004357"},"vehicle_type_id":"4","last_reported":1781563394,"current_range_meters":6000,"station_id":"st_d3svhcjqgbts73a3dn0g","pricing_plan_id":"cebpf4jnsgd1na2vs0mg"},{"bike_id":"cf738518-8c8a-4295-9678-1a955c521a10","system_id":"levelo_inurba_marseille","lat":43.2446,"lon":5.42548,"is_reserved":false,"is_disabled":true,"rental_uris":{"android":"levelo://app?vid=cf738518-8c8a-4295-9678-1a955c521a10","ios":"levelo://app?vid=cf738518-8c8a-4295-9678-1a955c521a10"},"vehicle_type_id":"4","last_reported":1781563394,"current_range_meters":6000,"station_id":"st_d4a3vfp97mjs738cd8kg","pricing_plan_id":"cebpf4jnsgd1na2vs0mg"},{"bike_id":"63787175-31eb-4558-96d5-7ddcc7376d06","system_id":"levelo_inurba_marseille","lat":43.23191,"lon":5.35578,"is_reserved":false,"is_disabled":false,"rental_uris":{"android":"levelo://app?vid=63787175-31eb-4558-96d5-7ddcc7376d06","ios":"levelo://app?vid=63787175-31eb-4558-96d5-7ddcc7376d06"},"vehicle_type_id":"4","last_reported":1781563394,"current_range_meters":6000,"station_id":"ce4bhu92rcd13ifvqi70","pricing_plan_id":"cebpf4jnsgd1na2vs0mg"},{"bike_id":"27c9adf0-5a2d-4b40-a0d2-7e33166d8640","system_id":"levelo_inurba_marseille","lat":43.27976,"lon":5.38667,"is_reserved":false,"is_disabled":true,"rental_uris":{"android":"levelo://app?vid=27c9adf0-5a2d-4b40-a0d2-7e33166d8640","ios":"levelo://app?vid=27c9adf0-5a2d-4b40-a0d2-7e33166d8640"},"vehicle_type_id":"4","last_reported":1781563394,"current_range_meters":6000,"station_id":"","pricing_plan_id":"cebpf4jnsgd1na2vs0mg"},{"bike_id":"9743948b-c46e-4e8f-a6f3-84b573fce9b8","system_id":"levelo_inurba_marseille","lat":43.28047,"lon":5.35331,"is_reserved":false,"is_disabled":true,"rental_uris":{"android":"levelo://app?vid=9743948b-c46e-4e8f-a6f3-84b573fce9b8","ios":"levelo://app?vid=9743948b-c46e-4e8f-a6f3-84b573fce9b8"},"vehicle_type_id":"4","last_reported":1781563394,"current_range_meters":6000,"station_id":"","pricing_plan_id":"cebpf4jnsgd1na2vs0mg"},{"bike_id":"e24ee435-28fc-4183-a5b5-680e22b01863","system_id":"levelo_inurba_marseille","lat":43.23201,"lon":5.35575,"is_reserved":false,"is_disabled":false,"rental_uris":{"android":"levelo://app?vid=e24ee435-28fc-4183-a5b5-680e22b01863","ios":"levelo://app?vid=e24ee435-28fc-4183-a5b5-680e22b01863"},"vehicle_type_id":"4","last_reported":1781563394,"current_range_meters":6000,"station_id":"ce4bhu92rcd13ifvqi70","pricing_plan_id":"cebpf4jnsgd1na2vs0mg"},{"bike_id":"4b7eaace-99b5-4774-8882-9721d191072b","system_id":"levelo_inurba_marseille","lat":43.31317,"lon":5.39743,"is_reserved":false,"is_disabled":false,"rental_uris":{"android":"levelo://app?vid=4b7eaace-99b5-4774-8882-9721d191072b","ios":"levelo://app?vid=4b7eaace-99b5-4774-8882-9721d191072b"},"vehicle_type_id":"4","last_reported":1781563394,"current_range_meters":6000,"station_id":"ce4bgvp2rcd13ifvqcu0","pricing_plan_id":"cebpf4jnsgd1na2vs0mg"},{"bike_id":"0cca5a1f-7507-49f7-9791-cbaeb1832311","system_id":"levelo_inurba_marseille","lat":43.24458,"lon":5.43962,"is_reserved":false,"is_disabled":false,"rental_uris":{"android":"levelo://app?vid=0cca5a1f-7507-49f7-9791-cbaeb1832311","ios":"levelo://app?vid=0cca5a1f-7507-49f7-9791-cbaeb1832311"},"vehicle_type_id":"4","last_reported":1781563394,"current_range_meters":6000,"station_id":"","pricing_plan_id":"cebpf4jnsgd1na2vs0mg"},{"bike_id":"85966d85-f405-4b8d-8627-a33ebd9b258f","system_id":"levelo_inurba_marseille","lat":43.28703,"lon":5.46905,"is_reserved":false,"is_disabled":false,"rental_uris":{"android":"levelo://app?vid=85966d85-f405-4b8d-8627-a33ebd9b258f","ios":"levelo://app?vid=85966d85-f405-4b8d-8627-a33ebd9b258f"},"vehicle_type_id":"4","last_reported":1781563394,"current_range_meters":6000,"station_id":"","pricing_plan_id":"cebpf4jnsgd1na2vs0mg"},{"bike_id":"8efd0c5a-1f2e-4989-81a1-ae6f9796fe1b","system_id":"levelo_inurba_marseille","lat":43.29551,"lon":5.42277,"is_reserved":false,"is_disabled":false,"rental_uris":{"android":"levelo://app?vid=8efd0c5a-1f2e-4989-81a1-ae6f9796fe1b","ios":"levelo://app?vid=8efd0c5a-1f2e-4989-81a1-ae6f9796fe1b"},"vehicle_type_id":"4","last_reported":1781563394,"current_range_meters":6000,"station_id":"ce4bhph2rcd13ifvqhdg","pricing_plan_id":"cebpf4jnsgd1na2vs0mg"},{"bike_id":"d932a5be-13d7-4c2c-8061-c002db7b6b3a","system_id":"levelo_inurba_marseille","lat":43.28385,"lon":5.4596,"is_reserved":false,"is_disabled":false,"rental_uris":{"android":"levelo://app?vid=d932a5be-13d7-4c2c-8061-c002db7b6b3a","ios":"levelo://app?vid=d932a5be-13d7-4c2c-8061-c002db7b6b3a"},"vehicle_type_id":"4","last_reported":1781563394,"current_range_meters":6000,"station_id":"","pricing_plan_id":"cebpf4jnsgd1na2vs0mg"},{"bike_id":"ad786be5-2e09-4658-be3d-ceceb7b4a725","system_id":"levelo_inurba_marseille","lat":43.2815,"lon":5.42647,"is_reserved":false,"is_disabled":false,"rental_uris":{"android":"levelo://app?vid=ad786be5-2e09-4658-be3d-ceceb7b4a725","ios":"levelo://app?vid=ad786be5-2e09-4658-be3d-ceceb7b4a725"},"vehicle_type_id":"4","last_reported":1781563394,"current_range_meters":6000,"station_id":"ce4bhnh2rcd13ifvqgug","pricing_plan_id":"cebpf4jnsgd1na2vs0mg"},{"bike_id":"61192ebe-27e0-45e0-be33-ab2a7ff89581","system_id":"levelo_inurba_marseille","lat":43.31356,"lon":5.38489,"is_reserved":false,"is_disabled":false,"rental_uris":{"android":"levelo://app?vid=61192ebe-27e0-45e0-be33-ab2a7ff89581","ios":"levelo://app?vid=61192ebe-27e0-45e0-be33-ab2a7ff89581"},"vehicle_type_id":"4","last_reported":1781563394,"current_range_meters":6000,"station_id":"ce4bgt92rcd13ifvqcf0","pricing_plan_id":"cebpf4jnsgd1na2vs0mg"},{"bike_id":"faab199b-f195-4600-9ace-1813703a26b2","system_id":"levelo_inurba_marseille","lat":43.22416,"lon":5.34753,"is_reserved":false,"is_disabled":false,"rental_uris":{"android":"levelo://app?vid=faab199b-f195-4600-9ace-1813703a26b2","ios":"levelo://app?vid=faab199b-f195-4600-9ace-1813703a26b2"},"vehicle_type_id":"4","last_reported":1781563394,"current_range_meters":6000,"station_id":"","pricing_plan_id":"cebpf4jnsgd1na2vs0mg"},{"bike_id":"c324f0c1-2267-4771-8379-c897baca7ba6","system_id":"levelo_inurba_marseille","lat":43.29603,"lon":5.38126,"is_reserved":false,"is_disabled":true,"rental_uris":{"android":"levelo://app?vid=c324f0c1-2267-4771-8379-c897baca7ba6","ios":"levelo://app?vid=c324f0c1-2267-4771-8379-c897baca7ba6"},"vehicle_type_id":"4","last_reported":1781563394,"current_range_meters":6000,"station_id":"ce4bgl12rcd13ifvqbo0","pricing_plan_id":"cebpf4jnsgd1na2vs0mg"},{"bike_id":"38d8c11f-8820-4075-87c9-d249fae0c2ec","system_id":"levelo_inurba_marseille","lat":43.28855,"lon":5.39306,"is_reserved":false,"is_disabled":true,"rental_uris":{"android":"levelo://app?vid=38d8c11f-8820-4075-87c9-d249fae0c2ec","ios":"levelo://app?vid=38d8c11f-8820-4075-87c9-d249fae0c2ec"},"vehicle_type_id":"4","last_reported":1781563394,"current_range_meters":6000,"station_id":"ce4bh2p2rcd13ifvqdi0","pricing_plan_id":"cebpf4jnsgd1na2vs0mg"},{"bike_id":"3c362e36-2f48-45f6-b66b-338f3efa190a","system_id":"levelo_inurba_marseille","lat":43.27949,"lon":5.41053,"is_reserved":false,"is_disabled":false,"rental_uris":{"android":"levelo://app?vid=3c362e36-2f48-45f6-b66b-338f3efa190a","ios":"levelo://app?vid=3c362e36-2f48-45f6-b66b-338f3efa190a"},"vehicle_type_id":"4","last_reported":1781563394,"current_range_meters":6000,"station_id":"ce4bhnp2rcd13ifvqh0g","pricing_plan_id":"cebpf4jnsgd1na2vs0mg"},{"bike_id":"719e511b-3d56-42bb-bd13-9807736e0037","system_id":"levelo_inurba_marseille","lat":43.24817,"lon":5.37474,"is_reserved":false,"is_disabled":false,"rental_uris":{"android":"levelo://app?vid=719e511b-3d56-42bb-bd13-9807736e0037","ios":"levelo://app?vid=719e511b-3d56-42bb-bd13-9807736e0037"},"vehicle_type_id":"4","last_reported":1781563394,"current_range_meters":6400,"station_id":"ce4bhgh2rcd13ifvqfb0","pricing_plan_id":"cebpf4jnsgd1na2vs0mg"},{"bike_id":"e2313909-b6a7-45a5-a8c8-987d11ccd375","system_id":"levelo_inurba_marseille","lat":43.23965,"lon":5.36632,"is_reserved":false,"is_disabled":false,"rental_uris":{"android":"levelo://app?vid=e2313909-b6a7-45a5-a8c8-987d11ccd375","ios":"levelo://app?vid=e2313909-b6a7-45a5-a8c8-987d11ccd375"},"vehicle_type_id":"4","last_reported":1781563394,"current_range_meters":6400,"station_id":"ce4bhi12rcd13ifvqfp0","pricing_plan_id":"cebpf4jnsgd1na2vs0mg"},{"bike_id":"4d486b94-00da-4227-ab54-134df4ce6bc0","system_id":"levelo_inurba_marseille","lat":43.28458,"lon":5.35877,"is_reserved":false,"is_disabled":false,"rental_uris":{"android":"levelo://app?vid=4d486b94-00da-4227-ab54-134df4ce6bc0","ios":"levelo://app?vid=4d486b94-00da-4227-ab54-134df4ce6bc0"},"vehicle_type_id":"4","last_reported":1781563394,"current_range_meters":6400,"station_id":"ce4bhah2rcd13ifvqei0","pricing_plan_id":"cebpf4jnsgd1na2vs0mg"},{"bike_id":"0664e133-7b00-41bb-8bd6-5fd89c6bf821","system_id":"levelo_inurba_marseille","lat":43.27726,"lon":5.3959,"is_reserved":false,"is_disabled":false,"rental_uris":{"android":"levelo://app?vid=0664e133-7b00-41bb-8bd6-5fd89c6bf821","ios":"levelo://app?vid=0664e133-7b00-41bb-8bd6-5fd89c6bf821"},"vehicle_type_id":"4","last_reported":1781563394,"current_range_meters":6400,"station_id":"","pricing_plan_id":"cebpf4jnsgd1na2vs0mg"},{"bike_id":"e6e7c8fc-7a32-4d23-b263-ec3eec9fdffb","system_id":"levelo_inurba_marseille","lat":43.28474,"lon":5.48389,"is_reserved":false,"is_disabled":false,"rental_uris":{"android":"levelo://app?vid=e6e7c8fc-7a32-4d23-b263-ec3eec9fdffb","ios":"levelo://app?vid=e6e7c8fc-7a32-4d23-b263-ec3eec9fdffb"},"vehicle_type_id":"4","last_reported":1781563394,"current_range_meters":6400,"station_id":"st_d3svhcjqgbts73a3dn0g","pricing_plan_id":"cebpf4jnsgd1na2vs0mg"},{"bike_id":"63fdcb2d-5b5b-4004-bf56-644258a99127","system_id":"levelo_inurba_marseille","lat":43.30122,"lon":5.4309,"is_reserved":false,"is_disabled":false,"rental_uris":{"android":"levelo://app?vid=63fdcb2d-5b5b-4004-bf56-644258a99127","ios":"levelo://app?vid=63fdcb2d-5b5b-4004-bf56-644258a99127"},"vehicle_type_id":"4","last_reported":1781563394,"current_range_meters":6400,"station_id":"st_d3js3co5814s73ftftug","pricing_plan_id":"cebpf4jnsgd1na2vs0mg"},{"bike_id":"db41b9eb-9acb-49cf-84cd-8f9e13edc202","system_id":"levelo_inurba_marseille","lat":43.30203,"lon":5.41773,"is_reserved":false,"is_disabled":false,"rental_uris":{"android":"levelo://app?vid=db41b9eb-9acb-49cf-84cd-8f9e13edc202","ios":"levelo://app?vid=db41b9eb-9acb-49cf-84cd-8f9e13edc202"},"vehicle_type_id":"4","last_reported":1781563394,"current_range_meters":6400,"station_id":"","pricing_plan_id":"cebpf4jnsgd1na2vs0mg"},{"bike_id":"d27f1b82-f6a1-46ff-8f2b-1d48ea3e4d67","system_id":"levelo_inurba_marseille","lat":43.23049,"lon":5.35508,"is_reserved":false,"is_disabled":true,"rental_uris":{"android":"levelo://app?vid=d27f1b82-f6a1-46ff-8f2b-1d48ea3e4d67","ios":"levelo://app?vid=d27f1b82-f6a1-46ff-8f2b-1d48ea3e4d67"},"vehicle_type_id":"4","last_reported":1781563394,"current_range_meters":6400,"station_id":"cpo3342slgdg3j2ifvpg","pricing_plan_id":"cebpf4jnsgd1na2vs0mg"},{"bike_id":"6d00de16-b695-4828-9793-13ca6b92168c","system_id":"levelo_inurba_marseille","lat":43.27848,"lon":5.39217,"is_reserved":false,"is_disabled":false,"rental_uris":{"android":"levelo://app?vid=6d00de16-b695-4828-9793-13ca6b92168c","ios":"levelo://app?vid=6d00de16-b695-4828-9793-13ca6b92168c"},"vehicle_type_id":"4","last_reported":1781563394,"current_range_meters":6400,"station_id":"ce4bhjp2rcd13ifvqga0","pricing_plan_id":"cebpf4jnsgd1na2vs0mg"},{"bike_id":"5bfa3ee6-6ffa-4b34-abde-6ede79dc7478","system_id":"levelo_inurba_marseille","lat":43.28617,"lon":5.37001,"is_reserved":false,"is_disabled":false,"rental_uris":{"android":"levelo://app?vid=5bfa3ee6-6ffa-4b34-abde-6ede79dc7478","ios":"levelo://app?vid=5bfa3ee6-6ffa-4b34-abde-6ede79dc7478"},"vehicle_type_id":"4","last_reported":1781563394,"current_range_meters":6400,"station_id":"","pricing_plan_id":"cebpf4jnsgd1na2vs0mg"},{"bike_id":"cc980f81-a787-4603-bb2d-dde020f6a007","system_id":"levelo_inurba_marseille","lat":43.32667,"lon":5.41001,"is_reserved":false,"is_disabled":false,"rental_uris":{"android":"levelo://app?vid=cc980f81-a787-4603-bb2d-dde020f6a007","ios":"levelo://app?vid=cc980f81-a787-4603-bb2d-dde020f6a007"},"vehicle_type_id":"4","last_reported":1781563394,"current_range_meters":6400,"station_id":"ce4bhpp2rcd13ifvqhgg","pricing_plan_id":"cebpf4jnsgd1na2vs0mg"},{"bike_id":"bfa9cb94-9011-4a39-87ab-a819c31daaf4","system_id":"levelo_inurba_marseille","lat":43.24483,"lon":5.42516,"is_reserved":false,"is_disabled":false,"rental_uris":{"android":"levelo://app?vid=bfa9cb94-9011-4a39-87ab-a819c31daaf4","ios":"levelo://app?vid=bfa9cb94-9011-4a39-87ab-a819c31daaf4"},"vehicle_type_id":"4","last_reported":1781563394,"current_range_meters":6400,"station_id":"st_d4a3vfp97mjs738cd8kg","pricing_plan_id":"cebpf4jnsgd1na2vs0mg"},{"bike_id":"43e1faec-09da-4bd8-b276-a382d9a0bf09","system_id":"levelo_inurba_marseille","lat":43.27496,"lon":5.42454,"is_reserved":false,"is_disabled":false,"rental_uris":{"android":"levelo://app?vid=43e1faec-09da-4bd8-b276-a382d9a0bf09","ios":"levelo://app?vid=43e1faec-09da-4bd8-b276-a382d9a0bf09"},"vehicle_type_id":"4","last_reported":1781563394,"current_range_meters":6400,"station_id":"ce4bhn92rcd13ifvqgrg","pricing_plan_id":"cebpf4jnsgd1na2vs0mg"},{"bike_id":"cd06302c-11e6-4b40-8f44-7b482b32d4dc","system_id":"levelo_inurba_marseille","lat":43.31176,"lon":5.36802,"is_reserved":false,"is_disabled":true,"rental_uris":{"android":"levelo://app?vid=cd06302c-11e6-4b40-8f44-7b482b32d4dc","ios":"levelo://app?vid=cd06302c-11e6-4b40-8f44-7b482b32d4dc"},"vehicle_type_id":"4","last_reported":1781563394,"current_range_meters":6400,"station_id":"","pricing_plan_id":"cebpf4jnsgd1na2vs0mg"},{"bike_id":"7ad6749c-d621-468a-b3c9-10abd95885e0","system_id":"levelo_inurba_marseille","lat":43.22563,"lon":5.41667,"is_reserved":false,"is_disabled":false,"rental_uris":{"android":"levelo://app?vid=7ad6749c-d621-468a-b3c9-10abd95885e0","ios":"levelo://app?vid=7ad6749c-d621-468a-b3c9-10abd95885e0"},"vehicle_type_id":"4","last_reported":1781563394,"current_range_meters":6800,"station_id":"st_d2o4gvlbi1j2169b742g","pricing_plan_id":"cebpf4jnsgd1na2vs0mg"},{"bike_id":"1ab857ca-928f-44cb-9cde-1dfd221a0f9d","system_id":"levelo_inurba_marseille","lat":43.26596,"lon":5.39034,"is_reserved":false,"is_disabled":false,"rental_uris":{"android":"levelo://app?vid=1ab857ca-928f-44cb-9cde-1dfd221a0f9d","ios":"levelo://app?vid=1ab857ca-928f-44cb-9cde-1dfd221a0f9d"},"vehicle_type_id":"4","last_reported":1781563394,"current_range_meters":6800,"station_id":"ce4bhe12rcd13ifvqf30","pricing_plan_id":"cebpf4jnsgd1na2vs0mg"},{"bike_id":"0a66c20d-f49a-4077-aba7-7854e3abcbe8","system_id":"levelo_inurba_marseille","lat":43.29498,"lon":5.39392,"is_reserved":false,"is_disabled":false,"rental_uris":{"android":"levelo://app?vid=0a66c20d-f49a-4077-aba7-7854e3abcbe8","ios":"levelo://app?vid=0a66c20d-f49a-4077-aba7-7854e3abcbe8"},"vehicle_type_id":"4","last_reported":1781563394,"current_range_meters":6800,"station_id":"ce4bh292rcd13ifvqdf0","pricing_plan_id":"cebpf4jnsgd1na2vs0mg"},{"bike_id":"a2654b81-3d87-4919-946f-74f161902ea0","system_id":"levelo_inurba_marseille","lat":43.28095,"lon":5.37862,"is_reserved":false,"is_disabled":false,"rental_uris":{"android":"levelo://app?vid=a2654b81-3d87-4919-946f-74f161902ea0","ios":"levelo://app?vid=a2654b81-3d87-4919-946f-74f161902ea0"},"vehicle_type_id":"4","last_reported":1781563394,"current_range_meters":6800,"station_id":"ce4bha12rcd13ifvqee0","pricing_plan_id":"cebpf4jnsgd1na2vs0mg"},{"bike_id":"d1fe4607-d904-483c-ab68-d6487b306366","system_id":"levelo_inurba_marseille","lat":43.27215,"lon":5.39163,"is_reserved":false,"is_disabled":true,"rental_uris":{"android":"levelo://app?vid=d1fe4607-d904-483c-ab68-d6487b306366","ios":"levelo://app?vid=d1fe4607-d904-483c-ab68-d6487b306366"},"vehicle_type_id":"4","last_reported":1781563394,"current_range_meters":6800,"station_id":"ce4bhhp2rcd13ifvqfm0","pricing_plan_id":"cebpf4jnsgd1na2vs0mg"},{"bike_id":"f9ad348e-581c-4bfe-ae5c-69a0be30be7f","system_id":"levelo_inurba_marseille","lat":43.28447,"lon":5.37192,"is_reserved":false,"is_disabled":true,"rental_uris":{"android":"levelo://app?vid=f9ad348e-581c-4bfe-ae5c-69a0be30be7f","ios":"levelo://app?vid=f9ad348e-581c-4bfe-ae5c-69a0be30be7f"},"vehicle_type_id":"4","last_reported":1781563394,"current_range_meters":6800,"station_id":"","pricing_plan_id":"cebpf4jnsgd1na2vs0mg"},{"bike_id":"1066ffdb-1fb4-4374-a881-2eb6af6437b1","system_id":"levelo_inurba_marseille","lat":43.25101,"lon":5.39507,"is_reserved":false,"is_disabled":false,"rental_uris":{"android":"levelo://app?vid=1066ffdb-1fb4-4374-a881-2eb6af6437b1","ios":"levelo://app?vid=1066ffdb-1fb4-4374-a881-2eb6af6437b1"},"vehicle_type_id":"4","last_reported":1781563394,"current_range_meters":6800,"station_id":"ce4bhm12rcd13ifvqgkg","pricing_plan_id":"cebpf4jnsgd1na2vs0mg"},{"bike_id":"a8690b33-2a3e-42e6-a1b4-22fc78cc9d7b","system_id":"levelo_inurba_marseille","lat":43.28657,"lon":5.36366,"is_reserved":false,"is_disabled":false,"rental_uris":{"android":"levelo://app?vid=a8690b33-2a3e-42e6-a1b4-22fc78cc9d7b","ios":"levelo://app?vid=a8690b33-2a3e-42e6-a1b4-22fc78cc9d7b"},"vehicle_type_id":"4","last_reported":1781563394,"current_range_meters":6800,"station_id":"ce4bhah2rcd13ifvqej0","pricing_plan_id":"cebpf4jnsgd1na2vs0mg"},{"bike_id":"9a2a9ff2-887f-4a61-8e0d-c48cb11a9171","system_id":"levelo_inurba_marseille","lat":43.28695,"lon":5.39986,"is_reserved":false,"is_disabled":false,"rental_uris":{"android":"levelo://app?vid=9a2a9ff2-887f-4a61-8e0d-c48cb11a9171","ios":"levelo://app?vid=9a2a9ff2-887f-4a61-8e0d-c48cb11a9171"},"vehicle_type_id":"4","last_reported":1781563394,"current_range_meters":6800,"station_id":"ce4bho92rcd13ifvqh3g","pricing_plan_id":"cebpf4jnsgd1na2vs0mg"},{"bike_id":"7cbcdbae-21eb-4d39-afa2-b1a54afd0845","system_id":"levelo_inurba_marseille","lat":43.26503,"lon":5.40742,"is_reserved":false,"is_disabled":false,"rental_uris":{"android":"levelo://app?vid=7cbcdbae-21eb-4d39-afa2-b1a54afd0845","ios":"levelo://app?vid=7cbcdbae-21eb-4d39-afa2-b1a54afd0845"},"vehicle_type_id":"4","last_reported":1781563394,"current_range_meters":6800,"station_id":"","pricing_plan_id":"cebpf4jnsgd1na2vs0mg"},{"bike_id":"8d7f0aae-f593-4382-b140-1520323a8c6d","system_id":"levelo_inurba_marseille","lat":43.24382,"lon":5.37054,"is_reserved":false,"is_disabled":false,"rental_uris":{"android":"levelo://app?vid=8d7f0aae-f593-4382-b140-1520323a8c6d","ios":"levelo://app?vid=8d7f0aae-f593-4382-b140-1520323a8c6d"},"vehicle_type_id":"4","last_reported":1781563394,"current_range_meters":6800,"station_id":"ce4bhhh2rcd13ifvqfk0","pricing_plan_id":"cebpf4jnsgd1na2vs0mg"},{"bike_id":"7305844b-fd35-4f9a-bcb2-b94a14914d46","system_id":"levelo_inurba_marseille","lat":43.2305,"lon":5.35493,"is_reserved":false,"is_disabled":false,"rental_uris":{"android":"levelo://app?vid=7305844b-fd35-4f9a-bcb2-b94a14914d46","ios":"levelo://app?vid=7305844b-fd35-4f9a-bcb2-b94a14914d46"},"vehicle_type_id":"4","last_reported":1781563394,"current_range_meters":6800,"station_id":"cpo3342slgdg3j2ifvpg","pricing_plan_id":"cebpf4jnsgd1na2vs0mg"},{"bike_id":"592ad601-2e12-431d-a095-97465052e004","system_id":"levelo_inurba_marseille","lat":43.3049,"lon":5.37908,"is_reserved":false,"is_disabled":false,"rental_uris":{"android":"levelo://app?vid=592ad601-2e12-431d-a095-97465052e004","ios":"levelo://app?vid=592ad601-2e12-431d-a095-97465052e004"},"vehicle_type_id":"4","last_reported":1781563394,"current_range_meters":6800,"station_id":"ce4bgup2rcd13ifvqcn0","pricing_plan_id":"cebpf4jnsgd1na2vs0mg"},{"bike_id":"869a35d6-4bbc-402c-864c-409fcbfc7479","system_id":"levelo_inurba_marseille","lat":43.24956,"lon":5.40505,"is_reserved":false,"is_disabled":false,"rental_uris":{"android":"levelo://app?vid=869a35d6-4bbc-402c-864c-409fcbfc7479","ios":"levelo://app?vid=869a35d6-4bbc-402c-864c-409fcbfc7479"},"vehicle_type_id":"4","last_reported":1781563394,"current_range_meters":6800,"station_id":"st_d2ngiaodas8pm72gd1h0","pricing_plan_id":"cebpf4jnsgd1na2vs0mg"},{"bike_id":"095b68c7-9cac-4034-b531-2afc92d2b9e1","system_id":"levelo_inurba_marseille","lat":43.28668,"lon":5.36365,"is_reserved":false,"is_disabled":false,"rental_uris":{"android":"levelo://app?vid=095b68c7-9cac-4034-b531-2afc92d2b9e1","ios":"levelo://app?vid=095b68c7-9cac-4034-b531-2afc92d2b9e1"},"vehicle_type_id":"4","last_reported":1781563394,"current_range_meters":7200,"station_id":"ce4bhah2rcd13ifvqej0","pricing_plan_id":"cebpf4jnsgd1na2vs0mg"},{"bike_id":"b4730d5c-df75-42d5-84ec-3d7263fb3091","system_id":"levelo_inurba_marseille","lat":43.22673,"lon":5.34795,"is_reserved":false,"is_disabled":false,"rental_uris":{"android":"levelo://app?vid=b4730d5c-df75-42d5-84ec-3d7263fb3091","ios":"levelo://app?vid=b4730d5c-df75-42d5-84ec-3d7263fb3091"},"vehicle_type_id":"4","last_reported":1781563394,"current_range_meters":7200,"station_id":"","pricing_plan_id":"cebpf4jnsgd1na2vs0mg"},{"bike_id":"3b6818b8-9c82-4bd3-b2a4-d38a38b4db1b","system_id":"levelo_inurba_marseille","lat":43.28149,"lon":5.42626,"is_reserved":false,"is_disabled":false,"rental_uris":{"android":"levelo://app?vid=3b6818b8-9c82-4bd3-b2a4-d38a38b4db1b","ios":"levelo://app?vid=3b6818b8-9c82-4bd3-b2a4-d38a38b4db1b"},"vehicle_type_id":"4","last_reported":1781563394,"current_range_meters":7200,"station_id":"ce4bhnh2rcd13ifvqgug","pricing_plan_id":"cebpf4jnsgd1na2vs0mg"},{"bike_id":"652501cd-58a0-40ec-8409-d9ad72f51281","system_id":"levelo_inurba_marseille","lat":43.30771,"lon":5.37655,"is_reserved":false,"is_disabled":true,"rental_uris":{"android":"levelo://app?vid=652501cd-58a0-40ec-8409-d9ad72f51281","ios":"levelo://app?vid=652501cd-58a0-40ec-8409-d9ad72f51281"},"vehicle_type_id":"4","last_reported":1781563394,"current_range_meters":7200,"station_id":"ce4bgv92rcd13ifvqcq0","pricing_plan_id":"cebpf4jnsgd1na2vs0mg"},{"bike_id":"846efb49-dc50-4ee1-b3c8-d207b5acedf0","system_id":"levelo_inurba_marseille","lat":43.31699,"lon":5.40463,"is_reserved":false,"is_disabled":false,"rental_uris":{"android":"levelo://app?vid=846efb49-dc50-4ee1-b3c8-d207b5acedf0","ios":"levelo://app?vid=846efb49-dc50-4ee1-b3c8-d207b5acedf0"},"vehicle_type_id":"4","last_reported":1781563394,"current_range_meters":7200,"station_id":"ce4bh012rcd13ifvqd00","pricing_plan_id":"cebpf4jnsgd1na2vs0mg"},{"bike_id":"8ac4c1f7-a708-4f96-b505-f368096cff26","system_id":"levelo_inurba_marseille","lat":43.24384,"lon":5.37061,"is_reserved":false,"is_disabled":false,"rental_uris":{"android":"levelo://app?vid=8ac4c1f7-a708-4f96-b505-f368096cff26","ios":"levelo://app?vid=8ac4c1f7-a708-4f96-b505-f368096cff26"},"vehicle_type_id":"4","last_reported":1781563394,"current_range_meters":7200,"station_id":"ce4bhhh2rcd13ifvqfk0","pricing_plan_id":"cebpf4jnsgd1na2vs0mg"},{"bike_id":"1e805f45-94b9-4d5c-8991-1a4dce4a5839","system_id":"levelo_inurba_marseille","lat":43.24706,"lon":5.39492,"is_reserved":false,"is_disabled":false,"rental_uris":{"android":"levelo://app?vid=1e805f45-94b9-4d5c-8991-1a4dce4a5839","ios":"levelo://app?vid=1e805f45-94b9-4d5c-8991-1a4dce4a5839"},"vehicle_type_id":"4","last_reported":1781563394,"current_range_meters":7200,"station_id":"","pricing_plan_id":"cebpf4jnsgd1na2vs0mg"},{"bike_id":"dfcd87f8-a6c4-4e7f-94f9-bf1aabe49a4c","system_id":"levelo_inurba_marseille","lat":43.29591,"lon":5.39971,"is_reserved":false,"is_disabled":false,"rental_uris":{"android":"levelo://app?vid=dfcd87f8-a6c4-4e7f-94f9-bf1aabe49a4c","ios":"levelo://app?vid=dfcd87f8-a6c4-4e7f-94f9-bf1aabe49a4c"},"vehicle_type_id":"4","last_reported":1781563394,"current_range_meters":7200,"station_id":"ce4bh312rcd13ifvqdj0","pricing_plan_id":"cebpf4jnsgd1na2vs0mg"},{"bike_id":"a474483b-3b57-45ac-9171-b0416b26bb53","system_id":"levelo_inurba_marseille","lat":43.30649,"lon":5.40099,"is_reserved":false,"is_disabled":false,"rental_uris":{"android":"levelo://app?vid=a474483b-3b57-45ac-9171-b0416b26bb53","ios":"levelo://app?vid=a474483b-3b57-45ac-9171-b0416b26bb53"},"vehicle_type_id":"4","last_reported":1781563394,"current_range_meters":7200,"station_id":"ce4bh112rcd13ifvqda0","pricing_plan_id":"cebpf4jnsgd1na2vs0mg"},{"bike_id":"ba64b955-0d73-4058-8738-77a03cf2dc7a","system_id":"levelo_inurba_marseille","lat":43.22559,"lon":5.41643,"is_reserved":false,"is_disabled":false,"rental_uris":{"android":"levelo://app?vid=ba64b955-0d73-4058-8738-77a03cf2dc7a","ios":"levelo://app?vid=ba64b955-0d73-4058-8738-77a03cf2dc7a"},"vehicle_type_id":"4","last_reported":1781563394,"current_range_meters":7200,"station_id":"st_d2o4gvlbi1j2169b742g","pricing_plan_id":"cebpf4jnsgd1na2vs0mg"},{"bike_id":"5ba5ca3b-373f-47a4-8ede-22d92aac3721","system_id":"levelo_inurba_marseille","lat":43.28934,"lon":5.36408,"is_reserved":false,"is_disabled":true,"rental_uris":{"android":"levelo://app?vid=5ba5ca3b-373f-47a4-8ede-22d92aac3721","ios":"levelo://app?vid=5ba5ca3b-373f-47a4-8ede-22d92aac3721"},"vehicle_type_id":"4","last_reported":1781563394,"current_range_meters":7200,"station_id":"ce4bhc92rcd13ifvqetg","pricing_plan_id":"cebpf4jnsgd1na2vs0mg"},{"bike_id":"fc330720-30fd-4948-9971-1a95a83d03fc","system_id":"levelo_inurba_marseille","lat":43.27931,"lon":5.41084,"is_reserved":false,"is_disabled":false,"rental_uris":{"android":"levelo://app?vid=fc330720-30fd-4948-9971-1a95a83d03fc","ios":"levelo://app?vid=fc330720-30fd-4948-9971-1a95a83d03fc"},"vehicle_type_id":"4","last_reported":1781563394,"current_range_meters":7200,"station_id":"ce4bhnp2rcd13ifvqh0g","pricing_plan_id":"cebpf4jnsgd1na2vs0mg"},{"bike_id":"d5508669-6646-45f6-9fa1-a09fb472fd0b","system_id":"levelo_inurba_marseille","lat":43.29192,"lon":5.39297,"is_reserved":false,"is_disabled":true,"rental_uris":{"android":"levelo://app?vid=d5508669-6646-45f6-9fa1-a09fb472fd0b","ios":"levelo://app?vid=d5508669-6646-45f6-9fa1-a09fb472fd0b"},"vehicle_type_id":"4","last_reported":1781563394,"current_range_meters":7200,"station_id":"ce4bh192rcd13ifvqdd0","pricing_plan_id":"cebpf4jnsgd1na2vs0mg"},{"bike_id":"2aa5eac9-c087-436b-b40f-d916197fd321","system_id":"levelo_inurba_marseille","lat":43.29573,"lon":5.375,"is_reserved":false,"is_disabled":true,"rental_uris":{"android":"levelo://app?vid=2aa5eac9-c087-436b-b40f-d916197fd321","ios":"levelo://app?vid=2aa5eac9-c087-436b-b40f-d916197fd321"},"vehicle_type_id":"4","last_reported":1781563394,"current_range_meters":7200,"station_id":"ce4bgh92rcd13ifvqb50","pricing_plan_id":"cebpf4jnsgd1na2vs0mg"},{"bike_id":"f6684ae3-304e-4fa5-a69c-b60648b26380","system_id":"levelo_inurba_marseille","lat":43.29498,"lon":5.3942,"is_reserved":false,"is_disabled":false,"rental_uris":{"android":"levelo://app?vid=f6684ae3-304e-4fa5-a69c-b60648b26380","ios":"levelo://app?vid=f6684ae3-304e-4fa5-a69c-b60648b26380"},"vehicle_type_id":"4","last_reported":1781563394,"current_range_meters":7200,"station_id":"ce4bh292rcd13ifvqdf0","pricing_plan_id":"cebpf4jnsgd1na2vs0mg"},{"bike_id":"4da64aaa-07c6-4e3f-a981-6e55ac68ca8b","system_id":"levelo_inurba_marseille","lat":43.28135,"lon":5.38912,"is_reserved":false,"is_disabled":false,"rental_uris":{"android":"levelo://app?vid=4da64aaa-07c6-4e3f-a981-6e55ac68ca8b","ios":"levelo://app?vid=4da64aaa-07c6-4e3f-a981-6e55ac68ca8b"},"vehicle_type_id":"4","last_reported":1781563394,"current_range_meters":7200,"station_id":"","pricing_plan_id":"cebpf4jnsgd1na2vs0mg"},{"bike_id":"85c13243-7921-4bc5-aeeb-8615f18e1cbd","system_id":"levelo_inurba_marseille","lat":43.26395,"lon":5.4105,"is_reserved":false,"is_disabled":false,"rental_uris":{"android":"levelo://app?vid=85c13243-7921-4bc5-aeeb-8615f18e1cbd","ios":"levelo://app?vid=85c13243-7921-4bc5-aeeb-8615f18e1cbd"},"vehicle_type_id":"4","last_reported":1781563394,"current_range_meters":7200,"station_id":"st_d4e5ca6na9uc73bfl5fg","pricing_plan_id":"cebpf4jnsgd1na2vs0mg"},{"bike_id":"e19a2b9d-c42d-4230-8c63-3a57ee9f732d","system_id":"levelo_inurba_marseille","lat":43.28464,"lon":5.484,"is_reserved":false,"is_disabled":false,"rental_uris":{"android":"levelo://app?vid=e19a2b9d-c42d-4230-8c63-3a57ee9f732d","ios":"levelo://app?vid=e19a2b9d-c42d-4230-8c63-3a57ee9f732d"},"vehicle_type_id":"4","last_reported":1781563394,"current_range_meters":7200,"station_id":"st_d3svhcjqgbts73a3dn0g","pricing_plan_id":"cebpf4jnsgd1na2vs0mg"},{"bike_id":"e7ecc749-68bf-4ad3-8a4f-79ec4fe4cd36","system_id":"levelo_inurba_marseille","lat":43.30098,"lon":5.39079,"is_reserved":false,"is_disabled":false,"rental_uris":{"android":"levelo://app?vid=e7ecc749-68bf-4ad3-8a4f-79ec4fe4cd36","ios":"levelo://app?vid=e7ecc749-68bf-4ad3-8a4f-79ec4fe4cd36"},"vehicle_type_id":"4","last_reported":1781563394,"current_range_meters":7200,"station_id":"ce4bh192rcd13ifvqdb0","pricing_plan_id":"cebpf4jnsgd1na2vs0mg"},{"bike_id":"6bdc7d01-136b-4f8c-b657-9487e2ed98f5","system_id":"levelo_inurba_marseille","lat":43.25115,"lon":5.40325,"is_reserved":false,"is_disabled":false,"rental_uris":{"android":"levelo://app?vid=6bdc7d01-136b-4f8c-b657-9487e2ed98f5","ios":"levelo://app?vid=6bdc7d01-136b-4f8c-b657-9487e2ed98f5"},"vehicle_type_id":"4","last_reported":1781563394,"current_range_meters":7200,"station_id":"ce4bhlh2rcd13ifvqgig","pricing_plan_id":"cebpf4jnsgd1na2vs0mg"},{"bike_id":"7c03db94-6fe3-4182-abc9-1f74746d5fbd","system_id":"levelo_inurba_marseille","lat":43.30467,"lon":5.37906,"is_reserved":false,"is_disabled":true,"rental_uris":{"android":"levelo://app?vid=7c03db94-6fe3-4182-abc9-1f74746d5fbd","ios":"levelo://app?vid=7c03db94-6fe3-4182-abc9-1f74746d5fbd"},"vehicle_type_id":"4","last_reported":1781563394,"current_range_meters":7200,"station_id":"ce4bgup2rcd13ifvqcn0","pricing_plan_id":"cebpf4jnsgd1na2vs0mg"},{"bike_id":"057f3a6a-a18f-4a81-a71c-a694de13f1c6","system_id":"levelo_inurba_marseille","lat":43.2991,"lon":5.39748,"is_reserved":false,"is_disabled":false,"rental_uris":{"android":"levelo://app?vid=057f3a6a-a18f-4a81-a71c-a694de13f1c6","ios":"levelo://app?vid=057f3a6a-a18f-4a81-a71c-a694de13f1c6"},"vehicle_type_id":"4","last_reported":1781563394,"current_range_meters":7200,"station_id":"ce4bh0h2rcd13ifvqd50","pricing_plan_id":"cebpf4jnsgd1na2vs0mg"},{"bike_id":"d3633bdb-2a7f-4a6d-9dc3-65492501ae81","system_id":"levelo_inurba_marseille","lat":43.289703,"lon":5.378395,"is_reserved":false,"is_disabled":false,"rental_uris":{"android":"levelo://app?vid=d3633bdb-2a7f-4a6d-9dc3-65492501ae81","ios":"levelo://app?vid=d3633bdb-2a7f-4a6d-9dc3-65492501ae81"},"vehicle_type_id":"4","last_reported":1781563394,"current_range_meters":7200,"station_id":"ce4bh9p2rcd13ifvqed0","pricing_plan_id":"cebpf4jnsgd1na2vs0mg"},{"bike_id":"cfd21675-029e-4ee0-90aa-39d73e29e21d","system_id":"levelo_inurba_marseille","lat":43.27943,"lon":5.4105,"is_reserved":false,"is_disabled":false,"rental_uris":{"android":"levelo://app?vid=cfd21675-029e-4ee0-90aa-39d73e29e21d","ios":"levelo://app?vid=cfd21675-029e-4ee0-90aa-39d73e29e21d"},"vehicle_type_id":"4","last_reported":1781563394,"current_range_meters":7200,"station_id":"ce4bhnp2rcd13ifvqh0g","pricing_plan_id":"cebpf4jnsgd1na2vs0mg"},{"bike_id":"1581e75f-604d-4f8b-85f9-0d4f29e073b3","system_id":"levelo_inurba_marseille","lat":43.30331,"lon":5.40449,"is_reserved":false,"is_disabled":false,"rental_uris":{"android":"levelo://app?vid=1581e75f-604d-4f8b-85f9-0d4f29e073b3","ios":"levelo://app?vid=1581e75f-604d-4f8b-85f9-0d4f29e073b3"},"vehicle_type_id":"4","last_reported":1781563394,"current_range_meters":7200,"station_id":"ce4bh012rcd13ifvqd10","pricing_plan_id":"cebpf4jnsgd1na2vs0mg"},{"bike_id":"a2985b41-9df9-45d0-a4bb-22b8d4bc22b4","system_id":"levelo_inurba_marseille","lat":43.30804,"lon":5.38175,"is_reserved":false,"is_disabled":false,"rental_uris":{"android":"levelo://app?vid=a2985b41-9df9-45d0-a4bb-22b8d4bc22b4","ios":"levelo://app?vid=a2985b41-9df9-45d0-a4bb-22b8d4bc22b4"},"vehicle_type_id":"4","last_reported":1781563394,"current_range_meters":7200,"station_id":"ce4bgt12rcd13ifvqce0","pricing_plan_id":"cebpf4jnsgd1na2vs0mg"},{"bike_id":"51f745fa-3c53-461d-b870-31922a948693","system_id":"levelo_inurba_marseille","lat":43.23166,"lon":5.40482,"is_reserved":false,"is_disabled":false,"rental_uris":{"android":"levelo://app?vid=51f745fa-3c53-461d-b870-31922a948693","ios":"levelo://app?vid=51f745fa-3c53-461d-b870-31922a948693"},"vehicle_type_id":"4","last_reported":1781563394,"current_range_meters":7200,"station_id":"","pricing_plan_id":"cebpf4jnsgd1na2vs0mg"},{"bike_id":"86ee25b2-2f21-424f-9c42-98211711660b","system_id":"levelo_inurba_marseille","lat":43.23974,"lon":5.36614,"is_reserved":false,"is_disabled":false,"rental_uris":{"android":"levelo://app?vid=86ee25b2-2f21-424f-9c42-98211711660b","ios":"levelo://app?vid=86ee25b2-2f21-424f-9c42-98211711660b"},"vehicle_type_id":"4","last_reported":1781563394,"current_range_meters":8000,"station_id":"ce4bhi12rcd13ifvqfp0","pricing_plan_id":"cebpf4jnsgd1na2vs0mg"},{"bike_id":"6ece36cf-6929-4dff-95a4-0da954ae57c0","system_id":"levelo_inurba_marseille","lat":43.29635,"lon":5.37717,"is_reserved":false,"is_disabled":false,"rental_uris":{"android":"levelo://app?vid=6ece36cf-6929-4dff-95a4-0da954ae57c0","ios":"levelo://app?vid=6ece36cf-6929-4dff-95a4-0da954ae57c0"},"vehicle_type_id":"4","last_reported":1781563394,"current_range_meters":8000,"station_id":"ce4bgi92rcd13ifvqb90","pricing_plan_id":"cebpf4jnsgd1na2vs0mg"},{"bike_id":"ccff0d65-a8f7-44be-b82a-69dbb09dcdb7","system_id":"levelo_inurba_marseille","lat":43.29516,"lon":5.39403,"is_reserved":false,"is_disabled":false,"rental_uris":{"android":"levelo://app?vid=ccff0d65-a8f7-44be-b82a-69dbb09dcdb7","ios":"levelo://app?vid=ccff0d65-a8f7-44be-b82a-69dbb09dcdb7"},"vehicle_type_id":"4","last_reported":1781563394,"current_range_meters":8000,"station_id":"ce4bh292rcd13ifvqdf0","pricing_plan_id":"cebpf4jnsgd1na2vs0mg"},{"bike_id":"4599021c-30ad-4517-b8f7-7f87fe21393f","system_id":"levelo_inurba_marseille","lat":43.31513,"lon":5.4013,"is_reserved":false,"is_disabled":false,"rental_uris":{"android":"levelo://app?vid=4599021c-30ad-4517-b8f7-7f87fe21393f","ios":"levelo://app?vid=4599021c-30ad-4517-b8f7-7f87fe21393f"},"vehicle_type_id":"4","last_reported":1781563394,"current_range_meters":8000,"station_id":"","pricing_plan_id":"cebpf4jnsgd1na2vs0mg"},{"bike_id":"f91ab2ff-d2dc-4818-abb3-66ec034101b9","system_id":"levelo_inurba_marseille","lat":43.30328,"lon":5.40477,"is_reserved":false,"is_disabled":false,"rental_uris":{"android":"levelo://app?vid=f91ab2ff-d2dc-4818-abb3-66ec034101b9","ios":"levelo://app?vid=f91ab2ff-d2dc-4818-abb3-66ec034101b9"},"vehicle_type_id":"4","last_reported":1781563394,"current_range_meters":8000,"station_id":"ce4bh012rcd13ifvqd10","pricing_plan_id":"cebpf4jnsgd1na2vs0mg"},{"bike_id":"47e52d70-cf70-4153-8a1c-a980e4308d72","system_id":"levelo_inurba_marseille","lat":43.28423,"lon":5.37529,"is_reserved":false,"is_disabled":false,"rental_uris":{"android":"levelo://app?vid=47e52d70-cf70-4153-8a1c-a980e4308d72","ios":"levelo://app?vid=47e52d70-cf70-4153-8a1c-a980e4308d72"},"vehicle_type_id":"4","last_reported":1781563394,"current_range_meters":8000,"station_id":"ce4bh412rcd13ifvqds0","pricing_plan_id":"cebpf4jnsgd1na2vs0mg"},{"bike_id":"35b685ca-ebb9-4059-b708-5b6b5285d3a3","system_id":"levelo_inurba_marseille","lat":43.23188,"lon":5.3556,"is_reserved":false,"is_disabled":false,"rental_uris":{"android":"levelo://app?vid=35b685ca-ebb9-4059-b708-5b6b5285d3a3","ios":"levelo://app?vid=35b685ca-ebb9-4059-b708-5b6b5285d3a3"},"vehicle_type_id":"4","last_reported":1781563394,"current_range_meters":8000,"station_id":"ce4bhu92rcd13ifvqi70","pricing_plan_id":"cebpf4jnsgd1na2vs0mg"},{"bike_id":"10d80393-89e8-496a-b785-84aa5de118eb","system_id":"levelo_inurba_marseille","lat":43.28352,"lon":5.38119,"is_reserved":false,"is_disabled":false,"rental_uris":{"android":"levelo://app?vid=10d80393-89e8-496a-b785-84aa5de118eb","ios":"levelo://app?vid=10d80393-89e8-496a-b785-84aa5de118eb"},"vehicle_type_id":"4","last_reported":1781563394,"current_range_meters":8000,"station_id":"ce4bh412rcd13ifvqdr0","pricing_plan_id":"cebpf4jnsgd1na2vs0mg"},{"bike_id":"8c986069-cdd5-410c-97d1-d4a610b76b92","system_id":"levelo_inurba_marseille","lat":43.26191,"lon":5.37472,"is_reserved":false,"is_disabled":true,"rental_uris":{"android":"levelo://app?vid=8c986069-cdd5-410c-97d1-d4a610b76b92","ios":"levelo://app?vid=8c986069-cdd5-410c-97d1-d4a610b76b92"},"vehicle_type_id":"4","last_reported":1781563394,"current_range_meters":8000,"station_id":"ce4bhgp2rcd13ifvqfc0","pricing_plan_id":"cebpf4jnsgd1na2vs0mg"},{"bike_id":"4bde50df-6da3-4c75-b961-168af5e4d377","system_id":"levelo_inurba_marseille","lat":43.25096,"lon":5.39508,"is_reserved":false,"is_disabled":false,"rental_uris":{"android":"levelo://app?vid=4bde50df-6da3-4c75-b961-168af5e4d377","ios":"levelo://app?vid=4bde50df-6da3-4c75-b961-168af5e4d377"},"vehicle_type_id":"4","last_reported":1781563394,"current_range_meters":8000,"station_id":"ce4bhm12rcd13ifvqgkg","pricing_plan_id":"cebpf4jnsgd1na2vs0mg"},{"bike_id":"57b07549-a96e-4ec6-b0fa-6b611c6ad420","system_id":"levelo_inurba_marseille","lat":43.32092,"lon":5.36753,"is_reserved":false,"is_disabled":false,"rental_uris":{"android":"levelo://app?vid=57b07549-a96e-4ec6-b0fa-6b611c6ad420","ios":"levelo://app?vid=57b07549-a96e-4ec6-b0fa-6b611c6ad420"},"vehicle_type_id":"4","last_reported":1781563394,"current_range_meters":8000,"station_id":"ce4bhrh2rcd13ifvqhug","pricing_plan_id":"cebpf4jnsgd1na2vs0mg"},{"bike_id":"e45cbeed-9852-4823-97d4-3d7181c5db2a","system_id":"levelo_inurba_marseille","lat":43.31977,"lon":5.38155,"is_reserved":false,"is_disabled":false,"rental_uris":{"android":"levelo://app?vid=e45cbeed-9852-4823-97d4-3d7181c5db2a","ios":"levelo://app?vid=e45cbeed-9852-4823-97d4-3d7181c5db2a"},"vehicle_type_id":"4","last_reported":1781563394,"current_range_meters":8000,"station_id":"ce4bhr12rcd13ifvqhpg","pricing_plan_id":"cebpf4jnsgd1na2vs0mg"},{"bike_id":"e455396c-c48f-4e9f-9f60-6274fea1b4a7","system_id":"levelo_inurba_marseille","lat":43.29871,"lon":5.3973,"is_reserved":false,"is_disabled":false,"rental_uris":{"android":"levelo://app?vid=e455396c-c48f-4e9f-9f60-6274fea1b4a7","ios":"levelo://app?vid=e455396c-c48f-4e9f-9f60-6274fea1b4a7"},"vehicle_type_id":"4","last_reported":1781563394,"current_range_meters":8000,"station_id":"ce4bh0h2rcd13ifvqd50","pricing_plan_id":"cebpf4jnsgd1na2vs0mg"},{"bike_id":"db9f8069-11de-48e2-9bee-2dcfc7c1fc26","system_id":"levelo_inurba_marseille","lat":43.29038,"lon":5.39945,"is_reserved":false,"is_disabled":false,"rental_uris":{"android":"levelo://app?vid=db9f8069-11de-48e2-9bee-2dcfc7c1fc26","ios":"levelo://app?vid=db9f8069-11de-48e2-9bee-2dcfc7c1fc26"},"vehicle_type_id":"4","last_reported":1781563394,"current_range_meters":8000,"station_id":"ce4bh392rcd13ifvqdm0","pricing_plan_id":"cebpf4jnsgd1na2vs0mg"},{"bike_id":"080ae7f8-ebed-4d77-8980-50cc1035d758","system_id":"levelo_inurba_marseille","lat":43.29744,"lon":5.37677,"is_reserved":false,"is_disabled":true,"rental_uris":{"android":"levelo://app?vid=080ae7f8-ebed-4d77-8980-50cc1035d758","ios":"levelo://app?vid=080ae7f8-ebed-4d77-8980-50cc1035d758"},"vehicle_type_id":"4","last_reported":1781563394,"current_range_meters":8000,"station_id":"ce4bgkh2rcd13ifvqbl0","pricing_plan_id":"cebpf4jnsgd1na2vs0mg"},{"bike_id":"1176e056-508b-4f45-9139-b6c669b5ab65","system_id":"levelo_inurba_marseille","lat":43.28485,"lon":5.48387,"is_reserved":false,"is_disabled":false,"rental_uris":{"android":"levelo://app?vid=1176e056-508b-4f45-9139-b6c669b5ab65","ios":"levelo://app?vid=1176e056-508b-4f45-9139-b6c669b5ab65"},"vehicle_type_id":"4","last_reported":1781563394,"current_range_meters":8000,"station_id":"st_d3svhcjqgbts73a3dn0g","pricing_plan_id":"cebpf4jnsgd1na2vs0mg"},{"bike_id":"20eb8629-071b-4973-bf3c-02558d16d080","system_id":"levelo_inurba_marseille","lat":43.286639,"lon":5.386628,"is_reserved":false,"is_disabled":false,"rental_uris":{"android":"levelo://app?vid=20eb8629-071b-4973-bf3c-02558d16d080","ios":"levelo://app?vid=20eb8629-071b-4973-bf3c-02558d16d080"},"vehicle_type_id":"4","last_reported":1781563394,"current_range_meters":8000,"station_id":"ce4bh492rcd13ifvqdug","pricing_plan_id":"cebpf4jnsgd1na2vs0mg"},{"bike_id":"df6a8f78-ee7d-4db1-9811-03e57c820235","system_id":"levelo_inurba_marseille","lat":43.31235,"lon":5.36885,"is_reserved":false,"is_disabled":true,"rental_uris":{"android":"levelo://app?vid=df6a8f78-ee7d-4db1-9811-03e57c820235","ios":"levelo://app?vid=df6a8f78-ee7d-4db1-9811-03e57c820235"},"vehicle_type_id":"4","last_reported":1781563394,"current_range_meters":8000,"station_id":"ce4bgl92rcd13ifvqbq0","pricing_plan_id":"cebpf4jnsgd1na2vs0mg"},{"bike_id":"ee17339f-9a50-4499-a870-3575b6ddb9df","system_id":"levelo_inurba_marseille","lat":43.28473,"lon":5.48402,"is_reserved":false,"is_disabled":false,"rental_uris":{"android":"levelo://app?vid=ee17339f-9a50-4499-a870-3575b6ddb9df","ios":"levelo://app?vid=ee17339f-9a50-4499-a870-3575b6ddb9df"},"vehicle_type_id":"4","last_reported":1781563394,"current_range_meters":8000,"station_id":"st_d3svhcjqgbts73a3dn0g","pricing_plan_id":"cebpf4jnsgd1na2vs0mg"},{"bike_id":"14ee33a9-b6cc-4989-a370-caaf2baad942","system_id":"levelo_inurba_marseille","lat":43.28851,"lon":5.39334,"is_reserved":false,"is_disabled":false,"rental_uris":{"android":"levelo://app?vid=14ee33a9-b6cc-4989-a370-caaf2baad942","ios":"levelo://app?vid=14ee33a9-b6cc-4989-a370-caaf2baad942"},"vehicle_type_id":"4","last_reported":1781563394,"current_range_meters":8000,"station_id":"ce4bh2p2rcd13ifvqdi0","pricing_plan_id":"cebpf4jnsgd1na2vs0mg"},{"bike_id":"69ff9e27-e6f4-44f6-b66f-bd4f1371d05b","system_id":"levelo_inurba_marseille","lat":43.29483,"lon":5.43324,"is_reserved":false,"is_disabled":false,"rental_uris":{"android":"levelo://app?vid=69ff9e27-e6f4-44f6-b66f-bd4f1371d05b","ios":"levelo://app?vid=69ff9e27-e6f4-44f6-b66f-bd4f1371d05b"},"vehicle_type_id":"4","last_reported":1781563394,"current_range_meters":8000,"station_id":"st_d3j5ugp08ojc73fj9d10","pricing_plan_id":"cebpf4jnsgd1na2vs0mg"},{"bike_id":"dd33fe62-4196-4497-9c18-a047c29ff1fd","system_id":"levelo_inurba_marseille","lat":43.29883,"lon":5.38923,"is_reserved":false,"is_disabled":true,"rental_uris":{"android":"levelo://app?vid=dd33fe62-4196-4497-9c18-a047c29ff1fd","ios":"levelo://app?vid=dd33fe62-4196-4497-9c18-a047c29ff1fd"},"vehicle_type_id":"4","last_reported":1781563394,"current_range_meters":8000,"station_id":"ce4bh392rcd13ifvqdl0","pricing_plan_id":"cebpf4jnsgd1na2vs0mg"},{"bike_id":"3616e7e8-c409-4374-b7c7-5b2e6f5a5e54","system_id":"levelo_inurba_marseille","lat":43.33721,"lon":5.39194,"is_reserved":false,"is_disabled":false,"rental_uris":{"android":"levelo://app?vid=3616e7e8-c409-4374-b7c7-5b2e6f5a5e54","ios":"levelo://app?vid=3616e7e8-c409-4374-b7c7-5b2e6f5a5e54"},"vehicle_type_id":"4","last_reported":1781563394,"current_range_meters":8000,"station_id":"ce4bhr92rcd13ifvqhsg","pricing_plan_id":"cebpf4jnsgd1na2vs0mg"},{"bike_id":"5a0dedb4-a769-44a1-883a-df428120e726","system_id":"levelo_inurba_marseille","lat":43.30027,"lon":5.40106,"is_reserved":false,"is_disabled":false,"rental_uris":{"android":"levelo://app?vid=5a0dedb4-a769-44a1-883a-df428120e726","ios":"levelo://app?vid=5a0dedb4-a769-44a1-883a-df428120e726"},"vehicle_type_id":"4","last_reported":1781563394,"current_range_meters":8000,"station_id":"","pricing_plan_id":"cebpf4jnsgd1na2vs0mg"},{"bike_id":"af1b3a4b-2825-40b9-94fc-904b7df48800","system_id":"levelo_inurba_marseille","lat":43.27933,"lon":5.41039,"is_reserved":false,"is_disabled":false,"rental_uris":{"android":"levelo://app?vid=af1b3a4b-2825-40b9-94fc-904b7df48800","ios":"levelo://app?vid=af1b3a4b-2825-40b9-94fc-904b7df48800"},"vehicle_type_id":"4","last_reported":1781563394,"current_range_meters":8000,"station_id":"ce4bhnp2rcd13ifvqh0g","pricing_plan_id":"cebpf4jnsgd1na2vs0mg"},{"bike_id":"6dd7a66f-91da-44f0-bc59-3790f3629b34","system_id":"levelo_inurba_marseille","lat":43.27071,"lon":5.42264,"is_reserved":false,"is_disabled":false,"rental_uris":{"android":"levelo://app?vid=6dd7a66f-91da-44f0-bc59-3790f3629b34","ios":"levelo://app?vid=6dd7a66f-91da-44f0-bc59-3790f3629b34"},"vehicle_type_id":"4","last_reported":1781563394,"current_range_meters":8000,"station_id":"ce4bhk92rcd13ifvqgb0","pricing_plan_id":"cebpf4jnsgd1na2vs0mg"},{"bike_id":"8d669742-ba70-4a28-b2b3-ed52d530f584","system_id":"levelo_inurba_marseille","lat":43.31144,"lon":5.37709,"is_reserved":false,"is_disabled":false,"rental_uris":{"android":"levelo://app?vid=8d669742-ba70-4a28-b2b3-ed52d530f584","ios":"levelo://app?vid=8d669742-ba70-4a28-b2b3-ed52d530f584"},"vehicle_type_id":"4","last_reported":1781563394,"current_range_meters":8000,"station_id":"ce4bgt92rcd13ifvqcg0","pricing_plan_id":"cebpf4jnsgd1na2vs0mg"},{"bike_id":"571280e5-6e12-4bb5-8744-82d185fa67d4","system_id":"levelo_inurba_marseille","lat":43.24328,"lon":5.38408,"is_reserved":false,"is_disabled":false,"rental_uris":{"android":"levelo://app?vid=571280e5-6e12-4bb5-8744-82d185fa67d4","ios":"levelo://app?vid=571280e5-6e12-4bb5-8744-82d185fa67d4"},"vehicle_type_id":"4","last_reported":1781563394,"current_range_meters":8000,"station_id":"","pricing_plan_id":"cebpf4jnsgd1na2vs0mg"},{"bike_id":"cbebc6ee-f2ad-49d7-856d-25be310145af","system_id":"levelo_inurba_marseille","lat":43.29518,"lon":5.393994,"is_reserved":false,"is_disabled":true,"rental_uris":{"android":"levelo://app?vid=cbebc6ee-f2ad-49d7-856d-25be310145af","ios":"levelo://app?vid=cbebc6ee-f2ad-49d7-856d-25be310145af"},"vehicle_type_id":"4","last_reported":1781563394,"current_range_meters":8400,"station_id":"","pricing_plan_id":"cebpf4jnsgd1na2vs0mg"},{"bike_id":"5c84af3f-18a3-4867-8dc3-b8e76a3c2346","system_id":"levelo_inurba_marseille","lat":43.26934,"lon":5.38655,"is_reserved":false,"is_disabled":true,"rental_uris":{"android":"levelo://app?vid=5c84af3f-18a3-4867-8dc3-b8e76a3c2346","ios":"levelo://app?vid=5c84af3f-18a3-4867-8dc3-b8e76a3c2346"},"vehicle_type_id":"4","last_reported":1781563394,"current_range_meters":8400,"station_id":"ce4bhh92rcd13ifvqfh0","pricing_plan_id":"cebpf4jnsgd1na2vs0mg"},{"bike_id":"4b5426be-9611-4d02-918d-053e1cce99b9","system_id":"levelo_inurba_marseille","lat":43.26369,"lon":5.41083,"is_reserved":false,"is_disabled":false,"rental_uris":{"android":"levelo://app?vid=4b5426be-9611-4d02-918d-053e1cce99b9","ios":"levelo://app?vid=4b5426be-9611-4d02-918d-053e1cce99b9"},"vehicle_type_id":"4","last_reported":1781563394,"current_range_meters":8400,"station_id":"","pricing_plan_id":"cebpf4jnsgd1na2vs0mg"},{"bike_id":"b959de48-3540-4fde-a185-c523b76142c0","system_id":"levelo_inurba_marseille","lat":43.29533,"lon":5.38532,"is_reserved":false,"is_disabled":false,"rental_uris":{"android":"levelo://app?vid=b959de48-3540-4fde-a185-c523b76142c0","ios":"levelo://app?vid=b959de48-3540-4fde-a185-c523b76142c0"},"vehicle_type_id":"4","last_reported":1781563394,"current_range_meters":8400,"station_id":"ce4bgih2rcd13ifvqba0","pricing_plan_id":"cebpf4jnsgd1na2vs0mg"},{"bike_id":"3e0db31d-6c43-49e6-9e36-c0830e3b11a1","system_id":"levelo_inurba_marseille","lat":43.32348,"lon":5.36737,"is_reserved":false,"is_disabled":false,"rental_uris":{"android":"levelo://app?vid=3e0db31d-6c43-49e6-9e36-c0830e3b11a1","ios":"levelo://app?vid=3e0db31d-6c43-49e6-9e36-c0830e3b11a1"},"vehicle_type_id":"4","last_reported":1781563394,"current_range_meters":8400,"station_id":"ce4bhsh2rcd13ifvqi2g","pricing_plan_id":"cebpf4jnsgd1na2vs0mg"},{"bike_id":"8975bbfe-7692-4d21-bfe6-ffb910e52416","system_id":"levelo_inurba_marseille","lat":43.32331,"lon":5.36862,"is_reserved":false,"is_disabled":false,"rental_uris":{"android":"levelo://app?vid=8975bbfe-7692-4d21-bfe6-ffb910e52416","ios":"levelo://app?vid=8975bbfe-7692-4d21-bfe6-ffb910e52416"},"vehicle_type_id":"4","last_reported":1781563394,"current_range_meters":8400,"station_id":"","pricing_plan_id":"cebpf4jnsgd1na2vs0mg"},{"bike_id":"e67d3b35-2375-4086-9ada-76afa141d7d9","system_id":"levelo_inurba_marseille","lat":43.28411,"lon":5.3752,"is_reserved":false,"is_disabled":false,"rental_uris":{"android":"levelo://app?vid=e67d3b35-2375-4086-9ada-76afa141d7d9","ios":"levelo://app?vid=e67d3b35-2375-4086-9ada-76afa141d7d9"},"vehicle_type_id":"4","last_reported":1781563394,"current_range_meters":8400,"station_id":"ce4bh412rcd13ifvqds0","pricing_plan_id":"cebpf4jnsgd1na2vs0mg"},{"bike_id":"8456767d-9535-431a-91b5-3ad0f6803055","system_id":"levelo_inurba_marseille","lat":43.29016,"lon":5.38149,"is_reserved":false,"is_disabled":false,"rental_uris":{"android":"levelo://app?vid=8456767d-9535-431a-91b5-3ad0f6803055","ios":"levelo://app?vid=8456767d-9535-431a-91b5-3ad0f6803055"},"vehicle_type_id":"4","last_reported":1781563394,"current_range_meters":8400,"station_id":"ce4bh4p2rcd13ifvqe1g","pricing_plan_id":"cebpf4jnsgd1na2vs0mg"},{"bike_id":"9de48b79-dc85-40a7-801f-3b45f2116f0c","system_id":"levelo_inurba_marseille","lat":43.3089,"lon":5.37187,"is_reserved":false,"is_disabled":false,"rental_uris":{"android":"levelo://app?vid=9de48b79-dc85-40a7-801f-3b45f2116f0c","ios":"levelo://app?vid=9de48b79-dc85-40a7-801f-3b45f2116f0c"},"vehicle_type_id":"4","last_reported":1781563394,"current_range_meters":8400,"station_id":"ce4bguh2rcd13ifvqckg","pricing_plan_id":"cebpf4jnsgd1na2vs0mg"},{"bike_id":"3861b616-5645-4981-816a-dcff21df51d6","system_id":"levelo_inurba_marseille","lat":43.317282,"lon":5.423865,"is_reserved":false,"is_disabled":false,"rental_uris":{"android":"levelo://app?vid=3861b616-5645-4981-816a-dcff21df51d6","ios":"levelo://app?vid=3861b616-5645-4981-816a-dcff21df51d6"},"vehicle_type_id":"4","last_reported":1781563394,"current_range_meters":8400,"station_id":"ce4bhp92rcd13ifvqhbg","pricing_plan_id":"cebpf4jnsgd1na2vs0mg"},{"bike_id":"63c1cc80-26eb-4316-ac5a-c4cbb05fbdb4","system_id":"levelo_inurba_marseille","lat":43.28468,"lon":5.48432,"is_reserved":false,"is_disabled":false,"rental_uris":{"android":"levelo://app?vid=63c1cc80-26eb-4316-ac5a-c4cbb05fbdb4","ios":"levelo://app?vid=63c1cc80-26eb-4316-ac5a-c4cbb05fbdb4"},"vehicle_type_id":"4","last_reported":1781563394,"current_range_meters":8400,"station_id":"st_d3svhcjqgbts73a3dn0g","pricing_plan_id":"cebpf4jnsgd1na2vs0mg"},{"bike_id":"12d038ca-f3ce-4f42-8798-685ddc5be5f5","system_id":"levelo_inurba_marseille","lat":43.30187,"lon":5.3663,"is_reserved":false,"is_disabled":false,"rental_uris":{"android":"levelo://app?vid=12d038ca-f3ce-4f42-8798-685ddc5be5f5","ios":"levelo://app?vid=12d038ca-f3ce-4f42-8798-685ddc5be5f5"},"vehicle_type_id":"4","last_reported":1781563394,"current_range_meters":8400,"station_id":"ce4bgrh2rcd13ifvqc8g","pricing_plan_id":"cebpf4jnsgd1na2vs0mg"},{"bike_id":"554507aa-e034-42e3-a419-4b02718cff3e","system_id":"levelo_inurba_marseille","lat":43.30134,"lon":5.39874,"is_reserved":false,"is_disabled":true,"rental_uris":{"android":"levelo://app?vid=554507aa-e034-42e3-a419-4b02718cff3e","ios":"levelo://app?vid=554507aa-e034-42e3-a419-4b02718cff3e"},"vehicle_type_id":"4","last_reported":1781563394,"current_range_meters":8400,"station_id":"ce4bh0h2rcd13ifvqd40","pricing_plan_id":"cebpf4jnsgd1na2vs0mg"},{"bike_id":"cddad825-ea1f-4531-a7f2-5ab6b54d16e8","system_id":"levelo_inurba_marseille","lat":43.29312,"lon":5.39521,"is_reserved":false,"is_disabled":false,"rental_uris":{"android":"levelo://app?vid=cddad825-ea1f-4531-a7f2-5ab6b54d16e8","ios":"levelo://app?vid=cddad825-ea1f-4531-a7f2-5ab6b54d16e8"},"vehicle_type_id":"4","last_reported":1781563394,"current_range_meters":8400,"station_id":"","pricing_plan_id":"cebpf4jnsgd1na2vs0mg"},{"bike_id":"a75f7f80-a470-41cb-ac6f-6abc7358bddc","system_id":"levelo_inurba_marseille","lat":43.24669,"lon":5.38199,"is_reserved":false,"is_disabled":false,"rental_uris":{"android":"levelo://app?vid=a75f7f80-a470-41cb-ac6f-6abc7358bddc","ios":"levelo://app?vid=a75f7f80-a470-41cb-ac6f-6abc7358bddc"},"vehicle_type_id":"4","last_reported":1781563394,"current_range_meters":8400,"station_id":"ce4bhih2rcd13ifvqfr0","pricing_plan_id":"cebpf4jnsgd1na2vs0mg"},{"bike_id":"c30ae016-4834-496e-b8ac-bfe62c120025","system_id":"levelo_inurba_marseille","lat":43.24458,"lon":5.42533,"is_reserved":false,"is_disabled":false,"rental_uris":{"android":"levelo://app?vid=c30ae016-4834-496e-b8ac-bfe62c120025","ios":"levelo://app?vid=c30ae016-4834-496e-b8ac-bfe62c120025"},"vehicle_type_id":"4","last_reported":1781563394,"current_range_meters":8400,"station_id":"st_d4a3vfp97mjs738cd8kg","pricing_plan_id":"cebpf4jnsgd1na2vs0mg"},{"bike_id":"574d1002-3801-4f0f-93f3-afd198211729","system_id":"levelo_inurba_marseille","lat":43.3108,"lon":5.42447,"is_reserved":false,"is_disabled":true,"rental_uris":{"android":"levelo://app?vid=574d1002-3801-4f0f-93f3-afd198211729","ios":"levelo://app?vid=574d1002-3801-4f0f-93f3-afd198211729"},"vehicle_type_id":"4","last_reported":1781563394,"current_range_meters":8400,"station_id":"ce4bhp92rcd13ifvqhag","pricing_plan_id":"cebpf4jnsgd1na2vs0mg"},{"bike_id":"21242544-9e4c-461d-8c3c-60ea61faef13","system_id":"levelo_inurba_marseille","lat":43.31744,"lon":5.39008,"is_reserved":false,"is_disabled":false,"rental_uris":{"android":"levelo://app?vid=21242544-9e4c-461d-8c3c-60ea61faef13","ios":"levelo://app?vid=21242544-9e4c-461d-8c3c-60ea61faef13"},"vehicle_type_id":"4","last_reported":1781563394,"current_range_meters":8400,"station_id":"ce4bhqp2rcd13ifvqhng","pricing_plan_id":"cebpf4jnsgd1na2vs0mg"},{"bike_id":"16c5ea8d-6821-4425-a869-1a5f3efb5479","system_id":"levelo_inurba_marseille","lat":43.29106,"lon":5.38138,"is_reserved":false,"is_disabled":false,"rental_uris":{"android":"levelo://app?vid=16c5ea8d-6821-4425-a869-1a5f3efb5479","ios":"levelo://app?vid=16c5ea8d-6821-4425-a869-1a5f3efb5479"},"vehicle_type_id":"4","last_reported":1781563394,"current_range_meters":8400,"station_id":"ce4bh512rcd13ifvqe2g","pricing_plan_id":"cebpf4jnsgd1na2vs0mg"},{"bike_id":"5786c557-9560-4a10-93e8-f8d4cebf391f","system_id":"levelo_inurba_marseille","lat":43.25085,"lon":5.39543,"is_reserved":false,"is_disabled":false,"rental_uris":{"android":"levelo://app?vid=5786c557-9560-4a10-93e8-f8d4cebf391f","ios":"levelo://app?vid=5786c557-9560-4a10-93e8-f8d4cebf391f"},"vehicle_type_id":"4","last_reported":1781563394,"current_range_meters":8400,"station_id":"ce4bhm12rcd13ifvqgkg","pricing_plan_id":"cebpf4jnsgd1na2vs0mg"},{"bike_id":"9a17ac7a-4779-4d8b-98a6-dcf5e41c6d29","system_id":"levelo_inurba_marseille","lat":43.23965,"lon":5.36634,"is_reserved":false,"is_disabled":false,"rental_uris":{"android":"levelo://app?vid=9a17ac7a-4779-4d8b-98a6-dcf5e41c6d29","ios":"levelo://app?vid=9a17ac7a-4779-4d8b-98a6-dcf5e41c6d29"},"vehicle_type_id":"4","last_reported":1781563394,"current_range_meters":8400,"station_id":"ce4bhi12rcd13ifvqfp0","pricing_plan_id":"cebpf4jnsgd1na2vs0mg"},{"bike_id":"ae65ab16-5c7d-444a-aea2-0e9c6ce4ebdb","system_id":"levelo_inurba_marseille","lat":43.29181,"lon":5.39326,"is_reserved":false,"is_disabled":false,"rental_uris":{"android":"levelo://app?vid=ae65ab16-5c7d-444a-aea2-0e9c6ce4ebdb","ios":"levelo://app?vid=ae65ab16-5c7d-444a-aea2-0e9c6ce4ebdb"},"vehicle_type_id":"4","last_reported":1781563394,"current_range_meters":8400,"station_id":"ce4bh192rcd13ifvqdd0","pricing_plan_id":"cebpf4jnsgd1na2vs0mg"},{"bike_id":"ca804a58-5515-4651-bfbe-456436c692b4","system_id":"levelo_inurba_marseille","lat":43.27543,"lon":5.38387,"is_reserved":false,"is_disabled":false,"rental_uris":{"android":"levelo://app?vid=ca804a58-5515-4651-bfbe-456436c692b4","ios":"levelo://app?vid=ca804a58-5515-4651-bfbe-456436c692b4"},"vehicle_type_id":"4","last_reported":1781563394,"current_range_meters":8400,"station_id":"ce4bhh92rcd13ifvqfi0","pricing_plan_id":"cebpf4jnsgd1na2vs0mg"},{"bike_id":"7341ee7e-6d78-4a29-a19a-ec1d7703e2d7","system_id":"levelo_inurba_marseille","lat":43.30792,"lon":5.3814,"is_reserved":false,"is_disabled":false,"rental_uris":{"android":"levelo://app?vid=7341ee7e-6d78-4a29-a19a-ec1d7703e2d7","ios":"levelo://app?vid=7341ee7e-6d78-4a29-a19a-ec1d7703e2d7"},"vehicle_type_id":"4","last_reported":1781563394,"current_range_meters":8400,"station_id":"ce4bgt12rcd13ifvqce0","pricing_plan_id":"cebpf4jnsgd1na2vs0mg"},{"bike_id":"6e35d598-67e1-4b26-8e72-087f77eac4b0","system_id":"levelo_inurba_marseille","lat":43.29979,"lon":5.37188,"is_reserved":false,"is_disabled":false,"rental_uris":{"android":"levelo://app?vid=6e35d598-67e1-4b26-8e72-087f77eac4b0","ios":"levelo://app?vid=6e35d598-67e1-4b26-8e72-087f77eac4b0"},"vehicle_type_id":"4","last_reported":1781563394,"current_range_meters":8400,"station_id":"ce4bgr92rcd13ifvqc7g","pricing_plan_id":"cebpf4jnsgd1na2vs0mg"},{"bike_id":"68acd689-fc00-43db-b9b8-a4b3de2031e5","system_id":"levelo_inurba_marseille","lat":43.2861,"lon":5.39878,"is_reserved":false,"is_disabled":false,"rental_uris":{"android":"levelo://app?vid=68acd689-fc00-43db-b9b8-a4b3de2031e5","ios":"levelo://app?vid=68acd689-fc00-43db-b9b8-a4b3de2031e5"},"vehicle_type_id":"4","last_reported":1781563394,"current_range_meters":8400,"station_id":"st_d4a7ka997mjs738ck50g","pricing_plan_id":"cebpf4jnsgd1na2vs0mg"},{"bike_id":"e18f4c88-bd99-4150-b117-3bdadd746841","system_id":"levelo_inurba_marseille","lat":43.28707,"lon":5.46706,"is_reserved":false,"is_disabled":false,"rental_uris":{"android":"levelo://app?vid=e18f4c88-bd99-4150-b117-3bdadd746841","ios":"levelo://app?vid=e18f4c88-bd99-4150-b117-3bdadd746841"},"vehicle_type_id":"4","last_reported":1781563394,"current_range_meters":8400,"station_id":"st_d6tc3vkotcvc738tfjhg","pricing_plan_id":"cebpf4jnsgd1na2vs0mg"},{"bike_id":"7ece5439-dd35-4368-944a-300b65b36291","system_id":"levelo_inurba_marseille","lat":43.25329,"lon":5.379,"is_reserved":false,"is_disabled":false,"rental_uris":{"android":"levelo://app?vid=7ece5439-dd35-4368-944a-300b65b36291","ios":"levelo://app?vid=7ece5439-dd35-4368-944a-300b65b36291"},"vehicle_type_id":"4","last_reported":1781563394,"current_range_meters":8400,"station_id":"","pricing_plan_id":"cebpf4jnsgd1na2vs0mg"},{"bike_id":"d2ddab2b-5010-4817-90d6-adfbc0f82be1","system_id":"levelo_inurba_marseille","lat":43.28456,"lon":5.39191,"is_reserved":false,"is_disabled":false,"rental_uris":{"android":"levelo://app?vid=d2ddab2b-5010-4817-90d6-adfbc0f82be1","ios":"levelo://app?vid=d2ddab2b-5010-4817-90d6-adfbc0f82be1"},"vehicle_type_id":"4","last_reported":1781563394,"current_range_meters":8400,"station_id":"ce4bhoh2rcd13ifvqh5g","pricing_plan_id":"cebpf4jnsgd1na2vs0mg"},{"bike_id":"57a964d9-4642-433e-a5ba-e93ac3d8b94c","system_id":"levelo_inurba_marseille","lat":43.29935,"lon":5.36534,"is_reserved":false,"is_disabled":true,"rental_uris":{"android":"levelo://app?vid=57a964d9-4642-433e-a5ba-e93ac3d8b94c","ios":"levelo://app?vid=57a964d9-4642-433e-a5ba-e93ac3d8b94c"},"vehicle_type_id":"4","last_reported":1781563394,"current_range_meters":8400,"station_id":"ce4bgm92rcd13ifvqbr0","pricing_plan_id":"cebpf4jnsgd1na2vs0mg"},{"bike_id":"0c6b7ee0-d6ea-4b50-8438-b60d0da58c6c","system_id":"levelo_inurba_marseille","lat":43.26544,"lon":5.37279,"is_reserved":false,"is_disabled":false,"rental_uris":{"android":"levelo://app?vid=0c6b7ee0-d6ea-4b50-8438-b60d0da58c6c","ios":"levelo://app?vid=0c6b7ee0-d6ea-4b50-8438-b60d0da58c6c"},"vehicle_type_id":"4","last_reported":1781563394,"current_range_meters":8400,"station_id":"ce4bhg12rcd13ifvqf70","pricing_plan_id":"cebpf4jnsgd1na2vs0mg"},{"bike_id":"723a3b36-5ae8-412d-a6e9-2315731250b7","system_id":"levelo_inurba_marseille","lat":43.28623,"lon":5.39838,"is_reserved":false,"is_disabled":false,"rental_uris":{"android":"levelo://app?vid=723a3b36-5ae8-412d-a6e9-2315731250b7","ios":"levelo://app?vid=723a3b36-5ae8-412d-a6e9-2315731250b7"},"vehicle_type_id":"4","last_reported":1781563394,"current_range_meters":8400,"station_id":"st_d4a7ka997mjs738ck50g","pricing_plan_id":"cebpf4jnsgd1na2vs0mg"},{"bike_id":"55284478-6c38-4211-8eb3-3e942febd525","system_id":"levelo_inurba_marseille","lat":43.28723,"lon":5.46664,"is_reserved":false,"is_disabled":false,"rental_uris":{"android":"levelo://app?vid=55284478-6c38-4211-8eb3-3e942febd525","ios":"levelo://app?vid=55284478-6c38-4211-8eb3-3e942febd525"},"vehicle_type_id":"4","last_reported":1781563394,"current_range_meters":8400,"station_id":"st_d6tc3vkotcvc738tfjhg","pricing_plan_id":"cebpf4jnsgd1na2vs0mg"},{"bike_id":"b74763e0-4cb6-49b1-9f1d-f654ab489391","system_id":"levelo_inurba_marseille","lat":43.22537,"lon":5.3484,"is_reserved":false,"is_disabled":false,"rental_uris":{"android":"levelo://app?vid=b74763e0-4cb6-49b1-9f1d-f654ab489391","ios":"levelo://app?vid=b74763e0-4cb6-49b1-9f1d-f654ab489391"},"vehicle_type_id":"4","last_reported":1781563394,"current_range_meters":8400,"station_id":"st_cvj5dfep6f1abm77gieg","pricing_plan_id":"cebpf4jnsgd1na2vs0mg"},{"bike_id":"e725fb96-64c2-456e-90f8-94d3c6a5a556","system_id":"levelo_inurba_marseille","lat":43.2903,"lon":5.38138,"is_reserved":false,"is_disabled":false,"rental_uris":{"android":"levelo://app?vid=e725fb96-64c2-456e-90f8-94d3c6a5a556","ios":"levelo://app?vid=e725fb96-64c2-456e-90f8-94d3c6a5a556"},"vehicle_type_id":"4","last_reported":1781563394,"current_range_meters":8800,"station_id":"ce4bh4p2rcd13ifvqe1g","pricing_plan_id":"cebpf4jnsgd1na2vs0mg"},{"bike_id":"d1a71da9-9b42-4e6c-825f-93adbdce2249","system_id":"levelo_inurba_marseille","lat":43.30881,"lon":5.37205,"is_reserved":false,"is_disabled":true,"rental_uris":{"android":"levelo://app?vid=d1a71da9-9b42-4e6c-825f-93adbdce2249","ios":"levelo://app?vid=d1a71da9-9b42-4e6c-825f-93adbdce2249"},"vehicle_type_id":"4","last_reported":1781563394,"current_range_meters":8800,"station_id":"ce4bguh2rcd13ifvqckg","pricing_plan_id":"cebpf4jnsgd1na2vs0mg"},{"bike_id":"127580f5-e6a8-4149-998c-37af1527c40a","system_id":"levelo_inurba_marseille","lat":43.27191,"lon":5.41018,"is_reserved":false,"is_disabled":false,"rental_uris":{"android":"levelo://app?vid=127580f5-e6a8-4149-998c-37af1527c40a","ios":"levelo://app?vid=127580f5-e6a8-4149-998c-37af1527c40a"},"vehicle_type_id":"4","last_reported":1781563394,"current_range_meters":8800,"station_id":"ce4bhl12rcd13ifvqgf0","pricing_plan_id":"cebpf4jnsgd1na2vs0mg"},