{"last_updated":1769821548,"ttl":60,"version":"2.2","data":{"bikes":[{"bike_id":"f30a4c97-f0c6-45f8-934f-68b3ad70f3be","system_id":"levelo_inurba_marseille","lat":43.26059,"lon":5.39396,"is_reserved":false,"is_disabled":false,"rental_uris":{"android":"levelo://app?vid=f30a4c97-f0c6-45f8-934f-68b3ad70f3be","ios":"levelo://app?vid=f30a4c97-f0c6-45f8-934f-68b3ad70f3be"},"vehicle_type_id":"4","last_reported":1769821548,"current_range_meters":2800,"station_id":"ce4bhh92rcd13ifvqfj0","pricing_plan_id":"cebpf4jnsgd1na2vs0mg"},{"bike_id":"078b63c9-89a3-4623-a2e8-3fd53a065c68","system_id":"levelo_inurba_marseille","lat":43.24217,"lon":5.3935,"is_reserved":false,"is_disabled":false,"rental_uris":{"android":"levelo://app?vid=078b63c9-89a3-4623-a2e8-3fd53a065c68","ios":"levelo://app?vid=078b63c9-89a3-4623-a2e8-3fd53a065c68"},"vehicle_type_id":"4","last_reported":1769821548,"current_range_meters":2800,"station_id":"","pricing_plan_id":"cebpf4jnsgd1na2vs0mg"},{"bike_id":"83fc5387-9bd8-4dec-804d-abfa877a86a6","system_id":"levelo_inurba_marseille","lat":43.298145,"lon":5.440657,"is_reserved":false,"is_disabled":false,"rental_uris":{"android":"levelo://app?vid=83fc5387-9bd8-4dec-804d-abfa877a86a6","ios":"levelo://app?vid=83fc5387-9bd8-4dec-804d-abfa877a86a6"},"vehicle_type_id":"4","last_reported":1769821548,"current_range_meters":2800,"station_id":"st_d3jp68qikq2c7381ktn0","pricing_plan_id":"cebpf4jnsgd1na2vs0mg"},{"bike_id":"c2140327-48a8-424a-9583-36da80783be8","system_id":"levelo_inurba_marseille","lat":43.30353,"lon":5.41883,"is_reserved":false,"is_disabled":false,"rental_uris":{"android":"levelo://app?vid=c2140327-48a8-424a-9583-36da80783be8","ios":"levelo://app?vid=c2140327-48a8-424a-9583-36da80783be8"},"vehicle_type_id":"4","last_reported":1769821548,"current_range_meters":2800,"station_id":"ce4bhop2rcd13ifvqh7g","pricing_plan_id":"cebpf4jnsgd1na2vs0mg"},{"bike_id":"55bec77f-c598-4ef9-91a2-831b2562c086","system_id":"levelo_inurba_marseille","lat":43.30324,"lon":5.40427,"is_reserved":false,"is_disabled":false,"rental_uris":{"android":"levelo://app?vid=55bec77f-c598-4ef9-91a2-831b2562c086","ios":"levelo://app?vid=55bec77f-c598-4ef9-91a2-831b2562c086"},"vehicle_type_id":"4","last_reported":1769821548,"current_range_meters":2800,"station_id":"ce4bh012rcd13ifvqd10","pricing_plan_id":"cebpf4jnsgd1na2vs0mg"},{"bike_id":"e35ccdf2-bb53-40c5-905e-86d338266ba0","system_id":"levelo_inurba_marseille","lat":43.24632,"lon":5.43154,"is_reserved":false,"is_disabled":false,"rental_uris":{"android":"levelo://app?vid=e35ccdf2-bb53-40c5-905e-86d338266ba0","ios":"levelo://app?vid=e35ccdf2-bb53-40c5-905e-86d338266ba0"},"vehicle_type_id":"4","last_reported":1769821548,"current_range_meters":2800,"station_id":"st_d2m6c4gdas8pm72e190g","pricing_plan_id":"cebpf4jnsgd1na2vs0mg"},{"bike_id":"195649ba-d267-42e1-9cda-12856a7a298f","system_id":"levelo_inurba_marseille","lat":43.31701,"lon":5.4371,"is_reserved":false,"is_disabled":false,"rental_uris":{"android":"levelo://app?vid=195649ba-d267-42e1-9cda-12856a7a298f","ios":"levelo://app?vid=195649ba-d267-42e1-9cda-12856a7a298f"},"vehicle_type_id":"4","last_reported":1769821548,"current_range_meters":2800,"station_id":"ce4bhp92rcd13ifvqhcg","pricing_plan_id":"cebpf4jnsgd1na2vs0mg"},{"bike_id":"dd056c19-a31e-4792-86b0-b8af50070ed9","system_id":"levelo_inurba_marseille","lat":43.2883,"lon":5.3932,"is_reserved":false,"is_disabled":false,"rental_uris":{"android":"levelo://app?vid=dd056c19-a31e-4792-86b0-b8af50070ed9","ios":"levelo://app?vid=dd056c19-a31e-4792-86b0-b8af50070ed9"},"vehicle_type_id":"4","last_reported":1769821548,"current_range_meters":2800,"station_id":"ce4bh2p2rcd13ifvqdi0","pricing_plan_id":"cebpf4jnsgd1na2vs0mg"},{"bike_id":"dba1cd34-42d0-43e1-97a1-acdccc4fc1cd","system_id":"levelo_inurba_marseille","lat":43.24117,"lon":5.37708,"is_reserved":false,"is_disabled":false,"rental_uris":{"android":"levelo://app?vid=dba1cd34-42d0-43e1-97a1-acdccc4fc1cd","ios":"levelo://app?vid=dba1cd34-42d0-43e1-97a1-acdccc4fc1cd"},"vehicle_type_id":"4","last_reported":1769821548,"current_range_meters":2800,"station_id":"","pricing_plan_id":"cebpf4jnsgd1na2vs0mg"},{"bike_id":"cc1b2694-0982-4968-a2fa-ba7494302bcd","system_id":"levelo_inurba_marseille","lat":43.28135,"lon":5.38314,"is_reserved":false,"is_disabled":false,"rental_uris":{"android":"levelo://app?vid=cc1b2694-0982-4968-a2fa-ba7494302bcd","ios":"levelo://app?vid=cc1b2694-0982-4968-a2fa-ba7494302bcd"},"vehicle_type_id":"4","last_reported":1769821548,"current_range_meters":2800,"station_id":"","pricing_plan_id":"cebpf4jnsgd1na2vs0mg"},{"bike_id":"5d8f0780-c359-4d3f-90fa-b723be8cb3f0","system_id":"levelo_inurba_marseille","lat":43.28478,"lon":5.38423,"is_reserved":false,"is_disabled":false,"rental_uris":{"android":"levelo://app?vid=5d8f0780-c359-4d3f-90fa-b723be8cb3f0","ios":"levelo://app?vid=5d8f0780-c359-4d3f-90fa-b723be8cb3f0"},"vehicle_type_id":"4","last_reported":1769821548,"current_range_meters":3200,"station_id":"ce4bh512rcd13ifvqe3g","pricing_plan_id":"cebpf4jnsgd1na2vs0mg"},{"bike_id":"6f2111dd-6b6a-402c-9729-62f7313dcc5e","system_id":"levelo_inurba_marseille","lat":43.323524,"lon":5.367517,"is_reserved":false,"is_disabled":false,"rental_uris":{"android":"levelo://app?vid=6f2111dd-6b6a-402c-9729-62f7313dcc5e","ios":"levelo://app?vid=6f2111dd-6b6a-402c-9729-62f7313dcc5e"},"vehicle_type_id":"4","last_reported":1769821548,"current_range_meters":3200,"station_id":"ce4bhsh2rcd13ifvqi2g","pricing_plan_id":"cebpf4jnsgd1na2vs0mg"},{"bike_id":"2985593a-0015-49dc-be38-d4223266a10b","system_id":"levelo_inurba_marseille","lat":43.291957,"lon":5.400044,"is_reserved":false,"is_disabled":false,"rental_uris":{"android":"levelo://app?vid=2985593a-0015-49dc-be38-d4223266a10b","ios":"levelo://app?vid=2985593a-0015-49dc-be38-d4223266a10b"},"vehicle_type_id":"4","last_reported":1769821548,"current_range_meters":3200,"station_id":"","pricing_plan_id":"cebpf4jnsgd1na2vs0mg"},{"bike_id":"1b8a11ae-ff07-45ba-a44b-7af85c31226b","system_id":"levelo_inurba_marseille","lat":43.22922,"lon":5.35375,"is_reserved":false,"is_disabled":false,"rental_uris":{"android":"levelo://app?vid=1b8a11ae-ff07-45ba-a44b-7af85c31226b","ios":"levelo://app?vid=1b8a11ae-ff07-45ba-a44b-7af85c31226b"},"vehicle_type_id":"4","last_reported":1769821548,"current_range_meters":3200,"station_id":"cpo3532slgdg3j2ikp40","pricing_plan_id":"cebpf4jnsgd1na2vs0mg"},{"bike_id":"e65a354d-6565-4b06-95c9-76256a9413ea","system_id":"levelo_inurba_marseille","lat":43.26565,"lon":5.40303,"is_reserved":false,"is_disabled":false,"rental_uris":{"android":"levelo://app?vid=e65a354d-6565-4b06-95c9-76256a9413ea","ios":"levelo://app?vid=e65a354d-6565-4b06-95c9-76256a9413ea"},"vehicle_type_id":"4","last_reported":1769821548,"current_range_meters":3200,"station_id":"ce4bhmp2rcd13ifvqgng","pricing_plan_id":"cebpf4jnsgd1na2vs0mg"},{"bike_id":"59ae0900-c855-4741-b5cf-c53827ed9733","system_id":"levelo_inurba_marseille","lat":43.24157,"lon":5.36392,"is_reserved":false,"is_disabled":false,"rental_uris":{"android":"levelo://app?vid=59ae0900-c855-4741-b5cf-c53827ed9733","ios":"levelo://app?vid=59ae0900-c855-4741-b5cf-c53827ed9733"},"vehicle_type_id":"4","last_reported":1769821548,"current_range_meters":3200,"station_id":"cpo36qri1sfpv3e86is0","pricing_plan_id":"cebpf4jnsgd1na2vs0mg"},{"bike_id":"e04521ca-ce5b-4911-93eb-efa07b2cc503","system_id":"levelo_inurba_marseille","lat":43.29489,"lon":5.43317,"is_reserved":false,"is_disabled":false,"rental_uris":{"android":"levelo://app?vid=e04521ca-ce5b-4911-93eb-efa07b2cc503","ios":"levelo://app?vid=e04521ca-ce5b-4911-93eb-efa07b2cc503"},"vehicle_type_id":"4","last_reported":1769821548,"current_range_meters":3200,"station_id":"st_d3j5ugp08ojc73fj9d10","pricing_plan_id":"cebpf4jnsgd1na2vs0mg"},{"bike_id":"3dc504de-340a-4960-9295-e93227b46b5e","system_id":"levelo_inurba_marseille","lat":43.32113,"lon":5.36772,"is_reserved":false,"is_disabled":false,"rental_uris":{"android":"levelo://app?vid=3dc504de-340a-4960-9295-e93227b46b5e","ios":"levelo://app?vid=3dc504de-340a-4960-9295-e93227b46b5e"},"vehicle_type_id":"4","last_reported":1769821548,"current_range_meters":3200,"station_id":"ce4bhrh2rcd13ifvqhug","pricing_plan_id":"cebpf4jnsgd1na2vs0mg"},{"bike_id":"1df32dff-5611-415d-8fae-817c467a81ff","system_id":"levelo_inurba_marseille","lat":43.23062,"lon":5.35512,"is_reserved":false,"is_disabled":false,"rental_uris":{"android":"levelo://app?vid=1df32dff-5611-415d-8fae-817c467a81ff","ios":"levelo://app?vid=1df32dff-5611-415d-8fae-817c467a81ff"},"vehicle_type_id":"4","last_reported":1769821548,"current_range_meters":3200,"station_id":"cpo3342slgdg3j2ifvpg","pricing_plan_id":"cebpf4jnsgd1na2vs0mg"},{"bike_id":"025c345e-2940-4dfb-ab03-a97496585f70","system_id":"levelo_inurba_marseille","lat":43.25109,"lon":5.40329,"is_reserved":false,"is_disabled":false,"rental_uris":{"android":"levelo://app?vid=025c345e-2940-4dfb-ab03-a97496585f70","ios":"levelo://app?vid=025c345e-2940-4dfb-ab03-a97496585f70"},"vehicle_type_id":"4","last_reported":1769821548,"current_range_meters":3600,"station_id":"ce4bhlh2rcd13ifvqgig","pricing_plan_id":"cebpf4jnsgd1na2vs0mg"},{"bike_id":"bd889336-68ff-4f09-8c88-588306cf9fc6","system_id":"levelo_inurba_marseille","lat":43.27067,"lon":5.40322,"is_reserved":false,"is_disabled":false,"rental_uris":{"android":"levelo://app?vid=bd889336-68ff-4f09-8c88-588306cf9fc6","ios":"levelo://app?vid=bd889336-68ff-4f09-8c88-588306cf9fc6"},"vehicle_type_id":"4","last_reported":1769821548,"current_range_meters":3600,"station_id":"ce4bhk92rcd13ifvqgc0","pricing_plan_id":"cebpf4jnsgd1na2vs0mg"},{"bike_id":"364c2112-450d-4b1d-b98b-d99fee31512c","system_id":"levelo_inurba_marseille","lat":43.248079,"lon":5.374539,"is_reserved":false,"is_disabled":false,"rental_uris":{"android":"levelo://app?vid=364c2112-450d-4b1d-b98b-d99fee31512c","ios":"levelo://app?vid=364c2112-450d-4b1d-b98b-d99fee31512c"},"vehicle_type_id":"4","last_reported":1769821548,"current_range_meters":3600,"station_id":"ce4bhgh2rcd13ifvqfb0","pricing_plan_id":"cebpf4jnsgd1na2vs0mg"},{"bike_id":"7a4412cf-c498-4121-be46-049419c026d4","system_id":"levelo_inurba_marseille","lat":43.27948,"lon":5.41045,"is_reserved":false,"is_disabled":false,"rental_uris":{"android":"levelo://app?vid=7a4412cf-c498-4121-be46-049419c026d4","ios":"levelo://app?vid=7a4412cf-c498-4121-be46-049419c026d4"},"vehicle_type_id":"4","last_reported":1769821548,"current_range_meters":3600,"station_id":"ce4bhnp2rcd13ifvqh0g","pricing_plan_id":"cebpf4jnsgd1na2vs0mg"},{"bike_id":"eef13d76-49c8-46fa-9a54-61e167b3377e","system_id":"levelo_inurba_marseille","lat":43.26507,"lon":5.39538,"is_reserved":false,"is_disabled":false,"rental_uris":{"android":"levelo://app?vid=eef13d76-49c8-46fa-9a54-61e167b3377e","ios":"levelo://app?vid=eef13d76-49c8-46fa-9a54-61e167b3377e"},"vehicle_type_id":"4","last_reported":1769821548,"current_range_meters":3600,"station_id":"ce4bhi12rcd13ifvqfq0","pricing_plan_id":"cebpf4jnsgd1na2vs0mg"},{"bike_id":"505a27e2-aca0-4200-b412-3ab1ec5868a8","system_id":"levelo_inurba_marseille","lat":43.31172,"lon":5.38725,"is_reserved":false,"is_disabled":false,"rental_uris":{"android":"levelo://app?vid=505a27e2-aca0-4200-b412-3ab1ec5868a8","ios":"levelo://app?vid=505a27e2-aca0-4200-b412-3ab1ec5868a8"},"vehicle_type_id":"4","last_reported":1769821548,"current_range_meters":3600,"station_id":"ce4bgv12rcd13ifvqcp0","pricing_plan_id":"cebpf4jnsgd1na2vs0mg"},{"bike_id":"54b2d5e9-901b-4ac3-8711-c6b1d92342f2","system_id":"levelo_inurba_marseille","lat":43.258665,"lon":5.399008,"is_reserved":false,"is_disabled":false,"rental_uris":{"android":"levelo://app?vid=54b2d5e9-901b-4ac3-8711-c6b1d92342f2","ios":"levelo://app?vid=54b2d5e9-901b-4ac3-8711-c6b1d92342f2"},"vehicle_type_id":"4","last_reported":1769821548,"current_range_meters":3600,"station_id":"ce4bhl92rcd13ifvqghg","pricing_plan_id":"cebpf4jnsgd1na2vs0mg"},{"bike_id":"582544a9-03b9-48ac-bcda-2242f477eeb1","system_id":"levelo_inurba_marseille","lat":43.31078,"lon":5.38357,"is_reserved":false,"is_disabled":false,"rental_uris":{"android":"levelo://app?vid=582544a9-03b9-48ac-bcda-2242f477eeb1","ios":"levelo://app?vid=582544a9-03b9-48ac-bcda-2242f477eeb1"},"vehicle_type_id":"4","last_reported":1769821548,"current_range_meters":3600,"station_id":"ce4bgv92rcd13ifvqcr0","pricing_plan_id":"cebpf4jnsgd1na2vs0mg"},{"bike_id":"ef68bdf9-fa71-483b-bc99-7f9581830aca","system_id":"levelo_inurba_marseille","lat":43.30582,"lon":5.36741,"is_reserved":false,"is_disabled":false,"rental_uris":{"android":"levelo://app?vid=ef68bdf9-fa71-483b-bc99-7f9581830aca","ios":"levelo://app?vid=ef68bdf9-fa71-483b-bc99-7f9581830aca"},"vehicle_type_id":"4","last_reported":1769821548,"current_range_meters":4000,"station_id":"","pricing_plan_id":"cebpf4jnsgd1na2vs0mg"},{"bike_id":"32c2a5af-b5f9-416e-8e4c-96e2f8d06aad","system_id":"levelo_inurba_marseille","lat":43.28272,"lon":5.35068,"is_reserved":false,"is_disabled":false,"rental_uris":{"android":"levelo://app?vid=32c2a5af-b5f9-416e-8e4c-96e2f8d06aad","ios":"levelo://app?vid=32c2a5af-b5f9-416e-8e4c-96e2f8d06aad"},"vehicle_type_id":"4","last_reported":1769821548,"current_range_meters":4000,"station_id":"ce4bhbp2rcd13ifvqerg","pricing_plan_id":"cebpf4jnsgd1na2vs0mg"},{"bike_id":"82a6b099-0577-4798-9a60-21fb38c2bbb7","system_id":"levelo_inurba_marseille","lat":43.29815,"lon":5.44067,"is_reserved":false,"is_disabled":false,"rental_uris":{"android":"levelo://app?vid=82a6b099-0577-4798-9a60-21fb38c2bbb7","ios":"levelo://app?vid=82a6b099-0577-4798-9a60-21fb38c2bbb7"},"vehicle_type_id":"4","last_reported":1769821548,"current_range_meters":4000,"station_id":"st_d3jp68qikq2c7381ktn0","pricing_plan_id":"cebpf4jnsgd1na2vs0mg"},{"bike_id":"8c0babb1-b421-4a58-a09a-817ab6ed4c2f","system_id":"levelo_inurba_marseille","lat":43.31688,"lon":5.37744,"is_reserved":false,"is_disabled":false,"rental_uris":{"android":"levelo://app?vid=8c0babb1-b421-4a58-a09a-817ab6ed4c2f","ios":"levelo://app?vid=8c0babb1-b421-4a58-a09a-817ab6ed4c2f"},"vehicle_type_id":"4","last_reported":1769821548,"current_range_meters":4000,"station_id":"ce4bgth2rcd13ifvqch0","pricing_plan_id":"cebpf4jnsgd1na2vs0mg"},{"bike_id":"c386e859-c47c-4176-b8dc-5d121dc2bc50","system_id":"levelo_inurba_marseille","lat":43.257306,"lon":5.410996,"is_reserved":false,"is_disabled":false,"rental_uris":{"android":"levelo://app?vid=c386e859-c47c-4176-b8dc-5d121dc2bc50","ios":"levelo://app?vid=c386e859-c47c-4176-b8dc-5d121dc2bc50"},"vehicle_type_id":"4","last_reported":1769821548,"current_range_meters":4000,"station_id":"ce4bhkp2rcd13ifvqgd0","pricing_plan_id":"cebpf4jnsgd1na2vs0mg"},{"bike_id":"1717413c-0fd7-4a19-a0ad-ca261922c0af","system_id":"levelo_inurba_marseille","lat":43.29576,"lon":5.37509,"is_reserved":false,"is_disabled":false,"rental_uris":{"android":"levelo://app?vid=1717413c-0fd7-4a19-a0ad-ca261922c0af","ios":"levelo://app?vid=1717413c-0fd7-4a19-a0ad-ca261922c0af"},"vehicle_type_id":"4","last_reported":1769821548,"current_range_meters":4000,"station_id":"ce4bgh92rcd13ifvqb50","pricing_plan_id":"cebpf4jnsgd1na2vs0mg"},{"bike_id":"2626a307-09e6-4806-8747-64c64cf9b162","system_id":"levelo_inurba_marseille","lat":43.24467,"lon":5.42554,"is_reserved":false,"is_disabled":false,"rental_uris":{"android":"levelo://app?vid=2626a307-09e6-4806-8747-64c64cf9b162","ios":"levelo://app?vid=2626a307-09e6-4806-8747-64c64cf9b162"},"vehicle_type_id":"4","last_reported":1769821548,"current_range_meters":4000,"station_id":"st_d4a3vfp97mjs738cd8kg","pricing_plan_id":"cebpf4jnsgd1na2vs0mg"},{"bike_id":"ceed1653-0aff-4dc0-b159-f8529a6c28c1","system_id":"levelo_inurba_marseille","lat":43.2321,"lon":5.35535,"is_reserved":false,"is_disabled":false,"rental_uris":{"android":"levelo://app?vid=ceed1653-0aff-4dc0-b159-f8529a6c28c1","ios":"levelo://app?vid=ceed1653-0aff-4dc0-b159-f8529a6c28c1"},"vehicle_type_id":"4","last_reported":1769821548,"current_range_meters":4000,"station_id":"ce4bhu92rcd13ifvqi70","pricing_plan_id":"cebpf4jnsgd1na2vs0mg"},{"bike_id":"9862afdd-86bb-4730-9cd1-3c62a031b5e6","system_id":"levelo_inurba_marseille","lat":43.29966,"lon":5.37196,"is_reserved":false,"is_disabled":false,"rental_uris":{"android":"levelo://app?vid=9862afdd-86bb-4730-9cd1-3c62a031b5e6","ios":"levelo://app?vid=9862afdd-86bb-4730-9cd1-3c62a031b5e6"},"vehicle_type_id":"4","last_reported":1769821548,"current_range_meters":4000,"station_id":"ce4bgr92rcd13ifvqc7g","pricing_plan_id":"cebpf4jnsgd1na2vs0mg"},{"bike_id":"e42e5e4b-2394-43b0-9b9f-0fd17bf2cb70","system_id":"levelo_inurba_marseille","lat":43.24178,"lon":5.36389,"is_reserved":false,"is_disabled":false,"rental_uris":{"android":"levelo://app?vid=e42e5e4b-2394-43b0-9b9f-0fd17bf2cb70","ios":"levelo://app?vid=e42e5e4b-2394-43b0-9b9f-0fd17bf2cb70"},"vehicle_type_id":"4","last_reported":1769821548,"current_range_meters":4000,"station_id":"cpo36qri1sfpv3e86is0","pricing_plan_id":"cebpf4jnsgd1na2vs0mg"},{"bike_id":"1ae2d96d-59b0-469c-b070-5c6aa648ad29","system_id":"levelo_inurba_marseille","lat":43.24168,"lon":5.36391,"is_reserved":false,"is_disabled":false,"rental_uris":{"android":"levelo://app?vid=1ae2d96d-59b0-469c-b070-5c6aa648ad29","ios":"levelo://app?vid=1ae2d96d-59b0-469c-b070-5c6aa648ad29"},"vehicle_type_id":"4","last_reported":1769821548,"current_range_meters":4000,"station_id":"cpo36qri1sfpv3e86is0","pricing_plan_id":"cebpf4jnsgd1na2vs0mg"},{"bike_id":"cad1fffa-b4fa-4f0e-b6c7-2202c10ebc44","system_id":"levelo_inurba_marseille","lat":43.231502,"lon":5.437173,"is_reserved":false,"is_disabled":false,"rental_uris":{"android":"levelo://app?vid=cad1fffa-b4fa-4f0e-b6c7-2202c10ebc44","ios":"levelo://app?vid=cad1fffa-b4fa-4f0e-b6c7-2202c10ebc44"},"vehicle_type_id":"4","last_reported":1769821548,"current_range_meters":4000,"station_id":"ce4bhip2rcd13ifvqft0","pricing_plan_id":"cebpf4jnsgd1na2vs0mg"},{"bike_id":"456727bd-baa8-41bf-ae9f-158a99ff9411","system_id":"levelo_inurba_marseille","lat":43.22563,"lon":5.41635,"is_reserved":false,"is_disabled":false,"rental_uris":{"android":"levelo://app?vid=456727bd-baa8-41bf-ae9f-158a99ff9411","ios":"levelo://app?vid=456727bd-baa8-41bf-ae9f-158a99ff9411"},"vehicle_type_id":"4","last_reported":1769821548,"current_range_meters":4400,"station_id":"st_d2o4gvlbi1j2169b742g","pricing_plan_id":"cebpf4jnsgd1na2vs0mg"},{"bike_id":"d7b04403-7dfa-4d8a-bd81-cfc844f4e0b5","system_id":"levelo_inurba_marseille","lat":43.29803,"lon":5.44071,"is_reserved":false,"is_disabled":false,"rental_uris":{"android":"levelo://app?vid=d7b04403-7dfa-4d8a-bd81-cfc844f4e0b5","ios":"levelo://app?vid=d7b04403-7dfa-4d8a-bd81-cfc844f4e0b5"},"vehicle_type_id":"4","last_reported":1769821548,"current_range_meters":4400,"station_id":"st_d3jp68qikq2c7381ktn0","pricing_plan_id":"cebpf4jnsgd1na2vs0mg"},{"bike_id":"d6b55634-2fb8-44d0-864d-ee3e3030ec35","system_id":"levelo_inurba_marseille","lat":43.26554,"lon":5.37275,"is_reserved":false,"is_disabled":false,"rental_uris":{"android":"levelo://app?vid=d6b55634-2fb8-44d0-864d-ee3e3030ec35","ios":"levelo://app?vid=d6b55634-2fb8-44d0-864d-ee3e3030ec35"},"vehicle_type_id":"4","last_reported":1769821548,"current_range_meters":4400,"station_id":"ce4bhg12rcd13ifvqf70","pricing_plan_id":"cebpf4jnsgd1na2vs0mg"},{"bike_id":"f77f11ea-c57f-4a1e-b998-1859acb2e91b","system_id":"levelo_inurba_marseille","lat":43.28619,"lon":5.35116,"is_reserved":false,"is_disabled":false,"rental_uris":{"android":"levelo://app?vid=f77f11ea-c57f-4a1e-b998-1859acb2e91b","ios":"levelo://app?vid=f77f11ea-c57f-4a1e-b998-1859acb2e91b"},"vehicle_type_id":"4","last_reported":1769821548,"current_range_meters":4400,"station_id":"ce4bhch2rcd13ifvqeug","pricing_plan_id":"cebpf4jnsgd1na2vs0mg"},{"bike_id":"d15f9ce9-2618-40e2-ae9e-f494605d772d","system_id":"levelo_inurba_marseille","lat":43.29006,"lon":5.35618,"is_reserved":false,"is_disabled":false,"rental_uris":{"android":"levelo://app?vid=d15f9ce9-2618-40e2-ae9e-f494605d772d","ios":"levelo://app?vid=d15f9ce9-2618-40e2-ae9e-f494605d772d"},"vehicle_type_id":"4","last_reported":1769821548,"current_range_meters":4400,"station_id":"ce4bhb92rcd13ifvqen0","pricing_plan_id":"cebpf4jnsgd1na2vs0mg"},{"bike_id":"39fd3543-1b83-4b56-b05d-b4a1d34a93cb","system_id":"levelo_inurba_marseille","lat":43.29272,"lon":5.401386,"is_reserved":false,"is_disabled":false,"rental_uris":{"android":"levelo://app?vid=39fd3543-1b83-4b56-b05d-b4a1d34a93cb","ios":"levelo://app?vid=39fd3543-1b83-4b56-b05d-b4a1d34a93cb"},"vehicle_type_id":"4","last_reported":1769821548,"current_range_meters":4400,"station_id":"ce4bh312rcd13ifvqdk0","pricing_plan_id":"cebpf4jnsgd1na2vs0mg"},{"bike_id":"af654c71-a67d-46af-bf40-a020e2f3bf53","system_id":"levelo_inurba_marseille","lat":43.24984,"lon":5.38902,"is_reserved":false,"is_disabled":false,"rental_uris":{"android":"levelo://app?vid=af654c71-a67d-46af-bf40-a020e2f3bf53","ios":"levelo://app?vid=af654c71-a67d-46af-bf40-a020e2f3bf53"},"vehicle_type_id":"4","last_reported":1769821548,"current_range_meters":4400,"station_id":"ce4bhgp2rcd13ifvqfd0","pricing_plan_id":"cebpf4jnsgd1na2vs0mg"},{"bike_id":"891291bf-2508-4614-98b9-c57a30a99b04","system_id":"levelo_inurba_marseille","lat":43.2292,"lon":5.35376,"is_reserved":false,"is_disabled":false,"rental_uris":{"android":"levelo://app?vid=891291bf-2508-4614-98b9-c57a30a99b04","ios":"levelo://app?vid=891291bf-2508-4614-98b9-c57a30a99b04"},"vehicle_type_id":"4","last_reported":1769821548,"current_range_meters":4400,"station_id":"cpo3532slgdg3j2ikp40","pricing_plan_id":"cebpf4jnsgd1na2vs0mg"},{"bike_id":"48ef6524-978c-4fd2-938d-aed4629bc772","system_id":"levelo_inurba_marseille","lat":43.309862,"lon":5.39052,"is_reserved":false,"is_disabled":false,"rental_uris":{"android":"levelo://app?vid=48ef6524-978c-4fd2-938d-aed4629bc772","ios":"levelo://app?vid=48ef6524-978c-4fd2-938d-aed4629bc772"},"vehicle_type_id":"4","last_reported":1769821548,"current_range_meters":4400,"station_id":"ce4bgup2rcd13ifvqco0","pricing_plan_id":"cebpf4jnsgd1na2vs0mg"},{"bike_id":"9f66c20e-ffc5-4b1f-b510-b08191622397","system_id":"levelo_inurba_marseille","lat":43.30638,"lon":5.39951,"is_reserved":false,"is_disabled":false,"rental_uris":{"android":"levelo://app?vid=9f66c20e-ffc5-4b1f-b510-b08191622397","ios":"levelo://app?vid=9f66c20e-ffc5-4b1f-b510-b08191622397"},"vehicle_type_id":"4","last_reported":1769821548,"current_range_meters":4400,"station_id":"ce4bh112rcd13ifvqda0","pricing_plan_id":"cebpf4jnsgd1na2vs0mg"},{"bike_id":"6e316437-9e53-4058-b852-370b67323663","system_id":"levelo_inurba_marseille","lat":43.24637,"lon":5.43148,"is_reserved":false,"is_disabled":false,"rental_uris":{"android":"levelo://app?vid=6e316437-9e53-4058-b852-370b67323663","ios":"levelo://app?vid=6e316437-9e53-4058-b852-370b67323663"},"vehicle_type_id":"4","last_reported":1769821548,"current_range_meters":4400,"station_id":"st_d2m6c4gdas8pm72e190g","pricing_plan_id":"cebpf4jnsgd1na2vs0mg"},{"bike_id":"978a759b-9bc7-45b1-8848-ea755a66dea6","system_id":"levelo_inurba_marseille","lat":43.29237,"lon":5.36023,"is_reserved":false,"is_disabled":false,"rental_uris":{"android":"levelo://app?vid=978a759b-9bc7-45b1-8848-ea755a66dea6","ios":"levelo://app?vid=978a759b-9bc7-45b1-8848-ea755a66dea6"},"vehicle_type_id":"4","last_reported":1769821548,"current_range_meters":4400,"station_id":"ce4bhbh2rcd13ifvqeqg","pricing_plan_id":"cebpf4jnsgd1na2vs0mg"},{"bike_id":"379182aa-b1e2-4592-bf0f-1c7f81540422","system_id":"levelo_inurba_marseille","lat":43.30889,"lon":5.39666,"is_reserved":false,"is_disabled":false,"rental_uris":{"android":"levelo://app?vid=379182aa-b1e2-4592-bf0f-1c7f81540422","ios":"levelo://app?vid=379182aa-b1e2-4592-bf0f-1c7f81540422"},"vehicle_type_id":"4","last_reported":1769821548,"current_range_meters":4400,"station_id":"ce4bh012rcd13ifvqcv0","pricing_plan_id":"cebpf4jnsgd1na2vs0mg"},{"bike_id":"98e27e15-5409-4a6d-a0b6-d6423409fa25","system_id":"levelo_inurba_marseille","lat":43.28858,"lon":5.39298,"is_reserved":false,"is_disabled":false,"rental_uris":{"android":"levelo://app?vid=98e27e15-5409-4a6d-a0b6-d6423409fa25","ios":"levelo://app?vid=98e27e15-5409-4a6d-a0b6-d6423409fa25"},"vehicle_type_id":"4","last_reported":1769821548,"current_range_meters":4800,"station_id":"ce4bh2p2rcd13ifvqdi0","pricing_plan_id":"cebpf4jnsgd1na2vs0mg"},{"bike_id":"1915d4ba-f4af-445d-a9d3-be106a370507","system_id":"levelo_inurba_marseille","lat":43.273822,"lon":5.362491,"is_reserved":false,"is_disabled":false,"rental_uris":{"android":"levelo://app?vid=1915d4ba-f4af-445d-a9d3-be106a370507","ios":"levelo://app?vid=1915d4ba-f4af-445d-a9d3-be106a370507"},"vehicle_type_id":"4","last_reported":1769821548,"current_range_meters":4800,"station_id":"ce4bhbh2rcd13ifvqeo0","pricing_plan_id":"cebpf4jnsgd1na2vs0mg"},{"bike_id":"382c481d-5cf2-4d38-9788-579a9f396d00","system_id":"levelo_inurba_marseille","lat":43.22939,"lon":5.35387,"is_reserved":false,"is_disabled":false,"rental_uris":{"android":"levelo://app?vid=382c481d-5cf2-4d38-9788-579a9f396d00","ios":"levelo://app?vid=382c481d-5cf2-4d38-9788-579a9f396d00"},"vehicle_type_id":"4","last_reported":1769821548,"current_range_meters":4800,"station_id":"cpo3532slgdg3j2ikp40","pricing_plan_id":"cebpf4jnsgd1na2vs0mg"},{"bike_id":"222bd201-d5cc-4223-b6ec-6d982336aa03","system_id":"levelo_inurba_marseille","lat":43.29805,"lon":5.44076,"is_reserved":false,"is_disabled":false,"rental_uris":{"android":"levelo://app?vid=222bd201-d5cc-4223-b6ec-6d982336aa03","ios":"levelo://app?vid=222bd201-d5cc-4223-b6ec-6d982336aa03"},"vehicle_type_id":"4","last_reported":1769821548,"current_range_meters":4800,"station_id":"st_d3jp68qikq2c7381ktn0","pricing_plan_id":"cebpf4jnsgd1na2vs0mg"},{"bike_id":"23dad914-1de4-48fb-a770-cde7550d8b95","system_id":"levelo_inurba_marseille","lat":43.303445,"lon":5.418707,"is_reserved":false,"is_disabled":false,"rental_uris":{"android":"levelo://app?vid=23dad914-1de4-48fb-a770-cde7550d8b95","ios":"levelo://app?vid=23dad914-1de4-48fb-a770-cde7550d8b95"},"vehicle_type_id":"4","last_reported":1769821548,"current_range_meters":4800,"station_id":"ce4bhop2rcd13ifvqh7g","pricing_plan_id":"cebpf4jnsgd1na2vs0mg"},{"bike_id":"4f828ce8-becc-47a2-8b60-97e444eefa27","system_id":"levelo_inurba_marseille","lat":43.25863,"lon":5.3992,"is_reserved":false,"is_disabled":false,"rental_uris":{"android":"levelo://app?vid=4f828ce8-becc-47a2-8b60-97e444eefa27","ios":"levelo://app?vid=4f828ce8-becc-47a2-8b60-97e444eefa27"},"vehicle_type_id":"4","last_reported":1769821548,"current_range_meters":4800,"station_id":"ce4bhl92rcd13ifvqghg","pricing_plan_id":"cebpf4jnsgd1na2vs0mg"},{"bike_id":"936cef5a-3134-4443-a151-93551f5a6574","system_id":"levelo_inurba_marseille","lat":43.24813,"lon":5.37452,"is_reserved":false,"is_disabled":false,"rental_uris":{"android":"levelo://app?vid=936cef5a-3134-4443-a151-93551f5a6574","ios":"levelo://app?vid=936cef5a-3134-4443-a151-93551f5a6574"},"vehicle_type_id":"4","last_reported":1769821548,"current_range_meters":4800,"station_id":"ce4bhgh2rcd13ifvqfb0","pricing_plan_id":"cebpf4jnsgd1na2vs0mg"},{"bike_id":"5d4a5e71-da68-46b4-86d2-cd6e29e89c96","system_id":"levelo_inurba_marseille","lat":43.309438,"lon":5.390321,"is_reserved":false,"is_disabled":false,"rental_uris":{"android":"levelo://app?vid=5d4a5e71-da68-46b4-86d2-cd6e29e89c96","ios":"levelo://app?vid=5d4a5e71-da68-46b4-86d2-cd6e29e89c96"},"vehicle_type_id":"4","last_reported":1769821548,"current_range_meters":4800,"station_id":"ce4bh0p2rcd13ifvqd80","pricing_plan_id":"cebpf4jnsgd1na2vs0mg"},{"bike_id":"4e0e09af-dc1f-4b4c-a5e0-62c35307cb3b","system_id":"levelo_inurba_marseille","lat":43.27893,"lon":5.39582,"is_reserved":false,"is_disabled":false,"rental_uris":{"android":"levelo://app?vid=4e0e09af-dc1f-4b4c-a5e0-62c35307cb3b","ios":"levelo://app?vid=4e0e09af-dc1f-4b4c-a5e0-62c35307cb3b"},"vehicle_type_id":"4","last_reported":1769821548,"current_range_meters":4800,"station_id":"ce4bhf92rcd13ifvqf40","pricing_plan_id":"cebpf4jnsgd1na2vs0mg"},{"bike_id":"c36501a5-b15d-4754-b855-eaf047fce34d","system_id":"levelo_inurba_marseille","lat":43.28609,"lon":5.37066,"is_reserved":false,"is_disabled":false,"rental_uris":{"android":"levelo://app?vid=c36501a5-b15d-4754-b855-eaf047fce34d","ios":"levelo://app?vid=c36501a5-b15d-4754-b855-eaf047fce34d"},"vehicle_type_id":"4","last_reported":1769821548,"current_range_meters":4800,"station_id":"ce4bht12rcd13ifvqi60","pricing_plan_id":"cebpf4jnsgd1na2vs0mg"},{"bike_id":"f6f7abd2-8891-4a7b-8fd8-eda5a43d9f66","system_id":"levelo_inurba_marseille","lat":43.29263,"lon":5.40891,"is_reserved":false,"is_disabled":false,"rental_uris":{"android":"levelo://app?vid=f6f7abd2-8891-4a7b-8fd8-eda5a43d9f66","ios":"levelo://app?vid=f6f7abd2-8891-4a7b-8fd8-eda5a43d9f66"},"vehicle_type_id":"4","last_reported":1769821548,"current_range_meters":4800,"station_id":"ce4bh192rcd13ifvqdc0","pricing_plan_id":"cebpf4jnsgd1na2vs0mg"},{"bike_id":"d3a387e5-9641-41a5-ac59-e6007a016061","system_id":"levelo_inurba_marseille","lat":43.284044,"lon":5.375123,"is_reserved":false,"is_disabled":false,"rental_uris":{"android":"levelo://app?vid=d3a387e5-9641-41a5-ac59-e6007a016061","ios":"levelo://app?vid=d3a387e5-9641-41a5-ac59-e6007a016061"},"vehicle_type_id":"4","last_reported":1769821548,"current_range_meters":4800,"station_id":"ce4bh412rcd13ifvqds0","pricing_plan_id":"cebpf4jnsgd1na2vs0mg"},{"bike_id":"0be82997-2d35-428e-8a49-28767a03cad5","system_id":"levelo_inurba_marseille","lat":43.2839,"lon":5.38635,"is_reserved":false,"is_disabled":false,"rental_uris":{"android":"levelo://app?vid=0be82997-2d35-428e-8a49-28767a03cad5","ios":"levelo://app?vid=0be82997-2d35-428e-8a49-28767a03cad5"},"vehicle_type_id":"4","last_reported":1769821548,"current_range_meters":5600,"station_id":"ce4bh492rcd13ifvqdvg","pricing_plan_id":"cebpf4jnsgd1na2vs0mg"},{"bike_id":"6b07e50c-03c8-4824-b0e1-e184b4975a06","system_id":"levelo_inurba_marseille","lat":43.25335,"lon":5.42174,"is_reserved":false,"is_disabled":true,"rental_uris":{"android":"levelo://app?vid=6b07e50c-03c8-4824-b0e1-e184b4975a06","ios":"levelo://app?vid=6b07e50c-03c8-4824-b0e1-e184b4975a06"},"vehicle_type_id":"4","last_reported":1769821548,"current_range_meters":5600,"station_id":"st_d2m65c5bi1j21697t3ng","pricing_plan_id":"cebpf4jnsgd1na2vs0mg"},{"bike_id":"6feb1011-4c72-44ca-bc68-7cbf2db119e8","system_id":"levelo_inurba_marseille","lat":43.29533,"lon":5.37506,"is_reserved":false,"is_disabled":false,"rental_uris":{"android":"levelo://app?vid=6feb1011-4c72-44ca-bc68-7cbf2db119e8","ios":"levelo://app?vid=6feb1011-4c72-44ca-bc68-7cbf2db119e8"},"vehicle_type_id":"4","last_reported":1769821548,"current_range_meters":5600,"station_id":"ce4bgkp2rcd13ifvqbmg","pricing_plan_id":"cebpf4jnsgd1na2vs0mg"},{"bike_id":"f1848dae-0f65-4bb1-a4a5-d1e7dd49c849","system_id":"levelo_inurba_marseille","lat":43.29979,"lon":5.37183,"is_reserved":false,"is_disabled":false,"rental_uris":{"android":"levelo://app?vid=f1848dae-0f65-4bb1-a4a5-d1e7dd49c849","ios":"levelo://app?vid=f1848dae-0f65-4bb1-a4a5-d1e7dd49c849"},"vehicle_type_id":"4","last_reported":1769821548,"current_range_meters":5600,"station_id":"ce4bgr92rcd13ifvqc7g","pricing_plan_id":"cebpf4jnsgd1na2vs0mg"},{"bike_id":"5a0279f7-aae2-4145-8643-e51972cc560c","system_id":"levelo_inurba_marseille","lat":43.24185,"lon":5.39722,"is_reserved":false,"is_disabled":false,"rental_uris":{"android":"levelo://app?vid=5a0279f7-aae2-4145-8643-e51972cc560c","ios":"levelo://app?vid=5a0279f7-aae2-4145-8643-e51972cc560c"},"vehicle_type_id":"4","last_reported":1769821548,"current_range_meters":5600,"station_id":"ce4bhn12rcd13ifvqgpg","pricing_plan_id":"cebpf4jnsgd1na2vs0mg"},{"bike_id":"359f6e27-72db-4c23-a55e-a323ee2e6139","system_id":"levelo_inurba_marseille","lat":43.30154,"lon":5.38082,"is_reserved":false,"is_disabled":false,"rental_uris":{"android":"levelo://app?vid=359f6e27-72db-4c23-a55e-a323ee2e6139","ios":"levelo://app?vid=359f6e27-72db-4c23-a55e-a323ee2e6139"},"vehicle_type_id":"4","last_reported":1769821548,"current_range_meters":5600,"station_id":"ce4bgjp2rcd13ifvqbh0","pricing_plan_id":"cebpf4jnsgd1na2vs0mg"},{"bike_id":"162e6984-f259-47c9-be8d-3b83e4d8ad01","system_id":"levelo_inurba_marseille","lat":43.27995,"lon":5.41673,"is_reserved":false,"is_disabled":false,"rental_uris":{"android":"levelo://app?vid=162e6984-f259-47c9-be8d-3b83e4d8ad01","ios":"levelo://app?vid=162e6984-f259-47c9-be8d-3b83e4d8ad01"},"vehicle_type_id":"4","last_reported":1769821548,"current_range_meters":5600,"station_id":"ce4bho12rcd13ifvqh1g","pricing_plan_id":"cebpf4jnsgd1na2vs0mg"},{"bike_id":"e902ef9f-7cd4-4fe6-a82c-948b6d2fcf15","system_id":"levelo_inurba_marseille","lat":43.299,"lon":5.43679,"is_reserved":false,"is_disabled":false,"rental_uris":{"android":"levelo://app?vid=e902ef9f-7cd4-4fe6-a82c-948b6d2fcf15","ios":"levelo://app?vid=e902ef9f-7cd4-4fe6-a82c-948b6d2fcf15"},"vehicle_type_id":"4","last_reported":1769821548,"current_range_meters":5600,"station_id":"ce4bhpp2rcd13ifvqhfg","pricing_plan_id":"cebpf4jnsgd1na2vs0mg"},{"bike_id":"4b5eb031-7397-4204-b8ec-553a81e6fa49","system_id":"levelo_inurba_marseille","lat":43.27563,"lon":5.38448,"is_reserved":false,"is_disabled":false,"rental_uris":{"android":"levelo://app?vid=4b5eb031-7397-4204-b8ec-553a81e6fa49","ios":"levelo://app?vid=4b5eb031-7397-4204-b8ec-553a81e6fa49"},"vehicle_type_id":"4","last_reported":1769821548,"current_range_meters":5600,"station_id":"ce4bhh92rcd13ifvqfi0","pricing_plan_id":"cebpf4jnsgd1na2vs0mg"},{"bike_id":"75e12ebc-bd2b-46ca-8731-fb764315b922","system_id":"levelo_inurba_marseille","lat":43.25081,"lon":5.3951,"is_reserved":false,"is_disabled":false,"rental_uris":{"android":"levelo://app?vid=75e12ebc-bd2b-46ca-8731-fb764315b922","ios":"levelo://app?vid=75e12ebc-bd2b-46ca-8731-fb764315b922"},"vehicle_type_id":"4","last_reported":1769821548,"current_range_meters":5600,"station_id":"ce4bhm12rcd13ifvqgkg","pricing_plan_id":"cebpf4jnsgd1na2vs0mg"},{"bike_id":"a4a694fb-7a71-47dd-bebd-9cbb5fef1c0f","system_id":"levelo_inurba_marseille","lat":43.28402,"lon":5.37526,"is_reserved":false,"is_disabled":false,"rental_uris":{"android":"levelo://app?vid=a4a694fb-7a71-47dd-bebd-9cbb5fef1c0f","ios":"levelo://app?vid=a4a694fb-7a71-47dd-bebd-9cbb5fef1c0f"},"vehicle_type_id":"4","last_reported":1769821548,"current_range_meters":5600,"station_id":"ce4bh412rcd13ifvqds0","pricing_plan_id":"cebpf4jnsgd1na2vs0mg"},{"bike_id":"90d8f47d-92dd-4327-94ea-1f7e7a2152b8","system_id":"levelo_inurba_marseille","lat":43.27809,"lon":5.40722,"is_reserved":false,"is_disabled":false,"rental_uris":{"android":"levelo://app?vid=90d8f47d-92dd-4327-94ea-1f7e7a2152b8","ios":"levelo://app?vid=90d8f47d-92dd-4327-94ea-1f7e7a2152b8"},"vehicle_type_id":"4","last_reported":1769821548,"current_range_meters":5600,"station_id":"ce4bhnh2rcd13ifvqgtg","pricing_plan_id":"cebpf4jnsgd1na2vs0mg"},{"bike_id":"fcb6a24a-52b1-488a-b1ff-28d7bd022f8d","system_id":"levelo_inurba_marseille","lat":43.28271,"lon":5.35097,"is_reserved":false,"is_disabled":false,"rental_uris":{"android":"levelo://app?vid=fcb6a24a-52b1-488a-b1ff-28d7bd022f8d","ios":"levelo://app?vid=fcb6a24a-52b1-488a-b1ff-28d7bd022f8d"},"vehicle_type_id":"4","last_reported":1769821548,"current_range_meters":5600,"station_id":"ce4bhbp2rcd13ifvqerg","pricing_plan_id":"cebpf4jnsgd1na2vs0mg"},{"bike_id":"ad150f2a-29f5-456b-94c0-795879e342bd","system_id":"levelo_inurba_marseille","lat":43.321094,"lon":5.367758,"is_reserved":false,"is_disabled":false,"rental_uris":{"android":"levelo://app?vid=ad150f2a-29f5-456b-94c0-795879e342bd","ios":"levelo://app?vid=ad150f2a-29f5-456b-94c0-795879e342bd"},"vehicle_type_id":"4","last_reported":1769821548,"current_range_meters":5600,"station_id":"ce4bhrh2rcd13ifvqhug","pricing_plan_id":"cebpf4jnsgd1na2vs0mg"},{"bike_id":"df172472-ab3d-4ce3-b703-a5d28d7545ff","system_id":"levelo_inurba_marseille","lat":43.24636,"lon":5.38174,"is_reserved":false,"is_disabled":false,"rental_uris":{"android":"levelo://app?vid=df172472-ab3d-4ce3-b703-a5d28d7545ff","ios":"levelo://app?vid=df172472-ab3d-4ce3-b703-a5d28d7545ff"},"vehicle_type_id":"4","last_reported":1769821548,"current_range_meters":5600,"station_id":"ce4bhih2rcd13ifvqfr0","pricing_plan_id":"cebpf4jnsgd1na2vs0mg"},{"bike_id":"9ddb400f-f7ed-4d89-b8ef-7e59cfe81af8","system_id":"levelo_inurba_marseille","lat":43.290228,"lon":5.381376,"is_reserved":false,"is_disabled":true,"rental_uris":{"android":"levelo://app?vid=9ddb400f-f7ed-4d89-b8ef-7e59cfe81af8","ios":"levelo://app?vid=9ddb400f-f7ed-4d89-b8ef-7e59cfe81af8"},"vehicle_type_id":"4","last_reported":1769821548,"current_range_meters":5600,"station_id":"","pricing_plan_id":"cebpf4jnsgd1na2vs0mg"},{"bike_id":"f56ee39d-a6b7-4a7e-89de-b9d7f0478322","system_id":"levelo_inurba_marseille","lat":43.323568,"lon":5.367378,"is_reserved":false,"is_disabled":false,"rental_uris":{"android":"levelo://app?vid=f56ee39d-a6b7-4a7e-89de-b9d7f0478322","ios":"levelo://app?vid=f56ee39d-a6b7-4a7e-89de-b9d7f0478322"},"vehicle_type_id":"4","last_reported":1769821548,"current_range_meters":5600,"station_id":"ce4bhsh2rcd13ifvqi2g","pricing_plan_id":"cebpf4jnsgd1na2vs0mg"},{"bike_id":"7272b7e5-dc3f-4a67-bdd0-317168495648","system_id":"levelo_inurba_marseille","lat":43.268,"lon":5.40266,"is_reserved":false,"is_disabled":false,"rental_uris":{"android":"levelo://app?vid=7272b7e5-dc3f-4a67-bdd0-317168495648","ios":"levelo://app?vid=7272b7e5-dc3f-4a67-bdd0-317168495648"},"vehicle_type_id":"4","last_reported":1769821548,"current_range_meters":5600,"station_id":"ce501612rcd8frsf0b60","pricing_plan_id":"cebpf4jnsgd1na2vs0mg"},{"bike_id":"7405adf0-62ac-4ed2-885c-d307df931ca6","system_id":"levelo_inurba_marseille","lat":43.28488,"lon":5.3845,"is_reserved":false,"is_disabled":false,"rental_uris":{"android":"levelo://app?vid=7405adf0-62ac-4ed2-885c-d307df931ca6","ios":"levelo://app?vid=7405adf0-62ac-4ed2-885c-d307df931ca6"},"vehicle_type_id":"4","last_reported":1769821548,"current_range_meters":5600,"station_id":"ce4bh512rcd13ifvqe3g","pricing_plan_id":"cebpf4jnsgd1na2vs0mg"},{"bike_id":"1d048dc8-d7b0-439b-8695-38b20ffd2105","system_id":"levelo_inurba_marseille","lat":43.24119,"lon":5.39695,"is_reserved":false,"is_disabled":false,"rental_uris":{"android":"levelo://app?vid=1d048dc8-d7b0-439b-8695-38b20ffd2105","ios":"levelo://app?vid=1d048dc8-d7b0-439b-8695-38b20ffd2105"},"vehicle_type_id":"4","last_reported":1769821548,"current_range_meters":5600,"station_id":"","pricing_plan_id":"cebpf4jnsgd1na2vs0mg"},{"bike_id":"552cacd7-acbb-47d3-8159-3f52b9bb22d1","system_id":"levelo_inurba_marseille","lat":43.305251,"lon":5.369115,"is_reserved":false,"is_disabled":false,"rental_uris":{"android":"levelo://app?vid=552cacd7-acbb-47d3-8159-3f52b9bb22d1","ios":"levelo://app?vid=552cacd7-acbb-47d3-8159-3f52b9bb22d1"},"vehicle_type_id":"4","last_reported":1769821548,"current_range_meters":5600,"station_id":"ce4bgqh2rcd13ifvqc5g","pricing_plan_id":"cebpf4jnsgd1na2vs0mg"},{"bike_id":"3260d6da-2018-4dad-a5a2-1fcdb44b0cff","system_id":"levelo_inurba_marseille","lat":43.251,"lon":5.39517,"is_reserved":false,"is_disabled":true,"rental_uris":{"android":"levelo://app?vid=3260d6da-2018-4dad-a5a2-1fcdb44b0cff","ios":"levelo://app?vid=3260d6da-2018-4dad-a5a2-1fcdb44b0cff"},"vehicle_type_id":"4","last_reported":1769821548,"current_range_meters":6000,"station_id":"ce4bhm12rcd13ifvqgkg","pricing_plan_id":"cebpf4jnsgd1na2vs0mg"},{"bike_id":"b589a911-c752-40e2-a671-addd4ec13243","system_id":"levelo_inurba_marseille","lat":43.29075,"lon":5.37169,"is_reserved":false,"is_disabled":false,"rental_uris":{"android":"levelo://app?vid=b589a911-c752-40e2-a671-addd4ec13243","ios":"levelo://app?vid=b589a911-c752-40e2-a671-addd4ec13243"},"vehicle_type_id":"4","last_reported":1769821548,"current_range_meters":6000,"station_id":"ce4bh5p2rcd13ifvqe4g","pricing_plan_id":"cebpf4jnsgd1na2vs0mg"},{"bike_id":"bf37e74e-5d8b-4f4d-8158-c7f93cbda707","system_id":"levelo_inurba_marseille","lat":43.31328,"lon":5.39688,"is_reserved":false,"is_disabled":false,"rental_uris":{"android":"levelo://app?vid=bf37e74e-5d8b-4f4d-8158-c7f93cbda707","ios":"levelo://app?vid=bf37e74e-5d8b-4f4d-8158-c7f93cbda707"},"vehicle_type_id":"4","last_reported":1769821548,"current_range_meters":6000,"station_id":"ce4bgvp2rcd13ifvqcu0","pricing_plan_id":"cebpf4jnsgd1na2vs0mg"},{"bike_id":"ffdda927-e6da-4d6b-b63c-5f8f68ad9828","system_id":"levelo_inurba_marseille","lat":43.30865,"lon":5.41182,"is_reserved":false,"is_disabled":false,"rental_uris":{"android":"levelo://app?vid=ffdda927-e6da-4d6b-b63c-5f8f68ad9828","ios":"levelo://app?vid=ffdda927-e6da-4d6b-b63c-5f8f68ad9828"},"vehicle_type_id":"4","last_reported":1769821548,"current_range_meters":6000,"station_id":"","pricing_plan_id":"cebpf4jnsgd1na2vs0mg"},{"bike_id":"858c22cf-3753-4705-9193-0549a86510c0","system_id":"levelo_inurba_marseille","lat":43.30895,"lon":5.40153,"is_reserved":false,"is_disabled":false,"rental_uris":{"android":"levelo://app?vid=858c22cf-3753-4705-9193-0549a86510c0","ios":"levelo://app?vid=858c22cf-3753-4705-9193-0549a86510c0"},"vehicle_type_id":"4","last_reported":1769821548,"current_range_meters":6000,"station_id":"ce4bgvp2rcd13ifvqct0","pricing_plan_id":"cebpf4jnsgd1na2vs0mg"},{"bike_id":"3c07e8db-1d64-4b7a-879d-8b774c3d7e0c","system_id":"levelo_inurba_marseille","lat":43.27382,"lon":5.36276,"is_reserved":false,"is_disabled":false,"rental_uris":{"android":"levelo://app?vid=3c07e8db-1d64-4b7a-879d-8b774c3d7e0c","ios":"levelo://app?vid=3c07e8db-1d64-4b7a-879d-8b774c3d7e0c"},"vehicle_type_id":"4","last_reported":1769821548,"current_range_meters":6000,"station_id":"ce4bhbh2rcd13ifvqeo0","pricing_plan_id":"cebpf4jnsgd1na2vs0mg"},{"bike_id":"21335747-3add-49bb-95b9-081d777d30db","system_id":"levelo_inurba_marseille","lat":43.23177,"lon":5.4,"is_reserved":false,"is_disabled":false,"rental_uris":{"android":"levelo://app?vid=21335747-3add-49bb-95b9-081d777d30db","ios":"levelo://app?vid=21335747-3add-49bb-95b9-081d777d30db"},"vehicle_type_id":"4","last_reported":1769821548,"current_range_meters":6000,"station_id":"ce4bhn12rcd13ifvqgqg","pricing_plan_id":"cebpf4jnsgd1na2vs0mg"},{"bike_id":"5f8af22f-9203-4ec9-816f-1618d1060df6","system_id":"levelo_inurba_marseille","lat":43.32507,"lon":5.38305,"is_reserved":false,"is_disabled":false,"rental_uris":{"android":"levelo://app?vid=5f8af22f-9203-4ec9-816f-1618d1060df6","ios":"levelo://app?vid=5f8af22f-9203-4ec9-816f-1618d1060df6"},"vehicle_type_id":"4","last_reported":1769821548,"current_range_meters":6000,"station_id":"st_d4asgbiv49dc73anf9m0","pricing_plan_id":"cebpf4jnsgd1na2vs0mg"},{"bike_id":"7a94117d-4d1c-4caa-a409-a0186d2e707b","system_id":"levelo_inurba_marseille","lat":43.287,"lon":5.373809,"is_reserved":false,"is_disabled":false,"rental_uris":{"android":"levelo://app?vid=7a94117d-4d1c-4caa-a409-a0186d2e707b","ios":"levelo://app?vid=7a94117d-4d1c-4caa-a409-a0186d2e707b"},"vehicle_type_id":"4","last_reported":1769821548,"current_range_meters":6000,"station_id":"ce4bh3p2rcd13ifvqdq0","pricing_plan_id":"cebpf4jnsgd1na2vs0mg"},{"bike_id":"1d321438-398a-4c27-a731-4b493b3f1405","system_id":"levelo_inurba_marseille","lat":43.28611,"lon":5.35122,"is_reserved":false,"is_disabled":false,"rental_uris":{"android":"levelo://app?vid=1d321438-398a-4c27-a731-4b493b3f1405","ios":"levelo://app?vid=1d321438-398a-4c27-a731-4b493b3f1405"},"vehicle_type_id":"4","last_reported":1769821548,"current_range_meters":6000,"station_id":"ce4bhch2rcd13ifvqeug","pricing_plan_id":"cebpf4jnsgd1na2vs0mg"},{"bike_id":"c5750adf-e68a-4c44-b08e-8fba935f4c99","system_id":"levelo_inurba_marseille","lat":43.25088,"lon":5.39516,"is_reserved":false,"is_disabled":false,"rental_uris":{"android":"levelo://app?vid=c5750adf-e68a-4c44-b08e-8fba935f4c99","ios":"levelo://app?vid=c5750adf-e68a-4c44-b08e-8fba935f4c99"},"vehicle_type_id":"4","last_reported":1769821548,"current_range_meters":6000,"station_id":"ce4bhm12rcd13ifvqgkg","pricing_plan_id":"cebpf4jnsgd1na2vs0mg"},{"bike_id":"4ed8b7c4-4959-4a76-8810-ca1bf04888b4","system_id":"levelo_inurba_marseille","lat":43.24477,"lon":5.42532,"is_reserved":false,"is_disabled":false,"rental_uris":{"android":"levelo://app?vid=4ed8b7c4-4959-4a76-8810-ca1bf04888b4","ios":"levelo://app?vid=4ed8b7c4-4959-4a76-8810-ca1bf04888b4"},"vehicle_type_id":"4","last_reported":1769821548,"current_range_meters":6000,"station_id":"st_d4a3vfp97mjs738cd8kg","pricing_plan_id":"cebpf4jnsgd1na2vs0mg"},{"bike_id":"339040ef-38c7-4f49-946c-88b541b3e175","system_id":"levelo_inurba_marseille","lat":43.28618,"lon":5.35104,"is_reserved":false,"is_disabled":false,"rental_uris":{"android":"levelo://app?vid=339040ef-38c7-4f49-946c-88b541b3e175","ios":"levelo://app?vid=339040ef-38c7-4f49-946c-88b541b3e175"},"vehicle_type_id":"4","last_reported":1769821548,"current_range_meters":6000,"station_id":"ce4bhch2rcd13ifvqeug","pricing_plan_id":"cebpf4jnsgd1na2vs0mg"},{"bike_id":"e2701745-5106-4d39-a3d2-5f47763fb929","system_id":"levelo_inurba_marseille","lat":43.24627,"lon":5.43147,"is_reserved":false,"is_disabled":false,"rental_uris":{"android":"levelo://app?vid=e2701745-5106-4d39-a3d2-5f47763fb929","ios":"levelo://app?vid=e2701745-5106-4d39-a3d2-5f47763fb929"},"vehicle_type_id":"4","last_reported":1769821548,"current_range_meters":6000,"station_id":"st_d2m6c4gdas8pm72e190g","pricing_plan_id":"cebpf4jnsgd1na2vs0mg"},{"bike_id":"c15bf6ee-369d-4dc7-89fc-91442ce5cab3","system_id":"levelo_inurba_marseille","lat":43.29898,"lon":5.43661,"is_reserved":false,"is_disabled":false,"rental_uris":{"android":"levelo://app?vid=c15bf6ee-369d-4dc7-89fc-91442ce5cab3","ios":"levelo://app?vid=c15bf6ee-369d-4dc7-89fc-91442ce5cab3"},"vehicle_type_id":"4","last_reported":1769821548,"current_range_meters":6000,"station_id":"ce4bhpp2rcd13ifvqhfg","pricing_plan_id":"cebpf4jnsgd1na2vs0mg"},{"bike_id":"90e4bf92-d18d-44ee-bf90-52d22631a6b8","system_id":"levelo_inurba_marseille","lat":43.23783,"lon":5.3663,"is_reserved":false,"is_disabled":false,"rental_uris":{"android":"levelo://app?vid=90e4bf92-d18d-44ee-bf90-52d22631a6b8","ios":"levelo://app?vid=90e4bf92-d18d-44ee-bf90-52d22631a6b8"},"vehicle_type_id":"4","last_reported":1769821548,"current_range_meters":6000,"station_id":"st_d3nk18o9ro0c73en2l3g","pricing_plan_id":"cebpf4jnsgd1na2vs0mg"},{"bike_id":"67ad07c8-90b5-4e55-9258-5dcf57149b60","system_id":"levelo_inurba_marseille","lat":43.30948,"lon":5.39032,"is_reserved":false,"is_disabled":false,"rental_uris":{"android":"levelo://app?vid=67ad07c8-90b5-4e55-9258-5dcf57149b60","ios":"levelo://app?vid=67ad07c8-90b5-4e55-9258-5dcf57149b60"},"vehicle_type_id":"4","last_reported":1769821548,"current_range_meters":6000,"station_id":"ce4bgup2rcd13ifvqco0","pricing_plan_id":"cebpf4jnsgd1na2vs0mg"},{"bike_id":"ee86175d-f8d2-4c28-9de2-338de1c0278f","system_id":"levelo_inurba_marseille","lat":43.29257,"lon":5.37645,"is_reserved":false,"is_disabled":false,"rental_uris":{"android":"levelo://app?vid=ee86175d-f8d2-4c28-9de2-338de1c0278f","ios":"levelo://app?vid=ee86175d-f8d2-4c28-9de2-338de1c0278f"},"vehicle_type_id":"4","last_reported":1769821548,"current_range_meters":6400,"station_id":"ce4bgi12rcd13ifvqb80","pricing_plan_id":"cebpf4jnsgd1na2vs0mg"},{"bike_id":"1983bd47-bc1f-4207-ab11-fdf07b4bdd18","system_id":"levelo_inurba_marseille","lat":43.29244,"lon":5.38332,"is_reserved":false,"is_disabled":true,"rental_uris":{"android":"levelo://app?vid=1983bd47-bc1f-4207-ab11-fdf07b4bdd18","ios":"levelo://app?vid=1983bd47-bc1f-4207-ab11-fdf07b4bdd18"},"vehicle_type_id":"4","last_reported":1769821548,"current_range_meters":6400,"station_id":"","pricing_plan_id":"cebpf4jnsgd1na2vs0mg"},{"bike_id":"14f8addb-8706-44a8-a488-29c4f9a62fe1","system_id":"levelo_inurba_marseille","lat":43.303747,"lon":5.42479,"is_reserved":false,"is_disabled":false,"rental_uris":{"android":"levelo://app?vid=14f8addb-8706-44a8-a488-29c4f9a62fe1","ios":"levelo://app?vid=14f8addb-8706-44a8-a488-29c4f9a62fe1"},"vehicle_type_id":"4","last_reported":1769821548,"current_range_meters":6400,"station_id":"ce4bhoh2rcd13ifvqh6g","pricing_plan_id":"cebpf4jnsgd1na2vs0mg"},{"bike_id":"c6d7e52f-feda-4e03-b282-7ec699c43bdd","system_id":"levelo_inurba_marseille","lat":43.29939,"lon":5.39564,"is_reserved":false,"is_disabled":false,"rental_uris":{"android":"levelo://app?vid=c6d7e52f-feda-4e03-b282-7ec699c43bdd","ios":"levelo://app?vid=c6d7e52f-feda-4e03-b282-7ec699c43bdd"},"vehicle_type_id":"4","last_reported":1769821548,"current_range_meters":6400,"station_id":"","pricing_plan_id":"cebpf4jnsgd1na2vs0mg"},{"bike_id":"a348b41d-ce0f-4115-b2b3-f88fa8dc97dd","system_id":"levelo_inurba_marseille","lat":43.22565,"lon":5.41626,"is_reserved":false,"is_disabled":false,"rental_uris":{"android":"levelo://app?vid=a348b41d-ce0f-4115-b2b3-f88fa8dc97dd","ios":"levelo://app?vid=a348b41d-ce0f-4115-b2b3-f88fa8dc97dd"},"vehicle_type_id":"4","last_reported":1769821548,"current_range_meters":6400,"station_id":"st_d2o4gvlbi1j2169b742g","pricing_plan_id":"cebpf4jnsgd1na2vs0mg"},{"bike_id":"d54f462a-1a28-4e53-8f4e-c24ac3c93444","system_id":"levelo_inurba_marseille","lat":43.31183,"lon":5.38704,"is_reserved":false,"is_disabled":false,"rental_uris":{"android":"levelo://app?vid=d54f462a-1a28-4e53-8f4e-c24ac3c93444","ios":"levelo://app?vid=d54f462a-1a28-4e53-8f4e-c24ac3c93444"},"vehicle_type_id":"4","last_reported":1769821548,"current_range_meters":6400,"station_id":"ce4bgv12rcd13ifvqcp0","pricing_plan_id":"cebpf4jnsgd1na2vs0mg"},{"bike_id":"29e4ce79-df32-4a16-836e-cd957aa9a131","system_id":"levelo_inurba_marseille","lat":43.24636,"lon":5.43151,"is_reserved":false,"is_disabled":false,"rental_uris":{"android":"levelo://app?vid=29e4ce79-df32-4a16-836e-cd957aa9a131","ios":"levelo://app?vid=29e4ce79-df32-4a16-836e-cd957aa9a131"},"vehicle_type_id":"4","last_reported":1769821548,"current_range_meters":6400,"station_id":"st_d2m6c4gdas8pm72e190g","pricing_plan_id":"cebpf4jnsgd1na2vs0mg"},{"bike_id":"0e79c48d-cdc7-44eb-ad7d-d24757dd50e7","system_id":"levelo_inurba_marseille","lat":43.323536,"lon":5.367498,"is_reserved":false,"is_disabled":false,"rental_uris":{"android":"levelo://app?vid=0e79c48d-cdc7-44eb-ad7d-d24757dd50e7","ios":"levelo://app?vid=0e79c48d-cdc7-44eb-ad7d-d24757dd50e7"},"vehicle_type_id":"4","last_reported":1769821548,"current_range_meters":6400,"station_id":"ce4bhsh2rcd13ifvqi2g","pricing_plan_id":"cebpf4jnsgd1na2vs0mg"},{"bike_id":"0406ff35-323c-44bd-abcc-d57ff896dde6","system_id":"levelo_inurba_marseille","lat":43.28937,"lon":5.36635,"is_reserved":false,"is_disabled":false,"rental_uris":{"android":"levelo://app?vid=0406ff35-323c-44bd-abcc-d57ff896dde6","ios":"levelo://app?vid=0406ff35-323c-44bd-abcc-d57ff896dde6"},"vehicle_type_id":"4","last_reported":1769821548,"current_range_meters":6400,"station_id":"ce4bhap2rcd13ifvqek0","pricing_plan_id":"cebpf4jnsgd1na2vs0mg"},{"bike_id":"ed49719e-ebdf-4e11-bee6-46418a0b21a1","system_id":"levelo_inurba_marseille","lat":43.25871,"lon":5.399089,"is_reserved":false,"is_disabled":false,"rental_uris":{"android":"levelo://app?vid=ed49719e-ebdf-4e11-bee6-46418a0b21a1","ios":"levelo://app?vid=ed49719e-ebdf-4e11-bee6-46418a0b21a1"},"vehicle_type_id":"4","last_reported":1769821548,"current_range_meters":6400,"station_id":"ce4bhl92rcd13ifvqghg","pricing_plan_id":"cebpf4jnsgd1na2vs0mg"},{"bike_id":"be59a1fa-fcbd-4f35-ac1f-ae4c97b5126c","system_id":"levelo_inurba_marseille","lat":43.21757,"lon":5.34623,"is_reserved":false,"is_disabled":false,"rental_uris":{"android":"levelo://app?vid=be59a1fa-fcbd-4f35-ac1f-ae4c97b5126c","ios":"levelo://app?vid=be59a1fa-fcbd-4f35-ac1f-ae4c97b5126c"},"vehicle_type_id":"4","last_reported":1769821548,"current_range_meters":6400,"station_id":"st_cvj6r9ubvosntc0bgbag","pricing_plan_id":"cebpf4jnsgd1na2vs0mg"},{"bike_id":"2f69bdaf-1262-479f-9e9b-296ce2b8b0eb","system_id":"levelo_inurba_marseille","lat":43.31176,"lon":5.3871,"is_reserved":false,"is_disabled":false,"rental_uris":{"android":"levelo://app?vid=2f69bdaf-1262-479f-9e9b-296ce2b8b0eb","ios":"levelo://app?vid=2f69bdaf-1262-479f-9e9b-296ce2b8b0eb"},"vehicle_type_id":"4","last_reported":1769821548,"current_range_meters":6400,"station_id":"ce4bgv12rcd13ifvqcp0","pricing_plan_id":"cebpf4jnsgd1na2vs0mg"},{"bike_id":"b6b62251-5b29-4714-a9b4-a8044d239efa","system_id":"levelo_inurba_marseille","lat":43.31698,"lon":5.4046,"is_reserved":false,"is_disabled":false,"rental_uris":{"android":"levelo://app?vid=b6b62251-5b29-4714-a9b4-a8044d239efa","ios":"levelo://app?vid=b6b62251-5b29-4714-a9b4-a8044d239efa"},"vehicle_type_id":"4","last_reported":1769821548,"current_range_meters":6400,"station_id":"ce4bh012rcd13ifvqd00","pricing_plan_id":"cebpf4jnsgd1na2vs0mg"},{"bike_id":"d278f49b-79cb-49d4-9147-2a87ca70efd2","system_id":"levelo_inurba_marseille","lat":43.24662,"lon":5.38896,"is_reserved":false,"is_disabled":false,"rental_uris":{"android":"levelo://app?vid=d278f49b-79cb-49d4-9147-2a87ca70efd2","ios":"levelo://app?vid=d278f49b-79cb-49d4-9147-2a87ca70efd2"},"vehicle_type_id":"4","last_reported":1769821548,"current_range_meters":6400,"station_id":"ce4bhg12rcd13ifvqf60","pricing_plan_id":"cebpf4jnsgd1na2vs0mg"},{"bike_id":"218496cf-2441-4ae8-bc40-2f6f04977d70","system_id":"levelo_inurba_marseille","lat":43.28676,"lon":5.41255,"is_reserved":false,"is_disabled":false,"rental_uris":{"android":"levelo://app?vid=218496cf-2441-4ae8-bc40-2f6f04977d70","ios":"levelo://app?vid=218496cf-2441-4ae8-bc40-2f6f04977d70"},"vehicle_type_id":"4","last_reported":1769821548,"current_range_meters":6400,"station_id":"","pricing_plan_id":"cebpf4jnsgd1na2vs0mg"},{"bike_id":"bb1e61bf-0664-40ff-869b-ac155d1676ed","system_id":"levelo_inurba_marseille","lat":43.29003,"lon":5.35605,"is_reserved":false,"is_disabled":false,"rental_uris":{"android":"levelo://app?vid=bb1e61bf-0664-40ff-869b-ac155d1676ed","ios":"levelo://app?vid=bb1e61bf-0664-40ff-869b-ac155d1676ed"},"vehicle_type_id":"4","last_reported":1769821548,"current_range_meters":6400,"station_id":"ce4bhb92rcd13ifvqen0","pricing_plan_id":"cebpf4jnsgd1na2vs0mg"},{"bike_id":"13d20b3a-d4a2-4cd9-aaaa-01ca7200ccb0","system_id":"levelo_inurba_marseille","lat":43.30885,"lon":5.39625,"is_reserved":false,"is_disabled":false,"rental_uris":{"android":"levelo://app?vid=13d20b3a-d4a2-4cd9-aaaa-01ca7200ccb0","ios":"levelo://app?vid=13d20b3a-d4a2-4cd9-aaaa-01ca7200ccb0"},"vehicle_type_id":"4","last_reported":1769821548,"current_range_meters":6400,"station_id":"ce4bh012rcd13ifvqcv0","pricing_plan_id":"cebpf4jnsgd1na2vs0mg"},{"bike_id":"aae10572-ef9c-47a4-a613-6090b6c701e8","system_id":"levelo_inurba_marseille","lat":43.29956,"lon":5.41316,"is_reserved":false,"is_disabled":false,"rental_uris":{"android":"levelo://app?vid=aae10572-ef9c-47a4-a613-6090b6c701e8","ios":"levelo://app?vid=aae10572-ef9c-47a4-a613-6090b6c701e8"},"vehicle_type_id":"4","last_reported":1769821548,"current_range_meters":6400,"station_id":"ce4bhp12rcd13ifvqh9g","pricing_plan_id":"cebpf4jnsgd1na2vs0mg"},{"bike_id":"b3808154-86af-47d0-966c-f1cc0984587d","system_id":"levelo_inurba_marseille","lat":43.33755,"lon":5.37485,"is_reserved":false,"is_disabled":false,"rental_uris":{"android":"levelo://app?vid=b3808154-86af-47d0-966c-f1cc0984587d","ios":"levelo://app?vid=b3808154-86af-47d0-966c-f1cc0984587d"},"vehicle_type_id":"4","last_reported":1769821548,"current_range_meters":6400,"station_id":"","pricing_plan_id":"cebpf4jnsgd1na2vs0mg"},{"bike_id":"731e238e-bfad-467f-9314-1f052bbdff32","system_id":"levelo_inurba_marseille","lat":43.28339,"lon":5.38115,"is_reserved":false,"is_disabled":false,"rental_uris":{"android":"levelo://app?vid=731e238e-bfad-467f-9314-1f052bbdff32","ios":"levelo://app?vid=731e238e-bfad-467f-9314-1f052bbdff32"},"vehicle_type_id":"4","last_reported":1769821548,"current_range_meters":6800,"station_id":"ce4bh412rcd13ifvqdr0","pricing_plan_id":"cebpf4jnsgd1na2vs0mg"},{"bike_id":"eae001be-3b34-469f-b5f5-7615da95a4ed","system_id":"levelo_inurba_marseille","lat":43.2782,"lon":5.40721,"is_reserved":false,"is_disabled":false,"rental_uris":{"android":"levelo://app?vid=eae001be-3b34-469f-b5f5-7615da95a4ed","ios":"levelo://app?vid=eae001be-3b34-469f-b5f5-7615da95a4ed"},"vehicle_type_id":"4","last_reported":1769821548,"current_range_meters":6800,"station_id":"ce4bhnh2rcd13ifvqgtg","pricing_plan_id":"cebpf4jnsgd1na2vs0mg"},{"bike_id":"7c24d64e-9f53-4f19-8d01-cd838d6d3e9b","system_id":"levelo_inurba_marseille","lat":43.27979,"lon":5.38753,"is_reserved":false,"is_disabled":false,"rental_uris":{"android":"levelo://app?vid=7c24d64e-9f53-4f19-8d01-cd838d6d3e9b","ios":"levelo://app?vid=7c24d64e-9f53-4f19-8d01-cd838d6d3e9b"},"vehicle_type_id":"4","last_reported":1769821548,"current_range_meters":6800,"station_id":"ce4bhg12rcd13ifvqf80","pricing_plan_id":"cebpf4jnsgd1na2vs0mg"},{"bike_id":"1e768992-55e7-4d55-8893-f866fd6efb43","system_id":"levelo_inurba_marseille","lat":43.26566,"lon":5.40326,"is_reserved":false,"is_disabled":false,"rental_uris":{"android":"levelo://app?vid=1e768992-55e7-4d55-8893-f866fd6efb43","ios":"levelo://app?vid=1e768992-55e7-4d55-8893-f866fd6efb43"},"vehicle_type_id":"4","last_reported":1769821548,"current_range_meters":6800,"station_id":"ce4bhmp2rcd13ifvqgng","pricing_plan_id":"cebpf4jnsgd1na2vs0mg"},{"bike_id":"cfe73c76-3bff-481c-a5ea-9a7beba7d096","system_id":"levelo_inurba_marseille","lat":43.29754,"lon":5.42779,"is_reserved":false,"is_disabled":false,"rental_uris":{"android":"levelo://app?vid=cfe73c76-3bff-481c-a5ea-9a7beba7d096","ios":"levelo://app?vid=cfe73c76-3bff-481c-a5ea-9a7beba7d096"},"vehicle_type_id":"4","last_reported":1769821548,"current_range_meters":6800,"station_id":"st_d3md5207bmas73dh9klg","pricing_plan_id":"cebpf4jnsgd1na2vs0mg"},{"bike_id":"211e9f25-2d90-4b9b-a855-3b41a0e91060","system_id":"levelo_inurba_marseille","lat":43.27877,"lon":5.38016,"is_reserved":false,"is_disabled":false,"rental_uris":{"android":"levelo://app?vid=211e9f25-2d90-4b9b-a855-3b41a0e91060","ios":"levelo://app?vid=211e9f25-2d90-4b9b-a855-3b41a0e91060"},"vehicle_type_id":"4","last_reported":1769821548,"current_range_meters":6800,"station_id":"ce4bhf92rcd13ifvqf50","pricing_plan_id":"cebpf4jnsgd1na2vs0mg"},{"bike_id":"7d492896-b942-43c9-8df6-ea8f5a471d0d","system_id":"levelo_inurba_marseille","lat":43.29612,"lon":5.37739,"is_reserved":false,"is_disabled":false,"rental_uris":{"android":"levelo://app?vid=7d492896-b942-43c9-8df6-ea8f5a471d0d","ios":"levelo://app?vid=7d492896-b942-43c9-8df6-ea8f5a471d0d"},"vehicle_type_id":"4","last_reported":1769821548,"current_range_meters":6800,"station_id":"ce4bgi92rcd13ifvqb90","pricing_plan_id":"cebpf4jnsgd1na2vs0mg"},{"bike_id":"6f80a0c7-e6da-4e3f-a33d-84508ae903bc","system_id":"levelo_inurba_marseille","lat":43.2462,"lon":5.43154,"is_reserved":false,"is_disabled":false,"rental_uris":{"android":"levelo://app?vid=6f80a0c7-e6da-4e3f-a33d-84508ae903bc","ios":"levelo://app?vid=6f80a0c7-e6da-4e3f-a33d-84508ae903bc"},"vehicle_type_id":"4","last_reported":1769821548,"current_range_meters":6800,"station_id":"st_d2m6c4gdas8pm72e190g","pricing_plan_id":"cebpf4jnsgd1na2vs0mg"},{"bike_id":"b1e78ffd-83b0-42c8-9fec-477ac6fbc93c","system_id":"levelo_inurba_marseille","lat":43.29493,"lon":5.43298,"is_reserved":false,"is_disabled":false,"rental_uris":{"android":"levelo://app?vid=b1e78ffd-83b0-42c8-9fec-477ac6fbc93c","ios":"levelo://app?vid=b1e78ffd-83b0-42c8-9fec-477ac6fbc93c"},"vehicle_type_id":"4","last_reported":1769821548,"current_range_meters":6800,"station_id":"st_d3j5ugp08ojc73fj9d10","pricing_plan_id":"cebpf4jnsgd1na2vs0mg"},{"bike_id":"b59e63b6-c173-40af-adaa-df4f5d3ec593","system_id":"levelo_inurba_marseille","lat":43.28483,"lon":5.38421,"is_reserved":false,"is_disabled":false,"rental_uris":{"android":"levelo://app?vid=b59e63b6-c173-40af-adaa-df4f5d3ec593","ios":"levelo://app?vid=b59e63b6-c173-40af-adaa-df4f5d3ec593"},"vehicle_type_id":"4","last_reported":1769821548,"current_range_meters":6800,"station_id":"ce4bh512rcd13ifvqe3g","pricing_plan_id":"cebpf4jnsgd1na2vs0mg"},{"bike_id":"c3ffe16b-ef4f-438b-84a5-6957d02ea638","system_id":"levelo_inurba_marseille","lat":43.25514,"lon":5.37648,"is_reserved":false,"is_disabled":false,"rental_uris":{"android":"levelo://app?vid=c3ffe16b-ef4f-438b-84a5-6957d02ea638","ios":"levelo://app?vid=c3ffe16b-ef4f-438b-84a5-6957d02ea638"},"vehicle_type_id":"4","last_reported":1769821548,"current_range_meters":6800,"station_id":"ce4bhh12rcd13ifvqff0","pricing_plan_id":"cebpf4jnsgd1na2vs0mg"},{"bike_id":"77edc80f-6c7c-4f24-93a5-13373281d52f","system_id":"levelo_inurba_marseille","lat":43.27803,"lon":5.40704,"is_reserved":false,"is_disabled":false,"rental_uris":{"android":"levelo://app?vid=77edc80f-6c7c-4f24-93a5-13373281d52f","ios":"levelo://app?vid=77edc80f-6c7c-4f24-93a5-13373281d52f"},"vehicle_type_id":"4","last_reported":1769821548,"current_range_meters":6800,"station_id":"ce4bhnh2rcd13ifvqgtg","pricing_plan_id":"cebpf4jnsgd1na2vs0mg"},{"bike_id":"f86b395c-f97a-4792-a517-fbf066695753","system_id":"levelo_inurba_marseille","lat":43.23202,"lon":5.35548,"is_reserved":false,"is_disabled":false,"rental_uris":{"android":"levelo://app?vid=f86b395c-f97a-4792-a517-fbf066695753","ios":"levelo://app?vid=f86b395c-f97a-4792-a517-fbf066695753"},"vehicle_type_id":"4","last_reported":1769821548,"current_range_meters":6800,"station_id":"ce4bhu92rcd13ifvqi70","pricing_plan_id":"cebpf4jnsgd1na2vs0mg"},{"bike_id":"94842764-1da0-47c3-981d-a8a494b1c082","system_id":"levelo_inurba_marseille","lat":43.246496,"lon":5.388893,"is_reserved":false,"is_disabled":false,"rental_uris":{"android":"levelo://app?vid=94842764-1da0-47c3-981d-a8a494b1c082","ios":"levelo://app?vid=94842764-1da0-47c3-981d-a8a494b1c082"},"vehicle_type_id":"4","last_reported":1769821548,"current_range_meters":6800,"station_id":"ce4bhg12rcd13ifvqf60","pricing_plan_id":"cebpf4jnsgd1na2vs0mg"},{"bike_id":"c185cf38-df1b-4bb4-86d7-b251a2422e4d","system_id":"levelo_inurba_marseille","lat":43.32099,"lon":5.36771,"is_reserved":false,"is_disabled":false,"rental_uris":{"android":"levelo://app?vid=c185cf38-df1b-4bb4-86d7-b251a2422e4d","ios":"levelo://app?vid=c185cf38-df1b-4bb4-86d7-b251a2422e4d"},"vehicle_type_id":"4","last_reported":1769821548,"current_range_meters":6800,"station_id":"ce4bhrh2rcd13ifvqhug","pricing_plan_id":"cebpf4jnsgd1na2vs0mg"},{"bike_id":"a034a880-ac04-4c48-a941-5ec9e14fb0d1","system_id":"levelo_inurba_marseille","lat":43.28614,"lon":5.37081,"is_reserved":false,"is_disabled":false,"rental_uris":{"android":"levelo://app?vid=a034a880-ac04-4c48-a941-5ec9e14fb0d1","ios":"levelo://app?vid=a034a880-ac04-4c48-a941-5ec9e14fb0d1"},"vehicle_type_id":"4","last_reported":1769821548,"current_range_meters":6800,"station_id":"ce4bht12rcd13ifvqi60","pricing_plan_id":"cebpf4jnsgd1na2vs0mg"},{"bike_id":"9593aa81-6e4a-4f55-a647-c50b268fadcb","system_id":"levelo_inurba_marseille","lat":43.312788,"lon":5.401664,"is_reserved":false,"is_disabled":false,"rental_uris":{"android":"levelo://app?vid=9593aa81-6e4a-4f55-a647-c50b268fadcb","ios":"levelo://app?vid=9593aa81-6e4a-4f55-a647-c50b268fadcb"},"vehicle_type_id":"4","last_reported":1769821548,"current_range_meters":6800,"station_id":"ce4bh092rcd13ifvqd30","pricing_plan_id":"cebpf4jnsgd1na2vs0mg"},{"bike_id":"65b759d9-e66a-4cc0-915d-2e8ad0441e0c","system_id":"levelo_inurba_marseille","lat":43.31151,"lon":5.38661,"is_reserved":false,"is_disabled":false,"rental_uris":{"android":"levelo://app?vid=65b759d9-e66a-4cc0-915d-2e8ad0441e0c","ios":"levelo://app?vid=65b759d9-e66a-4cc0-915d-2e8ad0441e0c"},"vehicle_type_id":"4","last_reported":1769821548,"current_range_meters":6800,"station_id":"","pricing_plan_id":"cebpf4jnsgd1na2vs0mg"},{"bike_id":"65c2d018-5db4-4b71-9059-ee26b3f148d1","system_id":"levelo_inurba_marseille","lat":43.24173,"lon":5.39723,"is_reserved":false,"is_disabled":false,"rental_uris":{"android":"levelo://app?vid=65c2d018-5db4-4b71-9059-ee26b3f148d1","ios":"levelo://app?vid=65c2d018-5db4-4b71-9059-ee26b3f148d1"},"vehicle_type_id":"4","last_reported":1769821548,"current_range_meters":6800,"station_id":"ce4bhn12rcd13ifvqgpg","pricing_plan_id":"cebpf4jnsgd1na2vs0mg"},{"bike_id":"1e6e9fcd-377f-4a83-a467-d5b81de873c8","system_id":"levelo_inurba_marseille","lat":43.28211,"lon":5.39024,"is_reserved":false,"is_disabled":false,"rental_uris":{"android":"levelo://app?vid=1e6e9fcd-377f-4a83-a467-d5b81de873c8","ios":"levelo://app?vid=1e6e9fcd-377f-4a83-a467-d5b81de873c8"},"vehicle_type_id":"4","last_reported":1769821548,"current_range_meters":7200,"station_id":"","pricing_plan_id":"cebpf4jnsgd1na2vs0mg"},{"bike_id":"05e71853-bab5-4dbf-82be-620f20757a40","system_id":"levelo_inurba_marseille","lat":43.29189,"lon":5.37141,"is_reserved":false,"is_disabled":false,"rental_uris":{"android":"levelo://app?vid=05e71853-bab5-4dbf-82be-620f20757a40","ios":"levelo://app?vid=05e71853-bab5-4dbf-82be-620f20757a40"},"vehicle_type_id":"4","last_reported":1769821548,"current_range_meters":7200,"station_id":"ce4bha92rcd13ifvqeh0","pricing_plan_id":"cebpf4jnsgd1na2vs0mg"},{"bike_id":"67dde3a5-6719-400f-9754-ba07b063d126","system_id":"levelo_inurba_marseille","lat":43.22558,"lon":5.41652,"is_reserved":false,"is_disabled":false,"rental_uris":{"android":"levelo://app?vid=67dde3a5-6719-400f-9754-ba07b063d126","ios":"levelo://app?vid=67dde3a5-6719-400f-9754-ba07b063d126"},"vehicle_type_id":"4","last_reported":1769821548,"current_range_meters":7200,"station_id":"st_d2o4gvlbi1j2169b742g","pricing_plan_id":"cebpf4jnsgd1na2vs0mg"},{"bike_id":"c2029e8e-62e9-40bd-90c8-2d85b607b409","system_id":"levelo_inurba_marseille","lat":43.29766,"lon":5.4278,"is_reserved":false,"is_disabled":false,"rental_uris":{"android":"levelo://app?vid=c2029e8e-62e9-40bd-90c8-2d85b607b409","ios":"levelo://app?vid=c2029e8e-62e9-40bd-90c8-2d85b607b409"},"vehicle_type_id":"4","last_reported":1769821548,"current_range_meters":7200,"station_id":"st_d3md5207bmas73dh9klg","pricing_plan_id":"cebpf4jnsgd1na2vs0mg"},{"bike_id":"7212c134-0bb1-4307-8053-dc66b6b70a1e","system_id":"levelo_inurba_marseille","lat":43.29779,"lon":5.42812,"is_reserved":false,"is_disabled":false,"rental_uris":{"android":"levelo://app?vid=7212c134-0bb1-4307-8053-dc66b6b70a1e","ios":"levelo://app?vid=7212c134-0bb1-4307-8053-dc66b6b70a1e"},"vehicle_type_id":"4","last_reported":1769821548,"current_range_meters":7200,"station_id":"st_d3md5207bmas73dh9klg","pricing_plan_id":"cebpf4jnsgd1na2vs0mg"},{"bike_id":"ac8aedf1-57cc-433c-802a-9a818a6c3a5b","system_id":"levelo_inurba_marseille","lat":43.3,"lon":5.37162,"is_reserved":false,"is_disabled":false,"rental_uris":{"android":"levelo://app?vid=ac8aedf1-57cc-433c-802a-9a818a6c3a5b","ios":"levelo://app?vid=ac8aedf1-57cc-433c-802a-9a818a6c3a5b"},"vehicle_type_id":"4","last_reported":1769821548,"current_range_meters":7200,"station_id":"ce4bgr92rcd13ifvqc7g","pricing_plan_id":"cebpf4jnsgd1na2vs0mg"},{"bike_id":"d649bfea-6124-483e-8a11-d1a9d85a2f27","system_id":"levelo_inurba_marseille","lat":43.301388,"lon":5.398881,"is_reserved":false,"is_disabled":true,"rental_uris":{"android":"levelo://app?vid=d649bfea-6124-483e-8a11-d1a9d85a2f27","ios":"levelo://app?vid=d649bfea-6124-483e-8a11-d1a9d85a2f27"},"vehicle_type_id":"4","last_reported":1769821548,"current_range_meters":7200,"station_id":"ce4bh0h2rcd13ifvqd40","pricing_plan_id":"cebpf4jnsgd1na2vs0mg"},{"bike_id":"d6c0c260-1d77-47ce-9ca1-2efe8f514e43","system_id":"levelo_inurba_marseille","lat":43.28462,"lon":5.34964,"is_reserved":false,"is_disabled":false,"rental_uris":{"android":"levelo://app?vid=d6c0c260-1d77-47ce-9ca1-2efe8f514e43","ios":"levelo://app?vid=d6c0c260-1d77-47ce-9ca1-2efe8f514e43"},"vehicle_type_id":"4","last_reported":1769821548,"current_range_meters":7200,"station_id":"ce4bhbh2rcd13ifvqepg","pricing_plan_id":"cebpf4jnsgd1na2vs0mg"},{"bike_id":"da9f4472-0bb8-4458-affe-8b93192b64a6","system_id":"levelo_inurba_marseille","lat":43.23793,"lon":5.36626,"is_reserved":false,"is_disabled":false,"rental_uris":{"android":"levelo://app?vid=da9f4472-0bb8-4458-affe-8b93192b64a6","ios":"levelo://app?vid=da9f4472-0bb8-4458-affe-8b93192b64a6"},"vehicle_type_id":"4","last_reported":1769821548,"current_range_meters":7200,"station_id":"st_d3nk18o9ro0c73en2l3g","pricing_plan_id":"cebpf4jnsgd1na2vs0mg"},{"bike_id":"af1f7bfa-c836-49e1-9e75-196949442610","system_id":"levelo_inurba_marseille","lat":43.2885,"lon":5.35847,"is_reserved":false,"is_disabled":false,"rental_uris":{"android":"levelo://app?vid=af1f7bfa-c836-49e1-9e75-196949442610","ios":"levelo://app?vid=af1f7bfa-c836-49e1-9e75-196949442610"},"vehicle_type_id":"4","last_reported":1769821548,"current_range_meters":7200,"station_id":"ce4bhb12rcd13ifvqem0","pricing_plan_id":"cebpf4jnsgd1na2vs0mg"},{"bike_id":"674d0755-bda6-44bd-8dd4-47ceec1f93de","system_id":"levelo_inurba_marseille","lat":43.24464,"lon":5.42532,"is_reserved":false,"is_disabled":false,"rental_uris":{"android":"levelo://app?vid=674d0755-bda6-44bd-8dd4-47ceec1f93de","ios":"levelo://app?vid=674d0755-bda6-44bd-8dd4-47ceec1f93de"},"vehicle_type_id":"4","last_reported":1769821548,"current_range_meters":7200,"station_id":"st_d4a3vfp97mjs738cd8kg","pricing_plan_id":"cebpf4jnsgd1na2vs0mg"},{"bike_id":"3af329f7-af8b-4c1b-974b-21c90903f1d0","system_id":"levelo_inurba_marseille","lat":43.29782,"lon":5.39353,"is_reserved":false,"is_disabled":false,"rental_uris":{"android":"levelo://app?vid=3af329f7-af8b-4c1b-974b-21c90903f1d0","ios":"levelo://app?vid=3af329f7-af8b-4c1b-974b-21c90903f1d0"},"vehicle_type_id":"4","last_reported":1769821548,"current_range_meters":7200,"station_id":"chh1huq6cuj3fo74tm60","pricing_plan_id":"cebpf4jnsgd1na2vs0mg"},{"bike_id":"ae885a91-9582-4ed2-b116-fe30671331bd","system_id":"levelo_inurba_marseille","lat":43.23802,"lon":5.3661,"is_reserved":false,"is_disabled":false,"rental_uris":{"android":"levelo://app?vid=ae885a91-9582-4ed2-b116-fe30671331bd","ios":"levelo://app?vid=ae885a91-9582-4ed2-b116-fe30671331bd"},"vehicle_type_id":"4","last_reported":1769821548,"current_range_meters":7200,"station_id":"st_d3nk18o9ro0c73en2l3g","pricing_plan_id":"cebpf4jnsgd1na2vs0mg"},{"bike_id":"f8861002-c2d1-4382-86d1-5d946b173330","system_id":"levelo_inurba_marseille","lat":43.21744,"lon":5.34608,"is_reserved":false,"is_disabled":false,"rental_uris":{"android":"levelo://app?vid=f8861002-c2d1-4382-86d1-5d946b173330","ios":"levelo://app?vid=f8861002-c2d1-4382-86d1-5d946b173330"},"vehicle_type_id":"4","last_reported":1769821548,"current_range_meters":7200,"station_id":"","pricing_plan_id":"cebpf4jnsgd1na2vs0mg"},{"bike_id":"28642bd7-64ee-4fe0-bc68-48485fbd8b71","system_id":"levelo_inurba_marseille","lat":43.28476,"lon":5.38421,"is_reserved":false,"is_disabled":false,"rental_uris":{"android":"levelo://app?vid=28642bd7-64ee-4fe0-bc68-48485fbd8b71","ios":"levelo://app?vid=28642bd7-64ee-4fe0-bc68-48485fbd8b71"},"vehicle_type_id":"4","last_reported":1769821548,"current_range_meters":7200,"station_id":"ce4bh512rcd13ifvqe3g","pricing_plan_id":"cebpf4jnsgd1na2vs0mg"},{"bike_id":"facf5c8d-7adf-4b26-81c3-f2dd54937001","system_id":"levelo_inurba_marseille","lat":43.22535,"lon":5.3483,"is_reserved":false,"is_disabled":false,"rental_uris":{"android":"levelo://app?vid=facf5c8d-7adf-4b26-81c3-f2dd54937001","ios":"levelo://app?vid=facf5c8d-7adf-4b26-81c3-f2dd54937001"},"vehicle_type_id":"4","last_reported":1769821548,"current_range_meters":7200,"station_id":"","pricing_plan_id":"cebpf4jnsgd1na2vs0mg"},{"bike_id":"a17ae85f-a892-4214-8aaf-fd1b437c624b","system_id":"levelo_inurba_marseille","lat":43.30278,"lon":5.40049,"is_reserved":false,"is_disabled":false,"rental_uris":{"android":"levelo://app?vid=a17ae85f-a892-4214-8aaf-fd1b437c624b","ios":"levelo://app?vid=a17ae85f-a892-4214-8aaf-fd1b437c624b"},"vehicle_type_id":"4","last_reported":1769821548,"current_range_meters":7200,"station_id":"ce4bgvh2rcd13ifvqcs0","pricing_plan_id":"cebpf4jnsgd1na2vs0mg"},{"bike_id":"b96775b7-8954-4f94-990f-968813344c58","system_id":"levelo_inurba_marseille","lat":43.312744,"lon":5.377839,"is_reserved":false,"is_disabled":false,"rental_uris":{"android":"levelo://app?vid=b96775b7-8954-4f94-990f-968813344c58","ios":"levelo://app?vid=b96775b7-8954-4f94-990f-968813344c58"},"vehicle_type_id":"4","last_reported":1769821548,"current_range_meters":7200,"station_id":"","pricing_plan_id":"cebpf4jnsgd1na2vs0mg"},{"bike_id":"e7ae064a-9769-446b-8143-beca28f911e5","system_id":"levelo_inurba_marseille","lat":43.2895,"lon":5.396676,"is_reserved":false,"is_disabled":false,"rental_uris":{"android":"levelo://app?vid=e7ae064a-9769-446b-8143-beca28f911e5","ios":"levelo://app?vid=e7ae064a-9769-446b-8143-beca28f911e5"},"vehicle_type_id":"4","last_reported":1769821548,"current_range_meters":7200,"station_id":"ce4bh3h2rcd13ifvqdn0","pricing_plan_id":"cebpf4jnsgd1na2vs0mg"},{"bike_id":"f7ba70bd-983c-4ad6-a72c-36380a2ff19c","system_id":"levelo_inurba_marseille","lat":43.232,"lon":5.35549,"is_reserved":false,"is_disabled":false,"rental_uris":{"android":"levelo://app?vid=f7ba70bd-983c-4ad6-a72c-36380a2ff19c","ios":"levelo://app?vid=f7ba70bd-983c-4ad6-a72c-36380a2ff19c"},"vehicle_type_id":"4","last_reported":1769821548,"current_range_meters":7200,"station_id":"ce4bhu92rcd13ifvqi70","pricing_plan_id":"cebpf4jnsgd1na2vs0mg"},{"bike_id":"575f8c18-e321-478a-b387-c15e51db30e6","system_id":"levelo_inurba_marseille","lat":43.28204,"lon":5.42443,"is_reserved":false,"is_disabled":false,"rental_uris":{"android":"levelo://app?vid=575f8c18-e321-478a-b387-c15e51db30e6","ios":"levelo://app?vid=575f8c18-e321-478a-b387-c15e51db30e6"},"vehicle_type_id":"4","last_reported":1769821548,"current_range_meters":7200,"station_id":"","pricing_plan_id":"cebpf4jnsgd1na2vs0mg"},{"bike_id":"5538d53e-ee16-4d5f-8f40-c1bd931b369e","system_id":"levelo_inurba_marseille","lat":43.31189,"lon":5.38724,"is_reserved":false,"is_disabled":false,"rental_uris":{"android":"levelo://app?vid=5538d53e-ee16-4d5f-8f40-c1bd931b369e","ios":"levelo://app?vid=5538d53e-ee16-4d5f-8f40-c1bd931b369e"},"vehicle_type_id":"4","last_reported":1769821548,"current_range_meters":7200,"station_id":"ce4bgv12rcd13ifvqcp0","pricing_plan_id":"cebpf4jnsgd1na2vs0mg"},{"bike_id":"49629404-0a1d-477f-8a18-4cb068dccdea","system_id":"levelo_inurba_marseille","lat":43.30947,"lon":5.40139,"is_reserved":false,"is_disabled":false,"rental_uris":{"android":"levelo://app?vid=49629404-0a1d-477f-8a18-4cb068dccdea","ios":"levelo://app?vid=49629404-0a1d-477f-8a18-4cb068dccdea"},"vehicle_type_id":"4","last_reported":1769821548,"current_range_meters":7200,"station_id":"ce4bgvp2rcd13ifvqct0","pricing_plan_id":"cebpf4jnsgd1na2vs0mg"},{"bike_id":"b3dc3d82-fa45-4a46-ba0b-9044caceee7e","system_id":"levelo_inurba_marseille","lat":43.28003,"lon":5.36952,"is_reserved":false,"is_disabled":false,"rental_uris":{"android":"levelo://app?vid=b3dc3d82-fa45-4a46-ba0b-9044caceee7e","ios":"levelo://app?vid=b3dc3d82-fa45-4a46-ba0b-9044caceee7e"},"vehicle_type_id":"4","last_reported":1769821548,"current_range_meters":7200,"station_id":"ce4bha12rcd13ifvqef0","pricing_plan_id":"cebpf4jnsgd1na2vs0mg"},{"bike_id":"169e268b-5fcc-439a-85a8-5d0f835d65db","system_id":"levelo_inurba_marseille","lat":43.254912,"lon":5.37661,"is_reserved":false,"is_disabled":false,"rental_uris":{"android":"levelo://app?vid=169e268b-5fcc-439a-85a8-5d0f835d65db","ios":"levelo://app?vid=169e268b-5fcc-439a-85a8-5d0f835d65db"},"vehicle_type_id":"4","last_reported":1769821548,"current_range_meters":8000,"station_id":"ce4bhh12rcd13ifvqff0","pricing_plan_id":"cebpf4jnsgd1na2vs0mg"},{"bike_id":"f3d88390-51ff-4369-8a96-fce3337519db","system_id":"levelo_inurba_marseille","lat":43.30939,"lon":5.40165,"is_reserved":false,"is_disabled":false,"rental_uris":{"android":"levelo://app?vid=f3d88390-51ff-4369-8a96-fce3337519db","ios":"levelo://app?vid=f3d88390-51ff-4369-8a96-fce3337519db"},"vehicle_type_id":"4","last_reported":1769821548,"current_range_meters":8000,"station_id":"ce4bgvp2rcd13ifvqct0","pricing_plan_id":"cebpf4jnsgd1na2vs0mg"},{"bike_id":"b8538ea1-5c66-4a72-881d-32abab5c79f9","system_id":"levelo_inurba_marseille","lat":43.24198,"lon":5.39756,"is_reserved":false,"is_disabled":false,"rental_uris":{"android":"levelo://app?vid=b8538ea1-5c66-4a72-881d-32abab5c79f9","ios":"levelo://app?vid=b8538ea1-5c66-4a72-881d-32abab5c79f9"},"vehicle_type_id":"4","last_reported":1769821548,"current_range_meters":8000,"station_id":"ce4bhn12rcd13ifvqgpg","pricing_plan_id":"cebpf4jnsgd1na2vs0mg"},{"bike_id":"166b14a7-4771-455e-bb68-1919795c7fd3","system_id":"levelo_inurba_marseille","lat":43.31178,"lon":5.38721,"is_reserved":false,"is_disabled":false,"rental_uris":{"android":"levelo://app?vid=166b14a7-4771-455e-bb68-1919795c7fd3","ios":"levelo://app?vid=166b14a7-4771-455e-bb68-1919795c7fd3"},"vehicle_type_id":"4","last_reported":1769821548,"current_range_meters":8000,"station_id":"ce4bgv12rcd13ifvqcp0","pricing_plan_id":"cebpf4jnsgd1na2vs0mg"},{"bike_id":"c8c681eb-4c6a-47cc-904c-fc0eb28ae1e6","system_id":"levelo_inurba_marseille","lat":43.29783,"lon":5.39331,"is_reserved":false,"is_disabled":false,"rental_uris":{"android":"levelo://app?vid=c8c681eb-4c6a-47cc-904c-fc0eb28ae1e6","ios":"levelo://app?vid=c8c681eb-4c6a-47cc-904c-fc0eb28ae1e6"},"vehicle_type_id":"4","last_reported":1769821548,"current_range_meters":8000,"station_id":"chh1huq6cuj3fo74tm60","pricing_plan_id":"cebpf4jnsgd1na2vs0mg"},{"bike_id":"a633dcb8-69cc-416a-ac75-271c195c29ed","system_id":"levelo_inurba_marseille","lat":43.255102,"lon":5.376528,"is_reserved":false,"is_disabled":false,"rental_uris":{"android":"levelo://app?vid=a633dcb8-69cc-416a-ac75-271c195c29ed","ios":"levelo://app?vid=a633dcb8-69cc-416a-ac75-271c195c29ed"},"vehicle_type_id":"4","last_reported":1769821548,"current_range_meters":8000,"station_id":"ce4bhh12rcd13ifvqff0","pricing_plan_id":"cebpf4jnsgd1na2vs0mg"},{"bike_id":"ce458573-0cd4-4a49-84a5-cdc5e434b15b","system_id":"levelo_inurba_marseille","lat":43.28455,"lon":5.35891,"is_reserved":false,"is_disabled":false,"rental_uris":{"android":"levelo://app?vid=ce458573-0cd4-4a49-84a5-cdc5e434b15b","ios":"levelo://app?vid=ce458573-0cd4-4a49-84a5-cdc5e434b15b"},"vehicle_type_id":"4","last_reported":1769821548,"current_range_meters":8000,"station_id":"ce4bhah2rcd13ifvqei0","pricing_plan_id":"cebpf4jnsgd1na2vs0mg"},{"bike_id":"406beb51-d0cc-4321-9650-d3c19164caa2","system_id":"levelo_inurba_marseille","lat":43.301292,"lon":5.387858,"is_reserved":false,"is_disabled":true,"rental_uris":{"android":"levelo://app?vid=406beb51-d0cc-4321-9650-d3c19164caa2","ios":"levelo://app?vid=406beb51-d0cc-4321-9650-d3c19164caa2"},"vehicle_type_id":"4","last_reported":1769821548,"current_range_meters":8000,"station_id":"ce4bghh2rcd13ifvqb60","pricing_plan_id":"cebpf4jnsgd1na2vs0mg"},{"bike_id":"0bb81fd5-a597-41a1-8e61-93eab6748311","system_id":"levelo_inurba_marseille","lat":43.27303,"lon":5.40704,"is_reserved":false,"is_disabled":false,"rental_uris":{"android":"levelo://app?vid=0bb81fd5-a597-41a1-8e61-93eab6748311","ios":"levelo://app?vid=0bb81fd5-a597-41a1-8e61-93eab6748311"},"vehicle_type_id":"4","last_reported":1769821548,"current_range_meters":8000,"station_id":"","pricing_plan_id":"cebpf4jnsgd1na2vs0mg"},{"bike_id":"eb04defa-9c2c-4a46-a4da-2174d6dcd3f8","system_id":"levelo_inurba_marseille","lat":43.28476,"lon":5.4839,"is_reserved":false,"is_disabled":false,"rental_uris":{"android":"levelo://app?vid=eb04defa-9c2c-4a46-a4da-2174d6dcd3f8","ios":"levelo://app?vid=eb04defa-9c2c-4a46-a4da-2174d6dcd3f8"},"vehicle_type_id":"4","last_reported":1769821548,"current_range_meters":8000,"station_id":"","pricing_plan_id":"cebpf4jnsgd1na2vs0mg"},{"bike_id":"74bebc7d-9331-45a4-ae4c-8e5bb0e765ab","system_id":"levelo_inurba_marseille","lat":43.30548,"lon":5.39969,"is_reserved":false,"is_disabled":false,"rental_uris":{"android":"levelo://app?vid=74bebc7d-9331-45a4-ae4c-8e5bb0e765ab","ios":"levelo://app?vid=74bebc7d-9331-45a4-ae4c-8e5bb0e765ab"},"vehicle_type_id":"4","last_reported":1769821548,"current_range_meters":8000,"station_id":"","pricing_plan_id":"cebpf4jnsgd1na2vs0mg"},{"bike_id":"101556fb-a035-4465-838d-af26e9bf47a4","system_id":"levelo_inurba_marseille","lat":43.28466,"lon":5.38421,"is_reserved":false,"is_disabled":false,"rental_uris":{"android":"levelo://app?vid=101556fb-a035-4465-838d-af26e9bf47a4","ios":"levelo://app?vid=101556fb-a035-4465-838d-af26e9bf47a4"},"vehicle_type_id":"4","last_reported":1769821548,"current_range_meters":8000,"station_id":"ce4bh512rcd13ifvqe3g","pricing_plan_id":"cebpf4jnsgd1na2vs0mg"},{"bike_id":"f708ccf3-f763-41ed-a115-2e0e4b41b717","system_id":"levelo_inurba_marseille","lat":43.28352,"lon":5.38105,"is_reserved":false,"is_disabled":false,"rental_uris":{"android":"levelo://app?vid=f708ccf3-f763-41ed-a115-2e0e4b41b717","ios":"levelo://app?vid=f708ccf3-f763-41ed-a115-2e0e4b41b717"},"vehicle_type_id":"4","last_reported":1769821548,"current_range_meters":8000,"station_id":"ce4bh412rcd13ifvqdr0","pricing_plan_id":"cebpf4jnsgd1na2vs0mg"},{"bike_id":"cc62b86c-c8ea-46fc-a809-28e8d6a9bed3","system_id":"levelo_inurba_marseille","lat":43.299428,"lon":5.365583,"is_reserved":false,"is_disabled":false,"rental_uris":{"android":"levelo://app?vid=cc62b86c-c8ea-46fc-a809-28e8d6a9bed3","ios":"levelo://app?vid=cc62b86c-c8ea-46fc-a809-28e8d6a9bed3"},"vehicle_type_id":"4","last_reported":1769821548,"current_range_meters":8000,"station_id":"ce4bgm92rcd13ifvqbr0","pricing_plan_id":"cebpf4jnsgd1na2vs0mg"},{"bike_id":"03f38bdc-71b1-4ff1-900c-7d1b7ef48fc4","system_id":"levelo_inurba_marseille","lat":43.30949,"lon":5.40149,"is_reserved":false,"is_disabled":false,"rental_uris":{"android":"levelo://app?vid=03f38bdc-71b1-4ff1-900c-7d1b7ef48fc4","ios":"levelo://app?vid=03f38bdc-71b1-4ff1-900c-7d1b7ef48fc4"},"vehicle_type_id":"4","last_reported":1769821548,"current_range_meters":8000,"station_id":"ce4bgvp2rcd13ifvqct0","pricing_plan_id":"cebpf4jnsgd1na2vs0mg"},{"bike_id":"786b3866-fceb-4656-a864-e739f5e6b692","system_id":"levelo_inurba_marseille","lat":43.2319,"lon":5.39986,"is_reserved":false,"is_disabled":false,"rental_uris":{"android":"levelo://app?vid=786b3866-fceb-4656-a864-e739f5e6b692","ios":"levelo://app?vid=786b3866-fceb-4656-a864-e739f5e6b692"},"vehicle_type_id":"4","last_reported":1769821548,"current_range_meters":8000,"station_id":"ce4bhn12rcd13ifvqgqg","pricing_plan_id":"cebpf4jnsgd1na2vs0mg"},{"bike_id":"559520e9-133c-4376-ad9e-58cdced5ca85","system_id":"levelo_inurba_marseille","lat":43.30874,"lon":5.39647,"is_reserved":false,"is_disabled":false,"rental_uris":{"android":"levelo://app?vid=559520e9-133c-4376-ad9e-58cdced5ca85","ios":"levelo://app?vid=559520e9-133c-4376-ad9e-58cdced5ca85"},"vehicle_type_id":"4","last_reported":1769821548,"current_range_meters":8000,"station_id":"ce4bh012rcd13ifvqcv0","pricing_plan_id":"cebpf4jnsgd1na2vs0mg"},{"bike_id":"b32a36ac-6d8c-4f94-8007-49ab8ab4f812","system_id":"levelo_inurba_marseille","lat":43.29895,"lon":5.43673,"is_reserved":false,"is_disabled":false,"rental_uris":{"android":"levelo://app?vid=b32a36ac-6d8c-4f94-8007-49ab8ab4f812","ios":"levelo://app?vid=b32a36ac-6d8c-4f94-8007-49ab8ab4f812"},"vehicle_type_id":"4","last_reported":1769821548,"current_range_meters":8000,"station_id":"ce4bhpp2rcd13ifvqhfg","pricing_plan_id":"cebpf4jnsgd1na2vs0mg"},{"bike_id":"9ff5b2cc-8dae-45c4-a400-86606cc4b544","system_id":"levelo_inurba_marseille","lat":43.26226,"lon":5.4044,"is_reserved":false,"is_disabled":false,"rental_uris":{"android":"levelo://app?vid=9ff5b2cc-8dae-45c4-a400-86606cc4b544","ios":"levelo://app?vid=9ff5b2cc-8dae-45c4-a400-86606cc4b544"},"vehicle_type_id":"4","last_reported":1769821548,"current_range_meters":8000,"station_id":"ce4bhmh2rcd13ifvqgmg","pricing_plan_id":"cebpf4jnsgd1na2vs0mg"},{"bike_id":"1b99c778-bb5d-42c4-9df9-477406df2883","system_id":"levelo_inurba_marseille","lat":43.23198,"lon":5.3556,"is_reserved":false,"is_disabled":false,"rental_uris":{"android":"levelo://app?vid=1b99c778-bb5d-42c4-9df9-477406df2883","ios":"levelo://app?vid=1b99c778-bb5d-42c4-9df9-477406df2883"},"vehicle_type_id":"4","last_reported":1769821548,"current_range_meters":8000,"station_id":"ce4bhu92rcd13ifvqi70","pricing_plan_id":"cebpf4jnsgd1na2vs0mg"},{"bike_id":"d6c90de0-83fe-4d46-9c2c-30b9ada66f9c","system_id":"levelo_inurba_marseille","lat":43.30959,"lon":5.39033,"is_reserved":false,"is_disabled":false,"rental_uris":{"android":"levelo://app?vid=d6c90de0-83fe-4d46-9c2c-30b9ada66f9c","ios":"levelo://app?vid=d6c90de0-83fe-4d46-9c2c-30b9ada66f9c"},"vehicle_type_id":"4","last_reported":1769821548,"current_range_meters":8000,"station_id":"ce4bgup2rcd13ifvqco0","pricing_plan_id":"cebpf4jnsgd1na2vs0mg"},{"bike_id":"2118e989-9bd5-4208-aef3-62860e5c21cf","system_id":"levelo_inurba_marseille","lat":43.29753,"lon":5.37667,"is_reserved":false,"is_disabled":false,"rental_uris":{"android":"levelo://app?vid=2118e989-9bd5-4208-aef3-62860e5c21cf","ios":"levelo://app?vid=2118e989-9bd5-4208-aef3-62860e5c21cf"},"vehicle_type_id":"4","last_reported":1769821548,"current_range_meters":8000,"station_id":"","pricing_plan_id":"cebpf4jnsgd1na2vs0mg"},{"bike_id":"0c64f01b-e867-4b27-be2c-1c9d836477bc","system_id":"levelo_inurba_marseille","lat":43.29048,"lon":5.377291,"is_reserved":false,"is_disabled":false,"rental_uris":{"android":"levelo://app?vid=0c64f01b-e867-4b27-be2c-1c9d836477bc","ios":"levelo://app?vid=0c64f01b-e867-4b27-be2c-1c9d836477bc"},"vehicle_type_id":"4","last_reported":1769821548,"current_range_meters":8000,"station_id":"","pricing_plan_id":"cebpf4jnsgd1na2vs0mg"},{"bike_id":"d0f0a797-6459-4f9d-ad91-61257735c0b0","system_id":"levelo_inurba_marseille","lat":43.28393,"lon":5.37532,"is_reserved":false,"is_disabled":false,"rental_uris":{"android":"levelo://app?vid=d0f0a797-6459-4f9d-ad91-61257735c0b0","ios":"levelo://app?vid=d0f0a797-6459-4f9d-ad91-61257735c0b0"},"vehicle_type_id":"4","last_reported":1769821548,"current_range_meters":8400,"station_id":"ce4bh412rcd13ifvqds0","pricing_plan_id":"cebpf4jnsgd1na2vs0mg"},{"bike_id":"b6bb507a-35ba-4aad-bf8d-d9ba28e136e6","system_id":"levelo_inurba_marseille","lat":43.28268,"lon":5.3508,"is_reserved":false,"is_disabled":false,"rental_uris":{"android":"levelo://app?vid=b6bb507a-35ba-4aad-bf8d-d9ba28e136e6","ios":"levelo://app?vid=b6bb507a-35ba-4aad-bf8d-d9ba28e136e6"},"vehicle_type_id":"4","last_reported":1769821548,"current_range_meters":8400,"station_id":"ce4bhbp2rcd13ifvqerg","pricing_plan_id":"cebpf4jnsgd1na2vs0mg"},{"bike_id":"229cd516-4771-4c0d-9ea8-2b95e2d4e103","system_id":"levelo_inurba_marseille","lat":43.28697,"lon":5.37403,"is_reserved":false,"is_disabled":false,"rental_uris":{"android":"levelo://app?vid=229cd516-4771-4c0d-9ea8-2b95e2d4e103","ios":"levelo://app?vid=229cd516-4771-4c0d-9ea8-2b95e2d4e103"},"vehicle_type_id":"4","last_reported":1769821548,"current_range_meters":8400,"station_id":"ce4bh3p2rcd13ifvqdq0","pricing_plan_id":"cebpf4jnsgd1na2vs0mg"},{"bike_id":"a13948c6-3e22-4473-9bb0-e1d84c74e2ea","system_id":"levelo_inurba_marseille","lat":43.28033,"lon":5.36952,"is_reserved":false,"is_disabled":false,"rental_uris":{"android":"levelo://app?vid=a13948c6-3e22-4473-9bb0-e1d84c74e2ea","ios":"levelo://app?vid=a13948c6-3e22-4473-9bb0-e1d84c74e2ea"},"vehicle_type_id":"4","last_reported":1769821548,"current_range_meters":8400,"station_id":"ce4bha12rcd13ifvqef0","pricing_plan_id":"cebpf4jnsgd1na2vs0mg"},{"bike_id":"e0529776-2176-417f-8dfc-c2549a882463","system_id":"levelo_inurba_marseille","lat":43.28116,"lon":5.3785,"is_reserved":false,"is_disabled":false,"rental_uris":{"android":"levelo://app?vid=e0529776-2176-417f-8dfc-c2549a882463","ios":"levelo://app?vid=e0529776-2176-417f-8dfc-c2549a882463"},"vehicle_type_id":"4","last_reported":1769821548,"current_range_meters":8400,"station_id":"ce4bha12rcd13ifvqee0","pricing_plan_id":"cebpf4jnsgd1na2vs0mg"},{"bike_id":"9e0b911b-4c37-45ab-9806-704469564832","system_id":"levelo_inurba_marseille","lat":43.31237,"lon":5.36859,"is_reserved":false,"is_disabled":false,"rental_uris":{"android":"levelo://app?vid=9e0b911b-4c37-45ab-9806-704469564832","ios":"levelo://app?vid=9e0b911b-4c37-45ab-9806-704469564832"},"vehicle_type_id":"4","last_reported":1769821548,"current_range_meters":8400,"station_id":"ce4bgl92rcd13ifvqbq0","pricing_plan_id":"cebpf4jnsgd1na2vs0mg"},{"bike_id":"4ac1a6b7-1a00-4a1d-8a3d-33e247fff326","system_id":"levelo_inurba_marseille","lat":43.28968,"lon":5.39054,"is_reserved":false,"is_disabled":false,"rental_uris":{"android":"levelo://app?vid=4ac1a6b7-1a00-4a1d-8a3d-33e247fff326","ios":"levelo://app?vid=4ac1a6b7-1a00-4a1d-8a3d-33e247fff326"},"vehicle_type_id":"4","last_reported":1769821548,"current_range_meters":8400,"station_id":"","pricing_plan_id":"cebpf4jnsgd1na2vs0mg"},{"bike_id":"704dd462-0d28-4755-95c2-6ab4b81664bb","system_id":"levelo_inurba_marseille","lat":43.23111,"lon":5.43726,"is_reserved":false,"is_disabled":false,"rental_uris":{"android":"levelo://app?vid=704dd462-0d28-4755-95c2-6ab4b81664bb","ios":"levelo://app?vid=704dd462-0d28-4755-95c2-6ab4b81664bb"},"vehicle_type_id":"4","last_reported":1769821548,"current_range_meters":8400,"station_id":"ce4bhmp2rcd13ifvqgog","pricing_plan_id":"cebpf4jnsgd1na2vs0mg"},{"bike_id":"51487434-2c5b-44ec-b6f1-b2d802fd5baf","system_id":"levelo_inurba_marseille","lat":43.29586,"lon":5.36742,"is_reserved":false,"is_disabled":true,"rental_uris":{"android":"levelo://app?vid=51487434-2c5b-44ec-b6f1-b2d802fd5baf","ios":"levelo://app?vid=51487434-2c5b-44ec-b6f1-b2d802fd5baf"},"vehicle_type_id":"4","last_reported":1769821548,"current_range_meters":8400,"station_id":"ce4bgph2rcd13ifvqc2g","pricing_plan_id":"cebpf4jnsgd1na2vs0mg"},{"bike_id":"f47b5364-d86e-414e-a4d7-612bcf40da53","system_id":"levelo_inurba_marseille","lat":43.24165,"lon":5.36395,"is_reserved":false,"is_disabled":false,"rental_uris":{"android":"levelo://app?vid=f47b5364-d86e-414e-a4d7-612bcf40da53","ios":"levelo://app?vid=f47b5364-d86e-414e-a4d7-612bcf40da53"},"vehicle_type_id":"4","last_reported":1769821548,"current_range_meters":8400,"station_id":"cpo36qri1sfpv3e86is0","pricing_plan_id":"cebpf4jnsgd1na2vs0mg"},{"bike_id":"69bd550d-bae4-47b4-8ea1-fdf2613d9cd6","system_id":"levelo_inurba_marseille","lat":43.23968,"lon":5.366282,"is_reserved":false,"is_disabled":false,"rental_uris":{"android":"levelo://app?vid=69bd550d-bae4-47b4-8ea1-fdf2613d9cd6","ios":"levelo://app?vid=69bd550d-bae4-47b4-8ea1-fdf2613d9cd6"},"vehicle_type_id":"4","last_reported":1769821548,"current_range_meters":8400,"station_id":"ce4bhi12rcd13ifvqfp0","pricing_plan_id":"cebpf4jnsgd1na2vs0mg"},{"bike_id":"2946e9db-ff58-4a52-8078-31c354acf915","system_id":"levelo_inurba_marseille","lat":43.24643,"lon":5.38139,"is_reserved":false,"is_disabled":false,"rental_uris":{"android":"levelo://app?vid=2946e9db-ff58-4a52-8078-31c354acf915","ios":"levelo://app?vid=2946e9db-ff58-4a52-8078-31c354acf915"},"vehicle_type_id":"4","last_reported":1769821548,"current_range_meters":8400,"station_id":"ce4bhih2rcd13ifvqfr0","pricing_plan_id":"cebpf4jnsgd1na2vs0mg"},{"bike_id":"22fe4412-48fb-42b7-a8c1-976a9c196d7e","system_id":"levelo_inurba_marseille","lat":43.26566,"lon":5.40311,"is_reserved":false,"is_disabled":false,"rental_uris":{"android":"levelo://app?vid=22fe4412-48fb-42b7-a8c1-976a9c196d7e","ios":"levelo://app?vid=22fe4412-48fb-42b7-a8c1-976a9c196d7e"},"vehicle_type_id":"4","last_reported":1769821548,"current_range_meters":8400,"station_id":"ce4bhmp2rcd13ifvqgng","pricing_plan_id":"cebpf4jnsgd1na2vs0mg"},{"bike_id":"da430813-1e4c-4d0a-b07d-976b86d0c6c6","system_id":"levelo_inurba_marseille","lat":43.2534,"lon":5.42159,"is_reserved":false,"is_disabled":false,"rental_uris":{"android":"levelo://app?vid=da430813-1e4c-4d0a-b07d-976b86d0c6c6","ios":"levelo://app?vid=da430813-1e4c-4d0a-b07d-976b86d0c6c6"},"vehicle_type_id":"4","last_reported":1769821548,"current_range_meters":8400,"station_id":"st_d2m65c5bi1j21697t3ng","pricing_plan_id":"cebpf4jnsgd1na2vs0mg"},{"bike_id":"f54d91cc-02fb-42c8-8e78-476b293d5e51","system_id":"levelo_inurba_marseille","lat":43.312756,"lon":5.401768,"is_reserved":false,"is_disabled":false,"rental_uris":{"android":"levelo://app?vid=f54d91cc-02fb-42c8-8e78-476b293d5e51","ios":"levelo://app?vid=f54d91cc-02fb-42c8-8e78-476b293d5e51"},"vehicle_type_id":"4","last_reported":1769821548,"current_range_meters":8400,"station_id":"ce4bh092rcd13ifvqd30","pricing_plan_id":"cebpf4jnsgd1na2vs0mg"},{"bike_id":"06ab6653-a10e-4b78-9608-979cb5bc0ba4","system_id":"levelo_inurba_marseille","lat":43.28684,"lon":5.3864,"is_reserved":false,"is_disabled":false,"rental_uris":{"android":"levelo://app?vid=06ab6653-a10e-4b78-9608-979cb5bc0ba4","ios":"levelo://app?vid=06ab6653-a10e-4b78-9608-979cb5bc0ba4"},"vehicle_type_id":"4","last_reported":1769821548,"current_range_meters":8400,"station_id":"ce4bh492rcd13ifvqdug","pricing_plan_id":"cebpf4jnsgd1na2vs0mg"},{"bike_id":"b98bcdfd-abd9-4de1-85fe-a3f97350d459","system_id":"levelo_inurba_marseille","lat":43.31719,"lon":5.42405,"is_reserved":false,"is_disabled":false,"rental_uris":{"android":"levelo://app?vid=b98bcdfd-abd9-4de1-85fe-a3f97350d459","ios":"levelo://app?vid=b98bcdfd-abd9-4de1-85fe-a3f97350d459"},"vehicle_type_id":"4","last_reported":1769821548,"current_range_meters":8400,"station_id":"ce4bhp92rcd13ifvqhbg","pricing_plan_id":"cebpf4jnsgd1na2vs0mg"},{"bike_id":"8a9c7b06-b55d-4ce1-a068-4598c629cff0","system_id":"levelo_inurba_marseille","lat":43.31306,"lon":5.39699,"is_reserved":false,"is_disabled":false,"rental_uris":{"android":"levelo://app?vid=8a9c7b06-b55d-4ce1-a068-4598c629cff0","ios":"levelo://app?vid=8a9c7b06-b55d-4ce1-a068-4598c629cff0"},"vehicle_type_id":"4","last_reported":1769821548,"current_range_meters":8400,"station_id":"ce4bgvp2rcd13ifvqcu0","pricing_plan_id":"cebpf4jnsgd1na2vs0mg"},{"bike_id":"4561b101-df9b-4a07-8c08-785ae7c91c29","system_id":"levelo_inurba_marseille","lat":43.30022,"lon":5.38392,"is_reserved":false,"is_disabled":false,"rental_uris":{"android":"levelo://app?vid=4561b101-df9b-4a07-8c08-785ae7c91c29","ios":"levelo://app?vid=4561b101-df9b-4a07-8c08-785ae7c91c29"},"vehicle_type_id":"4","last_reported":1769821548,"current_range_meters":8400,"station_id":"","pricing_plan_id":"cebpf4jnsgd1na2vs0mg"},{"bike_id":"542c4194-0cbb-46a2-81b1-a944e64c63f6","system_id":"levelo_inurba_marseille","lat":43.2717,"lon":5.41,"is_reserved":false,"is_disabled":false,"rental_uris":{"android":"levelo://app?vid=542c4194-0cbb-46a2-81b1-a944e64c63f6","ios":"levelo://app?vid=542c4194-0cbb-46a2-81b1-a944e64c63f6"},"vehicle_type_id":"4","last_reported":1769821548,"current_range_meters":8400,"station_id":"ce4bhl12rcd13ifvqgf0","pricing_plan_id":"cebpf4jnsgd1na2vs0mg"},{"bike_id":"be92e349-0bab-40d5-943c-ba82a342fd05","system_id":"levelo_inurba_marseille","lat":43.31495,"lon":5.373,"is_reserved":false,"is_disabled":true,"rental_uris":{"android":"levelo://app?vid=be92e349-0bab-40d5-943c-ba82a342fd05","ios":"levelo://app?vid=be92e349-0bab-40d5-943c-ba82a342fd05"},"vehicle_type_id":"4","last_reported":1769821548,"current_range_meters":8400,"station_id":"ce4bgt12rcd13ifvqcd0","pricing_plan_id":"cebpf4jnsgd1na2vs0mg"},{"bike_id":"55ede0b4-a6d5-41ec-83b3-959d121ebde5","system_id":"levelo_inurba_marseille","lat":43.31716,"lon":5.43702,"is_reserved":false,"is_disabled":false,"rental_uris":{"android":"levelo://app?vid=55ede0b4-a6d5-41ec-83b3-959d121ebde5","ios":"levelo://app?vid=55ede0b4-a6d5-41ec-83b3-959d121ebde5"},"vehicle_type_id":"4","last_reported":1769821548,"current_range_meters":8400,"station_id":"","pricing_plan_id":"cebpf4jnsgd1na2vs0mg"},{"bike_id":"568cd96a-6ae9-42c6-9c16-92bc798e0556","system_id":"levelo_inurba_marseille","lat":43.28097,"lon":5.37842,"is_reserved":false,"is_disabled":false,"rental_uris":{"android":"levelo://app?vid=568cd96a-6ae9-42c6-9c16-92bc798e0556","ios":"levelo://app?vid=568cd96a-6ae9-42c6-9c16-92bc798e0556"},"vehicle_type_id":"4","last_reported":1769821548,"current_range_meters":8400,"station_id":"ce4bha12rcd13ifvqee0","pricing_plan_id":"cebpf4jnsgd1na2vs0mg"},{"bike_id":"ad5e7c8c-665e-4909-b63f-26ca99717869","system_id":"levelo_inurba_marseille","lat":43.28668,"lon":5.38673,"is_reserved":false,"is_disabled":false,"rental_uris":{"android":"levelo://app?vid=ad5e7c8c-665e-4909-b63f-26ca99717869","ios":"levelo://app?vid=ad5e7c8c-665e-4909-b63f-26ca99717869"},"vehicle_type_id":"4","last_reported":1769821548,"current_range_meters":8800,"station_id":"ce4bh492rcd13ifvqdug","pricing_plan_id":"cebpf4jnsgd1na2vs0mg"},{"bike_id":"f99c0e56-a861-4817-a5cc-7aa9138a394f","system_id":"levelo_inurba_marseille","lat":43.270587,"lon":5.383104,"is_reserved":false,"is_disabled":false,"rental_uris":{"android":"levelo://app?vid=f99c0e56-a861-4817-a5cc-7aa9138a394f","ios":"levelo://app?vid=f99c0e56-a861-4817-a5cc-7aa9138a394f"},"vehicle_type_id":"4","last_reported":1769821548,"current_range_meters":8800,"station_id":"st_d3n2fo6cfp8s73cte1j0","pricing_plan_id":"cebpf4jnsgd1na2vs0mg"},{"bike_id":"48ee4c30-bfab-466c-97f4-c400e6761a90","system_id":"levelo_inurba_marseille","lat":43.31171,"lon":5.38708,"is_reserved":false,"is_disabled":false,"rental_uris":{"android":"levelo://app?vid=48ee4c30-bfab-466c-97f4-c400e6761a90","ios":"levelo://app?vid=48ee4c30-bfab-466c-97f4-c400e6761a90"},"vehicle_type_id":"4","last_reported":1769821548,"current_range_meters":8800,"station_id":"ce4bgv12rcd13ifvqcp0","pricing_plan_id":"cebpf4jnsgd1na2vs0mg"},{"bike_id":"55e12a44-5227-40a5-8cea-0722c92ca3fa","system_id":"levelo_inurba_marseille","lat":43.28603,"lon":5.35095,"is_reserved":false,"is_disabled":false,"rental_uris":{"android":"levelo://app?vid=55e12a44-5227-40a5-8cea-0722c92ca3fa","ios":"levelo://app?vid=55e12a44-5227-40a5-8cea-0722c92ca3fa"},"vehicle_type_id":"4","last_reported":1769821548,"current_range_meters":8800,"station_id":"ce4bhch2rcd13ifvqeug","pricing_plan_id":"cebpf4jnsgd1na2vs0mg"},{"bike_id":"9ea50bad-0329-4ce7-bb1b-0c14d81fc6e4","system_id":"levelo_inurba_marseille","lat":43.24626,"lon":5.43142,"is_reserved":false,"is_disabled":false,"rental_uris":{"android":"levelo://app?vid=9ea50bad-0329-4ce7-bb1b-0c14d81fc6e4","ios":"levelo://app?vid=9ea50bad-0329-4ce7-bb1b-0c14d81fc6e4"},"vehicle_type_id":"4","last_reported":1769821548,"current_range_meters":8800,"station_id":"st_d2m6c4gdas8pm72e190g","pricing_plan_id":"cebpf4jnsgd1na2vs0mg"},{"bike_id":"90717d58-a322-438b-926d-ee255aa382bf","system_id":"levelo_inurba_marseille","lat":43.23764,"lon":5.36584,"is_reserved":false,"is_disabled":false,"rental_uris":{"android":"levelo://app?vid=90717d58-a322-438b-926d-ee255aa382bf","ios":"levelo://app?vid=90717d58-a322-438b-926d-ee255aa382bf"},"vehicle_type_id":"4","last_reported":1769821548,"current_range_meters":8800,"station_id":"st_d3nk18o9ro0c73en2l3g","pricing_plan_id":"cebpf4jnsgd1na2vs0mg"},{"bike_id":"f2ded384-45dd-4744-b407-263b9f9ddda5","system_id":"levelo_inurba_marseille","lat":43.254917,"lon":5.376457,"is_reserved":false,"is_disabled":false,"rental_uris":{"android":"levelo://app?vid=f2ded384-45dd-4744-b407-263b9f9ddda5","ios":"levelo://app?vid=f2ded384-45dd-4744-b407-263b9f9ddda5"},"vehicle_type_id":"4","last_reported":1769821548,"current_range_meters":8800,"station_id":"","pricing_plan_id":"cebpf4jnsgd1na2vs0mg"},{"bike_id":"376de313-a176-455c-9327-1c0fa1c293d3","system_id":"levelo_inurba_marseille","lat":43.2962,"lon":5.38156,"is_reserved":false,"is_disabled":true,"rental_uris":{"android":"levelo://app?vid=376de313-a176-455c-9327-1c0fa1c293d3","ios":"levelo://app?vid=376de313-a176-455c-9327-1c0fa1c293d3"},"vehicle_type_id":"4","last_reported":1769821548,"current_range_meters":8800,"station_id":"ce4bgl12rcd13ifvqbo0","pricing_plan_id":"cebpf4jnsgd1na2vs0mg"},{"bike_id":"f955b312-f85f-4776-bb87-c1f9bceb8274","system_id":"levelo_inurba_marseille","lat":43.22552,"lon":5.41637,"is_reserved":false,"is_disabled":false,"rental_uris":{"android":"levelo://app?vid=f955b312-f85f-4776-bb87-c1f9bceb8274","ios":"levelo://app?vid=f955b312-f85f-4776-bb87-c1f9bceb8274"},"vehicle_type_id":"4","last_reported":1769821548,"current_range_meters":8800,"station_id":"st_d2o4gvlbi1j2169b742g","pricing_plan_id":"cebpf4jnsgd1na2vs0mg"},{"bike_id":"8d188f9d-fdcb-410f-afd4-c72876609968","system_id":"levelo_inurba_marseille","lat":43.24648,"lon":5.38883,"is_reserved":false,"is_disabled":false,"rental_uris":{"android":"levelo://app?vid=8d188f9d-fdcb-410f-afd4-c72876609968","ios":"levelo://app?vid=8d188f9d-fdcb-410f-afd4-c72876609968"},"vehicle_type_id":"4","last_reported":1769821548,"current_range_meters":8800,"station_id":"ce4bhg12rcd13ifvqf60","pricing_plan_id":"cebpf4jnsgd1na2vs0mg"},