{"last_updated":1769325249,"ttl":60,"version":"2.2","data":{"bikes":[{"bike_id":"905d22c3-c5bc-442e-8c6c-0e9eafd936ab","system_id":"levelo_inurba_marseille","lat":43.29906,"lon":5.3744,"is_reserved":false,"is_disabled":false,"rental_uris":{"android":"levelo://app?vid=905d22c3-c5bc-442e-8c6c-0e9eafd936ab","ios":"levelo://app?vid=905d22c3-c5bc-442e-8c6c-0e9eafd936ab"},"vehicle_type_id":"4","last_reported":1769325249,"current_range_meters":2800,"station_id":"ce4bgjh2rcd13ifvqbg0","pricing_plan_id":"cebpf4jnsgd1na2vs0mg"},{"bike_id":"ae71a52e-3d46-4289-a470-4e64eab9ff51","system_id":"levelo_inurba_marseille","lat":43.28524,"lon":5.440926,"is_reserved":false,"is_disabled":false,"rental_uris":{"android":"levelo://app?vid=ae71a52e-3d46-4289-a470-4e64eab9ff51","ios":"levelo://app?vid=ae71a52e-3d46-4289-a470-4e64eab9ff51"},"vehicle_type_id":"4","last_reported":1769325249,"current_range_meters":2800,"station_id":"st_d3j3df2ikq2c7380ej80","pricing_plan_id":"cebpf4jnsgd1na2vs0mg"},{"bike_id":"6252b5bc-7f21-4a5c-90b2-fb54de33b122","system_id":"levelo_inurba_marseille","lat":43.24387,"lon":5.3708,"is_reserved":false,"is_disabled":false,"rental_uris":{"android":"levelo://app?vid=6252b5bc-7f21-4a5c-90b2-fb54de33b122","ios":"levelo://app?vid=6252b5bc-7f21-4a5c-90b2-fb54de33b122"},"vehicle_type_id":"4","last_reported":1769325249,"current_range_meters":2800,"station_id":"ce4bhhh2rcd13ifvqfk0","pricing_plan_id":"cebpf4jnsgd1na2vs0mg"},{"bike_id":"1ee07084-a0a9-43af-bdb4-955f248e5678","system_id":"levelo_inurba_marseille","lat":43.28412,"lon":5.38707,"is_reserved":false,"is_disabled":false,"rental_uris":{"android":"levelo://app?vid=1ee07084-a0a9-43af-bdb4-955f248e5678","ios":"levelo://app?vid=1ee07084-a0a9-43af-bdb4-955f248e5678"},"vehicle_type_id":"4","last_reported":1769325249,"current_range_meters":2800,"station_id":"","pricing_plan_id":"cebpf4jnsgd1na2vs0mg"},{"bike_id":"9297f7e5-c509-4aa5-8a02-80ee973c4bfa","system_id":"levelo_inurba_marseille","lat":43.28314,"lon":5.39942,"is_reserved":false,"is_disabled":false,"rental_uris":{"android":"levelo://app?vid=9297f7e5-c509-4aa5-8a02-80ee973c4bfa","ios":"levelo://app?vid=9297f7e5-c509-4aa5-8a02-80ee973c4bfa"},"vehicle_type_id":"4","last_reported":1769325249,"current_range_meters":2800,"station_id":"","pricing_plan_id":"cebpf4jnsgd1na2vs0mg"},{"bike_id":"514778f3-cb3c-44e7-bfaa-f93fb491b5fc","system_id":"levelo_inurba_marseille","lat":43.24996,"lon":5.38902,"is_reserved":false,"is_disabled":false,"rental_uris":{"android":"levelo://app?vid=514778f3-cb3c-44e7-bfaa-f93fb491b5fc","ios":"levelo://app?vid=514778f3-cb3c-44e7-bfaa-f93fb491b5fc"},"vehicle_type_id":"4","last_reported":1769325249,"current_range_meters":2800,"station_id":"ce4bhgp2rcd13ifvqfd0","pricing_plan_id":"cebpf4jnsgd1na2vs0mg"},{"bike_id":"f9b330f3-188f-4241-b131-04d52afbc95a","system_id":"levelo_inurba_marseille","lat":43.31731,"lon":5.43703,"is_reserved":false,"is_disabled":false,"rental_uris":{"android":"levelo://app?vid=f9b330f3-188f-4241-b131-04d52afbc95a","ios":"levelo://app?vid=f9b330f3-188f-4241-b131-04d52afbc95a"},"vehicle_type_id":"4","last_reported":1769325249,"current_range_meters":2800,"station_id":"ce4bhp92rcd13ifvqhcg","pricing_plan_id":"cebpf4jnsgd1na2vs0mg"},{"bike_id":"8e10ca4a-d962-4318-8f21-9c292cae2aca","system_id":"levelo_inurba_marseille","lat":43.24171,"lon":5.36393,"is_reserved":false,"is_disabled":false,"rental_uris":{"android":"levelo://app?vid=8e10ca4a-d962-4318-8f21-9c292cae2aca","ios":"levelo://app?vid=8e10ca4a-d962-4318-8f21-9c292cae2aca"},"vehicle_type_id":"4","last_reported":1769325249,"current_range_meters":2800,"station_id":"cpo36qri1sfpv3e86is0","pricing_plan_id":"cebpf4jnsgd1na2vs0mg"},{"bike_id":"78d13ab9-0036-4701-8e23-1a9540ac1696","system_id":"levelo_inurba_marseille","lat":43.2956,"lon":5.40049,"is_reserved":false,"is_disabled":false,"rental_uris":{"android":"levelo://app?vid=78d13ab9-0036-4701-8e23-1a9540ac1696","ios":"levelo://app?vid=78d13ab9-0036-4701-8e23-1a9540ac1696"},"vehicle_type_id":"4","last_reported":1769325249,"current_range_meters":3200,"station_id":"","pricing_plan_id":"cebpf4jnsgd1na2vs0mg"},{"bike_id":"e4c4f5dd-c80d-4d75-801c-35c973416425","system_id":"levelo_inurba_marseille","lat":43.26548,"lon":5.37287,"is_reserved":false,"is_disabled":false,"rental_uris":{"android":"levelo://app?vid=e4c4f5dd-c80d-4d75-801c-35c973416425","ios":"levelo://app?vid=e4c4f5dd-c80d-4d75-801c-35c973416425"},"vehicle_type_id":"4","last_reported":1769325249,"current_range_meters":3200,"station_id":"ce4bhg12rcd13ifvqf70","pricing_plan_id":"cebpf4jnsgd1na2vs0mg"},{"bike_id":"0067e0af-5ba0-4b0d-a268-ed0ed9e19547","system_id":"levelo_inurba_marseille","lat":43.32332,"lon":5.36746,"is_reserved":false,"is_disabled":false,"rental_uris":{"android":"levelo://app?vid=0067e0af-5ba0-4b0d-a268-ed0ed9e19547","ios":"levelo://app?vid=0067e0af-5ba0-4b0d-a268-ed0ed9e19547"},"vehicle_type_id":"4","last_reported":1769325249,"current_range_meters":3200,"station_id":"ce4bhsh2rcd13ifvqi2g","pricing_plan_id":"cebpf4jnsgd1na2vs0mg"},{"bike_id":"b019e1a9-e9bb-4a00-b8fa-7bb78b5700ac","system_id":"levelo_inurba_marseille","lat":43.32332,"lon":5.36755,"is_reserved":false,"is_disabled":false,"rental_uris":{"android":"levelo://app?vid=b019e1a9-e9bb-4a00-b8fa-7bb78b5700ac","ios":"levelo://app?vid=b019e1a9-e9bb-4a00-b8fa-7bb78b5700ac"},"vehicle_type_id":"4","last_reported":1769325249,"current_range_meters":3200,"station_id":"ce4bhsh2rcd13ifvqi2g","pricing_plan_id":"cebpf4jnsgd1na2vs0mg"},{"bike_id":"10c585ec-0d69-49bc-a403-a71e7446105a","system_id":"levelo_inurba_marseille","lat":43.24972,"lon":5.39971,"is_reserved":false,"is_disabled":false,"rental_uris":{"android":"levelo://app?vid=10c585ec-0d69-49bc-a403-a71e7446105a","ios":"levelo://app?vid=10c585ec-0d69-49bc-a403-a71e7446105a"},"vehicle_type_id":"4","last_reported":1769325249,"current_range_meters":3200,"station_id":"","pricing_plan_id":"cebpf4jnsgd1na2vs0mg"},{"bike_id":"f95f1b41-c459-4716-90e0-3945d441d261","system_id":"levelo_inurba_marseille","lat":43.29707,"lon":5.36611,"is_reserved":false,"is_disabled":false,"rental_uris":{"android":"levelo://app?vid=f95f1b41-c459-4716-90e0-3945d441d261","ios":"levelo://app?vid=f95f1b41-c459-4716-90e0-3945d441d261"},"vehicle_type_id":"4","last_reported":1769325249,"current_range_meters":3200,"station_id":"ce4bgn12rcd13ifvqbt0","pricing_plan_id":"cebpf4jnsgd1na2vs0mg"},{"bike_id":"3dc327f4-e8d5-43a3-b4e6-944c33e6eea4","system_id":"levelo_inurba_marseille","lat":43.25584,"lon":5.38235,"is_reserved":false,"is_disabled":false,"rental_uris":{"android":"levelo://app?vid=3dc327f4-e8d5-43a3-b4e6-944c33e6eea4","ios":"levelo://app?vid=3dc327f4-e8d5-43a3-b4e6-944c33e6eea4"},"vehicle_type_id":"4","last_reported":1769325249,"current_range_meters":3200,"station_id":"ce4bhih2rcd13ifvqfs0","pricing_plan_id":"cebpf4jnsgd1na2vs0mg"},{"bike_id":"589eebb0-c0cf-4d19-afe3-eff9c648d5c0","system_id":"levelo_inurba_marseille","lat":43.2622,"lon":5.40451,"is_reserved":false,"is_disabled":false,"rental_uris":{"android":"levelo://app?vid=589eebb0-c0cf-4d19-afe3-eff9c648d5c0","ios":"levelo://app?vid=589eebb0-c0cf-4d19-afe3-eff9c648d5c0"},"vehicle_type_id":"4","last_reported":1769325249,"current_range_meters":3200,"station_id":"ce4bhmh2rcd13ifvqgmg","pricing_plan_id":"cebpf4jnsgd1na2vs0mg"},{"bike_id":"e1d27491-b72b-4ef0-a0bb-689c46d99a28","system_id":"levelo_inurba_marseille","lat":43.284827,"lon":5.483893,"is_reserved":false,"is_disabled":false,"rental_uris":{"android":"levelo://app?vid=e1d27491-b72b-4ef0-a0bb-689c46d99a28","ios":"levelo://app?vid=e1d27491-b72b-4ef0-a0bb-689c46d99a28"},"vehicle_type_id":"4","last_reported":1769325249,"current_range_meters":3200,"station_id":"","pricing_plan_id":"cebpf4jnsgd1na2vs0mg"},{"bike_id":"16525725-a4c4-4bd9-9925-eb9b950936aa","system_id":"levelo_inurba_marseille","lat":43.26926,"lon":5.39114,"is_reserved":false,"is_disabled":false,"rental_uris":{"android":"levelo://app?vid=16525725-a4c4-4bd9-9925-eb9b950936aa","ios":"levelo://app?vid=16525725-a4c4-4bd9-9925-eb9b950936aa"},"vehicle_type_id":"4","last_reported":1769325249,"current_range_meters":3200,"station_id":"","pricing_plan_id":"cebpf4jnsgd1na2vs0mg"},{"bike_id":"478d0946-d2b1-482f-ac5e-d37a7c92584b","system_id":"levelo_inurba_marseille","lat":43.22528,"lon":5.34834,"is_reserved":false,"is_disabled":false,"rental_uris":{"android":"levelo://app?vid=478d0946-d2b1-482f-ac5e-d37a7c92584b","ios":"levelo://app?vid=478d0946-d2b1-482f-ac5e-d37a7c92584b"},"vehicle_type_id":"4","last_reported":1769325249,"current_range_meters":3200,"station_id":"st_cvj5dfep6f1abm77gieg","pricing_plan_id":"cebpf4jnsgd1na2vs0mg"},{"bike_id":"5c44d9da-a9f7-4333-ab1c-8bd91f24f729","system_id":"levelo_inurba_marseille","lat":43.22567,"lon":5.41616,"is_reserved":false,"is_disabled":false,"rental_uris":{"android":"levelo://app?vid=5c44d9da-a9f7-4333-ab1c-8bd91f24f729","ios":"levelo://app?vid=5c44d9da-a9f7-4333-ab1c-8bd91f24f729"},"vehicle_type_id":"4","last_reported":1769325249,"current_range_meters":3200,"station_id":"st_d2o4gvlbi1j2169b742g","pricing_plan_id":"cebpf4jnsgd1na2vs0mg"},{"bike_id":"2925dd98-a61d-4832-85c4-5f2fb9cfdfdc","system_id":"levelo_inurba_marseille","lat":43.23957,"lon":5.36639,"is_reserved":false,"is_disabled":false,"rental_uris":{"android":"levelo://app?vid=2925dd98-a61d-4832-85c4-5f2fb9cfdfdc","ios":"levelo://app?vid=2925dd98-a61d-4832-85c4-5f2fb9cfdfdc"},"vehicle_type_id":"4","last_reported":1769325249,"current_range_meters":3200,"station_id":"ce4bhi12rcd13ifvqfp0","pricing_plan_id":"cebpf4jnsgd1na2vs0mg"},{"bike_id":"2e2ce66a-3f89-4c21-a9df-34056a5a5860","system_id":"levelo_inurba_marseille","lat":43.22562,"lon":5.41623,"is_reserved":false,"is_disabled":false,"rental_uris":{"android":"levelo://app?vid=2e2ce66a-3f89-4c21-a9df-34056a5a5860","ios":"levelo://app?vid=2e2ce66a-3f89-4c21-a9df-34056a5a5860"},"vehicle_type_id":"4","last_reported":1769325249,"current_range_meters":3200,"station_id":"st_d2o4gvlbi1j2169b742g","pricing_plan_id":"cebpf4jnsgd1na2vs0mg"},{"bike_id":"f50ab09b-5d0e-47a7-a8be-db0e252af394","system_id":"levelo_inurba_marseille","lat":43.2256,"lon":5.41625,"is_reserved":false,"is_disabled":false,"rental_uris":{"android":"levelo://app?vid=f50ab09b-5d0e-47a7-a8be-db0e252af394","ios":"levelo://app?vid=f50ab09b-5d0e-47a7-a8be-db0e252af394"},"vehicle_type_id":"4","last_reported":1769325249,"current_range_meters":3600,"station_id":"st_d2o4gvlbi1j2169b742g","pricing_plan_id":"cebpf4jnsgd1na2vs0mg"},{"bike_id":"1aff2028-b8ee-49b2-b0a1-7896a3df4ba0","system_id":"levelo_inurba_marseille","lat":43.31266,"lon":5.40184,"is_reserved":false,"is_disabled":false,"rental_uris":{"android":"levelo://app?vid=1aff2028-b8ee-49b2-b0a1-7896a3df4ba0","ios":"levelo://app?vid=1aff2028-b8ee-49b2-b0a1-7896a3df4ba0"},"vehicle_type_id":"4","last_reported":1769325249,"current_range_meters":3600,"station_id":"ce4bh092rcd13ifvqd30","pricing_plan_id":"cebpf4jnsgd1na2vs0mg"},{"bike_id":"4f5dd646-0864-4b30-b9a3-a8aa635f48db","system_id":"levelo_inurba_marseille","lat":43.2963,"lon":5.40597,"is_reserved":false,"is_disabled":false,"rental_uris":{"android":"levelo://app?vid=4f5dd646-0864-4b30-b9a3-a8aa635f48db","ios":"levelo://app?vid=4f5dd646-0864-4b30-b9a3-a8aa635f48db"},"vehicle_type_id":"4","last_reported":1769325249,"current_range_meters":3600,"station_id":"ce4bh0h2rcd13ifvqd60","pricing_plan_id":"cebpf4jnsgd1na2vs0mg"},{"bike_id":"424d688c-c8b8-4626-a702-361ed2d6a67f","system_id":"levelo_inurba_marseille","lat":43.29571,"lon":5.37648,"is_reserved":false,"is_disabled":false,"rental_uris":{"android":"levelo://app?vid=424d688c-c8b8-4626-a702-361ed2d6a67f","ios":"levelo://app?vid=424d688c-c8b8-4626-a702-361ed2d6a67f"},"vehicle_type_id":"4","last_reported":1769325249,"current_range_meters":3600,"station_id":"","pricing_plan_id":"cebpf4jnsgd1na2vs0mg"},{"bike_id":"7a1b6b69-5f61-4e11-91d3-12cf02858ca8","system_id":"levelo_inurba_marseille","lat":43.24412,"lon":5.37071,"is_reserved":false,"is_disabled":false,"rental_uris":{"android":"levelo://app?vid=7a1b6b69-5f61-4e11-91d3-12cf02858ca8","ios":"levelo://app?vid=7a1b6b69-5f61-4e11-91d3-12cf02858ca8"},"vehicle_type_id":"4","last_reported":1769325249,"current_range_meters":4000,"station_id":"ce4bhhh2rcd13ifvqfk0","pricing_plan_id":"cebpf4jnsgd1na2vs0mg"},{"bike_id":"26828e4f-466e-4f8d-96ed-03ada720221c","system_id":"levelo_inurba_marseille","lat":43.302496,"lon":5.400682,"is_reserved":false,"is_disabled":false,"rental_uris":{"android":"levelo://app?vid=26828e4f-466e-4f8d-96ed-03ada720221c","ios":"levelo://app?vid=26828e4f-466e-4f8d-96ed-03ada720221c"},"vehicle_type_id":"4","last_reported":1769325249,"current_range_meters":4000,"station_id":"ce4bgvh2rcd13ifvqcs0","pricing_plan_id":"cebpf4jnsgd1na2vs0mg"},{"bike_id":"7c7cc252-7f4f-4ac1-8175-44f20e46ac77","system_id":"levelo_inurba_marseille","lat":43.26737,"lon":5.40185,"is_reserved":false,"is_disabled":false,"rental_uris":{"android":"levelo://app?vid=7c7cc252-7f4f-4ac1-8175-44f20e46ac77","ios":"levelo://app?vid=7c7cc252-7f4f-4ac1-8175-44f20e46ac77"},"vehicle_type_id":"4","last_reported":1769325249,"current_range_meters":4000,"station_id":"","pricing_plan_id":"cebpf4jnsgd1na2vs0mg"},{"bike_id":"5b91b93d-b3ae-4751-8498-b1dabc506a1f","system_id":"levelo_inurba_marseille","lat":43.244732,"lon":5.425326,"is_reserved":false,"is_disabled":false,"rental_uris":{"android":"levelo://app?vid=5b91b93d-b3ae-4751-8498-b1dabc506a1f","ios":"levelo://app?vid=5b91b93d-b3ae-4751-8498-b1dabc506a1f"},"vehicle_type_id":"4","last_reported":1769325249,"current_range_meters":4000,"station_id":"st_d4a3vfp97mjs738cd8kg","pricing_plan_id":"cebpf4jnsgd1na2vs0mg"},{"bike_id":"9f3c3c2b-e4a8-4bfd-9222-bbcb11a650e6","system_id":"levelo_inurba_marseille","lat":43.30565,"lon":5.36516,"is_reserved":false,"is_disabled":false,"rental_uris":{"android":"levelo://app?vid=9f3c3c2b-e4a8-4bfd-9222-bbcb11a650e6","ios":"levelo://app?vid=9f3c3c2b-e4a8-4bfd-9222-bbcb11a650e6"},"vehicle_type_id":"4","last_reported":1769325249,"current_range_meters":4000,"station_id":"ce4bgs12rcd13ifvqcag","pricing_plan_id":"cebpf4jnsgd1na2vs0mg"},{"bike_id":"d2d53e0f-af2d-4a18-8781-8f93386bbf13","system_id":"levelo_inurba_marseille","lat":43.29541,"lon":5.37527,"is_reserved":false,"is_disabled":false,"rental_uris":{"android":"levelo://app?vid=d2d53e0f-af2d-4a18-8781-8f93386bbf13","ios":"levelo://app?vid=d2d53e0f-af2d-4a18-8781-8f93386bbf13"},"vehicle_type_id":"4","last_reported":1769325249,"current_range_meters":4000,"station_id":"ce4bgkp2rcd13ifvqbmg","pricing_plan_id":"cebpf4jnsgd1na2vs0mg"},{"bike_id":"a8902eb9-1e79-43bf-8303-145a87f0ae15","system_id":"levelo_inurba_marseille","lat":43.21757,"lon":5.34599,"is_reserved":false,"is_disabled":false,"rental_uris":{"android":"levelo://app?vid=a8902eb9-1e79-43bf-8303-145a87f0ae15","ios":"levelo://app?vid=a8902eb9-1e79-43bf-8303-145a87f0ae15"},"vehicle_type_id":"4","last_reported":1769325249,"current_range_meters":4000,"station_id":"st_cvj6r9ubvosntc0bgbag","pricing_plan_id":"cebpf4jnsgd1na2vs0mg"},{"bike_id":"54247625-5421-4985-8cfb-4f29ba1ac252","system_id":"levelo_inurba_marseille","lat":43.31675,"lon":5.37627,"is_reserved":false,"is_disabled":false,"rental_uris":{"android":"levelo://app?vid=54247625-5421-4985-8cfb-4f29ba1ac252","ios":"levelo://app?vid=54247625-5421-4985-8cfb-4f29ba1ac252"},"vehicle_type_id":"4","last_reported":1769325249,"current_range_meters":4000,"station_id":"","pricing_plan_id":"cebpf4jnsgd1na2vs0mg"},{"bike_id":"ae9f00b1-3cfd-450a-9f93-5f42c23c6b95","system_id":"levelo_inurba_marseille","lat":43.30308,"lon":5.39222,"is_reserved":false,"is_disabled":false,"rental_uris":{"android":"levelo://app?vid=ae9f00b1-3cfd-450a-9f93-5f42c23c6b95","ios":"levelo://app?vid=ae9f00b1-3cfd-450a-9f93-5f42c23c6b95"},"vehicle_type_id":"4","last_reported":1769325249,"current_range_meters":4000,"station_id":"ce4bgkh2rcd13ifvqbk0","pricing_plan_id":"cebpf4jnsgd1na2vs0mg"},{"bike_id":"60bef872-05bf-4251-9fbb-5033acce15f9","system_id":"levelo_inurba_marseille","lat":43.27831,"lon":5.39204,"is_reserved":false,"is_disabled":false,"rental_uris":{"android":"levelo://app?vid=60bef872-05bf-4251-9fbb-5033acce15f9","ios":"levelo://app?vid=60bef872-05bf-4251-9fbb-5033acce15f9"},"vehicle_type_id":"4","last_reported":1769325249,"current_range_meters":4000,"station_id":"ce4bhjp2rcd13ifvqga0","pricing_plan_id":"cebpf4jnsgd1na2vs0mg"},{"bike_id":"a329e4a7-1b0b-46bf-ae49-2465b484ffbb","system_id":"levelo_inurba_marseille","lat":43.25578,"lon":5.38228,"is_reserved":false,"is_disabled":false,"rental_uris":{"android":"levelo://app?vid=a329e4a7-1b0b-46bf-ae49-2465b484ffbb","ios":"levelo://app?vid=a329e4a7-1b0b-46bf-ae49-2465b484ffbb"},"vehicle_type_id":"4","last_reported":1769325249,"current_range_meters":4400,"station_id":"ce4bhih2rcd13ifvqfs0","pricing_plan_id":"cebpf4jnsgd1na2vs0mg"},{"bike_id":"335214f1-f886-4643-b4c8-2a285ebc7245","system_id":"levelo_inurba_marseille","lat":43.29811,"lon":5.40404,"is_reserved":false,"is_disabled":false,"rental_uris":{"android":"levelo://app?vid=335214f1-f886-4643-b4c8-2a285ebc7245","ios":"levelo://app?vid=335214f1-f886-4643-b4c8-2a285ebc7245"},"vehicle_type_id":"4","last_reported":1769325249,"current_range_meters":4400,"station_id":"ce4bh112rcd13ifvqd90","pricing_plan_id":"cebpf4jnsgd1na2vs0mg"},{"bike_id":"33375b7b-1d58-47f3-81bb-abd7d093dc69","system_id":"levelo_inurba_marseille","lat":43.2961,"lon":5.37718,"is_reserved":false,"is_disabled":false,"rental_uris":{"android":"levelo://app?vid=33375b7b-1d58-47f3-81bb-abd7d093dc69","ios":"levelo://app?vid=33375b7b-1d58-47f3-81bb-abd7d093dc69"},"vehicle_type_id":"4","last_reported":1769325249,"current_range_meters":4400,"station_id":"ce4bgi92rcd13ifvqb90","pricing_plan_id":"cebpf4jnsgd1na2vs0mg"},{"bike_id":"ad323744-06fd-45f0-8106-c7e6ac5566c6","system_id":"levelo_inurba_marseille","lat":43.295546,"lon":5.422816,"is_reserved":false,"is_disabled":false,"rental_uris":{"android":"levelo://app?vid=ad323744-06fd-45f0-8106-c7e6ac5566c6","ios":"levelo://app?vid=ad323744-06fd-45f0-8106-c7e6ac5566c6"},"vehicle_type_id":"4","last_reported":1769325249,"current_range_meters":4400,"station_id":"ce4bhph2rcd13ifvqhdg","pricing_plan_id":"cebpf4jnsgd1na2vs0mg"},{"bike_id":"49208718-4763-495e-944d-0d3acc9a003f","system_id":"levelo_inurba_marseille","lat":43.28864,"lon":5.42545,"is_reserved":false,"is_disabled":false,"rental_uris":{"android":"levelo://app?vid=49208718-4763-495e-944d-0d3acc9a003f","ios":"levelo://app?vid=49208718-4763-495e-944d-0d3acc9a003f"},"vehicle_type_id":"4","last_reported":1769325249,"current_range_meters":4400,"station_id":"st_d3b462108ojc7389ooeg","pricing_plan_id":"cebpf4jnsgd1na2vs0mg"},{"bike_id":"819d554d-33ee-4abe-894a-dc86ff277d52","system_id":"levelo_inurba_marseille","lat":43.22921,"lon":5.35382,"is_reserved":false,"is_disabled":false,"rental_uris":{"android":"levelo://app?vid=819d554d-33ee-4abe-894a-dc86ff277d52","ios":"levelo://app?vid=819d554d-33ee-4abe-894a-dc86ff277d52"},"vehicle_type_id":"4","last_reported":1769325249,"current_range_meters":4400,"station_id":"cpo3532slgdg3j2ikp40","pricing_plan_id":"cebpf4jnsgd1na2vs0mg"},{"bike_id":"a15856db-9ac7-49b1-8876-30be7c45105f","system_id":"levelo_inurba_marseille","lat":43.24989,"lon":5.38962,"is_reserved":false,"is_disabled":false,"rental_uris":{"android":"levelo://app?vid=a15856db-9ac7-49b1-8876-30be7c45105f","ios":"levelo://app?vid=a15856db-9ac7-49b1-8876-30be7c45105f"},"vehicle_type_id":"4","last_reported":1769325249,"current_range_meters":4400,"station_id":"ce4bhgp2rcd13ifvqfd0","pricing_plan_id":"cebpf4jnsgd1na2vs0mg"},{"bike_id":"faa8663e-e142-45fc-9484-7a181dc4e401","system_id":"levelo_inurba_marseille","lat":43.27491,"lon":5.42454,"is_reserved":false,"is_disabled":false,"rental_uris":{"android":"levelo://app?vid=faa8663e-e142-45fc-9484-7a181dc4e401","ios":"levelo://app?vid=faa8663e-e142-45fc-9484-7a181dc4e401"},"vehicle_type_id":"4","last_reported":1769325249,"current_range_meters":4400,"station_id":"ce4bhn92rcd13ifvqgrg","pricing_plan_id":"cebpf4jnsgd1na2vs0mg"},{"bike_id":"b1b24ff6-a16a-49d4-8c80-da38825e8615","system_id":"levelo_inurba_marseille","lat":43.24391,"lon":5.3706,"is_reserved":false,"is_disabled":false,"rental_uris":{"android":"levelo://app?vid=b1b24ff6-a16a-49d4-8c80-da38825e8615","ios":"levelo://app?vid=b1b24ff6-a16a-49d4-8c80-da38825e8615"},"vehicle_type_id":"4","last_reported":1769325249,"current_range_meters":4400,"station_id":"ce4bhhh2rcd13ifvqfk0","pricing_plan_id":"cebpf4jnsgd1na2vs0mg"},{"bike_id":"e3c9bfcc-20de-4f80-8228-3d55c5d4497c","system_id":"levelo_inurba_marseille","lat":43.30477,"lon":5.37914,"is_reserved":false,"is_disabled":false,"rental_uris":{"android":"levelo://app?vid=e3c9bfcc-20de-4f80-8228-3d55c5d4497c","ios":"levelo://app?vid=e3c9bfcc-20de-4f80-8228-3d55c5d4497c"},"vehicle_type_id":"4","last_reported":1769325249,"current_range_meters":4400,"station_id":"ce4bgup2rcd13ifvqcn0","pricing_plan_id":"cebpf4jnsgd1na2vs0mg"},{"bike_id":"e30305e0-1f67-4ff0-8a62-9b963fcf1b1d","system_id":"levelo_inurba_marseille","lat":43.30885,"lon":5.3964,"is_reserved":false,"is_disabled":false,"rental_uris":{"android":"levelo://app?vid=e30305e0-1f67-4ff0-8a62-9b963fcf1b1d","ios":"levelo://app?vid=e30305e0-1f67-4ff0-8a62-9b963fcf1b1d"},"vehicle_type_id":"4","last_reported":1769325249,"current_range_meters":4400,"station_id":"ce4bh012rcd13ifvqcv0","pricing_plan_id":"cebpf4jnsgd1na2vs0mg"},{"bike_id":"3f444b80-42a5-44cb-ab46-d7a22aca5751","system_id":"levelo_inurba_marseille","lat":43.26561,"lon":5.373,"is_reserved":false,"is_disabled":false,"rental_uris":{"android":"levelo://app?vid=3f444b80-42a5-44cb-ab46-d7a22aca5751","ios":"levelo://app?vid=3f444b80-42a5-44cb-ab46-d7a22aca5751"},"vehicle_type_id":"4","last_reported":1769325249,"current_range_meters":4800,"station_id":"ce4bhg12rcd13ifvqf70","pricing_plan_id":"cebpf4jnsgd1na2vs0mg"},{"bike_id":"89d2f176-9210-47d4-8e8a-9009973231fc","system_id":"levelo_inurba_marseille","lat":43.31375,"lon":5.36724,"is_reserved":false,"is_disabled":false,"rental_uris":{"android":"levelo://app?vid=89d2f176-9210-47d4-8e8a-9009973231fc","ios":"levelo://app?vid=89d2f176-9210-47d4-8e8a-9009973231fc"},"vehicle_type_id":"4","last_reported":1769325249,"current_range_meters":4800,"station_id":"ce4bgr92rcd13ifvqc6g","pricing_plan_id":"cebpf4jnsgd1na2vs0mg"},{"bike_id":"32a49861-102d-4078-84b0-170e7e11b0b2","system_id":"levelo_inurba_marseille","lat":43.28269,"lon":5.35077,"is_reserved":false,"is_disabled":false,"rental_uris":{"android":"levelo://app?vid=32a49861-102d-4078-84b0-170e7e11b0b2","ios":"levelo://app?vid=32a49861-102d-4078-84b0-170e7e11b0b2"},"vehicle_type_id":"4","last_reported":1769325249,"current_range_meters":4800,"station_id":"ce4bhbp2rcd13ifvqerg","pricing_plan_id":"cebpf4jnsgd1na2vs0mg"},{"bike_id":"19de33de-0bb1-4cc6-9b78-34466e3caff6","system_id":"levelo_inurba_marseille","lat":43.311735,"lon":5.387069,"is_reserved":false,"is_disabled":false,"rental_uris":{"android":"levelo://app?vid=19de33de-0bb1-4cc6-9b78-34466e3caff6","ios":"levelo://app?vid=19de33de-0bb1-4cc6-9b78-34466e3caff6"},"vehicle_type_id":"4","last_reported":1769325249,"current_range_meters":4800,"station_id":"ce4bgv12rcd13ifvqcp0","pricing_plan_id":"cebpf4jnsgd1na2vs0mg"},{"bike_id":"4e9a917f-788a-4fd3-a999-10045a9540fe","system_id":"levelo_inurba_marseille","lat":43.28264,"lon":5.35076,"is_reserved":false,"is_disabled":false,"rental_uris":{"android":"levelo://app?vid=4e9a917f-788a-4fd3-a999-10045a9540fe","ios":"levelo://app?vid=4e9a917f-788a-4fd3-a999-10045a9540fe"},"vehicle_type_id":"4","last_reported":1769325249,"current_range_meters":4800,"station_id":"ce4bhbp2rcd13ifvqerg","pricing_plan_id":"cebpf4jnsgd1na2vs0mg"},{"bike_id":"035ecca2-c8de-445b-ac9b-46e39ce6ca6a","system_id":"levelo_inurba_marseille","lat":43.31437,"lon":5.39325,"is_reserved":false,"is_disabled":false,"rental_uris":{"android":"levelo://app?vid=035ecca2-c8de-445b-ac9b-46e39ce6ca6a","ios":"levelo://app?vid=035ecca2-c8de-445b-ac9b-46e39ce6ca6a"},"vehicle_type_id":"4","last_reported":1769325249,"current_range_meters":4800,"station_id":"","pricing_plan_id":"cebpf4jnsgd1na2vs0mg"},{"bike_id":"903ed6fb-e30d-426f-a862-93953b3b0883","system_id":"levelo_inurba_marseille","lat":43.32356,"lon":5.36728,"is_reserved":false,"is_disabled":false,"rental_uris":{"android":"levelo://app?vid=903ed6fb-e30d-426f-a862-93953b3b0883","ios":"levelo://app?vid=903ed6fb-e30d-426f-a862-93953b3b0883"},"vehicle_type_id":"4","last_reported":1769325249,"current_range_meters":5600,"station_id":"ce4bhsh2rcd13ifvqi2g","pricing_plan_id":"cebpf4jnsgd1na2vs0mg"},{"bike_id":"9af51f60-0147-47d1-9c59-680e0d02c35a","system_id":"levelo_inurba_marseille","lat":43.217401,"lon":5.346109,"is_reserved":false,"is_disabled":false,"rental_uris":{"android":"levelo://app?vid=9af51f60-0147-47d1-9c59-680e0d02c35a","ios":"levelo://app?vid=9af51f60-0147-47d1-9c59-680e0d02c35a"},"vehicle_type_id":"4","last_reported":1769325249,"current_range_meters":5600,"station_id":"st_cvj6r9ubvosntc0bgbag","pricing_plan_id":"cebpf4jnsgd1na2vs0mg"},{"bike_id":"fd9b2d1b-cdfa-4bcd-a2db-0d90de0d6b64","system_id":"levelo_inurba_marseille","lat":43.23164,"lon":5.43742,"is_reserved":false,"is_disabled":false,"rental_uris":{"android":"levelo://app?vid=fd9b2d1b-cdfa-4bcd-a2db-0d90de0d6b64","ios":"levelo://app?vid=fd9b2d1b-cdfa-4bcd-a2db-0d90de0d6b64"},"vehicle_type_id":"4","last_reported":1769325249,"current_range_meters":5600,"station_id":"ce4bhmp2rcd13ifvqgog","pricing_plan_id":"cebpf4jnsgd1na2vs0mg"},{"bike_id":"8f72bfe4-ee21-4ee8-b70c-bdb39befee0d","system_id":"levelo_inurba_marseille","lat":43.25336,"lon":5.42195,"is_reserved":false,"is_disabled":false,"rental_uris":{"android":"levelo://app?vid=8f72bfe4-ee21-4ee8-b70c-bdb39befee0d","ios":"levelo://app?vid=8f72bfe4-ee21-4ee8-b70c-bdb39befee0d"},"vehicle_type_id":"4","last_reported":1769325249,"current_range_meters":5600,"station_id":"st_d2m65c5bi1j21697t3ng","pricing_plan_id":"cebpf4jnsgd1na2vs0mg"},{"bike_id":"c4b9fb50-c1c1-45e2-a420-d27b5fd55927","system_id":"levelo_inurba_marseille","lat":43.23182,"lon":5.3998,"is_reserved":false,"is_disabled":false,"rental_uris":{"android":"levelo://app?vid=c4b9fb50-c1c1-45e2-a420-d27b5fd55927","ios":"levelo://app?vid=c4b9fb50-c1c1-45e2-a420-d27b5fd55927"},"vehicle_type_id":"4","last_reported":1769325249,"current_range_meters":5600,"station_id":"ce4bhn12rcd13ifvqgqg","pricing_plan_id":"cebpf4jnsgd1na2vs0mg"},{"bike_id":"dc3bd017-a36c-437c-a91a-6cab42202242","system_id":"levelo_inurba_marseille","lat":43.28521,"lon":5.44105,"is_reserved":false,"is_disabled":false,"rental_uris":{"android":"levelo://app?vid=dc3bd017-a36c-437c-a91a-6cab42202242","ios":"levelo://app?vid=dc3bd017-a36c-437c-a91a-6cab42202242"},"vehicle_type_id":"4","last_reported":1769325249,"current_range_meters":5600,"station_id":"st_d3j3df2ikq2c7380ej80","pricing_plan_id":"cebpf4jnsgd1na2vs0mg"},{"bike_id":"c7bb1e75-854e-4b91-9eb4-49c4f9db6d4d","system_id":"levelo_inurba_marseille","lat":43.249575,"lon":5.404963,"is_reserved":false,"is_disabled":false,"rental_uris":{"android":"levelo://app?vid=c7bb1e75-854e-4b91-9eb4-49c4f9db6d4d","ios":"levelo://app?vid=c7bb1e75-854e-4b91-9eb4-49c4f9db6d4d"},"vehicle_type_id":"4","last_reported":1769325249,"current_range_meters":5600,"station_id":"st_d2ngiaodas8pm72gd1h0","pricing_plan_id":"cebpf4jnsgd1na2vs0mg"},{"bike_id":"86f63ab3-e846-4448-8035-b7a7a841c9c4","system_id":"levelo_inurba_marseille","lat":43.287,"lon":5.37394,"is_reserved":false,"is_disabled":false,"rental_uris":{"android":"levelo://app?vid=86f63ab3-e846-4448-8035-b7a7a841c9c4","ios":"levelo://app?vid=86f63ab3-e846-4448-8035-b7a7a841c9c4"},"vehicle_type_id":"4","last_reported":1769325249,"current_range_meters":5600,"station_id":"ce4bh3p2rcd13ifvqdq0","pricing_plan_id":"cebpf4jnsgd1na2vs0mg"},{"bike_id":"387d7740-676c-4cd2-8a5d-59752e7e6b9b","system_id":"levelo_inurba_marseille","lat":43.26384,"lon":5.41066,"is_reserved":false,"is_disabled":false,"rental_uris":{"android":"levelo://app?vid=387d7740-676c-4cd2-8a5d-59752e7e6b9b","ios":"levelo://app?vid=387d7740-676c-4cd2-8a5d-59752e7e6b9b"},"vehicle_type_id":"4","last_reported":1769325249,"current_range_meters":5600,"station_id":"st_d4e5ca6na9uc73bfl5fg","pricing_plan_id":"cebpf4jnsgd1na2vs0mg"},{"bike_id":"fe6247c0-8b4c-45a3-872a-698b7c53d002","system_id":"levelo_inurba_marseille","lat":43.29597,"lon":5.37156,"is_reserved":false,"is_disabled":false,"rental_uris":{"android":"levelo://app?vid=fe6247c0-8b4c-45a3-872a-698b7c53d002","ios":"levelo://app?vid=fe6247c0-8b4c-45a3-872a-698b7c53d002"},"vehicle_type_id":"4","last_reported":1769325249,"current_range_meters":5600,"station_id":"ce4bgnh2rcd13ifvqc0g","pricing_plan_id":"cebpf4jnsgd1na2vs0mg"},{"bike_id":"0ca50414-b22f-4e75-aa54-cfd808d06083","system_id":"levelo_inurba_marseille","lat":43.3314,"lon":5.377,"is_reserved":false,"is_disabled":false,"rental_uris":{"android":"levelo://app?vid=0ca50414-b22f-4e75-aa54-cfd808d06083","ios":"levelo://app?vid=0ca50414-b22f-4e75-aa54-cfd808d06083"},"vehicle_type_id":"4","last_reported":1769325249,"current_range_meters":5600,"station_id":"st_d46cu089ee8s73dldbu0","pricing_plan_id":"cebpf4jnsgd1na2vs0mg"},{"bike_id":"a02f2e5a-7191-40fa-86c0-b0ed576ef2b0","system_id":"levelo_inurba_marseille","lat":43.26555,"lon":5.37294,"is_reserved":false,"is_disabled":false,"rental_uris":{"android":"levelo://app?vid=a02f2e5a-7191-40fa-86c0-b0ed576ef2b0","ios":"levelo://app?vid=a02f2e5a-7191-40fa-86c0-b0ed576ef2b0"},"vehicle_type_id":"4","last_reported":1769325249,"current_range_meters":5600,"station_id":"ce4bhg12rcd13ifvqf70","pricing_plan_id":"cebpf4jnsgd1na2vs0mg"},{"bike_id":"f380b1b7-d701-45ad-afb7-2c2bdd93024e","system_id":"levelo_inurba_marseille","lat":43.24415,"lon":5.37068,"is_reserved":false,"is_disabled":false,"rental_uris":{"android":"levelo://app?vid=f380b1b7-d701-45ad-afb7-2c2bdd93024e","ios":"levelo://app?vid=f380b1b7-d701-45ad-afb7-2c2bdd93024e"},"vehicle_type_id":"4","last_reported":1769325249,"current_range_meters":6000,"station_id":"ce4bhhh2rcd13ifvqfk0","pricing_plan_id":"cebpf4jnsgd1na2vs0mg"},{"bike_id":"42a9072c-20ae-4f3e-9a38-771201cc3731","system_id":"levelo_inurba_marseille","lat":43.26577,"lon":5.37278,"is_reserved":false,"is_disabled":false,"rental_uris":{"android":"levelo://app?vid=42a9072c-20ae-4f3e-9a38-771201cc3731","ios":"levelo://app?vid=42a9072c-20ae-4f3e-9a38-771201cc3731"},"vehicle_type_id":"4","last_reported":1769325249,"current_range_meters":6000,"station_id":"ce4bhg12rcd13ifvqf70","pricing_plan_id":"cebpf4jnsgd1na2vs0mg"},{"bike_id":"d3809040-335d-41e0-882d-c4069e0593d6","system_id":"levelo_inurba_marseille","lat":43.26225,"lon":5.37462,"is_reserved":false,"is_disabled":false,"rental_uris":{"android":"levelo://app?vid=d3809040-335d-41e0-882d-c4069e0593d6","ios":"levelo://app?vid=d3809040-335d-41e0-882d-c4069e0593d6"},"vehicle_type_id":"4","last_reported":1769325249,"current_range_meters":6000,"station_id":"","pricing_plan_id":"cebpf4jnsgd1na2vs0mg"},{"bike_id":"955b7b58-85d0-4b70-9dc4-029feb0cc2bd","system_id":"levelo_inurba_marseille","lat":43.297048,"lon":5.366266,"is_reserved":false,"is_disabled":false,"rental_uris":{"android":"levelo://app?vid=955b7b58-85d0-4b70-9dc4-029feb0cc2bd","ios":"levelo://app?vid=955b7b58-85d0-4b70-9dc4-029feb0cc2bd"},"vehicle_type_id":"4","last_reported":1769325249,"current_range_meters":6000,"station_id":"ce4bgn12rcd13ifvqbt0","pricing_plan_id":"cebpf4jnsgd1na2vs0mg"},{"bike_id":"695ba03e-aa60-4a16-ad44-0d1b43b21bd5","system_id":"levelo_inurba_marseille","lat":43.2257,"lon":5.41633,"is_reserved":false,"is_disabled":false,"rental_uris":{"android":"levelo://app?vid=695ba03e-aa60-4a16-ad44-0d1b43b21bd5","ios":"levelo://app?vid=695ba03e-aa60-4a16-ad44-0d1b43b21bd5"},"vehicle_type_id":"4","last_reported":1769325249,"current_range_meters":6000,"station_id":"st_d2o4gvlbi1j2169b742g","pricing_plan_id":"cebpf4jnsgd1na2vs0mg"},{"bike_id":"3b781fc0-785a-46db-80a2-c41d552c10df","system_id":"levelo_inurba_marseille","lat":43.23783,"lon":5.36634,"is_reserved":false,"is_disabled":false,"rental_uris":{"android":"levelo://app?vid=3b781fc0-785a-46db-80a2-c41d552c10df","ios":"levelo://app?vid=3b781fc0-785a-46db-80a2-c41d552c10df"},"vehicle_type_id":"4","last_reported":1769325249,"current_range_meters":6000,"station_id":"st_d3nk18o9ro0c73en2l3g","pricing_plan_id":"cebpf4jnsgd1na2vs0mg"},{"bike_id":"f5ac4918-0ec2-4761-b7b6-0929b50d8bfd","system_id":"levelo_inurba_marseille","lat":43.28476,"lon":5.48403,"is_reserved":false,"is_disabled":false,"rental_uris":{"android":"levelo://app?vid=f5ac4918-0ec2-4761-b7b6-0929b50d8bfd","ios":"levelo://app?vid=f5ac4918-0ec2-4761-b7b6-0929b50d8bfd"},"vehicle_type_id":"4","last_reported":1769325249,"current_range_meters":6000,"station_id":"st_d3svhcjqgbts73a3dn0g","pricing_plan_id":"cebpf4jnsgd1na2vs0mg"},{"bike_id":"a167fc36-815e-4f2a-8af3-7ab5222499ca","system_id":"levelo_inurba_marseille","lat":43.24164,"lon":5.364053,"is_reserved":false,"is_disabled":false,"rental_uris":{"android":"levelo://app?vid=a167fc36-815e-4f2a-8af3-7ab5222499ca","ios":"levelo://app?vid=a167fc36-815e-4f2a-8af3-7ab5222499ca"},"vehicle_type_id":"4","last_reported":1769325249,"current_range_meters":6000,"station_id":"cpo36qri1sfpv3e86is0","pricing_plan_id":"cebpf4jnsgd1na2vs0mg"},{"bike_id":"1c00aad7-b5e9-4881-a6e0-9da9a43423a8","system_id":"levelo_inurba_marseille","lat":43.30575,"lon":5.39361,"is_reserved":false,"is_disabled":false,"rental_uris":{"android":"levelo://app?vid=1c00aad7-b5e9-4881-a6e0-9da9a43423a8","ios":"levelo://app?vid=1c00aad7-b5e9-4881-a6e0-9da9a43423a8"},"vehicle_type_id":"4","last_reported":1769325249,"current_range_meters":6000,"station_id":"ce4bh0p2rcd13ifvqd80","pricing_plan_id":"cebpf4jnsgd1na2vs0mg"},{"bike_id":"58d2ae64-d77b-49b0-aa64-83302e76931b","system_id":"levelo_inurba_marseille","lat":43.24619,"lon":5.4317,"is_reserved":false,"is_disabled":false,"rental_uris":{"android":"levelo://app?vid=58d2ae64-d77b-49b0-aa64-83302e76931b","ios":"levelo://app?vid=58d2ae64-d77b-49b0-aa64-83302e76931b"},"vehicle_type_id":"4","last_reported":1769325249,"current_range_meters":6000,"station_id":"st_d2m6c4gdas8pm72e190g","pricing_plan_id":"cebpf4jnsgd1na2vs0mg"},{"bike_id":"810615af-4dfc-4ff9-8fd7-15ca4401249a","system_id":"levelo_inurba_marseille","lat":43.2417,"lon":5.3974,"is_reserved":false,"is_disabled":false,"rental_uris":{"android":"levelo://app?vid=810615af-4dfc-4ff9-8fd7-15ca4401249a","ios":"levelo://app?vid=810615af-4dfc-4ff9-8fd7-15ca4401249a"},"vehicle_type_id":"4","last_reported":1769325249,"current_range_meters":6000,"station_id":"ce4bhn12rcd13ifvqgpg","pricing_plan_id":"cebpf4jnsgd1na2vs0mg"},{"bike_id":"808f4e53-a8b8-4744-be76-00d5bcf647cd","system_id":"levelo_inurba_marseille","lat":43.29758,"lon":5.42767,"is_reserved":false,"is_disabled":false,"rental_uris":{"android":"levelo://app?vid=808f4e53-a8b8-4744-be76-00d5bcf647cd","ios":"levelo://app?vid=808f4e53-a8b8-4744-be76-00d5bcf647cd"},"vehicle_type_id":"4","last_reported":1769325249,"current_range_meters":6000,"station_id":"st_d3md5207bmas73dh9klg","pricing_plan_id":"cebpf4jnsgd1na2vs0mg"},{"bike_id":"d23e957b-30e5-4310-998d-191d81d5f962","system_id":"levelo_inurba_marseille","lat":43.28445,"lon":5.3881,"is_reserved":false,"is_disabled":false,"rental_uris":{"android":"levelo://app?vid=d23e957b-30e5-4310-998d-191d81d5f962","ios":"levelo://app?vid=d23e957b-30e5-4310-998d-191d81d5f962"},"vehicle_type_id":"4","last_reported":1769325249,"current_range_meters":6000,"station_id":"","pricing_plan_id":"cebpf4jnsgd1na2vs0mg"},{"bike_id":"7fbd08ac-4873-40ce-8348-00e50d4fd738","system_id":"levelo_inurba_marseille","lat":43.27182,"lon":5.41011,"is_reserved":false,"is_disabled":false,"rental_uris":{"android":"levelo://app?vid=7fbd08ac-4873-40ce-8348-00e50d4fd738","ios":"levelo://app?vid=7fbd08ac-4873-40ce-8348-00e50d4fd738"},"vehicle_type_id":"4","last_reported":1769325249,"current_range_meters":6400,"station_id":"ce4bhl12rcd13ifvqgf0","pricing_plan_id":"cebpf4jnsgd1na2vs0mg"},{"bike_id":"7a4e3005-837e-4425-a268-ddb5f45bb9f3","system_id":"levelo_inurba_marseille","lat":43.24617,"lon":5.43108,"is_reserved":false,"is_disabled":false,"rental_uris":{"android":"levelo://app?vid=7a4e3005-837e-4425-a268-ddb5f45bb9f3","ios":"levelo://app?vid=7a4e3005-837e-4425-a268-ddb5f45bb9f3"},"vehicle_type_id":"4","last_reported":1769325249,"current_range_meters":6400,"station_id":"st_d2m6c4gdas8pm72e190g","pricing_plan_id":"cebpf4jnsgd1na2vs0mg"},{"bike_id":"bba8075a-c51f-4423-b12b-739ce4e2610f","system_id":"levelo_inurba_marseille","lat":43.28931,"lon":5.36391,"is_reserved":false,"is_disabled":false,"rental_uris":{"android":"levelo://app?vid=bba8075a-c51f-4423-b12b-739ce4e2610f","ios":"levelo://app?vid=bba8075a-c51f-4423-b12b-739ce4e2610f"},"vehicle_type_id":"4","last_reported":1769325249,"current_range_meters":6400,"station_id":"ce4bhc92rcd13ifvqetg","pricing_plan_id":"cebpf4jnsgd1na2vs0mg"},{"bike_id":"5d5ffbbb-74c0-43cf-b09c-4df4c0347781","system_id":"levelo_inurba_marseille","lat":43.26202,"lon":5.37926,"is_reserved":false,"is_disabled":false,"rental_uris":{"android":"levelo://app?vid=5d5ffbbb-74c0-43cf-b09c-4df4c0347781","ios":"levelo://app?vid=5d5ffbbb-74c0-43cf-b09c-4df4c0347781"},"vehicle_type_id":"4","last_reported":1769325249,"current_range_meters":6400,"station_id":"ce4bhjp2rcd13ifvqg90","pricing_plan_id":"cebpf4jnsgd1na2vs0mg"},{"bike_id":"e74dd9b3-b6b2-4ded-9217-8e7bda3955d4","system_id":"levelo_inurba_marseille","lat":43.24273,"lon":5.3719,"is_reserved":false,"is_disabled":false,"rental_uris":{"android":"levelo://app?vid=e74dd9b3-b6b2-4ded-9217-8e7bda3955d4","ios":"levelo://app?vid=e74dd9b3-b6b2-4ded-9217-8e7bda3955d4"},"vehicle_type_id":"4","last_reported":1769325249,"current_range_meters":6400,"station_id":"","pricing_plan_id":"cebpf4jnsgd1na2vs0mg"},{"bike_id":"2762ef31-30af-4622-8a7b-f8bc59330d3d","system_id":"levelo_inurba_marseille","lat":43.30205,"lon":5.37461,"is_reserved":false,"is_disabled":false,"rental_uris":{"android":"levelo://app?vid=2762ef31-30af-4622-8a7b-f8bc59330d3d","ios":"levelo://app?vid=2762ef31-30af-4622-8a7b-f8bc59330d3d"},"vehicle_type_id":"4","last_reported":1769325249,"current_range_meters":6400,"station_id":"","pricing_plan_id":"cebpf4jnsgd1na2vs0mg"},{"bike_id":"c8f043c8-a1cd-4533-8ac5-09a3aac34519","system_id":"levelo_inurba_marseille","lat":43.26564,"lon":5.37303,"is_reserved":false,"is_disabled":false,"rental_uris":{"android":"levelo://app?vid=c8f043c8-a1cd-4533-8ac5-09a3aac34519","ios":"levelo://app?vid=c8f043c8-a1cd-4533-8ac5-09a3aac34519"},"vehicle_type_id":"4","last_reported":1769325249,"current_range_meters":6400,"station_id":"ce4bhg12rcd13ifvqf70","pricing_plan_id":"cebpf4jnsgd1na2vs0mg"},{"bike_id":"60b6fefc-4fad-4e17-b7b7-9a9bb822d822","system_id":"levelo_inurba_marseille","lat":43.31722,"lon":5.42382,"is_reserved":false,"is_disabled":false,"rental_uris":{"android":"levelo://app?vid=60b6fefc-4fad-4e17-b7b7-9a9bb822d822","ios":"levelo://app?vid=60b6fefc-4fad-4e17-b7b7-9a9bb822d822"},"vehicle_type_id":"4","last_reported":1769325249,"current_range_meters":6400,"station_id":"ce4bhp92rcd13ifvqhbg","pricing_plan_id":"cebpf4jnsgd1na2vs0mg"},{"bike_id":"3018bd0f-1eb9-47af-8fda-422f2be35d9a","system_id":"levelo_inurba_marseille","lat":43.21196,"lon":5.35075,"is_reserved":false,"is_disabled":false,"rental_uris":{"android":"levelo://app?vid=3018bd0f-1eb9-47af-8fda-422f2be35d9a","ios":"levelo://app?vid=3018bd0f-1eb9-47af-8fda-422f2be35d9a"},"vehicle_type_id":"4","last_reported":1769325249,"current_range_meters":6400,"station_id":"st_cvj6sg6p6f1abm77japg","pricing_plan_id":"cebpf4jnsgd1na2vs0mg"},{"bike_id":"a084f804-2739-4868-a258-7b23accb5209","system_id":"levelo_inurba_marseille","lat":43.27834,"lon":5.4074,"is_reserved":false,"is_disabled":false,"rental_uris":{"android":"levelo://app?vid=a084f804-2739-4868-a258-7b23accb5209","ios":"levelo://app?vid=a084f804-2739-4868-a258-7b23accb5209"},"vehicle_type_id":"4","last_reported":1769325249,"current_range_meters":6400,"station_id":"ce4bhnh2rcd13ifvqgtg","pricing_plan_id":"cebpf4jnsgd1na2vs0mg"},{"bike_id":"3770c2e9-8904-416b-a171-2857d4f07466","system_id":"levelo_inurba_marseille","lat":43.243987,"lon":5.370735,"is_reserved":false,"is_disabled":false,"rental_uris":{"android":"levelo://app?vid=3770c2e9-8904-416b-a171-2857d4f07466","ios":"levelo://app?vid=3770c2e9-8904-416b-a171-2857d4f07466"},"vehicle_type_id":"4","last_reported":1769325249,"current_range_meters":6400,"station_id":"ce4bhhh2rcd13ifvqfk0","pricing_plan_id":"cebpf4jnsgd1na2vs0mg"},{"bike_id":"711b6451-3b81-4dd2-8591-37e710d5b943","system_id":"levelo_inurba_marseille","lat":43.28432,"lon":5.48506,"is_reserved":false,"is_disabled":false,"rental_uris":{"android":"levelo://app?vid=711b6451-3b81-4dd2-8591-37e710d5b943","ios":"levelo://app?vid=711b6451-3b81-4dd2-8591-37e710d5b943"},"vehicle_type_id":"4","last_reported":1769325249,"current_range_meters":6400,"station_id":"st_d3svhcjqgbts73a3dn0g","pricing_plan_id":"cebpf4jnsgd1na2vs0mg"},{"bike_id":"2866fb61-925b-47cb-ad30-ede99341e9de","system_id":"levelo_inurba_marseille","lat":43.241696,"lon":5.364055,"is_reserved":false,"is_disabled":false,"rental_uris":{"android":"levelo://app?vid=2866fb61-925b-47cb-ad30-ede99341e9de","ios":"levelo://app?vid=2866fb61-925b-47cb-ad30-ede99341e9de"},"vehicle_type_id":"4","last_reported":1769325249,"current_range_meters":6400,"station_id":"cpo36qri1sfpv3e86is0","pricing_plan_id":"cebpf4jnsgd1na2vs0mg"},{"bike_id":"ba883ae6-41d0-430b-b2c5-fa8f015c672b","system_id":"levelo_inurba_marseille","lat":43.30488,"lon":5.4105,"is_reserved":false,"is_disabled":false,"rental_uris":{"android":"levelo://app?vid=ba883ae6-41d0-430b-b2c5-fa8f015c672b","ios":"levelo://app?vid=ba883ae6-41d0-430b-b2c5-fa8f015c672b"},"vehicle_type_id":"4","last_reported":1769325249,"current_range_meters":6400,"station_id":"","pricing_plan_id":"cebpf4jnsgd1na2vs0mg"},{"bike_id":"f9f84c03-f090-46ce-8d68-078d46085df1","system_id":"levelo_inurba_marseille","lat":43.24173,"lon":5.39725,"is_reserved":false,"is_disabled":false,"rental_uris":{"android":"levelo://app?vid=f9f84c03-f090-46ce-8d68-078d46085df1","ios":"levelo://app?vid=f9f84c03-f090-46ce-8d68-078d46085df1"},"vehicle_type_id":"4","last_reported":1769325249,"current_range_meters":6800,"station_id":"ce4bhn12rcd13ifvqgpg","pricing_plan_id":"cebpf4jnsgd1na2vs0mg"},{"bike_id":"6ebd8131-5347-4093-8c87-e0c7d5276e14","system_id":"levelo_inurba_marseille","lat":43.22557,"lon":5.41631,"is_reserved":false,"is_disabled":false,"rental_uris":{"android":"levelo://app?vid=6ebd8131-5347-4093-8c87-e0c7d5276e14","ios":"levelo://app?vid=6ebd8131-5347-4093-8c87-e0c7d5276e14"},"vehicle_type_id":"4","last_reported":1769325249,"current_range_meters":6800,"station_id":"st_d2o4gvlbi1j2169b742g","pricing_plan_id":"cebpf4jnsgd1na2vs0mg"},{"bike_id":"c95e6f4f-dea5-4c8f-900f-ccf591c989cb","system_id":"levelo_inurba_marseille","lat":43.258243,"lon":5.394337,"is_reserved":false,"is_disabled":false,"rental_uris":{"android":"levelo://app?vid=c95e6f4f-dea5-4c8f-900f-ccf591c989cb","ios":"levelo://app?vid=c95e6f4f-dea5-4c8f-900f-ccf591c989cb"},"vehicle_type_id":"4","last_reported":1769325249,"current_range_meters":6800,"station_id":"ce4bhip2rcd13ifvqft0","pricing_plan_id":"cebpf4jnsgd1na2vs0mg"},{"bike_id":"129c3e40-2f7c-44ba-9599-c3c8add99e83","system_id":"levelo_inurba_marseille","lat":43.29705,"lon":5.36626,"is_reserved":false,"is_disabled":false,"rental_uris":{"android":"levelo://app?vid=129c3e40-2f7c-44ba-9599-c3c8add99e83","ios":"levelo://app?vid=129c3e40-2f7c-44ba-9599-c3c8add99e83"},"vehicle_type_id":"4","last_reported":1769325249,"current_range_meters":6800,"station_id":"ce4bgn12rcd13ifvqbt0","pricing_plan_id":"cebpf4jnsgd1na2vs0mg"},{"bike_id":"e46d8a17-af5a-42e0-b036-cb3c86080336","system_id":"levelo_inurba_marseille","lat":43.2447,"lon":5.42563,"is_reserved":false,"is_disabled":false,"rental_uris":{"android":"levelo://app?vid=e46d8a17-af5a-42e0-b036-cb3c86080336","ios":"levelo://app?vid=e46d8a17-af5a-42e0-b036-cb3c86080336"},"vehicle_type_id":"4","last_reported":1769325249,"current_range_meters":6800,"station_id":"st_d4a3vfp97mjs738cd8kg","pricing_plan_id":"cebpf4jnsgd1na2vs0mg"},{"bike_id":"e07e68dd-c898-432c-ba3f-2dae4d6b1eb0","system_id":"levelo_inurba_marseille","lat":43.26079,"lon":5.39419,"is_reserved":false,"is_disabled":false,"rental_uris":{"android":"levelo://app?vid=e07e68dd-c898-432c-ba3f-2dae4d6b1eb0","ios":"levelo://app?vid=e07e68dd-c898-432c-ba3f-2dae4d6b1eb0"},"vehicle_type_id":"4","last_reported":1769325249,"current_range_meters":6800,"station_id":"ce4bhh92rcd13ifvqfj0","pricing_plan_id":"cebpf4jnsgd1na2vs0mg"},{"bike_id":"531078e9-e6ae-426d-a507-48f287cdb17b","system_id":"levelo_inurba_marseille","lat":43.24671,"lon":5.38147,"is_reserved":false,"is_disabled":false,"rental_uris":{"android":"levelo://app?vid=531078e9-e6ae-426d-a507-48f287cdb17b","ios":"levelo://app?vid=531078e9-e6ae-426d-a507-48f287cdb17b"},"vehicle_type_id":"4","last_reported":1769325249,"current_range_meters":6800,"station_id":"ce4bhih2rcd13ifvqfr0","pricing_plan_id":"cebpf4jnsgd1na2vs0mg"},{"bike_id":"48f40c82-bbad-4ae0-9613-f836906f3c71","system_id":"levelo_inurba_marseille","lat":43.281064,"lon":5.4319,"is_reserved":false,"is_disabled":false,"rental_uris":{"android":"levelo://app?vid=48f40c82-bbad-4ae0-9613-f836906f3c71","ios":"levelo://app?vid=48f40c82-bbad-4ae0-9613-f836906f3c71"},"vehicle_type_id":"4","last_reported":1769325249,"current_range_meters":6800,"station_id":"","pricing_plan_id":"cebpf4jnsgd1na2vs0mg"},{"bike_id":"090d68fd-b8f6-42aa-a688-f39ed4d39c2d","system_id":"levelo_inurba_marseille","lat":43.22591,"lon":5.41624,"is_reserved":false,"is_disabled":false,"rental_uris":{"android":"levelo://app?vid=090d68fd-b8f6-42aa-a688-f39ed4d39c2d","ios":"levelo://app?vid=090d68fd-b8f6-42aa-a688-f39ed4d39c2d"},"vehicle_type_id":"4","last_reported":1769325249,"current_range_meters":6800,"station_id":"st_d2o4gvlbi1j2169b742g","pricing_plan_id":"cebpf4jnsgd1na2vs0mg"},{"bike_id":"00da3708-e459-4447-91e4-64d1b9a20866","system_id":"levelo_inurba_marseille","lat":43.28263,"lon":5.3508,"is_reserved":false,"is_disabled":false,"rental_uris":{"android":"levelo://app?vid=00da3708-e459-4447-91e4-64d1b9a20866","ios":"levelo://app?vid=00da3708-e459-4447-91e4-64d1b9a20866"},"vehicle_type_id":"4","last_reported":1769325249,"current_range_meters":6800,"station_id":"ce4bhbp2rcd13ifvqerg","pricing_plan_id":"cebpf4jnsgd1na2vs0mg"},{"bike_id":"4b61dc4d-18dc-4d4f-89ba-f3d6dd7633e1","system_id":"levelo_inurba_marseille","lat":43.23024,"lon":5.4386,"is_reserved":false,"is_disabled":false,"rental_uris":{"android":"levelo://app?vid=4b61dc4d-18dc-4d4f-89ba-f3d6dd7633e1","ios":"levelo://app?vid=4b61dc4d-18dc-4d4f-89ba-f3d6dd7633e1"},"vehicle_type_id":"4","last_reported":1769325249,"current_range_meters":6800,"station_id":"","pricing_plan_id":"cebpf4jnsgd1na2vs0mg"},{"bike_id":"66e2db6e-199d-473b-a0ad-7077acb0bbdc","system_id":"levelo_inurba_marseille","lat":43.26542,"lon":5.37316,"is_reserved":false,"is_disabled":false,"rental_uris":{"android":"levelo://app?vid=66e2db6e-199d-473b-a0ad-7077acb0bbdc","ios":"levelo://app?vid=66e2db6e-199d-473b-a0ad-7077acb0bbdc"},"vehicle_type_id":"4","last_reported":1769325249,"current_range_meters":6800,"station_id":"ce4bhg12rcd13ifvqf70","pricing_plan_id":"cebpf4jnsgd1na2vs0mg"},{"bike_id":"7cc22443-c0b5-40d4-ac3d-23d1dc4d9574","system_id":"levelo_inurba_marseille","lat":43.30524,"lon":5.38442,"is_reserved":false,"is_disabled":false,"rental_uris":{"android":"levelo://app?vid=7cc22443-c0b5-40d4-ac3d-23d1dc4d9574","ios":"levelo://app?vid=7cc22443-c0b5-40d4-ac3d-23d1dc4d9574"},"vehicle_type_id":"4","last_reported":1769325249,"current_range_meters":6800,"station_id":"ce4bgg92rcd13ifvqb30","pricing_plan_id":"cebpf4jnsgd1na2vs0mg"},{"bike_id":"1390b31c-5800-4ec2-aa59-5fb6456f3ef6","system_id":"levelo_inurba_marseille","lat":43.24646,"lon":5.38145,"is_reserved":false,"is_disabled":false,"rental_uris":{"android":"levelo://app?vid=1390b31c-5800-4ec2-aa59-5fb6456f3ef6","ios":"levelo://app?vid=1390b31c-5800-4ec2-aa59-5fb6456f3ef6"},"vehicle_type_id":"4","last_reported":1769325249,"current_range_meters":7200,"station_id":"ce4bhih2rcd13ifvqfr0","pricing_plan_id":"cebpf4jnsgd1na2vs0mg"},{"bike_id":"7985c998-db69-4464-86f8-17583f621477","system_id":"levelo_inurba_marseille","lat":43.3,"lon":5.37209,"is_reserved":false,"is_disabled":false,"rental_uris":{"android":"levelo://app?vid=7985c998-db69-4464-86f8-17583f621477","ios":"levelo://app?vid=7985c998-db69-4464-86f8-17583f621477"},"vehicle_type_id":"4","last_reported":1769325249,"current_range_meters":7200,"station_id":"ce4bgr92rcd13ifvqc7g","pricing_plan_id":"cebpf4jnsgd1na2vs0mg"},{"bike_id":"c0bc2852-f707-4be0-bf2e-f4824af48c53","system_id":"levelo_inurba_marseille","lat":43.23178,"lon":5.39998,"is_reserved":false,"is_disabled":false,"rental_uris":{"android":"levelo://app?vid=c0bc2852-f707-4be0-bf2e-f4824af48c53","ios":"levelo://app?vid=c0bc2852-f707-4be0-bf2e-f4824af48c53"},"vehicle_type_id":"4","last_reported":1769325249,"current_range_meters":7200,"station_id":"ce4bhn12rcd13ifvqgqg","pricing_plan_id":"cebpf4jnsgd1na2vs0mg"},{"bike_id":"f8d6a6e0-1d68-4650-a94d-f633bf8c4370","system_id":"levelo_inurba_marseille","lat":43.237897,"lon":5.366253,"is_reserved":false,"is_disabled":false,"rental_uris":{"android":"levelo://app?vid=f8d6a6e0-1d68-4650-a94d-f633bf8c4370","ios":"levelo://app?vid=f8d6a6e0-1d68-4650-a94d-f633bf8c4370"},"vehicle_type_id":"4","last_reported":1769325249,"current_range_meters":7200,"station_id":"st_d3nk18o9ro0c73en2l3g","pricing_plan_id":"cebpf4jnsgd1na2vs0mg"},{"bike_id":"1beef04b-4086-4fc6-b6f2-b17b1d293024","system_id":"levelo_inurba_marseille","lat":43.29647,"lon":5.37729,"is_reserved":false,"is_disabled":false,"rental_uris":{"android":"levelo://app?vid=1beef04b-4086-4fc6-b6f2-b17b1d293024","ios":"levelo://app?vid=1beef04b-4086-4fc6-b6f2-b17b1d293024"},"vehicle_type_id":"4","last_reported":1769325249,"current_range_meters":7200,"station_id":"ce4bgi92rcd13ifvqb90","pricing_plan_id":"cebpf4jnsgd1na2vs0mg"},{"bike_id":"0c1db0f6-04c1-4e73-b12d-3dd98c0a03f3","system_id":"levelo_inurba_marseille","lat":43.3104,"lon":5.37159,"is_reserved":false,"is_disabled":false,"rental_uris":{"android":"levelo://app?vid=0c1db0f6-04c1-4e73-b12d-3dd98c0a03f3","ios":"levelo://app?vid=0c1db0f6-04c1-4e73-b12d-3dd98c0a03f3"},"vehicle_type_id":"4","last_reported":1769325249,"current_range_meters":7200,"station_id":"st_d4kl2rp97mjs73e7tdfg","pricing_plan_id":"cebpf4jnsgd1na2vs0mg"},{"bike_id":"b18b7c7b-dbe2-44bf-813a-828aad8a41bb","system_id":"levelo_inurba_marseille","lat":43.28264,"lon":5.35042,"is_reserved":false,"is_disabled":false,"rental_uris":{"android":"levelo://app?vid=b18b7c7b-dbe2-44bf-813a-828aad8a41bb","ios":"levelo://app?vid=b18b7c7b-dbe2-44bf-813a-828aad8a41bb"},"vehicle_type_id":"4","last_reported":1769325249,"current_range_meters":7200,"station_id":"","pricing_plan_id":"cebpf4jnsgd1na2vs0mg"},{"bike_id":"45f2dae3-47ea-42d1-b786-fb73f88efb15","system_id":"levelo_inurba_marseille","lat":43.26772,"lon":5.3942,"is_reserved":false,"is_disabled":false,"rental_uris":{"android":"levelo://app?vid=45f2dae3-47ea-42d1-b786-fb73f88efb15","ios":"levelo://app?vid=45f2dae3-47ea-42d1-b786-fb73f88efb15"},"vehicle_type_id":"4","last_reported":1769325249,"current_range_meters":7200,"station_id":"ce4bhh12rcd13ifvqfg0","pricing_plan_id":"cebpf4jnsgd1na2vs0mg"},{"bike_id":"4e160ad2-c4fd-4f58-9d72-22be1de89ad3","system_id":"levelo_inurba_marseille","lat":43.30096,"lon":5.39084,"is_reserved":false,"is_disabled":false,"rental_uris":{"android":"levelo://app?vid=4e160ad2-c4fd-4f58-9d72-22be1de89ad3","ios":"levelo://app?vid=4e160ad2-c4fd-4f58-9d72-22be1de89ad3"},"vehicle_type_id":"4","last_reported":1769325249,"current_range_meters":7200,"station_id":"ce4bh192rcd13ifvqdb0","pricing_plan_id":"cebpf4jnsgd1na2vs0mg"},{"bike_id":"a0c33308-b90a-484c-a006-c19b20a52375","system_id":"levelo_inurba_marseille","lat":43.26165,"lon":5.40538,"is_reserved":false,"is_disabled":false,"rental_uris":{"android":"levelo://app?vid=a0c33308-b90a-484c-a006-c19b20a52375","ios":"levelo://app?vid=a0c33308-b90a-484c-a006-c19b20a52375"},"vehicle_type_id":"4","last_reported":1769325249,"current_range_meters":7200,"station_id":"","pricing_plan_id":"cebpf4jnsgd1na2vs0mg"},{"bike_id":"e336a442-3795-46b7-b3aa-60feff443ec2","system_id":"levelo_inurba_marseille","lat":43.25111,"lon":5.40326,"is_reserved":false,"is_disabled":true,"rental_uris":{"android":"levelo://app?vid=e336a442-3795-46b7-b3aa-60feff443ec2","ios":"levelo://app?vid=e336a442-3795-46b7-b3aa-60feff443ec2"},"vehicle_type_id":"4","last_reported":1769325249,"current_range_meters":7200,"station_id":"ce4bhlh2rcd13ifvqgig","pricing_plan_id":"cebpf4jnsgd1na2vs0mg"},{"bike_id":"e8cede09-25d9-464a-9863-7fcad8ebfe34","system_id":"levelo_inurba_marseille","lat":43.29933,"lon":5.36522,"is_reserved":false,"is_disabled":false,"rental_uris":{"android":"levelo://app?vid=e8cede09-25d9-464a-9863-7fcad8ebfe34","ios":"levelo://app?vid=e8cede09-25d9-464a-9863-7fcad8ebfe34"},"vehicle_type_id":"4","last_reported":1769325249,"current_range_meters":7200,"station_id":"ce4bgm92rcd13ifvqbr0","pricing_plan_id":"cebpf4jnsgd1na2vs0mg"},{"bike_id":"5651930a-8620-414e-b0ee-78926458dd69","system_id":"levelo_inurba_marseille","lat":43.33017,"lon":5.3905,"is_reserved":false,"is_disabled":false,"rental_uris":{"android":"levelo://app?vid=5651930a-8620-414e-b0ee-78926458dd69","ios":"levelo://app?vid=5651930a-8620-414e-b0ee-78926458dd69"},"vehicle_type_id":"4","last_reported":1769325249,"current_range_meters":7200,"station_id":"ce4bhr92rcd13ifvqhrg","pricing_plan_id":"cebpf4jnsgd1na2vs0mg"},{"bike_id":"dd369fb3-6a29-4c8b-9c32-c4dbeada70f4","system_id":"levelo_inurba_marseille","lat":43.22556,"lon":5.41632,"is_reserved":false,"is_disabled":false,"rental_uris":{"android":"levelo://app?vid=dd369fb3-6a29-4c8b-9c32-c4dbeada70f4","ios":"levelo://app?vid=dd369fb3-6a29-4c8b-9c32-c4dbeada70f4"},"vehicle_type_id":"4","last_reported":1769325249,"current_range_meters":7200,"station_id":"st_d2o4gvlbi1j2169b742g","pricing_plan_id":"cebpf4jnsgd1na2vs0mg"},{"bike_id":"b9917ecd-02a8-40e9-a0d0-4758759eb040","system_id":"levelo_inurba_marseille","lat":43.24557,"lon":5.37348,"is_reserved":false,"is_disabled":false,"rental_uris":{"android":"levelo://app?vid=b9917ecd-02a8-40e9-a0d0-4758759eb040","ios":"levelo://app?vid=b9917ecd-02a8-40e9-a0d0-4758759eb040"},"vehicle_type_id":"4","last_reported":1769325249,"current_range_meters":7200,"station_id":"","pricing_plan_id":"cebpf4jnsgd1na2vs0mg"},{"bike_id":"71da8860-67fd-467d-ab47-bcfee6c132db","system_id":"levelo_inurba_marseille","lat":43.27372,"lon":5.36265,"is_reserved":false,"is_disabled":false,"rental_uris":{"android":"levelo://app?vid=71da8860-67fd-467d-ab47-bcfee6c132db","ios":"levelo://app?vid=71da8860-67fd-467d-ab47-bcfee6c132db"},"vehicle_type_id":"4","last_reported":1769325249,"current_range_meters":7200,"station_id":"ce4bhbh2rcd13ifvqeo0","pricing_plan_id":"cebpf4jnsgd1na2vs0mg"},{"bike_id":"07e64c0a-8153-47c6-83e2-2e049e2bc39b","system_id":"levelo_inurba_marseille","lat":43.319877,"lon":5.381547,"is_reserved":false,"is_disabled":false,"rental_uris":{"android":"levelo://app?vid=07e64c0a-8153-47c6-83e2-2e049e2bc39b","ios":"levelo://app?vid=07e64c0a-8153-47c6-83e2-2e049e2bc39b"},"vehicle_type_id":"4","last_reported":1769325249,"current_range_meters":7200,"station_id":"ce4bhr12rcd13ifvqhpg","pricing_plan_id":"cebpf4jnsgd1na2vs0mg"},{"bike_id":"43ace758-19e2-45f5-81d3-4d0e67cb2c4e","system_id":"levelo_inurba_marseille","lat":43.23784,"lon":5.36634,"is_reserved":false,"is_disabled":false,"rental_uris":{"android":"levelo://app?vid=43ace758-19e2-45f5-81d3-4d0e67cb2c4e","ios":"levelo://app?vid=43ace758-19e2-45f5-81d3-4d0e67cb2c4e"},"vehicle_type_id":"4","last_reported":1769325249,"current_range_meters":7200,"station_id":"st_d3nk18o9ro0c73en2l3g","pricing_plan_id":"cebpf4jnsgd1na2vs0mg"},{"bike_id":"b63362d9-5612-4ee2-9f31-83089fb30059","system_id":"levelo_inurba_marseille","lat":43.29974,"lon":5.37196,"is_reserved":false,"is_disabled":false,"rental_uris":{"android":"levelo://app?vid=b63362d9-5612-4ee2-9f31-83089fb30059","ios":"levelo://app?vid=b63362d9-5612-4ee2-9f31-83089fb30059"},"vehicle_type_id":"4","last_reported":1769325249,"current_range_meters":7200,"station_id":"ce4bgr92rcd13ifvqc7g","pricing_plan_id":"cebpf4jnsgd1na2vs0mg"},{"bike_id":"acb7cfb5-c429-4bdf-a8aa-c19c7a57d3cf","system_id":"levelo_inurba_marseille","lat":43.23152,"lon":5.4372,"is_reserved":false,"is_disabled":false,"rental_uris":{"android":"levelo://app?vid=acb7cfb5-c429-4bdf-a8aa-c19c7a57d3cf","ios":"levelo://app?vid=acb7cfb5-c429-4bdf-a8aa-c19c7a57d3cf"},"vehicle_type_id":"4","last_reported":1769325249,"current_range_meters":7200,"station_id":"ce4bhmp2rcd13ifvqgog","pricing_plan_id":"cebpf4jnsgd1na2vs0mg"},{"bike_id":"a646072a-fa73-4383-afeb-7969ad030c56","system_id":"levelo_inurba_marseille","lat":43.30147,"lon":5.38097,"is_reserved":false,"is_disabled":true,"rental_uris":{"android":"levelo://app?vid=a646072a-fa73-4383-afeb-7969ad030c56","ios":"levelo://app?vid=a646072a-fa73-4383-afeb-7969ad030c56"},"vehicle_type_id":"4","last_reported":1769325249,"current_range_meters":8000,"station_id":"ce4bgjp2rcd13ifvqbh0","pricing_plan_id":"cebpf4jnsgd1na2vs0mg"},{"bike_id":"912fe4a2-57c3-42ed-a356-1c2317e45cd9","system_id":"levelo_inurba_marseille","lat":43.24184,"lon":5.39713,"is_reserved":false,"is_disabled":false,"rental_uris":{"android":"levelo://app?vid=912fe4a2-57c3-42ed-a356-1c2317e45cd9","ios":"levelo://app?vid=912fe4a2-57c3-42ed-a356-1c2317e45cd9"},"vehicle_type_id":"4","last_reported":1769325249,"current_range_meters":8000,"station_id":"ce4bhn12rcd13ifvqgpg","pricing_plan_id":"cebpf4jnsgd1na2vs0mg"},{"bike_id":"50032767-8484-4cbc-98a8-809f5b4fe8e9","system_id":"levelo_inurba_marseille","lat":43.288654,"lon":5.42512,"is_reserved":false,"is_disabled":false,"rental_uris":{"android":"levelo://app?vid=50032767-8484-4cbc-98a8-809f5b4fe8e9","ios":"levelo://app?vid=50032767-8484-4cbc-98a8-809f5b4fe8e9"},"vehicle_type_id":"4","last_reported":1769325249,"current_range_meters":8000,"station_id":"st_d3b462108ojc7389ooeg","pricing_plan_id":"cebpf4jnsgd1na2vs0mg"},{"bike_id":"a0465d4f-9ced-4178-ad4c-29e5c29e87ff","system_id":"levelo_inurba_marseille","lat":43.2848,"lon":5.484,"is_reserved":false,"is_disabled":false,"rental_uris":{"android":"levelo://app?vid=a0465d4f-9ced-4178-ad4c-29e5c29e87ff","ios":"levelo://app?vid=a0465d4f-9ced-4178-ad4c-29e5c29e87ff"},"vehicle_type_id":"4","last_reported":1769325249,"current_range_meters":8000,"station_id":"","pricing_plan_id":"cebpf4jnsgd1na2vs0mg"},{"bike_id":"3acd5e62-3c65-4415-bcb0-7f611786b59c","system_id":"levelo_inurba_marseille","lat":43.27379,"lon":5.36258,"is_reserved":false,"is_disabled":false,"rental_uris":{"android":"levelo://app?vid=3acd5e62-3c65-4415-bcb0-7f611786b59c","ios":"levelo://app?vid=3acd5e62-3c65-4415-bcb0-7f611786b59c"},"vehicle_type_id":"4","last_reported":1769325249,"current_range_meters":8000,"station_id":"ce4bhbh2rcd13ifvqeo0","pricing_plan_id":"cebpf4jnsgd1na2vs0mg"},{"bike_id":"cefc0408-08b4-45e0-8592-a44786197f49","system_id":"levelo_inurba_marseille","lat":43.22572,"lon":5.41644,"is_reserved":false,"is_disabled":false,"rental_uris":{"android":"levelo://app?vid=cefc0408-08b4-45e0-8592-a44786197f49","ios":"levelo://app?vid=cefc0408-08b4-45e0-8592-a44786197f49"},"vehicle_type_id":"4","last_reported":1769325249,"current_range_meters":8000,"station_id":"st_d2o4gvlbi1j2169b742g","pricing_plan_id":"cebpf4jnsgd1na2vs0mg"},{"bike_id":"beaf6404-9429-46bc-9deb-19ea94aebd8a","system_id":"levelo_inurba_marseille","lat":43.2637,"lon":5.41068,"is_reserved":false,"is_disabled":false,"rental_uris":{"android":"levelo://app?vid=beaf6404-9429-46bc-9deb-19ea94aebd8a","ios":"levelo://app?vid=beaf6404-9429-46bc-9deb-19ea94aebd8a"},"vehicle_type_id":"4","last_reported":1769325249,"current_range_meters":8000,"station_id":"st_d4e5ca6na9uc73bfl5fg","pricing_plan_id":"cebpf4jnsgd1na2vs0mg"},{"bike_id":"bb434b23-fa4c-498b-ba49-c6fe913d47d5","system_id":"levelo_inurba_marseille","lat":43.29915,"lon":5.37471,"is_reserved":false,"is_disabled":false,"rental_uris":{"android":"levelo://app?vid=bb434b23-fa4c-498b-ba49-c6fe913d47d5","ios":"levelo://app?vid=bb434b23-fa4c-498b-ba49-c6fe913d47d5"},"vehicle_type_id":"4","last_reported":1769325249,"current_range_meters":8000,"station_id":"ce4bgjh2rcd13ifvqbg0","pricing_plan_id":"cebpf4jnsgd1na2vs0mg"},{"bike_id":"de5dd849-e4b4-4886-8230-06f684e730a5","system_id":"levelo_inurba_marseille","lat":43.24163,"lon":5.39729,"is_reserved":false,"is_disabled":false,"rental_uris":{"android":"levelo://app?vid=de5dd849-e4b4-4886-8230-06f684e730a5","ios":"levelo://app?vid=de5dd849-e4b4-4886-8230-06f684e730a5"},"vehicle_type_id":"4","last_reported":1769325249,"current_range_meters":8000,"station_id":"ce4bhn12rcd13ifvqgpg","pricing_plan_id":"cebpf4jnsgd1na2vs0mg"},{"bike_id":"4aade3c0-5e93-41cd-864f-289395d6e581","system_id":"levelo_inurba_marseille","lat":43.31178,"lon":5.3872,"is_reserved":false,"is_disabled":false,"rental_uris":{"android":"levelo://app?vid=4aade3c0-5e93-41cd-864f-289395d6e581","ios":"levelo://app?vid=4aade3c0-5e93-41cd-864f-289395d6e581"},"vehicle_type_id":"4","last_reported":1769325249,"current_range_meters":8000,"station_id":"ce4bgv12rcd13ifvqcp0","pricing_plan_id":"cebpf4jnsgd1na2vs0mg"},{"bike_id":"abc3a781-f3d6-481a-9f61-a5b4b605dfec","system_id":"levelo_inurba_marseille","lat":43.323675,"lon":5.367413,"is_reserved":false,"is_disabled":false,"rental_uris":{"android":"levelo://app?vid=abc3a781-f3d6-481a-9f61-a5b4b605dfec","ios":"levelo://app?vid=abc3a781-f3d6-481a-9f61-a5b4b605dfec"},"vehicle_type_id":"4","last_reported":1769325249,"current_range_meters":8000,"station_id":"ce4bhsh2rcd13ifvqi2g","pricing_plan_id":"cebpf4jnsgd1na2vs0mg"},{"bike_id":"c1eb6e5d-e603-4baf-9e1a-9451b46aa176","system_id":"levelo_inurba_marseille","lat":43.29931,"lon":5.36517,"is_reserved":false,"is_disabled":false,"rental_uris":{"android":"levelo://app?vid=c1eb6e5d-e603-4baf-9e1a-9451b46aa176","ios":"levelo://app?vid=c1eb6e5d-e603-4baf-9e1a-9451b46aa176"},"vehicle_type_id":"4","last_reported":1769325249,"current_range_meters":8000,"station_id":"ce4bgm92rcd13ifvqbr0","pricing_plan_id":"cebpf4jnsgd1na2vs0mg"},{"bike_id":"10d9e279-fe7a-471e-97ab-fc14b4dd07f8","system_id":"levelo_inurba_marseille","lat":43.26547,"lon":5.37311,"is_reserved":false,"is_disabled":false,"rental_uris":{"android":"levelo://app?vid=10d9e279-fe7a-471e-97ab-fc14b4dd07f8","ios":"levelo://app?vid=10d9e279-fe7a-471e-97ab-fc14b4dd07f8"},"vehicle_type_id":"4","last_reported":1769325249,"current_range_meters":8000,"station_id":"ce4bhg12rcd13ifvqf70","pricing_plan_id":"cebpf4jnsgd1na2vs0mg"},{"bike_id":"5fa896a8-aba8-4143-b23e-82d35adec35e","system_id":"levelo_inurba_marseille","lat":43.265564,"lon":5.372869,"is_reserved":false,"is_disabled":false,"rental_uris":{"android":"levelo://app?vid=5fa896a8-aba8-4143-b23e-82d35adec35e","ios":"levelo://app?vid=5fa896a8-aba8-4143-b23e-82d35adec35e"},"vehicle_type_id":"4","last_reported":1769325249,"current_range_meters":8000,"station_id":"ce4bhg12rcd13ifvqf70","pricing_plan_id":"cebpf4jnsgd1na2vs0mg"},{"bike_id":"2dcd0cb2-2a98-4c11-89ae-b2a8fc35ad5b","system_id":"levelo_inurba_marseille","lat":43.25106,"lon":5.40328,"is_reserved":false,"is_disabled":false,"rental_uris":{"android":"levelo://app?vid=2dcd0cb2-2a98-4c11-89ae-b2a8fc35ad5b","ios":"levelo://app?vid=2dcd0cb2-2a98-4c11-89ae-b2a8fc35ad5b"},"vehicle_type_id":"4","last_reported":1769325249,"current_range_meters":8000,"station_id":"ce4bhlh2rcd13ifvqgig","pricing_plan_id":"cebpf4jnsgd1na2vs0mg"},{"bike_id":"95266e8a-3296-46f7-90e2-c93290e8fd20","system_id":"levelo_inurba_marseille","lat":43.24941,"lon":5.40514,"is_reserved":false,"is_disabled":false,"rental_uris":{"android":"levelo://app?vid=95266e8a-3296-46f7-90e2-c93290e8fd20","ios":"levelo://app?vid=95266e8a-3296-46f7-90e2-c93290e8fd20"},"vehicle_type_id":"4","last_reported":1769325249,"current_range_meters":8000,"station_id":"st_d2ngiaodas8pm72gd1h0","pricing_plan_id":"cebpf4jnsgd1na2vs0mg"},{"bike_id":"5dfc7d33-8364-45f9-863b-4d733de72506","system_id":"levelo_inurba_marseille","lat":43.30213,"lon":5.36613,"is_reserved":false,"is_disabled":false,"rental_uris":{"android":"levelo://app?vid=5dfc7d33-8364-45f9-863b-4d733de72506","ios":"levelo://app?vid=5dfc7d33-8364-45f9-863b-4d733de72506"},"vehicle_type_id":"4","last_reported":1769325249,"current_range_meters":8000,"station_id":"ce4bgrh2rcd13ifvqc8g","pricing_plan_id":"cebpf4jnsgd1na2vs0mg"},{"bike_id":"2183c868-18bc-43ee-94a6-b4cdb3d84f43","system_id":"levelo_inurba_marseille","lat":43.2902,"lon":5.38159,"is_reserved":false,"is_disabled":true,"rental_uris":{"android":"levelo://app?vid=2183c868-18bc-43ee-94a6-b4cdb3d84f43","ios":"levelo://app?vid=2183c868-18bc-43ee-94a6-b4cdb3d84f43"},"vehicle_type_id":"4","last_reported":1769325249,"current_range_meters":8000,"station_id":"ce4bh4p2rcd13ifvqe1g","pricing_plan_id":"cebpf4jnsgd1na2vs0mg"},{"bike_id":"8d270819-adc1-49e1-abc4-b636cf1a9812","system_id":"levelo_inurba_marseille","lat":43.30531,"lon":5.36657,"is_reserved":false,"is_disabled":false,"rental_uris":{"android":"levelo://app?vid=8d270819-adc1-49e1-abc4-b636cf1a9812","ios":"levelo://app?vid=8d270819-adc1-49e1-abc4-b636cf1a9812"},"vehicle_type_id":"4","last_reported":1769325249,"current_range_meters":8000,"station_id":"","pricing_plan_id":"cebpf4jnsgd1na2vs0mg"},{"bike_id":"67a80a29-3730-47f9-a49d-4110e1150c8d","system_id":"levelo_inurba_marseille","lat":43.25075,"lon":5.40336,"is_reserved":false,"is_disabled":false,"rental_uris":{"android":"levelo://app?vid=67a80a29-3730-47f9-a49d-4110e1150c8d","ios":"levelo://app?vid=67a80a29-3730-47f9-a49d-4110e1150c8d"},"vehicle_type_id":"4","last_reported":1769325249,"current_range_meters":8000,"station_id":"ce4bhlh2rcd13ifvqgig","pricing_plan_id":"cebpf4jnsgd1na2vs0mg"},{"bike_id":"965df6b7-673a-4e5d-9ee5-eda9741e28cb","system_id":"levelo_inurba_marseille","lat":43.30319,"lon":5.36898,"is_reserved":false,"is_disabled":false,"rental_uris":{"android":"levelo://app?vid=965df6b7-673a-4e5d-9ee5-eda9741e28cb","ios":"levelo://app?vid=965df6b7-673a-4e5d-9ee5-eda9741e28cb"},"vehicle_type_id":"4","last_reported":1769325249,"current_range_meters":8400,"station_id":"ce4bgqh2rcd13ifvqc5g","pricing_plan_id":"cebpf4jnsgd1na2vs0mg"},{"bike_id":"47da79bf-7b3a-42ef-a40c-f853cf618049","system_id":"levelo_inurba_marseille","lat":43.26563,"lon":5.39013,"is_reserved":false,"is_disabled":false,"rental_uris":{"android":"levelo://app?vid=47da79bf-7b3a-42ef-a40c-f853cf618049","ios":"levelo://app?vid=47da79bf-7b3a-42ef-a40c-f853cf618049"},"vehicle_type_id":"4","last_reported":1769325249,"current_range_meters":8400,"station_id":"ce4bhe12rcd13ifvqf30","pricing_plan_id":"cebpf4jnsgd1na2vs0mg"},{"bike_id":"77a8d6f7-8520-4e5a-a0e7-89573d4a6a77","system_id":"levelo_inurba_marseille","lat":43.23775,"lon":5.36627,"is_reserved":false,"is_disabled":false,"rental_uris":{"android":"levelo://app?vid=77a8d6f7-8520-4e5a-a0e7-89573d4a6a77","ios":"levelo://app?vid=77a8d6f7-8520-4e5a-a0e7-89573d4a6a77"},"vehicle_type_id":"4","last_reported":1769325249,"current_range_meters":8400,"station_id":"st_d3nk18o9ro0c73en2l3g","pricing_plan_id":"cebpf4jnsgd1na2vs0mg"},{"bike_id":"a8c7adad-ae27-467b-936e-e5e482408cf3","system_id":"levelo_inurba_marseille","lat":43.3104,"lon":5.39358,"is_reserved":false,"is_disabled":false,"rental_uris":{"android":"levelo://app?vid=a8c7adad-ae27-467b-936e-e5e482408cf3","ios":"levelo://app?vid=a8c7adad-ae27-467b-936e-e5e482408cf3"},"vehicle_type_id":"4","last_reported":1769325249,"current_range_meters":8400,"station_id":"","pricing_plan_id":"cebpf4jnsgd1na2vs0mg"},{"bike_id":"319f4b05-a9ea-4127-8848-97f8af2b1b34","system_id":"levelo_inurba_marseille","lat":43.3107,"lon":5.38359,"is_reserved":false,"is_disabled":false,"rental_uris":{"android":"levelo://app?vid=319f4b05-a9ea-4127-8848-97f8af2b1b34","ios":"levelo://app?vid=319f4b05-a9ea-4127-8848-97f8af2b1b34"},"vehicle_type_id":"4","last_reported":1769325249,"current_range_meters":8400,"station_id":"ce4bgv92rcd13ifvqcr0","pricing_plan_id":"cebpf4jnsgd1na2vs0mg"},{"bike_id":"2dfa7e03-78b3-4522-8f54-3c70061ea8cf","system_id":"levelo_inurba_marseille","lat":43.27372,"lon":5.36253,"is_reserved":false,"is_disabled":false,"rental_uris":{"android":"levelo://app?vid=2dfa7e03-78b3-4522-8f54-3c70061ea8cf","ios":"levelo://app?vid=2dfa7e03-78b3-4522-8f54-3c70061ea8cf"},"vehicle_type_id":"4","last_reported":1769325249,"current_range_meters":8400,"station_id":"ce4bhbh2rcd13ifvqeo0","pricing_plan_id":"cebpf4jnsgd1na2vs0mg"},{"bike_id":"5cfd7260-21a3-4346-b554-3744fc7c6072","system_id":"levelo_inurba_marseille","lat":43.29549,"lon":5.42256,"is_reserved":false,"is_disabled":false,"rental_uris":{"android":"levelo://app?vid=5cfd7260-21a3-4346-b554-3744fc7c6072","ios":"levelo://app?vid=5cfd7260-21a3-4346-b554-3744fc7c6072"},"vehicle_type_id":"4","last_reported":1769325249,"current_range_meters":8400,"station_id":"ce4bhph2rcd13ifvqhdg","pricing_plan_id":"cebpf4jnsgd1na2vs0mg"},{"bike_id":"c1aeaa10-dc7f-4501-b461-bb241314d426","system_id":"levelo_inurba_marseille","lat":43.23187,"lon":5.35554,"is_reserved":false,"is_disabled":false,"rental_uris":{"android":"levelo://app?vid=c1aeaa10-dc7f-4501-b461-bb241314d426","ios":"levelo://app?vid=c1aeaa10-dc7f-4501-b461-bb241314d426"},"vehicle_type_id":"4","last_reported":1769325249,"current_range_meters":8400,"station_id":"ce4bhu92rcd13ifvqi70","pricing_plan_id":"cebpf4jnsgd1na2vs0mg"},{"bike_id":"950a8f36-d1b1-436f-add6-cb84224c54a7","system_id":"levelo_inurba_marseille","lat":43.25862,"lon":5.39912,"is_reserved":false,"is_disabled":false,"rental_uris":{"android":"levelo://app?vid=950a8f36-d1b1-436f-add6-cb84224c54a7","ios":"levelo://app?vid=950a8f36-d1b1-436f-add6-cb84224c54a7"},"vehicle_type_id":"4","last_reported":1769325249,"current_range_meters":8400,"station_id":"ce4bhl92rcd13ifvqghg","pricing_plan_id":"cebpf4jnsgd1na2vs0mg"},{"bike_id":"0c16fd9f-27e4-4df5-a3f5-66328c64053c","system_id":"levelo_inurba_marseille","lat":43.29915,"lon":5.37451,"is_reserved":false,"is_disabled":false,"rental_uris":{"android":"levelo://app?vid=0c16fd9f-27e4-4df5-a3f5-66328c64053c","ios":"levelo://app?vid=0c16fd9f-27e4-4df5-a3f5-66328c64053c"},"vehicle_type_id":"4","last_reported":1769325249,"current_range_meters":8400,"station_id":"ce4bgjh2rcd13ifvqbg0","pricing_plan_id":"cebpf4jnsgd1na2vs0mg"},{"bike_id":"911f0371-0df0-45e8-a323-aedfe8ac7407","system_id":"levelo_inurba_marseille","lat":43.33162,"lon":5.37674,"is_reserved":false,"is_disabled":false,"rental_uris":{"android":"levelo://app?vid=911f0371-0df0-45e8-a323-aedfe8ac7407","ios":"levelo://app?vid=911f0371-0df0-45e8-a323-aedfe8ac7407"},"vehicle_type_id":"4","last_reported":1769325249,"current_range_meters":8400,"station_id":"st_d46cu089ee8s73dldbu0","pricing_plan_id":"cebpf4jnsgd1na2vs0mg"},{"bike_id":"9313abb2-b4dd-4478-8ad1-082ec047c3ed","system_id":"levelo_inurba_marseille","lat":43.26557,"lon":5.37286,"is_reserved":false,"is_disabled":false,"rental_uris":{"android":"levelo://app?vid=9313abb2-b4dd-4478-8ad1-082ec047c3ed","ios":"levelo://app?vid=9313abb2-b4dd-4478-8ad1-082ec047c3ed"},"vehicle_type_id":"4","last_reported":1769325249,"current_range_meters":8400,"station_id":"ce4bhg12rcd13ifvqf70","pricing_plan_id":"cebpf4jnsgd1na2vs0mg"},{"bike_id":"0c11bc30-1254-4e35-b530-31f7fd6a4b39","system_id":"levelo_inurba_marseille","lat":43.300149,"lon":5.373481,"is_reserved":false,"is_disabled":false,"rental_uris":{"android":"levelo://app?vid=0c11bc30-1254-4e35-b530-31f7fd6a4b39","ios":"levelo://app?vid=0c11bc30-1254-4e35-b530-31f7fd6a4b39"},"vehicle_type_id":"4","last_reported":1769325249,"current_range_meters":8400,"station_id":"","pricing_plan_id":"cebpf4jnsgd1na2vs0mg"},{"bike_id":"6c29796b-91a7-4fca-91ba-1f981077ace9","system_id":"levelo_inurba_marseille","lat":43.23142,"lon":5.43704,"is_reserved":false,"is_disabled":false,"rental_uris":{"android":"levelo://app?vid=6c29796b-91a7-4fca-91ba-1f981077ace9","ios":"levelo://app?vid=6c29796b-91a7-4fca-91ba-1f981077ace9"},"vehicle_type_id":"4","last_reported":1769325249,"current_range_meters":8400,"station_id":"ce4bhmp2rcd13ifvqgog","pricing_plan_id":"cebpf4jnsgd1na2vs0mg"},{"bike_id":"063be55f-ee8b-4181-957b-bc66dd6cdafe","system_id":"levelo_inurba_marseille","lat":43.29478,"lon":5.43337,"is_reserved":false,"is_disabled":false,"rental_uris":{"android":"levelo://app?vid=063be55f-ee8b-4181-957b-bc66dd6cdafe","ios":"levelo://app?vid=063be55f-ee8b-4181-957b-bc66dd6cdafe"},"vehicle_type_id":"4","last_reported":1769325249,"current_range_meters":8400,"station_id":"st_d3j5ugp08ojc73fj9d10","pricing_plan_id":"cebpf4jnsgd1na2vs0mg"},{"bike_id":"95417798-5f36-438a-b9a6-6ef0e27ffba5","system_id":"levelo_inurba_marseille","lat":43.25116,"lon":5.3947,"is_reserved":false,"is_disabled":false,"rental_uris":{"android":"levelo://app?vid=95417798-5f36-438a-b9a6-6ef0e27ffba5","ios":"levelo://app?vid=95417798-5f36-438a-b9a6-6ef0e27ffba5"},"vehicle_type_id":"4","last_reported":1769325249,"current_range_meters":8400,"station_id":"ce4bhm12rcd13ifvqgkg","pricing_plan_id":"cebpf4jnsgd1na2vs0mg"},{"bike_id":"7e036456-a386-4efb-94df-0183fba99584","system_id":"levelo_inurba_marseille","lat":43.24664,"lon":5.38158,"is_reserved":false,"is_disabled":false,"rental_uris":{"android":"levelo://app?vid=7e036456-a386-4efb-94df-0183fba99584","ios":"levelo://app?vid=7e036456-a386-4efb-94df-0183fba99584"},"vehicle_type_id":"4","last_reported":1769325249,"current_range_meters":8400,"station_id":"ce4bhih2rcd13ifvqfr0","pricing_plan_id":"cebpf4jnsgd1na2vs0mg"},{"bike_id":"cc77ab8d-f6fe-4e5f-b2b5-a4170aed5189","system_id":"levelo_inurba_marseille","lat":43.24963,"lon":5.40478,"is_reserved":false,"is_disabled":false,"rental_uris":{"android":"levelo://app?vid=cc77ab8d-f6fe-4e5f-b2b5-a4170aed5189","ios":"levelo://app?vid=cc77ab8d-f6fe-4e5f-b2b5-a4170aed5189"},"vehicle_type_id":"4","last_reported":1769325249,"current_range_meters":8400,"station_id":"st_d2ngiaodas8pm72gd1h0","pricing_plan_id":"cebpf4jnsgd1na2vs0mg"},{"bike_id":"f4d5846c-646c-4d8e-923f-075604db61e5","system_id":"levelo_inurba_marseille","lat":43.24657,"lon":5.38164,"is_reserved":false,"is_disabled":false,"rental_uris":{"android":"levelo://app?vid=f4d5846c-646c-4d8e-923f-075604db61e5","ios":"levelo://app?vid=f4d5846c-646c-4d8e-923f-075604db61e5"},"vehicle_type_id":"4","last_reported":1769325249,"current_range_meters":8400,"station_id":"ce4bhih2rcd13ifvqfr0","pricing_plan_id":"cebpf4jnsgd1na2vs0mg"},{"bike_id":"bb798061-5acc-4c66-8868-c9dcada99f64","system_id":"levelo_inurba_marseille","lat":43.29627,"lon":5.37738,"is_reserved":false,"is_disabled":false,"rental_uris":{"android":"levelo://app?vid=bb798061-5acc-4c66-8868-c9dcada99f64","ios":"levelo://app?vid=bb798061-5acc-4c66-8868-c9dcada99f64"},"vehicle_type_id":"4","last_reported":1769325249,"current_range_meters":8400,"station_id":"ce4bgi92rcd13ifvqb90","pricing_plan_id":"cebpf4jnsgd1na2vs0mg"},{"bike_id":"99bc9e46-2a2d-4354-b606-97e38b1b91d7","system_id":"levelo_inurba_marseille","lat":43.23937,"lon":5.37575,"is_reserved":false,"is_disabled":false,"rental_uris":{"android":"levelo://app?vid=99bc9e46-2a2d-4354-b606-97e38b1b91d7","ios":"levelo://app?vid=99bc9e46-2a2d-4354-b606-97e38b1b91d7"},"vehicle_type_id":"4","last_reported":1769325249,"current_range_meters":8400,"station_id":"","pricing_plan_id":"cebpf4jnsgd1na2vs0mg"},{"bike_id":"0de5032e-148a-468e-969e-fb644458ceae","system_id":"levelo_inurba_marseille","lat":43.2509,"lon":5.404641,"is_reserved":false,"is_disabled":false,"rental_uris":{"android":"levelo://app?vid=0de5032e-148a-468e-969e-fb644458ceae","ios":"levelo://app?vid=0de5032e-148a-468e-969e-fb644458ceae"},"vehicle_type_id":"4","last_reported":1769325249,"current_range_meters":8800,"station_id":"","pricing_plan_id":"cebpf4jnsgd1na2vs0mg"},{"bike_id":"de6516f2-4721-4f5c-a175-d199fc08e695","system_id":"levelo_inurba_marseille","lat":43.23184,"lon":5.39992,"is_reserved":false,"is_disabled":false,"rental_uris":{"android":"levelo://app?vid=de6516f2-4721-4f5c-a175-d199fc08e695","ios":"levelo://app?vid=de6516f2-4721-4f5c-a175-d199fc08e695"},"vehicle_type_id":"4","last_reported":1769325249,"current_range_meters":8800,"station_id":"ce4bhn12rcd13ifvqgqg","pricing_plan_id":"cebpf4jnsgd1na2vs0mg"},{"bike_id":"bfad4fe9-de3e-43c4-a41e-9324488c84ff","system_id":"levelo_inurba_marseille","lat":43.24809,"lon":5.40124,"is_reserved":false,"is_disabled":false,"rental_uris":{"android":"levelo://app?vid=bfad4fe9-de3e-43c4-a41e-9324488c84ff","ios":"levelo://app?vid=bfad4fe9-de3e-43c4-a41e-9324488c84ff"},"vehicle_type_id":"4","last_reported":1769325249,"current_range_meters":8800,"station_id":"","pricing_plan_id":"cebpf4jnsgd1na2vs0mg"},{"bike_id":"b075d711-d93d-4120-85f9-64fa0a4a9a99","system_id":"levelo_inurba_marseille","lat":43.22576,"lon":5.4165,"is_reserved":false,"is_disabled":false,"rental_uris":{"android":"levelo://app?vid=b075d711-d93d-4120-85f9-64fa0a4a9a99","ios":"levelo://app?vid=b075d711-d93d-4120-85f9-64fa0a4a9a99"},"vehicle_type_id":"4","last_reported":1769325249,"current_range_meters":8800,"station_id":"st_d2o4gvlbi1j2169b742g","pricing_plan_id":"cebpf4jnsgd1na2vs0mg"},{"bike_id":"d512fef5-ce43-46a9-86ce-62a27a53deec","system_id":"levelo_inurba_marseille","lat":43.23782,"lon":5.36626,"is_reserved":false,"is_disabled":false,"rental_uris":{"android":"levelo://app?vid=d512fef5-ce43-46a9-86ce-62a27a53deec","ios":"levelo://app?vid=d512fef5-ce43-46a9-86ce-62a27a53deec"},"vehicle_type_id":"4","last_reported":1769325249,"current_range_meters":8800,"station_id":"st_d3nk18o9ro0c73en2l3g","pricing_plan_id":"cebpf4jnsgd1na2vs0mg"},{"bike_id":"ea53cb96-b018-4a32-8207-3b5118a7a50d","system_id":"levelo_inurba_marseille","lat":43.32106,"lon":5.36758,"is_reserved":false,"is_disabled":false,"rental_uris":{"android":"levelo://app?vid=ea53cb96-b018-4a32-8207-3b5118a7a50d","ios":"levelo://app?vid=ea53cb96-b018-4a32-8207-3b5118a7a50d"},"vehicle_type_id":"4","last_reported":1769325249,"current_range_meters":8800,"station_id":"ce4bhrh2rcd13ifvqhug","pricing_plan_id":"cebpf4jnsgd1na2vs0mg"},{"bike_id":"23f0f261-d498-485a-bbd0-db8e64ea6d4e","system_id":"levelo_inurba_marseille","lat":43.28678,"lon":5.39993,"is_reserved":false,"is_disabled":false,"rental_uris":{"android":"levelo://app?vid=23f0f261-d498-485a-bbd0-db8e64ea6d4e","ios":"levelo://app?vid=23f0f261-d498-485a-bbd0-db8e64ea6d4e"},"vehicle_type_id":"4","last_reported":1769325249,"current_range_meters":8800,"station_id":"ce4bho92rcd13ifvqh3g","pricing_plan_id":"cebpf4jnsgd1na2vs0mg"},{"bike_id":"9536a92a-01ab-4017-8488-26a8fa6880af","system_id":"levelo_inurba_marseille","lat":43.25937,"lon":5.40913,"is_reserved":false,"is_disabled":false,"rental_uris":{"android":"levelo://app?vid=9536a92a-01ab-4017-8488-26a8fa6880af","ios":"levelo://app?vid=9536a92a-01ab-4017-8488-26a8fa6880af"},"vehicle_type_id":"4","last_reported":1769325249,"current_range_meters":8800,"station_id":"ce4bhm92rcd13ifvqglg","pricing_plan_id":"cebpf4jnsgd1na2vs0mg"},{"bike_id":"72d7f4f5-0aa5-449c-bf27-0cd0ef406267","system_id":"levelo_inurba_marseille","lat":43.26368,"lon":5.41082,"is_reserved":false,"is_disabled":false,"rental_uris":{"android":"levelo://app?vid=72d7f4f5-0aa5-449c-bf27-0cd0ef406267","ios":"levelo://app?vid=72d7f4f5-0aa5-449c-bf27-0cd0ef406267"},"vehicle_type_id":"4","last_reported":1769325249,"current_range_meters":8800,"station_id":"st_d4e5ca6na9uc73bfl5fg","pricing_plan_id":"cebpf4jnsgd1na2vs0mg"},{"bike_id":"876ac817-c1de-4d59-a160-e12114ae46c0","system_id":"levelo_inurba_marseille","lat":43.31362,"lon":5.36746,"is_reserved":false,"is_disabled":false,"rental_uris":{"android":"levelo://app?vid=876ac817-c1de-4d59-a160-e12114ae46c0","ios":"levelo://app?vid=876ac817-c1de-4d59-a160-e12114ae46c0"},"vehicle_type_id":"4","last_reported":1769325249,"current_range_meters":8800,"station_id":"ce4bgr92rcd13ifvqc6g","pricing_plan_id":"cebpf4jnsgd1na2vs0mg"},{"bike_id":"23e8e2b5-e425-472a-bc08-b0b79ef75ac3","system_id":"levelo_inurba_marseille","lat":43.2853,"lon":5.44105,"is_reserved":false,"is_disabled":false,"rental_uris":{"android":"levelo://app?vid=23e8e2b5-e425-472a-bc08-b0b79ef75ac3","ios":"levelo://app?vid=23e8e2b5-e425-472a-bc08-b0b79ef75ac3"},"vehicle_type_id":"4","last_reported":1769325249,"current_range_meters":8800,"station_id":"st_d3j3df2ikq2c7380ej80","pricing_plan_id":"cebpf4jnsgd1na2vs0mg"},{"bike_id":"ba275051-9e15-4ea0-a6e1-ba5eb68c57b0","system_id":"levelo_inurba_marseille","lat":43.295869,"lon":5.367364,"is_reserved":false,"is_disabled":false,"rental_uris":{"android":"levelo://app?vid=ba275051-9e15-4ea0-a6e1-ba5eb68c57b0","ios":"levelo://app?vid=ba275051-9e15-4ea0-a6e1-ba5eb68c57b0"},"vehicle_type_id":"4","last_reported":1769325249,"current_range_meters":8800,"station_id":"ce4bgph2rcd13ifvqc2g","pricing_plan_id":"cebpf4jnsgd1na2vs0mg"},{"bike_id":"202f1104-5acd-4ad3-972a-1bdbd896c535","system_id":"levelo_inurba_marseille","lat":43.32358,"lon":5.36748,"is_reserved":false,"is_disabled":false,"rental_uris":{"android":"levelo://app?vid=202f1104-5acd-4ad3-972a-1bdbd896c535","ios":"levelo://app?vid=202f1104-5acd-4ad3-972a-1bdbd896c535"},"vehicle_type_id":"4","last_reported":1769325249,"current_range_meters":8800,"station_id":"ce4bhsh2rcd13ifvqi2g","pricing_plan_id":"cebpf4jnsgd1na2vs0mg"},{"bike_id":"e19418ad-aa76-4b1d-a53d-977a549e82e9","system_id":"levelo_inurba_marseille","lat":43.23188,"lon":5.35542,"is_reserved":false,"is_disabled":false,"rental_uris":{"android":"levelo://app?vid=e19418ad-aa76-4b1d-a53d-977a549e82e9","ios":"levelo://app?vid=e19418ad-aa76-4b1d-a53d-977a549e82e9"},"vehicle_type_id":"4","last_reported":1769325249,"current_range_meters":8800,"station_id":"ce4bhu92rcd13ifvqi70","pricing_plan_id":"cebpf4jnsgd1na2vs0mg"},{"bike_id":"8b84e371-84b5-4e40-a882-2f55c907b812","system_id":"levelo_inurba_marseille","lat":43.239602,"lon":5.366301,"is_reserved":false,"is_disabled":false,"rental_uris":{"android":"levelo://app?vid=8b84e371-84b5-4e40-a882-2f55c907b812","ios":"levelo://app?vid=8b84e371-84b5-4e40-a882-2f55c907b812"},"vehicle_type_id":"4","last_reported":1769325249,"current_range_meters":8800,"station_id":"ce4bhi12rcd13ifvqfp0","pricing_plan_id":"cebpf4jnsgd1na2vs0mg"},{"bike_id":"4ecf6c12-33e8-4135-b4a4-e6c4ddb448fc","system_id":"levelo_inurba_marseille","lat":43.24121,"lon":5.37749,"is_reserved":false,"is_disabled":false,"rental_uris":{"android":"levelo://app?vid=4ecf6c12-33e8-4135-b4a4-e6c4ddb448fc","ios":"levelo://app?vid=4ecf6c12-33e8-4135-b4a4-e6c4ddb448fc"},"vehicle_type_id":"4","last_reported":1769325249,"current_range_meters":9200,"station_id":"","pricing_plan_id":"cebpf4jnsgd1na2vs0mg"},{"bike_id":"414937c3-22ca-4ac8-a6d1-0b2223c3f608","system_id":"levelo_inurba_marseille","lat":43.25823,"lon":5.39444,"is_reserved":false,"is_disabled":false,"rental_uris":{"android":"levelo://app?vid=414937c3-22ca-4ac8-a6d1-0b2223c3f608","ios":"levelo://app?vid=414937c3-22ca-4ac8-a6d1-0b2223c3f608"},"vehicle_type_id":"4","last_reported":1769325249,"current_range_meters":9200,"station_id":"ce4bhip2rcd13ifvqft0","pricing_plan_id":"cebpf4jnsgd1na2vs0mg"},{"bike_id":"927b5ab5-b754-47a4-96bb-fc528e9d9cf8","system_id":"levelo_inurba_marseille","lat":43.30954,"lon":5.39024,"is_reserved":false,"is_disabled":true,"rental_uris":{"android":"levelo://app?vid=927b5ab5-b754-47a4-96bb-fc528e9d9cf8","ios":"levelo://app?vid=927b5ab5-b754-47a4-96bb-fc528e9d9cf8"},"vehicle_type_id":"4","last_reported":1769325249,"current_range_meters":9200,"station_id":"ce4bgup2rcd13ifvqco0","pricing_plan_id":"cebpf4jnsgd1na2vs0mg"},{"bike_id":"a31d4b1b-7a61-4655-ae18-d5254ed9b3a3","system_id":"levelo_inurba_marseille","lat":43.2852,"lon":5.44106,"is_reserved":false,"is_disabled":false,"rental_uris":{"android":"levelo://app?vid=a31d4b1b-7a61-4655-ae18-d5254ed9b3a3","ios":"levelo://app?vid=a31d4b1b-7a61-4655-ae18-d5254ed9b3a3"},"vehicle_type_id":"4","last_reported":1769325249,"current_range_meters":9200,"station_id":"st_d3j3df2ikq2c7380ej80","pricing_plan_id":"cebpf4jnsgd1na2vs0mg"},{"bike_id":"0a9315ef-49dd-4e1c-90ba-9ac1028ca5d9","system_id":"levelo_inurba_marseille","lat":43.321081,"lon":5.367647,"is_reserved":false,"is_disabled":false,"rental_uris":{"android":"levelo://app?vid=0a9315ef-49dd-4e1c-90ba-9ac1028ca5d9","ios":"levelo://app?vid=0a9315ef-49dd-4e1c-90ba-9ac1028ca5d9"},"vehicle_type_id":"4","last_reported":1769325249,"current_range_meters":9200,"station_id":"ce4bhrh2rcd13ifvqhug","pricing_plan_id":"cebpf4jnsgd1na2vs0mg"},{"bike_id":"500a807b-2dab-4995-a78d-d98aedb6eb89","system_id":"levelo_inurba_marseille","lat":43.27024,"lon":5.41039,"is_reserved":false,"is_disabled":false,"rental_uris":{"android":"levelo://app?vid=500a807b-2dab-4995-a78d-d98aedb6eb89","ios":"levelo://app?vid=500a807b-2dab-4995-a78d-d98aedb6eb89"},"vehicle_type_id":"4","last_reported":1769325249,"current_range_meters":9200,"station_id":"ce4bhl12rcd13ifvqgf0","pricing_plan_id":"cebpf4jnsgd1na2vs0mg"},{"bike_id":"35de4117-1885-471d-ae81-ebbd7b148d3a","system_id":"levelo_inurba_marseille","lat":43.28143,"lon":5.42631,"is_reserved":false,"is_disabled":false,"rental_uris":{"android":"levelo://app?vid=35de4117-1885-471d-ae81-ebbd7b148d3a","ios":"levelo://app?vid=35de4117-1885-471d-ae81-ebbd7b148d3a"},"vehicle_type_id":"4","last_reported":1769325249,"current_range_meters":9200,"station_id":"ce4bhnh2rcd13ifvqgug","pricing_plan_id":"cebpf4jnsgd1na2vs0mg"},{"bike_id":"e53c4315-ec1a-4bf3-9632-09d236bb842c","system_id":"levelo_inurba_marseille","lat":43.23795,"lon":5.36623,"is_reserved":false,"is_disabled":false,"rental_uris":{"android":"levelo://app?vid=e53c4315-ec1a-4bf3-9632-09d236bb842c","ios":"levelo://app?vid=e53c4315-ec1a-4bf3-9632-09d236bb842c"},"vehicle_type_id":"4","last_reported":1769325249,"current_range_meters":9200,"station_id":"st_d3nk18o9ro0c73en2l3g","pricing_plan_id":"cebpf4jnsgd1na2vs0mg"},{"bike_id":"c161d157-674a-4fd5-8353-2f0f94b95e06","system_id":"levelo_inurba_marseille","lat":43.31543,"lon":5.37292,"is_reserved":false,"is_disabled":false,"rental_uris":{"android":"levelo://app?vid=c161d157-674a-4fd5-8353-2f0f94b95e06","ios":"levelo://app?vid=c161d157-674a-4fd5-8353-2f0f94b95e06"},"vehicle_type_id":"4","last_reported":1769325249,"current_range_meters":9200,"station_id":"ce4bgt12rcd13ifvqcd0","pricing_plan_id":"cebpf4jnsgd1na2vs0mg"},{"bike_id":"0554af7b-4d97-4b09-bc8a-ccbbde3b5abf","system_id":"levelo_inurba_marseille","lat":43.24069,"lon":5.37758,"is_reserved":false,"is_disabled":false,"rental_uris":{"android":"levelo://app?vid=0554af7b-4d97-4b09-bc8a-ccbbde3b5abf","ios":"levelo://app?vid=0554af7b-4d97-4b09-bc8a-ccbbde3b5abf"},"vehicle_type_id":"4","last_reported":1769325249,"current_range_meters":9200,"station_id":"ce4bhnp2rcd13ifvqgvg","pricing_plan_id":"cebpf4jnsgd1na2vs0mg"},{"bike_id":"5620fd0b-568e-406e-8104-b0555da61e8a","system_id":"levelo_inurba_marseille","lat":43.28483,"lon":5.48411,"is_reserved":false,"is_disabled":false,"rental_uris":{"android":"levelo://app?vid=5620fd0b-568e-406e-8104-b0555da61e8a","ios":"levelo://app?vid=5620fd0b-568e-406e-8104-b0555da61e8a"},"vehicle_type_id":"4","last_reported":1769325249,"current_range_meters":9200,"station_id":"","pricing_plan_id":"cebpf4jnsgd1na2vs0mg"},{"bike_id":"6b03ada9-beb1-4397-aab8-27781ac0b0d3","system_id":"levelo_inurba_marseille","lat":43.2512,"lon":5.40329,"is_reserved":false,"is_disabled":false,"rental_uris":{"android":"levelo://app?vid=6b03ada9-beb1-4397-aab8-27781ac0b0d3","ios":"levelo://app?vid=6b03ada9-beb1-4397-aab8-27781ac0b0d3"},"vehicle_type_id":"4","last_reported":1769325249,"current_range_meters":9200,"station_id":"ce4bhlh2rcd13ifvqgig","pricing_plan_id":"cebpf4jnsgd1na2vs0mg"},{"bike_id":"78745a78-85c7-44ce-b915-bc58ab2196c0","system_id":"levelo_inurba_marseille","lat":43.25332,"lon":5.42166,"is_reserved":false,"is_disabled":false,"rental_uris":{"android":"levelo://app?vid=78745a78-85c7-44ce-b915-bc58ab2196c0","ios":"levelo://app?vid=78745a78-85c7-44ce-b915-bc58ab2196c0"},"vehicle_type_id":"4","last_reported":1769325249,"current_range_meters":9200,"station_id":"st_d2m65c5bi1j21697t3ng","pricing_plan_id":"cebpf4jnsgd1na2vs0mg"},{"bike_id":"f1f1af57-7ec6-4801-8bee-0f5367d55cb5","system_id":"levelo_inurba_marseille","lat":43.32375,"lon":5.36689,"is_reserved":false,"is_disabled":false,"rental_uris":{"android":"levelo://app?vid=f1f1af57-7ec6-4801-8bee-0f5367d55cb5","ios":"levelo://app?vid=f1f1af57-7ec6-4801-8bee-0f5367d55cb5"},"vehicle_type_id":"4","last_reported":1769325249,"current_range_meters":9200,"station_id":"","pricing_plan_id":"cebpf4jnsgd1na2vs0mg"},{"bike_id":"10146837-d61a-4c8b-ab61-c6ec324480c5","system_id":"levelo_inurba_marseille","lat":43.26565,"lon":5.37296,"is_reserved":false,"is_disabled":false,"rental_uris":{"android":"levelo://app?vid=10146837-d61a-4c8b-ab61-c6ec324480c5","ios":"levelo://app?vid=10146837-d61a-4c8b-ab61-c6ec324480c5"},"vehicle_type_id":"4","last_reported":1769325249,"current_range_meters":9200,"station_id":"ce4bhg12rcd13ifvqf70","pricing_plan_id":"cebpf4jnsgd1na2vs0mg"},{"bike_id":"872ca787-ea41-43ac-9081-3181ff9b1e3b","system_id":"levelo_inurba_marseille","lat":43.27379,"lon":5.36249,"is_reserved":false,"is_disabled":false,"rental_uris":{"android":"levelo://app?vid=872ca787-ea41-43ac-9081-3181ff9b1e3b","ios":"levelo://app?vid=872ca787-ea41-43ac-9081-3181ff9b1e3b"},"vehicle_type_id":"4","last_reported":1769325249,"current_range_meters":9200,"station_id":"ce4bhbh2rcd13ifvqeo0","pricing_plan_id":"cebpf4jnsgd1na2vs0mg"},{"bike_id":"8183c13b-3886-4108-9c38-7a9f64dd1a03","system_id":"levelo_inurba_marseille","lat":43.297231,"lon":5.365904,"is_reserved":false,"is_disabled":false,"rental_uris":{"android":"levelo://app?vid=8183c13b-3886-4108-9c38-7a9f64dd1a03","ios":"levelo://app?vid=8183c13b-3886-4108-9c38-7a9f64dd1a03"},"vehicle_type_id":"4","last_reported":1769325249,"current_range_meters":9600,"station_id":"ce4bgn12rcd13ifvqbt0","pricing_plan_id":"cebpf4jnsgd1na2vs0mg"},{"bike_id":"156c8bce-3281-45dc-a6f2-9d1a25826506","system_id":"levelo_inurba_marseille","lat":43.231419,"lon":5.437263,"is_reserved":false,"is_disabled":false,"rental_uris":{"android":"levelo://app?vid=156c8bce-3281-45dc-a6f2-9d1a25826506","ios":"levelo://app?vid=156c8bce-3281-45dc-a6f2-9d1a25826506"},"vehicle_type_id":"4","last_reported":1769325249,"current_range_meters":9600,"station_id":"","pricing_plan_id":"cebpf4jnsgd1na2vs0mg"},{"bike_id":"670665a4-208f-4cd3-ba2d-5df79ffc77a7","system_id":"levelo_inurba_marseille","lat":43.27991,"lon":5.41672,"is_reserved":false,"is_disabled":false,"rental_uris":{"android":"levelo://app?vid=670665a4-208f-4cd3-ba2d-5df79ffc77a7","ios":"levelo://app?vid=670665a4-208f-4cd3-ba2d-5df79ffc77a7"},"vehicle_type_id":"4","last_reported":1769325249,"current_range_meters":9600,"station_id":"ce4bho12rcd13ifvqh1g","pricing_plan_id":"cebpf4jnsgd1na2vs0mg"},{"bike_id":"e639ec2a-6010-4fe8-8c11-09e7ff3b4831","system_id":"levelo_inurba_marseille","lat":43.2511,"lon":5.40337,"is_reserved":false,"is_disabled":false,"rental_uris":{"android":"levelo://app?vid=e639ec2a-6010-4fe8-8c11-09e7ff3b4831","ios":"levelo://app?vid=e639ec2a-6010-4fe8-8c11-09e7ff3b4831"},"vehicle_type_id":"4","last_reported":1769325249,"current_range_meters":9600,"station_id":"ce4bhlh2rcd13ifvqgig","pricing_plan_id":"cebpf4jnsgd1na2vs0mg"},{"bike_id":"f83be713-7e4a-4bd8-8890-2ceca824b015","system_id":"levelo_inurba_marseille","lat":43.28994,"lon":5.35616,"is_reserved":false,"is_disabled":false,"rental_uris":{"android":"levelo://app?vid=f83be713-7e4a-4bd8-8890-2ceca824b015","ios":"levelo://app?vid=f83be713-7e4a-4bd8-8890-2ceca824b015"},"vehicle_type_id":"4","last_reported":1769325249,"current_range_meters":9600,"station_id":"ce4bhb92rcd13ifvqen0","pricing_plan_id":"cebpf4jnsgd1na2vs0mg"},{"bike_id":"fdd9efc7-53e9-441d-b99b-586302834715","system_id":"levelo_inurba_marseille","lat":43.296923,"lon":5.37278,"is_reserved":false,"is_disabled":false,"rental_uris":{"android":"levelo://app?vid=fdd9efc7-53e9-441d-b99b-586302834715","ios":"levelo://app?vid=fdd9efc7-53e9-441d-b99b-586302834715"},"vehicle_type_id":"4","last_reported":1769325249,"current_range_meters":9600,"station_id":"ce4bgk12rcd13ifvqbj0","pricing_plan_id":"cebpf4jnsgd1na2vs0mg"},{"bike_id":"704b0a72-17df-4209-b155-52c428906ced","system_id":"levelo_inurba_marseille","lat":43.28609,"lon":5.35127,"is_reserved":false,"is_disabled":false,"rental_uris":{"android":"levelo://app?vid=704b0a72-17df-4209-b155-52c428906ced","ios":"levelo://app?vid=704b0a72-17df-4209-b155-52c428906ced"},"vehicle_type_id":"4","last_reported":1769325249,"current_range_meters":9600,"station_id":"ce4bhch2rcd13ifvqeug","pricing_plan_id":"cebpf4jnsgd1na2vs0mg"},{"bike_id":"ca006b1c-64f2-4772-acb4-e94321165aec","system_id":"levelo_inurba_marseille","lat":43.305489,"lon":5.367403,"is_reserved":false,"is_disabled":false,"rental_uris":{"android":"levelo://app?vid=ca006b1c-64f2-4772-acb4-e94321165aec","ios":"levelo://app?vid=ca006b1c-64f2-4772-acb4-e94321165aec"},"vehicle_type_id":"4","last_reported":1769325249,"current_range_meters":9600,"station_id":"ce4bgn92rcd13ifvqbvg","pricing_plan_id":"cebpf4jnsgd1na2vs0mg"},{"bike_id":"898169fa-29c0-4349-a185-41ab96475b8a","system_id":"levelo_inurba_marseille","lat":43.25008,"lon":5.38912,"is_reserved":false,"is_disabled":false,"rental_uris":{"android":"levelo://app?vid=898169fa-29c0-4349-a185-41ab96475b8a","ios":"levelo://app?vid=898169fa-29c0-4349-a185-41ab96475b8a"},"vehicle_type_id":"4","last_reported":1769325249,"current_range_meters":9600,"station_id":"ce4bhgp2rcd13ifvqfd0","pricing_plan_id":"cebpf4jnsgd1na2vs0mg"},{"bike_id":"25f3610b-72cf-472d-b7c2-1f320f3ab9a4","system_id":"levelo_inurba_marseille","lat":43.21192,"lon":5.35074,"is_reserved":false,"is_disabled":false,"rental_uris":{"android":"levelo://app?vid=25f3610b-72cf-472d-b7c2-1f320f3ab9a4","ios":"levelo://app?vid=25f3610b-72cf-472d-b7c2-1f320f3ab9a4"},"vehicle_type_id":"4","last_reported":1769325249,"current_range_meters":9600,"station_id":"","pricing_plan_id":"cebpf4jnsgd1na2vs0mg"},{"bike_id":"d4307cb4-fb1f-405e-8c58-0a898c8ce17e","system_id":"levelo_inurba_marseille","lat":43.3012,"lon":5.43109,"is_reserved":false,"is_disabled":false,"rental_uris":{"android":"levelo://app?vid=d4307cb4-fb1f-405e-8c58-0a898c8ce17e","ios":"levelo://app?vid=d4307cb4-fb1f-405e-8c58-0a898c8ce17e"},"vehicle_type_id":"4","last_reported":1769325249,"current_range_meters":9600,"station_id":"st_d3js3co5814s73ftftug","pricing_plan_id":"cebpf4jnsgd1na2vs0mg"},{"bike_id":"f0932922-1558-42f5-b099-f45ad080f453","system_id":"levelo_inurba_marseille","lat":43.25585,"lon":5.38228,"is_reserved":false,"is_disabled":false,"rental_uris":{"android":"levelo://app?vid=f0932922-1558-42f5-b099-f45ad080f453","ios":"levelo://app?vid=f0932922-1558-42f5-b099-f45ad080f453"},"vehicle_type_id":"4","last_reported":1769325249,"current_range_meters":9600,"station_id":"ce4bhih2rcd13ifvqfs0","pricing_plan_id":"cebpf4jnsgd1na2vs0mg"},{"bike_id":"db8f2ea2-3eda-4422-8b17-b6b46a6fe0d3","system_id":"levelo_inurba_marseille","lat":43.2782,"lon":5.40721,"is_reserved":false,"is_disabled":false,"rental_uris":{"android":"levelo://app?vid=db8f2ea2-3eda-4422-8b17-b6b46a6fe0d3","ios":"levelo://app?vid=db8f2ea2-3eda-4422-8b17-b6b46a6fe0d3"},"vehicle_type_id":"4","last_reported":1769325249,"current_range_meters":10000,"station_id":"ce4bhnh2rcd13ifvqgtg","pricing_plan_id":"cebpf4jnsgd1na2vs0mg"},{"bike_id":"9713f383-b08e-4426-b8eb-983d4865231f","system_id":"levelo_inurba_marseille","lat":43.24387,"lon":5.37079,"is_reserved":false,"is_disabled":false,"rental_uris":{"android":"levelo://app?vid=9713f383-b08e-4426-b8eb-983d4865231f","ios":"levelo://app?vid=9713f383-b08e-4426-b8eb-983d4865231f"},"vehicle_type_id":"4","last_reported":1769325249,"current_range_meters":10000,"station_id":"ce4bhhh2rcd13ifvqfk0","pricing_plan_id":"cebpf4jnsgd1na2vs0mg"},{"bike_id":"eece769e-ed90-4eaa-b775-682a64243063","system_id":"levelo_inurba_marseille","lat":43.28268,"lon":5.35066,"is_reserved":false,"is_disabled":false,"rental_uris":{"android":"levelo://app?vid=eece769e-ed90-4eaa-b775-682a64243063","ios":"levelo://app?vid=eece769e-ed90-4eaa-b775-682a64243063"},"vehicle_type_id":"4","last_reported":1769325249,"current_range_meters":10000,"station_id":"ce4bhbp2rcd13ifvqerg","pricing_plan_id":"cebpf4jnsgd1na2vs0mg"},{"bike_id":"aeb4cc61-129c-4f69-a2a4-8c1cdbb3353c","system_id":"levelo_inurba_marseille","lat":43.24073,"lon":5.37768,"is_reserved":false,"is_disabled":false,"rental_uris":{"android":"levelo://app?vid=aeb4cc61-129c-4f69-a2a4-8c1cdbb3353c","ios":"levelo://app?vid=aeb4cc61-129c-4f69-a2a4-8c1cdbb3353c"},"vehicle_type_id":"4","last_reported":1769325249,"current_range_meters":10000,"station_id":"ce4bhnp2rcd13ifvqgvg","pricing_plan_id":"cebpf4jnsgd1na2vs0mg"},{"bike_id":"671fa286-6452-40eb-8362-646a47a4999e","system_id":"levelo_inurba_marseille","lat":43.30431,"lon":5.39732,"is_reserved":false,"is_disabled":false,"rental_uris":{"android":"levelo://app?vid=671fa286-6452-40eb-8362-646a47a4999e","ios":"levelo://app?vid=671fa286-6452-40eb-8362-646a47a4999e"},"vehicle_type_id":"4","last_reported":1769325249,"current_range_meters":10000,"station_id":"ce4bh092rcd13ifvqd20","pricing_plan_id":"cebpf4jnsgd1na2vs0mg"},{"bike_id":"a79826e8-32fa-4248-a10f-f75bce6cb4ae","system_id":"levelo_inurba_marseille","lat":43.25334,"lon":5.42173,"is_reserved":false,"is_disabled":false,"rental_uris":{"android":"levelo://app?vid=a79826e8-32fa-4248-a10f-f75bce6cb4ae","ios":"levelo://app?vid=a79826e8-32fa-4248-a10f-f75bce6cb4ae"},"vehicle_type_id":"4","last_reported":1769325249,"current_range_meters":10000,"station_id":"st_d2m65c5bi1j21697t3ng","pricing_plan_id":"cebpf4jnsgd1na2vs0mg"},{"bike_id":"4864c9a4-e7b8-45ec-8f18-ad78f35c4046","system_id":"levelo_inurba_marseille","lat":43.30871,"lon":5.39647,"is_reserved":false,"is_disabled":false,"rental_uris":{"android":"levelo://app?vid=4864c9a4-e7b8-45ec-8f18-ad78f35c4046","ios":"levelo://app?vid=4864c9a4-e7b8-45ec-8f18-ad78f35c4046"},"vehicle_type_id":"4","last_reported":1769325249,"current_range_meters":10000,"station_id":"ce4bh012rcd13ifvqcv0","pricing_plan_id":"cebpf4jnsgd1na2vs0mg"},{"bike_id":"20d9852c-4a47-45ae-b602-7d8145187cb2","system_id":"levelo_inurba_marseille","lat":43.29446,"lon":5.39753,"is_reserved":false,"is_disabled":false,"rental_uris":{"android":"levelo://app?vid=20d9852c-4a47-45ae-b602-7d8145187cb2","ios":"levelo://app?vid=20d9852c-4a47-45ae-b602-7d8145187cb2"},"vehicle_type_id":"4","last_reported":1769325249,"current_range_meters":10000,"station_id":"ce4bh3h2rcd13ifvqdo0","pricing_plan_id":"cebpf4jnsgd1na2vs0mg"},{"bike_id":"43ed1a78-3c90-4d05-8161-183033c7d757","system_id":"levelo_inurba_marseille","lat":43.23153,"lon":5.43704,"is_reserved":false,"is_disabled":false,"rental_uris":{"android":"levelo://app?vid=43ed1a78-3c90-4d05-8161-183033c7d757","ios":"levelo://app?vid=43ed1a78-3c90-4d05-8161-183033c7d757"},"vehicle_type_id":"4","last_reported":1769325249,"current_range_meters":10000,"station_id":"ce4bhmp2rcd13ifvqgog","pricing_plan_id":"cebpf4jnsgd1na2vs0mg"},{"bike_id":"b8b10137-8c02-488c-ac38-a06db031ad26","system_id":"levelo_inurba_marseille","lat":43.28541,"lon":5.44102,"is_reserved":false,"is_disabled":false,"rental_uris":{"android":"levelo://app?vid=b8b10137-8c02-488c-ac38-a06db031ad26","ios":"levelo://app?vid=b8b10137-8c02-488c-ac38-a06db031ad26"},"vehicle_type_id":"4","last_reported":1769325249,"current_range_meters":10000,"station_id":"st_d3j3df2ikq2c7380ej80","pricing_plan_id":"cebpf4jnsgd1na2vs0mg"},{"bike_id":"368348bd-6599-4124-8c2b-724ba5ec77de","system_id":"levelo_inurba_marseille","lat":43.25219,"lon":5.38042,"is_reserved":false,"is_disabled":false,"rental_uris":{"android":"levelo://app?vid=368348bd-6599-4124-8c2b-724ba5ec77de","ios":"levelo://app?vid=368348bd-6599-4124-8c2b-724ba5ec77de"},"vehicle_type_id":"4","last_reported":1769325249,"current_range_meters":10000,"station_id":"","pricing_plan_id":"cebpf4jnsgd1na2vs0mg"},