{"last_updated":1708279678,"ttl":30,"version":"2.2","data":{"bikes":[{"bike_id":"dcb88677-e75e-4bec-88b9-822b6a1fccf4","system_id":"levelo_inurba_marseille","lat":43.312239,"lon":5.368562,"is_reserved":false,"is_disabled":false,"rental_uris":{"android":"levelo://app?vid=dcb88677-e75e-4bec-88b9-822b6a1fccf4","ios":"levelo://app?vid=dcb88677-e75e-4bec-88b9-822b6a1fccf4"},"vehicle_type_id":"4","last_reported":1708279678,"current_range_meters":26800,"station_id":"ce4bgl92rcd13ifvqbq0","pricing_plan_id":"cebpf4jnsgd1na2vs0mg"},{"bike_id":"f481e660-1aaf-4629-89aa-a203eea78652","system_id":"levelo_inurba_marseille","lat":43.30928,"lon":5.3676,"is_reserved":false,"is_disabled":false,"rental_uris":{"android":"levelo://app?vid=f481e660-1aaf-4629-89aa-a203eea78652","ios":"levelo://app?vid=f481e660-1aaf-4629-89aa-a203eea78652"},"vehicle_type_id":"4","last_reported":1708279678,"current_range_meters":25600,"station_id":"","pricing_plan_id":"cebpf4jnsgd1na2vs0mg"},{"bike_id":"5d5abc25-42cf-4b02-a2da-5f842956c23d","system_id":"levelo_inurba_marseille","lat":43.309076,"lon":5.368465,"is_reserved":false,"is_disabled":false,"rental_uris":{"android":"levelo://app?vid=5d5abc25-42cf-4b02-a2da-5f842956c23d","ios":"levelo://app?vid=5d5abc25-42cf-4b02-a2da-5f842956c23d"},"vehicle_type_id":"4","last_reported":1708279678,"current_range_meters":18800,"station_id":"ce4bgn92rcd13ifvqbvg","pricing_plan_id":"cebpf4jnsgd1na2vs0mg"},{"bike_id":"3a872f7a-3f50-4767-b699-d065ff155e9c","system_id":"levelo_inurba_marseille","lat":43.31493,"lon":5.3731,"is_reserved":false,"is_disabled":false,"rental_uris":{"android":"levelo://app?vid=3a872f7a-3f50-4767-b699-d065ff155e9c","ios":"levelo://app?vid=3a872f7a-3f50-4767-b699-d065ff155e9c"},"vehicle_type_id":"4","last_reported":1708279678,"current_range_meters":11200,"station_id":"ce4bgt12rcd13ifvqcd0","pricing_plan_id":"cebpf4jnsgd1na2vs0mg"},{"bike_id":"29af31b0-8226-4b4c-a4e5-1a82f529b961","system_id":"levelo_inurba_marseille","lat":43.305714,"lon":5.365633,"is_reserved":false,"is_disabled":false,"rental_uris":{"android":"levelo://app?vid=29af31b0-8226-4b4c-a4e5-1a82f529b961","ios":"levelo://app?vid=29af31b0-8226-4b4c-a4e5-1a82f529b961"},"vehicle_type_id":"4","last_reported":1708279678,"current_range_meters":14400,"station_id":"ce4bgs12rcd13ifvqcag","pricing_plan_id":"cebpf4jnsgd1na2vs0mg"},{"bike_id":"30629786-3d3e-4095-a325-7b7bbb755d28","system_id":"levelo_inurba_marseille","lat":43.305368,"lon":5.367343,"is_reserved":false,"is_disabled":false,"rental_uris":{"android":"levelo://app?vid=30629786-3d3e-4095-a325-7b7bbb755d28","ios":"levelo://app?vid=30629786-3d3e-4095-a325-7b7bbb755d28"},"vehicle_type_id":"4","last_reported":1708279678,"current_range_meters":1200,"station_id":"ce4bgrp2rcd13ifvqc9g","pricing_plan_id":"cebpf4jnsgd1na2vs0mg"},{"bike_id":"ded15721-8a3d-4bc0-876f-30b167de6313","system_id":"levelo_inurba_marseille","lat":43.30524,"lon":5.36717,"is_reserved":false,"is_disabled":false,"rental_uris":{"android":"levelo://app?vid=ded15721-8a3d-4bc0-876f-30b167de6313","ios":"levelo://app?vid=ded15721-8a3d-4bc0-876f-30b167de6313"},"vehicle_type_id":"4","last_reported":1708279678,"current_range_meters":6400,"station_id":"ce4bgrp2rcd13ifvqc9g","pricing_plan_id":"cebpf4jnsgd1na2vs0mg"},{"bike_id":"f9af02ec-7dac-4d24-b6f8-f160af189410","system_id":"levelo_inurba_marseille","lat":43.305989,"lon":5.37225,"is_reserved":false,"is_disabled":false,"rental_uris":{"android":"levelo://app?vid=f9af02ec-7dac-4d24-b6f8-f160af189410","ios":"levelo://app?vid=f9af02ec-7dac-4d24-b6f8-f160af189410"},"vehicle_type_id":"4","last_reported":1708279678,"current_range_meters":11600,"station_id":"ce4bgqh2rcd13ifvqc4g","pricing_plan_id":"cebpf4jnsgd1na2vs0mg"},{"bike_id":"73eed425-84e6-4fa7-9a2a-9f69657ff5d5","system_id":"levelo_inurba_marseille","lat":43.305989,"lon":5.37225,"is_reserved":false,"is_disabled":false,"rental_uris":{"android":"levelo://app?vid=73eed425-84e6-4fa7-9a2a-9f69657ff5d5","ios":"levelo://app?vid=73eed425-84e6-4fa7-9a2a-9f69657ff5d5"},"vehicle_type_id":"4","last_reported":1708279678,"current_range_meters":8000,"station_id":"ce4bgqh2rcd13ifvqc4g","pricing_plan_id":"cebpf4jnsgd1na2vs0mg"},{"bike_id":"462ba142-964c-4a98-ba70-95a87975492c","system_id":"levelo_inurba_marseille","lat":43.305989,"lon":5.37225,"is_reserved":false,"is_disabled":false,"rental_uris":{"android":"levelo://app?vid=462ba142-964c-4a98-ba70-95a87975492c","ios":"levelo://app?vid=462ba142-964c-4a98-ba70-95a87975492c"},"vehicle_type_id":"4","last_reported":1708279678,"current_range_meters":14400,"station_id":"ce4bgqh2rcd13ifvqc4g","pricing_plan_id":"cebpf4jnsgd1na2vs0mg"},{"bike_id":"ed788ea5-93b5-4c15-8eaf-fdb379caa353","system_id":"levelo_inurba_marseille","lat":43.305989,"lon":5.37225,"is_reserved":false,"is_disabled":false,"rental_uris":{"android":"levelo://app?vid=ed788ea5-93b5-4c15-8eaf-fdb379caa353","ios":"levelo://app?vid=ed788ea5-93b5-4c15-8eaf-fdb379caa353"},"vehicle_type_id":"4","last_reported":1708279678,"current_range_meters":20000,"station_id":"ce4bgqh2rcd13ifvqc4g","pricing_plan_id":"cebpf4jnsgd1na2vs0mg"},{"bike_id":"ebbb6a71-28f3-4e26-a6e9-1f337007191b","system_id":"levelo_inurba_marseille","lat":43.305989,"lon":5.37225,"is_reserved":false,"is_disabled":false,"rental_uris":{"android":"levelo://app?vid=ebbb6a71-28f3-4e26-a6e9-1f337007191b","ios":"levelo://app?vid=ebbb6a71-28f3-4e26-a6e9-1f337007191b"},"vehicle_type_id":"4","last_reported":1708279678,"current_range_meters":21200,"station_id":"ce4bgqh2rcd13ifvqc4g","pricing_plan_id":"cebpf4jnsgd1na2vs0mg"},{"bike_id":"9cc48c4a-a05c-472d-826a-b3e76d791470","system_id":"levelo_inurba_marseille","lat":43.305989,"lon":5.37225,"is_reserved":false,"is_disabled":false,"rental_uris":{"android":"levelo://app?vid=9cc48c4a-a05c-472d-826a-b3e76d791470","ios":"levelo://app?vid=9cc48c4a-a05c-472d-826a-b3e76d791470"},"vehicle_type_id":"4","last_reported":1708279678,"current_range_meters":12000,"station_id":"ce4bgqh2rcd13ifvqc4g","pricing_plan_id":"cebpf4jnsgd1na2vs0mg"},{"bike_id":"911caa48-856a-4232-acf3-f6070c836620","system_id":"levelo_inurba_marseille","lat":43.305989,"lon":5.37225,"is_reserved":false,"is_disabled":false,"rental_uris":{"android":"levelo://app?vid=911caa48-856a-4232-acf3-f6070c836620","ios":"levelo://app?vid=911caa48-856a-4232-acf3-f6070c836620"},"vehicle_type_id":"4","last_reported":1708279678,"current_range_meters":30800,"station_id":"ce4bgqh2rcd13ifvqc4g","pricing_plan_id":"cebpf4jnsgd1na2vs0mg"},{"bike_id":"281a63d0-3eae-4e3f-94bf-024d8cbf063c","system_id":"levelo_inurba_marseille","lat":43.311125,"lon":5.377624,"is_reserved":false,"is_disabled":false,"rental_uris":{"android":"levelo://app?vid=281a63d0-3eae-4e3f-94bf-024d8cbf063c","ios":"levelo://app?vid=281a63d0-3eae-4e3f-94bf-024d8cbf063c"},"vehicle_type_id":"4","last_reported":1708279678,"current_range_meters":22800,"station_id":"ce4bgt92rcd13ifvqcg0","pricing_plan_id":"cebpf4jnsgd1na2vs0mg"},{"bike_id":"c6eeca5b-1675-437e-848a-73179cdfc1da","system_id":"levelo_inurba_marseille","lat":43.311131,"lon":5.377651,"is_reserved":false,"is_disabled":false,"rental_uris":{"android":"levelo://app?vid=c6eeca5b-1675-437e-848a-73179cdfc1da","ios":"levelo://app?vid=c6eeca5b-1675-437e-848a-73179cdfc1da"},"vehicle_type_id":"4","last_reported":1708279678,"current_range_meters":5600,"station_id":"ce4bgt92rcd13ifvqcg0","pricing_plan_id":"cebpf4jnsgd1na2vs0mg"},{"bike_id":"bfe4c8cb-475b-4a8c-aa93-0232d06eeedd","system_id":"levelo_inurba_marseille","lat":43.311131,"lon":5.377651,"is_reserved":false,"is_disabled":false,"rental_uris":{"android":"levelo://app?vid=bfe4c8cb-475b-4a8c-aa93-0232d06eeedd","ios":"levelo://app?vid=bfe4c8cb-475b-4a8c-aa93-0232d06eeedd"},"vehicle_type_id":"4","last_reported":1708279678,"current_range_meters":10400,"station_id":"ce4bgt92rcd13ifvqcg0","pricing_plan_id":"cebpf4jnsgd1na2vs0mg"},{"bike_id":"02d4f165-c758-4784-9599-0536ceedf8f0","system_id":"levelo_inurba_marseille","lat":43.311125,"lon":5.377624,"is_reserved":false,"is_disabled":false,"rental_uris":{"android":"levelo://app?vid=02d4f165-c758-4784-9599-0536ceedf8f0","ios":"levelo://app?vid=02d4f165-c758-4784-9599-0536ceedf8f0"},"vehicle_type_id":"4","last_reported":1708279678,"current_range_meters":10800,"station_id":"ce4bgt92rcd13ifvqcg0","pricing_plan_id":"cebpf4jnsgd1na2vs0mg"},{"bike_id":"d631fea2-840d-4df6-946a-a1d835c50c88","system_id":"levelo_inurba_marseille","lat":43.31647,"lon":5.37678,"is_reserved":false,"is_disabled":false,"rental_uris":{"android":"levelo://app?vid=d631fea2-840d-4df6-946a-a1d835c50c88","ios":"levelo://app?vid=d631fea2-840d-4df6-946a-a1d835c50c88"},"vehicle_type_id":"4","last_reported":1708279678,"current_range_meters":2000,"station_id":"","pricing_plan_id":"cebpf4jnsgd1na2vs0mg"},{"bike_id":"f859dc8a-8daa-4d89-a097-0dc870b2e915","system_id":"levelo_inurba_marseille","lat":43.30783,"lon":5.3765,"is_reserved":false,"is_disabled":false,"rental_uris":{"android":"levelo://app?vid=f859dc8a-8daa-4d89-a097-0dc870b2e915","ios":"levelo://app?vid=f859dc8a-8daa-4d89-a097-0dc870b2e915"},"vehicle_type_id":"4","last_reported":1708279678,"current_range_meters":24800,"station_id":"ce4bgv92rcd13ifvqcq0","pricing_plan_id":"cebpf4jnsgd1na2vs0mg"},{"bike_id":"e93332c8-71cb-4a70-a2cb-8dae89f30527","system_id":"levelo_inurba_marseille","lat":43.317075,"lon":5.377367,"is_reserved":false,"is_disabled":false,"rental_uris":{"android":"levelo://app?vid=e93332c8-71cb-4a70-a2cb-8dae89f30527","ios":"levelo://app?vid=e93332c8-71cb-4a70-a2cb-8dae89f30527"},"vehicle_type_id":"4","last_reported":1708279678,"current_range_meters":26800,"station_id":"ce4bgth2rcd13ifvqch0","pricing_plan_id":"cebpf4jnsgd1na2vs0mg"},{"bike_id":"df5bf416-a9f9-4be7-8c25-237c40cc2bb2","system_id":"levelo_inurba_marseille","lat":43.303925,"lon":5.366975,"is_reserved":false,"is_disabled":false,"rental_uris":{"android":"levelo://app?vid=df5bf416-a9f9-4be7-8c25-237c40cc2bb2","ios":"levelo://app?vid=df5bf416-a9f9-4be7-8c25-237c40cc2bb2"},"vehicle_type_id":"4","last_reported":1708279678,"current_range_meters":9600,"station_id":"","pricing_plan_id":"cebpf4jnsgd1na2vs0mg"},{"bike_id":"e32017e6-fcab-4f95-aac7-5920f428e2e7","system_id":"levelo_inurba_marseille","lat":43.303142,"lon":5.369072,"is_reserved":false,"is_disabled":false,"rental_uris":{"android":"levelo://app?vid=e32017e6-fcab-4f95-aac7-5920f428e2e7","ios":"levelo://app?vid=e32017e6-fcab-4f95-aac7-5920f428e2e7"},"vehicle_type_id":"4","last_reported":1708279678,"current_range_meters":31200,"station_id":"ce4bgqh2rcd13ifvqc5g","pricing_plan_id":"cebpf4jnsgd1na2vs0mg"},{"bike_id":"81142182-9077-4c80-ad30-778587a7a764","system_id":"levelo_inurba_marseille","lat":43.303046,"lon":5.368981,"is_reserved":false,"is_disabled":false,"rental_uris":{"android":"levelo://app?vid=81142182-9077-4c80-ad30-778587a7a764","ios":"levelo://app?vid=81142182-9077-4c80-ad30-778587a7a764"},"vehicle_type_id":"4","last_reported":1708279678,"current_range_meters":16000,"station_id":"ce4bgqh2rcd13ifvqc5g","pricing_plan_id":"cebpf4jnsgd1na2vs0mg"},{"bike_id":"20d9b00d-e8ba-429a-8eae-c8365d4c8b55","system_id":"levelo_inurba_marseille","lat":43.303046,"lon":5.368981,"is_reserved":false,"is_disabled":false,"rental_uris":{"android":"levelo://app?vid=20d9b00d-e8ba-429a-8eae-c8365d4c8b55","ios":"levelo://app?vid=20d9b00d-e8ba-429a-8eae-c8365d4c8b55"},"vehicle_type_id":"4","last_reported":1708279678,"current_range_meters":31200,"station_id":"ce4bgqh2rcd13ifvqc5g","pricing_plan_id":"cebpf4jnsgd1na2vs0mg"},{"bike_id":"920b73ef-43ef-44a0-80f5-e81e7a3a9228","system_id":"levelo_inurba_marseille","lat":43.301939,"lon":5.366286,"is_reserved":false,"is_disabled":false,"rental_uris":{"android":"levelo://app?vid=920b73ef-43ef-44a0-80f5-e81e7a3a9228","ios":"levelo://app?vid=920b73ef-43ef-44a0-80f5-e81e7a3a9228"},"vehicle_type_id":"4","last_reported":1708279678,"current_range_meters":16000,"station_id":"ce4bgrh2rcd13ifvqc8g","pricing_plan_id":"cebpf4jnsgd1na2vs0mg"},{"bike_id":"0cd84fd1-05df-4614-a0e2-3cda601a4fa5","system_id":"levelo_inurba_marseille","lat":43.301939,"lon":5.366286,"is_reserved":false,"is_disabled":false,"rental_uris":{"android":"levelo://app?vid=0cd84fd1-05df-4614-a0e2-3cda601a4fa5","ios":"levelo://app?vid=0cd84fd1-05df-4614-a0e2-3cda601a4fa5"},"vehicle_type_id":"4","last_reported":1708279678,"current_range_meters":12800,"station_id":"ce4bgrh2rcd13ifvqc8g","pricing_plan_id":"cebpf4jnsgd1na2vs0mg"},{"bike_id":"8950e754-8b6b-4556-9fc8-6a36bd61d137","system_id":"levelo_inurba_marseille","lat":43.308012,"lon":5.381511,"is_reserved":false,"is_disabled":false,"rental_uris":{"android":"levelo://app?vid=8950e754-8b6b-4556-9fc8-6a36bd61d137","ios":"levelo://app?vid=8950e754-8b6b-4556-9fc8-6a36bd61d137"},"vehicle_type_id":"4","last_reported":1708279678,"current_range_meters":1200,"station_id":"ce4bgt12rcd13ifvqce0","pricing_plan_id":"cebpf4jnsgd1na2vs0mg"},{"bike_id":"b01b8e90-efa5-49bf-9e36-82ad60270514","system_id":"levelo_inurba_marseille","lat":43.308093,"lon":5.381647,"is_reserved":false,"is_disabled":false,"rental_uris":{"android":"levelo://app?vid=b01b8e90-efa5-49bf-9e36-82ad60270514","ios":"levelo://app?vid=b01b8e90-efa5-49bf-9e36-82ad60270514"},"vehicle_type_id":"4","last_reported":1708279678,"current_range_meters":0,"station_id":"ce4bgt12rcd13ifvqce0","pricing_plan_id":"cebpf4jnsgd1na2vs0mg"},{"bike_id":"661c9029-34fc-4f70-aec3-2fff6ba15de6","system_id":"levelo_inurba_marseille","lat":43.308012,"lon":5.381511,"is_reserved":false,"is_disabled":false,"rental_uris":{"android":"levelo://app?vid=661c9029-34fc-4f70-aec3-2fff6ba15de6","ios":"levelo://app?vid=661c9029-34fc-4f70-aec3-2fff6ba15de6"},"vehicle_type_id":"4","last_reported":1708279678,"current_range_meters":23600,"station_id":"ce4bgt12rcd13ifvqce0","pricing_plan_id":"cebpf4jnsgd1na2vs0mg"},{"bike_id":"7d085b4b-52ea-45ab-862b-a224c617378c","system_id":"levelo_inurba_marseille","lat":43.308012,"lon":5.381511,"is_reserved":false,"is_disabled":false,"rental_uris":{"android":"levelo://app?vid=7d085b4b-52ea-45ab-862b-a224c617378c","ios":"levelo://app?vid=7d085b4b-52ea-45ab-862b-a224c617378c"},"vehicle_type_id":"4","last_reported":1708279678,"current_range_meters":7200,"station_id":"ce4bgt12rcd13ifvqce0","pricing_plan_id":"cebpf4jnsgd1na2vs0mg"},{"bike_id":"7c66a11a-bea8-4a2a-98be-7794b214389b","system_id":"levelo_inurba_marseille","lat":43.324771,"lon":5.36557,"is_reserved":false,"is_disabled":false,"rental_uris":{"android":"levelo://app?vid=7c66a11a-bea8-4a2a-98be-7794b214389b","ios":"levelo://app?vid=7c66a11a-bea8-4a2a-98be-7794b214389b"},"vehicle_type_id":"4","last_reported":1708279678,"current_range_meters":4800,"station_id":"ce4bhs12rcd13ifvqhvg","pricing_plan_id":"cebpf4jnsgd1na2vs0mg"},{"bike_id":"52c7d0c2-438e-4f7d-9db4-ea70d4682f97","system_id":"levelo_inurba_marseille","lat":43.324771,"lon":5.36557,"is_reserved":false,"is_disabled":false,"rental_uris":{"android":"levelo://app?vid=52c7d0c2-438e-4f7d-9db4-ea70d4682f97","ios":"levelo://app?vid=52c7d0c2-438e-4f7d-9db4-ea70d4682f97"},"vehicle_type_id":"4","last_reported":1708279678,"current_range_meters":6400,"station_id":"ce4bhs12rcd13ifvqhvg","pricing_plan_id":"cebpf4jnsgd1na2vs0mg"},{"bike_id":"63bc16d4-b7f9-4b45-a0c3-b9a2c2b94897","system_id":"levelo_inurba_marseille","lat":43.324771,"lon":5.36557,"is_reserved":false,"is_disabled":false,"rental_uris":{"android":"levelo://app?vid=63bc16d4-b7f9-4b45-a0c3-b9a2c2b94897","ios":"levelo://app?vid=63bc16d4-b7f9-4b45-a0c3-b9a2c2b94897"},"vehicle_type_id":"4","last_reported":1708279678,"current_range_meters":21600,"station_id":"ce4bhs12rcd13ifvqhvg","pricing_plan_id":"cebpf4jnsgd1na2vs0mg"},{"bike_id":"d39195ff-30b7-402c-86df-29a5c87cb707","system_id":"levelo_inurba_marseille","lat":43.231562,"lon":5.436933,"is_reserved":false,"is_disabled":false,"rental_uris":{"android":"levelo://app?vid=d39195ff-30b7-402c-86df-29a5c87cb707","ios":"levelo://app?vid=d39195ff-30b7-402c-86df-29a5c87cb707"},"vehicle_type_id":"4","last_reported":1708279678,"current_range_meters":7200,"station_id":"ce4bhmp2rcd13ifvqgog","pricing_plan_id":"cebpf4jnsgd1na2vs0mg"},{"bike_id":"730cb85b-e026-4d4f-b0ad-0d39bcf211a8","system_id":"levelo_inurba_marseille","lat":43.31074,"lon":5.38355,"is_reserved":false,"is_disabled":false,"rental_uris":{"android":"levelo://app?vid=730cb85b-e026-4d4f-b0ad-0d39bcf211a8","ios":"levelo://app?vid=730cb85b-e026-4d4f-b0ad-0d39bcf211a8"},"vehicle_type_id":"4","last_reported":1708279678,"current_range_meters":12800,"station_id":"","pricing_plan_id":"cebpf4jnsgd1na2vs0mg"},{"bike_id":"2961e93e-d0d3-44db-9cd3-01acedcfaedb","system_id":"levelo_inurba_marseille","lat":43.310804,"lon":5.38359,"is_reserved":false,"is_disabled":false,"rental_uris":{"android":"levelo://app?vid=2961e93e-d0d3-44db-9cd3-01acedcfaedb","ios":"levelo://app?vid=2961e93e-d0d3-44db-9cd3-01acedcfaedb"},"vehicle_type_id":"4","last_reported":1708279678,"current_range_meters":23200,"station_id":"ce4bgv92rcd13ifvqcr0","pricing_plan_id":"cebpf4jnsgd1na2vs0mg"},{"bike_id":"e64f5b1f-91bb-4859-9b71-2f24bd7e4983","system_id":"levelo_inurba_marseille","lat":43.310804,"lon":5.38359,"is_reserved":false,"is_disabled":false,"rental_uris":{"android":"levelo://app?vid=e64f5b1f-91bb-4859-9b71-2f24bd7e4983","ios":"levelo://app?vid=e64f5b1f-91bb-4859-9b71-2f24bd7e4983"},"vehicle_type_id":"4","last_reported":1708279678,"current_range_meters":0,"station_id":"ce4bgv92rcd13ifvqcr0","pricing_plan_id":"cebpf4jnsgd1na2vs0mg"},{"bike_id":"8a0be6e3-c512-4c9d-b13b-939e4f85d02a","system_id":"levelo_inurba_marseille","lat":43.310804,"lon":5.38359,"is_reserved":false,"is_disabled":false,"rental_uris":{"android":"levelo://app?vid=8a0be6e3-c512-4c9d-b13b-939e4f85d02a","ios":"levelo://app?vid=8a0be6e3-c512-4c9d-b13b-939e4f85d02a"},"vehicle_type_id":"4","last_reported":1708279678,"current_range_meters":0,"station_id":"ce4bgv92rcd13ifvqcr0","pricing_plan_id":"cebpf4jnsgd1na2vs0mg"},{"bike_id":"ce985ac4-1ea6-4db8-bb44-20a72c153fb9","system_id":"levelo_inurba_marseille","lat":43.313571,"lon":5.384829,"is_reserved":false,"is_disabled":false,"rental_uris":{"android":"levelo://app?vid=ce985ac4-1ea6-4db8-bb44-20a72c153fb9","ios":"levelo://app?vid=ce985ac4-1ea6-4db8-bb44-20a72c153fb9"},"vehicle_type_id":"4","last_reported":1708279678,"current_range_meters":11200,"station_id":"ce4bgt92rcd13ifvqcf0","pricing_plan_id":"cebpf4jnsgd1na2vs0mg"},{"bike_id":"55f70503-9a0a-4fce-8c17-85484e0f4b85","system_id":"levelo_inurba_marseille","lat":43.313571,"lon":5.384829,"is_reserved":false,"is_disabled":false,"rental_uris":{"android":"levelo://app?vid=55f70503-9a0a-4fce-8c17-85484e0f4b85","ios":"levelo://app?vid=55f70503-9a0a-4fce-8c17-85484e0f4b85"},"vehicle_type_id":"4","last_reported":1708279678,"current_range_meters":13600,"station_id":"ce4bgt92rcd13ifvqcf0","pricing_plan_id":"cebpf4jnsgd1na2vs0mg"},{"bike_id":"7234e1ac-a40e-4dff-92c3-42fd39a6a833","system_id":"levelo_inurba_marseille","lat":43.313571,"lon":5.384829,"is_reserved":false,"is_disabled":false,"rental_uris":{"android":"levelo://app?vid=7234e1ac-a40e-4dff-92c3-42fd39a6a833","ios":"levelo://app?vid=7234e1ac-a40e-4dff-92c3-42fd39a6a833"},"vehicle_type_id":"4","last_reported":1708279678,"current_range_meters":19600,"station_id":"ce4bgt92rcd13ifvqcf0","pricing_plan_id":"cebpf4jnsgd1na2vs0mg"},{"bike_id":"ca730ea1-e183-4203-8b4c-64e3a38d328e","system_id":"levelo_inurba_marseille","lat":43.313571,"lon":5.384829,"is_reserved":false,"is_disabled":false,"rental_uris":{"android":"levelo://app?vid=ca730ea1-e183-4203-8b4c-64e3a38d328e","ios":"levelo://app?vid=ca730ea1-e183-4203-8b4c-64e3a38d328e"},"vehicle_type_id":"4","last_reported":1708279678,"current_range_meters":10000,"station_id":"ce4bgt92rcd13ifvqcf0","pricing_plan_id":"cebpf4jnsgd1na2vs0mg"},{"bike_id":"e0de01a9-1f44-4959-9398-706123042c64","system_id":"levelo_inurba_marseille","lat":43.313571,"lon":5.384829,"is_reserved":false,"is_disabled":false,"rental_uris":{"android":"levelo://app?vid=e0de01a9-1f44-4959-9398-706123042c64","ios":"levelo://app?vid=e0de01a9-1f44-4959-9398-706123042c64"},"vehicle_type_id":"4","last_reported":1708279678,"current_range_meters":24400,"station_id":"ce4bgt92rcd13ifvqcf0","pricing_plan_id":"cebpf4jnsgd1na2vs0mg"},{"bike_id":"31a27762-6fb4-4490-903c-e475a879dcf3","system_id":"levelo_inurba_marseille","lat":43.299724,"lon":5.371829,"is_reserved":false,"is_disabled":false,"rental_uris":{"android":"levelo://app?vid=31a27762-6fb4-4490-903c-e475a879dcf3","ios":"levelo://app?vid=31a27762-6fb4-4490-903c-e475a879dcf3"},"vehicle_type_id":"4","last_reported":1708279678,"current_range_meters":0,"station_id":"ce4bgr92rcd13ifvqc7g","pricing_plan_id":"cebpf4jnsgd1na2vs0mg"},{"bike_id":"4fbf49db-2218-4a00-97a4-1e1772d95a5e","system_id":"levelo_inurba_marseille","lat":43.299222,"lon":5.365554,"is_reserved":false,"is_disabled":false,"rental_uris":{"android":"levelo://app?vid=4fbf49db-2218-4a00-97a4-1e1772d95a5e","ios":"levelo://app?vid=4fbf49db-2218-4a00-97a4-1e1772d95a5e"},"vehicle_type_id":"4","last_reported":1708279678,"current_range_meters":21600,"station_id":"ce4bgm92rcd13ifvqbr0","pricing_plan_id":"cebpf4jnsgd1na2vs0mg"},{"bike_id":"81c36687-74fd-4dfe-88a9-30804d6a6091","system_id":"levelo_inurba_marseille","lat":43.299737,"lon":5.3717,"is_reserved":false,"is_disabled":false,"rental_uris":{"android":"levelo://app?vid=81c36687-74fd-4dfe-88a9-30804d6a6091","ios":"levelo://app?vid=81c36687-74fd-4dfe-88a9-30804d6a6091"},"vehicle_type_id":"4","last_reported":1708279678,"current_range_meters":27200,"station_id":"","pricing_plan_id":"cebpf4jnsgd1na2vs0mg"},{"bike_id":"31800b45-2a55-4fd1-a72a-814d57a6e19c","system_id":"levelo_inurba_marseille","lat":43.299724,"lon":5.371829,"is_reserved":false,"is_disabled":false,"rental_uris":{"android":"levelo://app?vid=31800b45-2a55-4fd1-a72a-814d57a6e19c","ios":"levelo://app?vid=31800b45-2a55-4fd1-a72a-814d57a6e19c"},"vehicle_type_id":"4","last_reported":1708279678,"current_range_meters":31200,"station_id":"ce4bgr92rcd13ifvqc7g","pricing_plan_id":"cebpf4jnsgd1na2vs0mg"},{"bike_id":"2a9d2b8c-7171-459a-aada-60720b718818","system_id":"levelo_inurba_marseille","lat":43.299724,"lon":5.371829,"is_reserved":false,"is_disabled":false,"rental_uris":{"android":"levelo://app?vid=2a9d2b8c-7171-459a-aada-60720b718818","ios":"levelo://app?vid=2a9d2b8c-7171-459a-aada-60720b718818"},"vehicle_type_id":"4","last_reported":1708279678,"current_range_meters":8800,"station_id":"ce4bgr92rcd13ifvqc7g","pricing_plan_id":"cebpf4jnsgd1na2vs0mg"},{"bike_id":"c501b3e5-8ffd-4f88-a619-da4fc50da5ad","system_id":"levelo_inurba_marseille","lat":43.305682,"lon":5.383836,"is_reserved":false,"is_disabled":false,"rental_uris":{"android":"levelo://app?vid=c501b3e5-8ffd-4f88-a619-da4fc50da5ad","ios":"levelo://app?vid=c501b3e5-8ffd-4f88-a619-da4fc50da5ad"},"vehicle_type_id":"4","last_reported":1708279678,"current_range_meters":16000,"station_id":"","pricing_plan_id":"cebpf4jnsgd1na2vs0mg"},{"bike_id":"c775e795-d84b-4552-b6e6-a67b7e8b6f88","system_id":"levelo_inurba_marseille","lat":43.299243,"lon":5.37481,"is_reserved":false,"is_disabled":false,"rental_uris":{"android":"levelo://app?vid=c775e795-d84b-4552-b6e6-a67b7e8b6f88","ios":"levelo://app?vid=c775e795-d84b-4552-b6e6-a67b7e8b6f88"},"vehicle_type_id":"4","last_reported":1708279678,"current_range_meters":13600,"station_id":"ce4bgjh2rcd13ifvqbg0","pricing_plan_id":"cebpf4jnsgd1na2vs0mg"},{"bike_id":"47f8fa9c-0ced-460f-9e2e-1d19f92ba617","system_id":"levelo_inurba_marseille","lat":43.311722,"lon":5.387247,"is_reserved":false,"is_disabled":false,"rental_uris":{"android":"levelo://app?vid=47f8fa9c-0ced-460f-9e2e-1d19f92ba617","ios":"levelo://app?vid=47f8fa9c-0ced-460f-9e2e-1d19f92ba617"},"vehicle_type_id":"4","last_reported":1708279678,"current_range_meters":19600,"station_id":"ce4bgv12rcd13ifvqcp0","pricing_plan_id":"cebpf4jnsgd1na2vs0mg"},{"bike_id":"c406912a-c2f8-46e5-ab05-29640c6d1769","system_id":"levelo_inurba_marseille","lat":43.311722,"lon":5.387247,"is_reserved":false,"is_disabled":false,"rental_uris":{"android":"levelo://app?vid=c406912a-c2f8-46e5-ab05-29640c6d1769","ios":"levelo://app?vid=c406912a-c2f8-46e5-ab05-29640c6d1769"},"vehicle_type_id":"4","last_reported":1708279678,"current_range_meters":22000,"station_id":"ce4bgv12rcd13ifvqcp0","pricing_plan_id":"cebpf4jnsgd1na2vs0mg"},{"bike_id":"206e7b73-93fd-4548-b13e-26f3a2a959e8","system_id":"levelo_inurba_marseille","lat":43.31172,"lon":5.38738,"is_reserved":false,"is_disabled":false,"rental_uris":{"android":"levelo://app?vid=206e7b73-93fd-4548-b13e-26f3a2a959e8","ios":"levelo://app?vid=206e7b73-93fd-4548-b13e-26f3a2a959e8"},"vehicle_type_id":"4","last_reported":1708279678,"current_range_meters":20000,"station_id":"ce4bgv12rcd13ifvqcp0","pricing_plan_id":"cebpf4jnsgd1na2vs0mg"},{"bike_id":"410a532b-f4d9-44b0-bece-5fd8115e2fc4","system_id":"levelo_inurba_marseille","lat":43.322872,"lon":5.382756,"is_reserved":false,"is_disabled":false,"rental_uris":{"android":"levelo://app?vid=410a532b-f4d9-44b0-bece-5fd8115e2fc4","ios":"levelo://app?vid=410a532b-f4d9-44b0-bece-5fd8115e2fc4"},"vehicle_type_id":"4","last_reported":1708279678,"current_range_meters":20000,"station_id":"ce4bhr12rcd13ifvqhqg","pricing_plan_id":"cebpf4jnsgd1na2vs0mg"},{"bike_id":"9af28949-3abe-4ee4-a57a-c236655c3362","system_id":"levelo_inurba_marseille","lat":43.322872,"lon":5.382756,"is_reserved":false,"is_disabled":false,"rental_uris":{"android":"levelo://app?vid=9af28949-3abe-4ee4-a57a-c236655c3362","ios":"levelo://app?vid=9af28949-3abe-4ee4-a57a-c236655c3362"},"vehicle_type_id":"4","last_reported":1708279678,"current_range_meters":31200,"station_id":"ce4bhr12rcd13ifvqhqg","pricing_plan_id":"cebpf4jnsgd1na2vs0mg"},{"bike_id":"c141ce68-b77e-46f1-8770-70ce92b66810","system_id":"levelo_inurba_marseille","lat":43.322872,"lon":5.382756,"is_reserved":false,"is_disabled":false,"rental_uris":{"android":"levelo://app?vid=c141ce68-b77e-46f1-8770-70ce92b66810","ios":"levelo://app?vid=c141ce68-b77e-46f1-8770-70ce92b66810"},"vehicle_type_id":"4","last_reported":1708279678,"current_range_meters":0,"station_id":"ce4bhr12rcd13ifvqhqg","pricing_plan_id":"cebpf4jnsgd1na2vs0mg"},{"bike_id":"56e39d4e-cf47-4284-9a5f-c7eda237067f","system_id":"levelo_inurba_marseille","lat":43.328214,"lon":5.366872,"is_reserved":false,"is_disabled":false,"rental_uris":{"android":"levelo://app?vid=56e39d4e-cf47-4284-9a5f-c7eda237067f","ios":"levelo://app?vid=56e39d4e-cf47-4284-9a5f-c7eda237067f"},"vehicle_type_id":"4","last_reported":1708279678,"current_range_meters":25600,"station_id":"ce4bhs92rcd13ifvqi0g","pricing_plan_id":"cebpf4jnsgd1na2vs0mg"},{"bike_id":"5195dc94-0b55-41c8-9198-580992dd67c5","system_id":"levelo_inurba_marseille","lat":43.328255,"lon":5.366901,"is_reserved":false,"is_disabled":false,"rental_uris":{"android":"levelo://app?vid=5195dc94-0b55-41c8-9198-580992dd67c5","ios":"levelo://app?vid=5195dc94-0b55-41c8-9198-580992dd67c5"},"vehicle_type_id":"4","last_reported":1708279678,"current_range_meters":15600,"station_id":"ce4bhs92rcd13ifvqi0g","pricing_plan_id":"cebpf4jnsgd1na2vs0mg"},{"bike_id":"2459963a-9a41-477a-9f46-310730d184fe","system_id":"levelo_inurba_marseille","lat":43.32826,"lon":5.36684,"is_reserved":false,"is_disabled":false,"rental_uris":{"android":"levelo://app?vid=2459963a-9a41-477a-9f46-310730d184fe","ios":"levelo://app?vid=2459963a-9a41-477a-9f46-310730d184fe"},"vehicle_type_id":"4","last_reported":1708279678,"current_range_meters":13200,"station_id":"ce4bhs92rcd13ifvqi0g","pricing_plan_id":"cebpf4jnsgd1na2vs0mg"},{"bike_id":"45fe6c6c-2569-4aee-9c18-3f3586004f23","system_id":"levelo_inurba_marseille","lat":43.32826,"lon":5.366772,"is_reserved":false,"is_disabled":false,"rental_uris":{"android":"levelo://app?vid=45fe6c6c-2569-4aee-9c18-3f3586004f23","ios":"levelo://app?vid=45fe6c6c-2569-4aee-9c18-3f3586004f23"},"vehicle_type_id":"4","last_reported":1708279678,"current_range_meters":18400,"station_id":"ce4bhs92rcd13ifvqi0g","pricing_plan_id":"cebpf4jnsgd1na2vs0mg"},{"bike_id":"ee7dd371-368a-440e-b6db-3978fbf82094","system_id":"levelo_inurba_marseille","lat":43.328371,"lon":5.366909,"is_reserved":false,"is_disabled":false,"rental_uris":{"android":"levelo://app?vid=ee7dd371-368a-440e-b6db-3978fbf82094","ios":"levelo://app?vid=ee7dd371-368a-440e-b6db-3978fbf82094"},"vehicle_type_id":"4","last_reported":1708279678,"current_range_meters":400,"station_id":"ce4bhs92rcd13ifvqi0g","pricing_plan_id":"cebpf4jnsgd1na2vs0mg"},{"bike_id":"41c65e4b-4ba5-40db-9862-5e1c6e726334","system_id":"levelo_inurba_marseille","lat":43.328264,"lon":5.366883,"is_reserved":false,"is_disabled":false,"rental_uris":{"android":"levelo://app?vid=41c65e4b-4ba5-40db-9862-5e1c6e726334","ios":"levelo://app?vid=41c65e4b-4ba5-40db-9862-5e1c6e726334"},"vehicle_type_id":"4","last_reported":1708279678,"current_range_meters":400,"station_id":"ce4bhs92rcd13ifvqi0g","pricing_plan_id":"cebpf4jnsgd1na2vs0mg"},{"bike_id":"55f2d4b0-8802-4bd2-8697-0f012dcc25c1","system_id":"levelo_inurba_marseille","lat":43.32827,"lon":5.3669,"is_reserved":false,"is_disabled":false,"rental_uris":{"android":"levelo://app?vid=55f2d4b0-8802-4bd2-8697-0f012dcc25c1","ios":"levelo://app?vid=55f2d4b0-8802-4bd2-8697-0f012dcc25c1"},"vehicle_type_id":"4","last_reported":1708279678,"current_range_meters":30000,"station_id":"ce4bhs92rcd13ifvqi0g","pricing_plan_id":"cebpf4jnsgd1na2vs0mg"},{"bike_id":"d4293f9d-0d56-46f3-aaf4-9639cf196cdc","system_id":"levelo_inurba_marseille","lat":43.32828,"lon":5.366767,"is_reserved":false,"is_disabled":false,"rental_uris":{"android":"levelo://app?vid=d4293f9d-0d56-46f3-aaf4-9639cf196cdc","ios":"levelo://app?vid=d4293f9d-0d56-46f3-aaf4-9639cf196cdc"},"vehicle_type_id":"4","last_reported":1708279678,"current_range_meters":7200,"station_id":"ce4bhs92rcd13ifvqi0g","pricing_plan_id":"cebpf4jnsgd1na2vs0mg"},{"bike_id":"a7c23186-9058-42c6-a37b-c5cc63cf8aac","system_id":"levelo_inurba_marseille","lat":43.32829,"lon":5.36695,"is_reserved":false,"is_disabled":false,"rental_uris":{"android":"levelo://app?vid=a7c23186-9058-42c6-a37b-c5cc63cf8aac","ios":"levelo://app?vid=a7c23186-9058-42c6-a37b-c5cc63cf8aac"},"vehicle_type_id":"4","last_reported":1708279678,"current_range_meters":800,"station_id":"ce4bhs92rcd13ifvqi0g","pricing_plan_id":"cebpf4jnsgd1na2vs0mg"},{"bike_id":"3ce3bf05-0e26-4ba4-9a11-4781ff3d0eb6","system_id":"levelo_inurba_marseille","lat":43.32833,"lon":5.36685,"is_reserved":false,"is_disabled":false,"rental_uris":{"android":"levelo://app?vid=3ce3bf05-0e26-4ba4-9a11-4781ff3d0eb6","ios":"levelo://app?vid=3ce3bf05-0e26-4ba4-9a11-4781ff3d0eb6"},"vehicle_type_id":"4","last_reported":1708279678,"current_range_meters":0,"station_id":"ce4bhs92rcd13ifvqi0g","pricing_plan_id":"cebpf4jnsgd1na2vs0mg"},{"bike_id":"fcbb72e3-aeee-4031-b1db-dc05c41736e9","system_id":"levelo_inurba_marseille","lat":43.32834,"lon":5.3669,"is_reserved":false,"is_disabled":false,"rental_uris":{"android":"levelo://app?vid=fcbb72e3-aeee-4031-b1db-dc05c41736e9","ios":"levelo://app?vid=fcbb72e3-aeee-4031-b1db-dc05c41736e9"},"vehicle_type_id":"4","last_reported":1708279678,"current_range_meters":9200,"station_id":"ce4bhs92rcd13ifvqi0g","pricing_plan_id":"cebpf4jnsgd1na2vs0mg"},{"bike_id":"893a329c-9f10-4068-9f5b-6c8718d136d4","system_id":"levelo_inurba_marseille","lat":43.32834,"lon":5.36683,"is_reserved":false,"is_disabled":false,"rental_uris":{"android":"levelo://app?vid=893a329c-9f10-4068-9f5b-6c8718d136d4","ios":"levelo://app?vid=893a329c-9f10-4068-9f5b-6c8718d136d4"},"vehicle_type_id":"4","last_reported":1708279678,"current_range_meters":20400,"station_id":"ce4bhs92rcd13ifvqi0g","pricing_plan_id":"cebpf4jnsgd1na2vs0mg"},{"bike_id":"c506c621-890d-42ca-85fc-ec6790c0b426","system_id":"levelo_inurba_marseille","lat":43.297163,"lon":5.365866,"is_reserved":false,"is_disabled":false,"rental_uris":{"android":"levelo://app?vid=c506c621-890d-42ca-85fc-ec6790c0b426","ios":"levelo://app?vid=c506c621-890d-42ca-85fc-ec6790c0b426"},"vehicle_type_id":"4","last_reported":1708279678,"current_range_meters":12000,"station_id":"ce4bgn12rcd13ifvqbt0","pricing_plan_id":"cebpf4jnsgd1na2vs0mg"},{"bike_id":"39b1984d-8f02-4685-a70a-160b9ffb824d","system_id":"levelo_inurba_marseille","lat":43.328385,"lon":5.366935,"is_reserved":false,"is_disabled":false,"rental_uris":{"android":"levelo://app?vid=39b1984d-8f02-4685-a70a-160b9ffb824d","ios":"levelo://app?vid=39b1984d-8f02-4685-a70a-160b9ffb824d"},"vehicle_type_id":"4","last_reported":1708279678,"current_range_meters":2800,"station_id":"ce4bhs92rcd13ifvqi0g","pricing_plan_id":"cebpf4jnsgd1na2vs0mg"},{"bike_id":"fd4f9923-79d3-4bca-abe2-74a0379c2db5","system_id":"levelo_inurba_marseille","lat":43.29706,"lon":5.36587,"is_reserved":false,"is_disabled":false,"rental_uris":{"android":"levelo://app?vid=fd4f9923-79d3-4bca-abe2-74a0379c2db5","ios":"levelo://app?vid=fd4f9923-79d3-4bca-abe2-74a0379c2db5"},"vehicle_type_id":"4","last_reported":1708279678,"current_range_meters":800,"station_id":"ce4bgn12rcd13ifvqbt0","pricing_plan_id":"cebpf4jnsgd1na2vs0mg"},{"bike_id":"71e7c0cb-2e90-4348-a60f-a2f76e853028","system_id":"levelo_inurba_marseille","lat":43.297163,"lon":5.365866,"is_reserved":false,"is_disabled":false,"rental_uris":{"android":"levelo://app?vid=71e7c0cb-2e90-4348-a60f-a2f76e853028","ios":"levelo://app?vid=71e7c0cb-2e90-4348-a60f-a2f76e853028"},"vehicle_type_id":"4","last_reported":1708279678,"current_range_meters":8400,"station_id":"ce4bgn12rcd13ifvqbt0","pricing_plan_id":"cebpf4jnsgd1na2vs0mg"},{"bike_id":"7eb8d600-192f-458e-a55a-f27d5abbcbed","system_id":"levelo_inurba_marseille","lat":43.297163,"lon":5.365866,"is_reserved":false,"is_disabled":false,"rental_uris":{"android":"levelo://app?vid=7eb8d600-192f-458e-a55a-f27d5abbcbed","ios":"levelo://app?vid=7eb8d600-192f-458e-a55a-f27d5abbcbed"},"vehicle_type_id":"4","last_reported":1708279678,"current_range_meters":27600,"station_id":"ce4bgn12rcd13ifvqbt0","pricing_plan_id":"cebpf4jnsgd1na2vs0mg"},{"bike_id":"fc73ceb6-7722-4fe1-92a3-e1cd90f65005","system_id":"levelo_inurba_marseille","lat":43.2963,"lon":5.36791,"is_reserved":false,"is_disabled":false,"rental_uris":{"android":"levelo://app?vid=fc73ceb6-7722-4fe1-92a3-e1cd90f65005","ios":"levelo://app?vid=fc73ceb6-7722-4fe1-92a3-e1cd90f65005"},"vehicle_type_id":"4","last_reported":1708279678,"current_range_meters":24000,"station_id":"","pricing_plan_id":"cebpf4jnsgd1na2vs0mg"},{"bike_id":"b4438af5-e185-460c-81fa-d4be4dc6d945","system_id":"levelo_inurba_marseille","lat":43.2968,"lon":5.37291,"is_reserved":false,"is_disabled":false,"rental_uris":{"android":"levelo://app?vid=b4438af5-e185-460c-81fa-d4be4dc6d945","ios":"levelo://app?vid=b4438af5-e185-460c-81fa-d4be4dc6d945"},"vehicle_type_id":"4","last_reported":1708279678,"current_range_meters":11200,"station_id":"ce4bgk12rcd13ifvqbj0","pricing_plan_id":"cebpf4jnsgd1na2vs0mg"},{"bike_id":"4210bb54-09a6-4de2-8ff5-ed6880094579","system_id":"levelo_inurba_marseille","lat":43.296129,"lon":5.370777,"is_reserved":false,"is_disabled":false,"rental_uris":{"android":"levelo://app?vid=4210bb54-09a6-4de2-8ff5-ed6880094579","ios":"levelo://app?vid=4210bb54-09a6-4de2-8ff5-ed6880094579"},"vehicle_type_id":"4","last_reported":1708279678,"current_range_meters":5600,"station_id":"ce4bgnh2rcd13ifvqc0g","pricing_plan_id":"cebpf4jnsgd1na2vs0mg"},{"bike_id":"10a901f7-5a82-4c70-900a-fda314e49d8a","system_id":"levelo_inurba_marseille","lat":43.309507,"lon":5.390203,"is_reserved":false,"is_disabled":false,"rental_uris":{"android":"levelo://app?vid=10a901f7-5a82-4c70-900a-fda314e49d8a","ios":"levelo://app?vid=10a901f7-5a82-4c70-900a-fda314e49d8a"},"vehicle_type_id":"4","last_reported":1708279678,"current_range_meters":13600,"station_id":"","pricing_plan_id":"cebpf4jnsgd1na2vs0mg"},{"bike_id":"6e1775fb-2678-4080-b250-4556411fcc56","system_id":"levelo_inurba_marseille","lat":43.299028,"lon":5.381509,"is_reserved":false,"is_disabled":false,"rental_uris":{"android":"levelo://app?vid=6e1775fb-2678-4080-b250-4556411fcc56","ios":"levelo://app?vid=6e1775fb-2678-4080-b250-4556411fcc56"},"vehicle_type_id":"4","last_reported":1708279678,"current_range_meters":24000,"station_id":"ce4bgj12rcd13ifvqbc0","pricing_plan_id":"cebpf4jnsgd1na2vs0mg"},{"bike_id":"1f89e689-e1a4-47ca-936f-9ae1eed66b21","system_id":"levelo_inurba_marseille","lat":43.309589,"lon":5.390258,"is_reserved":false,"is_disabled":false,"rental_uris":{"android":"levelo://app?vid=1f89e689-e1a4-47ca-936f-9ae1eed66b21","ios":"levelo://app?vid=1f89e689-e1a4-47ca-936f-9ae1eed66b21"},"vehicle_type_id":"4","last_reported":1708279678,"current_range_meters":18400,"station_id":"ce4bgup2rcd13ifvqco0","pricing_plan_id":"cebpf4jnsgd1na2vs0mg"},{"bike_id":"31c700d6-cb29-4fde-bca9-7f163e875af1","system_id":"levelo_inurba_marseille","lat":43.296921,"lon":5.376579,"is_reserved":false,"is_disabled":false,"rental_uris":{"android":"levelo://app?vid=31c700d6-cb29-4fde-bca9-7f163e875af1","ios":"levelo://app?vid=31c700d6-cb29-4fde-bca9-7f163e875af1"},"vehicle_type_id":"4","last_reported":1708279678,"current_range_meters":7600,"station_id":"ce4bgkh2rcd13ifvqbl0","pricing_plan_id":"cebpf4jnsgd1na2vs0mg"},{"bike_id":"8e2b2a99-b1a5-4fc4-a461-0cb886813c94","system_id":"levelo_inurba_marseille","lat":43.296935,"lon":5.376544,"is_reserved":false,"is_disabled":false,"rental_uris":{"android":"levelo://app?vid=8e2b2a99-b1a5-4fc4-a461-0cb886813c94","ios":"levelo://app?vid=8e2b2a99-b1a5-4fc4-a461-0cb886813c94"},"vehicle_type_id":"4","last_reported":1708279678,"current_range_meters":4000,"station_id":"ce4bgkh2rcd13ifvqbl0","pricing_plan_id":"cebpf4jnsgd1na2vs0mg"},{"bike_id":"c35e5277-b202-4110-b491-f1e7ebcea1e4","system_id":"levelo_inurba_marseille","lat":43.31756,"lon":5.38998,"is_reserved":false,"is_disabled":false,"rental_uris":{"android":"levelo://app?vid=c35e5277-b202-4110-b491-f1e7ebcea1e4","ios":"levelo://app?vid=c35e5277-b202-4110-b491-f1e7ebcea1e4"},"vehicle_type_id":"4","last_reported":1708279678,"current_range_meters":4800,"station_id":"ce4bhqp2rcd13ifvqhng","pricing_plan_id":"cebpf4jnsgd1na2vs0mg"},{"bike_id":"7965759c-da01-417e-8302-6227e56143eb","system_id":"levelo_inurba_marseille","lat":43.317557,"lon":5.390173,"is_reserved":false,"is_disabled":false,"rental_uris":{"android":"levelo://app?vid=7965759c-da01-417e-8302-6227e56143eb","ios":"levelo://app?vid=7965759c-da01-417e-8302-6227e56143eb"},"vehicle_type_id":"4","last_reported":1708279678,"current_range_meters":20400,"station_id":"ce4bhqp2rcd13ifvqhng","pricing_plan_id":"cebpf4jnsgd1na2vs0mg"},{"bike_id":"7d56fc82-31de-4bfd-a344-8c5cafa592f4","system_id":"levelo_inurba_marseille","lat":43.31762,"lon":5.39017,"is_reserved":false,"is_disabled":false,"rental_uris":{"android":"levelo://app?vid=7d56fc82-31de-4bfd-a344-8c5cafa592f4","ios":"levelo://app?vid=7d56fc82-31de-4bfd-a344-8c5cafa592f4"},"vehicle_type_id":"4","last_reported":1708279678,"current_range_meters":29600,"station_id":"ce4bhqp2rcd13ifvqhng","pricing_plan_id":"cebpf4jnsgd1na2vs0mg"},{"bike_id":"03dc9756-b40d-4d0d-8ca2-cc5f934375ae","system_id":"levelo_inurba_marseille","lat":43.298037,"lon":5.381066,"is_reserved":false,"is_disabled":false,"rental_uris":{"android":"levelo://app?vid=03dc9756-b40d-4d0d-8ca2-cc5f934375ae","ios":"levelo://app?vid=03dc9756-b40d-4d0d-8ca2-cc5f934375ae"},"vehicle_type_id":"4","last_reported":1708279678,"current_range_meters":1600,"station_id":"ce4bgip2rcd13ifvqbb0","pricing_plan_id":"cebpf4jnsgd1na2vs0mg"},{"bike_id":"9b9a2bac-8f05-4f76-b20c-67f959f0616a","system_id":"levelo_inurba_marseille","lat":43.296277,"lon":5.377108,"is_reserved":false,"is_disabled":false,"rental_uris":{"android":"levelo://app?vid=9b9a2bac-8f05-4f76-b20c-67f959f0616a","ios":"levelo://app?vid=9b9a2bac-8f05-4f76-b20c-67f959f0616a"},"vehicle_type_id":"4","last_reported":1708279678,"current_range_meters":26800,"station_id":"ce4bgi92rcd13ifvqb90","pricing_plan_id":"cebpf4jnsgd1na2vs0mg"},{"bike_id":"df3ab145-a37e-4da2-afb9-cf390a17d08c","system_id":"levelo_inurba_marseille","lat":43.296277,"lon":5.377108,"is_reserved":false,"is_disabled":false,"rental_uris":{"android":"levelo://app?vid=df3ab145-a37e-4da2-afb9-cf390a17d08c","ios":"levelo://app?vid=df3ab145-a37e-4da2-afb9-cf390a17d08c"},"vehicle_type_id":"4","last_reported":1708279678,"current_range_meters":1200,"station_id":"ce4bgi92rcd13ifvqb90","pricing_plan_id":"cebpf4jnsgd1na2vs0mg"},{"bike_id":"2e9d13df-4f59-4010-8db5-1d4d73dfaf44","system_id":"levelo_inurba_marseille","lat":43.296277,"lon":5.377108,"is_reserved":false,"is_disabled":false,"rental_uris":{"android":"levelo://app?vid=2e9d13df-4f59-4010-8db5-1d4d73dfaf44","ios":"levelo://app?vid=2e9d13df-4f59-4010-8db5-1d4d73dfaf44"},"vehicle_type_id":"4","last_reported":1708279678,"current_range_meters":21200,"station_id":"ce4bgi92rcd13ifvqb90","pricing_plan_id":"cebpf4jnsgd1na2vs0mg"},{"bike_id":"b9b2d8c5-af4b-458c-b381-6114e22af0d0","system_id":"levelo_inurba_marseille","lat":43.296277,"lon":5.377108,"is_reserved":false,"is_disabled":false,"rental_uris":{"android":"levelo://app?vid=b9b2d8c5-af4b-458c-b381-6114e22af0d0","ios":"levelo://app?vid=b9b2d8c5-af4b-458c-b381-6114e22af0d0"},"vehicle_type_id":"4","last_reported":1708279678,"current_range_meters":26000,"station_id":"ce4bgi92rcd13ifvqb90","pricing_plan_id":"cebpf4jnsgd1na2vs0mg"},{"bike_id":"fb6a91ac-4ea6-42da-96ff-2930db92761c","system_id":"levelo_inurba_marseille","lat":43.297785,"lon":5.381325,"is_reserved":false,"is_disabled":false,"rental_uris":{"android":"levelo://app?vid=fb6a91ac-4ea6-42da-96ff-2930db92761c","ios":"levelo://app?vid=fb6a91ac-4ea6-42da-96ff-2930db92761c"},"vehicle_type_id":"4","last_reported":1708279678,"current_range_meters":9600,"station_id":"","pricing_plan_id":"cebpf4jnsgd1na2vs0mg"},{"bike_id":"2dc239f0-134c-4e3a-a445-ec80651be050","system_id":"levelo_inurba_marseille","lat":43.29603,"lon":5.37715,"is_reserved":false,"is_disabled":false,"rental_uris":{"android":"levelo://app?vid=2dc239f0-134c-4e3a-a445-ec80651be050","ios":"levelo://app?vid=2dc239f0-134c-4e3a-a445-ec80651be050"},"vehicle_type_id":"4","last_reported":1708279678,"current_range_meters":26800,"station_id":"ce4bgi92rcd13ifvqb90","pricing_plan_id":"cebpf4jnsgd1na2vs0mg"},{"bike_id":"27ecc0b3-1f8b-4a7e-be2e-1b44dd54b98c","system_id":"levelo_inurba_marseille","lat":43.295279,"lon":5.375048,"is_reserved":false,"is_disabled":false,"rental_uris":{"android":"levelo://app?vid=27ecc0b3-1f8b-4a7e-be2e-1b44dd54b98c","ios":"levelo://app?vid=27ecc0b3-1f8b-4a7e-be2e-1b44dd54b98c"},"vehicle_type_id":"4","last_reported":1708279678,"current_range_meters":0,"station_id":"ce4bgkp2rcd13ifvqbmg","pricing_plan_id":"cebpf4jnsgd1na2vs0mg"},{"bike_id":"4130ba39-fe59-4485-bec9-1d1fe723741d","system_id":"levelo_inurba_marseille","lat":43.295235,"lon":5.374859,"is_reserved":false,"is_disabled":false,"rental_uris":{"android":"levelo://app?vid=4130ba39-fe59-4485-bec9-1d1fe723741d","ios":"levelo://app?vid=4130ba39-fe59-4485-bec9-1d1fe723741d"},"vehicle_type_id":"4","last_reported":1708279678,"current_range_meters":0,"station_id":"ce4bgkp2rcd13ifvqbmg","pricing_plan_id":"cebpf4jnsgd1na2vs0mg"},{"bike_id":"373cca65-6795-4be5-ad3e-d17cb4fd7e94","system_id":"levelo_inurba_marseille","lat":43.29529,"lon":5.375181,"is_reserved":false,"is_disabled":false,"rental_uris":{"android":"levelo://app?vid=373cca65-6795-4be5-ad3e-d17cb4fd7e94","ios":"levelo://app?vid=373cca65-6795-4be5-ad3e-d17cb4fd7e94"},"vehicle_type_id":"4","last_reported":1708279678,"current_range_meters":0,"station_id":"ce4bgkp2rcd13ifvqbmg","pricing_plan_id":"cebpf4jnsgd1na2vs0mg"},{"bike_id":"01f54485-c096-4984-844d-c1d274a2f915","system_id":"levelo_inurba_marseille","lat":43.295279,"lon":5.375048,"is_reserved":false,"is_disabled":false,"rental_uris":{"android":"levelo://app?vid=01f54485-c096-4984-844d-c1d274a2f915","ios":"levelo://app?vid=01f54485-c096-4984-844d-c1d274a2f915"},"vehicle_type_id":"4","last_reported":1708279678,"current_range_meters":0,"station_id":"ce4bgkp2rcd13ifvqbmg","pricing_plan_id":"cebpf4jnsgd1na2vs0mg"},{"bike_id":"d52b95d5-4d1d-400e-971e-bec9520a9111","system_id":"levelo_inurba_marseille","lat":43.299717,"lon":5.384845,"is_reserved":false,"is_disabled":false,"rental_uris":{"android":"levelo://app?vid=d52b95d5-4d1d-400e-971e-bec9520a9111","ios":"levelo://app?vid=d52b95d5-4d1d-400e-971e-bec9520a9111"},"vehicle_type_id":"4","last_reported":1708279678,"current_range_meters":0,"station_id":"ce4bgj92rcd13ifvqbd0","pricing_plan_id":"cebpf4jnsgd1na2vs0mg"},{"bike_id":"dd2140b9-5b6a-4381-bee6-7ca54954f6f0","system_id":"levelo_inurba_marseille","lat":43.299724,"lon":5.384848,"is_reserved":false,"is_disabled":false,"rental_uris":{"android":"levelo://app?vid=dd2140b9-5b6a-4381-bee6-7ca54954f6f0","ios":"levelo://app?vid=dd2140b9-5b6a-4381-bee6-7ca54954f6f0"},"vehicle_type_id":"4","last_reported":1708279678,"current_range_meters":17600,"station_id":"ce4bgj92rcd13ifvqbd0","pricing_plan_id":"cebpf4jnsgd1na2vs0mg"},{"bike_id":"c679c8da-7ea4-470b-96d1-05b3640ae19e","system_id":"levelo_inurba_marseille","lat":43.294162,"lon":5.386292,"is_reserved":false,"is_disabled":false,"rental_uris":{"android":"levelo://app?vid=c679c8da-7ea4-470b-96d1-05b3640ae19e","ios":"levelo://app?vid=c679c8da-7ea4-470b-96d1-05b3640ae19e"},"vehicle_type_id":"4","last_reported":1708279678,"current_range_meters":5200,"station_id":"ce4bh2h2rcd13ifvqdh0","pricing_plan_id":"cebpf4jnsgd1na2vs0mg"},{"bike_id":"95dd60d5-8e41-4038-bf6e-79b014062b5e","system_id":"levelo_inurba_marseille","lat":43.32367,"lon":5.388836,"is_reserved":false,"is_disabled":false,"rental_uris":{"android":"levelo://app?vid=95dd60d5-8e41-4038-bf6e-79b014062b5e","ios":"levelo://app?vid=95dd60d5-8e41-4038-bf6e-79b014062b5e"},"vehicle_type_id":"4","last_reported":1708279678,"current_range_meters":23200,"station_id":"ce4bhqp2rcd13ifvqhog","pricing_plan_id":"cebpf4jnsgd1na2vs0mg"},{"bike_id":"653e2883-b166-4533-bc7b-bd829bc117d3","system_id":"levelo_inurba_marseille","lat":43.32367,"lon":5.388836,"is_reserved":false,"is_disabled":false,"rental_uris":{"android":"levelo://app?vid=653e2883-b166-4533-bc7b-bd829bc117d3","ios":"levelo://app?vid=653e2883-b166-4533-bc7b-bd829bc117d3"},"vehicle_type_id":"4","last_reported":1708279678,"current_range_meters":29200,"station_id":"ce4bhqp2rcd13ifvqhog","pricing_plan_id":"cebpf4jnsgd1na2vs0mg"},{"bike_id":"7eb6029b-f5bd-4831-a411-7d7305041e39","system_id":"levelo_inurba_marseille","lat":43.32367,"lon":5.388836,"is_reserved":false,"is_disabled":false,"rental_uris":{"android":"levelo://app?vid=7eb6029b-f5bd-4831-a411-7d7305041e39","ios":"levelo://app?vid=7eb6029b-f5bd-4831-a411-7d7305041e39"},"vehicle_type_id":"4","last_reported":1708279678,"current_range_meters":19600,"station_id":"ce4bhqp2rcd13ifvqhog","pricing_plan_id":"cebpf4jnsgd1na2vs0mg"},{"bike_id":"a8d59a63-baf3-4916-b441-841bc122b7e6","system_id":"levelo_inurba_marseille","lat":43.29602,"lon":5.381084,"is_reserved":false,"is_disabled":false,"rental_uris":{"android":"levelo://app?vid=a8d59a63-baf3-4916-b441-841bc122b7e6","ios":"levelo://app?vid=a8d59a63-baf3-4916-b441-841bc122b7e6"},"vehicle_type_id":"4","last_reported":1708279678,"current_range_meters":13600,"station_id":"ce4bgl12rcd13ifvqbo0","pricing_plan_id":"cebpf4jnsgd1na2vs0mg"},{"bike_id":"77034b9c-e48a-4809-861d-5ec7d2f8af9f","system_id":"levelo_inurba_marseille","lat":43.29602,"lon":5.381084,"is_reserved":false,"is_disabled":false,"rental_uris":{"android":"levelo://app?vid=77034b9c-e48a-4809-861d-5ec7d2f8af9f","ios":"levelo://app?vid=77034b9c-e48a-4809-861d-5ec7d2f8af9f"},"vehicle_type_id":"4","last_reported":1708279678,"current_range_meters":800,"station_id":"ce4bgl12rcd13ifvqbo0","pricing_plan_id":"cebpf4jnsgd1na2vs0mg"},{"bike_id":"7a42ab96-62eb-4dd9-bc95-98c73bdec22b","system_id":"levelo_inurba_marseille","lat":43.29599,"lon":5.38106,"is_reserved":false,"is_disabled":false,"rental_uris":{"android":"levelo://app?vid=7a42ab96-62eb-4dd9-bc95-98c73bdec22b","ios":"levelo://app?vid=7a42ab96-62eb-4dd9-bc95-98c73bdec22b"},"vehicle_type_id":"4","last_reported":1708279678,"current_range_meters":12800,"station_id":"ce4bgl12rcd13ifvqbo0","pricing_plan_id":"cebpf4jnsgd1na2vs0mg"},{"bike_id":"e30b5766-139a-4ca3-8c44-a91808c842c6","system_id":"levelo_inurba_marseille","lat":43.293974,"lon":5.375982,"is_reserved":false,"is_disabled":false,"rental_uris":{"android":"levelo://app?vid=e30b5766-139a-4ca3-8c44-a91808c842c6","ios":"levelo://app?vid=e30b5766-139a-4ca3-8c44-a91808c842c6"},"vehicle_type_id":"4","last_reported":1708279678,"current_range_meters":18400,"station_id":"","pricing_plan_id":"cebpf4jnsgd1na2vs0mg"},{"bike_id":"a162a956-6904-4d5a-b929-2cee9459ab8d","system_id":"levelo_inurba_marseille","lat":43.293259,"lon":5.371586,"is_reserved":false,"is_disabled":false,"rental_uris":{"android":"levelo://app?vid=a162a956-6904-4d5a-b929-2cee9459ab8d","ios":"levelo://app?vid=a162a956-6904-4d5a-b929-2cee9459ab8d"},"vehicle_type_id":"4","last_reported":1708279678,"current_range_meters":0,"station_id":"ce4bgh92rcd13ifvqb40","pricing_plan_id":"cebpf4jnsgd1na2vs0mg"},{"bike_id":"ee4c1151-7ab9-4256-8e82-9b85d503373c","system_id":"levelo_inurba_marseille","lat":43.293249,"lon":5.371578,"is_reserved":false,"is_disabled":false,"rental_uris":{"android":"levelo://app?vid=ee4c1151-7ab9-4256-8e82-9b85d503373c","ios":"levelo://app?vid=ee4c1151-7ab9-4256-8e82-9b85d503373c"},"vehicle_type_id":"4","last_reported":1708279678,"current_range_meters":30000,"station_id":"ce4bgh92rcd13ifvqb40","pricing_plan_id":"cebpf4jnsgd1na2vs0mg"},{"bike_id":"56fb3ae0-5138-49d0-88fc-1be308280c32","system_id":"levelo_inurba_marseille","lat":43.292762,"lon":5.368413,"is_reserved":false,"is_disabled":false,"rental_uris":{"android":"levelo://app?vid=56fb3ae0-5138-49d0-88fc-1be308280c32","ios":"levelo://app?vid=56fb3ae0-5138-49d0-88fc-1be308280c32"},"vehicle_type_id":"4","last_reported":1708279678,"current_range_meters":0,"station_id":"ce4bhbp2rcd13ifvqesg","pricing_plan_id":"cebpf4jnsgd1na2vs0mg"},{"bike_id":"90874957-d219-41fa-aaf9-c534e1c1d922","system_id":"levelo_inurba_marseille","lat":43.293249,"lon":5.371578,"is_reserved":false,"is_disabled":false,"rental_uris":{"android":"levelo://app?vid=90874957-d219-41fa-aaf9-c534e1c1d922","ios":"levelo://app?vid=90874957-d219-41fa-aaf9-c534e1c1d922"},"vehicle_type_id":"4","last_reported":1708279678,"current_range_meters":24800,"station_id":"ce4bgh92rcd13ifvqb40","pricing_plan_id":"cebpf4jnsgd1na2vs0mg"},{"bike_id":"e99723e0-7782-4c7f-98a3-3516f66dd17c","system_id":"levelo_inurba_marseille","lat":43.292749,"lon":5.368402,"is_reserved":false,"is_disabled":false,"rental_uris":{"android":"levelo://app?vid=e99723e0-7782-4c7f-98a3-3516f66dd17c","ios":"levelo://app?vid=e99723e0-7782-4c7f-98a3-3516f66dd17c"},"vehicle_type_id":"4","last_reported":1708279678,"current_range_meters":20400,"station_id":"ce4bhbp2rcd13ifvqesg","pricing_plan_id":"cebpf4jnsgd1na2vs0mg"},{"bike_id":"8a556a90-c80d-488f-8c5d-61f698574cf8","system_id":"levelo_inurba_marseille","lat":43.298648,"lon":5.386698,"is_reserved":false,"is_disabled":false,"rental_uris":{"android":"levelo://app?vid=8a556a90-c80d-488f-8c5d-61f698574cf8","ios":"levelo://app?vid=8a556a90-c80d-488f-8c5d-61f698574cf8"},"vehicle_type_id":"4","last_reported":1708279678,"current_range_meters":4400,"station_id":"","pricing_plan_id":"cebpf4jnsgd1na2vs0mg"},{"bike_id":"c5b2dd9d-4aeb-4095-bc1a-d73a696d0f6b","system_id":"levelo_inurba_marseille","lat":43.305994,"lon":5.393687,"is_reserved":false,"is_disabled":false,"rental_uris":{"android":"levelo://app?vid=c5b2dd9d-4aeb-4095-bc1a-d73a696d0f6b","ios":"levelo://app?vid=c5b2dd9d-4aeb-4095-bc1a-d73a696d0f6b"},"vehicle_type_id":"4","last_reported":1708279678,"current_range_meters":23200,"station_id":"ce4bh0p2rcd13ifvqd80","pricing_plan_id":"cebpf4jnsgd1na2vs0mg"},{"bike_id":"d54c4d70-1f48-4f14-9b48-7f6862726a37","system_id":"levelo_inurba_marseille","lat":43.293009,"lon":5.374584,"is_reserved":false,"is_disabled":false,"rental_uris":{"android":"levelo://app?vid=d54c4d70-1f48-4f14-9b48-7f6862726a37","ios":"levelo://app?vid=d54c4d70-1f48-4f14-9b48-7f6862726a37"},"vehicle_type_id":"4","last_reported":1708279678,"current_range_meters":0,"station_id":"ce4bgi12rcd13ifvqb70","pricing_plan_id":"cebpf4jnsgd1na2vs0mg"},{"bike_id":"7dbf363f-7ef1-4093-832e-011aee0a3ed2","system_id":"levelo_inurba_marseille","lat":43.30191,"lon":5.39087,"is_reserved":false,"is_disabled":false,"rental_uris":{"android":"levelo://app?vid=7dbf363f-7ef1-4093-832e-011aee0a3ed2","ios":"levelo://app?vid=7dbf363f-7ef1-4093-832e-011aee0a3ed2"},"vehicle_type_id":"4","last_reported":1708279678,"current_range_meters":19200,"station_id":"","pricing_plan_id":"cebpf4jnsgd1na2vs0mg"},{"bike_id":"0d57e6b2-1bc5-42f2-ba41-32c1527beee5","system_id":"levelo_inurba_marseille","lat":43.30592,"lon":5.39357,"is_reserved":false,"is_disabled":false,"rental_uris":{"android":"levelo://app?vid=0d57e6b2-1bc5-42f2-ba41-32c1527beee5","ios":"levelo://app?vid=0d57e6b2-1bc5-42f2-ba41-32c1527beee5"},"vehicle_type_id":"4","last_reported":1708279678,"current_range_meters":0,"station_id":"ce4bh0p2rcd13ifvqd80","pricing_plan_id":"cebpf4jnsgd1na2vs0mg"},{"bike_id":"e808e4e1-b1f2-4baf-be68-2946c00f0a21","system_id":"levelo_inurba_marseille","lat":43.293009,"lon":5.374584,"is_reserved":false,"is_disabled":false,"rental_uris":{"android":"levelo://app?vid=e808e4e1-b1f2-4baf-be68-2946c00f0a21","ios":"levelo://app?vid=e808e4e1-b1f2-4baf-be68-2946c00f0a21"},"vehicle_type_id":"4","last_reported":1708279678,"current_range_meters":28800,"station_id":"ce4bgi12rcd13ifvqb70","pricing_plan_id":"cebpf4jnsgd1na2vs0mg"},{"bike_id":"c0ecbcd0-a7bc-4db3-8a53-7c0bb261a6d3","system_id":"levelo_inurba_marseille","lat":43.29419,"lon":5.37918,"is_reserved":false,"is_disabled":false,"rental_uris":{"android":"levelo://app?vid=c0ecbcd0-a7bc-4db3-8a53-7c0bb261a6d3","ios":"levelo://app?vid=c0ecbcd0-a7bc-4db3-8a53-7c0bb261a6d3"},"vehicle_type_id":"4","last_reported":1708279678,"current_range_meters":21600,"station_id":"","pricing_plan_id":"cebpf4jnsgd1na2vs0mg"},{"bike_id":"addfd32e-9a71-4d20-ae35-702387c0322d","system_id":"levelo_inurba_marseille","lat":43.305994,"lon":5.393687,"is_reserved":false,"is_disabled":false,"rental_uris":{"android":"levelo://app?vid=addfd32e-9a71-4d20-ae35-702387c0322d","ios":"levelo://app?vid=addfd32e-9a71-4d20-ae35-702387c0322d"},"vehicle_type_id":"4","last_reported":1708279678,"current_range_meters":0,"station_id":"ce4bh0p2rcd13ifvqd80","pricing_plan_id":"cebpf4jnsgd1na2vs0mg"},{"bike_id":"967561bf-c6b9-4464-bb83-2ab3d9a2c19d","system_id":"levelo_inurba_marseille","lat":43.303002,"lon":5.392142,"is_reserved":false,"is_disabled":false,"rental_uris":{"android":"levelo://app?vid=967561bf-c6b9-4464-bb83-2ab3d9a2c19d","ios":"levelo://app?vid=967561bf-c6b9-4464-bb83-2ab3d9a2c19d"},"vehicle_type_id":"4","last_reported":1708279678,"current_range_meters":5200,"station_id":"ce4bgkh2rcd13ifvqbk0","pricing_plan_id":"cebpf4jnsgd1na2vs0mg"},{"bike_id":"6af704d2-5ce8-4507-9c93-5638b77dc8d2","system_id":"levelo_inurba_marseille","lat":43.30303,"lon":5.39206,"is_reserved":false,"is_disabled":false,"rental_uris":{"android":"levelo://app?vid=6af704d2-5ce8-4507-9c93-5638b77dc8d2","ios":"levelo://app?vid=6af704d2-5ce8-4507-9c93-5638b77dc8d2"},"vehicle_type_id":"4","last_reported":1708279678,"current_range_meters":29600,"station_id":"ce4bgkh2rcd13ifvqbk0","pricing_plan_id":"cebpf4jnsgd1na2vs0mg"},{"bike_id":"821ea99d-45bc-4e20-9d0a-e7e7875e7b81","system_id":"levelo_inurba_marseille","lat":43.303,"lon":5.3921,"is_reserved":false,"is_disabled":false,"rental_uris":{"android":"levelo://app?vid=821ea99d-45bc-4e20-9d0a-e7e7875e7b81","ios":"levelo://app?vid=821ea99d-45bc-4e20-9d0a-e7e7875e7b81"},"vehicle_type_id":"4","last_reported":1708279678,"current_range_meters":10000,"station_id":"ce4bgkh2rcd13ifvqbk0","pricing_plan_id":"cebpf4jnsgd1na2vs0mg"},{"bike_id":"349cae10-461a-47f9-8111-582bb0f442bf","system_id":"levelo_inurba_marseille","lat":43.3031,"lon":5.39218,"is_reserved":false,"is_disabled":false,"rental_uris":{"android":"levelo://app?vid=349cae10-461a-47f9-8111-582bb0f442bf","ios":"levelo://app?vid=349cae10-461a-47f9-8111-582bb0f442bf"},"vehicle_type_id":"4","last_reported":1708279678,"current_range_meters":2800,"station_id":"","pricing_plan_id":"cebpf4jnsgd1na2vs0mg"},{"bike_id":"5339d48e-fb45-4606-a07b-9273e49826a8","system_id":"levelo_inurba_marseille","lat":43.30304,"lon":5.39215,"is_reserved":false,"is_disabled":false,"rental_uris":{"android":"levelo://app?vid=5339d48e-fb45-4606-a07b-9273e49826a8","ios":"levelo://app?vid=5339d48e-fb45-4606-a07b-9273e49826a8"},"vehicle_type_id":"4","last_reported":1708279678,"current_range_meters":30400,"station_id":"ce4bgkh2rcd13ifvqbk0","pricing_plan_id":"cebpf4jnsgd1na2vs0mg"},{"bike_id":"79933e3d-a3f4-43ad-9d78-dfde50d00596","system_id":"levelo_inurba_marseille","lat":43.30307,"lon":5.39224,"is_reserved":false,"is_disabled":false,"rental_uris":{"android":"levelo://app?vid=79933e3d-a3f4-43ad-9d78-dfde50d00596","ios":"levelo://app?vid=79933e3d-a3f4-43ad-9d78-dfde50d00596"},"vehicle_type_id":"4","last_reported":1708279678,"current_range_meters":12000,"station_id":"ce4bgkh2rcd13ifvqbk0","pricing_plan_id":"cebpf4jnsgd1na2vs0mg"},{"bike_id":"e60798d5-ef85-40b7-a211-483579c50049","system_id":"levelo_inurba_marseille","lat":43.303002,"lon":5.392142,"is_reserved":false,"is_disabled":false,"rental_uris":{"android":"levelo://app?vid=e60798d5-ef85-40b7-a211-483579c50049","ios":"levelo://app?vid=e60798d5-ef85-40b7-a211-483579c50049"},"vehicle_type_id":"4","last_reported":1708279678,"current_range_meters":20800,"station_id":"ce4bgkh2rcd13ifvqbk0","pricing_plan_id":"cebpf4jnsgd1na2vs0mg"},{"bike_id":"1cad443e-dcb8-41d3-9846-19268efc4405","system_id":"levelo_inurba_marseille","lat":43.30303,"lon":5.39225,"is_reserved":false,"is_disabled":false,"rental_uris":{"android":"levelo://app?vid=1cad443e-dcb8-41d3-9846-19268efc4405","ios":"levelo://app?vid=1cad443e-dcb8-41d3-9846-19268efc4405"},"vehicle_type_id":"4","last_reported":1708279678,"current_range_meters":3600,"station_id":"ce4bgkh2rcd13ifvqbk0","pricing_plan_id":"cebpf4jnsgd1na2vs0mg"},{"bike_id":"4a67d2c1-5fd2-4c89-9fe3-4229a0c7741b","system_id":"levelo_inurba_marseille","lat":43.30294,"lon":5.39226,"is_reserved":false,"is_disabled":false,"rental_uris":{"android":"levelo://app?vid=4a67d2c1-5fd2-4c89-9fe3-4229a0c7741b","ios":"levelo://app?vid=4a67d2c1-5fd2-4c89-9fe3-4229a0c7741b"},"vehicle_type_id":"4","last_reported":1708279678,"current_range_meters":0,"station_id":"","pricing_plan_id":"cebpf4jnsgd1na2vs0mg"},{"bike_id":"a22538a7-12da-4b08-baf6-b0cc011f1634","system_id":"levelo_inurba_marseille","lat":43.292261,"lon":5.360781,"is_reserved":false,"is_disabled":false,"rental_uris":{"android":"levelo://app?vid=a22538a7-12da-4b08-baf6-b0cc011f1634","ios":"levelo://app?vid=a22538a7-12da-4b08-baf6-b0cc011f1634"},"vehicle_type_id":"4","last_reported":1708279678,"current_range_meters":0,"station_id":"","pricing_plan_id":"cebpf4jnsgd1na2vs0mg"},{"bike_id":"1c16690a-6486-4509-b7cc-e31deea95f4c","system_id":"levelo_inurba_marseille","lat":43.292311,"lon":5.360731,"is_reserved":false,"is_disabled":false,"rental_uris":{"android":"levelo://app?vid=1c16690a-6486-4509-b7cc-e31deea95f4c","ios":"levelo://app?vid=1c16690a-6486-4509-b7cc-e31deea95f4c"},"vehicle_type_id":"4","last_reported":1708279678,"current_range_meters":0,"station_id":"ce4bhbh2rcd13ifvqeqg","pricing_plan_id":"cebpf4jnsgd1na2vs0mg"},{"bike_id":"c6e4f951-b0f2-47c8-a996-7decfc8aa8ed","system_id":"levelo_inurba_marseille","lat":43.300852,"lon":5.390859,"is_reserved":false,"is_disabled":false,"rental_uris":{"android":"levelo://app?vid=c6e4f951-b0f2-47c8-a996-7decfc8aa8ed","ios":"levelo://app?vid=c6e4f951-b0f2-47c8-a996-7decfc8aa8ed"},"vehicle_type_id":"4","last_reported":1708279678,"current_range_meters":23600,"station_id":"ce4bh192rcd13ifvqdb0","pricing_plan_id":"cebpf4jnsgd1na2vs0mg"},{"bike_id":"8a899f49-304e-4c52-bde6-a2a94a466b13","system_id":"levelo_inurba_marseille","lat":43.300852,"lon":5.390859,"is_reserved":false,"is_disabled":false,"rental_uris":{"android":"levelo://app?vid=8a899f49-304e-4c52-bde6-a2a94a466b13","ios":"levelo://app?vid=8a899f49-304e-4c52-bde6-a2a94a466b13"},"vehicle_type_id":"4","last_reported":1708279678,"current_range_meters":4000,"station_id":"ce4bh192rcd13ifvqdb0","pricing_plan_id":"cebpf4jnsgd1na2vs0mg"},{"bike_id":"3f8d5cd5-0313-4a4a-baff-43ef6c9881d5","system_id":"levelo_inurba_marseille","lat":43.298764,"lon":5.388973,"is_reserved":false,"is_disabled":false,"rental_uris":{"android":"levelo://app?vid=3f8d5cd5-0313-4a4a-baff-43ef6c9881d5","ios":"levelo://app?vid=3f8d5cd5-0313-4a4a-baff-43ef6c9881d5"},"vehicle_type_id":"4","last_reported":1708279678,"current_range_meters":15600,"station_id":"ce4bh392rcd13ifvqdl0","pricing_plan_id":"cebpf4jnsgd1na2vs0mg"},{"bike_id":"51d4cf1f-9d8b-4532-9bd1-164cbceff929","system_id":"levelo_inurba_marseille","lat":43.298764,"lon":5.388973,"is_reserved":false,"is_disabled":false,"rental_uris":{"android":"levelo://app?vid=51d4cf1f-9d8b-4532-9bd1-164cbceff929","ios":"levelo://app?vid=51d4cf1f-9d8b-4532-9bd1-164cbceff929"},"vehicle_type_id":"4","last_reported":1708279678,"current_range_meters":18400,"station_id":"ce4bh392rcd13ifvqdl0","pricing_plan_id":"cebpf4jnsgd1na2vs0mg"},{"bike_id":"49c1054c-a936-41e7-9508-e19ad993f653","system_id":"levelo_inurba_marseille","lat":43.298764,"lon":5.388973,"is_reserved":false,"is_disabled":false,"rental_uris":{"android":"levelo://app?vid=49c1054c-a936-41e7-9508-e19ad993f653","ios":"levelo://app?vid=49c1054c-a936-41e7-9508-e19ad993f653"},"vehicle_type_id":"4","last_reported":1708279678,"current_range_meters":17200,"station_id":"ce4bh392rcd13ifvqdl0","pricing_plan_id":"cebpf4jnsgd1na2vs0mg"},{"bike_id":"81cca378-fdda-449a-8263-e569a01cf121","system_id":"levelo_inurba_marseille","lat":43.298764,"lon":5.388973,"is_reserved":false,"is_disabled":false,"rental_uris":{"android":"levelo://app?vid=81cca378-fdda-449a-8263-e569a01cf121","ios":"levelo://app?vid=81cca378-fdda-449a-8263-e569a01cf121"},"vehicle_type_id":"4","last_reported":1708279678,"current_range_meters":8800,"station_id":"ce4bh392rcd13ifvqdl0","pricing_plan_id":"cebpf4jnsgd1na2vs0mg"},{"bike_id":"4f477357-8ae4-45c4-9ba2-8c0564bd7f9a","system_id":"levelo_inurba_marseille","lat":43.313291,"lon":5.396838,"is_reserved":false,"is_disabled":false,"rental_uris":{"android":"levelo://app?vid=4f477357-8ae4-45c4-9ba2-8c0564bd7f9a","ios":"levelo://app?vid=4f477357-8ae4-45c4-9ba2-8c0564bd7f9a"},"vehicle_type_id":"4","last_reported":1708279678,"current_range_meters":5600,"station_id":"ce4bgvp2rcd13ifvqcu0","pricing_plan_id":"cebpf4jnsgd1na2vs0mg"},{"bike_id":"cb464c05-f429-49b3-a501-768165540b2d","system_id":"levelo_inurba_marseille","lat":43.29866,"lon":5.389,"is_reserved":false,"is_disabled":false,"rental_uris":{"android":"levelo://app?vid=cb464c05-f429-49b3-a501-768165540b2d","ios":"levelo://app?vid=cb464c05-f429-49b3-a501-768165540b2d"},"vehicle_type_id":"4","last_reported":1708279678,"current_range_meters":14800,"station_id":"ce4bh392rcd13ifvqdl0","pricing_plan_id":"cebpf4jnsgd1na2vs0mg"},{"bike_id":"48d7347d-f7f4-416e-a5c2-5ef460b4a847","system_id":"levelo_inurba_marseille","lat":43.313023,"lon":5.396782,"is_reserved":false,"is_disabled":false,"rental_uris":{"android":"levelo://app?vid=48d7347d-f7f4-416e-a5c2-5ef460b4a847","ios":"levelo://app?vid=48d7347d-f7f4-416e-a5c2-5ef460b4a847"},"vehicle_type_id":"4","last_reported":1708279678,"current_range_meters":23200,"station_id":"","pricing_plan_id":"cebpf4jnsgd1na2vs0mg"},{"bike_id":"e2134e10-fcf4-4881-884f-a207ef35b3eb","system_id":"levelo_inurba_marseille","lat":43.291961,"lon":5.358007,"is_reserved":false,"is_disabled":false,"rental_uris":{"android":"levelo://app?vid=e2134e10-fcf4-4881-884f-a207ef35b3eb","ios":"levelo://app?vid=e2134e10-fcf4-4881-884f-a207ef35b3eb"},"vehicle_type_id":"4","last_reported":1708279678,"current_range_meters":0,"station_id":"ce4bhb12rcd13ifvqel0","pricing_plan_id":"cebpf4jnsgd1na2vs0mg"},{"bike_id":"b98efa0c-10a0-41a0-a3e2-262cd48af7a2","system_id":"levelo_inurba_marseille","lat":43.309038,"lon":5.396546,"is_reserved":false,"is_disabled":false,"rental_uris":{"android":"levelo://app?vid=b98efa0c-10a0-41a0-a3e2-262cd48af7a2","ios":"levelo://app?vid=b98efa0c-10a0-41a0-a3e2-262cd48af7a2"},"vehicle_type_id":"4","last_reported":1708279678,"current_range_meters":1600,"station_id":"ce4bh012rcd13ifvqcv0","pricing_plan_id":"cebpf4jnsgd1na2vs0mg"},{"bike_id":"b5f5e0c7-4917-4939-b486-49efb338ef43","system_id":"levelo_inurba_marseille","lat":43.313291,"lon":5.396838,"is_reserved":false,"is_disabled":false,"rental_uris":{"android":"levelo://app?vid=b5f5e0c7-4917-4939-b486-49efb338ef43","ios":"levelo://app?vid=b5f5e0c7-4917-4939-b486-49efb338ef43"},"vehicle_type_id":"4","last_reported":1708279678,"current_range_meters":12000,"station_id":"ce4bgvp2rcd13ifvqcu0","pricing_plan_id":"cebpf4jnsgd1na2vs0mg"},{"bike_id":"bcd80391-b2b1-4e6e-8c13-e8c9003a8d20","system_id":"levelo_inurba_marseille","lat":43.30886,"lon":5.39652,"is_reserved":false,"is_disabled":false,"rental_uris":{"android":"levelo://app?vid=bcd80391-b2b1-4e6e-8c13-e8c9003a8d20","ios":"levelo://app?vid=bcd80391-b2b1-4e6e-8c13-e8c9003a8d20"},"vehicle_type_id":"4","last_reported":1708279678,"current_range_meters":7600,"station_id":"ce4bh012rcd13ifvqcv0","pricing_plan_id":"cebpf4jnsgd1na2vs0mg"},{"bike_id":"1d9cb612-7707-4407-9853-20ff5185b311","system_id":"levelo_inurba_marseille","lat":43.309038,"lon":5.396546,"is_reserved":false,"is_disabled":false,"rental_uris":{"android":"levelo://app?vid=1d9cb612-7707-4407-9853-20ff5185b311","ios":"levelo://app?vid=1d9cb612-7707-4407-9853-20ff5185b311"},"vehicle_type_id":"4","last_reported":1708279678,"current_range_meters":9600,"station_id":"ce4bh012rcd13ifvqcv0","pricing_plan_id":"cebpf4jnsgd1na2vs0mg"},{"bike_id":"9e9be804-ac76-4e9b-a6e0-5e534f11758e","system_id":"levelo_inurba_marseille","lat":43.30883,"lon":5.39655,"is_reserved":false,"is_disabled":false,"rental_uris":{"android":"levelo://app?vid=9e9be804-ac76-4e9b-a6e0-5e534f11758e","ios":"levelo://app?vid=9e9be804-ac76-4e9b-a6e0-5e534f11758e"},"vehicle_type_id":"4","last_reported":1708279678,"current_range_meters":24400,"station_id":"ce4bh012rcd13ifvqcv0","pricing_plan_id":"cebpf4jnsgd1na2vs0mg"},{"bike_id":"b1e8cfc7-11c5-45f8-804a-ce2447bb1bda","system_id":"levelo_inurba_marseille","lat":43.29536,"lon":5.38539,"is_reserved":false,"is_disabled":false,"rental_uris":{"android":"levelo://app?vid=b1e8cfc7-11c5-45f8-804a-ce2447bb1bda","ios":"levelo://app?vid=b1e8cfc7-11c5-45f8-804a-ce2447bb1bda"},"vehicle_type_id":"4","last_reported":1708279678,"current_range_meters":7600,"station_id":"ce4bgih2rcd13ifvqba0","pricing_plan_id":"cebpf4jnsgd1na2vs0mg"},{"bike_id":"44ef20ec-661f-4703-b576-b016ac4a2d6d","system_id":"levelo_inurba_marseille","lat":43.309038,"lon":5.396546,"is_reserved":false,"is_disabled":false,"rental_uris":{"android":"levelo://app?vid=44ef20ec-661f-4703-b576-b016ac4a2d6d","ios":"levelo://app?vid=44ef20ec-661f-4703-b576-b016ac4a2d6d"},"vehicle_type_id":"4","last_reported":1708279678,"current_range_meters":4400,"station_id":"ce4bh012rcd13ifvqcv0","pricing_plan_id":"cebpf4jnsgd1na2vs0mg"},{"bike_id":"2d32010e-c487-4266-9aed-b0468578c464","system_id":"levelo_inurba_marseille","lat":43.29529,"lon":5.385581,"is_reserved":false,"is_disabled":false,"rental_uris":{"android":"levelo://app?vid=2d32010e-c487-4266-9aed-b0468578c464","ios":"levelo://app?vid=2d32010e-c487-4266-9aed-b0468578c464"},"vehicle_type_id":"4","last_reported":1708279678,"current_range_meters":12800,"station_id":"ce4bgih2rcd13ifvqba0","pricing_plan_id":"cebpf4jnsgd1na2vs0mg"},{"bike_id":"d9ce6c1a-9583-451e-9e11-57d3000b67e7","system_id":"levelo_inurba_marseille","lat":43.29319,"lon":5.38089,"is_reserved":false,"is_disabled":false,"rental_uris":{"android":"levelo://app?vid=d9ce6c1a-9583-451e-9e11-57d3000b67e7","ios":"levelo://app?vid=d9ce6c1a-9583-451e-9e11-57d3000b67e7"},"vehicle_type_id":"4","last_reported":1708279678,"current_range_meters":22800,"station_id":"","pricing_plan_id":"cebpf4jnsgd1na2vs0mg"},{"bike_id":"9c457fd5-f555-4702-92f5-d9490366a609","system_id":"levelo_inurba_marseille","lat":43.29529,"lon":5.385581,"is_reserved":false,"is_disabled":false,"rental_uris":{"android":"levelo://app?vid=9c457fd5-f555-4702-92f5-d9490366a609","ios":"levelo://app?vid=9c457fd5-f555-4702-92f5-d9490366a609"},"vehicle_type_id":"4","last_reported":1708279678,"current_range_meters":2400,"station_id":"ce4bgih2rcd13ifvqba0","pricing_plan_id":"cebpf4jnsgd1na2vs0mg"},{"bike_id":"c07c0497-aac3-42a3-9b8b-bb5f376ed976","system_id":"levelo_inurba_marseille","lat":43.29529,"lon":5.385581,"is_reserved":false,"is_disabled":false,"rental_uris":{"android":"levelo://app?vid=c07c0497-aac3-42a3-9b8b-bb5f376ed976","ios":"levelo://app?vid=c07c0497-aac3-42a3-9b8b-bb5f376ed976"},"vehicle_type_id":"4","last_reported":1708279678,"current_range_meters":22400,"station_id":"ce4bgih2rcd13ifvqba0","pricing_plan_id":"cebpf4jnsgd1na2vs0mg"},{"bike_id":"875fd7f8-3b59-45d6-9d4b-732b72ad2cad","system_id":"levelo_inurba_marseille","lat":43.29529,"lon":5.385581,"is_reserved":false,"is_disabled":false,"rental_uris":{"android":"levelo://app?vid=875fd7f8-3b59-45d6-9d4b-732b72ad2cad","ios":"levelo://app?vid=875fd7f8-3b59-45d6-9d4b-732b72ad2cad"},"vehicle_type_id":"4","last_reported":1708279678,"current_range_meters":0,"station_id":"ce4bgih2rcd13ifvqba0","pricing_plan_id":"cebpf4jnsgd1na2vs0mg"},{"bike_id":"dd1c3137-f4ce-4a7d-939a-0d0077e75553","system_id":"levelo_inurba_marseille","lat":43.29063,"lon":5.37056,"is_reserved":false,"is_disabled":false,"rental_uris":{"android":"levelo://app?vid=dd1c3137-f4ce-4a7d-939a-0d0077e75553","ios":"levelo://app?vid=dd1c3137-f4ce-4a7d-939a-0d0077e75553"},"vehicle_type_id":"4","last_reported":1708279678,"current_range_meters":27200,"station_id":"","pricing_plan_id":"cebpf4jnsgd1na2vs0mg"},{"bike_id":"cda175fc-6484-4f89-86c2-e963cc8b8054","system_id":"levelo_inurba_marseille","lat":43.290779,"lon":5.371482,"is_reserved":false,"is_disabled":false,"rental_uris":{"android":"levelo://app?vid=cda175fc-6484-4f89-86c2-e963cc8b8054","ios":"levelo://app?vid=cda175fc-6484-4f89-86c2-e963cc8b8054"},"vehicle_type_id":"4","last_reported":1708279678,"current_range_meters":1200,"station_id":"ce4bh5p2rcd13ifvqe4g","pricing_plan_id":"cebpf4jnsgd1na2vs0mg"},{"bike_id":"7b24f167-37d4-4972-a2e7-521200ceb07a","system_id":"levelo_inurba_marseille","lat":43.302008,"lon":5.394694,"is_reserved":false,"is_disabled":false,"rental_uris":{"android":"levelo://app?vid=7b24f167-37d4-4972-a2e7-521200ceb07a","ios":"levelo://app?vid=7b24f167-37d4-4972-a2e7-521200ceb07a"},"vehicle_type_id":"4","last_reported":1708279678,"current_range_meters":0,"station_id":"ce4bh0p2rcd13ifvqd70","pricing_plan_id":"cebpf4jnsgd1na2vs0mg"},{"bike_id":"46c5a252-19d4-4df8-a8cb-30115d1c6778","system_id":"levelo_inurba_marseille","lat":43.302008,"lon":5.394694,"is_reserved":false,"is_disabled":false,"rental_uris":{"android":"levelo://app?vid=46c5a252-19d4-4df8-a8cb-30115d1c6778","ios":"levelo://app?vid=46c5a252-19d4-4df8-a8cb-30115d1c6778"},"vehicle_type_id":"4","last_reported":1708279678,"current_range_meters":18400,"station_id":"ce4bh0p2rcd13ifvqd70","pricing_plan_id":"cebpf4jnsgd1na2vs0mg"},{"bike_id":"720d9475-22e0-48aa-9471-6fa5be174e16","system_id":"levelo_inurba_marseille","lat":43.294162,"lon":5.386292,"is_reserved":false,"is_disabled":false,"rental_uris":{"android":"levelo://app?vid=720d9475-22e0-48aa-9471-6fa5be174e16","ios":"levelo://app?vid=720d9475-22e0-48aa-9471-6fa5be174e16"},"vehicle_type_id":"4","last_reported":1708279678,"current_range_meters":2000,"station_id":"ce4bh2h2rcd13ifvqdh0","pricing_plan_id":"cebpf4jnsgd1na2vs0mg"},{"bike_id":"20585d2e-bee0-447c-bd42-aa954d8248f4","system_id":"levelo_inurba_marseille","lat":43.294153,"lon":5.386305,"is_reserved":false,"is_disabled":false,"rental_uris":{"android":"levelo://app?vid=20585d2e-bee0-447c-bd42-aa954d8248f4","ios":"levelo://app?vid=20585d2e-bee0-447c-bd42-aa954d8248f4"},"vehicle_type_id":"4","last_reported":1708279678,"current_range_meters":24800,"station_id":"ce4bh2h2rcd13ifvqdh0","pricing_plan_id":"cebpf4jnsgd1na2vs0mg"},{"bike_id":"a9b26ac9-4fbd-4208-85f0-053aed0924d6","system_id":"levelo_inurba_marseille","lat":43.294153,"lon":5.386305,"is_reserved":false,"is_disabled":false,"rental_uris":{"android":"levelo://app?vid=a9b26ac9-4fbd-4208-85f0-053aed0924d6","ios":"levelo://app?vid=a9b26ac9-4fbd-4208-85f0-053aed0924d6"},"vehicle_type_id":"4","last_reported":1708279678,"current_range_meters":13600,"station_id":"ce4bh2h2rcd13ifvqdh0","pricing_plan_id":"cebpf4jnsgd1na2vs0mg"},{"bike_id":"2c44ba1d-65c2-4d29-937c-cb3f1e8e8aae","system_id":"levelo_inurba_marseille","lat":43.294162,"lon":5.386292,"is_reserved":false,"is_disabled":false,"rental_uris":{"android":"levelo://app?vid=2c44ba1d-65c2-4d29-937c-cb3f1e8e8aae","ios":"levelo://app?vid=2c44ba1d-65c2-4d29-937c-cb3f1e8e8aae"},"vehicle_type_id":"4","last_reported":1708279678,"current_range_meters":6400,"station_id":"ce4bh2h2rcd13ifvqdh0","pricing_plan_id":"cebpf4jnsgd1na2vs0mg"},{"bike_id":"383415de-881b-4c96-8a8c-319b8a046d1e","system_id":"levelo_inurba_marseille","lat":43.294162,"lon":5.386292,"is_reserved":false,"is_disabled":false,"rental_uris":{"android":"levelo://app?vid=383415de-881b-4c96-8a8c-319b8a046d1e","ios":"levelo://app?vid=383415de-881b-4c96-8a8c-319b8a046d1e"},"vehicle_type_id":"4","last_reported":1708279678,"current_range_meters":4400,"station_id":"ce4bh2h2rcd13ifvqdh0","pricing_plan_id":"cebpf4jnsgd1na2vs0mg"},{"bike_id":"6cab0d2d-9fb7-40bf-b7b4-883a46f8ffa5","system_id":"levelo_inurba_marseille","lat":43.289184,"lon":5.366408,"is_reserved":false,"is_disabled":false,"rental_uris":{"android":"levelo://app?vid=6cab0d2d-9fb7-40bf-b7b4-883a46f8ffa5","ios":"levelo://app?vid=6cab0d2d-9fb7-40bf-b7b4-883a46f8ffa5"},"vehicle_type_id":"4","last_reported":1708279678,"current_range_meters":25200,"station_id":"ce4bhap2rcd13ifvqek0","pricing_plan_id":"cebpf4jnsgd1na2vs0mg"},{"bike_id":"8168ce3d-d7d9-465a-8dfe-15cd3274923f","system_id":"levelo_inurba_marseille","lat":43.29417,"lon":5.38641,"is_reserved":false,"is_disabled":false,"rental_uris":{"android":"levelo://app?vid=8168ce3d-d7d9-465a-8dfe-15cd3274923f","ios":"levelo://app?vid=8168ce3d-d7d9-465a-8dfe-15cd3274923f"},"vehicle_type_id":"4","last_reported":1708279678,"current_range_meters":800,"station_id":"ce4bh2h2rcd13ifvqdh0","pricing_plan_id":"cebpf4jnsgd1na2vs0mg"},{"bike_id":"3278aca4-00c9-40ba-af2a-6d696fdf3e63","system_id":"levelo_inurba_marseille","lat":43.289184,"lon":5.366408,"is_reserved":false,"is_disabled":false,"rental_uris":{"android":"levelo://app?vid=3278aca4-00c9-40ba-af2a-6d696fdf3e63","ios":"levelo://app?vid=3278aca4-00c9-40ba-af2a-6d696fdf3e63"},"vehicle_type_id":"4","last_reported":1708279678,"current_range_meters":400,"station_id":"ce4bhap2rcd13ifvqek0","pricing_plan_id":"cebpf4jnsgd1na2vs0mg"},{"bike_id":"4eced3a8-dd4c-4872-9d95-909524100833","system_id":"levelo_inurba_marseille","lat":43.289468,"lon":5.363719,"is_reserved":false,"is_disabled":false,"rental_uris":{"android":"levelo://app?vid=4eced3a8-dd4c-4872-9d95-909524100833","ios":"levelo://app?vid=4eced3a8-dd4c-4872-9d95-909524100833"},"vehicle_type_id":"4","last_reported":1708279678,"current_range_meters":0,"station_id":"ce4bhc92rcd13ifvqetg","pricing_plan_id":"cebpf4jnsgd1na2vs0mg"},{"bike_id":"acd058db-b727-4fc7-9f97-ed0d220c5a2f","system_id":"levelo_inurba_marseille","lat":43.290506,"lon":5.377894,"is_reserved":false,"is_disabled":false,"rental_uris":{"android":"levelo://app?vid=acd058db-b727-4fc7-9f97-ed0d220c5a2f","ios":"levelo://app?vid=acd058db-b727-4fc7-9f97-ed0d220c5a2f"},"vehicle_type_id":"4","last_reported":1708279678,"current_range_meters":0,"station_id":"","pricing_plan_id":"cebpf4jnsgd1na2vs0mg"},{"bike_id":"4a327bfc-26af-4cdf-b148-288710cc047b","system_id":"levelo_inurba_marseille","lat":43.292644,"lon":5.384257,"is_reserved":false,"is_disabled":false,"rental_uris":{"android":"levelo://app?vid=4a327bfc-26af-4cdf-b148-288710cc047b","ios":"levelo://app?vid=4a327bfc-26af-4cdf-b148-288710cc047b"},"vehicle_type_id":"4","last_reported":1708279678,"current_range_meters":8800,"station_id":"ce4bh692rcd13ifvqea0","pricing_plan_id":"cebpf4jnsgd1na2vs0mg"},{"bike_id":"b351422d-269c-4e8d-b93c-4dded2afed3c","system_id":"levelo_inurba_marseille","lat":43.29269,"lon":5.38432,"is_reserved":false,"is_disabled":false,"rental_uris":{"android":"levelo://app?vid=b351422d-269c-4e8d-b93c-4dded2afed3c","ios":"levelo://app?vid=b351422d-269c-4e8d-b93c-4dded2afed3c"},"vehicle_type_id":"4","last_reported":1708279678,"current_range_meters":15600,"station_id":"ce4bh692rcd13ifvqea0","pricing_plan_id":"cebpf4jnsgd1na2vs0mg"},{"bike_id":"7976152a-ed9b-42d0-88ac-9bb56b0689e4","system_id":"levelo_inurba_marseille","lat":43.292642,"lon":5.384254,"is_reserved":false,"is_disabled":false,"rental_uris":{"android":"levelo://app?vid=7976152a-ed9b-42d0-88ac-9bb56b0689e4","ios":"levelo://app?vid=7976152a-ed9b-42d0-88ac-9bb56b0689e4"},"vehicle_type_id":"4","last_reported":1708279678,"current_range_meters":5600,"station_id":"ce4bh692rcd13ifvqea0","pricing_plan_id":"cebpf4jnsgd1na2vs0mg"},{"bike_id":"0409448e-800d-41c4-acf1-8320c3e0643b","system_id":"levelo_inurba_marseille","lat":43.29102,"lon":5.380087,"is_reserved":false,"is_disabled":false,"rental_uris":{"android":"levelo://app?vid=0409448e-800d-41c4-acf1-8320c3e0643b","ios":"levelo://app?vid=0409448e-800d-41c4-acf1-8320c3e0643b"},"vehicle_type_id":"4","last_reported":1708279678,"current_range_meters":0,"station_id":"ce4bh4p2rcd13ifvqe1g","pricing_plan_id":"cebpf4jnsgd1na2vs0mg"},{"bike_id":"6c28b8cb-e204-4b12-88c4-a90f0803770b","system_id":"levelo_inurba_marseille","lat":43.292642,"lon":5.384254,"is_reserved":false,"is_disabled":false,"rental_uris":{"android":"levelo://app?vid=6c28b8cb-e204-4b12-88c4-a90f0803770b","ios":"levelo://app?vid=6c28b8cb-e204-4b12-88c4-a90f0803770b"},"vehicle_type_id":"4","last_reported":1708279678,"current_range_meters":0,"station_id":"ce4bh692rcd13ifvqea0","pricing_plan_id":"cebpf4jnsgd1na2vs0mg"},{"bike_id":"50dabe57-89ca-46b1-93f3-999137163bd5","system_id":"levelo_inurba_marseille","lat":43.292642,"lon":5.384254,"is_reserved":false,"is_disabled":false,"rental_uris":{"android":"levelo://app?vid=50dabe57-89ca-46b1-93f3-999137163bd5","ios":"levelo://app?vid=50dabe57-89ca-46b1-93f3-999137163bd5"},"vehicle_type_id":"4","last_reported":1708279678,"current_range_meters":9200,"station_id":"ce4bh692rcd13ifvqea0","pricing_plan_id":"cebpf4jnsgd1na2vs0mg"},{"bike_id":"08d3505b-0e75-42a6-b735-25d21e769949","system_id":"levelo_inurba_marseille","lat":43.292644,"lon":5.384257,"is_reserved":false,"is_disabled":false,"rental_uris":{"android":"levelo://app?vid=08d3505b-0e75-42a6-b735-25d21e769949","ios":"levelo://app?vid=08d3505b-0e75-42a6-b735-25d21e769949"},"vehicle_type_id":"4","last_reported":1708279678,"current_range_meters":10000,"station_id":"ce4bh692rcd13ifvqea0","pricing_plan_id":"cebpf4jnsgd1na2vs0mg"},{"bike_id":"fd3e874a-dbb2-4944-a47d-7013e141d2f8","system_id":"levelo_inurba_marseille","lat":43.292644,"lon":5.384257,"is_reserved":false,"is_disabled":false,"rental_uris":{"android":"levelo://app?vid=fd3e874a-dbb2-4944-a47d-7013e141d2f8","ios":"levelo://app?vid=fd3e874a-dbb2-4944-a47d-7013e141d2f8"},"vehicle_type_id":"4","last_reported":1708279678,"current_range_meters":16000,"station_id":"ce4bh692rcd13ifvqea0","pricing_plan_id":"cebpf4jnsgd1na2vs0mg"},{"bike_id":"8c92a72c-19ce-432f-ad79-a700a12f7bcd","system_id":"levelo_inurba_marseille","lat":43.292644,"lon":5.384257,"is_reserved":false,"is_disabled":false,"rental_uris":{"android":"levelo://app?vid=8c92a72c-19ce-432f-ad79-a700a12f7bcd","ios":"levelo://app?vid=8c92a72c-19ce-432f-ad79-a700a12f7bcd"},"vehicle_type_id":"4","last_reported":1708279678,"current_range_meters":12000,"station_id":"ce4bh692rcd13ifvqea0","pricing_plan_id":"cebpf4jnsgd1na2vs0mg"},{"bike_id":"be4e2c45-ca60-4fb1-917b-50cf759cb8d9","system_id":"levelo_inurba_marseille","lat":43.292642,"lon":5.384254,"is_reserved":false,"is_disabled":false,"rental_uris":{"android":"levelo://app?vid=be4e2c45-ca60-4fb1-917b-50cf759cb8d9","ios":"levelo://app?vid=be4e2c45-ca60-4fb1-917b-50cf759cb8d9"},"vehicle_type_id":"4","last_reported":1708279678,"current_range_meters":8800,"station_id":"ce4bh692rcd13ifvqea0","pricing_plan_id":"cebpf4jnsgd1na2vs0mg"},{"bike_id":"18d5b2dd-4603-4dd5-b084-616753711d60","system_id":"levelo_inurba_marseille","lat":43.292644,"lon":5.384257,"is_reserved":false,"is_disabled":false,"rental_uris":{"android":"levelo://app?vid=18d5b2dd-4603-4dd5-b084-616753711d60","ios":"levelo://app?vid=18d5b2dd-4603-4dd5-b084-616753711d60"},"vehicle_type_id":"4","last_reported":1708279678,"current_range_meters":8800,"station_id":"ce4bh692rcd13ifvqea0","pricing_plan_id":"cebpf4jnsgd1na2vs0mg"},{"bike_id":"ee84f098-255d-44ae-8348-7d5bb69986f7","system_id":"levelo_inurba_marseille","lat":43.304274,"lon":5.397513,"is_reserved":false,"is_disabled":false,"rental_uris":{"android":"levelo://app?vid=ee84f098-255d-44ae-8348-7d5bb69986f7","ios":"levelo://app?vid=ee84f098-255d-44ae-8348-7d5bb69986f7"},"vehicle_type_id":"4","last_reported":1708279678,"current_range_meters":8800,"station_id":"ce4bh092rcd13ifvqd20","pricing_plan_id":"cebpf4jnsgd1na2vs0mg"},{"bike_id":"89d6b1cd-8c75-4147-83fd-99868843f697","system_id":"levelo_inurba_marseille","lat":43.304296,"lon":5.397513,"is_reserved":false,"is_disabled":false,"rental_uris":{"android":"levelo://app?vid=89d6b1cd-8c75-4147-83fd-99868843f697","ios":"levelo://app?vid=89d6b1cd-8c75-4147-83fd-99868843f697"},"vehicle_type_id":"4","last_reported":1708279678,"current_range_meters":9200,"station_id":"ce4bh092rcd13ifvqd20","pricing_plan_id":"cebpf4jnsgd1na2vs0mg"},{"bike_id":"4665e06d-9ec4-4f70-8a9a-d0fb83457f79","system_id":"levelo_inurba_marseille","lat":43.3042,"lon":5.39751,"is_reserved":false,"is_disabled":false,"rental_uris":{"android":"levelo://app?vid=4665e06d-9ec4-4f70-8a9a-d0fb83457f79","ios":"levelo://app?vid=4665e06d-9ec4-4f70-8a9a-d0fb83457f79"},"vehicle_type_id":"4","last_reported":1708279678,"current_range_meters":22400,"station_id":"ce4bh092rcd13ifvqd20","pricing_plan_id":"cebpf4jnsgd1na2vs0mg"},{"bike_id":"66c143b5-b59f-41a5-ae32-abab57470e7d","system_id":"levelo_inurba_marseille","lat":43.292644,"lon":5.384257,"is_reserved":false,"is_disabled":false,"rental_uris":{"android":"levelo://app?vid=66c143b5-b59f-41a5-ae32-abab57470e7d","ios":"levelo://app?vid=66c143b5-b59f-41a5-ae32-abab57470e7d"},"vehicle_type_id":"4","last_reported":1708279678,"current_range_meters":6800,"station_id":"ce4bh692rcd13ifvqea0","pricing_plan_id":"cebpf4jnsgd1na2vs0mg"},{"bike_id":"48c3dcd4-b082-455d-b991-61bf19bda052","system_id":"levelo_inurba_marseille","lat":43.2926,"lon":5.38447,"is_reserved":false,"is_disabled":false,"rental_uris":{"android":"levelo://app?vid=48c3dcd4-b082-455d-b991-61bf19bda052","ios":"levelo://app?vid=48c3dcd4-b082-455d-b991-61bf19bda052"},"vehicle_type_id":"4","last_reported":1708279678,"current_range_meters":1600,"station_id":"","pricing_plan_id":"cebpf4jnsgd1na2vs0mg"},{"bike_id":"6e09ae5f-3f15-43c1-adba-80007719e3c8","system_id":"levelo_inurba_marseille","lat":43.292642,"lon":5.384254,"is_reserved":false,"is_disabled":false,"rental_uris":{"android":"levelo://app?vid=6e09ae5f-3f15-43c1-adba-80007719e3c8","ios":"levelo://app?vid=6e09ae5f-3f15-43c1-adba-80007719e3c8"},"vehicle_type_id":"4","last_reported":1708279678,"current_range_meters":15600,"station_id":"ce4bh692rcd13ifvqea0","pricing_plan_id":"cebpf4jnsgd1na2vs0mg"},{"bike_id":"7386018f-cc64-49a2-962f-ab804d96ec84","system_id":"levelo_inurba_marseille","lat":43.292642,"lon":5.384254,"is_reserved":false,"is_disabled":false,"rental_uris":{"android":"levelo://app?vid=7386018f-cc64-49a2-962f-ab804d96ec84","ios":"levelo://app?vid=7386018f-cc64-49a2-962f-ab804d96ec84"},"vehicle_type_id":"4","last_reported":1708279678,"current_range_meters":4400,"station_id":"ce4bh692rcd13ifvqea0","pricing_plan_id":"cebpf4jnsgd1na2vs0mg"},{"bike_id":"d81dd069-566d-4ed5-b7bc-91bc3005a1ee","system_id":"levelo_inurba_marseille","lat":43.292642,"lon":5.384254,"is_reserved":false,"is_disabled":false,"rental_uris":{"android":"levelo://app?vid=d81dd069-566d-4ed5-b7bc-91bc3005a1ee","ios":"levelo://app?vid=d81dd069-566d-4ed5-b7bc-91bc3005a1ee"},"vehicle_type_id":"4","last_reported":1708279678,"current_range_meters":13600,"station_id":"ce4bh692rcd13ifvqea0","pricing_plan_id":"cebpf4jnsgd1na2vs0mg"},{"bike_id":"1970c3e6-5484-4570-b67a-d1db6f957d99","system_id":"levelo_inurba_marseille","lat":43.304296,"lon":5.397513,"is_reserved":false,"is_disabled":false,"rental_uris":{"android":"levelo://app?vid=1970c3e6-5484-4570-b67a-d1db6f957d99","ios":"levelo://app?vid=1970c3e6-5484-4570-b67a-d1db6f957d99"},"vehicle_type_id":"4","last_reported":1708279678,"current_range_meters":22800,"station_id":"ce4bh092rcd13ifvqd20","pricing_plan_id":"cebpf4jnsgd1na2vs0mg"},{"bike_id":"c7782214-58b1-49db-a1cb-d8a31bed08c3","system_id":"levelo_inurba_marseille","lat":43.290104,"lon":5.356111,"is_reserved":false,"is_disabled":false,"rental_uris":{"android":"levelo://app?vid=c7782214-58b1-49db-a1cb-d8a31bed08c3","ios":"levelo://app?vid=c7782214-58b1-49db-a1cb-d8a31bed08c3"},"vehicle_type_id":"4","last_reported":1708279678,"current_range_meters":400,"station_id":"ce4bhb92rcd13ifvqen0","pricing_plan_id":"cebpf4jnsgd1na2vs0mg"},{"bike_id":"64c8a977-e817-4529-bbbf-d54830de4873","system_id":"levelo_inurba_marseille","lat":43.29103,"lon":5.38085,"is_reserved":false,"is_disabled":false,"rental_uris":{"android":"levelo://app?vid=64c8a977-e817-4529-bbbf-d54830de4873","ios":"levelo://app?vid=64c8a977-e817-4529-bbbf-d54830de4873"},"vehicle_type_id":"4","last_reported":1708279678,"current_range_meters":20000,"station_id":"","pricing_plan_id":"cebpf4jnsgd1na2vs0mg"},{"bike_id":"6736c922-4c01-45b4-acfb-6786797ebde3","system_id":"levelo_inurba_marseille","lat":43.29008,"lon":5.35614,"is_reserved":false,"is_disabled":false,"rental_uris":{"android":"levelo://app?vid=6736c922-4c01-45b4-acfb-6786797ebde3","ios":"levelo://app?vid=6736c922-4c01-45b4-acfb-6786797ebde3"},"vehicle_type_id":"4","last_reported":1708279678,"current_range_meters":0,"station_id":"ce4bhb92rcd13ifvqen0","pricing_plan_id":"cebpf4jnsgd1na2vs0mg"},{"bike_id":"8d5d8432-79e3-44cd-a71d-a1ad862c116a","system_id":"levelo_inurba_marseille","lat":43.290104,"lon":5.356111,"is_reserved":false,"is_disabled":false,"rental_uris":{"android":"levelo://app?vid=8d5d8432-79e3-44cd-a71d-a1ad862c116a","ios":"levelo://app?vid=8d5d8432-79e3-44cd-a71d-a1ad862c116a"},"vehicle_type_id":"4","last_reported":1708279678,"current_range_meters":2400,"station_id":"ce4bhb92rcd13ifvqen0","pricing_plan_id":"cebpf4jnsgd1na2vs0mg"},{"bike_id":"f5ca2c6a-77d7-40cf-879a-ade8df199688","system_id":"levelo_inurba_marseille","lat":43.290103,"lon":5.356114,"is_reserved":false,"is_disabled":false,"rental_uris":{"android":"levelo://app?vid=f5ca2c6a-77d7-40cf-879a-ade8df199688","ios":"levelo://app?vid=f5ca2c6a-77d7-40cf-879a-ade8df199688"},"vehicle_type_id":"4","last_reported":1708279678,"current_range_meters":0,"station_id":"ce4bhb92rcd13ifvqen0","pricing_plan_id":"cebpf4jnsgd1na2vs0mg"},{"bike_id":"8c8f7dd8-65d9-4269-81cd-7db8c9ee863c","system_id":"levelo_inurba_marseille","lat":43.29007,"lon":5.35613,"is_reserved":false,"is_disabled":false,"rental_uris":{"android":"levelo://app?vid=8c8f7dd8-65d9-4269-81cd-7db8c9ee863c","ios":"levelo://app?vid=8c8f7dd8-65d9-4269-81cd-7db8c9ee863c"},"vehicle_type_id":"4","last_reported":1708279678,"current_range_meters":0,"station_id":"ce4bhb92rcd13ifvqen0","pricing_plan_id":"cebpf4jnsgd1na2vs0mg"},{"bike_id":"2b73d762-af79-456b-ae12-cfc13d58ab39","system_id":"levelo_inurba_marseille","lat":43.290104,"lon":5.356111,"is_reserved":false,"is_disabled":false,"rental_uris":{"android":"levelo://app?vid=2b73d762-af79-456b-ae12-cfc13d58ab39","ios":"levelo://app?vid=2b73d762-af79-456b-ae12-cfc13d58ab39"},"vehicle_type_id":"4","last_reported":1708279678,"current_range_meters":21600,"station_id":"ce4bhb92rcd13ifvqen0","pricing_plan_id":"cebpf4jnsgd1na2vs0mg"},{"bike_id":"0034036d-4212-45f5-b615-3cd94b222a68","system_id":"levelo_inurba_marseille","lat":43.29003,"lon":5.35618,"is_reserved":false,"is_disabled":false,"rental_uris":{"android":"levelo://app?vid=0034036d-4212-45f5-b615-3cd94b222a68","ios":"levelo://app?vid=0034036d-4212-45f5-b615-3cd94b222a68"},"vehicle_type_id":"4","last_reported":1708279678,"current_range_meters":0,"station_id":"ce4bhb92rcd13ifvqen0","pricing_plan_id":"cebpf4jnsgd1na2vs0mg"},{"bike_id":"06b90514-1550-4b09-9032-27493f3feb7a","system_id":"levelo_inurba_marseille","lat":43.29001,"lon":5.35619,"is_reserved":false,"is_disabled":false,"rental_uris":{"android":"levelo://app?vid=06b90514-1550-4b09-9032-27493f3feb7a","ios":"levelo://app?vid=06b90514-1550-4b09-9032-27493f3feb7a"},"vehicle_type_id":"4","last_reported":1708279678,"current_range_meters":0,"station_id":"ce4bhb92rcd13ifvqen0","pricing_plan_id":"cebpf4jnsgd1na2vs0mg"},{"bike_id":"47c6b448-0f24-4b91-97ca-734287c270d8","system_id":"levelo_inurba_marseille","lat":43.290103,"lon":5.356114,"is_reserved":false,"is_disabled":false,"rental_uris":{"android":"levelo://app?vid=47c6b448-0f24-4b91-97ca-734287c270d8","ios":"levelo://app?vid=47c6b448-0f24-4b91-97ca-734287c270d8"},"vehicle_type_id":"4","last_reported":1708279678,"current_range_meters":0,"station_id":"ce4bhb92rcd13ifvqen0","pricing_plan_id":"cebpf4jnsgd1na2vs0mg"},{"bike_id":"b818fa1d-4f1f-4aec-8971-4cf2f4d0d9f6","system_id":"levelo_inurba_marseille","lat":43.290995,"lon":5.381361,"is_reserved":false,"is_disabled":false,"rental_uris":{"android":"levelo://app?vid=b818fa1d-4f1f-4aec-8971-4cf2f4d0d9f6","ios":"levelo://app?vid=b818fa1d-4f1f-4aec-8971-4cf2f4d0d9f6"},"vehicle_type_id":"4","last_reported":1708279678,"current_range_meters":9200,"station_id":"ce4bh512rcd13ifvqe2g","pricing_plan_id":"cebpf4jnsgd1na2vs0mg"},{"bike_id":"c8d228e2-0991-4182-b6a4-8c522d668cf1","system_id":"levelo_inurba_marseille","lat":43.290995,"lon":5.381361,"is_reserved":false,"is_disabled":false,"rental_uris":{"android":"levelo://app?vid=c8d228e2-0991-4182-b6a4-8c522d668cf1","ios":"levelo://app?vid=c8d228e2-0991-4182-b6a4-8c522d668cf1"},"vehicle_type_id":"4","last_reported":1708279678,"current_range_meters":25200,"station_id":"ce4bh512rcd13ifvqe2g","pricing_plan_id":"cebpf4jnsgd1na2vs0mg"},{"bike_id":"7f5bd243-dc17-4ad1-92eb-b089684562b2","system_id":"levelo_inurba_marseille","lat":43.29097,"lon":5.38133,"is_reserved":false,"is_disabled":false,"rental_uris":{"android":"levelo://app?vid=7f5bd243-dc17-4ad1-92eb-b089684562b2","ios":"levelo://app?vid=7f5bd243-dc17-4ad1-92eb-b089684562b2"},"vehicle_type_id":"4","last_reported":1708279678,"current_range_meters":5600,"station_id":"","pricing_plan_id":"cebpf4jnsgd1na2vs0mg"},{"bike_id":"7c2a8dcd-ea32-4386-b865-21846009ab16","system_id":"levelo_inurba_marseille","lat":43.29796,"lon":5.39324,"is_reserved":false,"is_disabled":false,"rental_uris":{"android":"levelo://app?vid=7c2a8dcd-ea32-4386-b865-21846009ab16","ios":"levelo://app?vid=7c2a8dcd-ea32-4386-b865-21846009ab16"},"vehicle_type_id":"4","last_reported":1708279678,"current_range_meters":27200,"station_id":"chh1huq6cuj3fo74tm60","pricing_plan_id":"cebpf4jnsgd1na2vs0mg"},{"bike_id":"6153c327-ba89-426f-b55d-7a2ad867bd41","system_id":"levelo_inurba_marseille","lat":43.2901,"lon":5.381269,"is_reserved":false,"is_disabled":false,"rental_uris":{"android":"levelo://app?vid=6153c327-ba89-426f-b55d-7a2ad867bd41","ios":"levelo://app?vid=6153c327-ba89-426f-b55d-7a2ad867bd41"},"vehicle_type_id":"4","last_reported":1708279678,"current_range_meters":800,"station_id":"ce4bh4p2rcd13ifvqe1g","pricing_plan_id":"cebpf4jnsgd1na2vs0mg"},{"bike_id":"db6d24e8-4d9b-41e6-81c3-cf76633900bf","system_id":"levelo_inurba_marseille","lat":43.297815,"lon":5.393548,"is_reserved":false,"is_disabled":false,"rental_uris":{"android":"levelo://app?vid=db6d24e8-4d9b-41e6-81c3-cf76633900bf","ios":"levelo://app?vid=db6d24e8-4d9b-41e6-81c3-cf76633900bf"},"vehicle_type_id":"4","last_reported":1708279678,"current_range_meters":11200,"station_id":"chh1huq6cuj3fo74tm60","pricing_plan_id":"cebpf4jnsgd1na2vs0mg"},{"bike_id":"2d8e3104-993e-440a-bbd5-cb7a4c6d5d19","system_id":"levelo_inurba_marseille","lat":43.29778,"lon":5.39336,"is_reserved":false,"is_disabled":false,"rental_uris":{"android":"levelo://app?vid=2d8e3104-993e-440a-bbd5-cb7a4c6d5d19","ios":"levelo://app?vid=2d8e3104-993e-440a-bbd5-cb7a4c6d5d19"},"vehicle_type_id":"4","last_reported":1708279678,"current_range_meters":26400,"station_id":"chh1huq6cuj3fo74tm60","pricing_plan_id":"cebpf4jnsgd1na2vs0mg"},{"bike_id":"4d0f82bc-0208-4f0d-928a-29910ee68b5c","system_id":"levelo_inurba_marseille","lat":43.29789,"lon":5.39348,"is_reserved":false,"is_disabled":false,"rental_uris":{"android":"levelo://app?vid=4d0f82bc-0208-4f0d-928a-29910ee68b5c","ios":"levelo://app?vid=4d0f82bc-0208-4f0d-928a-29910ee68b5c"},"vehicle_type_id":"4","last_reported":1708279678,"current_range_meters":26000,"station_id":"chh1huq6cuj3fo74tm60","pricing_plan_id":"cebpf4jnsgd1na2vs0mg"},{"bike_id":"fff927ce-4483-4d0f-9a3d-3fd7af68297d","system_id":"levelo_inurba_marseille","lat":43.295169,"lon":5.390426,"is_reserved":false,"is_disabled":false,"rental_uris":{"android":"levelo://app?vid=fff927ce-4483-4d0f-9a3d-3fd7af68297d","ios":"levelo://app?vid=fff927ce-4483-4d0f-9a3d-3fd7af68297d"},"vehicle_type_id":"4","last_reported":1708279678,"current_range_meters":25200,"station_id":"ce4bh3p2rcd13ifvqdp0","pricing_plan_id":"cebpf4jnsgd1na2vs0mg"},{"bike_id":"9ea0bd64-e90b-4adf-94bf-522bbf1d5786","system_id":"levelo_inurba_marseille","lat":43.28976,"lon":5.3784,"is_reserved":false,"is_disabled":false,"rental_uris":{"android":"levelo://app?vid=9ea0bd64-e90b-4adf-94bf-522bbf1d5786","ios":"levelo://app?vid=9ea0bd64-e90b-4adf-94bf-522bbf1d5786"},"vehicle_type_id":"4","last_reported":1708279678,"current_range_meters":0,"station_id":"ce4bh9p2rcd13ifvqed0","pricing_plan_id":"cebpf4jnsgd1na2vs0mg"},{"bike_id":"52a952bc-6183-453d-bf8a-5713c2273315","system_id":"levelo_inurba_marseille","lat":43.330442,"lon":5.389148,"is_reserved":false,"is_disabled":false,"rental_uris":{"android":"levelo://app?vid=52a952bc-6183-453d-bf8a-5713c2273315","ios":"levelo://app?vid=52a952bc-6183-453d-bf8a-5713c2273315"},"vehicle_type_id":"4","last_reported":1708279678,"current_range_meters":6800,"station_id":"ce4bhr92rcd13ifvqhrg","pricing_plan_id":"cebpf4jnsgd1na2vs0mg"},{"bike_id":"203e6c0a-cd6e-4dd7-b368-8cf75109367e","system_id":"levelo_inurba_marseille","lat":43.295267,"lon":5.390447,"is_reserved":false,"is_disabled":false,"rental_uris":{"android":"levelo://app?vid=203e6c0a-cd6e-4dd7-b368-8cf75109367e","ios":"levelo://app?vid=203e6c0a-cd6e-4dd7-b368-8cf75109367e"},"vehicle_type_id":"4","last_reported":1708279678,"current_range_meters":2800,"station_id":"ce4bh3p2rcd13ifvqdp0","pricing_plan_id":"cebpf4jnsgd1na2vs0mg"},{"bike_id":"9b4b435d-840f-423e-b53e-ab011e1419d4","system_id":"levelo_inurba_marseille","lat":43.33025,"lon":5.39041,"is_reserved":false,"is_disabled":false,"rental_uris":{"android":"levelo://app?vid=9b4b435d-840f-423e-b53e-ab011e1419d4","ios":"levelo://app?vid=9b4b435d-840f-423e-b53e-ab011e1419d4"},"vehicle_type_id":"4","last_reported":1708279678,"current_range_meters":14000,"station_id":"ce4bhr92rcd13ifvqhrg","pricing_plan_id":"cebpf4jnsgd1na2vs0mg"},{"bike_id":"c6b08f03-13dc-403b-9262-1328a82993ac","system_id":"levelo_inurba_marseille","lat":43.33022,"lon":5.39046,"is_reserved":false,"is_disabled":false,"rental_uris":{"android":"levelo://app?vid=c6b08f03-13dc-403b-9262-1328a82993ac","ios":"levelo://app?vid=c6b08f03-13dc-403b-9262-1328a82993ac"},"vehicle_type_id":"4","last_reported":1708279678,"current_range_meters":31200,"station_id":"ce4bhr92rcd13ifvqhrg","pricing_plan_id":"cebpf4jnsgd1na2vs0mg"},{"bike_id":"1cd9706d-5449-4e76-b86c-1347fde033bd","system_id":"levelo_inurba_marseille","lat":43.330442,"lon":5.389148,"is_reserved":false,"is_disabled":false,"rental_uris":{"android":"levelo://app?vid=1cd9706d-5449-4e76-b86c-1347fde033bd","ios":"levelo://app?vid=1cd9706d-5449-4e76-b86c-1347fde033bd"},"vehicle_type_id":"4","last_reported":1708279678,"current_range_meters":5600,"station_id":"ce4bhr92rcd13ifvqhrg","pricing_plan_id":"cebpf4jnsgd1na2vs0mg"},{"bike_id":"51f1e385-bf80-45dc-a952-27565b82b8fb","system_id":"levelo_inurba_marseille","lat":43.29779,"lon":5.39362,"is_reserved":false,"is_disabled":false,"rental_uris":{"android":"levelo://app?vid=51f1e385-bf80-45dc-a952-27565b82b8fb","ios":"levelo://app?vid=51f1e385-bf80-45dc-a952-27565b82b8fb"},"vehicle_type_id":"4","last_reported":1708279678,"current_range_meters":400,"station_id":"chh1huq6cuj3fo74tm60","pricing_plan_id":"cebpf4jnsgd1na2vs0mg"},{"bike_id":"4e3e747b-1083-4b10-b77c-5430a15fb872","system_id":"levelo_inurba_marseille","lat":43.295265,"lon":5.391048,"is_reserved":false,"is_disabled":false,"rental_uris":{"android":"levelo://app?vid=4e3e747b-1083-4b10-b77c-5430a15fb872","ios":"levelo://app?vid=4e3e747b-1083-4b10-b77c-5430a15fb872"},"vehicle_type_id":"4","last_reported":1708279678,"current_range_meters":3600,"station_id":"ce4bh3p2rcd13ifvqdp0","pricing_plan_id":"cebpf4jnsgd1na2vs0mg"},{"bike_id":"516b05b2-38f3-4551-bd52-77c59f002704","system_id":"levelo_inurba_marseille","lat":43.290094,"lon":5.381264,"is_reserved":false,"is_disabled":false,"rental_uris":{"android":"levelo://app?vid=516b05b2-38f3-4551-bd52-77c59f002704","ios":"levelo://app?vid=516b05b2-38f3-4551-bd52-77c59f002704"},"vehicle_type_id":"4","last_reported":1708279678,"current_range_meters":6400,"station_id":"ce4bh4p2rcd13ifvqe1g","pricing_plan_id":"cebpf4jnsgd1na2vs0mg"},{"bike_id":"a1163f5f-273d-42d9-8dfd-df77b77a0027","system_id":"levelo_inurba_marseille","lat":43.31265,"lon":5.40157,"is_reserved":false,"is_disabled":false,"rental_uris":{"android":"levelo://app?vid=a1163f5f-273d-42d9-8dfd-df77b77a0027","ios":"levelo://app?vid=a1163f5f-273d-42d9-8dfd-df77b77a0027"},"vehicle_type_id":"4","last_reported":1708279678,"current_range_meters":0,"station_id":"ce4bh092rcd13ifvqd30","pricing_plan_id":"cebpf4jnsgd1na2vs0mg"},{"bike_id":"ba9bcd67-d8b2-4d77-b88f-0d1d1d50ce0c","system_id":"levelo_inurba_marseille","lat":43.312609,"lon":5.401662,"is_reserved":false,"is_disabled":false,"rental_uris":{"android":"levelo://app?vid=ba9bcd67-d8b2-4d77-b88f-0d1d1d50ce0c","ios":"levelo://app?vid=ba9bcd67-d8b2-4d77-b88f-0d1d1d50ce0c"},"vehicle_type_id":"4","last_reported":1708279678,"current_range_meters":14800,"station_id":"ce4bh092rcd13ifvqd30","pricing_plan_id":"cebpf4jnsgd1na2vs0mg"},{"bike_id":"c824b3df-300d-4cad-a8f8-737768589e7f","system_id":"levelo_inurba_marseille","lat":43.33744,"lon":5.37458,"is_reserved":false,"is_disabled":false,"rental_uris":{"android":"levelo://app?vid=c824b3df-300d-4cad-a8f8-737768589e7f","ios":"levelo://app?vid=c824b3df-300d-4cad-a8f8-737768589e7f"},"vehicle_type_id":"4","last_reported":1708279678,"current_range_meters":19600,"station_id":"","pricing_plan_id":"cebpf4jnsgd1na2vs0mg"},{"bike_id":"864a5b7b-adae-4549-8ba6-3d88067da0c1","system_id":"levelo_inurba_marseille","lat":43.30643,"lon":5.40104,"is_reserved":false,"is_disabled":false,"rental_uris":{"android":"levelo://app?vid=864a5b7b-adae-4549-8ba6-3d88067da0c1","ios":"levelo://app?vid=864a5b7b-adae-4549-8ba6-3d88067da0c1"},"vehicle_type_id":"4","last_reported":1708279678,"current_range_meters":4400,"station_id":"ce4bh112rcd13ifvqda0","pricing_plan_id":"cebpf4jnsgd1na2vs0mg"},{"bike_id":"06c2e5b0-e5d6-454b-a389-c01bf8ee6a5f","system_id":"levelo_inurba_marseille","lat":43.306412,"lon":5.401035,"is_reserved":false,"is_disabled":false,"rental_uris":{"android":"levelo://app?vid=06c2e5b0-e5d6-454b-a389-c01bf8ee6a5f","ios":"levelo://app?vid=06c2e5b0-e5d6-454b-a389-c01bf8ee6a5f"},"vehicle_type_id":"4","last_reported":1708279678,"current_range_meters":20400,"station_id":"ce4bh112rcd13ifvqda0","pricing_plan_id":"cebpf4jnsgd1na2vs0mg"},