{"last_updated":1726966179,"ttl":30,"version":"2.2","data":{"bikes":[{"bike_id":"fd84f170-c075-4570-a556-c5e617e29406","system_id":"levelo_inurba_marseille","lat":43.28295,"lon":5.40896,"is_reserved":false,"is_disabled":false,"rental_uris":{"android":"levelo://app?vid=fd84f170-c075-4570-a556-c5e617e29406","ios":"levelo://app?vid=fd84f170-c075-4570-a556-c5e617e29406"},"vehicle_type_id":"4","last_reported":1726966179,"current_range_meters":20000,"station_id":"","pricing_plan_id":"cebpf4jnsgd1na2vs0mg"},{"bike_id":"a63706c5-3087-4e33-be97-bfb792fc05ac","system_id":"levelo_inurba_marseille","lat":43.27913,"lon":5.39581,"is_reserved":false,"is_disabled":false,"rental_uris":{"android":"levelo://app?vid=a63706c5-3087-4e33-be97-bfb792fc05ac","ios":"levelo://app?vid=a63706c5-3087-4e33-be97-bfb792fc05ac"},"vehicle_type_id":"4","last_reported":1726966179,"current_range_meters":38800,"station_id":"ce4bhf92rcd13ifvqf40","pricing_plan_id":"cebpf4jnsgd1na2vs0mg"},{"bike_id":"09ef34b6-482f-4988-9331-10658115e1c1","system_id":"levelo_inurba_marseille","lat":43.31528,"lon":5.38031,"is_reserved":false,"is_disabled":false,"rental_uris":{"android":"levelo://app?vid=09ef34b6-482f-4988-9331-10658115e1c1","ios":"levelo://app?vid=09ef34b6-482f-4988-9331-10658115e1c1"},"vehicle_type_id":"4","last_reported":1726966179,"current_range_meters":20400,"station_id":"ce4bhsp2rcd13ifvqi50","pricing_plan_id":"cebpf4jnsgd1na2vs0mg"},{"bike_id":"1b71199d-0ac4-43db-900e-6c08a8688555","system_id":"levelo_inurba_marseille","lat":43.30881,"lon":5.39637,"is_reserved":false,"is_disabled":false,"rental_uris":{"android":"levelo://app?vid=1b71199d-0ac4-43db-900e-6c08a8688555","ios":"levelo://app?vid=1b71199d-0ac4-43db-900e-6c08a8688555"},"vehicle_type_id":"4","last_reported":1726966179,"current_range_meters":36400,"station_id":"ce4bh012rcd13ifvqcv0","pricing_plan_id":"cebpf4jnsgd1na2vs0mg"},{"bike_id":"c71a0ad1-4595-42cb-9941-6c2a2f4b556c","system_id":"levelo_inurba_marseille","lat":43.30814,"lon":5.3816,"is_reserved":false,"is_disabled":false,"rental_uris":{"android":"levelo://app?vid=c71a0ad1-4595-42cb-9941-6c2a2f4b556c","ios":"levelo://app?vid=c71a0ad1-4595-42cb-9941-6c2a2f4b556c"},"vehicle_type_id":"4","last_reported":1726966179,"current_range_meters":6400,"station_id":"ce4bgt12rcd13ifvqce0","pricing_plan_id":"cebpf4jnsgd1na2vs0mg"},{"bike_id":"fa40c179-cc76-4642-bd2c-df0bf2c367b9","system_id":"levelo_inurba_marseille","lat":43.30334,"lon":5.40445,"is_reserved":false,"is_disabled":false,"rental_uris":{"android":"levelo://app?vid=fa40c179-cc76-4642-bd2c-df0bf2c367b9","ios":"levelo://app?vid=fa40c179-cc76-4642-bd2c-df0bf2c367b9"},"vehicle_type_id":"4","last_reported":1726966179,"current_range_meters":24000,"station_id":"ce4bh012rcd13ifvqd10","pricing_plan_id":"cebpf4jnsgd1na2vs0mg"},{"bike_id":"5982358a-e43d-4b20-8fb8-b3bf2c74c97a","system_id":"levelo_inurba_marseille","lat":43.24667,"lon":5.38167,"is_reserved":false,"is_disabled":false,"rental_uris":{"android":"levelo://app?vid=5982358a-e43d-4b20-8fb8-b3bf2c74c97a","ios":"levelo://app?vid=5982358a-e43d-4b20-8fb8-b3bf2c74c97a"},"vehicle_type_id":"4","last_reported":1726966179,"current_range_meters":8400,"station_id":"ce4bhih2rcd13ifvqfr0","pricing_plan_id":"cebpf4jnsgd1na2vs0mg"},{"bike_id":"9f38294e-12e2-4aea-b025-0df1d7948b00","system_id":"levelo_inurba_marseille","lat":43.24549,"lon":5.39525,"is_reserved":false,"is_disabled":false,"rental_uris":{"android":"levelo://app?vid=9f38294e-12e2-4aea-b025-0df1d7948b00","ios":"levelo://app?vid=9f38294e-12e2-4aea-b025-0df1d7948b00"},"vehicle_type_id":"4","last_reported":1726966179,"current_range_meters":38800,"station_id":"ce4bhlp2rcd13ifvqgjg","pricing_plan_id":"cebpf4jnsgd1na2vs0mg"},{"bike_id":"34b59753-bea4-4bbc-98c3-8930d2cc79d7","system_id":"levelo_inurba_marseille","lat":43.29558,"lon":5.42292,"is_reserved":false,"is_disabled":false,"rental_uris":{"android":"levelo://app?vid=34b59753-bea4-4bbc-98c3-8930d2cc79d7","ios":"levelo://app?vid=34b59753-bea4-4bbc-98c3-8930d2cc79d7"},"vehicle_type_id":"4","last_reported":1726966179,"current_range_meters":38000,"station_id":"ce4bhph2rcd13ifvqhdg","pricing_plan_id":"cebpf4jnsgd1na2vs0mg"},{"bike_id":"b28e87f5-e830-4cfe-a56f-42f0c061e6d5","system_id":"levelo_inurba_marseille","lat":43.243896,"lon":5.370606,"is_reserved":false,"is_disabled":false,"rental_uris":{"android":"levelo://app?vid=b28e87f5-e830-4cfe-a56f-42f0c061e6d5","ios":"levelo://app?vid=b28e87f5-e830-4cfe-a56f-42f0c061e6d5"},"vehicle_type_id":"4","last_reported":1726966179,"current_range_meters":24400,"station_id":"ce4bhhh2rcd13ifvqfk0","pricing_plan_id":"cebpf4jnsgd1na2vs0mg"},{"bike_id":"89cdcc83-7aab-4c78-8e76-aa0ccb30eb08","system_id":"levelo_inurba_marseille","lat":43.31714,"lon":5.43708,"is_reserved":false,"is_disabled":false,"rental_uris":{"android":"levelo://app?vid=89cdcc83-7aab-4c78-8e76-aa0ccb30eb08","ios":"levelo://app?vid=89cdcc83-7aab-4c78-8e76-aa0ccb30eb08"},"vehicle_type_id":"4","last_reported":1726966179,"current_range_meters":23200,"station_id":"ce4bhp92rcd13ifvqhcg","pricing_plan_id":"cebpf4jnsgd1na2vs0mg"},{"bike_id":"1b638497-666e-4076-91e4-214ae677f1e8","system_id":"levelo_inurba_marseille","lat":43.283541,"lon":5.381017,"is_reserved":false,"is_disabled":false,"rental_uris":{"android":"levelo://app?vid=1b638497-666e-4076-91e4-214ae677f1e8","ios":"levelo://app?vid=1b638497-666e-4076-91e4-214ae677f1e8"},"vehicle_type_id":"4","last_reported":1726966179,"current_range_meters":3600,"station_id":"ce4bh412rcd13ifvqdr0","pricing_plan_id":"cebpf4jnsgd1na2vs0mg"},{"bike_id":"25615f3f-00fa-4268-9133-17121f9d084b","system_id":"levelo_inurba_marseille","lat":43.296913,"lon":5.372931,"is_reserved":false,"is_disabled":false,"rental_uris":{"android":"levelo://app?vid=25615f3f-00fa-4268-9133-17121f9d084b","ios":"levelo://app?vid=25615f3f-00fa-4268-9133-17121f9d084b"},"vehicle_type_id":"4","last_reported":1726966179,"current_range_meters":38000,"station_id":"ce4bgk12rcd13ifvqbj0","pricing_plan_id":"cebpf4jnsgd1na2vs0mg"},{"bike_id":"f1a1b266-38cd-4948-a071-219f89de7e58","system_id":"levelo_inurba_marseille","lat":43.28708,"lon":5.37371,"is_reserved":false,"is_disabled":false,"rental_uris":{"android":"levelo://app?vid=f1a1b266-38cd-4948-a071-219f89de7e58","ios":"levelo://app?vid=f1a1b266-38cd-4948-a071-219f89de7e58"},"vehicle_type_id":"4","last_reported":1726966179,"current_range_meters":39200,"station_id":"ce4bh3p2rcd13ifvqdq0","pricing_plan_id":"cebpf4jnsgd1na2vs0mg"},{"bike_id":"29c3801a-7b4c-47aa-a6ad-d81b447de9a5","system_id":"levelo_inurba_marseille","lat":43.30425,"lon":5.41278,"is_reserved":false,"is_disabled":false,"rental_uris":{"android":"levelo://app?vid=29c3801a-7b4c-47aa-a6ad-d81b447de9a5","ios":"levelo://app?vid=29c3801a-7b4c-47aa-a6ad-d81b447de9a5"},"vehicle_type_id":"4","last_reported":1726966179,"current_range_meters":28000,"station_id":"ce4bhop2rcd13ifvqh8g","pricing_plan_id":"cebpf4jnsgd1na2vs0mg"},{"bike_id":"dd61549d-48e7-4a71-a4b7-6d238de3a967","system_id":"levelo_inurba_marseille","lat":43.28349,"lon":5.38102,"is_reserved":false,"is_disabled":false,"rental_uris":{"android":"levelo://app?vid=dd61549d-48e7-4a71-a4b7-6d238de3a967","ios":"levelo://app?vid=dd61549d-48e7-4a71-a4b7-6d238de3a967"},"vehicle_type_id":"4","last_reported":1726966179,"current_range_meters":35200,"station_id":"ce4bh412rcd13ifvqdr0","pricing_plan_id":"cebpf4jnsgd1na2vs0mg"},{"bike_id":"61944bde-6b82-4cbe-ae5a-523a1e2622f1","system_id":"levelo_inurba_marseille","lat":43.278376,"lon":5.392117,"is_reserved":false,"is_disabled":false,"rental_uris":{"android":"levelo://app?vid=61944bde-6b82-4cbe-ae5a-523a1e2622f1","ios":"levelo://app?vid=61944bde-6b82-4cbe-ae5a-523a1e2622f1"},"vehicle_type_id":"4","last_reported":1726966179,"current_range_meters":24400,"station_id":"ce4bh312rcd13ifvqdj0","pricing_plan_id":"cebpf4jnsgd1na2vs0mg"},{"bike_id":"b9043ee7-1b51-4205-a7f8-061a93eb7c50","system_id":"levelo_inurba_marseille","lat":43.31891,"lon":5.40732,"is_reserved":false,"is_disabled":false,"rental_uris":{"android":"levelo://app?vid=b9043ee7-1b51-4205-a7f8-061a93eb7c50","ios":"levelo://app?vid=b9043ee7-1b51-4205-a7f8-061a93eb7c50"},"vehicle_type_id":"4","last_reported":1726966179,"current_range_meters":39200,"station_id":"ce4bhq12rcd13ifvqhig","pricing_plan_id":"cebpf4jnsgd1na2vs0mg"},{"bike_id":"3c168981-3815-461f-893b-90b4ce403053","system_id":"levelo_inurba_marseille","lat":43.25867,"lon":5.39895,"is_reserved":false,"is_disabled":false,"rental_uris":{"android":"levelo://app?vid=3c168981-3815-461f-893b-90b4ce403053","ios":"levelo://app?vid=3c168981-3815-461f-893b-90b4ce403053"},"vehicle_type_id":"4","last_reported":1726966179,"current_range_meters":26800,"station_id":"ce4bhl92rcd13ifvqghg","pricing_plan_id":"cebpf4jnsgd1na2vs0mg"},{"bike_id":"20a042f1-81aa-4cde-8548-4f002e395336","system_id":"levelo_inurba_marseille","lat":43.30166,"lon":5.39832,"is_reserved":false,"is_disabled":false,"rental_uris":{"android":"levelo://app?vid=20a042f1-81aa-4cde-8548-4f002e395336","ios":"levelo://app?vid=20a042f1-81aa-4cde-8548-4f002e395336"},"vehicle_type_id":"4","last_reported":1726966179,"current_range_meters":38400,"station_id":"ce4bgvp2rcd13ifvqct0","pricing_plan_id":"cebpf4jnsgd1na2vs0mg"},{"bike_id":"3f3a1968-161c-4281-9dac-b1f6f3f79cd0","system_id":"levelo_inurba_marseille","lat":43.27494,"lon":5.42449,"is_reserved":false,"is_disabled":false,"rental_uris":{"android":"levelo://app?vid=3f3a1968-161c-4281-9dac-b1f6f3f79cd0","ios":"levelo://app?vid=3f3a1968-161c-4281-9dac-b1f6f3f79cd0"},"vehicle_type_id":"4","last_reported":1726966179,"current_range_meters":19200,"station_id":"ce4bhn92rcd13ifvqgrg","pricing_plan_id":"cebpf4jnsgd1na2vs0mg"},{"bike_id":"f3fc5ef9-aed4-4dc4-b299-d331255348c4","system_id":"levelo_inurba_marseille","lat":43.28463,"lon":5.35885,"is_reserved":false,"is_disabled":false,"rental_uris":{"android":"levelo://app?vid=f3fc5ef9-aed4-4dc4-b299-d331255348c4","ios":"levelo://app?vid=f3fc5ef9-aed4-4dc4-b299-d331255348c4"},"vehicle_type_id":"4","last_reported":1726966179,"current_range_meters":18000,"station_id":"ce4bhah2rcd13ifvqei0","pricing_plan_id":"cebpf4jnsgd1na2vs0mg"},{"bike_id":"db0871a2-4011-460b-a315-33d8d8b57d85","system_id":"levelo_inurba_marseille","lat":43.29558,"lon":5.42282,"is_reserved":false,"is_disabled":false,"rental_uris":{"android":"levelo://app?vid=db0871a2-4011-460b-a315-33d8d8b57d85","ios":"levelo://app?vid=db0871a2-4011-460b-a315-33d8d8b57d85"},"vehicle_type_id":"4","last_reported":1726966179,"current_range_meters":30400,"station_id":"ce4bhph2rcd13ifvqhdg","pricing_plan_id":"cebpf4jnsgd1na2vs0mg"},{"bike_id":"0f29b298-28c0-416a-929a-d6bc17c32593","system_id":"levelo_inurba_marseille","lat":43.292725,"lon":5.368432,"is_reserved":false,"is_disabled":false,"rental_uris":{"android":"levelo://app?vid=0f29b298-28c0-416a-929a-d6bc17c32593","ios":"levelo://app?vid=0f29b298-28c0-416a-929a-d6bc17c32593"},"vehicle_type_id":"4","last_reported":1726966179,"current_range_meters":37600,"station_id":"ce4bh0p2rcd13ifvqd70","pricing_plan_id":"cebpf4jnsgd1na2vs0mg"},{"bike_id":"ebabfaca-3986-4d00-be3b-c82a93b1fd1c","system_id":"levelo_inurba_marseille","lat":43.31365,"lon":5.38489,"is_reserved":false,"is_disabled":false,"rental_uris":{"android":"levelo://app?vid=ebabfaca-3986-4d00-be3b-c82a93b1fd1c","ios":"levelo://app?vid=ebabfaca-3986-4d00-be3b-c82a93b1fd1c"},"vehicle_type_id":"4","last_reported":1726966179,"current_range_meters":8400,"station_id":"ce4bgt92rcd13ifvqcf0","pricing_plan_id":"cebpf4jnsgd1na2vs0mg"},{"bike_id":"765fcc44-248d-45e5-95bf-89cb71612a65","system_id":"levelo_inurba_marseille","lat":43.29264,"lon":5.40911,"is_reserved":false,"is_disabled":false,"rental_uris":{"android":"levelo://app?vid=765fcc44-248d-45e5-95bf-89cb71612a65","ios":"levelo://app?vid=765fcc44-248d-45e5-95bf-89cb71612a65"},"vehicle_type_id":"4","last_reported":1726966179,"current_range_meters":38800,"station_id":"ce4bh192rcd13ifvqdc0","pricing_plan_id":"cebpf4jnsgd1na2vs0mg"},{"bike_id":"3d377194-3646-4517-99fe-0b79980daaa6","system_id":"levelo_inurba_marseille","lat":43.31763,"lon":5.39018,"is_reserved":false,"is_disabled":false,"rental_uris":{"android":"levelo://app?vid=3d377194-3646-4517-99fe-0b79980daaa6","ios":"levelo://app?vid=3d377194-3646-4517-99fe-0b79980daaa6"},"vehicle_type_id":"4","last_reported":1726966179,"current_range_meters":16800,"station_id":"ce4bhqp2rcd13ifvqhng","pricing_plan_id":"cebpf4jnsgd1na2vs0mg"},{"bike_id":"d04d05fb-f1e4-4d90-922a-2745817bba35","system_id":"levelo_inurba_marseille","lat":43.25505,"lon":5.37652,"is_reserved":false,"is_disabled":false,"rental_uris":{"android":"levelo://app?vid=d04d05fb-f1e4-4d90-922a-2745817bba35","ios":"levelo://app?vid=d04d05fb-f1e4-4d90-922a-2745817bba35"},"vehicle_type_id":"4","last_reported":1726966179,"current_range_meters":38800,"station_id":"ce4bhh12rcd13ifvqff0","pricing_plan_id":"cebpf4jnsgd1na2vs0mg"},{"bike_id":"c720ec5e-0ab2-45a5-b25f-0a0c3d86f039","system_id":"levelo_inurba_marseille","lat":43.32659,"lon":5.40986,"is_reserved":false,"is_disabled":false,"rental_uris":{"android":"levelo://app?vid=c720ec5e-0ab2-45a5-b25f-0a0c3d86f039","ios":"levelo://app?vid=c720ec5e-0ab2-45a5-b25f-0a0c3d86f039"},"vehicle_type_id":"4","last_reported":1726966179,"current_range_meters":38000,"station_id":"ce4bhpp2rcd13ifvqhgg","pricing_plan_id":"cebpf4jnsgd1na2vs0mg"},{"bike_id":"76264ce6-893d-4356-a084-f2c3b05ebce0","system_id":"levelo_inurba_marseille","lat":43.2707,"lon":5.4228,"is_reserved":false,"is_disabled":false,"rental_uris":{"android":"levelo://app?vid=76264ce6-893d-4356-a084-f2c3b05ebce0","ios":"levelo://app?vid=76264ce6-893d-4356-a084-f2c3b05ebce0"},"vehicle_type_id":"4","last_reported":1726966179,"current_range_meters":35600,"station_id":"ce4bhk92rcd13ifvqgb0","pricing_plan_id":"cebpf4jnsgd1na2vs0mg"},{"bike_id":"6419325f-76c1-4392-9dbc-8446db0b27c5","system_id":"levelo_inurba_marseille","lat":43.30282,"lon":5.38379,"is_reserved":false,"is_disabled":false,"rental_uris":{"android":"levelo://app?vid=6419325f-76c1-4392-9dbc-8446db0b27c5","ios":"levelo://app?vid=6419325f-76c1-4392-9dbc-8446db0b27c5"},"vehicle_type_id":"4","last_reported":1726966179,"current_range_meters":18800,"station_id":"","pricing_plan_id":"cebpf4jnsgd1na2vs0mg"},{"bike_id":"9b7369cf-12ea-470b-a069-bd3af48648d1","system_id":"levelo_inurba_marseille","lat":43.30906,"lon":5.36853,"is_reserved":false,"is_disabled":false,"rental_uris":{"android":"levelo://app?vid=9b7369cf-12ea-470b-a069-bd3af48648d1","ios":"levelo://app?vid=9b7369cf-12ea-470b-a069-bd3af48648d1"},"vehicle_type_id":"4","last_reported":1726966179,"current_range_meters":39200,"station_id":"ce4bgn92rcd13ifvqbvg","pricing_plan_id":"cebpf4jnsgd1na2vs0mg"},{"bike_id":"3ac4ff59-d6f9-4444-978f-307b63dc0507","system_id":"levelo_inurba_marseille","lat":43.29457,"lon":5.39757,"is_reserved":false,"is_disabled":false,"rental_uris":{"android":"levelo://app?vid=3ac4ff59-d6f9-4444-978f-307b63dc0507","ios":"levelo://app?vid=3ac4ff59-d6f9-4444-978f-307b63dc0507"},"vehicle_type_id":"4","last_reported":1726966179,"current_range_meters":38800,"station_id":"ce4bh3h2rcd13ifvqdo0","pricing_plan_id":"cebpf4jnsgd1na2vs0mg"},{"bike_id":"5ffd1444-1006-4454-af5f-adca8169af7a","system_id":"levelo_inurba_marseille","lat":43.23962,"lon":5.36632,"is_reserved":false,"is_disabled":false,"rental_uris":{"android":"levelo://app?vid=5ffd1444-1006-4454-af5f-adca8169af7a","ios":"levelo://app?vid=5ffd1444-1006-4454-af5f-adca8169af7a"},"vehicle_type_id":"4","last_reported":1726966179,"current_range_meters":34000,"station_id":"ce4bhi12rcd13ifvqfp0","pricing_plan_id":"cebpf4jnsgd1na2vs0mg"},{"bike_id":"2abfd0da-52ff-49fd-a5cb-a8f4dd818089","system_id":"levelo_inurba_marseille","lat":43.28158,"lon":5.42653,"is_reserved":false,"is_disabled":false,"rental_uris":{"android":"levelo://app?vid=2abfd0da-52ff-49fd-a5cb-a8f4dd818089","ios":"levelo://app?vid=2abfd0da-52ff-49fd-a5cb-a8f4dd818089"},"vehicle_type_id":"4","last_reported":1726966179,"current_range_meters":38800,"station_id":"ce4bhnh2rcd13ifvqgug","pricing_plan_id":"cebpf4jnsgd1na2vs0mg"},{"bike_id":"edfb1ff5-b81b-4225-8da9-100a9115b1e3","system_id":"levelo_inurba_marseille","lat":43.29735,"lon":5.36561,"is_reserved":false,"is_disabled":false,"rental_uris":{"android":"levelo://app?vid=edfb1ff5-b81b-4225-8da9-100a9115b1e3","ios":"levelo://app?vid=edfb1ff5-b81b-4225-8da9-100a9115b1e3"},"vehicle_type_id":"4","last_reported":1726966179,"current_range_meters":6000,"station_id":"","pricing_plan_id":"cebpf4jnsgd1na2vs0mg"},{"bike_id":"e0613aa1-f35a-4a8e-b69a-2889872594a3","system_id":"levelo_inurba_marseille","lat":43.28459,"lon":5.35886,"is_reserved":false,"is_disabled":false,"rental_uris":{"android":"levelo://app?vid=e0613aa1-f35a-4a8e-b69a-2889872594a3","ios":"levelo://app?vid=e0613aa1-f35a-4a8e-b69a-2889872594a3"},"vehicle_type_id":"4","last_reported":1726966179,"current_range_meters":27200,"station_id":"ce4bhah2rcd13ifvqei0","pricing_plan_id":"cebpf4jnsgd1na2vs0mg"},{"bike_id":"fb6934fd-0f84-475c-a266-0c68b4eaf556","system_id":"levelo_inurba_marseille","lat":43.28405,"lon":5.37551,"is_reserved":false,"is_disabled":false,"rental_uris":{"android":"levelo://app?vid=fb6934fd-0f84-475c-a266-0c68b4eaf556","ios":"levelo://app?vid=fb6934fd-0f84-475c-a266-0c68b4eaf556"},"vehicle_type_id":"4","last_reported":1726966179,"current_range_meters":29600,"station_id":"ce4bh412rcd13ifvqds0","pricing_plan_id":"cebpf4jnsgd1na2vs0mg"},{"bike_id":"c914526b-bc34-4a4c-8d27-ef89019aa801","system_id":"levelo_inurba_marseille","lat":43.295624,"lon":5.422978,"is_reserved":false,"is_disabled":false,"rental_uris":{"android":"levelo://app?vid=c914526b-bc34-4a4c-8d27-ef89019aa801","ios":"levelo://app?vid=c914526b-bc34-4a4c-8d27-ef89019aa801"},"vehicle_type_id":"4","last_reported":1726966179,"current_range_meters":20000,"station_id":"ce4bhph2rcd13ifvqhdg","pricing_plan_id":"cebpf4jnsgd1na2vs0mg"},{"bike_id":"1e36dc23-aa9d-4cac-91fc-380ccf78f185","system_id":"levelo_inurba_marseille","lat":43.29879,"lon":5.39722,"is_reserved":false,"is_disabled":false,"rental_uris":{"android":"levelo://app?vid=1e36dc23-aa9d-4cac-91fc-380ccf78f185","ios":"levelo://app?vid=1e36dc23-aa9d-4cac-91fc-380ccf78f185"},"vehicle_type_id":"4","last_reported":1726966179,"current_range_meters":39200,"station_id":"ce4bh0h2rcd13ifvqd50","pricing_plan_id":"cebpf4jnsgd1na2vs0mg"},{"bike_id":"631488bc-ca0a-465d-b540-dc0fc292dcb4","system_id":"levelo_inurba_marseille","lat":43.31366,"lon":5.385,"is_reserved":false,"is_disabled":false,"rental_uris":{"android":"levelo://app?vid=631488bc-ca0a-465d-b540-dc0fc292dcb4","ios":"levelo://app?vid=631488bc-ca0a-465d-b540-dc0fc292dcb4"},"vehicle_type_id":"4","last_reported":1726966179,"current_range_meters":17600,"station_id":"ce4bgt92rcd13ifvqcf0","pricing_plan_id":"cebpf4jnsgd1na2vs0mg"},{"bike_id":"d7b41b65-b622-44ce-8370-33f70514f718","system_id":"levelo_inurba_marseille","lat":43.29006,"lon":5.35607,"is_reserved":false,"is_disabled":false,"rental_uris":{"android":"levelo://app?vid=d7b41b65-b622-44ce-8370-33f70514f718","ios":"levelo://app?vid=d7b41b65-b622-44ce-8370-33f70514f718"},"vehicle_type_id":"4","last_reported":1726966179,"current_range_meters":38000,"station_id":"ce4bhb92rcd13ifvqen0","pricing_plan_id":"cebpf4jnsgd1na2vs0mg"},{"bike_id":"b249283a-eb5c-4a0c-b026-6affa081eeeb","system_id":"levelo_inurba_marseille","lat":43.3014,"lon":5.38782,"is_reserved":false,"is_disabled":false,"rental_uris":{"android":"levelo://app?vid=b249283a-eb5c-4a0c-b026-6affa081eeeb","ios":"levelo://app?vid=b249283a-eb5c-4a0c-b026-6affa081eeeb"},"vehicle_type_id":"4","last_reported":1726966179,"current_range_meters":8000,"station_id":"ce4bghh2rcd13ifvqb60","pricing_plan_id":"cebpf4jnsgd1na2vs0mg"},{"bike_id":"eb51972c-e901-47c9-aa4c-bb287b81e5fb","system_id":"levelo_inurba_marseille","lat":43.31757,"lon":5.3902,"is_reserved":false,"is_disabled":false,"rental_uris":{"android":"levelo://app?vid=eb51972c-e901-47c9-aa4c-bb287b81e5fb","ios":"levelo://app?vid=eb51972c-e901-47c9-aa4c-bb287b81e5fb"},"vehicle_type_id":"4","last_reported":1726966179,"current_range_meters":39200,"station_id":"ce4bhqp2rcd13ifvqhng","pricing_plan_id":"cebpf4jnsgd1na2vs0mg"},{"bike_id":"9b270c0b-276d-47a0-b1ea-db76f7a1e4e2","system_id":"levelo_inurba_marseille","lat":43.27375,"lon":5.36254,"is_reserved":false,"is_disabled":false,"rental_uris":{"android":"levelo://app?vid=9b270c0b-276d-47a0-b1ea-db76f7a1e4e2","ios":"levelo://app?vid=9b270c0b-276d-47a0-b1ea-db76f7a1e4e2"},"vehicle_type_id":"4","last_reported":1726966179,"current_range_meters":38800,"station_id":"ce4bhbh2rcd13ifvqeo0","pricing_plan_id":"cebpf4jnsgd1na2vs0mg"},{"bike_id":"03bad859-4358-4bb4-9b18-007f8463f1b5","system_id":"levelo_inurba_marseille","lat":43.2319,"lon":5.39985,"is_reserved":false,"is_disabled":false,"rental_uris":{"android":"levelo://app?vid=03bad859-4358-4bb4-9b18-007f8463f1b5","ios":"levelo://app?vid=03bad859-4358-4bb4-9b18-007f8463f1b5"},"vehicle_type_id":"4","last_reported":1726966179,"current_range_meters":38800,"station_id":"ce4bhn12rcd13ifvqgqg","pricing_plan_id":"cebpf4jnsgd1na2vs0mg"},{"bike_id":"72893abd-c62a-46e9-b638-e54ec5476bce","system_id":"levelo_inurba_marseille","lat":43.30417,"lon":5.41271,"is_reserved":false,"is_disabled":false,"rental_uris":{"android":"levelo://app?vid=72893abd-c62a-46e9-b638-e54ec5476bce","ios":"levelo://app?vid=72893abd-c62a-46e9-b638-e54ec5476bce"},"vehicle_type_id":"4","last_reported":1726966179,"current_range_meters":25200,"station_id":"ce4bhop2rcd13ifvqh8g","pricing_plan_id":"cebpf4jnsgd1na2vs0mg"},{"bike_id":"ea219450-0551-484e-bdfc-3c198bec9523","system_id":"levelo_inurba_marseille","lat":43.25871,"lon":5.39897,"is_reserved":false,"is_disabled":false,"rental_uris":{"android":"levelo://app?vid=ea219450-0551-484e-bdfc-3c198bec9523","ios":"levelo://app?vid=ea219450-0551-484e-bdfc-3c198bec9523"},"vehicle_type_id":"4","last_reported":1726966179,"current_range_meters":24000,"station_id":"ce4bhl92rcd13ifvqghg","pricing_plan_id":"cebpf4jnsgd1na2vs0mg"},{"bike_id":"be4e3a6b-ebd3-49c9-9eb8-d3f1c777207e","system_id":"levelo_inurba_marseille","lat":43.25115,"lon":5.40321,"is_reserved":false,"is_disabled":false,"rental_uris":{"android":"levelo://app?vid=be4e3a6b-ebd3-49c9-9eb8-d3f1c777207e","ios":"levelo://app?vid=be4e3a6b-ebd3-49c9-9eb8-d3f1c777207e"},"vehicle_type_id":"4","last_reported":1726966179,"current_range_meters":9600,"station_id":"ce4bhlh2rcd13ifvqgig","pricing_plan_id":"cebpf4jnsgd1na2vs0mg"},{"bike_id":"f0653a7d-ee4b-47ef-87ab-99f603cee044","system_id":"levelo_inurba_marseille","lat":43.29559,"lon":5.42278,"is_reserved":false,"is_disabled":false,"rental_uris":{"android":"levelo://app?vid=f0653a7d-ee4b-47ef-87ab-99f603cee044","ios":"levelo://app?vid=f0653a7d-ee4b-47ef-87ab-99f603cee044"},"vehicle_type_id":"4","last_reported":1726966179,"current_range_meters":15200,"station_id":"ce4bhph2rcd13ifvqhdg","pricing_plan_id":"cebpf4jnsgd1na2vs0mg"},{"bike_id":"ac42eb2a-831f-44d6-9e0b-81838770d7a8","system_id":"levelo_inurba_marseille","lat":43.30439,"lon":5.38893,"is_reserved":false,"is_disabled":false,"rental_uris":{"android":"levelo://app?vid=ac42eb2a-831f-44d6-9e0b-81838770d7a8","ios":"levelo://app?vid=ac42eb2a-831f-44d6-9e0b-81838770d7a8"},"vehicle_type_id":"4","last_reported":1726966179,"current_range_meters":37600,"station_id":"ce4bgk12rcd13ifvqbi0","pricing_plan_id":"cebpf4jnsgd1na2vs0mg"},{"bike_id":"2aac2c18-223c-45f0-aa24-53d3c4798243","system_id":"levelo_inurba_marseille","lat":43.25869,"lon":5.39896,"is_reserved":false,"is_disabled":false,"rental_uris":{"android":"levelo://app?vid=2aac2c18-223c-45f0-aa24-53d3c4798243","ios":"levelo://app?vid=2aac2c18-223c-45f0-aa24-53d3c4798243"},"vehicle_type_id":"4","last_reported":1726966179,"current_range_meters":13600,"station_id":"ce4bhl92rcd13ifvqghg","pricing_plan_id":"cebpf4jnsgd1na2vs0mg"},{"bike_id":"0e80655c-5b3d-43d7-a3a0-9c317c246d02","system_id":"levelo_inurba_marseille","lat":43.2512,"lon":5.40326,"is_reserved":false,"is_disabled":false,"rental_uris":{"android":"levelo://app?vid=0e80655c-5b3d-43d7-a3a0-9c317c246d02","ios":"levelo://app?vid=0e80655c-5b3d-43d7-a3a0-9c317c246d02"},"vehicle_type_id":"4","last_reported":1726966179,"current_range_meters":12400,"station_id":"ce4bhlh2rcd13ifvqgig","pricing_plan_id":"cebpf4jnsgd1na2vs0mg"},{"bike_id":"57f3237a-0f7f-40f1-bebd-952dc77fa60b","system_id":"levelo_inurba_marseille","lat":43.30919,"lon":5.40146,"is_reserved":false,"is_disabled":false,"rental_uris":{"android":"levelo://app?vid=57f3237a-0f7f-40f1-bebd-952dc77fa60b","ios":"levelo://app?vid=57f3237a-0f7f-40f1-bebd-952dc77fa60b"},"vehicle_type_id":"4","last_reported":1726966179,"current_range_meters":16400,"station_id":"ce4bgvp2rcd13ifvqct0","pricing_plan_id":"cebpf4jnsgd1na2vs0mg"},{"bike_id":"e4692556-7810-4950-acfd-a3c2fe535854","system_id":"levelo_inurba_marseille","lat":43.30891,"lon":5.37194,"is_reserved":false,"is_disabled":false,"rental_uris":{"android":"levelo://app?vid=e4692556-7810-4950-acfd-a3c2fe535854","ios":"levelo://app?vid=e4692556-7810-4950-acfd-a3c2fe535854"},"vehicle_type_id":"4","last_reported":1726966179,"current_range_meters":4400,"station_id":"ce4bguh2rcd13ifvqckg","pricing_plan_id":"cebpf4jnsgd1na2vs0mg"},{"bike_id":"38c4787b-3262-4750-bd86-0d940a72a75e","system_id":"levelo_inurba_marseille","lat":43.28433,"lon":5.39187,"is_reserved":false,"is_disabled":false,"rental_uris":{"android":"levelo://app?vid=38c4787b-3262-4750-bd86-0d940a72a75e","ios":"levelo://app?vid=38c4787b-3262-4750-bd86-0d940a72a75e"},"vehicle_type_id":"4","last_reported":1726966179,"current_range_meters":26800,"station_id":"ce4bhoh2rcd13ifvqh5g","pricing_plan_id":"cebpf4jnsgd1na2vs0mg"},{"bike_id":"230852fc-cebe-4939-93dd-861d2430a7b1","system_id":"levelo_inurba_marseille","lat":43.29102,"lon":5.38123,"is_reserved":false,"is_disabled":false,"rental_uris":{"android":"levelo://app?vid=230852fc-cebe-4939-93dd-861d2430a7b1","ios":"levelo://app?vid=230852fc-cebe-4939-93dd-861d2430a7b1"},"vehicle_type_id":"4","last_reported":1726966179,"current_range_meters":22800,"station_id":"ce4bh512rcd13ifvqe2g","pricing_plan_id":"cebpf4jnsgd1na2vs0mg"},{"bike_id":"54b7f973-33ed-4b77-bfc3-7847058bc7a6","system_id":"levelo_inurba_marseille","lat":43.31727,"lon":5.42404,"is_reserved":false,"is_disabled":false,"rental_uris":{"android":"levelo://app?vid=54b7f973-33ed-4b77-bfc3-7847058bc7a6","ios":"levelo://app?vid=54b7f973-33ed-4b77-bfc3-7847058bc7a6"},"vehicle_type_id":"4","last_reported":1726966179,"current_range_meters":38800,"station_id":"ce4bhp92rcd13ifvqhbg","pricing_plan_id":"cebpf4jnsgd1na2vs0mg"},{"bike_id":"324838dc-eded-4141-be86-0d69b3166d8a","system_id":"levelo_inurba_marseille","lat":43.23461,"lon":5.38117,"is_reserved":false,"is_disabled":false,"rental_uris":{"android":"levelo://app?vid=324838dc-eded-4141-be86-0d69b3166d8a","ios":"levelo://app?vid=324838dc-eded-4141-be86-0d69b3166d8a"},"vehicle_type_id":"4","last_reported":1726966179,"current_range_meters":10000,"station_id":"","pricing_plan_id":"cebpf4jnsgd1na2vs0mg"},{"bike_id":"c4ef8a36-9202-4860-a21b-a9eb104f569f","system_id":"levelo_inurba_marseille","lat":43.28454,"lon":5.35885,"is_reserved":false,"is_disabled":false,"rental_uris":{"android":"levelo://app?vid=c4ef8a36-9202-4860-a21b-a9eb104f569f","ios":"levelo://app?vid=c4ef8a36-9202-4860-a21b-a9eb104f569f"},"vehicle_type_id":"4","last_reported":1726966179,"current_range_meters":32400,"station_id":"ce4bhah2rcd13ifvqei0","pricing_plan_id":"cebpf4jnsgd1na2vs0mg"},{"bike_id":"a4d654dd-e73e-4908-8f27-3c50f49b8d76","system_id":"levelo_inurba_marseille","lat":43.27835,"lon":5.3921,"is_reserved":false,"is_disabled":false,"rental_uris":{"android":"levelo://app?vid=a4d654dd-e73e-4908-8f27-3c50f49b8d76","ios":"levelo://app?vid=a4d654dd-e73e-4908-8f27-3c50f49b8d76"},"vehicle_type_id":"4","last_reported":1726966179,"current_range_meters":39200,"station_id":"ce4bhjp2rcd13ifvqga0","pricing_plan_id":"cebpf4jnsgd1na2vs0mg"},{"bike_id":"4ea8b4f4-c76c-442f-b7c8-05eff8f0c4da","system_id":"levelo_inurba_marseille","lat":43.26938,"lon":5.4025,"is_reserved":false,"is_disabled":false,"rental_uris":{"android":"levelo://app?vid=4ea8b4f4-c76c-442f-b7c8-05eff8f0c4da","ios":"levelo://app?vid=4ea8b4f4-c76c-442f-b7c8-05eff8f0c4da"},"vehicle_type_id":"4","last_reported":1726966179,"current_range_meters":38800,"station_id":"cjm6bp8fraef2m0cb0m0","pricing_plan_id":"cebpf4jnsgd1na2vs0mg"},{"bike_id":"5419b1bf-d37c-4076-a34c-52ede101758e","system_id":"levelo_inurba_marseille","lat":43.337444,"lon":5.374475,"is_reserved":false,"is_disabled":false,"rental_uris":{"android":"levelo://app?vid=5419b1bf-d37c-4076-a34c-52ede101758e","ios":"levelo://app?vid=5419b1bf-d37c-4076-a34c-52ede101758e"},"vehicle_type_id":"4","last_reported":1726966179,"current_range_meters":30400,"station_id":"","pricing_plan_id":"cebpf4jnsgd1na2vs0mg"},{"bike_id":"013a1a54-8c71-4d7d-ad66-178705a1f09a","system_id":"levelo_inurba_marseille","lat":43.2587,"lon":5.39898,"is_reserved":false,"is_disabled":false,"rental_uris":{"android":"levelo://app?vid=013a1a54-8c71-4d7d-ad66-178705a1f09a","ios":"levelo://app?vid=013a1a54-8c71-4d7d-ad66-178705a1f09a"},"vehicle_type_id":"4","last_reported":1726966179,"current_range_meters":39200,"station_id":"ce4bhl92rcd13ifvqghg","pricing_plan_id":"cebpf4jnsgd1na2vs0mg"},{"bike_id":"3d11801b-4666-46ed-99aa-aabfb05b911e","system_id":"levelo_inurba_marseille","lat":43.31988,"lon":5.3815,"is_reserved":false,"is_disabled":false,"rental_uris":{"android":"levelo://app?vid=3d11801b-4666-46ed-99aa-aabfb05b911e","ios":"levelo://app?vid=3d11801b-4666-46ed-99aa-aabfb05b911e"},"vehicle_type_id":"4","last_reported":1726966179,"current_range_meters":39200,"station_id":"ce4bhr12rcd13ifvqhpg","pricing_plan_id":"cebpf4jnsgd1na2vs0mg"},{"bike_id":"2673b1af-9135-43a4-8271-b37cf775e47e","system_id":"levelo_inurba_marseille","lat":43.33603,"lon":5.41038,"is_reserved":false,"is_disabled":false,"rental_uris":{"android":"levelo://app?vid=2673b1af-9135-43a4-8271-b37cf775e47e","ios":"levelo://app?vid=2673b1af-9135-43a4-8271-b37cf775e47e"},"vehicle_type_id":"4","last_reported":1726966179,"current_range_meters":20800,"station_id":"ce4bhqh2rcd13ifvqhmg","pricing_plan_id":"cebpf4jnsgd1na2vs0mg"},{"bike_id":"1b037c9a-bb02-41f7-81f7-2761fe7dd92b","system_id":"levelo_inurba_marseille","lat":43.289368,"lon":5.387166,"is_reserved":false,"is_disabled":false,"rental_uris":{"android":"levelo://app?vid=1b037c9a-bb02-41f7-81f7-2761fe7dd92b","ios":"levelo://app?vid=1b037c9a-bb02-41f7-81f7-2761fe7dd92b"},"vehicle_type_id":"4","last_reported":1726966179,"current_range_meters":38000,"station_id":"ce4bh4p2rcd13ifvqe0g","pricing_plan_id":"cebpf4jnsgd1na2vs0mg"},{"bike_id":"470259e3-b1c4-4a86-b9be-ae3f1006b367","system_id":"levelo_inurba_marseille","lat":43.3133,"lon":5.39703,"is_reserved":false,"is_disabled":false,"rental_uris":{"android":"levelo://app?vid=470259e3-b1c4-4a86-b9be-ae3f1006b367","ios":"levelo://app?vid=470259e3-b1c4-4a86-b9be-ae3f1006b367"},"vehicle_type_id":"4","last_reported":1726966179,"current_range_meters":38400,"station_id":"ce4bgvp2rcd13ifvqcu0","pricing_plan_id":"cebpf4jnsgd1na2vs0mg"},{"bike_id":"7a97448d-a1c5-4037-bd70-f11ac7831014","system_id":"levelo_inurba_marseille","lat":43.28705,"lon":5.39993,"is_reserved":false,"is_disabled":false,"rental_uris":{"android":"levelo://app?vid=7a97448d-a1c5-4037-bd70-f11ac7831014","ios":"levelo://app?vid=7a97448d-a1c5-4037-bd70-f11ac7831014"},"vehicle_type_id":"4","last_reported":1726966179,"current_range_meters":38800,"station_id":"ce4bho92rcd13ifvqh3g","pricing_plan_id":"cebpf4jnsgd1na2vs0mg"},{"bike_id":"d3cf01aa-0df2-4629-ab05-3889201ab5de","system_id":"levelo_inurba_marseille","lat":43.25722,"lon":5.41112,"is_reserved":false,"is_disabled":false,"rental_uris":{"android":"levelo://app?vid=d3cf01aa-0df2-4629-ab05-3889201ab5de","ios":"levelo://app?vid=d3cf01aa-0df2-4629-ab05-3889201ab5de"},"vehicle_type_id":"4","last_reported":1726966179,"current_range_meters":24800,"station_id":"ce4bhkp2rcd13ifvqgd0","pricing_plan_id":"cebpf4jnsgd1na2vs0mg"},{"bike_id":"5f970973-f4f4-4937-9fbe-7af0359838f0","system_id":"levelo_inurba_marseille","lat":43.32342,"lon":5.40622,"is_reserved":false,"is_disabled":false,"rental_uris":{"android":"levelo://app?vid=5f970973-f4f4-4937-9fbe-7af0359838f0","ios":"levelo://app?vid=5f970973-f4f4-4937-9fbe-7af0359838f0"},"vehicle_type_id":"4","last_reported":1726966179,"current_range_meters":28800,"station_id":"ce4bhq92rcd13ifvqhjg","pricing_plan_id":"cebpf4jnsgd1na2vs0mg"},{"bike_id":"f59f9f07-2020-454d-8f62-ca65292624a4","system_id":"levelo_inurba_marseille","lat":43.31326,"lon":5.39707,"is_reserved":false,"is_disabled":false,"rental_uris":{"android":"levelo://app?vid=f59f9f07-2020-454d-8f62-ca65292624a4","ios":"levelo://app?vid=f59f9f07-2020-454d-8f62-ca65292624a4"},"vehicle_type_id":"4","last_reported":1726966179,"current_range_meters":38400,"station_id":"ce4bgvp2rcd13ifvqcu0","pricing_plan_id":"cebpf4jnsgd1na2vs0mg"},{"bike_id":"4a9091f0-d040-4566-98c6-4467a353e86e","system_id":"levelo_inurba_marseille","lat":43.25866,"lon":5.39896,"is_reserved":false,"is_disabled":false,"rental_uris":{"android":"levelo://app?vid=4a9091f0-d040-4566-98c6-4467a353e86e","ios":"levelo://app?vid=4a9091f0-d040-4566-98c6-4467a353e86e"},"vehicle_type_id":"4","last_reported":1726966179,"current_range_meters":6400,"station_id":"ce4bhl92rcd13ifvqghg","pricing_plan_id":"cebpf4jnsgd1na2vs0mg"},{"bike_id":"4d6f1b65-a95d-4510-bfbf-2bbf8ac25c86","system_id":"levelo_inurba_marseille","lat":43.3153,"lon":5.3803,"is_reserved":false,"is_disabled":false,"rental_uris":{"android":"levelo://app?vid=4d6f1b65-a95d-4510-bfbf-2bbf8ac25c86","ios":"levelo://app?vid=4d6f1b65-a95d-4510-bfbf-2bbf8ac25c86"},"vehicle_type_id":"4","last_reported":1726966179,"current_range_meters":33600,"station_id":"ce4bhsp2rcd13ifvqi50","pricing_plan_id":"cebpf4jnsgd1na2vs0mg"},{"bike_id":"57450f2b-7c00-410a-9654-ed415695a8e4","system_id":"levelo_inurba_marseille","lat":43.27829,"lon":5.39208,"is_reserved":false,"is_disabled":false,"rental_uris":{"android":"levelo://app?vid=57450f2b-7c00-410a-9654-ed415695a8e4","ios":"levelo://app?vid=57450f2b-7c00-410a-9654-ed415695a8e4"},"vehicle_type_id":"4","last_reported":1726966179,"current_range_meters":16400,"station_id":"ce4bhjp2rcd13ifvqga0","pricing_plan_id":"cebpf4jnsgd1na2vs0mg"},{"bike_id":"e9519760-4bc9-4ccc-8913-faa65ced2e8f","system_id":"levelo_inurba_marseille","lat":43.28704,"lon":5.39985,"is_reserved":false,"is_disabled":false,"rental_uris":{"android":"levelo://app?vid=e9519760-4bc9-4ccc-8913-faa65ced2e8f","ios":"levelo://app?vid=e9519760-4bc9-4ccc-8913-faa65ced2e8f"},"vehicle_type_id":"4","last_reported":1726966179,"current_range_meters":38800,"station_id":"ce4bho92rcd13ifvqh3g","pricing_plan_id":"cebpf4jnsgd1na2vs0mg"},{"bike_id":"f196cae4-4da8-4191-8e3a-3f8fcdaa11a6","system_id":"levelo_inurba_marseille","lat":43.31075,"lon":5.38361,"is_reserved":false,"is_disabled":false,"rental_uris":{"android":"levelo://app?vid=f196cae4-4da8-4191-8e3a-3f8fcdaa11a6","ios":"levelo://app?vid=f196cae4-4da8-4191-8e3a-3f8fcdaa11a6"},"vehicle_type_id":"4","last_reported":1726966179,"current_range_meters":36400,"station_id":"ce4bgv92rcd13ifvqcr0","pricing_plan_id":"cebpf4jnsgd1na2vs0mg"},{"bike_id":"d45967ed-8556-4fdd-b155-3dd503464baa","system_id":"levelo_inurba_marseille","lat":43.2956,"lon":5.42283,"is_reserved":false,"is_disabled":false,"rental_uris":{"android":"levelo://app?vid=d45967ed-8556-4fdd-b155-3dd503464baa","ios":"levelo://app?vid=d45967ed-8556-4fdd-b155-3dd503464baa"},"vehicle_type_id":"4","last_reported":1726966179,"current_range_meters":19600,"station_id":"ce4bhph2rcd13ifvqhdg","pricing_plan_id":"cebpf4jnsgd1na2vs0mg"},{"bike_id":"149779fc-bc45-458a-857f-33707eedaf6a","system_id":"levelo_inurba_marseille","lat":43.23196,"lon":5.35558,"is_reserved":false,"is_disabled":false,"rental_uris":{"android":"levelo://app?vid=149779fc-bc45-458a-857f-33707eedaf6a","ios":"levelo://app?vid=149779fc-bc45-458a-857f-33707eedaf6a"},"vehicle_type_id":"4","last_reported":1726966179,"current_range_meters":18000,"station_id":"ce4bhu92rcd13ifvqi70","pricing_plan_id":"cebpf4jnsgd1na2vs0mg"},{"bike_id":"adea4142-201e-4d62-8b5f-c33b95d4ba3b","system_id":"levelo_inurba_marseille","lat":43.29443,"lon":5.3975,"is_reserved":false,"is_disabled":false,"rental_uris":{"android":"levelo://app?vid=adea4142-201e-4d62-8b5f-c33b95d4ba3b","ios":"levelo://app?vid=adea4142-201e-4d62-8b5f-c33b95d4ba3b"},"vehicle_type_id":"4","last_reported":1726966179,"current_range_meters":39200,"station_id":"ce4bh3h2rcd13ifvqdo0","pricing_plan_id":"cebpf4jnsgd1na2vs0mg"},{"bike_id":"cbed4723-8d01-44bc-9575-7e32d59f63ec","system_id":"levelo_inurba_marseille","lat":43.28077,"lon":5.39664,"is_reserved":false,"is_disabled":false,"rental_uris":{"android":"levelo://app?vid=cbed4723-8d01-44bc-9575-7e32d59f63ec","ios":"levelo://app?vid=cbed4723-8d01-44bc-9575-7e32d59f63ec"},"vehicle_type_id":"4","last_reported":1726966179,"current_range_meters":37600,"station_id":"ce4bho12rcd13ifvqh2g","pricing_plan_id":"cebpf4jnsgd1na2vs0mg"},{"bike_id":"6937374d-4b18-4b2b-aca0-836151556e44","system_id":"levelo_inurba_marseille","lat":43.24078,"lon":5.37758,"is_reserved":false,"is_disabled":false,"rental_uris":{"android":"levelo://app?vid=6937374d-4b18-4b2b-aca0-836151556e44","ios":"levelo://app?vid=6937374d-4b18-4b2b-aca0-836151556e44"},"vehicle_type_id":"4","last_reported":1726966179,"current_range_meters":33200,"station_id":"ce4bhnp2rcd13ifvqgvg","pricing_plan_id":"cebpf4jnsgd1na2vs0mg"},{"bike_id":"9c953aea-1601-4259-a38b-3d5e06643e05","system_id":"levelo_inurba_marseille","lat":43.27621,"lon":5.36109,"is_reserved":false,"is_disabled":false,"rental_uris":{"android":"levelo://app?vid=9c953aea-1601-4259-a38b-3d5e06643e05","ios":"levelo://app?vid=9c953aea-1601-4259-a38b-3d5e06643e05"},"vehicle_type_id":"4","last_reported":1726966179,"current_range_meters":39200,"station_id":"ce4bgj92rcd13ifvqbe0","pricing_plan_id":"cebpf4jnsgd1na2vs0mg"},{"bike_id":"039d98d7-7c59-426e-931f-998890f6dd69","system_id":"levelo_inurba_marseille","lat":43.23158,"lon":5.43704,"is_reserved":false,"is_disabled":false,"rental_uris":{"android":"levelo://app?vid=039d98d7-7c59-426e-931f-998890f6dd69","ios":"levelo://app?vid=039d98d7-7c59-426e-931f-998890f6dd69"},"vehicle_type_id":"4","last_reported":1726966179,"current_range_meters":21600,"station_id":"ce4bhmp2rcd13ifvqgog","pricing_plan_id":"cebpf4jnsgd1na2vs0mg"},{"bike_id":"57bef4f8-234e-4be2-9b4a-0478662d7c1f","system_id":"levelo_inurba_marseille","lat":43.28155,"lon":5.42644,"is_reserved":false,"is_disabled":false,"rental_uris":{"android":"levelo://app?vid=57bef4f8-234e-4be2-9b4a-0478662d7c1f","ios":"levelo://app?vid=57bef4f8-234e-4be2-9b4a-0478662d7c1f"},"vehicle_type_id":"4","last_reported":1726966179,"current_range_meters":9200,"station_id":"ce4bhnh2rcd13ifvqgug","pricing_plan_id":"cebpf4jnsgd1na2vs0mg"},{"bike_id":"d1a7c670-84be-4413-83a8-34963ddc1e32","system_id":"levelo_inurba_marseille","lat":43.29959,"lon":5.41318,"is_reserved":false,"is_disabled":false,"rental_uris":{"android":"levelo://app?vid=d1a7c670-84be-4413-83a8-34963ddc1e32","ios":"levelo://app?vid=d1a7c670-84be-4413-83a8-34963ddc1e32"},"vehicle_type_id":"4","last_reported":1726966179,"current_range_meters":38000,"station_id":"ce4bhp12rcd13ifvqh9g","pricing_plan_id":"cebpf4jnsgd1na2vs0mg"},{"bike_id":"3029a821-4f09-426b-9136-c97c9c0dcd3a","system_id":"levelo_inurba_marseille","lat":43.26492,"lon":5.39544,"is_reserved":false,"is_disabled":false,"rental_uris":{"android":"levelo://app?vid=3029a821-4f09-426b-9136-c97c9c0dcd3a","ios":"levelo://app?vid=3029a821-4f09-426b-9136-c97c9c0dcd3a"},"vehicle_type_id":"4","last_reported":1726966179,"current_range_meters":38800,"station_id":"ce4bhi12rcd13ifvqfq0","pricing_plan_id":"cebpf4jnsgd1na2vs0mg"},{"bike_id":"61437227-be5e-4999-bb29-38fdb6c6fcc9","system_id":"levelo_inurba_marseille","lat":43.3046,"lon":5.37904,"is_reserved":false,"is_disabled":false,"rental_uris":{"android":"levelo://app?vid=61437227-be5e-4999-bb29-38fdb6c6fcc9","ios":"levelo://app?vid=61437227-be5e-4999-bb29-38fdb6c6fcc9"},"vehicle_type_id":"4","last_reported":1726966179,"current_range_meters":22000,"station_id":"ce4bgup2rcd13ifvqcn0","pricing_plan_id":"cebpf4jnsgd1na2vs0mg"},{"bike_id":"604c9531-be4f-4974-bfe2-bd7828d7386f","system_id":"levelo_inurba_marseille","lat":43.29898,"lon":5.43666,"is_reserved":false,"is_disabled":false,"rental_uris":{"android":"levelo://app?vid=604c9531-be4f-4974-bfe2-bd7828d7386f","ios":"levelo://app?vid=604c9531-be4f-4974-bfe2-bd7828d7386f"},"vehicle_type_id":"4","last_reported":1726966179,"current_range_meters":20800,"station_id":"ce4bhpp2rcd13ifvqhfg","pricing_plan_id":"cebpf4jnsgd1na2vs0mg"},{"bike_id":"a3c0c4e3-5618-48e0-831e-a9f3a5934f24","system_id":"levelo_inurba_marseille","lat":43.29522,"lon":5.39051,"is_reserved":false,"is_disabled":false,"rental_uris":{"android":"levelo://app?vid=a3c0c4e3-5618-48e0-831e-a9f3a5934f24","ios":"levelo://app?vid=a3c0c4e3-5618-48e0-831e-a9f3a5934f24"},"vehicle_type_id":"4","last_reported":1726966179,"current_range_meters":28800,"station_id":"ce4bh3p2rcd13ifvqdp0","pricing_plan_id":"cebpf4jnsgd1na2vs0mg"},{"bike_id":"c796bce3-d540-4b8c-82cb-404bc2b4efbc","system_id":"levelo_inurba_marseille","lat":43.30418,"lon":5.41268,"is_reserved":false,"is_disabled":false,"rental_uris":{"android":"levelo://app?vid=c796bce3-d540-4b8c-82cb-404bc2b4efbc","ios":"levelo://app?vid=c796bce3-d540-4b8c-82cb-404bc2b4efbc"},"vehicle_type_id":"4","last_reported":1726966179,"current_range_meters":33600,"station_id":"ce4bhop2rcd13ifvqh8g","pricing_plan_id":"cebpf4jnsgd1na2vs0mg"},{"bike_id":"dffd4f54-b346-4788-86ea-8f518e84719a","system_id":"levelo_inurba_marseille","lat":43.31898,"lon":5.40727,"is_reserved":false,"is_disabled":false,"rental_uris":{"android":"levelo://app?vid=dffd4f54-b346-4788-86ea-8f518e84719a","ios":"levelo://app?vid=dffd4f54-b346-4788-86ea-8f518e84719a"},"vehicle_type_id":"4","last_reported":1726966179,"current_range_meters":23200,"station_id":"ce4bhq12rcd13ifvqhig","pricing_plan_id":"cebpf4jnsgd1na2vs0mg"},{"bike_id":"90d8a09e-2181-4187-81ec-24698bc4e496","system_id":"levelo_inurba_marseille","lat":43.28709,"lon":5.39986,"is_reserved":false,"is_disabled":false,"rental_uris":{"android":"levelo://app?vid=90d8a09e-2181-4187-81ec-24698bc4e496","ios":"levelo://app?vid=90d8a09e-2181-4187-81ec-24698bc4e496"},"vehicle_type_id":"4","last_reported":1726966179,"current_range_meters":30000,"station_id":"ce4bho92rcd13ifvqh3g","pricing_plan_id":"cebpf4jnsgd1na2vs0mg"},{"bike_id":"7c45df27-7ef6-468e-b331-208ce3ceb575","system_id":"levelo_inurba_marseille","lat":43.28707,"lon":5.3739,"is_reserved":false,"is_disabled":false,"rental_uris":{"android":"levelo://app?vid=7c45df27-7ef6-468e-b331-208ce3ceb575","ios":"levelo://app?vid=7c45df27-7ef6-468e-b331-208ce3ceb575"},"vehicle_type_id":"4","last_reported":1726966179,"current_range_meters":27600,"station_id":"ce4bh3p2rcd13ifvqdq0","pricing_plan_id":"cebpf4jnsgd1na2vs0mg"},{"bike_id":"8622b8e9-f30d-494d-bd44-2a2803bbf6e8","system_id":"levelo_inurba_marseille","lat":43.30212,"lon":5.39465,"is_reserved":false,"is_disabled":false,"rental_uris":{"android":"levelo://app?vid=8622b8e9-f30d-494d-bd44-2a2803bbf6e8","ios":"levelo://app?vid=8622b8e9-f30d-494d-bd44-2a2803bbf6e8"},"vehicle_type_id":"4","last_reported":1726966179,"current_range_meters":9600,"station_id":"ce4bh0p2rcd13ifvqd70","pricing_plan_id":"cebpf4jnsgd1na2vs0mg"},{"bike_id":"97f3b290-84c6-4932-8cf2-83c9b90d4817","system_id":"levelo_inurba_marseille","lat":43.25002,"lon":5.3894,"is_reserved":false,"is_disabled":false,"rental_uris":{"android":"levelo://app?vid=97f3b290-84c6-4932-8cf2-83c9b90d4817","ios":"levelo://app?vid=97f3b290-84c6-4932-8cf2-83c9b90d4817"},"vehicle_type_id":"4","last_reported":1726966179,"current_range_meters":3600,"station_id":"ce4bhgp2rcd13ifvqfd0","pricing_plan_id":"cebpf4jnsgd1na2vs0mg"},{"bike_id":"7607acaf-c512-45dd-aa55-1750dc497a4c","system_id":"levelo_inurba_marseille","lat":43.27072,"lon":5.42279,"is_reserved":false,"is_disabled":false,"rental_uris":{"android":"levelo://app?vid=7607acaf-c512-45dd-aa55-1750dc497a4c","ios":"levelo://app?vid=7607acaf-c512-45dd-aa55-1750dc497a4c"},"vehicle_type_id":"4","last_reported":1726966179,"current_range_meters":16400,"station_id":"ce4bhk92rcd13ifvqgb0","pricing_plan_id":"cebpf4jnsgd1na2vs0mg"},{"bike_id":"d4cd02a2-8196-45a0-ade7-083f2b1cddee","system_id":"levelo_inurba_marseille","lat":43.24182,"lon":5.39718,"is_reserved":false,"is_disabled":false,"rental_uris":{"android":"levelo://app?vid=d4cd02a2-8196-45a0-ade7-083f2b1cddee","ios":"levelo://app?vid=d4cd02a2-8196-45a0-ade7-083f2b1cddee"},"vehicle_type_id":"4","last_reported":1726966179,"current_range_meters":30800,"station_id":"ce4bhn12rcd13ifvqgpg","pricing_plan_id":"cebpf4jnsgd1na2vs0mg"},{"bike_id":"a8d42cf3-65fd-4e73-93d7-47142c435399","system_id":"levelo_inurba_marseille","lat":43.34386,"lon":5.4084,"is_reserved":false,"is_disabled":false,"rental_uris":{"android":"levelo://app?vid=a8d42cf3-65fd-4e73-93d7-47142c435399","ios":"levelo://app?vid=a8d42cf3-65fd-4e73-93d7-47142c435399"},"vehicle_type_id":"4","last_reported":1726966179,"current_range_meters":24400,"station_id":"","pricing_plan_id":"cebpf4jnsgd1na2vs0mg"},{"bike_id":"affeab95-004c-4559-a39d-9d9c7e294ed6","system_id":"levelo_inurba_marseille","lat":43.24178,"lon":5.39731,"is_reserved":false,"is_disabled":false,"rental_uris":{"android":"levelo://app?vid=affeab95-004c-4559-a39d-9d9c7e294ed6","ios":"levelo://app?vid=affeab95-004c-4559-a39d-9d9c7e294ed6"},"vehicle_type_id":"4","last_reported":1726966179,"current_range_meters":8000,"station_id":"ce4bhn12rcd13ifvqgpg","pricing_plan_id":"cebpf4jnsgd1na2vs0mg"},{"bike_id":"2747e2c1-9ef7-4c7f-b359-70679c357edc","system_id":"levelo_inurba_marseille","lat":43.33024,"lon":5.39044,"is_reserved":false,"is_disabled":false,"rental_uris":{"android":"levelo://app?vid=2747e2c1-9ef7-4c7f-b359-70679c357edc","ios":"levelo://app?vid=2747e2c1-9ef7-4c7f-b359-70679c357edc"},"vehicle_type_id":"4","last_reported":1726966179,"current_range_meters":32800,"station_id":"ce4bhr92rcd13ifvqhrg","pricing_plan_id":"cebpf4jnsgd1na2vs0mg"},{"bike_id":"ca6cfcad-1e5e-46e0-bcbd-4d4375771e42","system_id":"levelo_inurba_marseille","lat":43.2945,"lon":5.3975,"is_reserved":false,"is_disabled":false,"rental_uris":{"android":"levelo://app?vid=ca6cfcad-1e5e-46e0-bcbd-4d4375771e42","ios":"levelo://app?vid=ca6cfcad-1e5e-46e0-bcbd-4d4375771e42"},"vehicle_type_id":"4","last_reported":1726966179,"current_range_meters":30400,"station_id":"ce4bh3h2rcd13ifvqdo0","pricing_plan_id":"cebpf4jnsgd1na2vs0mg"},{"bike_id":"221210ad-c544-48ba-a377-690ee81a77ca","system_id":"levelo_inurba_marseille","lat":43.2872,"lon":5.37931,"is_reserved":false,"is_disabled":false,"rental_uris":{"android":"levelo://app?vid=221210ad-c544-48ba-a377-690ee81a77ca","ios":"levelo://app?vid=221210ad-c544-48ba-a377-690ee81a77ca"},"vehicle_type_id":"4","last_reported":1726966179,"current_range_meters":20400,"station_id":"ce4bh9p2rcd13ifvqec0","pricing_plan_id":"cebpf4jnsgd1na2vs0mg"},{"bike_id":"eb0e566e-7d71-4cc0-bc76-de33a9fd73a8","system_id":"levelo_inurba_marseille","lat":43.23198,"lon":5.35548,"is_reserved":false,"is_disabled":false,"rental_uris":{"android":"levelo://app?vid=eb0e566e-7d71-4cc0-bc76-de33a9fd73a8","ios":"levelo://app?vid=eb0e566e-7d71-4cc0-bc76-de33a9fd73a8"},"vehicle_type_id":"4","last_reported":1726966179,"current_range_meters":38400,"station_id":"ce4bhu92rcd13ifvqi70","pricing_plan_id":"cebpf4jnsgd1na2vs0mg"},{"bike_id":"6fcaa170-cc26-49aa-8c18-858697935d97","system_id":"levelo_inurba_marseille","lat":43.310784,"lon":5.383646,"is_reserved":false,"is_disabled":false,"rental_uris":{"android":"levelo://app?vid=6fcaa170-cc26-49aa-8c18-858697935d97","ios":"levelo://app?vid=6fcaa170-cc26-49aa-8c18-858697935d97"},"vehicle_type_id":"4","last_reported":1726966179,"current_range_meters":7200,"station_id":"ce4bgv92rcd13ifvqcr0","pricing_plan_id":"cebpf4jnsgd1na2vs0mg"},{"bike_id":"04999a37-2436-4404-8c16-cd85cf9b7a10","system_id":"levelo_inurba_marseille","lat":43.3302,"lon":5.39041,"is_reserved":false,"is_disabled":false,"rental_uris":{"android":"levelo://app?vid=04999a37-2436-4404-8c16-cd85cf9b7a10","ios":"levelo://app?vid=04999a37-2436-4404-8c16-cd85cf9b7a10"},"vehicle_type_id":"4","last_reported":1726966179,"current_range_meters":38800,"station_id":"ce4bhr92rcd13ifvqhrg","pricing_plan_id":"cebpf4jnsgd1na2vs0mg"},{"bike_id":"eaa735a4-d45b-480c-853f-5d49b825d42c","system_id":"levelo_inurba_marseille","lat":43.33604,"lon":5.41029,"is_reserved":false,"is_disabled":false,"rental_uris":{"android":"levelo://app?vid=eaa735a4-d45b-480c-853f-5d49b825d42c","ios":"levelo://app?vid=eaa735a4-d45b-480c-853f-5d49b825d42c"},"vehicle_type_id":"4","last_reported":1726966179,"current_range_meters":33200,"station_id":"ce4bhqh2rcd13ifvqhmg","pricing_plan_id":"cebpf4jnsgd1na2vs0mg"},{"bike_id":"c90889c6-4c61-48f2-b140-89043e514d7b","system_id":"levelo_inurba_marseille","lat":43.2594,"lon":5.409,"is_reserved":false,"is_disabled":false,"rental_uris":{"android":"levelo://app?vid=c90889c6-4c61-48f2-b140-89043e514d7b","ios":"levelo://app?vid=c90889c6-4c61-48f2-b140-89043e514d7b"},"vehicle_type_id":"4","last_reported":1726966179,"current_range_meters":4000,"station_id":"ce4bhm92rcd13ifvqglg","pricing_plan_id":"cebpf4jnsgd1na2vs0mg"},{"bike_id":"6030b138-4d5e-4345-aedc-73924c99e1f7","system_id":"levelo_inurba_marseille","lat":43.26217,"lon":5.37448,"is_reserved":false,"is_disabled":false,"rental_uris":{"android":"levelo://app?vid=6030b138-4d5e-4345-aedc-73924c99e1f7","ios":"levelo://app?vid=6030b138-4d5e-4345-aedc-73924c99e1f7"},"vehicle_type_id":"4","last_reported":1726966179,"current_range_meters":30400,"station_id":"","pricing_plan_id":"cebpf4jnsgd1na2vs0mg"},{"bike_id":"ac7aac9d-d5b2-4a0b-a4ac-3081ed6eabeb","system_id":"levelo_inurba_marseille","lat":43.2945,"lon":5.39745,"is_reserved":false,"is_disabled":false,"rental_uris":{"android":"levelo://app?vid=ac7aac9d-d5b2-4a0b-a4ac-3081ed6eabeb","ios":"levelo://app?vid=ac7aac9d-d5b2-4a0b-a4ac-3081ed6eabeb"},"vehicle_type_id":"4","last_reported":1726966179,"current_range_meters":16000,"station_id":"ce4bh3h2rcd13ifvqdo0","pricing_plan_id":"cebpf4jnsgd1na2vs0mg"},{"bike_id":"f23dc631-c722-4468-ba44-e9f53d7f19cd","system_id":"levelo_inurba_marseille","lat":43.2873,"lon":5.36089,"is_reserved":false,"is_disabled":false,"rental_uris":{"android":"levelo://app?vid=f23dc631-c722-4468-ba44-e9f53d7f19cd","ios":"levelo://app?vid=f23dc631-c722-4468-ba44-e9f53d7f19cd"},"vehicle_type_id":"4","last_reported":1726966179,"current_range_meters":3200,"station_id":"cki0cbj6b192h4jlfktg","pricing_plan_id":"cebpf4jnsgd1na2vs0mg"},{"bike_id":"5d991e98-79d5-4dc0-9a6a-d2306ad42c9d","system_id":"levelo_inurba_marseille","lat":43.29554,"lon":5.42271,"is_reserved":false,"is_disabled":false,"rental_uris":{"android":"levelo://app?vid=5d991e98-79d5-4dc0-9a6a-d2306ad42c9d","ios":"levelo://app?vid=5d991e98-79d5-4dc0-9a6a-d2306ad42c9d"},"vehicle_type_id":"4","last_reported":1726966179,"current_range_meters":39200,"station_id":"ce4bhph2rcd13ifvqhdg","pricing_plan_id":"cebpf4jnsgd1na2vs0mg"},{"bike_id":"3588ed4b-a839-4c36-8772-3fa913acb2d5","system_id":"levelo_inurba_marseille","lat":43.30331,"lon":5.40434,"is_reserved":false,"is_disabled":false,"rental_uris":{"android":"levelo://app?vid=3588ed4b-a839-4c36-8772-3fa913acb2d5","ios":"levelo://app?vid=3588ed4b-a839-4c36-8772-3fa913acb2d5"},"vehicle_type_id":"4","last_reported":1726966179,"current_range_meters":38800,"station_id":"ce4bh012rcd13ifvqd10","pricing_plan_id":"cebpf4jnsgd1na2vs0mg"},{"bike_id":"312fdd28-c992-4cbf-9199-cc5515db8f9e","system_id":"levelo_inurba_marseille","lat":43.24665,"lon":5.3816,"is_reserved":false,"is_disabled":false,"rental_uris":{"android":"levelo://app?vid=312fdd28-c992-4cbf-9199-cc5515db8f9e","ios":"levelo://app?vid=312fdd28-c992-4cbf-9199-cc5515db8f9e"},"vehicle_type_id":"4","last_reported":1726966179,"current_range_meters":38800,"station_id":"ce4bhih2rcd13ifvqfr0","pricing_plan_id":"cebpf4jnsgd1na2vs0mg"},{"bike_id":"e5a1c0e7-6dbe-4fc0-91d4-a39431861126","system_id":"levelo_inurba_marseille","lat":43.26941,"lon":5.40252,"is_reserved":false,"is_disabled":false,"rental_uris":{"android":"levelo://app?vid=e5a1c0e7-6dbe-4fc0-91d4-a39431861126","ios":"levelo://app?vid=e5a1c0e7-6dbe-4fc0-91d4-a39431861126"},"vehicle_type_id":"4","last_reported":1726966179,"current_range_meters":38800,"station_id":"cjm6bp8fraef2m0cb0m0","pricing_plan_id":"cebpf4jnsgd1na2vs0mg"},{"bike_id":"db3e6781-6aaf-49ab-a69b-f951f8ee4f70","system_id":"levelo_inurba_marseille","lat":43.31374,"lon":5.38494,"is_reserved":false,"is_disabled":false,"rental_uris":{"android":"levelo://app?vid=db3e6781-6aaf-49ab-a69b-f951f8ee4f70","ios":"levelo://app?vid=db3e6781-6aaf-49ab-a69b-f951f8ee4f70"},"vehicle_type_id":"4","last_reported":1726966179,"current_range_meters":38800,"station_id":"ce4bgt92rcd13ifvqcf0","pricing_plan_id":"cebpf4jnsgd1na2vs0mg"},{"bike_id":"7b9dd459-340b-4978-bfb0-6c163a5263e8","system_id":"levelo_inurba_marseille","lat":43.23192,"lon":5.3555,"is_reserved":false,"is_disabled":false,"rental_uris":{"android":"levelo://app?vid=7b9dd459-340b-4978-bfb0-6c163a5263e8","ios":"levelo://app?vid=7b9dd459-340b-4978-bfb0-6c163a5263e8"},"vehicle_type_id":"4","last_reported":1726966179,"current_range_meters":39200,"station_id":"ce4bhu92rcd13ifvqi70","pricing_plan_id":"cebpf4jnsgd1na2vs0mg"},{"bike_id":"19a88e35-6c14-4d92-8888-f9a3b98d2f51","system_id":"levelo_inurba_marseille","lat":43.26683,"lon":5.38271,"is_reserved":false,"is_disabled":false,"rental_uris":{"android":"levelo://app?vid=19a88e35-6c14-4d92-8888-f9a3b98d2f51","ios":"levelo://app?vid=19a88e35-6c14-4d92-8888-f9a3b98d2f51"},"vehicle_type_id":"4","last_reported":1726966179,"current_range_meters":24000,"station_id":"ce4bhg92rcd13ifvqf90","pricing_plan_id":"cebpf4jnsgd1na2vs0mg"},{"bike_id":"9eb342ac-6683-4b0e-9068-9b33551dfa85","system_id":"levelo_inurba_marseille","lat":43.27376,"lon":5.36247,"is_reserved":false,"is_disabled":false,"rental_uris":{"android":"levelo://app?vid=9eb342ac-6683-4b0e-9068-9b33551dfa85","ios":"levelo://app?vid=9eb342ac-6683-4b0e-9068-9b33551dfa85"},"vehicle_type_id":"4","last_reported":1726966179,"current_range_meters":38800,"station_id":"ce4bhbh2rcd13ifvqeo0","pricing_plan_id":"cebpf4jnsgd1na2vs0mg"},{"bike_id":"4d0b0c31-bba7-4fcb-872f-26cec37fccb3","system_id":"levelo_inurba_marseille","lat":43.27617,"lon":5.3612,"is_reserved":false,"is_disabled":false,"rental_uris":{"android":"levelo://app?vid=4d0b0c31-bba7-4fcb-872f-26cec37fccb3","ios":"levelo://app?vid=4d0b0c31-bba7-4fcb-872f-26cec37fccb3"},"vehicle_type_id":"4","last_reported":1726966179,"current_range_meters":38800,"station_id":"ce4bgj92rcd13ifvqbe0","pricing_plan_id":"cebpf4jnsgd1na2vs0mg"},{"bike_id":"82596a06-ff6c-4fb5-be3f-fd6ac5718f7c","system_id":"levelo_inurba_marseille","lat":43.31335,"lon":5.39701,"is_reserved":false,"is_disabled":false,"rental_uris":{"android":"levelo://app?vid=82596a06-ff6c-4fb5-be3f-fd6ac5718f7c","ios":"levelo://app?vid=82596a06-ff6c-4fb5-be3f-fd6ac5718f7c"},"vehicle_type_id":"4","last_reported":1726966179,"current_range_meters":22000,"station_id":"ce4bgvp2rcd13ifvqcu0","pricing_plan_id":"cebpf4jnsgd1na2vs0mg"},{"bike_id":"907731c3-ed6b-46d1-9480-e3c072fda93c","system_id":"levelo_inurba_marseille","lat":43.2846,"lon":5.35889,"is_reserved":false,"is_disabled":false,"rental_uris":{"android":"levelo://app?vid=907731c3-ed6b-46d1-9480-e3c072fda93c","ios":"levelo://app?vid=907731c3-ed6b-46d1-9480-e3c072fda93c"},"vehicle_type_id":"4","last_reported":1726966179,"current_range_meters":24400,"station_id":"ce4bhah2rcd13ifvqei0","pricing_plan_id":"cebpf4jnsgd1na2vs0mg"},{"bike_id":"695aecc5-47eb-42b6-b509-bb05dd03a93d","system_id":"levelo_inurba_marseille","lat":43.28351,"lon":5.38101,"is_reserved":false,"is_disabled":false,"rental_uris":{"android":"levelo://app?vid=695aecc5-47eb-42b6-b509-bb05dd03a93d","ios":"levelo://app?vid=695aecc5-47eb-42b6-b509-bb05dd03a93d"},"vehicle_type_id":"4","last_reported":1726966179,"current_range_meters":9600,"station_id":"ce4bh412rcd13ifvqdr0","pricing_plan_id":"cebpf4jnsgd1na2vs0mg"},{"bike_id":"36ea34aa-955a-48e2-b4cd-0defaa557440","system_id":"levelo_inurba_marseille","lat":43.29453,"lon":5.39752,"is_reserved":false,"is_disabled":false,"rental_uris":{"android":"levelo://app?vid=36ea34aa-955a-48e2-b4cd-0defaa557440","ios":"levelo://app?vid=36ea34aa-955a-48e2-b4cd-0defaa557440"},"vehicle_type_id":"4","last_reported":1726966179,"current_range_meters":39200,"station_id":"ce4bh3h2rcd13ifvqdo0","pricing_plan_id":"cebpf4jnsgd1na2vs0mg"},{"bike_id":"2baaea07-99db-4927-8bf8-202bc74c112e","system_id":"levelo_inurba_marseille","lat":43.2951,"lon":5.39402,"is_reserved":false,"is_disabled":false,"rental_uris":{"android":"levelo://app?vid=2baaea07-99db-4927-8bf8-202bc74c112e","ios":"levelo://app?vid=2baaea07-99db-4927-8bf8-202bc74c112e"},"vehicle_type_id":"4","last_reported":1726966179,"current_range_meters":38800,"station_id":"ce4bh292rcd13ifvqdf0","pricing_plan_id":"cebpf4jnsgd1na2vs0mg"},{"bike_id":"046b36e1-b125-4ab6-b889-27cab86a2993","system_id":"levelo_inurba_marseille","lat":43.231508,"lon":5.437077,"is_reserved":false,"is_disabled":false,"rental_uris":{"android":"levelo://app?vid=046b36e1-b125-4ab6-b889-27cab86a2993","ios":"levelo://app?vid=046b36e1-b125-4ab6-b889-27cab86a2993"},"vehicle_type_id":"4","last_reported":1726966179,"current_range_meters":8400,"station_id":"ce4bhmp2rcd13ifvqgog","pricing_plan_id":"cebpf4jnsgd1na2vs0mg"},{"bike_id":"71aa8592-ddf7-4343-aed4-c00d3433340f","system_id":"levelo_inurba_marseille","lat":43.337444,"lon":5.374475,"is_reserved":false,"is_disabled":false,"rental_uris":{"android":"levelo://app?vid=71aa8592-ddf7-4343-aed4-c00d3433340f","ios":"levelo://app?vid=71aa8592-ddf7-4343-aed4-c00d3433340f"},"vehicle_type_id":"4","last_reported":1726966179,"current_range_meters":33600,"station_id":"","pricing_plan_id":"cebpf4jnsgd1na2vs0mg"},{"bike_id":"3740c6df-06cd-419b-9ae6-b8d9e5eff548","system_id":"levelo_inurba_marseille","lat":43.2753,"lon":5.40935,"is_reserved":false,"is_disabled":false,"rental_uris":{"android":"levelo://app?vid=3740c6df-06cd-419b-9ae6-b8d9e5eff548","ios":"levelo://app?vid=3740c6df-06cd-419b-9ae6-b8d9e5eff548"},"vehicle_type_id":"4","last_reported":1726966179,"current_range_meters":15200,"station_id":"","pricing_plan_id":"cebpf4jnsgd1na2vs0mg"},{"bike_id":"c416d47b-78f0-43eb-bd10-52cd2f01cf9a","system_id":"levelo_inurba_marseille","lat":43.31073,"lon":5.38353,"is_reserved":false,"is_disabled":false,"rental_uris":{"android":"levelo://app?vid=c416d47b-78f0-43eb-bd10-52cd2f01cf9a","ios":"levelo://app?vid=c416d47b-78f0-43eb-bd10-52cd2f01cf9a"},"vehicle_type_id":"4","last_reported":1726966179,"current_range_meters":11200,"station_id":"ce4bgv92rcd13ifvqcr0","pricing_plan_id":"cebpf4jnsgd1na2vs0mg"},{"bike_id":"08a7ae7b-039c-487a-9836-c9f19532192b","system_id":"levelo_inurba_marseille","lat":43.32543,"lon":5.41426,"is_reserved":false,"is_disabled":false,"rental_uris":{"android":"levelo://app?vid=08a7ae7b-039c-487a-9836-c9f19532192b","ios":"levelo://app?vid=08a7ae7b-039c-487a-9836-c9f19532192b"},"vehicle_type_id":"4","last_reported":1726966179,"current_range_meters":6800,"station_id":"ce4bhq12rcd13ifvqhhg","pricing_plan_id":"cebpf4jnsgd1na2vs0mg"},{"bike_id":"33ef26f8-933d-4a23-a2fb-f3a05d501574","system_id":"levelo_inurba_marseille","lat":43.25084,"lon":5.39521,"is_reserved":false,"is_disabled":false,"rental_uris":{"android":"levelo://app?vid=33ef26f8-933d-4a23-a2fb-f3a05d501574","ios":"levelo://app?vid=33ef26f8-933d-4a23-a2fb-f3a05d501574"},"vehicle_type_id":"4","last_reported":1726966179,"current_range_meters":39200,"station_id":"ce4bhm12rcd13ifvqgkg","pricing_plan_id":"cebpf4jnsgd1na2vs0mg"},{"bike_id":"de474168-7d22-423b-8aa5-2f9882a9c626","system_id":"levelo_inurba_marseille","lat":43.30774,"lon":5.37656,"is_reserved":false,"is_disabled":false,"rental_uris":{"android":"levelo://app?vid=de474168-7d22-423b-8aa5-2f9882a9c626","ios":"levelo://app?vid=de474168-7d22-423b-8aa5-2f9882a9c626"},"vehicle_type_id":"4","last_reported":1726966179,"current_range_meters":38800,"station_id":"ce4bgv92rcd13ifvqcq0","pricing_plan_id":"cebpf4jnsgd1na2vs0mg"},{"bike_id":"6528d01c-70a5-4269-b23f-e4d323ce6286","system_id":"levelo_inurba_marseille","lat":43.29632,"lon":5.37151,"is_reserved":false,"is_disabled":false,"rental_uris":{"android":"levelo://app?vid=6528d01c-70a5-4269-b23f-e4d323ce6286","ios":"levelo://app?vid=6528d01c-70a5-4269-b23f-e4d323ce6286"},"vehicle_type_id":"4","last_reported":1726966179,"current_range_meters":25600,"station_id":"ce4bgnh2rcd13ifvqc0g","pricing_plan_id":"cebpf4jnsgd1na2vs0mg"},{"bike_id":"28899bbf-43c6-44fe-bc87-11c1926b2ab8","system_id":"levelo_inurba_marseille","lat":43.2621,"lon":5.37923,"is_reserved":false,"is_disabled":false,"rental_uris":{"android":"levelo://app?vid=28899bbf-43c6-44fe-bc87-11c1926b2ab8","ios":"levelo://app?vid=28899bbf-43c6-44fe-bc87-11c1926b2ab8"},"vehicle_type_id":"4","last_reported":1726966179,"current_range_meters":38800,"station_id":"ce4bhjp2rcd13ifvqg90","pricing_plan_id":"cebpf4jnsgd1na2vs0mg"},{"bike_id":"461fe284-eae3-49fe-a8c9-7ed58c2e4f86","system_id":"levelo_inurba_marseille","lat":43.28108,"lon":5.37834,"is_reserved":false,"is_disabled":false,"rental_uris":{"android":"levelo://app?vid=461fe284-eae3-49fe-a8c9-7ed58c2e4f86","ios":"levelo://app?vid=461fe284-eae3-49fe-a8c9-7ed58c2e4f86"},"vehicle_type_id":"4","last_reported":1726966179,"current_range_meters":38800,"station_id":"ce4bha12rcd13ifvqee0","pricing_plan_id":"cebpf4jnsgd1na2vs0mg"},{"bike_id":"3f280a1c-3196-4458-abed-fc251a861000","system_id":"levelo_inurba_marseille","lat":43.29908,"lon":5.38145,"is_reserved":false,"is_disabled":false,"rental_uris":{"android":"levelo://app?vid=3f280a1c-3196-4458-abed-fc251a861000","ios":"levelo://app?vid=3f280a1c-3196-4458-abed-fc251a861000"},"vehicle_type_id":"4","last_reported":1726966179,"current_range_meters":38000,"station_id":"ce4bgj12rcd13ifvqbc0","pricing_plan_id":"cebpf4jnsgd1na2vs0mg"},{"bike_id":"314fbbe9-5fd9-4d9d-bd10-270759356c42","system_id":"levelo_inurba_marseille","lat":43.31364,"lon":5.38492,"is_reserved":false,"is_disabled":false,"rental_uris":{"android":"levelo://app?vid=314fbbe9-5fd9-4d9d-bd10-270759356c42","ios":"levelo://app?vid=314fbbe9-5fd9-4d9d-bd10-270759356c42"},"vehicle_type_id":"4","last_reported":1726966179,"current_range_meters":38000,"station_id":"ce4bgt92rcd13ifvqcf0","pricing_plan_id":"cebpf4jnsgd1na2vs0mg"},{"bike_id":"241e2c01-a65a-410b-ab27-432829a871bc","system_id":"levelo_inurba_marseille","lat":43.28106,"lon":5.37828,"is_reserved":false,"is_disabled":false,"rental_uris":{"android":"levelo://app?vid=241e2c01-a65a-410b-ab27-432829a871bc","ios":"levelo://app?vid=241e2c01-a65a-410b-ab27-432829a871bc"},"vehicle_type_id":"4","last_reported":1726966179,"current_range_meters":26800,"station_id":"ce4bha12rcd13ifvqee0","pricing_plan_id":"cebpf4jnsgd1na2vs0mg"},{"bike_id":"c6ece7c7-4ec5-4120-b681-3c568db59171","system_id":"levelo_inurba_marseille","lat":43.30593,"lon":5.37208,"is_reserved":false,"is_disabled":false,"rental_uris":{"android":"levelo://app?vid=c6ece7c7-4ec5-4120-b681-3c568db59171","ios":"levelo://app?vid=c6ece7c7-4ec5-4120-b681-3c568db59171"},"vehicle_type_id":"4","last_reported":1726966179,"current_range_meters":38800,"station_id":"ce4bgqh2rcd13ifvqc4g","pricing_plan_id":"cebpf4jnsgd1na2vs0mg"},{"bike_id":"5a41d448-a67b-482c-98bd-f39abd63140d","system_id":"levelo_inurba_marseille","lat":43.28707,"lon":5.39987,"is_reserved":false,"is_disabled":false,"rental_uris":{"android":"levelo://app?vid=5a41d448-a67b-482c-98bd-f39abd63140d","ios":"levelo://app?vid=5a41d448-a67b-482c-98bd-f39abd63140d"},"vehicle_type_id":"4","last_reported":1726966179,"current_range_meters":38800,"station_id":"ce4bho92rcd13ifvqh3g","pricing_plan_id":"cebpf4jnsgd1na2vs0mg"},{"bike_id":"15cfbab4-d487-451b-9dda-016d5fe6af27","system_id":"levelo_inurba_marseille","lat":43.294769,"lon":5.397731,"is_reserved":false,"is_disabled":false,"rental_uris":{"android":"levelo://app?vid=15cfbab4-d487-451b-9dda-016d5fe6af27","ios":"levelo://app?vid=15cfbab4-d487-451b-9dda-016d5fe6af27"},"vehicle_type_id":"4","last_reported":1726966179,"current_range_meters":20000,"station_id":"","pricing_plan_id":"cebpf4jnsgd1na2vs0mg"},{"bike_id":"02415616-385e-4f14-93d0-2ad915d17a0f","system_id":"levelo_inurba_marseille","lat":43.31326,"lon":5.39691,"is_reserved":false,"is_disabled":false,"rental_uris":{"android":"levelo://app?vid=02415616-385e-4f14-93d0-2ad915d17a0f","ios":"levelo://app?vid=02415616-385e-4f14-93d0-2ad915d17a0f"},"vehicle_type_id":"4","last_reported":1726966179,"current_range_meters":38800,"station_id":"ce4bgvp2rcd13ifvqcu0","pricing_plan_id":"cebpf4jnsgd1na2vs0mg"},{"bike_id":"40f76e9d-c4d4-4e89-b102-5cd9a5126209","system_id":"levelo_inurba_marseille","lat":43.31279,"lon":5.40173,"is_reserved":false,"is_disabled":false,"rental_uris":{"android":"levelo://app?vid=40f76e9d-c4d4-4e89-b102-5cd9a5126209","ios":"levelo://app?vid=40f76e9d-c4d4-4e89-b102-5cd9a5126209"},"vehicle_type_id":"4","last_reported":1726966179,"current_range_meters":40000,"station_id":"ce4bh092rcd13ifvqd30","pricing_plan_id":"cebpf4jnsgd1na2vs0mg"},{"bike_id":"731c50f8-e28e-42d8-9494-b731e9032ff1","system_id":"levelo_inurba_marseille","lat":43.28415,"lon":5.37506,"is_reserved":false,"is_disabled":false,"rental_uris":{"android":"levelo://app?vid=731c50f8-e28e-42d8-9494-b731e9032ff1","ios":"levelo://app?vid=731c50f8-e28e-42d8-9494-b731e9032ff1"},"vehicle_type_id":"4","last_reported":1726966179,"current_range_meters":20400,"station_id":"ce4bh412rcd13ifvqds0","pricing_plan_id":"cebpf4jnsgd1na2vs0mg"},{"bike_id":"883a8373-fa49-4c16-afa2-a07cfcf5850d","system_id":"levelo_inurba_marseille","lat":43.3022,"lon":5.39469,"is_reserved":false,"is_disabled":false,"rental_uris":{"android":"levelo://app?vid=883a8373-fa49-4c16-afa2-a07cfcf5850d","ios":"levelo://app?vid=883a8373-fa49-4c16-afa2-a07cfcf5850d"},"vehicle_type_id":"4","last_reported":1726966179,"current_range_meters":38800,"station_id":"ce4bh0p2rcd13ifvqd70","pricing_plan_id":"cebpf4jnsgd1na2vs0mg"},{"bike_id":"8f75eee5-4ace-4d65-9df9-3ea391052e27","system_id":"levelo_inurba_marseille","lat":43.29632,"lon":5.406,"is_reserved":false,"is_disabled":false,"rental_uris":{"android":"levelo://app?vid=8f75eee5-4ace-4d65-9df9-3ea391052e27","ios":"levelo://app?vid=8f75eee5-4ace-4d65-9df9-3ea391052e27"},"vehicle_type_id":"4","last_reported":1726966179,"current_range_meters":8800,"station_id":"ce4bh0h2rcd13ifvqd60","pricing_plan_id":"cebpf4jnsgd1na2vs0mg"},{"bike_id":"692b2245-a9fc-4357-bfcf-d9c8b2d6d6cd","system_id":"levelo_inurba_marseille","lat":43.3043,"lon":5.39758,"is_reserved":false,"is_disabled":false,"rental_uris":{"android":"levelo://app?vid=692b2245-a9fc-4357-bfcf-d9c8b2d6d6cd","ios":"levelo://app?vid=692b2245-a9fc-4357-bfcf-d9c8b2d6d6cd"},"vehicle_type_id":"4","last_reported":1726966179,"current_range_meters":39200,"station_id":"ce4bh092rcd13ifvqd20","pricing_plan_id":"cebpf4jnsgd1na2vs0mg"},{"bike_id":"bca0aa49-c7d2-4c11-88f5-f1e59b0dafbc","system_id":"levelo_inurba_marseille","lat":43.27612,"lon":5.36107,"is_reserved":false,"is_disabled":false,"rental_uris":{"android":"levelo://app?vid=bca0aa49-c7d2-4c11-88f5-f1e59b0dafbc","ios":"levelo://app?vid=bca0aa49-c7d2-4c11-88f5-f1e59b0dafbc"},"vehicle_type_id":"4","last_reported":1726966179,"current_range_meters":20000,"station_id":"ce4bgj92rcd13ifvqbe0","pricing_plan_id":"cebpf4jnsgd1na2vs0mg"},{"bike_id":"426daa47-bfc5-4503-bc56-880669d79926","system_id":"levelo_inurba_marseille","lat":43.29873,"lon":5.39733,"is_reserved":false,"is_disabled":false,"rental_uris":{"android":"levelo://app?vid=426daa47-bfc5-4503-bc56-880669d79926","ios":"levelo://app?vid=426daa47-bfc5-4503-bc56-880669d79926"},"vehicle_type_id":"4","last_reported":1726966179,"current_range_meters":38800,"station_id":"ce4bh0h2rcd13ifvqd50","pricing_plan_id":"cebpf4jnsgd1na2vs0mg"},{"bike_id":"1575e777-51f8-479e-bd95-714cef91a125","system_id":"levelo_inurba_marseille","lat":43.24177,"lon":5.3971,"is_reserved":false,"is_disabled":false,"rental_uris":{"android":"levelo://app?vid=1575e777-51f8-479e-bd95-714cef91a125","ios":"levelo://app?vid=1575e777-51f8-479e-bd95-714cef91a125"},"vehicle_type_id":"4","last_reported":1726966179,"current_range_meters":28800,"station_id":"ce4bhn12rcd13ifvqgpg","pricing_plan_id":"cebpf4jnsgd1na2vs0mg"},{"bike_id":"e9e6d9e2-3e2d-4420-a12d-dab77cbc6502","system_id":"levelo_inurba_marseille","lat":43.27615,"lon":5.36107,"is_reserved":false,"is_disabled":false,"rental_uris":{"android":"levelo://app?vid=e9e6d9e2-3e2d-4420-a12d-dab77cbc6502","ios":"levelo://app?vid=e9e6d9e2-3e2d-4420-a12d-dab77cbc6502"},"vehicle_type_id":"4","last_reported":1726966179,"current_range_meters":15200,"station_id":"ce4bgj92rcd13ifvqbe0","pricing_plan_id":"cebpf4jnsgd1na2vs0mg"},{"bike_id":"bd9f34a0-dc08-4657-9b7c-5589754bd8db","system_id":"levelo_inurba_marseille","lat":43.25003,"lon":5.38927,"is_reserved":false,"is_disabled":false,"rental_uris":{"android":"levelo://app?vid=bd9f34a0-dc08-4657-9b7c-5589754bd8db","ios":"levelo://app?vid=bd9f34a0-dc08-4657-9b7c-5589754bd8db"},"vehicle_type_id":"4","last_reported":1726966179,"current_range_meters":38800,"station_id":"ce4bhgp2rcd13ifvqfd0","pricing_plan_id":"cebpf4jnsgd1na2vs0mg"},{"bike_id":"4f6cd953-65f5-4d4f-a052-70118d864e1d","system_id":"levelo_inurba_marseille","lat":43.29899,"lon":5.43654,"is_reserved":false,"is_disabled":false,"rental_uris":{"android":"levelo://app?vid=4f6cd953-65f5-4d4f-a052-70118d864e1d","ios":"levelo://app?vid=4f6cd953-65f5-4d4f-a052-70118d864e1d"},"vehicle_type_id":"4","last_reported":1726966179,"current_range_meters":6800,"station_id":"ce4bhpp2rcd13ifvqhfg","pricing_plan_id":"cebpf4jnsgd1na2vs0mg"},{"bike_id":"ab03fbd4-771e-4097-be15-28a0898ddabb","system_id":"levelo_inurba_marseille","lat":43.31895,"lon":5.40729,"is_reserved":false,"is_disabled":false,"rental_uris":{"android":"levelo://app?vid=ab03fbd4-771e-4097-be15-28a0898ddabb","ios":"levelo://app?vid=ab03fbd4-771e-4097-be15-28a0898ddabb"},"vehicle_type_id":"4","last_reported":1726966179,"current_range_meters":36400,"station_id":"ce4bhq12rcd13ifvqhig","pricing_plan_id":"cebpf4jnsgd1na2vs0mg"},{"bike_id":"776a1687-8659-4d17-8970-54743c1fad10","system_id":"levelo_inurba_marseille","lat":43.3108,"lon":5.38358,"is_reserved":false,"is_disabled":false,"rental_uris":{"android":"levelo://app?vid=776a1687-8659-4d17-8970-54743c1fad10","ios":"levelo://app?vid=776a1687-8659-4d17-8970-54743c1fad10"},"vehicle_type_id":"4","last_reported":1726966179,"current_range_meters":36800,"station_id":"ce4bgv92rcd13ifvqcr0","pricing_plan_id":"cebpf4jnsgd1na2vs0mg"},{"bike_id":"d9e213ca-e541-459d-93e9-f901cb508c67","system_id":"levelo_inurba_marseille","lat":43.31703,"lon":5.3776,"is_reserved":false,"is_disabled":false,"rental_uris":{"android":"levelo://app?vid=d9e213ca-e541-459d-93e9-f901cb508c67","ios":"levelo://app?vid=d9e213ca-e541-459d-93e9-f901cb508c67"},"vehicle_type_id":"4","last_reported":1726966179,"current_range_meters":29600,"station_id":"ce4bgth2rcd13ifvqch0","pricing_plan_id":"cebpf4jnsgd1na2vs0mg"},{"bike_id":"742fe014-1f5e-499c-bbc5-66a0cbb87904","system_id":"levelo_inurba_marseille","lat":43.23198,"lon":5.35561,"is_reserved":false,"is_disabled":false,"rental_uris":{"android":"levelo://app?vid=742fe014-1f5e-499c-bbc5-66a0cbb87904","ios":"levelo://app?vid=742fe014-1f5e-499c-bbc5-66a0cbb87904"},"vehicle_type_id":"4","last_reported":1726966179,"current_range_meters":36400,"station_id":"ce4bhu92rcd13ifvqi70","pricing_plan_id":"cebpf4jnsgd1na2vs0mg"},{"bike_id":"61c76d6b-f98a-4617-ba6e-4dea0c408ad8","system_id":"levelo_inurba_marseille","lat":43.29628,"lon":5.40598,"is_reserved":false,"is_disabled":false,"rental_uris":{"android":"levelo://app?vid=61c76d6b-f98a-4617-ba6e-4dea0c408ad8","ios":"levelo://app?vid=61c76d6b-f98a-4617-ba6e-4dea0c408ad8"},"vehicle_type_id":"4","last_reported":1726966179,"current_range_meters":10000,"station_id":"ce4bh0h2rcd13ifvqd60","pricing_plan_id":"cebpf4jnsgd1na2vs0mg"},{"bike_id":"4bf50abc-e0dc-40fc-93dd-47f07433937f","system_id":"levelo_inurba_marseille","lat":43.3094,"lon":5.40143,"is_reserved":false,"is_disabled":false,"rental_uris":{"android":"levelo://app?vid=4bf50abc-e0dc-40fc-93dd-47f07433937f","ios":"levelo://app?vid=4bf50abc-e0dc-40fc-93dd-47f07433937f"},"vehicle_type_id":"4","last_reported":1726966179,"current_range_meters":38800,"station_id":"ce4bgvp2rcd13ifvqct0","pricing_plan_id":"cebpf4jnsgd1na2vs0mg"},{"bike_id":"320a348b-312f-4667-86c9-a1598946795f","system_id":"levelo_inurba_marseille","lat":43.32373,"lon":5.38882,"is_reserved":false,"is_disabled":false,"rental_uris":{"android":"levelo://app?vid=320a348b-312f-4667-86c9-a1598946795f","ios":"levelo://app?vid=320a348b-312f-4667-86c9-a1598946795f"},"vehicle_type_id":"4","last_reported":1726966179,"current_range_meters":35600,"station_id":"ce4bhqp2rcd13ifvqhog","pricing_plan_id":"cebpf4jnsgd1na2vs0mg"},{"bike_id":"26a4f21c-c3e5-4fe0-a6bf-7c9f03522df6","system_id":"levelo_inurba_marseille","lat":43.28109,"lon":5.37827,"is_reserved":false,"is_disabled":false,"rental_uris":{"android":"levelo://app?vid=26a4f21c-c3e5-4fe0-a6bf-7c9f03522df6","ios":"levelo://app?vid=26a4f21c-c3e5-4fe0-a6bf-7c9f03522df6"},"vehicle_type_id":"4","last_reported":1726966179,"current_range_meters":3200,"station_id":"ce4bha12rcd13ifvqee0","pricing_plan_id":"cebpf4jnsgd1na2vs0mg"},{"bike_id":"7580070f-7973-4da9-a3f4-451599e5fffe","system_id":"levelo_inurba_marseille","lat":43.28935,"lon":5.39621,"is_reserved":false,"is_disabled":false,"rental_uris":{"android":"levelo://app?vid=7580070f-7973-4da9-a3f4-451599e5fffe","ios":"levelo://app?vid=7580070f-7973-4da9-a3f4-451599e5fffe"},"vehicle_type_id":"4","last_reported":1726966179,"current_range_meters":38800,"station_id":"ce4bh3h2rcd13ifvqdn0","pricing_plan_id":"cebpf4jnsgd1na2vs0mg"},{"bike_id":"764b6bb2-02e2-40c1-b2f2-87b0e685136f","system_id":"levelo_inurba_marseille","lat":43.30545,"lon":5.38429,"is_reserved":false,"is_disabled":false,"rental_uris":{"android":"levelo://app?vid=764b6bb2-02e2-40c1-b2f2-87b0e685136f","ios":"levelo://app?vid=764b6bb2-02e2-40c1-b2f2-87b0e685136f"},"vehicle_type_id":"4","last_reported":1726966179,"current_range_meters":18000,"station_id":"ce4bgg92rcd13ifvqb30","pricing_plan_id":"cebpf4jnsgd1na2vs0mg"},{"bike_id":"15bfb919-6e1f-4e7f-83e8-9b12fb95fcef","system_id":"levelo_inurba_marseille","lat":43.31383,"lon":5.38492,"is_reserved":false,"is_disabled":false,"rental_uris":{"android":"levelo://app?vid=15bfb919-6e1f-4e7f-83e8-9b12fb95fcef","ios":"levelo://app?vid=15bfb919-6e1f-4e7f-83e8-9b12fb95fcef"},"vehicle_type_id":"4","last_reported":1726966179,"current_range_meters":22800,"station_id":"ce4bgt92rcd13ifvqcf0","pricing_plan_id":"cebpf4jnsgd1na2vs0mg"},{"bike_id":"feb42740-c719-4916-9efa-d99f861e0e6d","system_id":"levelo_inurba_marseille","lat":43.32482,"lon":5.36574,"is_reserved":false,"is_disabled":false,"rental_uris":{"android":"levelo://app?vid=feb42740-c719-4916-9efa-d99f861e0e6d","ios":"levelo://app?vid=feb42740-c719-4916-9efa-d99f861e0e6d"},"vehicle_type_id":"4","last_reported":1726966179,"current_range_meters":37600,"station_id":"ce4bhs12rcd13ifvqhvg","pricing_plan_id":"cebpf4jnsgd1na2vs0mg"},{"bike_id":"7e8321e1-817c-4ad2-b2ce-662226815b86","system_id":"levelo_inurba_marseille","lat":43.29769,"lon":5.37103,"is_reserved":false,"is_disabled":false,"rental_uris":{"android":"levelo://app?vid=7e8321e1-817c-4ad2-b2ce-662226815b86","ios":"levelo://app?vid=7e8321e1-817c-4ad2-b2ce-662226815b86"},"vehicle_type_id":"4","last_reported":1726966179,"current_range_meters":32800,"station_id":"ce4bgop2rcd13ifvqc1g","pricing_plan_id":"cebpf4jnsgd1na2vs0mg"},{"bike_id":"5ce6ca70-38c1-446a-8e79-d58050d35527","system_id":"levelo_inurba_marseille","lat":43.26573,"lon":5.39006,"is_reserved":false,"is_disabled":false,"rental_uris":{"android":"levelo://app?vid=5ce6ca70-38c1-446a-8e79-d58050d35527","ios":"levelo://app?vid=5ce6ca70-38c1-446a-8e79-d58050d35527"},"vehicle_type_id":"4","last_reported":1726966179,"current_range_meters":27600,"station_id":"ce4bhe12rcd13ifvqf30","pricing_plan_id":"cebpf4jnsgd1na2vs0mg"},{"bike_id":"49e22ca6-33ff-4552-8078-43a8cf13e0f4","system_id":"levelo_inurba_marseille","lat":43.295598,"lon":5.422946,"is_reserved":false,"is_disabled":false,"rental_uris":{"android":"levelo://app?vid=49e22ca6-33ff-4552-8078-43a8cf13e0f4","ios":"levelo://app?vid=49e22ca6-33ff-4552-8078-43a8cf13e0f4"},"vehicle_type_id":"4","last_reported":1726966179,"current_range_meters":24800,"station_id":"ce4bhph2rcd13ifvqhdg","pricing_plan_id":"cebpf4jnsgd1na2vs0mg"},{"bike_id":"2ed077f1-a76e-4ade-9169-7f9158707235","system_id":"levelo_inurba_marseille","lat":43.24674,"lon":5.38158,"is_reserved":false,"is_disabled":false,"rental_uris":{"android":"levelo://app?vid=2ed077f1-a76e-4ade-9169-7f9158707235","ios":"levelo://app?vid=2ed077f1-a76e-4ade-9169-7f9158707235"},"vehicle_type_id":"4","last_reported":1726966179,"current_range_meters":9600,"station_id":"ce4bhih2rcd13ifvqfr0","pricing_plan_id":"cebpf4jnsgd1na2vs0mg"},{"bike_id":"fce734b4-6c36-4cb6-983c-c95238702258","system_id":"levelo_inurba_marseille","lat":43.31075,"lon":5.38125,"is_reserved":false,"is_disabled":false,"rental_uris":{"android":"levelo://app?vid=fce734b4-6c36-4cb6-983c-c95238702258","ios":"levelo://app?vid=fce734b4-6c36-4cb6-983c-c95238702258"},"vehicle_type_id":"4","last_reported":1726966179,"current_range_meters":16400,"station_id":"","pricing_plan_id":"cebpf4jnsgd1na2vs0mg"},{"bike_id":"ab164393-cd31-4221-b165-f26296d40d00","system_id":"levelo_inurba_marseille","lat":43.31089,"lon":5.42437,"is_reserved":false,"is_disabled":false,"rental_uris":{"android":"levelo://app?vid=ab164393-cd31-4221-b165-f26296d40d00","ios":"levelo://app?vid=ab164393-cd31-4221-b165-f26296d40d00"},"vehicle_type_id":"4","last_reported":1726966179,"current_range_meters":12400,"station_id":"ce4bhp92rcd13ifvqhag","pricing_plan_id":"cebpf4jnsgd1na2vs0mg"},{"bike_id":"4bf9bad2-5ff0-497e-80dc-91099f373503","system_id":"levelo_inurba_marseille","lat":43.25085,"lon":5.39514,"is_reserved":false,"is_disabled":false,"rental_uris":{"android":"levelo://app?vid=4bf9bad2-5ff0-497e-80dc-91099f373503","ios":"levelo://app?vid=4bf9bad2-5ff0-497e-80dc-91099f373503"},"vehicle_type_id":"4","last_reported":1726966179,"current_range_meters":34800,"station_id":"ce4bhm12rcd13ifvqgkg","pricing_plan_id":"cebpf4jnsgd1na2vs0mg"},{"bike_id":"641f5b3a-0958-49cd-babc-8214d157118d","system_id":"levelo_inurba_marseille","lat":43.28442,"lon":5.3918,"is_reserved":false,"is_disabled":false,"rental_uris":{"android":"levelo://app?vid=641f5b3a-0958-49cd-babc-8214d157118d","ios":"levelo://app?vid=641f5b3a-0958-49cd-babc-8214d157118d"},"vehicle_type_id":"4","last_reported":1726966179,"current_range_meters":31200,"station_id":"ce4bhoh2rcd13ifvqh5g","pricing_plan_id":"cebpf4jnsgd1na2vs0mg"},{"bike_id":"1993babe-031d-4205-9beb-05f59e63df03","system_id":"levelo_inurba_marseille","lat":43.292542,"lon":5.400981,"is_reserved":false,"is_disabled":false,"rental_uris":{"android":"levelo://app?vid=1993babe-031d-4205-9beb-05f59e63df03","ios":"levelo://app?vid=1993babe-031d-4205-9beb-05f59e63df03"},"vehicle_type_id":"4","last_reported":1726966179,"current_range_meters":12000,"station_id":"ce4bhq92rcd13ifvqhkg","pricing_plan_id":"cebpf4jnsgd1na2vs0mg"},{"bike_id":"a27dbfcf-fdb2-45f8-985f-42b146435a71","system_id":"levelo_inurba_marseille","lat":43.32338,"lon":5.40618,"is_reserved":false,"is_disabled":false,"rental_uris":{"android":"levelo://app?vid=a27dbfcf-fdb2-45f8-985f-42b146435a71","ios":"levelo://app?vid=a27dbfcf-fdb2-45f8-985f-42b146435a71"},"vehicle_type_id":"4","last_reported":1726966179,"current_range_meters":39200,"station_id":"ce4bhq92rcd13ifvqhjg","pricing_plan_id":"cebpf4jnsgd1na2vs0mg"},{"bike_id":"f74941be-f473-4ce7-9230-0799526567ae","system_id":"levelo_inurba_marseille","lat":43.23199,"lon":5.35554,"is_reserved":false,"is_disabled":false,"rental_uris":{"android":"levelo://app?vid=f74941be-f473-4ce7-9230-0799526567ae","ios":"levelo://app?vid=f74941be-f473-4ce7-9230-0799526567ae"},"vehicle_type_id":"4","last_reported":1726966179,"current_range_meters":38800,"station_id":"ce4bhu92rcd13ifvqi70","pricing_plan_id":"cebpf4jnsgd1na2vs0mg"},{"bike_id":"861f752c-08a5-4216-bdcf-5216f99d2f9e","system_id":"levelo_inurba_marseille","lat":43.286713,"lon":5.386628,"is_reserved":false,"is_disabled":false,"rental_uris":{"android":"levelo://app?vid=861f752c-08a5-4216-bdcf-5216f99d2f9e","ios":"levelo://app?vid=861f752c-08a5-4216-bdcf-5216f99d2f9e"},"vehicle_type_id":"4","last_reported":1726966179,"current_range_meters":36400,"station_id":"ce4bh492rcd13ifvqdug","pricing_plan_id":"cebpf4jnsgd1na2vs0mg"},{"bike_id":"1b0377f1-d878-4328-a741-9dcdd239aabf","system_id":"levelo_inurba_marseille","lat":43.31369,"lon":5.38491,"is_reserved":false,"is_disabled":false,"rental_uris":{"android":"levelo://app?vid=1b0377f1-d878-4328-a741-9dcdd239aabf","ios":"levelo://app?vid=1b0377f1-d878-4328-a741-9dcdd239aabf"},"vehicle_type_id":"4","last_reported":1726966179,"current_range_meters":22800,"station_id":"ce4bgt92rcd13ifvqcf0","pricing_plan_id":"cebpf4jnsgd1na2vs0mg"},{"bike_id":"eedc4511-65d0-42a0-9cc0-b84401859573","system_id":"levelo_inurba_marseille","lat":43.29273,"lon":5.40117,"is_reserved":false,"is_disabled":false,"rental_uris":{"android":"levelo://app?vid=eedc4511-65d0-42a0-9cc0-b84401859573","ios":"levelo://app?vid=eedc4511-65d0-42a0-9cc0-b84401859573"},"vehicle_type_id":"4","last_reported":1726966179,"current_range_meters":30400,"station_id":"ce4bh312rcd13ifvqdk0","pricing_plan_id":"cebpf4jnsgd1na2vs0mg"},{"bike_id":"bc2224ad-a18e-479e-9927-fa7d79220cd4","system_id":"levelo_inurba_marseille","lat":43.32339,"lon":5.40625,"is_reserved":false,"is_disabled":false,"rental_uris":{"android":"levelo://app?vid=bc2224ad-a18e-479e-9927-fa7d79220cd4","ios":"levelo://app?vid=bc2224ad-a18e-479e-9927-fa7d79220cd4"},"vehicle_type_id":"4","last_reported":1726966179,"current_range_meters":39200,"station_id":"ce4bhq92rcd13ifvqhjg","pricing_plan_id":"cebpf4jnsgd1na2vs0mg"},{"bike_id":"2e496ae2-337a-465c-a436-e5d15888c515","system_id":"levelo_inurba_marseille","lat":43.30147,"lon":5.38083,"is_reserved":false,"is_disabled":false,"rental_uris":{"android":"levelo://app?vid=2e496ae2-337a-465c-a436-e5d15888c515","ios":"levelo://app?vid=2e496ae2-337a-465c-a436-e5d15888c515"},"vehicle_type_id":"4","last_reported":1726966179,"current_range_meters":38800,"station_id":"ce4bgjp2rcd13ifvqbh0","pricing_plan_id":"cebpf4jnsgd1na2vs0mg"},{"bike_id":"4bb7a675-da9b-4975-873c-414cafad6126","system_id":"levelo_inurba_marseille","lat":43.2846,"lon":5.35893,"is_reserved":false,"is_disabled":false,"rental_uris":{"android":"levelo://app?vid=4bb7a675-da9b-4975-873c-414cafad6126","ios":"levelo://app?vid=4bb7a675-da9b-4975-873c-414cafad6126"},"vehicle_type_id":"4","last_reported":1726966179,"current_range_meters":20000,"station_id":"ce4bhah2rcd13ifvqei0","pricing_plan_id":"cebpf4jnsgd1na2vs0mg"},{"bike_id":"6a27e725-2d8c-4144-8185-44daee5ca0de","system_id":"levelo_inurba_marseille","lat":43.31754,"lon":5.39015,"is_reserved":false,"is_disabled":false,"rental_uris":{"android":"levelo://app?vid=6a27e725-2d8c-4144-8185-44daee5ca0de","ios":"levelo://app?vid=6a27e725-2d8c-4144-8185-44daee5ca0de"},"vehicle_type_id":"4","last_reported":1726966179,"current_range_meters":22400,"station_id":"ce4bhqp2rcd13ifvqhng","pricing_plan_id":"cebpf4jnsgd1na2vs0mg"},{"bike_id":"e78643e9-7111-4678-b6dd-04037d1221cb","system_id":"levelo_inurba_marseille","lat":43.3044,"lon":5.38882,"is_reserved":false,"is_disabled":false,"rental_uris":{"android":"levelo://app?vid=e78643e9-7111-4678-b6dd-04037d1221cb","ios":"levelo://app?vid=e78643e9-7111-4678-b6dd-04037d1221cb"},"vehicle_type_id":"4","last_reported":1726966179,"current_range_meters":38800,"station_id":"ce4bgk12rcd13ifvqbi0","pricing_plan_id":"cebpf4jnsgd1na2vs0mg"},{"bike_id":"aa18d1b9-803b-47fa-bea1-cb0edab5554a","system_id":"levelo_inurba_marseille","lat":43.28702,"lon":5.39971,"is_reserved":false,"is_disabled":false,"rental_uris":{"android":"levelo://app?vid=aa18d1b9-803b-47fa-bea1-cb0edab5554a","ios":"levelo://app?vid=aa18d1b9-803b-47fa-bea1-cb0edab5554a"},"vehicle_type_id":"4","last_reported":1726966179,"current_range_meters":29600,"station_id":"ce4bho92rcd13ifvqh3g","pricing_plan_id":"cebpf4jnsgd1na2vs0mg"},{"bike_id":"949472d1-97b4-4563-9061-d4d0ed91b910","system_id":"levelo_inurba_marseille","lat":43.32366,"lon":5.38885,"is_reserved":false,"is_disabled":false,"rental_uris":{"android":"levelo://app?vid=949472d1-97b4-4563-9061-d4d0ed91b910","ios":"levelo://app?vid=949472d1-97b4-4563-9061-d4d0ed91b910"},"vehicle_type_id":"4","last_reported":1726966179,"current_range_meters":26800,"station_id":"ce4bhqp2rcd13ifvqhog","pricing_plan_id":"cebpf4jnsgd1na2vs0mg"},{"bike_id":"70b0f481-90c0-4753-89b9-808858bf4c44","system_id":"levelo_inurba_marseille","lat":43.28274,"lon":5.3508,"is_reserved":false,"is_disabled":false,"rental_uris":{"android":"levelo://app?vid=70b0f481-90c0-4753-89b9-808858bf4c44","ios":"levelo://app?vid=70b0f481-90c0-4753-89b9-808858bf4c44"},"vehicle_type_id":"4","last_reported":1726966179,"current_range_meters":18000,"station_id":"ce4bhbp2rcd13ifvqerg","pricing_plan_id":"cebpf4jnsgd1na2vs0mg"},{"bike_id":"6c4c3607-82cf-4fe2-8301-90c894cc563f","system_id":"levelo_inurba_marseille","lat":43.3137,"lon":5.38493,"is_reserved":false,"is_disabled":false,"rental_uris":{"android":"levelo://app?vid=6c4c3607-82cf-4fe2-8301-90c894cc563f","ios":"levelo://app?vid=6c4c3607-82cf-4fe2-8301-90c894cc563f"},"vehicle_type_id":"4","last_reported":1726966179,"current_range_meters":35200,"station_id":"ce4bgt92rcd13ifvqcf0","pricing_plan_id":"cebpf4jnsgd1na2vs0mg"},{"bike_id":"fb2b63d9-4a26-4602-9a57-d2caab531ee7","system_id":"levelo_inurba_marseille","lat":43.33722,"lon":5.3919,"is_reserved":false,"is_disabled":false,"rental_uris":{"android":"levelo://app?vid=fb2b63d9-4a26-4602-9a57-d2caab531ee7","ios":"levelo://app?vid=fb2b63d9-4a26-4602-9a57-d2caab531ee7"},"vehicle_type_id":"4","last_reported":1726966179,"current_range_meters":36000,"station_id":"ce4bhr92rcd13ifvqhsg","pricing_plan_id":"cebpf4jnsgd1na2vs0mg"},{"bike_id":"7395dcca-0dd7-4f1e-aa71-567860760f7e","system_id":"levelo_inurba_marseille","lat":43.28706,"lon":5.3738,"is_reserved":false,"is_disabled":false,"rental_uris":{"android":"levelo://app?vid=7395dcca-0dd7-4f1e-aa71-567860760f7e","ios":"levelo://app?vid=7395dcca-0dd7-4f1e-aa71-567860760f7e"},"vehicle_type_id":"4","last_reported":1726966179,"current_range_meters":36000,"station_id":"ce4bh3p2rcd13ifvqdq0","pricing_plan_id":"cebpf4jnsgd1na2vs0mg"},{"bike_id":"c27a8ae0-3897-4342-8eee-15d25efa8dc2","system_id":"levelo_inurba_marseille","lat":43.27905,"lon":5.38012,"is_reserved":false,"is_disabled":false,"rental_uris":{"android":"levelo://app?vid=c27a8ae0-3897-4342-8eee-15d25efa8dc2","ios":"levelo://app?vid=c27a8ae0-3897-4342-8eee-15d25efa8dc2"},"vehicle_type_id":"4","last_reported":1726966179,"current_range_meters":3200,"station_id":"ce4bhf92rcd13ifvqf50","pricing_plan_id":"cebpf4jnsgd1na2vs0mg"},{"bike_id":"e8d9fcc7-4a1f-4d96-8ebf-5d7fd0b8bb85","system_id":"levelo_inurba_marseille","lat":43.23179,"lon":5.39985,"is_reserved":false,"is_disabled":false,"rental_uris":{"android":"levelo://app?vid=e8d9fcc7-4a1f-4d96-8ebf-5d7fd0b8bb85","ios":"levelo://app?vid=e8d9fcc7-4a1f-4d96-8ebf-5d7fd0b8bb85"},"vehicle_type_id":"4","last_reported":1726966179,"current_range_meters":38800,"station_id":"ce4bhn12rcd13ifvqgqg","pricing_plan_id":"cebpf4jnsgd1na2vs0mg"},{"bike_id":"ef8c4665-5ed2-4c55-a204-5049067fb8cf","system_id":"levelo_inurba_marseille","lat":43.31328,"lon":5.39686,"is_reserved":false,"is_disabled":false,"rental_uris":{"android":"levelo://app?vid=ef8c4665-5ed2-4c55-a204-5049067fb8cf","ios":"levelo://app?vid=ef8c4665-5ed2-4c55-a204-5049067fb8cf"},"vehicle_type_id":"4","last_reported":1726966179,"current_range_meters":34800,"station_id":"ce4bgvp2rcd13ifvqcu0","pricing_plan_id":"cebpf4jnsgd1na2vs0mg"},{"bike_id":"a9f970fa-8fa9-4f75-a9c9-ba0a24a4c539","system_id":"levelo_inurba_marseille","lat":43.28418,"lon":5.349768,"is_reserved":false,"is_disabled":false,"rental_uris":{"android":"levelo://app?vid=a9f970fa-8fa9-4f75-a9c9-ba0a24a4c539","ios":"levelo://app?vid=a9f970fa-8fa9-4f75-a9c9-ba0a24a4c539"},"vehicle_type_id":"4","last_reported":1726966179,"current_range_meters":30000,"station_id":"ce4bhbh2rcd13ifvqepg","pricing_plan_id":"cebpf4jnsgd1na2vs0mg"},{"bike_id":"14979140-9123-453b-a268-fb48ecf0800e","system_id":"levelo_inurba_marseille","lat":43.316885,"lon":5.404779,"is_reserved":false,"is_disabled":false,"rental_uris":{"android":"levelo://app?vid=14979140-9123-453b-a268-fb48ecf0800e","ios":"levelo://app?vid=14979140-9123-453b-a268-fb48ecf0800e"},"vehicle_type_id":"4","last_reported":1726966179,"current_range_meters":32800,"station_id":"ce4bh012rcd13ifvqd00","pricing_plan_id":"cebpf4jnsgd1na2vs0mg"},{"bike_id":"c50a47ab-331a-4a7a-a10e-9beedb47f417","system_id":"levelo_inurba_marseille","lat":43.28932,"lon":5.36396,"is_reserved":false,"is_disabled":false,"rental_uris":{"android":"levelo://app?vid=c50a47ab-331a-4a7a-a10e-9beedb47f417","ios":"levelo://app?vid=c50a47ab-331a-4a7a-a10e-9beedb47f417"},"vehicle_type_id":"4","last_reported":1726966179,"current_range_meters":37600,"station_id":"ce4bhc92rcd13ifvqetg","pricing_plan_id":"cebpf4jnsgd1na2vs0mg"},{"bike_id":"64587697-05e9-4548-8588-ba3be5577708","system_id":"levelo_inurba_marseille","lat":43.29257,"lon":5.4091,"is_reserved":false,"is_disabled":false,"rental_uris":{"android":"levelo://app?vid=64587697-05e9-4548-8588-ba3be5577708","ios":"levelo://app?vid=64587697-05e9-4548-8588-ba3be5577708"},"vehicle_type_id":"4","last_reported":1726966179,"current_range_meters":38800,"station_id":"ce4bh192rcd13ifvqdc0","pricing_plan_id":"cebpf4jnsgd1na2vs0mg"},{"bike_id":"e95fdd8e-a2a3-4a7b-969a-fa0ebc672c7d","system_id":"levelo_inurba_marseille","lat":43.33727,"lon":5.39191,"is_reserved":false,"is_disabled":false,"rental_uris":{"android":"levelo://app?vid=e95fdd8e-a2a3-4a7b-969a-fa0ebc672c7d","ios":"levelo://app?vid=e95fdd8e-a2a3-4a7b-969a-fa0ebc672c7d"},"vehicle_type_id":"4","last_reported":1726966179,"current_range_meters":24000,"station_id":"ce4bhr92rcd13ifvqhsg","pricing_plan_id":"cebpf4jnsgd1na2vs0mg"},{"bike_id":"5e89eb86-04c1-4929-b3ce-44c08ecb21db","system_id":"levelo_inurba_marseille","lat":43.31075,"lon":5.38344,"is_reserved":false,"is_disabled":false,"rental_uris":{"android":"levelo://app?vid=5e89eb86-04c1-4929-b3ce-44c08ecb21db","ios":"levelo://app?vid=5e89eb86-04c1-4929-b3ce-44c08ecb21db"},"vehicle_type_id":"4","last_reported":1726966179,"current_range_meters":34800,"station_id":"ce4bgv92rcd13ifvqcr0","pricing_plan_id":"cebpf4jnsgd1na2vs0mg"},{"bike_id":"fa690805-233a-4a70-a9f3-33f1b67cdb1f","system_id":"levelo_inurba_marseille","lat":43.32292,"lon":5.38275,"is_reserved":false,"is_disabled":false,"rental_uris":{"android":"levelo://app?vid=fa690805-233a-4a70-a9f3-33f1b67cdb1f","ios":"levelo://app?vid=fa690805-233a-4a70-a9f3-33f1b67cdb1f"},"vehicle_type_id":"4","last_reported":1726966179,"current_range_meters":9600,"station_id":"ce4bhr12rcd13ifvqhqg","pricing_plan_id":"cebpf4jnsgd1na2vs0mg"},{"bike_id":"f6d53afc-4121-4dc7-9acf-b06309ffb8ff","system_id":"levelo_inurba_marseille","lat":43.27905,"lon":5.38012,"is_reserved":false,"is_disabled":false,"rental_uris":{"android":"levelo://app?vid=f6d53afc-4121-4dc7-9acf-b06309ffb8ff","ios":"levelo://app?vid=f6d53afc-4121-4dc7-9acf-b06309ffb8ff"},"vehicle_type_id":"4","last_reported":1726966179,"current_range_meters":4800,"station_id":"ce4bhf92rcd13ifvqf50","pricing_plan_id":"cebpf4jnsgd1na2vs0mg"},{"bike_id":"4db710da-af5e-4081-a49d-0058c6355614","system_id":"levelo_inurba_marseille","lat":43.26067,"lon":5.39397,"is_reserved":false,"is_disabled":false,"rental_uris":{"android":"levelo://app?vid=4db710da-af5e-4081-a49d-0058c6355614","ios":"levelo://app?vid=4db710da-af5e-4081-a49d-0058c6355614"},"vehicle_type_id":"4","last_reported":1726966179,"current_range_meters":38000,"station_id":"","pricing_plan_id":"cebpf4jnsgd1na2vs0mg"},{"bike_id":"80e63dfc-a645-4d2f-a0b5-3f87a2df0aaa","system_id":"levelo_inurba_marseille","lat":43.24664,"lon":5.38159,"is_reserved":false,"is_disabled":false,"rental_uris":{"android":"levelo://app?vid=80e63dfc-a645-4d2f-a0b5-3f87a2df0aaa","ios":"levelo://app?vid=80e63dfc-a645-4d2f-a0b5-3f87a2df0aaa"},"vehicle_type_id":"4","last_reported":1726966179,"current_range_meters":29600,"station_id":"ce4bhih2rcd13ifvqfr0","pricing_plan_id":"cebpf4jnsgd1na2vs0mg"},{"bike_id":"491ce18c-ec2b-44ec-a4ed-854ea56973e2","system_id":"levelo_inurba_marseille","lat":43.31082,"lon":5.38358,"is_reserved":false,"is_disabled":false,"rental_uris":{"android":"levelo://app?vid=491ce18c-ec2b-44ec-a4ed-854ea56973e2","ios":"levelo://app?vid=491ce18c-ec2b-44ec-a4ed-854ea56973e2"},"vehicle_type_id":"4","last_reported":1726966179,"current_range_meters":11600,"station_id":"ce4bgv92rcd13ifvqcr0","pricing_plan_id":"cebpf4jnsgd1na2vs0mg"},{"bike_id":"2f210386-dc1c-4b15-8f6d-09fcb7b42d45","system_id":"levelo_inurba_marseille","lat":43.28715,"lon":5.3738,"is_reserved":false,"is_disabled":false,"rental_uris":{"android":"levelo://app?vid=2f210386-dc1c-4b15-8f6d-09fcb7b42d45","ios":"levelo://app?vid=2f210386-dc1c-4b15-8f6d-09fcb7b42d45"},"vehicle_type_id":"4","last_reported":1726966179,"current_range_meters":16800,"station_id":"ce4bh3p2rcd13ifvqdq0","pricing_plan_id":"cebpf4jnsgd1na2vs0mg"},{"bike_id":"2d16c83d-f343-4160-b777-e89736c6b52e","system_id":"levelo_inurba_marseille","lat":43.2956,"lon":5.42279,"is_reserved":false,"is_disabled":false,"rental_uris":{"android":"levelo://app?vid=2d16c83d-f343-4160-b777-e89736c6b52e","ios":"levelo://app?vid=2d16c83d-f343-4160-b777-e89736c6b52e"},"vehicle_type_id":"4","last_reported":1726966179,"current_range_meters":24400,"station_id":"ce4bhph2rcd13ifvqhdg","pricing_plan_id":"cebpf4jnsgd1na2vs0mg"},{"bike_id":"0217cc6b-3bf4-4a71-9696-6c93253915a0","system_id":"levelo_inurba_marseille","lat":43.33612,"lon":5.41033,"is_reserved":false,"is_disabled":false,"rental_uris":{"android":"levelo://app?vid=0217cc6b-3bf4-4a71-9696-6c93253915a0","ios":"levelo://app?vid=0217cc6b-3bf4-4a71-9696-6c93253915a0"},"vehicle_type_id":"4","last_reported":1726966179,"current_range_meters":25600,"station_id":"ce4bhqh2rcd13ifvqhmg","pricing_plan_id":"cebpf4jnsgd1na2vs0mg"},{"bike_id":"99f7c695-6320-410a-9a48-9a5e68fe6c24","system_id":"levelo_inurba_marseille","lat":43.31361,"lon":5.38498,"is_reserved":false,"is_disabled":false,"rental_uris":{"android":"levelo://app?vid=99f7c695-6320-410a-9a48-9a5e68fe6c24","ios":"levelo://app?vid=99f7c695-6320-410a-9a48-9a5e68fe6c24"},"vehicle_type_id":"4","last_reported":1726966179,"current_range_meters":10000,"station_id":"ce4bgt92rcd13ifvqcf0","pricing_plan_id":"cebpf4jnsgd1na2vs0mg"},{"bike_id":"fecfa792-a07c-4ec0-81d5-2fe7a6beed2d","system_id":"levelo_inurba_marseille","lat":43.27067,"lon":5.42272,"is_reserved":false,"is_disabled":false,"rental_uris":{"android":"levelo://app?vid=fecfa792-a07c-4ec0-81d5-2fe7a6beed2d","ios":"levelo://app?vid=fecfa792-a07c-4ec0-81d5-2fe7a6beed2d"},"vehicle_type_id":"4","last_reported":1726966179,"current_range_meters":16400,"station_id":"ce4bhk92rcd13ifvqgb0","pricing_plan_id":"cebpf4jnsgd1na2vs0mg"},{"bike_id":"b2763354-ec6c-4733-8de6-6c4493759ae9","system_id":"levelo_inurba_marseille","lat":43.29047,"lon":5.40149,"is_reserved":false,"is_disabled":false,"rental_uris":{"android":"levelo://app?vid=b2763354-ec6c-4733-8de6-6c4493759ae9","ios":"levelo://app?vid=b2763354-ec6c-4733-8de6-6c4493759ae9"},"vehicle_type_id":"4","last_reported":1726966179,"current_range_meters":10800,"station_id":"","pricing_plan_id":"cebpf4jnsgd1na2vs0mg"},{"bike_id":"2a02db94-e9e5-4250-bb8b-fd12e5afc898","system_id":"levelo_inurba_marseille","lat":43.26561,"lon":5.39003,"is_reserved":false,"is_disabled":false,"rental_uris":{"android":"levelo://app?vid=2a02db94-e9e5-4250-bb8b-fd12e5afc898","ios":"levelo://app?vid=2a02db94-e9e5-4250-bb8b-fd12e5afc898"},"vehicle_type_id":"4","last_reported":1726966179,"current_range_meters":24000,"station_id":"ce4bhe12rcd13ifvqf30","pricing_plan_id":"cebpf4jnsgd1na2vs0mg"},{"bike_id":"d9d2187b-426e-44eb-86ce-229bc41c4bf1","system_id":"levelo_inurba_marseille","lat":43.2408,"lon":5.37752,"is_reserved":false,"is_disabled":false,"rental_uris":{"android":"levelo://app?vid=d9d2187b-426e-44eb-86ce-229bc41c4bf1","ios":"levelo://app?vid=d9d2187b-426e-44eb-86ce-229bc41c4bf1"},"vehicle_type_id":"4","last_reported":1726966179,"current_range_meters":7200,"station_id":"ce4bhnp2rcd13ifvqgvg","pricing_plan_id":"cebpf4jnsgd1na2vs0mg"},{"bike_id":"56f5dc3f-a498-46a4-a1d4-5c8381d39969","system_id":"levelo_inurba_marseille","lat":43.30314,"lon":5.40355,"is_reserved":false,"is_disabled":false,"rental_uris":{"android":"levelo://app?vid=56f5dc3f-a498-46a4-a1d4-5c8381d39969","ios":"levelo://app?vid=56f5dc3f-a498-46a4-a1d4-5c8381d39969"},"vehicle_type_id":"4","last_reported":1726966179,"current_range_meters":2000,"station_id":"","pricing_plan_id":"cebpf4jnsgd1na2vs0mg"},{"bike_id":"24008d6b-e140-4229-b6f1-8307e50b1eb7","system_id":"levelo_inurba_marseille","lat":43.29976,"lon":5.37179,"is_reserved":false,"is_disabled":false,"rental_uris":{"android":"levelo://app?vid=24008d6b-e140-4229-b6f1-8307e50b1eb7","ios":"levelo://app?vid=24008d6b-e140-4229-b6f1-8307e50b1eb7"},"vehicle_type_id":"4","last_reported":1726966179,"current_range_meters":37600,"station_id":"ce4bgr92rcd13ifvqc7g","pricing_plan_id":"cebpf4jnsgd1na2vs0mg"},{"bike_id":"e31de2a4-85fb-467d-a504-2f3cf4294688","system_id":"levelo_inurba_marseille","lat":43.25823,"lon":5.39424,"is_reserved":false,"is_disabled":false,"rental_uris":{"android":"levelo://app?vid=e31de2a4-85fb-467d-a504-2f3cf4294688","ios":"levelo://app?vid=e31de2a4-85fb-467d-a504-2f3cf4294688"},"vehicle_type_id":"4","last_reported":1726966179,"current_range_meters":30400,"station_id":"ce4bhip2rcd13ifvqft0","pricing_plan_id":"cebpf4jnsgd1na2vs0mg"},{"bike_id":"2bb7f320-ae8b-41c8-b4b9-85984e51b0d4","system_id":"levelo_inurba_marseille","lat":43.31362,"lon":5.38502,"is_reserved":false,"is_disabled":false,"rental_uris":{"android":"levelo://app?vid=2bb7f320-ae8b-41c8-b4b9-85984e51b0d4","ios":"levelo://app?vid=2bb7f320-ae8b-41c8-b4b9-85984e51b0d4"},"vehicle_type_id":"4","last_reported":1726966179,"current_range_meters":16800,"station_id":"ce4bgt92rcd13ifvqcf0","pricing_plan_id":"cebpf4jnsgd1na2vs0mg"},{"bike_id":"70ca700e-4c35-4c7d-85a4-2cc17571cb4f","system_id":"levelo_inurba_marseille","lat":43.25116,"lon":5.40322,"is_reserved":false,"is_disabled":false,"rental_uris":{"android":"levelo://app?vid=70ca700e-4c35-4c7d-85a4-2cc17571cb4f","ios":"levelo://app?vid=70ca700e-4c35-4c7d-85a4-2cc17571cb4f"},"vehicle_type_id":"4","last_reported":1726966179,"current_range_meters":22800,"station_id":"ce4bhlh2rcd13ifvqgig","pricing_plan_id":"cebpf4jnsgd1na2vs0mg"},{"bike_id":"b5312d09-7495-4a11-9270-8b8509805415","system_id":"levelo_inurba_marseille","lat":43.26546,"lon":5.37291,"is_reserved":false,"is_disabled":false,"rental_uris":{"android":"levelo://app?vid=b5312d09-7495-4a11-9270-8b8509805415","ios":"levelo://app?vid=b5312d09-7495-4a11-9270-8b8509805415"},"vehicle_type_id":"4","last_reported":1726966179,"current_range_meters":38800,"station_id":"ce4bhg12rcd13ifvqf70","pricing_plan_id":"cebpf4jnsgd1na2vs0mg"},{"bike_id":"46fbb630-09e8-4170-9be5-4fdb9fc3d75f","system_id":"levelo_inurba_marseille","lat":43.32487,"lon":5.36559,"is_reserved":false,"is_disabled":false,"rental_uris":{"android":"levelo://app?vid=46fbb630-09e8-4170-9be5-4fdb9fc3d75f","ios":"levelo://app?vid=46fbb630-09e8-4170-9be5-4fdb9fc3d75f"},"vehicle_type_id":"4","last_reported":1726966179,"current_range_meters":39200,"station_id":"ce4bhs12rcd13ifvqhvg","pricing_plan_id":"cebpf4jnsgd1na2vs0mg"},