{"last_updated":1750685240,"ttl":60,"version":"2.2","data":{"bikes":[{"bike_id":"3da29fb8-fc97-44c6-b9ac-31dd456b2fd4","system_id":"levelo_inurba_marseille","lat":43.33771,"lon":5.37424,"is_reserved":false,"is_disabled":true,"rental_uris":{"android":"levelo://app?vid=3da29fb8-fc97-44c6-b9ac-31dd456b2fd4","ios":"levelo://app?vid=3da29fb8-fc97-44c6-b9ac-31dd456b2fd4"},"vehicle_type_id":"4","last_reported":1750685240,"current_range_meters":0,"station_id":"","pricing_plan_id":"cebpf4jnsgd1na2vs0mg"},{"bike_id":"01861ad8-a8d7-4be6-816e-651927c87584","system_id":"levelo_inurba_marseille","lat":43.33751,"lon":5.37456,"is_reserved":false,"is_disabled":true,"rental_uris":{"android":"levelo://app?vid=01861ad8-a8d7-4be6-816e-651927c87584","ios":"levelo://app?vid=01861ad8-a8d7-4be6-816e-651927c87584"},"vehicle_type_id":"4","last_reported":1750685240,"current_range_meters":0,"station_id":"","pricing_plan_id":"cebpf4jnsgd1na2vs0mg"},{"bike_id":"f0a1d594-9817-42ab-a8d6-aea4947e8858","system_id":"levelo_inurba_marseille","lat":43.28855,"lon":5.43441,"is_reserved":false,"is_disabled":true,"rental_uris":{"android":"levelo://app?vid=f0a1d594-9817-42ab-a8d6-aea4947e8858","ios":"levelo://app?vid=f0a1d594-9817-42ab-a8d6-aea4947e8858"},"vehicle_type_id":"4","last_reported":1750685240,"current_range_meters":0,"station_id":"","pricing_plan_id":"cebpf4jnsgd1na2vs0mg"},{"bike_id":"38fa1014-dc0c-49c9-ad0a-4ed146026865","system_id":"levelo_inurba_marseille","lat":43.21181,"lon":5.35084,"is_reserved":false,"is_disabled":true,"rental_uris":{"android":"levelo://app?vid=38fa1014-dc0c-49c9-ad0a-4ed146026865","ios":"levelo://app?vid=38fa1014-dc0c-49c9-ad0a-4ed146026865"},"vehicle_type_id":"4","last_reported":1750685240,"current_range_meters":0,"station_id":"","pricing_plan_id":"cebpf4jnsgd1na2vs0mg"},{"bike_id":"62a493c7-4534-4419-ad43-0582de34a72a","system_id":"levelo_inurba_marseille","lat":43.21366,"lon":5.355183,"is_reserved":false,"is_disabled":true,"rental_uris":{"android":"levelo://app?vid=62a493c7-4534-4419-ad43-0582de34a72a","ios":"levelo://app?vid=62a493c7-4534-4419-ad43-0582de34a72a"},"vehicle_type_id":"4","last_reported":1750685240,"current_range_meters":0,"station_id":"","pricing_plan_id":"cebpf4jnsgd1na2vs0mg"},{"bike_id":"bec97e80-f20a-4137-a561-725ff16a4b68","system_id":"levelo_inurba_marseille","lat":43.27114,"lon":5.39271,"is_reserved":false,"is_disabled":true,"rental_uris":{"android":"levelo://app?vid=bec97e80-f20a-4137-a561-725ff16a4b68","ios":"levelo://app?vid=bec97e80-f20a-4137-a561-725ff16a4b68"},"vehicle_type_id":"4","last_reported":1750685240,"current_range_meters":0,"station_id":"","pricing_plan_id":"cebpf4jnsgd1na2vs0mg"},{"bike_id":"91aba767-1cca-4550-b38f-d3b7ad9c97e6","system_id":"levelo_inurba_marseille","lat":43.28268,"lon":5.4029,"is_reserved":false,"is_disabled":true,"rental_uris":{"android":"levelo://app?vid=91aba767-1cca-4550-b38f-d3b7ad9c97e6","ios":"levelo://app?vid=91aba767-1cca-4550-b38f-d3b7ad9c97e6"},"vehicle_type_id":"4","last_reported":1750685240,"current_range_meters":0,"station_id":"","pricing_plan_id":"cebpf4jnsgd1na2vs0mg"},{"bike_id":"d6609b4f-333b-43c1-9ebe-8726f5e76e88","system_id":"levelo_inurba_marseille","lat":43.337444,"lon":5.374475,"is_reserved":false,"is_disabled":true,"rental_uris":{"android":"levelo://app?vid=d6609b4f-333b-43c1-9ebe-8726f5e76e88","ios":"levelo://app?vid=d6609b4f-333b-43c1-9ebe-8726f5e76e88"},"vehicle_type_id":"4","last_reported":1750685240,"current_range_meters":0,"station_id":"","pricing_plan_id":"cebpf4jnsgd1na2vs0mg"},{"bike_id":"88ae5b64-1dbd-48a9-b30e-c1d98d52e5a6","system_id":"levelo_inurba_marseille","lat":43.28072,"lon":5.40777,"is_reserved":false,"is_disabled":true,"rental_uris":{"android":"levelo://app?vid=88ae5b64-1dbd-48a9-b30e-c1d98d52e5a6","ios":"levelo://app?vid=88ae5b64-1dbd-48a9-b30e-c1d98d52e5a6"},"vehicle_type_id":"4","last_reported":1750685240,"current_range_meters":0,"station_id":"","pricing_plan_id":"cebpf4jnsgd1na2vs0mg"},{"bike_id":"0c86cdad-b64a-47bf-ba91-5b398064181c","system_id":"levelo_inurba_marseille","lat":43.38411,"lon":5.35853,"is_reserved":false,"is_disabled":true,"rental_uris":{"android":"levelo://app?vid=0c86cdad-b64a-47bf-ba91-5b398064181c","ios":"levelo://app?vid=0c86cdad-b64a-47bf-ba91-5b398064181c"},"vehicle_type_id":"4","last_reported":1750685240,"current_range_meters":0,"station_id":"","pricing_plan_id":"cebpf4jnsgd1na2vs0mg"},{"bike_id":"ff15d745-6ac8-40e0-93a2-547231547e82","system_id":"levelo_inurba_marseille","lat":43.31486,"lon":5.37294,"is_reserved":false,"is_disabled":true,"rental_uris":{"android":"levelo://app?vid=ff15d745-6ac8-40e0-93a2-547231547e82","ios":"levelo://app?vid=ff15d745-6ac8-40e0-93a2-547231547e82"},"vehicle_type_id":"4","last_reported":1750685240,"current_range_meters":0,"station_id":"ce4bgt12rcd13ifvqcd0","pricing_plan_id":"cebpf4jnsgd1na2vs0mg"},{"bike_id":"946b9fd8-1a18-4dde-90e7-df8c373764af","system_id":"levelo_inurba_marseille","lat":43.30923,"lon":5.4015,"is_reserved":false,"is_disabled":true,"rental_uris":{"android":"levelo://app?vid=946b9fd8-1a18-4dde-90e7-df8c373764af","ios":"levelo://app?vid=946b9fd8-1a18-4dde-90e7-df8c373764af"},"vehicle_type_id":"4","last_reported":1750685240,"current_range_meters":0,"station_id":"ce4bgvp2rcd13ifvqct0","pricing_plan_id":"cebpf4jnsgd1na2vs0mg"},{"bike_id":"7bd4414a-2d2e-4d95-b992-6c9035bc4cb6","system_id":"levelo_inurba_marseille","lat":43.2963,"lon":5.40606,"is_reserved":false,"is_disabled":true,"rental_uris":{"android":"levelo://app?vid=7bd4414a-2d2e-4d95-b992-6c9035bc4cb6","ios":"levelo://app?vid=7bd4414a-2d2e-4d95-b992-6c9035bc4cb6"},"vehicle_type_id":"4","last_reported":1750685240,"current_range_meters":0,"station_id":"ce4bh0h2rcd13ifvqd60","pricing_plan_id":"cebpf4jnsgd1na2vs0mg"},{"bike_id":"e0419d78-22b4-4ae3-b85d-3aa88ab88aab","system_id":"levelo_inurba_marseille","lat":43.29418,"lon":5.38614,"is_reserved":false,"is_disabled":true,"rental_uris":{"android":"levelo://app?vid=e0419d78-22b4-4ae3-b85d-3aa88ab88aab","ios":"levelo://app?vid=e0419d78-22b4-4ae3-b85d-3aa88ab88aab"},"vehicle_type_id":"4","last_reported":1750685240,"current_range_meters":0,"station_id":"ce4bh2h2rcd13ifvqdh0","pricing_plan_id":"cebpf4jnsgd1na2vs0mg"},{"bike_id":"b952e62d-ca24-46b9-8d38-3c1e4e9ae572","system_id":"levelo_inurba_marseille","lat":43.2867,"lon":5.38674,"is_reserved":false,"is_disabled":true,"rental_uris":{"android":"levelo://app?vid=b952e62d-ca24-46b9-8d38-3c1e4e9ae572","ios":"levelo://app?vid=b952e62d-ca24-46b9-8d38-3c1e4e9ae572"},"vehicle_type_id":"4","last_reported":1750685240,"current_range_meters":0,"station_id":"ce4bh492rcd13ifvqdug","pricing_plan_id":"cebpf4jnsgd1na2vs0mg"},{"bike_id":"2591d034-418f-4eef-befe-10284b0d351b","system_id":"levelo_inurba_marseille","lat":43.2846,"lon":5.3589,"is_reserved":false,"is_disabled":true,"rental_uris":{"android":"levelo://app?vid=2591d034-418f-4eef-befe-10284b0d351b","ios":"levelo://app?vid=2591d034-418f-4eef-befe-10284b0d351b"},"vehicle_type_id":"4","last_reported":1750685240,"current_range_meters":0,"station_id":"ce4bhah2rcd13ifvqei0","pricing_plan_id":"cebpf4jnsgd1na2vs0mg"},{"bike_id":"1fe35b8d-b07b-4cb5-a488-0c28a436e002","system_id":"levelo_inurba_marseille","lat":43.29189,"lon":5.35798,"is_reserved":false,"is_disabled":true,"rental_uris":{"android":"levelo://app?vid=1fe35b8d-b07b-4cb5-a488-0c28a436e002","ios":"levelo://app?vid=1fe35b8d-b07b-4cb5-a488-0c28a436e002"},"vehicle_type_id":"4","last_reported":1750685240,"current_range_meters":0,"station_id":"ce4bhb12rcd13ifvqel0","pricing_plan_id":"cebpf4jnsgd1na2vs0mg"},{"bike_id":"ebf92c56-7951-4439-bb96-43d4a496c5ab","system_id":"levelo_inurba_marseille","lat":43.29239,"lon":5.36068,"is_reserved":false,"is_disabled":true,"rental_uris":{"android":"levelo://app?vid=ebf92c56-7951-4439-bb96-43d4a496c5ab","ios":"levelo://app?vid=ebf92c56-7951-4439-bb96-43d4a496c5ab"},"vehicle_type_id":"4","last_reported":1750685240,"current_range_meters":0,"station_id":"ce4bhbh2rcd13ifvqeqg","pricing_plan_id":"cebpf4jnsgd1na2vs0mg"},{"bike_id":"b7f2a3ac-b416-49d2-a748-70d645d243dc","system_id":"levelo_inurba_marseille","lat":43.292714,"lon":5.368474,"is_reserved":false,"is_disabled":true,"rental_uris":{"android":"levelo://app?vid=b7f2a3ac-b416-49d2-a748-70d645d243dc","ios":"levelo://app?vid=b7f2a3ac-b416-49d2-a748-70d645d243dc"},"vehicle_type_id":"4","last_reported":1750685240,"current_range_meters":0,"station_id":"ce4bhch2rcd13ifvqeug","pricing_plan_id":"cebpf4jnsgd1na2vs0mg"},{"bike_id":"978f99f4-232b-4e96-95a2-4896f7619036","system_id":"levelo_inurba_marseille","lat":43.26196,"lon":5.37933,"is_reserved":false,"is_disabled":true,"rental_uris":{"android":"levelo://app?vid=978f99f4-232b-4e96-95a2-4896f7619036","ios":"levelo://app?vid=978f99f4-232b-4e96-95a2-4896f7619036"},"vehicle_type_id":"4","last_reported":1750685240,"current_range_meters":0,"station_id":"ce4bhjp2rcd13ifvqg90","pricing_plan_id":"cebpf4jnsgd1na2vs0mg"},{"bike_id":"d4bb8b23-784a-4522-b633-31bcb0d76eaa","system_id":"levelo_inurba_marseille","lat":43.23157,"lon":5.43717,"is_reserved":false,"is_disabled":true,"rental_uris":{"android":"levelo://app?vid=d4bb8b23-784a-4522-b633-31bcb0d76eaa","ios":"levelo://app?vid=d4bb8b23-784a-4522-b633-31bcb0d76eaa"},"vehicle_type_id":"4","last_reported":1750685240,"current_range_meters":0,"station_id":"ce4bhmp2rcd13ifvqgog","pricing_plan_id":"cebpf4jnsgd1na2vs0mg"},{"bike_id":"991e6c2c-70b3-4f0f-ab36-69f1f014e93b","system_id":"levelo_inurba_marseille","lat":43.274981,"lon":5.424486,"is_reserved":false,"is_disabled":true,"rental_uris":{"android":"levelo://app?vid=991e6c2c-70b3-4f0f-ab36-69f1f014e93b","ios":"levelo://app?vid=991e6c2c-70b3-4f0f-ab36-69f1f014e93b"},"vehicle_type_id":"4","last_reported":1750685240,"current_range_meters":0,"station_id":"ce4bhn92rcd13ifvqgrg","pricing_plan_id":"cebpf4jnsgd1na2vs0mg"},{"bike_id":"3a5e8970-91ba-4dae-b7f1-f3e0562c63a4","system_id":"levelo_inurba_marseille","lat":43.28074,"lon":5.39611,"is_reserved":false,"is_disabled":true,"rental_uris":{"android":"levelo://app?vid=3a5e8970-91ba-4dae-b7f1-f3e0562c63a4","ios":"levelo://app?vid=3a5e8970-91ba-4dae-b7f1-f3e0562c63a4"},"vehicle_type_id":"4","last_reported":1750685240,"current_range_meters":0,"station_id":"ce4bho12rcd13ifvqh2g","pricing_plan_id":"cebpf4jnsgd1na2vs0mg"},{"bike_id":"0616c89e-afdc-4d2d-8b80-7e5e208bf1a6","system_id":"levelo_inurba_marseille","lat":43.32106,"lon":5.36735,"is_reserved":false,"is_disabled":true,"rental_uris":{"android":"levelo://app?vid=0616c89e-afdc-4d2d-8b80-7e5e208bf1a6","ios":"levelo://app?vid=0616c89e-afdc-4d2d-8b80-7e5e208bf1a6"},"vehicle_type_id":"4","last_reported":1750685240,"current_range_meters":0,"station_id":"ce4bhrh2rcd13ifvqhug","pricing_plan_id":"cebpf4jnsgd1na2vs0mg"},{"bike_id":"a047edcc-ef2f-4af6-a645-2c02a585db1e","system_id":"levelo_inurba_marseille","lat":43.28624,"lon":5.37138,"is_reserved":false,"is_disabled":true,"rental_uris":{"android":"levelo://app?vid=a047edcc-ef2f-4af6-a645-2c02a585db1e","ios":"levelo://app?vid=a047edcc-ef2f-4af6-a645-2c02a585db1e"},"vehicle_type_id":"4","last_reported":1750685240,"current_range_meters":0,"station_id":"ce4bht12rcd13ifvqi60","pricing_plan_id":"cebpf4jnsgd1na2vs0mg"},{"bike_id":"e1b8d9b5-b50f-4aed-a078-14b454119d79","system_id":"levelo_inurba_marseille","lat":43.26943,"lon":5.40249,"is_reserved":false,"is_disabled":true,"rental_uris":{"android":"levelo://app?vid=e1b8d9b5-b50f-4aed-a078-14b454119d79","ios":"levelo://app?vid=e1b8d9b5-b50f-4aed-a078-14b454119d79"},"vehicle_type_id":"4","last_reported":1750685240,"current_range_meters":0,"station_id":"cjm6bp8fraef2m0cb0m0","pricing_plan_id":"cebpf4jnsgd1na2vs0mg"},{"bike_id":"c97d875c-093c-4a18-88bd-0f2c53778776","system_id":"levelo_inurba_marseille","lat":43.303947,"lon":5.409903,"is_reserved":false,"is_disabled":true,"rental_uris":{"android":"levelo://app?vid=c97d875c-093c-4a18-88bd-0f2c53778776","ios":"levelo://app?vid=c97d875c-093c-4a18-88bd-0f2c53778776"},"vehicle_type_id":"4","last_reported":1750685240,"current_range_meters":400,"station_id":"ce4bhop2rcd13ifvqh8g","pricing_plan_id":"cebpf4jnsgd1na2vs0mg"},{"bike_id":"e33d6114-e768-4962-ac07-ecceca34b693","system_id":"levelo_inurba_marseille","lat":43.25485,"lon":5.40117,"is_reserved":false,"is_disabled":true,"rental_uris":{"android":"levelo://app?vid=e33d6114-e768-4962-ac07-ecceca34b693","ios":"levelo://app?vid=e33d6114-e768-4962-ac07-ecceca34b693"},"vehicle_type_id":"4","last_reported":1750685240,"current_range_meters":800,"station_id":"","pricing_plan_id":"cebpf4jnsgd1na2vs0mg"},{"bike_id":"23150e4c-c636-4ae7-86b4-8734c95c18d1","system_id":"levelo_inurba_marseille","lat":43.287196,"lon":5.379378,"is_reserved":false,"is_disabled":true,"rental_uris":{"android":"levelo://app?vid=23150e4c-c636-4ae7-86b4-8734c95c18d1","ios":"levelo://app?vid=23150e4c-c636-4ae7-86b4-8734c95c18d1"},"vehicle_type_id":"4","last_reported":1750685240,"current_range_meters":800,"station_id":"ce4bh9p2rcd13ifvqec0","pricing_plan_id":"cebpf4jnsgd1na2vs0mg"},{"bike_id":"e48622e4-cc29-4aef-bc15-d4757cd540d9","system_id":"levelo_inurba_marseille","lat":43.27619,"lon":5.36109,"is_reserved":false,"is_disabled":true,"rental_uris":{"android":"levelo://app?vid=e48622e4-cc29-4aef-bc15-d4757cd540d9","ios":"levelo://app?vid=e48622e4-cc29-4aef-bc15-d4757cd540d9"},"vehicle_type_id":"4","last_reported":1750685240,"current_range_meters":1200,"station_id":"ce4bgj92rcd13ifvqbe0","pricing_plan_id":"cebpf4jnsgd1na2vs0mg"},{"bike_id":"0992a887-9a4b-47c8-8990-1d74b0ab1429","system_id":"levelo_inurba_marseille","lat":43.30148,"lon":5.38104,"is_reserved":false,"is_disabled":true,"rental_uris":{"android":"levelo://app?vid=0992a887-9a4b-47c8-8990-1d74b0ab1429","ios":"levelo://app?vid=0992a887-9a4b-47c8-8990-1d74b0ab1429"},"vehicle_type_id":"4","last_reported":1750685240,"current_range_meters":1200,"station_id":"ce4bgjp2rcd13ifvqbh0","pricing_plan_id":"cebpf4jnsgd1na2vs0mg"},{"bike_id":"03036203-1090-41b1-84d4-80cff50f2b9b","system_id":"levelo_inurba_marseille","lat":43.3079,"lon":5.37644,"is_reserved":false,"is_disabled":true,"rental_uris":{"android":"levelo://app?vid=03036203-1090-41b1-84d4-80cff50f2b9b","ios":"levelo://app?vid=03036203-1090-41b1-84d4-80cff50f2b9b"},"vehicle_type_id":"4","last_reported":1750685240,"current_range_meters":1200,"station_id":"ce4bgv92rcd13ifvqcq0","pricing_plan_id":"cebpf4jnsgd1na2vs0mg"},{"bike_id":"4d79361b-71f6-4786-968d-a1644f9de55c","system_id":"levelo_inurba_marseille","lat":43.31709,"lon":5.40458,"is_reserved":false,"is_disabled":true,"rental_uris":{"android":"levelo://app?vid=4d79361b-71f6-4786-968d-a1644f9de55c","ios":"levelo://app?vid=4d79361b-71f6-4786-968d-a1644f9de55c"},"vehicle_type_id":"4","last_reported":1750685240,"current_range_meters":1200,"station_id":"ce4bh012rcd13ifvqd00","pricing_plan_id":"cebpf4jnsgd1na2vs0mg"},{"bike_id":"cf5a86f2-b25a-44f6-a499-f05713ba8fdd","system_id":"levelo_inurba_marseille","lat":43.303253,"lon":5.404423,"is_reserved":false,"is_disabled":true,"rental_uris":{"android":"levelo://app?vid=cf5a86f2-b25a-44f6-a499-f05713ba8fdd","ios":"levelo://app?vid=cf5a86f2-b25a-44f6-a499-f05713ba8fdd"},"vehicle_type_id":"4","last_reported":1750685240,"current_range_meters":1200,"station_id":"ce4bh012rcd13ifvqd10","pricing_plan_id":"cebpf4jnsgd1na2vs0mg"},{"bike_id":"65aaedbf-2f45-420c-b077-fa8db9c7b977","system_id":"levelo_inurba_marseille","lat":43.29624,"lon":5.40596,"is_reserved":false,"is_disabled":true,"rental_uris":{"android":"levelo://app?vid=65aaedbf-2f45-420c-b077-fa8db9c7b977","ios":"levelo://app?vid=65aaedbf-2f45-420c-b077-fa8db9c7b977"},"vehicle_type_id":"4","last_reported":1750685240,"current_range_meters":1200,"station_id":"ce4bh0h2rcd13ifvqd60","pricing_plan_id":"cebpf4jnsgd1na2vs0mg"},{"bike_id":"bfd53c03-9694-41fe-a68a-cbd938491491","system_id":"levelo_inurba_marseille","lat":43.29199,"lon":5.358,"is_reserved":false,"is_disabled":true,"rental_uris":{"android":"levelo://app?vid=bfd53c03-9694-41fe-a68a-cbd938491491","ios":"levelo://app?vid=bfd53c03-9694-41fe-a68a-cbd938491491"},"vehicle_type_id":"4","last_reported":1750685240,"current_range_meters":1200,"station_id":"ce4bhb12rcd13ifvqel0","pricing_plan_id":"cebpf4jnsgd1na2vs0mg"},{"bike_id":"43067514-fffa-4a3f-8279-ad3888c53599","system_id":"levelo_inurba_marseille","lat":43.26182,"lon":5.37453,"is_reserved":false,"is_disabled":true,"rental_uris":{"android":"levelo://app?vid=43067514-fffa-4a3f-8279-ad3888c53599","ios":"levelo://app?vid=43067514-fffa-4a3f-8279-ad3888c53599"},"vehicle_type_id":"4","last_reported":1750685240,"current_range_meters":1200,"station_id":"ce4bhgp2rcd13ifvqfc0","pricing_plan_id":"cebpf4jnsgd1na2vs0mg"},{"bike_id":"e22cbff1-4e87-4c4c-8bf0-b2014b6f8f8c","system_id":"levelo_inurba_marseille","lat":43.24552,"lon":5.39537,"is_reserved":false,"is_disabled":true,"rental_uris":{"android":"levelo://app?vid=e22cbff1-4e87-4c4c-8bf0-b2014b6f8f8c","ios":"levelo://app?vid=e22cbff1-4e87-4c4c-8bf0-b2014b6f8f8c"},"vehicle_type_id":"4","last_reported":1750685240,"current_range_meters":1600,"station_id":"ce4bhlp2rcd13ifvqgjg","pricing_plan_id":"cebpf4jnsgd1na2vs0mg"},{"bike_id":"295275bf-db04-45bf-906f-a13c904fa3a2","system_id":"levelo_inurba_marseille","lat":43.33606,"lon":5.41033,"is_reserved":false,"is_disabled":true,"rental_uris":{"android":"levelo://app?vid=295275bf-db04-45bf-906f-a13c904fa3a2","ios":"levelo://app?vid=295275bf-db04-45bf-906f-a13c904fa3a2"},"vehicle_type_id":"4","last_reported":1750685240,"current_range_meters":1600,"station_id":"ce4bhqh2rcd13ifvqhmg","pricing_plan_id":"cebpf4jnsgd1na2vs0mg"},{"bike_id":"693a8a22-51c8-4768-a3d3-0421de4d6068","system_id":"levelo_inurba_marseille","lat":43.33718,"lon":5.391855,"is_reserved":false,"is_disabled":true,"rental_uris":{"android":"levelo://app?vid=693a8a22-51c8-4768-a3d3-0421de4d6068","ios":"levelo://app?vid=693a8a22-51c8-4768-a3d3-0421de4d6068"},"vehicle_type_id":"4","last_reported":1750685240,"current_range_meters":1600,"station_id":"ce4bhr92rcd13ifvqhsg","pricing_plan_id":"cebpf4jnsgd1na2vs0mg"},{"bike_id":"ceda4b53-04ec-4389-bf19-3e0d7283974a","system_id":"levelo_inurba_marseille","lat":43.29525,"lon":5.39402,"is_reserved":false,"is_disabled":true,"rental_uris":{"android":"levelo://app?vid=ceda4b53-04ec-4389-bf19-3e0d7283974a","ios":"levelo://app?vid=ceda4b53-04ec-4389-bf19-3e0d7283974a"},"vehicle_type_id":"4","last_reported":1750685240,"current_range_meters":2000,"station_id":"ce4bh292rcd13ifvqdf0","pricing_plan_id":"cebpf4jnsgd1na2vs0mg"},{"bike_id":"5f81f26d-d335-4588-97f5-61227593589e","system_id":"levelo_inurba_marseille","lat":43.29029,"lon":5.37577,"is_reserved":false,"is_disabled":true,"rental_uris":{"android":"levelo://app?vid=5f81f26d-d335-4588-97f5-61227593589e","ios":"levelo://app?vid=5f81f26d-d335-4588-97f5-61227593589e"},"vehicle_type_id":"4","last_reported":1750685240,"current_range_meters":2000,"station_id":"ce4bh692rcd13ifvqe90","pricing_plan_id":"cebpf4jnsgd1na2vs0mg"},{"bike_id":"0a9bfb1b-37c3-42f1-b15d-61e620b5b15b","system_id":"levelo_inurba_marseille","lat":43.29674,"lon":5.37288,"is_reserved":false,"is_disabled":false,"rental_uris":{"android":"levelo://app?vid=0a9bfb1b-37c3-42f1-b15d-61e620b5b15b","ios":"levelo://app?vid=0a9bfb1b-37c3-42f1-b15d-61e620b5b15b"},"vehicle_type_id":"4","last_reported":1750685240,"current_range_meters":2800,"station_id":"ce4bgk12rcd13ifvqbj0","pricing_plan_id":"cebpf4jnsgd1na2vs0mg"},{"bike_id":"a099336f-a2e1-41e0-a361-fb284edb4248","system_id":"levelo_inurba_marseille","lat":43.30935,"lon":5.40143,"is_reserved":false,"is_disabled":false,"rental_uris":{"android":"levelo://app?vid=a099336f-a2e1-41e0-a361-fb284edb4248","ios":"levelo://app?vid=a099336f-a2e1-41e0-a361-fb284edb4248"},"vehicle_type_id":"4","last_reported":1750685240,"current_range_meters":2800,"station_id":"ce4bgvp2rcd13ifvqct0","pricing_plan_id":"cebpf4jnsgd1na2vs0mg"},{"bike_id":"735e680d-dafb-4a31-8d84-f616aef2e994","system_id":"levelo_inurba_marseille","lat":43.29895,"lon":5.43648,"is_reserved":false,"is_disabled":false,"rental_uris":{"android":"levelo://app?vid=735e680d-dafb-4a31-8d84-f616aef2e994","ios":"levelo://app?vid=735e680d-dafb-4a31-8d84-f616aef2e994"},"vehicle_type_id":"4","last_reported":1750685240,"current_range_meters":2800,"station_id":"ce4bhpp2rcd13ifvqhfg","pricing_plan_id":"cebpf4jnsgd1na2vs0mg"},{"bike_id":"bc982420-423e-4ad8-9171-068e5de85af8","system_id":"levelo_inurba_marseille","lat":43.2918,"lon":5.37914,"is_reserved":false,"is_disabled":false,"rental_uris":{"android":"levelo://app?vid=bc982420-423e-4ad8-9171-068e5de85af8","ios":"levelo://app?vid=bc982420-423e-4ad8-9171-068e5de85af8"},"vehicle_type_id":"4","last_reported":1750685240,"current_range_meters":3200,"station_id":"","pricing_plan_id":"cebpf4jnsgd1na2vs0mg"},{"bike_id":"e5eca828-0de4-4be7-9a09-024e18335ad1","system_id":"levelo_inurba_marseille","lat":43.284614,"lon":5.358851,"is_reserved":false,"is_disabled":false,"rental_uris":{"android":"levelo://app?vid=e5eca828-0de4-4be7-9a09-024e18335ad1","ios":"levelo://app?vid=e5eca828-0de4-4be7-9a09-024e18335ad1"},"vehicle_type_id":"4","last_reported":1750685240,"current_range_meters":3200,"station_id":"ce4bgop2rcd13ifvqc1g","pricing_plan_id":"cebpf4jnsgd1na2vs0mg"},{"bike_id":"07bf7765-3be6-4dbc-a58f-12c2079fb9b0","system_id":"levelo_inurba_marseille","lat":43.30919,"lon":5.40135,"is_reserved":false,"is_disabled":false,"rental_uris":{"android":"levelo://app?vid=07bf7765-3be6-4dbc-a58f-12c2079fb9b0","ios":"levelo://app?vid=07bf7765-3be6-4dbc-a58f-12c2079fb9b0"},"vehicle_type_id":"4","last_reported":1750685240,"current_range_meters":3200,"station_id":"ce4bgvp2rcd13ifvqct0","pricing_plan_id":"cebpf4jnsgd1na2vs0mg"},{"bike_id":"6831b330-b9be-44f0-a104-731b743fc700","system_id":"levelo_inurba_marseille","lat":43.31888,"lon":5.40748,"is_reserved":false,"is_disabled":false,"rental_uris":{"android":"levelo://app?vid=6831b330-b9be-44f0-a104-731b743fc700","ios":"levelo://app?vid=6831b330-b9be-44f0-a104-731b743fc700"},"vehicle_type_id":"4","last_reported":1750685240,"current_range_meters":3200,"station_id":"ce4bhq12rcd13ifvqhig","pricing_plan_id":"cebpf4jnsgd1na2vs0mg"},{"bike_id":"a66f85b3-f692-41aa-98b6-3f97b9a3f52d","system_id":"levelo_inurba_marseille","lat":43.2281,"lon":5.34914,"is_reserved":false,"is_disabled":false,"rental_uris":{"android":"levelo://app?vid=a66f85b3-f692-41aa-98b6-3f97b9a3f52d","ios":"levelo://app?vid=a66f85b3-f692-41aa-98b6-3f97b9a3f52d"},"vehicle_type_id":"4","last_reported":1750685240,"current_range_meters":3600,"station_id":"","pricing_plan_id":"cebpf4jnsgd1na2vs0mg"},{"bike_id":"315d89df-fb8c-40e9-bd02-a7881e6f4613","system_id":"levelo_inurba_marseille","lat":43.29204,"lon":5.4003,"is_reserved":false,"is_disabled":false,"rental_uris":{"android":"levelo://app?vid=315d89df-fb8c-40e9-bd02-a7881e6f4613","ios":"levelo://app?vid=315d89df-fb8c-40e9-bd02-a7881e6f4613"},"vehicle_type_id":"4","last_reported":1750685240,"current_range_meters":3600,"station_id":"","pricing_plan_id":"cebpf4jnsgd1na2vs0mg"},{"bike_id":"b31c0edc-3edd-434c-a5d8-19c7da0a35ac","system_id":"levelo_inurba_marseille","lat":43.31351,"lon":5.36723,"is_reserved":false,"is_disabled":false,"rental_uris":{"android":"levelo://app?vid=b31c0edc-3edd-434c-a5d8-19c7da0a35ac","ios":"levelo://app?vid=b31c0edc-3edd-434c-a5d8-19c7da0a35ac"},"vehicle_type_id":"4","last_reported":1750685240,"current_range_meters":3600,"station_id":"ce4bgr92rcd13ifvqc6g","pricing_plan_id":"cebpf4jnsgd1na2vs0mg"},{"bike_id":"0ccd24b7-588b-4acd-b1f4-59a71facf9e8","system_id":"levelo_inurba_marseille","lat":43.25294,"lon":5.40433,"is_reserved":false,"is_disabled":false,"rental_uris":{"android":"levelo://app?vid=0ccd24b7-588b-4acd-b1f4-59a71facf9e8","ios":"levelo://app?vid=0ccd24b7-588b-4acd-b1f4-59a71facf9e8"},"vehicle_type_id":"4","last_reported":1750685240,"current_range_meters":4000,"station_id":"","pricing_plan_id":"cebpf4jnsgd1na2vs0mg"},{"bike_id":"060d8a4f-e07f-42ee-9f19-5cdcfe4ef32f","system_id":"levelo_inurba_marseille","lat":43.28472,"lon":5.38418,"is_reserved":false,"is_disabled":false,"rental_uris":{"android":"levelo://app?vid=060d8a4f-e07f-42ee-9f19-5cdcfe4ef32f","ios":"levelo://app?vid=060d8a4f-e07f-42ee-9f19-5cdcfe4ef32f"},"vehicle_type_id":"4","last_reported":1750685240,"current_range_meters":4000,"station_id":"ce4bh512rcd13ifvqe3g","pricing_plan_id":"cebpf4jnsgd1na2vs0mg"},{"bike_id":"af083798-bc4b-4062-ad30-85f3839ea586","system_id":"levelo_inurba_marseille","lat":43.27311,"lon":5.39079,"is_reserved":false,"is_disabled":false,"rental_uris":{"android":"levelo://app?vid=af083798-bc4b-4062-ad30-85f3839ea586","ios":"levelo://app?vid=af083798-bc4b-4062-ad30-85f3839ea586"},"vehicle_type_id":"4","last_reported":1750685240,"current_range_meters":4000,"station_id":"ce4bhgp2rcd13ifvqfe0","pricing_plan_id":"cebpf4jnsgd1na2vs0mg"},{"bike_id":"f702cb72-a78a-4ea4-84d8-f9dfa3ac7096","system_id":"levelo_inurba_marseille","lat":43.24662,"lon":5.38168,"is_reserved":false,"is_disabled":false,"rental_uris":{"android":"levelo://app?vid=f702cb72-a78a-4ea4-84d8-f9dfa3ac7096","ios":"levelo://app?vid=f702cb72-a78a-4ea4-84d8-f9dfa3ac7096"},"vehicle_type_id":"4","last_reported":1750685240,"current_range_meters":4000,"station_id":"ce4bhih2rcd13ifvqfr0","pricing_plan_id":"cebpf4jnsgd1na2vs0mg"},{"bike_id":"8bd4135d-bc67-4b0f-9552-013b64de7d6a","system_id":"levelo_inurba_marseille","lat":43.3265,"lon":5.40991,"is_reserved":false,"is_disabled":false,"rental_uris":{"android":"levelo://app?vid=8bd4135d-bc67-4b0f-9552-013b64de7d6a","ios":"levelo://app?vid=8bd4135d-bc67-4b0f-9552-013b64de7d6a"},"vehicle_type_id":"4","last_reported":1750685240,"current_range_meters":4000,"station_id":"ce4bhpp2rcd13ifvqhgg","pricing_plan_id":"cebpf4jnsgd1na2vs0mg"},{"bike_id":"4126ce43-20fb-4b05-b274-a053038f743c","system_id":"levelo_inurba_marseille","lat":43.29905,"lon":5.38143,"is_reserved":false,"is_disabled":false,"rental_uris":{"android":"levelo://app?vid=4126ce43-20fb-4b05-b274-a053038f743c","ios":"levelo://app?vid=4126ce43-20fb-4b05-b274-a053038f743c"},"vehicle_type_id":"4","last_reported":1750685240,"current_range_meters":4400,"station_id":"ce4bgj12rcd13ifvqbc0","pricing_plan_id":"cebpf4jnsgd1na2vs0mg"},{"bike_id":"449516d1-8888-4d15-937a-1417e9db72b9","system_id":"levelo_inurba_marseille","lat":43.23057,"lon":5.355,"is_reserved":false,"is_disabled":false,"rental_uris":{"android":"levelo://app?vid=449516d1-8888-4d15-937a-1417e9db72b9","ios":"levelo://app?vid=449516d1-8888-4d15-937a-1417e9db72b9"},"vehicle_type_id":"4","last_reported":1750685240,"current_range_meters":4400,"station_id":"cpo3342slgdg3j2ifvpg","pricing_plan_id":"cebpf4jnsgd1na2vs0mg"},{"bike_id":"cbbf71b5-6569-4e9b-ba90-3ac2da187ffd","system_id":"levelo_inurba_marseille","lat":43.280424,"lon":5.350901,"is_reserved":false,"is_disabled":false,"rental_uris":{"android":"levelo://app?vid=cbbf71b5-6569-4e9b-ba90-3ac2da187ffd","ios":"levelo://app?vid=cbbf71b5-6569-4e9b-ba90-3ac2da187ffd"},"vehicle_type_id":"4","last_reported":1750685240,"current_range_meters":4800,"station_id":"","pricing_plan_id":"cebpf4jnsgd1na2vs0mg"},{"bike_id":"0503e1d2-ec4f-4cb3-9ea6-e4f3eb558d3e","system_id":"levelo_inurba_marseille","lat":43.29942,"lon":5.36957,"is_reserved":false,"is_disabled":false,"rental_uris":{"android":"levelo://app?vid=0503e1d2-ec4f-4cb3-9ea6-e4f3eb558d3e","ios":"levelo://app?vid=0503e1d2-ec4f-4cb3-9ea6-e4f3eb558d3e"},"vehicle_type_id":"4","last_reported":1750685240,"current_range_meters":4800,"station_id":"","pricing_plan_id":"cebpf4jnsgd1na2vs0mg"},{"bike_id":"3d07ef76-af52-42e0-81f1-5f4963c9ee29","system_id":"levelo_inurba_marseille","lat":43.294819,"lon":5.438418,"is_reserved":false,"is_disabled":false,"rental_uris":{"android":"levelo://app?vid=3d07ef76-af52-42e0-81f1-5f4963c9ee29","ios":"levelo://app?vid=3d07ef76-af52-42e0-81f1-5f4963c9ee29"},"vehicle_type_id":"4","last_reported":1750685240,"current_range_meters":4800,"station_id":"","pricing_plan_id":"cebpf4jnsgd1na2vs0mg"},{"bike_id":"dccaea0b-7ce5-4262-8499-1962b1b5577a","system_id":"levelo_inurba_marseille","lat":43.29303,"lon":5.37468,"is_reserved":false,"is_disabled":false,"rental_uris":{"android":"levelo://app?vid=dccaea0b-7ce5-4262-8499-1962b1b5577a","ios":"levelo://app?vid=dccaea0b-7ce5-4262-8499-1962b1b5577a"},"vehicle_type_id":"4","last_reported":1750685240,"current_range_meters":4800,"station_id":"ce4bgi12rcd13ifvqb70","pricing_plan_id":"cebpf4jnsgd1na2vs0mg"},{"bike_id":"823460ec-d62c-4abf-be73-caa27f3841e0","system_id":"levelo_inurba_marseille","lat":43.23159,"lon":5.43716,"is_reserved":false,"is_disabled":false,"rental_uris":{"android":"levelo://app?vid=823460ec-d62c-4abf-be73-caa27f3841e0","ios":"levelo://app?vid=823460ec-d62c-4abf-be73-caa27f3841e0"},"vehicle_type_id":"4","last_reported":1750685240,"current_range_meters":4800,"station_id":"ce4bhmp2rcd13ifvqgog","pricing_plan_id":"cebpf4jnsgd1na2vs0mg"},{"bike_id":"630f8999-75f2-4bd7-be7d-c638428aac04","system_id":"levelo_inurba_marseille","lat":43.28458,"lon":5.35893,"is_reserved":false,"is_disabled":false,"rental_uris":{"android":"levelo://app?vid=630f8999-75f2-4bd7-be7d-c638428aac04","ios":"levelo://app?vid=630f8999-75f2-4bd7-be7d-c638428aac04"},"vehicle_type_id":"4","last_reported":1750685240,"current_range_meters":5600,"station_id":"ce4bhah2rcd13ifvqei0","pricing_plan_id":"cebpf4jnsgd1na2vs0mg"},{"bike_id":"1123acd7-294d-4246-84c5-724ebfd8d156","system_id":"levelo_inurba_marseille","lat":43.24169,"lon":5.36399,"is_reserved":false,"is_disabled":false,"rental_uris":{"android":"levelo://app?vid=1123acd7-294d-4246-84c5-724ebfd8d156","ios":"levelo://app?vid=1123acd7-294d-4246-84c5-724ebfd8d156"},"vehicle_type_id":"4","last_reported":1750685240,"current_range_meters":5600,"station_id":"cpo36qri1sfpv3e86is0","pricing_plan_id":"cebpf4jnsgd1na2vs0mg"},{"bike_id":"b7036bc1-c072-4f36-9c66-21ff695540f4","system_id":"levelo_inurba_marseille","lat":43.24687,"lon":5.39428,"is_reserved":false,"is_disabled":false,"rental_uris":{"android":"levelo://app?vid=b7036bc1-c072-4f36-9c66-21ff695540f4","ios":"levelo://app?vid=b7036bc1-c072-4f36-9c66-21ff695540f4"},"vehicle_type_id":"4","last_reported":1750685240,"current_range_meters":6000,"station_id":"","pricing_plan_id":"cebpf4jnsgd1na2vs0mg"},{"bike_id":"ecc231bb-d1d4-431a-8e27-8e17cdfdda03","system_id":"levelo_inurba_marseille","lat":43.30886,"lon":5.39633,"is_reserved":false,"is_disabled":false,"rental_uris":{"android":"levelo://app?vid=ecc231bb-d1d4-431a-8e27-8e17cdfdda03","ios":"levelo://app?vid=ecc231bb-d1d4-431a-8e27-8e17cdfdda03"},"vehicle_type_id":"4","last_reported":1750685240,"current_range_meters":6000,"station_id":"ce4bh012rcd13ifvqcv0","pricing_plan_id":"cebpf4jnsgd1na2vs0mg"},{"bike_id":"1464280c-6387-482d-8190-9dfb09020b12","system_id":"levelo_inurba_marseille","lat":43.2866,"lon":5.36361,"is_reserved":false,"is_disabled":false,"rental_uris":{"android":"levelo://app?vid=1464280c-6387-482d-8190-9dfb09020b12","ios":"levelo://app?vid=1464280c-6387-482d-8190-9dfb09020b12"},"vehicle_type_id":"4","last_reported":1750685240,"current_range_meters":6000,"station_id":"ce4bhah2rcd13ifvqej0","pricing_plan_id":"cebpf4jnsgd1na2vs0mg"},{"bike_id":"d1c0eb41-c0c7-4a84-9e1a-4cefd4f8beca","system_id":"levelo_inurba_marseille","lat":43.26558,"lon":5.37296,"is_reserved":false,"is_disabled":false,"rental_uris":{"android":"levelo://app?vid=d1c0eb41-c0c7-4a84-9e1a-4cefd4f8beca","ios":"levelo://app?vid=d1c0eb41-c0c7-4a84-9e1a-4cefd4f8beca"},"vehicle_type_id":"4","last_reported":1750685240,"current_range_meters":6000,"station_id":"ce4bhg12rcd13ifvqf70","pricing_plan_id":"cebpf4jnsgd1na2vs0mg"},{"bike_id":"bc8c737d-7e19-417d-a80a-2319d52f4a50","system_id":"levelo_inurba_marseille","lat":43.27314,"lon":5.39082,"is_reserved":false,"is_disabled":false,"rental_uris":{"android":"levelo://app?vid=bc8c737d-7e19-417d-a80a-2319d52f4a50","ios":"levelo://app?vid=bc8c737d-7e19-417d-a80a-2319d52f4a50"},"vehicle_type_id":"4","last_reported":1750685240,"current_range_meters":6000,"station_id":"ce4bhgp2rcd13ifvqfe0","pricing_plan_id":"cebpf4jnsgd1na2vs0mg"},{"bike_id":"5369396c-b729-4ea5-97e4-8e79832c5d86","system_id":"levelo_inurba_marseille","lat":43.25724,"lon":5.4113,"is_reserved":false,"is_disabled":false,"rental_uris":{"android":"levelo://app?vid=5369396c-b729-4ea5-97e4-8e79832c5d86","ios":"levelo://app?vid=5369396c-b729-4ea5-97e4-8e79832c5d86"},"vehicle_type_id":"4","last_reported":1750685240,"current_range_meters":6000,"station_id":"ce4bhkp2rcd13ifvqgd0","pricing_plan_id":"cebpf4jnsgd1na2vs0mg"},{"bike_id":"4e359c52-fc82-4956-b3dd-a3d7ea82b38e","system_id":"levelo_inurba_marseille","lat":43.32103,"lon":5.36772,"is_reserved":false,"is_disabled":false,"rental_uris":{"android":"levelo://app?vid=4e359c52-fc82-4956-b3dd-a3d7ea82b38e","ios":"levelo://app?vid=4e359c52-fc82-4956-b3dd-a3d7ea82b38e"},"vehicle_type_id":"4","last_reported":1750685240,"current_range_meters":6000,"station_id":"ce4bhrh2rcd13ifvqhug","pricing_plan_id":"cebpf4jnsgd1na2vs0mg"},{"bike_id":"f3ca9422-cd2f-4a9b-a328-5cc2f8371373","system_id":"levelo_inurba_marseille","lat":43.31346,"lon":5.36832,"is_reserved":false,"is_disabled":false,"rental_uris":{"android":"levelo://app?vid=f3ca9422-cd2f-4a9b-a328-5cc2f8371373","ios":"levelo://app?vid=f3ca9422-cd2f-4a9b-a328-5cc2f8371373"},"vehicle_type_id":"4","last_reported":1750685240,"current_range_meters":6400,"station_id":"","pricing_plan_id":"cebpf4jnsgd1na2vs0mg"},{"bike_id":"b65c803d-b128-4081-89d0-3438efc1c1dc","system_id":"levelo_inurba_marseille","lat":43.31237,"lon":5.36842,"is_reserved":false,"is_disabled":false,"rental_uris":{"android":"levelo://app?vid=b65c803d-b128-4081-89d0-3438efc1c1dc","ios":"levelo://app?vid=b65c803d-b128-4081-89d0-3438efc1c1dc"},"vehicle_type_id":"4","last_reported":1750685240,"current_range_meters":6400,"station_id":"ce4bgl92rcd13ifvqbq0","pricing_plan_id":"cebpf4jnsgd1na2vs0mg"},{"bike_id":"840fab37-d0af-467e-8313-2fc700c0a493","system_id":"levelo_inurba_marseille","lat":43.2849,"lon":5.38571,"is_reserved":false,"is_disabled":false,"rental_uris":{"android":"levelo://app?vid=840fab37-d0af-467e-8313-2fc700c0a493","ios":"levelo://app?vid=840fab37-d0af-467e-8313-2fc700c0a493"},"vehicle_type_id":"4","last_reported":1750685240,"current_range_meters":6400,"station_id":"ce4bh8p2rcd13ifvqeb0","pricing_plan_id":"cebpf4jnsgd1na2vs0mg"},{"bike_id":"e00116b5-29ba-45d1-b032-69dbad09bbba","system_id":"levelo_inurba_marseille","lat":43.298994,"lon":5.43666,"is_reserved":false,"is_disabled":false,"rental_uris":{"android":"levelo://app?vid=e00116b5-29ba-45d1-b032-69dbad09bbba","ios":"levelo://app?vid=e00116b5-29ba-45d1-b032-69dbad09bbba"},"vehicle_type_id":"4","last_reported":1750685240,"current_range_meters":6400,"station_id":"ce4bhpp2rcd13ifvqhfg","pricing_plan_id":"cebpf4jnsgd1na2vs0mg"},{"bike_id":"e672c7ab-9539-485a-b360-1e12bbab178b","system_id":"levelo_inurba_marseille","lat":43.30335,"lon":5.43505,"is_reserved":false,"is_disabled":false,"rental_uris":{"android":"levelo://app?vid=e672c7ab-9539-485a-b360-1e12bbab178b","ios":"levelo://app?vid=e672c7ab-9539-485a-b360-1e12bbab178b"},"vehicle_type_id":"4","last_reported":1750685240,"current_range_meters":6800,"station_id":"","pricing_plan_id":"cebpf4jnsgd1na2vs0mg"},{"bike_id":"2f20e2c6-bc30-42d2-9f93-01aaacad1eb3","system_id":"levelo_inurba_marseille","lat":43.27389,"lon":5.41915,"is_reserved":false,"is_disabled":false,"rental_uris":{"android":"levelo://app?vid=2f20e2c6-bc30-42d2-9f93-01aaacad1eb3","ios":"levelo://app?vid=2f20e2c6-bc30-42d2-9f93-01aaacad1eb3"},"vehicle_type_id":"4","last_reported":1750685240,"current_range_meters":6800,"station_id":"","pricing_plan_id":"cebpf4jnsgd1na2vs0mg"},{"bike_id":"9ed3438c-7a5c-4d5e-b403-2e1a7e914996","system_id":"levelo_inurba_marseille","lat":43.29303,"lon":5.37469,"is_reserved":false,"is_disabled":false,"rental_uris":{"android":"levelo://app?vid=9ed3438c-7a5c-4d5e-b403-2e1a7e914996","ios":"levelo://app?vid=9ed3438c-7a5c-4d5e-b403-2e1a7e914996"},"vehicle_type_id":"4","last_reported":1750685240,"current_range_meters":6800,"station_id":"ce4bgi12rcd13ifvqb70","pricing_plan_id":"cebpf4jnsgd1na2vs0mg"},{"bike_id":"779cac0e-c172-4ba6-9263-d5b989533934","system_id":"levelo_inurba_marseille","lat":43.30644,"lon":5.40072,"is_reserved":false,"is_disabled":false,"rental_uris":{"android":"levelo://app?vid=779cac0e-c172-4ba6-9263-d5b989533934","ios":"levelo://app?vid=779cac0e-c172-4ba6-9263-d5b989533934"},"vehicle_type_id":"4","last_reported":1750685240,"current_range_meters":6800,"station_id":"ce4bh112rcd13ifvqda0","pricing_plan_id":"cebpf4jnsgd1na2vs0mg"},{"bike_id":"509d4b50-d696-4492-91f9-7952322ce1ef","system_id":"levelo_inurba_marseille","lat":43.26487,"lon":5.39557,"is_reserved":false,"is_disabled":false,"rental_uris":{"android":"levelo://app?vid=509d4b50-d696-4492-91f9-7952322ce1ef","ios":"levelo://app?vid=509d4b50-d696-4492-91f9-7952322ce1ef"},"vehicle_type_id":"4","last_reported":1750685240,"current_range_meters":6800,"station_id":"ce4bhi12rcd13ifvqfq0","pricing_plan_id":"cebpf4jnsgd1na2vs0mg"},{"bike_id":"efab422b-adc2-479b-82ba-7c4158a4c74e","system_id":"levelo_inurba_marseille","lat":43.24071,"lon":5.37765,"is_reserved":false,"is_disabled":false,"rental_uris":{"android":"levelo://app?vid=efab422b-adc2-479b-82ba-7c4158a4c74e","ios":"levelo://app?vid=efab422b-adc2-479b-82ba-7c4158a4c74e"},"vehicle_type_id":"4","last_reported":1750685240,"current_range_meters":6800,"station_id":"ce4bhnp2rcd13ifvqgvg","pricing_plan_id":"cebpf4jnsgd1na2vs0mg"},{"bike_id":"2732cc42-69c3-447e-a99b-baedc39a619e","system_id":"levelo_inurba_marseille","lat":43.32337,"lon":5.40604,"is_reserved":false,"is_disabled":false,"rental_uris":{"android":"levelo://app?vid=2732cc42-69c3-447e-a99b-baedc39a619e","ios":"levelo://app?vid=2732cc42-69c3-447e-a99b-baedc39a619e"},"vehicle_type_id":"4","last_reported":1750685240,"current_range_meters":6800,"station_id":"ce4bhq92rcd13ifvqhjg","pricing_plan_id":"cebpf4jnsgd1na2vs0mg"},{"bike_id":"2918bcfc-3ae7-4e90-b1ca-239f9a284a9c","system_id":"levelo_inurba_marseille","lat":43.30525,"lon":5.39377,"is_reserved":false,"is_disabled":false,"rental_uris":{"android":"levelo://app?vid=2918bcfc-3ae7-4e90-b1ca-239f9a284a9c","ios":"levelo://app?vid=2918bcfc-3ae7-4e90-b1ca-239f9a284a9c"},"vehicle_type_id":"4","last_reported":1750685240,"current_range_meters":7200,"station_id":"","pricing_plan_id":"cebpf4jnsgd1na2vs0mg"},{"bike_id":"c4bb3d8c-e652-4456-9703-753775c5a910","system_id":"levelo_inurba_marseille","lat":43.28482,"lon":5.38423,"is_reserved":false,"is_disabled":false,"rental_uris":{"android":"levelo://app?vid=c4bb3d8c-e652-4456-9703-753775c5a910","ios":"levelo://app?vid=c4bb3d8c-e652-4456-9703-753775c5a910"},"vehicle_type_id":"4","last_reported":1750685240,"current_range_meters":7200,"station_id":"ce4bh512rcd13ifvqe3g","pricing_plan_id":"cebpf4jnsgd1na2vs0mg"},{"bike_id":"bc154c26-bb3b-4607-8c6e-c6073494abba","system_id":"levelo_inurba_marseille","lat":43.31716,"lon":5.43709,"is_reserved":false,"is_disabled":false,"rental_uris":{"android":"levelo://app?vid=bc154c26-bb3b-4607-8c6e-c6073494abba","ios":"levelo://app?vid=bc154c26-bb3b-4607-8c6e-c6073494abba"},"vehicle_type_id":"4","last_reported":1750685240,"current_range_meters":7200,"station_id":"ce4bhp92rcd13ifvqhcg","pricing_plan_id":"cebpf4jnsgd1na2vs0mg"},{"bike_id":"390bd475-fb91-417c-90cc-e6ca5256b008","system_id":"levelo_inurba_marseille","lat":43.31318,"lon":5.36875,"is_reserved":false,"is_disabled":false,"rental_uris":{"android":"levelo://app?vid=390bd475-fb91-417c-90cc-e6ca5256b008","ios":"levelo://app?vid=390bd475-fb91-417c-90cc-e6ca5256b008"},"vehicle_type_id":"4","last_reported":1750685240,"current_range_meters":8000,"station_id":"","pricing_plan_id":"cebpf4jnsgd1na2vs0mg"},{"bike_id":"b0338cdb-8951-4b08-9f00-89ffd5c7a17b","system_id":"levelo_inurba_marseille","lat":43.27628,"lon":5.36129,"is_reserved":false,"is_disabled":false,"rental_uris":{"android":"levelo://app?vid=b0338cdb-8951-4b08-9f00-89ffd5c7a17b","ios":"levelo://app?vid=b0338cdb-8951-4b08-9f00-89ffd5c7a17b"},"vehicle_type_id":"4","last_reported":1750685240,"current_range_meters":8000,"station_id":"ce4bgj92rcd13ifvqbe0","pricing_plan_id":"cebpf4jnsgd1na2vs0mg"},{"bike_id":"355c4a4a-8b09-4ba5-b11f-2281dd590b63","system_id":"levelo_inurba_marseille","lat":43.337444,"lon":5.374475,"is_reserved":false,"is_disabled":false,"rental_uris":{"android":"levelo://app?vid=355c4a4a-8b09-4ba5-b11f-2281dd590b63","ios":"levelo://app?vid=355c4a4a-8b09-4ba5-b11f-2281dd590b63"},"vehicle_type_id":"4","last_reported":1750685240,"current_range_meters":8000,"station_id":"ce4bho12rcd13ifvqh2g","pricing_plan_id":"cebpf4jnsgd1na2vs0mg"},{"bike_id":"f66a6e34-c553-4ffc-a010-eca73da9f571","system_id":"levelo_inurba_marseille","lat":43.280354,"lon":5.399176,"is_reserved":false,"is_disabled":false,"rental_uris":{"android":"levelo://app?vid=f66a6e34-c553-4ffc-a010-eca73da9f571","ios":"levelo://app?vid=f66a6e34-c553-4ffc-a010-eca73da9f571"},"vehicle_type_id":"4","last_reported":1750685240,"current_range_meters":8400,"station_id":"","pricing_plan_id":"cebpf4jnsgd1na2vs0mg"},{"bike_id":"081b1a84-c6dc-4ecf-b346-aa7626929f35","system_id":"levelo_inurba_marseille","lat":43.30434,"lon":5.38888,"is_reserved":false,"is_disabled":false,"rental_uris":{"android":"levelo://app?vid=081b1a84-c6dc-4ecf-b346-aa7626929f35","ios":"levelo://app?vid=081b1a84-c6dc-4ecf-b346-aa7626929f35"},"vehicle_type_id":"4","last_reported":1750685240,"current_range_meters":8400,"station_id":"ce4bgk12rcd13ifvqbi0","pricing_plan_id":"cebpf4jnsgd1na2vs0mg"},{"bike_id":"5f021c4c-b410-4502-9276-0c6bf9e4e8e2","system_id":"levelo_inurba_marseille","lat":43.28474,"lon":5.38572,"is_reserved":false,"is_disabled":false,"rental_uris":{"android":"levelo://app?vid=5f021c4c-b410-4502-9276-0c6bf9e4e8e2","ios":"levelo://app?vid=5f021c4c-b410-4502-9276-0c6bf9e4e8e2"},"vehicle_type_id":"4","last_reported":1750685240,"current_range_meters":8400,"station_id":"ce4bh8p2rcd13ifvqeb0","pricing_plan_id":"cebpf4jnsgd1na2vs0mg"},{"bike_id":"2cf44482-c2e9-4399-a95b-5342854cd1d9","system_id":"levelo_inurba_marseille","lat":43.3362,"lon":5.41018,"is_reserved":false,"is_disabled":false,"rental_uris":{"android":"levelo://app?vid=2cf44482-c2e9-4399-a95b-5342854cd1d9","ios":"levelo://app?vid=2cf44482-c2e9-4399-a95b-5342854cd1d9"},"vehicle_type_id":"4","last_reported":1750685240,"current_range_meters":8400,"station_id":"ce4bhqh2rcd13ifvqhmg","pricing_plan_id":"cebpf4jnsgd1na2vs0mg"},{"bike_id":"8c6de0c1-9eaf-4c18-8155-d956789067ae","system_id":"levelo_inurba_marseille","lat":43.27929,"lon":5.44301,"is_reserved":false,"is_disabled":false,"rental_uris":{"android":"levelo://app?vid=8c6de0c1-9eaf-4c18-8155-d956789067ae","ios":"levelo://app?vid=8c6de0c1-9eaf-4c18-8155-d956789067ae"},"vehicle_type_id":"4","last_reported":1750685240,"current_range_meters":8800,"station_id":"","pricing_plan_id":"cebpf4jnsgd1na2vs0mg"},{"bike_id":"a9e5e555-fdaf-49c0-b286-f0f2659b17d0","system_id":"levelo_inurba_marseille","lat":43.283214,"lon":5.432279,"is_reserved":false,"is_disabled":false,"rental_uris":{"android":"levelo://app?vid=a9e5e555-fdaf-49c0-b286-f0f2659b17d0","ios":"levelo://app?vid=a9e5e555-fdaf-49c0-b286-f0f2659b17d0"},"vehicle_type_id":"4","last_reported":1750685240,"current_range_meters":8800,"station_id":"","pricing_plan_id":"cebpf4jnsgd1na2vs0mg"},{"bike_id":"00db048b-f3ac-4711-917a-c59681faac25","system_id":"levelo_inurba_marseille","lat":43.29907,"lon":5.374657,"is_reserved":false,"is_disabled":false,"rental_uris":{"android":"levelo://app?vid=00db048b-f3ac-4711-917a-c59681faac25","ios":"levelo://app?vid=00db048b-f3ac-4711-917a-c59681faac25"},"vehicle_type_id":"4","last_reported":1750685240,"current_range_meters":8800,"station_id":"ce4bgjh2rcd13ifvqbg0","pricing_plan_id":"cebpf4jnsgd1na2vs0mg"},{"bike_id":"382b9a95-f3b1-4fd5-b5a6-c1592a424222","system_id":"levelo_inurba_marseille","lat":43.29708,"lon":5.36606,"is_reserved":false,"is_disabled":false,"rental_uris":{"android":"levelo://app?vid=382b9a95-f3b1-4fd5-b5a6-c1592a424222","ios":"levelo://app?vid=382b9a95-f3b1-4fd5-b5a6-c1592a424222"},"vehicle_type_id":"4","last_reported":1750685240,"current_range_meters":8800,"station_id":"ce4bgn12rcd13ifvqbt0","pricing_plan_id":"cebpf4jnsgd1na2vs0mg"},{"bike_id":"36d056a8-6c51-458f-b527-f9fdb7d27303","system_id":"levelo_inurba_marseille","lat":43.30541,"lon":5.36543,"is_reserved":false,"is_disabled":false,"rental_uris":{"android":"levelo://app?vid=36d056a8-6c51-458f-b527-f9fdb7d27303","ios":"levelo://app?vid=36d056a8-6c51-458f-b527-f9fdb7d27303"},"vehicle_type_id":"4","last_reported":1750685240,"current_range_meters":8800,"station_id":"ce4bgs12rcd13ifvqcag","pricing_plan_id":"cebpf4jnsgd1na2vs0mg"},{"bike_id":"ba7eb6ca-dfd7-4862-9592-1370fd2e0237","system_id":"levelo_inurba_marseille","lat":43.29005,"lon":5.35612,"is_reserved":false,"is_disabled":false,"rental_uris":{"android":"levelo://app?vid=ba7eb6ca-dfd7-4862-9592-1370fd2e0237","ios":"levelo://app?vid=ba7eb6ca-dfd7-4862-9592-1370fd2e0237"},"vehicle_type_id":"4","last_reported":1750685240,"current_range_meters":8800,"station_id":"ce4bhb92rcd13ifvqen0","pricing_plan_id":"cebpf4jnsgd1na2vs0mg"},{"bike_id":"a4ca7261-1065-47a6-aec6-7eb09cb24844","system_id":"levelo_inurba_marseille","lat":43.25493,"lon":5.37649,"is_reserved":false,"is_disabled":false,"rental_uris":{"android":"levelo://app?vid=a4ca7261-1065-47a6-aec6-7eb09cb24844","ios":"levelo://app?vid=a4ca7261-1065-47a6-aec6-7eb09cb24844"},"vehicle_type_id":"4","last_reported":1750685240,"current_range_meters":8800,"station_id":"ce4bhh12rcd13ifvqff0","pricing_plan_id":"cebpf4jnsgd1na2vs0mg"},{"bike_id":"8d197929-9fd5-4312-a5f7-b6d7fc6475a8","system_id":"levelo_inurba_marseille","lat":43.23544,"lon":5.36047,"is_reserved":false,"is_disabled":false,"rental_uris":{"android":"levelo://app?vid=8d197929-9fd5-4312-a5f7-b6d7fc6475a8","ios":"levelo://app?vid=8d197929-9fd5-4312-a5f7-b6d7fc6475a8"},"vehicle_type_id":"4","last_reported":1750685240,"current_range_meters":9200,"station_id":"","pricing_plan_id":"cebpf4jnsgd1na2vs0mg"},{"bike_id":"3a28251d-0250-4373-b769-a417e43f09f1","system_id":"levelo_inurba_marseille","lat":43.30546,"lon":5.36504,"is_reserved":false,"is_disabled":false,"rental_uris":{"android":"levelo://app?vid=3a28251d-0250-4373-b769-a417e43f09f1","ios":"levelo://app?vid=3a28251d-0250-4373-b769-a417e43f09f1"},"vehicle_type_id":"4","last_reported":1750685240,"current_range_meters":9200,"station_id":"","pricing_plan_id":"cebpf4jnsgd1na2vs0mg"},{"bike_id":"8ce8f9e4-a75b-4ada-b28b-582786b94197","system_id":"levelo_inurba_marseille","lat":43.2987,"lon":5.37665,"is_reserved":false,"is_disabled":false,"rental_uris":{"android":"levelo://app?vid=8ce8f9e4-a75b-4ada-b28b-582786b94197","ios":"levelo://app?vid=8ce8f9e4-a75b-4ada-b28b-582786b94197"},"vehicle_type_id":"4","last_reported":1750685240,"current_range_meters":9200,"station_id":"","pricing_plan_id":"cebpf4jnsgd1na2vs0mg"},{"bike_id":"c35f1469-6975-4dfe-932a-86edbe01a878","system_id":"levelo_inurba_marseille","lat":43.29199,"lon":5.37532,"is_reserved":false,"is_disabled":false,"rental_uris":{"android":"levelo://app?vid=c35f1469-6975-4dfe-932a-86edbe01a878","ios":"levelo://app?vid=c35f1469-6975-4dfe-932a-86edbe01a878"},"vehicle_type_id":"4","last_reported":1750685240,"current_range_meters":9200,"station_id":"","pricing_plan_id":"cebpf4jnsgd1na2vs0mg"},{"bike_id":"0d85428d-9e2a-4b5c-b5b5-81efb9c627b7","system_id":"levelo_inurba_marseille","lat":43.31243,"lon":5.36854,"is_reserved":false,"is_disabled":false,"rental_uris":{"android":"levelo://app?vid=0d85428d-9e2a-4b5c-b5b5-81efb9c627b7","ios":"levelo://app?vid=0d85428d-9e2a-4b5c-b5b5-81efb9c627b7"},"vehicle_type_id":"4","last_reported":1750685240,"current_range_meters":9200,"station_id":"ce4bgl92rcd13ifvqbq0","pricing_plan_id":"cebpf4jnsgd1na2vs0mg"},{"bike_id":"e583696a-868d-4576-a288-dcf678e45501","system_id":"levelo_inurba_marseille","lat":43.24389,"lon":5.3706,"is_reserved":false,"is_disabled":false,"rental_uris":{"android":"levelo://app?vid=e583696a-868d-4576-a288-dcf678e45501","ios":"levelo://app?vid=e583696a-868d-4576-a288-dcf678e45501"},"vehicle_type_id":"4","last_reported":1750685240,"current_range_meters":9200,"station_id":"ce4bhhh2rcd13ifvqfk0","pricing_plan_id":"cebpf4jnsgd1na2vs0mg"},{"bike_id":"13920610-105c-40f8-a4a7-1e8529941564","system_id":"levelo_inurba_marseille","lat":43.25922,"lon":5.4093,"is_reserved":false,"is_disabled":false,"rental_uris":{"android":"levelo://app?vid=13920610-105c-40f8-a4a7-1e8529941564","ios":"levelo://app?vid=13920610-105c-40f8-a4a7-1e8529941564"},"vehicle_type_id":"4","last_reported":1750685240,"current_range_meters":9200,"station_id":"ce4bhm92rcd13ifvqglg","pricing_plan_id":"cebpf4jnsgd1na2vs0mg"},{"bike_id":"f10e38ce-c08a-4001-873a-ec3e8846285a","system_id":"levelo_inurba_marseille","lat":43.32905,"lon":5.38035,"is_reserved":false,"is_disabled":false,"rental_uris":{"android":"levelo://app?vid=f10e38ce-c08a-4001-873a-ec3e8846285a","ios":"levelo://app?vid=f10e38ce-c08a-4001-873a-ec3e8846285a"},"vehicle_type_id":"4","last_reported":1750685240,"current_range_meters":9600,"station_id":"","pricing_plan_id":"cebpf4jnsgd1na2vs0mg"},{"bike_id":"e9df2788-bf21-4a38-9e4d-09a55bcf10da","system_id":"levelo_inurba_marseille","lat":43.30144,"lon":5.37412,"is_reserved":false,"is_disabled":false,"rental_uris":{"android":"levelo://app?vid=e9df2788-bf21-4a38-9e4d-09a55bcf10da","ios":"levelo://app?vid=e9df2788-bf21-4a38-9e4d-09a55bcf10da"},"vehicle_type_id":"4","last_reported":1750685240,"current_range_meters":9600,"station_id":"ce4bgs92rcd13ifvqcc0","pricing_plan_id":"cebpf4jnsgd1na2vs0mg"},{"bike_id":"d0355270-d04c-4910-acd5-96415de64e67","system_id":"levelo_inurba_marseille","lat":43.33766,"lon":5.39232,"is_reserved":false,"is_disabled":false,"rental_uris":{"android":"levelo://app?vid=d0355270-d04c-4910-acd5-96415de64e67","ios":"levelo://app?vid=d0355270-d04c-4910-acd5-96415de64e67"},"vehicle_type_id":"4","last_reported":1750685240,"current_range_meters":9600,"station_id":"ce4bhr92rcd13ifvqhsg","pricing_plan_id":"cebpf4jnsgd1na2vs0mg"},{"bike_id":"008ac6e0-b1cf-4c53-9fc8-3bdb2303addb","system_id":"levelo_inurba_marseille","lat":43.29075,"lon":5.39044,"is_reserved":false,"is_disabled":false,"rental_uris":{"android":"levelo://app?vid=008ac6e0-b1cf-4c53-9fc8-3bdb2303addb","ios":"levelo://app?vid=008ac6e0-b1cf-4c53-9fc8-3bdb2303addb"},"vehicle_type_id":"4","last_reported":1750685240,"current_range_meters":10000,"station_id":"","pricing_plan_id":"cebpf4jnsgd1na2vs0mg"},{"bike_id":"18c8f8e2-2e30-457f-896b-6458233f3410","system_id":"levelo_inurba_marseille","lat":43.299337,"lon":5.365367,"is_reserved":false,"is_disabled":false,"rental_uris":{"android":"levelo://app?vid=18c8f8e2-2e30-457f-896b-6458233f3410","ios":"levelo://app?vid=18c8f8e2-2e30-457f-896b-6458233f3410"},"vehicle_type_id":"4","last_reported":1750685240,"current_range_meters":10000,"station_id":"ce4bgm92rcd13ifvqbr0","pricing_plan_id":"cebpf4jnsgd1na2vs0mg"},{"bike_id":"5eea2c24-8486-481d-927b-6104f4cf795c","system_id":"levelo_inurba_marseille","lat":43.30892,"lon":5.39643,"is_reserved":false,"is_disabled":false,"rental_uris":{"android":"levelo://app?vid=5eea2c24-8486-481d-927b-6104f4cf795c","ios":"levelo://app?vid=5eea2c24-8486-481d-927b-6104f4cf795c"},"vehicle_type_id":"4","last_reported":1750685240,"current_range_meters":10000,"station_id":"ce4bh012rcd13ifvqcv0","pricing_plan_id":"cebpf4jnsgd1na2vs0mg"},{"bike_id":"40c7e2cb-7437-479f-877f-3882fdf03a01","system_id":"levelo_inurba_marseille","lat":43.28015,"lon":5.3694,"is_reserved":false,"is_disabled":false,"rental_uris":{"android":"levelo://app?vid=40c7e2cb-7437-479f-877f-3882fdf03a01","ios":"levelo://app?vid=40c7e2cb-7437-479f-877f-3882fdf03a01"},"vehicle_type_id":"4","last_reported":1750685240,"current_range_meters":10000,"station_id":"ce4bha12rcd13ifvqef0","pricing_plan_id":"cebpf4jnsgd1na2vs0mg"},{"bike_id":"55b6c2dc-b7db-476c-b842-cecfcf0069df","system_id":"levelo_inurba_marseille","lat":43.26552,"lon":5.37291,"is_reserved":false,"is_disabled":false,"rental_uris":{"android":"levelo://app?vid=55b6c2dc-b7db-476c-b842-cecfcf0069df","ios":"levelo://app?vid=55b6c2dc-b7db-476c-b842-cecfcf0069df"},"vehicle_type_id":"4","last_reported":1750685240,"current_range_meters":10000,"station_id":"ce4bhg12rcd13ifvqf70","pricing_plan_id":"cebpf4jnsgd1na2vs0mg"},{"bike_id":"ebe7f221-44c9-42e5-afb1-9c52cc40414f","system_id":"levelo_inurba_marseille","lat":43.3236,"lon":5.36765,"is_reserved":false,"is_disabled":false,"rental_uris":{"android":"levelo://app?vid=ebe7f221-44c9-42e5-afb1-9c52cc40414f","ios":"levelo://app?vid=ebe7f221-44c9-42e5-afb1-9c52cc40414f"},"vehicle_type_id":"4","last_reported":1750685240,"current_range_meters":10000,"station_id":"ce4bhsh2rcd13ifvqi2g","pricing_plan_id":"cebpf4jnsgd1na2vs0mg"},{"bike_id":"a81bb845-3c69-4e60-b96a-9ec7765d8b44","system_id":"levelo_inurba_marseille","lat":43.31386,"lon":5.3668,"is_reserved":false,"is_disabled":false,"rental_uris":{"android":"levelo://app?vid=a81bb845-3c69-4e60-b96a-9ec7765d8b44","ios":"levelo://app?vid=a81bb845-3c69-4e60-b96a-9ec7765d8b44"},"vehicle_type_id":"4","last_reported":1750685240,"current_range_meters":10800,"station_id":"","pricing_plan_id":"cebpf4jnsgd1na2vs0mg"},{"bike_id":"70764641-799a-4261-99bd-903918c1b74a","system_id":"levelo_inurba_marseille","lat":43.32874,"lon":5.38351,"is_reserved":false,"is_disabled":false,"rental_uris":{"android":"levelo://app?vid=70764641-799a-4261-99bd-903918c1b74a","ios":"levelo://app?vid=70764641-799a-4261-99bd-903918c1b74a"},"vehicle_type_id":"4","last_reported":1750685240,"current_range_meters":10800,"station_id":"","pricing_plan_id":"cebpf4jnsgd1na2vs0mg"},{"bike_id":"7a199cb4-e4e2-4dbb-ade8-b8c4353b9dcc","system_id":"levelo_inurba_marseille","lat":43.29006,"lon":5.35615,"is_reserved":false,"is_disabled":false,"rental_uris":{"android":"levelo://app?vid=7a199cb4-e4e2-4dbb-ade8-b8c4353b9dcc","ios":"levelo://app?vid=7a199cb4-e4e2-4dbb-ade8-b8c4353b9dcc"},"vehicle_type_id":"4","last_reported":1750685240,"current_range_meters":10800,"station_id":"ce4bhb92rcd13ifvqen0","pricing_plan_id":"cebpf4jnsgd1na2vs0mg"},{"bike_id":"e03f78e3-dded-4a89-98c7-1d65891a6b64","system_id":"levelo_inurba_marseille","lat":43.2826,"lon":5.35061,"is_reserved":false,"is_disabled":false,"rental_uris":{"android":"levelo://app?vid=e03f78e3-dded-4a89-98c7-1d65891a6b64","ios":"levelo://app?vid=e03f78e3-dded-4a89-98c7-1d65891a6b64"},"vehicle_type_id":"4","last_reported":1750685240,"current_range_meters":10800,"station_id":"ce4bhbp2rcd13ifvqerg","pricing_plan_id":"cebpf4jnsgd1na2vs0mg"},{"bike_id":"0ac24836-1209-412c-b20f-55d51ce07651","system_id":"levelo_inurba_marseille","lat":43.30793,"lon":5.43528,"is_reserved":false,"is_disabled":false,"rental_uris":{"android":"levelo://app?vid=0ac24836-1209-412c-b20f-55d51ce07651","ios":"levelo://app?vid=0ac24836-1209-412c-b20f-55d51ce07651"},"vehicle_type_id":"4","last_reported":1750685240,"current_range_meters":10800,"station_id":"ce4bhph2rcd13ifvqheg","pricing_plan_id":"cebpf4jnsgd1na2vs0mg"},{"bike_id":"cd74af28-79fa-44d7-bfb3-a63961abcf07","system_id":"levelo_inurba_marseille","lat":43.34134,"lon":5.4091,"is_reserved":false,"is_disabled":false,"rental_uris":{"android":"levelo://app?vid=cd74af28-79fa-44d7-bfb3-a63961abcf07","ios":"levelo://app?vid=cd74af28-79fa-44d7-bfb3-a63961abcf07"},"vehicle_type_id":"4","last_reported":1750685240,"current_range_meters":10800,"station_id":"ce4bhqh2rcd13ifvqhlg","pricing_plan_id":"cebpf4jnsgd1na2vs0mg"},{"bike_id":"23ed33e6-e9b9-4ba1-b728-ad5f21a64a04","system_id":"levelo_inurba_marseille","lat":43.28727,"lon":5.36078,"is_reserved":false,"is_disabled":false,"rental_uris":{"android":"levelo://app?vid=23ed33e6-e9b9-4ba1-b728-ad5f21a64a04","ios":"levelo://app?vid=23ed33e6-e9b9-4ba1-b728-ad5f21a64a04"},"vehicle_type_id":"4","last_reported":1750685240,"current_range_meters":10800,"station_id":"cki0cbj6b192h4jlfktg","pricing_plan_id":"cebpf4jnsgd1na2vs0mg"},{"bike_id":"b121b815-4832-48cb-be5c-48bedc9fea93","system_id":"levelo_inurba_marseille","lat":43.25678,"lon":5.40986,"is_reserved":false,"is_disabled":false,"rental_uris":{"android":"levelo://app?vid=b121b815-4832-48cb-be5c-48bedc9fea93","ios":"levelo://app?vid=b121b815-4832-48cb-be5c-48bedc9fea93"},"vehicle_type_id":"4","last_reported":1750685240,"current_range_meters":11200,"station_id":"","pricing_plan_id":"cebpf4jnsgd1na2vs0mg"},{"bike_id":"d23e481f-e5ef-4301-917a-0ba9143a96c6","system_id":"levelo_inurba_marseille","lat":43.30143,"lon":5.38102,"is_reserved":false,"is_disabled":false,"rental_uris":{"android":"levelo://app?vid=d23e481f-e5ef-4301-917a-0ba9143a96c6","ios":"levelo://app?vid=d23e481f-e5ef-4301-917a-0ba9143a96c6"},"vehicle_type_id":"4","last_reported":1750685240,"current_range_meters":11200,"station_id":"ce4bgjp2rcd13ifvqbh0","pricing_plan_id":"cebpf4jnsgd1na2vs0mg"},{"bike_id":"7900a0d2-9b48-4e73-babf-ae76a2ccdc24","system_id":"levelo_inurba_marseille","lat":43.300163,"lon":5.380746,"is_reserved":false,"is_disabled":false,"rental_uris":{"android":"levelo://app?vid=7900a0d2-9b48-4e73-babf-ae76a2ccdc24","ios":"levelo://app?vid=7900a0d2-9b48-4e73-babf-ae76a2ccdc24"},"vehicle_type_id":"4","last_reported":1750685240,"current_range_meters":11200,"station_id":"ce4bgjp2rcd13ifvqbh0","pricing_plan_id":"cebpf4jnsgd1na2vs0mg"},{"bike_id":"f8a02294-8e0d-4d97-ae2a-06c75a50f461","system_id":"levelo_inurba_marseille","lat":43.29012,"lon":5.37545,"is_reserved":false,"is_disabled":false,"rental_uris":{"android":"levelo://app?vid=f8a02294-8e0d-4d97-ae2a-06c75a50f461","ios":"levelo://app?vid=f8a02294-8e0d-4d97-ae2a-06c75a50f461"},"vehicle_type_id":"4","last_reported":1750685240,"current_range_meters":11200,"station_id":"ce4bh692rcd13ifvqe90","pricing_plan_id":"cebpf4jnsgd1na2vs0mg"},{"bike_id":"7bcb5c0f-2e10-40f3-a3d4-1a69fa0c94d9","system_id":"levelo_inurba_marseille","lat":43.24408,"lon":5.37101,"is_reserved":false,"is_disabled":false,"rental_uris":{"android":"levelo://app?vid=7bcb5c0f-2e10-40f3-a3d4-1a69fa0c94d9","ios":"levelo://app?vid=7bcb5c0f-2e10-40f3-a3d4-1a69fa0c94d9"},"vehicle_type_id":"4","last_reported":1750685240,"current_range_meters":11200,"station_id":"ce4bhhh2rcd13ifvqfk0","pricing_plan_id":"cebpf4jnsgd1na2vs0mg"},{"bike_id":"66f943d8-9eae-4657-b66f-697b45638bfe","system_id":"levelo_inurba_marseille","lat":43.32109,"lon":5.36776,"is_reserved":false,"is_disabled":false,"rental_uris":{"android":"levelo://app?vid=66f943d8-9eae-4657-b66f-697b45638bfe","ios":"levelo://app?vid=66f943d8-9eae-4657-b66f-697b45638bfe"},"vehicle_type_id":"4","last_reported":1750685240,"current_range_meters":11200,"station_id":"ce4bhrh2rcd13ifvqhug","pricing_plan_id":"cebpf4jnsgd1na2vs0mg"},{"bike_id":"bacc9864-06f7-4e1c-b403-88c23eeb6d09","system_id":"levelo_inurba_marseille","lat":43.31339,"lon":5.36732,"is_reserved":false,"is_disabled":false,"rental_uris":{"android":"levelo://app?vid=bacc9864-06f7-4e1c-b403-88c23eeb6d09","ios":"levelo://app?vid=bacc9864-06f7-4e1c-b403-88c23eeb6d09"},"vehicle_type_id":"4","last_reported":1750685240,"current_range_meters":11600,"station_id":"ce4bgr92rcd13ifvqc6g","pricing_plan_id":"cebpf4jnsgd1na2vs0mg"},{"bike_id":"0d40ed47-d109-4073-938d-5d33f3029c54","system_id":"levelo_inurba_marseille","lat":43.24803,"lon":5.37456,"is_reserved":false,"is_disabled":false,"rental_uris":{"android":"levelo://app?vid=0d40ed47-d109-4073-938d-5d33f3029c54","ios":"levelo://app?vid=0d40ed47-d109-4073-938d-5d33f3029c54"},"vehicle_type_id":"4","last_reported":1750685240,"current_range_meters":11600,"station_id":"ce4bhgh2rcd13ifvqfb0","pricing_plan_id":"cebpf4jnsgd1na2vs0mg"},{"bike_id":"dcb881bc-3243-46bf-9708-9904614a9a14","system_id":"levelo_inurba_marseille","lat":43.323547,"lon":5.367431,"is_reserved":false,"is_disabled":false,"rental_uris":{"android":"levelo://app?vid=dcb881bc-3243-46bf-9708-9904614a9a14","ios":"levelo://app?vid=dcb881bc-3243-46bf-9708-9904614a9a14"},"vehicle_type_id":"4","last_reported":1750685240,"current_range_meters":11600,"station_id":"ce4bhsh2rcd13ifvqi2g","pricing_plan_id":"cebpf4jnsgd1na2vs0mg"},{"bike_id":"c903e63d-2b4e-468e-bdbb-44bc2c3ee4be","system_id":"levelo_inurba_marseille","lat":43.21189,"lon":5.350716,"is_reserved":false,"is_disabled":false,"rental_uris":{"android":"levelo://app?vid=c903e63d-2b4e-468e-bdbb-44bc2c3ee4be","ios":"levelo://app?vid=c903e63d-2b4e-468e-bdbb-44bc2c3ee4be"},"vehicle_type_id":"4","last_reported":1750685240,"current_range_meters":11600,"station_id":"st_cvj6sg6p6f1abm77japg","pricing_plan_id":"cebpf4jnsgd1na2vs0mg"},{"bike_id":"127e8dd1-70f3-474e-a3c1-3c0567aa9db3","system_id":"levelo_inurba_marseille","lat":43.273712,"lon":5.362442,"is_reserved":false,"is_disabled":false,"rental_uris":{"android":"levelo://app?vid=127e8dd1-70f3-474e-a3c1-3c0567aa9db3","ios":"levelo://app?vid=127e8dd1-70f3-474e-a3c1-3c0567aa9db3"},"vehicle_type_id":"4","last_reported":1750685240,"current_range_meters":12000,"station_id":"ce4bhgh2rcd13ifvqfa0","pricing_plan_id":"cebpf4jnsgd1na2vs0mg"},{"bike_id":"d606b68e-a14b-4ebe-b111-95fd76911565","system_id":"levelo_inurba_marseille","lat":43.25118,"lon":5.40316,"is_reserved":false,"is_disabled":false,"rental_uris":{"android":"levelo://app?vid=d606b68e-a14b-4ebe-b111-95fd76911565","ios":"levelo://app?vid=d606b68e-a14b-4ebe-b111-95fd76911565"},"vehicle_type_id":"4","last_reported":1750685240,"current_range_meters":12000,"station_id":"ce4bhlh2rcd13ifvqgig","pricing_plan_id":"cebpf4jnsgd1na2vs0mg"},{"bike_id":"c42ba187-385b-448c-a57d-2e9d9f4f3c6d","system_id":"levelo_inurba_marseille","lat":43.337444,"lon":5.374475,"is_reserved":false,"is_disabled":false,"rental_uris":{"android":"levelo://app?vid=c42ba187-385b-448c-a57d-2e9d9f4f3c6d","ios":"levelo://app?vid=c42ba187-385b-448c-a57d-2e9d9f4f3c6d"},"vehicle_type_id":"4","last_reported":1750685240,"current_range_meters":12000,"station_id":"ce4bho12rcd13ifvqh2g","pricing_plan_id":"cebpf4jnsgd1na2vs0mg"},{"bike_id":"1e0c60e1-43c3-4b9b-9446-e89ae26c50bd","system_id":"levelo_inurba_marseille","lat":43.31335,"lon":5.367204,"is_reserved":false,"is_disabled":false,"rental_uris":{"android":"levelo://app?vid=1e0c60e1-43c3-4b9b-9446-e89ae26c50bd","ios":"levelo://app?vid=1e0c60e1-43c3-4b9b-9446-e89ae26c50bd"},"vehicle_type_id":"4","last_reported":1750685240,"current_range_meters":12400,"station_id":"ce4bgr92rcd13ifvqc6g","pricing_plan_id":"cebpf4jnsgd1na2vs0mg"},{"bike_id":"acee760c-d2a0-4570-b73e-88daf4c9d5e6","system_id":"levelo_inurba_marseille","lat":43.30547,"lon":5.36563,"is_reserved":false,"is_disabled":false,"rental_uris":{"android":"levelo://app?vid=acee760c-d2a0-4570-b73e-88daf4c9d5e6","ios":"levelo://app?vid=acee760c-d2a0-4570-b73e-88daf4c9d5e6"},"vehicle_type_id":"4","last_reported":1750685240,"current_range_meters":12400,"station_id":"ce4bgs12rcd13ifvqcag","pricing_plan_id":"cebpf4jnsgd1na2vs0mg"},{"bike_id":"bf6fd1ce-91a2-4279-bbce-b64661176b1f","system_id":"levelo_inurba_marseille","lat":43.30895,"lon":5.39664,"is_reserved":false,"is_disabled":false,"rental_uris":{"android":"levelo://app?vid=bf6fd1ce-91a2-4279-bbce-b64661176b1f","ios":"levelo://app?vid=bf6fd1ce-91a2-4279-bbce-b64661176b1f"},"vehicle_type_id":"4","last_reported":1750685240,"current_range_meters":12400,"station_id":"ce4bh012rcd13ifvqcv0","pricing_plan_id":"cebpf4jnsgd1na2vs0mg"},{"bike_id":"20edd357-1a20-4822-bf7e-269a5d8ade39","system_id":"levelo_inurba_marseille","lat":43.28033,"lon":5.36957,"is_reserved":false,"is_disabled":false,"rental_uris":{"android":"levelo://app?vid=20edd357-1a20-4822-bf7e-269a5d8ade39","ios":"levelo://app?vid=20edd357-1a20-4822-bf7e-269a5d8ade39"},"vehicle_type_id":"4","last_reported":1750685240,"current_range_meters":12400,"station_id":"ce4bha12rcd13ifvqef0","pricing_plan_id":"cebpf4jnsgd1na2vs0mg"},{"bike_id":"5245cb35-296b-4fbb-9bc6-da138b58a1e4","system_id":"levelo_inurba_marseille","lat":43.28462,"lon":5.35889,"is_reserved":false,"is_disabled":false,"rental_uris":{"android":"levelo://app?vid=5245cb35-296b-4fbb-9bc6-da138b58a1e4","ios":"levelo://app?vid=5245cb35-296b-4fbb-9bc6-da138b58a1e4"},"vehicle_type_id":"4","last_reported":1750685240,"current_range_meters":12400,"station_id":"ce4bhah2rcd13ifvqei0","pricing_plan_id":"cebpf4jnsgd1na2vs0mg"},{"bike_id":"9a92f04c-8580-45e6-8177-eef468f86f11","system_id":"levelo_inurba_marseille","lat":43.32373,"lon":5.36778,"is_reserved":false,"is_disabled":false,"rental_uris":{"android":"levelo://app?vid=9a92f04c-8580-45e6-8177-eef468f86f11","ios":"levelo://app?vid=9a92f04c-8580-45e6-8177-eef468f86f11"},"vehicle_type_id":"4","last_reported":1750685240,"current_range_meters":12400,"station_id":"ce4bhsh2rcd13ifvqi2g","pricing_plan_id":"cebpf4jnsgd1na2vs0mg"},{"bike_id":"723f5d56-ac33-4c94-8bb8-ee4c6dc93f60","system_id":"levelo_inurba_marseille","lat":43.22955,"lon":5.35389,"is_reserved":false,"is_disabled":false,"rental_uris":{"android":"levelo://app?vid=723f5d56-ac33-4c94-8bb8-ee4c6dc93f60","ios":"levelo://app?vid=723f5d56-ac33-4c94-8bb8-ee4c6dc93f60"},"vehicle_type_id":"4","last_reported":1750685240,"current_range_meters":12400,"station_id":"cpo3532slgdg3j2ikp40","pricing_plan_id":"cebpf4jnsgd1na2vs0mg"},{"bike_id":"10f43113-4549-4c9b-a795-fcdc915e0b3d","system_id":"levelo_inurba_marseille","lat":43.24168,"lon":5.36395,"is_reserved":false,"is_disabled":false,"rental_uris":{"android":"levelo://app?vid=10f43113-4549-4c9b-a795-fcdc915e0b3d","ios":"levelo://app?vid=10f43113-4549-4c9b-a795-fcdc915e0b3d"},"vehicle_type_id":"4","last_reported":1750685240,"current_range_meters":12400,"station_id":"cpo36qri1sfpv3e86is0","pricing_plan_id":"cebpf4jnsgd1na2vs0mg"},{"bike_id":"67d3ea8c-b74b-4f74-a1da-3a599371ada7","system_id":"levelo_inurba_marseille","lat":43.333653,"lon":5.365916,"is_reserved":false,"is_disabled":false,"rental_uris":{"android":"levelo://app?vid=67d3ea8c-b74b-4f74-a1da-3a599371ada7","ios":"levelo://app?vid=67d3ea8c-b74b-4f74-a1da-3a599371ada7"},"vehicle_type_id":"4","last_reported":1750685240,"current_range_meters":12800,"station_id":"ce4bhrh2rcd13ifvqhug","pricing_plan_id":"cebpf4jnsgd1na2vs0mg"},{"bike_id":"3052f7b2-bb91-4a81-836f-18d703055e04","system_id":"levelo_inurba_marseille","lat":43.2174,"lon":5.34576,"is_reserved":false,"is_disabled":false,"rental_uris":{"android":"levelo://app?vid=3052f7b2-bb91-4a81-836f-18d703055e04","ios":"levelo://app?vid=3052f7b2-bb91-4a81-836f-18d703055e04"},"vehicle_type_id":"4","last_reported":1750685240,"current_range_meters":12800,"station_id":"st_cvj6r9ubvosntc0bgbag","pricing_plan_id":"cebpf4jnsgd1na2vs0mg"},{"bike_id":"a5836382-ce2b-4ca4-a2aa-fbcfec520f5d","system_id":"levelo_inurba_marseille","lat":43.21764,"lon":5.34625,"is_reserved":false,"is_disabled":false,"rental_uris":{"android":"levelo://app?vid=a5836382-ce2b-4ca4-a2aa-fbcfec520f5d","ios":"levelo://app?vid=a5836382-ce2b-4ca4-a2aa-fbcfec520f5d"},"vehicle_type_id":"4","last_reported":1750685240,"current_range_meters":12800,"station_id":"st_cvj6r9ubvosntc0bgbag","pricing_plan_id":"cebpf4jnsgd1na2vs0mg"},{"bike_id":"95b4b8cd-78ef-42ce-923d-fbf1e3614703","system_id":"levelo_inurba_marseille","lat":43.29559,"lon":5.39695,"is_reserved":false,"is_disabled":false,"rental_uris":{"android":"levelo://app?vid=95b4b8cd-78ef-42ce-923d-fbf1e3614703","ios":"levelo://app?vid=95b4b8cd-78ef-42ce-923d-fbf1e3614703"},"vehicle_type_id":"4","last_reported":1750685240,"current_range_meters":13600,"station_id":"","pricing_plan_id":"cebpf4jnsgd1na2vs0mg"},{"bike_id":"99eb6325-7d0b-4d67-aed0-dbeba611320b","system_id":"levelo_inurba_marseille","lat":43.283749,"lon":5.349145,"is_reserved":false,"is_disabled":false,"rental_uris":{"android":"levelo://app?vid=99eb6325-7d0b-4d67-aed0-dbeba611320b","ios":"levelo://app?vid=99eb6325-7d0b-4d67-aed0-dbeba611320b"},"vehicle_type_id":"4","last_reported":1750685240,"current_range_meters":13600,"station_id":"ce4bhbh2rcd13ifvqepg","pricing_plan_id":"cebpf4jnsgd1na2vs0mg"},{"bike_id":"fc85cb26-9e39-40ec-bef0-69051a3080ce","system_id":"levelo_inurba_marseille","lat":43.299365,"lon":5.365348,"is_reserved":false,"is_disabled":false,"rental_uris":{"android":"levelo://app?vid=fc85cb26-9e39-40ec-bef0-69051a3080ce","ios":"levelo://app?vid=fc85cb26-9e39-40ec-bef0-69051a3080ce"},"vehicle_type_id":"4","last_reported":1750685240,"current_range_meters":14000,"station_id":"ce4bgm92rcd13ifvqbr0","pricing_plan_id":"cebpf4jnsgd1na2vs0mg"},{"bike_id":"c20b32c9-6284-416b-8186-fff0285236b1","system_id":"levelo_inurba_marseille","lat":43.28851,"lon":5.35851,"is_reserved":false,"is_disabled":false,"rental_uris":{"android":"levelo://app?vid=c20b32c9-6284-416b-8186-fff0285236b1","ios":"levelo://app?vid=c20b32c9-6284-416b-8186-fff0285236b1"},"vehicle_type_id":"4","last_reported":1750685240,"current_range_meters":14000,"station_id":"ce4bhb12rcd13ifvqem0","pricing_plan_id":"cebpf4jnsgd1na2vs0mg"},{"bike_id":"f108f063-5ca6-4edd-a772-54611d6d4078","system_id":"levelo_inurba_marseille","lat":43.27569,"lon":5.38419,"is_reserved":false,"is_disabled":false,"rental_uris":{"android":"levelo://app?vid=f108f063-5ca6-4edd-a772-54611d6d4078","ios":"levelo://app?vid=f108f063-5ca6-4edd-a772-54611d6d4078"},"vehicle_type_id":"4","last_reported":1750685240,"current_range_meters":14000,"station_id":"ce4bhh92rcd13ifvqfi0","pricing_plan_id":"cebpf4jnsgd1na2vs0mg"},{"bike_id":"a69156ca-7afd-4760-8d18-8e2581fdad03","system_id":"levelo_inurba_marseille","lat":43.229331,"lon":5.353804,"is_reserved":false,"is_disabled":false,"rental_uris":{"android":"levelo://app?vid=a69156ca-7afd-4760-8d18-8e2581fdad03","ios":"levelo://app?vid=a69156ca-7afd-4760-8d18-8e2581fdad03"},"vehicle_type_id":"4","last_reported":1750685240,"current_range_meters":14000,"station_id":"cpo3532slgdg3j2ikp40","pricing_plan_id":"cebpf4jnsgd1na2vs0mg"},{"bike_id":"9ad43fe6-1b49-4ea3-9f06-a5733a9a82aa","system_id":"levelo_inurba_marseille","lat":43.21242,"lon":5.35099,"is_reserved":false,"is_disabled":false,"rental_uris":{"android":"levelo://app?vid=9ad43fe6-1b49-4ea3-9f06-a5733a9a82aa","ios":"levelo://app?vid=9ad43fe6-1b49-4ea3-9f06-a5733a9a82aa"},"vehicle_type_id":"4","last_reported":1750685240,"current_range_meters":14400,"station_id":"","pricing_plan_id":"cebpf4jnsgd1na2vs0mg"},{"bike_id":"1b7d0a54-e2ea-4d70-b14f-cf6d44e9d60d","system_id":"levelo_inurba_marseille","lat":43.243888,"lon":5.370544,"is_reserved":false,"is_disabled":false,"rental_uris":{"android":"levelo://app?vid=1b7d0a54-e2ea-4d70-b14f-cf6d44e9d60d","ios":"levelo://app?vid=1b7d0a54-e2ea-4d70-b14f-cf6d44e9d60d"},"vehicle_type_id":"4","last_reported":1750685240,"current_range_meters":14400,"station_id":"ce4bhhh2rcd13ifvqfk0","pricing_plan_id":"cebpf4jnsgd1na2vs0mg"},{"bike_id":"6e484f63-7dc7-40d1-9847-219a634d8c49","system_id":"levelo_inurba_marseille","lat":43.23142,"lon":5.43736,"is_reserved":false,"is_disabled":false,"rental_uris":{"android":"levelo://app?vid=6e484f63-7dc7-40d1-9847-219a634d8c49","ios":"levelo://app?vid=6e484f63-7dc7-40d1-9847-219a634d8c49"},"vehicle_type_id":"4","last_reported":1750685240,"current_range_meters":14400,"station_id":"ce4bhmp2rcd13ifvqgog","pricing_plan_id":"cebpf4jnsgd1na2vs0mg"},{"bike_id":"88c42f07-d7d5-4177-9961-ab4624e66abd","system_id":"levelo_inurba_marseille","lat":43.28092,"lon":5.39658,"is_reserved":false,"is_disabled":false,"rental_uris":{"android":"levelo://app?vid=88c42f07-d7d5-4177-9961-ab4624e66abd","ios":"levelo://app?vid=88c42f07-d7d5-4177-9961-ab4624e66abd"},"vehicle_type_id":"4","last_reported":1750685240,"current_range_meters":14400,"station_id":"ce4bho12rcd13ifvqh2g","pricing_plan_id":"cebpf4jnsgd1na2vs0mg"},{"bike_id":"d1e50195-3b98-4355-8033-d7cc97e2d52d","system_id":"levelo_inurba_marseille","lat":43.346559,"lon":5.366551,"is_reserved":false,"is_disabled":false,"rental_uris":{"android":"levelo://app?vid=d1e50195-3b98-4355-8033-d7cc97e2d52d","ios":"levelo://app?vid=d1e50195-3b98-4355-8033-d7cc97e2d52d"},"vehicle_type_id":"4","last_reported":1750685240,"current_range_meters":14800,"station_id":"","pricing_plan_id":"cebpf4jnsgd1na2vs0mg"},{"bike_id":"a1f47c53-f4cf-49ca-9f6b-0ffb8de1652b","system_id":"levelo_inurba_marseille","lat":43.2898,"lon":5.37834,"is_reserved":false,"is_disabled":false,"rental_uris":{"android":"levelo://app?vid=a1f47c53-f4cf-49ca-9f6b-0ffb8de1652b","ios":"levelo://app?vid=a1f47c53-f4cf-49ca-9f6b-0ffb8de1652b"},"vehicle_type_id":"4","last_reported":1750685240,"current_range_meters":14800,"station_id":"ce4bh9p2rcd13ifvqed0","pricing_plan_id":"cebpf4jnsgd1na2vs0mg"},{"bike_id":"062bb8ae-8168-414f-b739-eed802adb54e","system_id":"levelo_inurba_marseille","lat":43.24393,"lon":5.37068,"is_reserved":false,"is_disabled":false,"rental_uris":{"android":"levelo://app?vid=062bb8ae-8168-414f-b739-eed802adb54e","ios":"levelo://app?vid=062bb8ae-8168-414f-b739-eed802adb54e"},"vehicle_type_id":"4","last_reported":1750685240,"current_range_meters":14800,"station_id":"ce4bhhh2rcd13ifvqfk0","pricing_plan_id":"cebpf4jnsgd1na2vs0mg"},{"bike_id":"6a42d39f-0bd8-482c-bccc-97f7d0f86db8","system_id":"levelo_inurba_marseille","lat":43.23162,"lon":5.43738,"is_reserved":false,"is_disabled":false,"rental_uris":{"android":"levelo://app?vid=6a42d39f-0bd8-482c-bccc-97f7d0f86db8","ios":"levelo://app?vid=6a42d39f-0bd8-482c-bccc-97f7d0f86db8"},"vehicle_type_id":"4","last_reported":1750685240,"current_range_meters":14800,"station_id":"ce4bhmp2rcd13ifvqgog","pricing_plan_id":"cebpf4jnsgd1na2vs0mg"},{"bike_id":"26f520ad-76e7-4405-a277-2c772e1d5c49","system_id":"levelo_inurba_marseille","lat":43.34142,"lon":5.4091,"is_reserved":false,"is_disabled":false,"rental_uris":{"android":"levelo://app?vid=26f520ad-76e7-4405-a277-2c772e1d5c49","ios":"levelo://app?vid=26f520ad-76e7-4405-a277-2c772e1d5c49"},"vehicle_type_id":"4","last_reported":1750685240,"current_range_meters":14800,"station_id":"ce4bhqh2rcd13ifvqhlg","pricing_plan_id":"cebpf4jnsgd1na2vs0mg"},{"bike_id":"36ee4635-6d58-43c2-8cec-51daaa215973","system_id":"levelo_inurba_marseille","lat":43.24162,"lon":5.36408,"is_reserved":false,"is_disabled":false,"rental_uris":{"android":"levelo://app?vid=36ee4635-6d58-43c2-8cec-51daaa215973","ios":"levelo://app?vid=36ee4635-6d58-43c2-8cec-51daaa215973"},"vehicle_type_id":"4","last_reported":1750685240,"current_range_meters":14800,"station_id":"cpo36qri1sfpv3e86is0","pricing_plan_id":"cebpf4jnsgd1na2vs0mg"},{"bike_id":"1a4c676f-1a80-46e1-b001-23cd35dc8470","system_id":"levelo_inurba_marseille","lat":43.31335,"lon":5.39711,"is_reserved":false,"is_disabled":false,"rental_uris":{"android":"levelo://app?vid=1a4c676f-1a80-46e1-b001-23cd35dc8470","ios":"levelo://app?vid=1a4c676f-1a80-46e1-b001-23cd35dc8470"},"vehicle_type_id":"4","last_reported":1750685240,"current_range_meters":15200,"station_id":"ce4bgvp2rcd13ifvqcu0","pricing_plan_id":"cebpf4jnsgd1na2vs0mg"},{"bike_id":"35cf7854-03e7-499c-b937-53aa0915f752","system_id":"levelo_inurba_marseille","lat":43.30203,"lon":5.3947,"is_reserved":false,"is_disabled":false,"rental_uris":{"android":"levelo://app?vid=35cf7854-03e7-499c-b937-53aa0915f752","ios":"levelo://app?vid=35cf7854-03e7-499c-b937-53aa0915f752"},"vehicle_type_id":"4","last_reported":1750685240,"current_range_meters":15200,"station_id":"ce4bh0p2rcd13ifvqd70","pricing_plan_id":"cebpf4jnsgd1na2vs0mg"},{"bike_id":"53342470-b176-4e07-a9fe-6ce6c39b9924","system_id":"levelo_inurba_marseille","lat":43.284806,"lon":5.385715,"is_reserved":false,"is_disabled":false,"rental_uris":{"android":"levelo://app?vid=53342470-b176-4e07-a9fe-6ce6c39b9924","ios":"levelo://app?vid=53342470-b176-4e07-a9fe-6ce6c39b9924"},"vehicle_type_id":"4","last_reported":1750685240,"current_range_meters":15200,"station_id":"ce4bh8p2rcd13ifvqeb0","pricing_plan_id":"cebpf4jnsgd1na2vs0mg"},{"bike_id":"dcb10811-af0c-4a83-a2ce-c0bcfa4230a2","system_id":"levelo_inurba_marseille","lat":43.28403,"lon":5.34989,"is_reserved":false,"is_disabled":false,"rental_uris":{"android":"levelo://app?vid=dcb10811-af0c-4a83-a2ce-c0bcfa4230a2","ios":"levelo://app?vid=dcb10811-af0c-4a83-a2ce-c0bcfa4230a2"},"vehicle_type_id":"4","last_reported":1750685240,"current_range_meters":15200,"station_id":"ce4bhbh2rcd13ifvqepg","pricing_plan_id":"cebpf4jnsgd1na2vs0mg"},{"bike_id":"2c17847e-becc-4c73-a56d-3de005989fb2","system_id":"levelo_inurba_marseille","lat":43.25483,"lon":5.3766,"is_reserved":false,"is_disabled":false,"rental_uris":{"android":"levelo://app?vid=2c17847e-becc-4c73-a56d-3de005989fb2","ios":"levelo://app?vid=2c17847e-becc-4c73-a56d-3de005989fb2"},"vehicle_type_id":"4","last_reported":1750685240,"current_range_meters":15200,"station_id":"ce4bhh12rcd13ifvqff0","pricing_plan_id":"cebpf4jnsgd1na2vs0mg"},{"bike_id":"642e58dd-7f0b-4fba-8bd9-815f5483ec67","system_id":"levelo_inurba_marseille","lat":43.2408,"lon":5.37766,"is_reserved":false,"is_disabled":false,"rental_uris":{"android":"levelo://app?vid=642e58dd-7f0b-4fba-8bd9-815f5483ec67","ios":"levelo://app?vid=642e58dd-7f0b-4fba-8bd9-815f5483ec67"},"vehicle_type_id":"4","last_reported":1750685240,"current_range_meters":15200,"station_id":"ce4bhnp2rcd13ifvqgvg","pricing_plan_id":"cebpf4jnsgd1na2vs0mg"},{"bike_id":"b3f7ff23-2e8c-4f66-acd3-9483c5f50624","system_id":"levelo_inurba_marseille","lat":43.27996,"lon":5.40013,"is_reserved":false,"is_disabled":false,"rental_uris":{"android":"levelo://app?vid=b3f7ff23-2e8c-4f66-acd3-9483c5f50624","ios":"levelo://app?vid=b3f7ff23-2e8c-4f66-acd3-9483c5f50624"},"vehicle_type_id":"4","last_reported":1750685240,"current_range_meters":15200,"station_id":"ce4bho92rcd13ifvqh4g","pricing_plan_id":"cebpf4jnsgd1na2vs0mg"},{"bike_id":"e3c98ea9-5ede-4f57-8f11-2e25041a9538","system_id":"levelo_inurba_marseille","lat":43.298976,"lon":5.436571,"is_reserved":false,"is_disabled":false,"rental_uris":{"android":"levelo://app?vid=e3c98ea9-5ede-4f57-8f11-2e25041a9538","ios":"levelo://app?vid=e3c98ea9-5ede-4f57-8f11-2e25041a9538"},"vehicle_type_id":"4","last_reported":1750685240,"current_range_meters":15200,"station_id":"ce4bhpp2rcd13ifvqhfg","pricing_plan_id":"cebpf4jnsgd1na2vs0mg"},{"bike_id":"8c62981a-1f1d-4c16-9538-6ff8b1e0ea0d","system_id":"levelo_inurba_marseille","lat":43.28719,"lon":5.36086,"is_reserved":false,"is_disabled":false,"rental_uris":{"android":"levelo://app?vid=8c62981a-1f1d-4c16-9538-6ff8b1e0ea0d","ios":"levelo://app?vid=8c62981a-1f1d-4c16-9538-6ff8b1e0ea0d"},"vehicle_type_id":"4","last_reported":1750685240,"current_range_meters":15200,"station_id":"cki0cbj6b192h4jlfktg","pricing_plan_id":"cebpf4jnsgd1na2vs0mg"},{"bike_id":"3f5feefb-afac-4fae-bf96-2312f50939a4","system_id":"levelo_inurba_marseille","lat":43.2119,"lon":5.350718,"is_reserved":false,"is_disabled":false,"rental_uris":{"android":"levelo://app?vid=3f5feefb-afac-4fae-bf96-2312f50939a4","ios":"levelo://app?vid=3f5feefb-afac-4fae-bf96-2312f50939a4"},"vehicle_type_id":"4","last_reported":1750685240,"current_range_meters":15200,"station_id":"st_cvj6sg6p6f1abm77japg","pricing_plan_id":"cebpf4jnsgd1na2vs0mg"},{"bike_id":"f8cab8b9-9fa2-4bab-a3bc-27e11b22571b","system_id":"levelo_inurba_marseille","lat":43.29031,"lon":5.38647,"is_reserved":false,"is_disabled":false,"rental_uris":{"android":"levelo://app?vid=f8cab8b9-9fa2-4bab-a3bc-27e11b22571b","ios":"levelo://app?vid=f8cab8b9-9fa2-4bab-a3bc-27e11b22571b"},"vehicle_type_id":"4","last_reported":1750685240,"current_range_meters":16000,"station_id":"ce4bh4p2rcd13ifvqe0g","pricing_plan_id":"cebpf4jnsgd1na2vs0mg"},{"bike_id":"58e3de6a-5eab-4f18-9436-2c0a5c2808fe","system_id":"levelo_inurba_marseille","lat":43.26192,"lon":5.37466,"is_reserved":false,"is_disabled":false,"rental_uris":{"android":"levelo://app?vid=58e3de6a-5eab-4f18-9436-2c0a5c2808fe","ios":"levelo://app?vid=58e3de6a-5eab-4f18-9436-2c0a5c2808fe"},"vehicle_type_id":"4","last_reported":1750685240,"current_range_meters":16000,"station_id":"ce4bhgp2rcd13ifvqfc0","pricing_plan_id":"cebpf4jnsgd1na2vs0mg"},{"bike_id":"58eaeff1-89a4-4e5a-b8e8-f2a8500e8df3","system_id":"levelo_inurba_marseille","lat":43.24071,"lon":5.37767,"is_reserved":false,"is_disabled":false,"rental_uris":{"android":"levelo://app?vid=58eaeff1-89a4-4e5a-b8e8-f2a8500e8df3","ios":"levelo://app?vid=58eaeff1-89a4-4e5a-b8e8-f2a8500e8df3"},"vehicle_type_id":"4","last_reported":1750685240,"current_range_meters":16000,"station_id":"ce4bhnp2rcd13ifvqgvg","pricing_plan_id":"cebpf4jnsgd1na2vs0mg"},{"bike_id":"9213f417-38fe-4ac6-ba73-fa7495d6b748","system_id":"levelo_inurba_marseille","lat":43.24189,"lon":5.36416,"is_reserved":false,"is_disabled":false,"rental_uris":{"android":"levelo://app?vid=9213f417-38fe-4ac6-ba73-fa7495d6b748","ios":"levelo://app?vid=9213f417-38fe-4ac6-ba73-fa7495d6b748"},"vehicle_type_id":"4","last_reported":1750685240,"current_range_meters":16000,"station_id":"cpo36qri1sfpv3e86is0","pricing_plan_id":"cebpf4jnsgd1na2vs0mg"},{"bike_id":"f2479ec5-2f13-4f00-bb84-fab82f46d308","system_id":"levelo_inurba_marseille","lat":43.25771,"lon":5.38968,"is_reserved":false,"is_disabled":false,"rental_uris":{"android":"levelo://app?vid=f2479ec5-2f13-4f00-bb84-fab82f46d308","ios":"levelo://app?vid=f2479ec5-2f13-4f00-bb84-fab82f46d308"},"vehicle_type_id":"4","last_reported":1750685240,"current_range_meters":16400,"station_id":"","pricing_plan_id":"cebpf4jnsgd1na2vs0mg"},{"bike_id":"709c1451-0f01-4113-a733-ed7dbe8abbe7","system_id":"levelo_inurba_marseille","lat":43.30574,"lon":5.36519,"is_reserved":false,"is_disabled":false,"rental_uris":{"android":"levelo://app?vid=709c1451-0f01-4113-a733-ed7dbe8abbe7","ios":"levelo://app?vid=709c1451-0f01-4113-a733-ed7dbe8abbe7"},"vehicle_type_id":"4","last_reported":1750685240,"current_range_meters":16400,"station_id":"ce4bgs12rcd13ifvqcag","pricing_plan_id":"cebpf4jnsgd1na2vs0mg"},{"bike_id":"fbd0b782-429b-43bb-8841-44d7d21a8d6a","system_id":"levelo_inurba_marseille","lat":43.30548,"lon":5.36545,"is_reserved":false,"is_disabled":false,"rental_uris":{"android":"levelo://app?vid=fbd0b782-429b-43bb-8841-44d7d21a8d6a","ios":"levelo://app?vid=fbd0b782-429b-43bb-8841-44d7d21a8d6a"},"vehicle_type_id":"4","last_reported":1750685240,"current_range_meters":16400,"station_id":"ce4bgs12rcd13ifvqcag","pricing_plan_id":"cebpf4jnsgd1na2vs0mg"},{"bike_id":"c7b15556-063a-41a2-bb7c-b6ebea3d7355","system_id":"levelo_inurba_marseille","lat":43.27378,"lon":5.36258,"is_reserved":false,"is_disabled":false,"rental_uris":{"android":"levelo://app?vid=c7b15556-063a-41a2-bb7c-b6ebea3d7355","ios":"levelo://app?vid=c7b15556-063a-41a2-bb7c-b6ebea3d7355"},"vehicle_type_id":"4","last_reported":1750685240,"current_range_meters":16400,"station_id":"ce4bhbh2rcd13ifvqeo0","pricing_plan_id":"cebpf4jnsgd1na2vs0mg"},{"bike_id":"c0b3b047-0a1d-447b-abc5-e14c12a1bbc6","system_id":"levelo_inurba_marseille","lat":43.26691,"lon":5.38267,"is_reserved":false,"is_disabled":false,"rental_uris":{"android":"levelo://app?vid=c0b3b047-0a1d-447b-abc5-e14c12a1bbc6","ios":"levelo://app?vid=c0b3b047-0a1d-447b-abc5-e14c12a1bbc6"},"vehicle_type_id":"4","last_reported":1750685240,"current_range_meters":16400,"station_id":"ce4bhg92rcd13ifvqf90","pricing_plan_id":"cebpf4jnsgd1na2vs0mg"},{"bike_id":"c408c062-199b-4921-b546-a1eb903aabb8","system_id":"levelo_inurba_marseille","lat":43.23962,"lon":5.3665,"is_reserved":false,"is_disabled":false,"rental_uris":{"android":"levelo://app?vid=c408c062-199b-4921-b546-a1eb903aabb8","ios":"levelo://app?vid=c408c062-199b-4921-b546-a1eb903aabb8"},"vehicle_type_id":"4","last_reported":1750685240,"current_range_meters":16400,"station_id":"ce4bhi12rcd13ifvqfp0","pricing_plan_id":"cebpf4jnsgd1na2vs0mg"},{"bike_id":"950f7f9f-899b-47e3-b097-2ade7879ad8f","system_id":"levelo_inurba_marseille","lat":43.27069,"lon":5.42296,"is_reserved":false,"is_disabled":false,"rental_uris":{"android":"levelo://app?vid=950f7f9f-899b-47e3-b097-2ade7879ad8f","ios":"levelo://app?vid=950f7f9f-899b-47e3-b097-2ade7879ad8f"},"vehicle_type_id":"4","last_reported":1750685240,"current_range_meters":16400,"station_id":"ce4bhk92rcd13ifvqgb0","pricing_plan_id":"cebpf4jnsgd1na2vs0mg"},{"bike_id":"d3b4acd1-475d-43e1-bb04-3b5b22c96457","system_id":"levelo_inurba_marseille","lat":43.29899,"lon":5.43682,"is_reserved":false,"is_disabled":false,"rental_uris":{"android":"levelo://app?vid=d3b4acd1-475d-43e1-bb04-3b5b22c96457","ios":"levelo://app?vid=d3b4acd1-475d-43e1-bb04-3b5b22c96457"},"vehicle_type_id":"4","last_reported":1750685240,"current_range_meters":16400,"station_id":"ce4bhpp2rcd13ifvqhfg","pricing_plan_id":"cebpf4jnsgd1na2vs0mg"},{"bike_id":"96dcd71f-47d4-4092-a693-e1c3ed0b15e1","system_id":"levelo_inurba_marseille","lat":43.33712,"lon":5.39194,"is_reserved":false,"is_disabled":false,"rental_uris":{"android":"levelo://app?vid=96dcd71f-47d4-4092-a693-e1c3ed0b15e1","ios":"levelo://app?vid=96dcd71f-47d4-4092-a693-e1c3ed0b15e1"},"vehicle_type_id":"4","last_reported":1750685240,"current_range_meters":16400,"station_id":"ce4bhr92rcd13ifvqhsg","pricing_plan_id":"cebpf4jnsgd1na2vs0mg"},{"bike_id":"708a5153-e9eb-4b8c-828a-f2918a7ff712","system_id":"levelo_inurba_marseille","lat":43.33737,"lon":5.39201,"is_reserved":false,"is_disabled":false,"rental_uris":{"android":"levelo://app?vid=708a5153-e9eb-4b8c-828a-f2918a7ff712","ios":"levelo://app?vid=708a5153-e9eb-4b8c-828a-f2918a7ff712"},"vehicle_type_id":"4","last_reported":1750685240,"current_range_meters":16400,"station_id":"ce4bhr92rcd13ifvqhsg","pricing_plan_id":"cebpf4jnsgd1na2vs0mg"},{"bike_id":"0e4c682c-26f0-4240-a9fa-9ea7c2dfb029","system_id":"levelo_inurba_marseille","lat":43.28616,"lon":5.37066,"is_reserved":false,"is_disabled":false,"rental_uris":{"android":"levelo://app?vid=0e4c682c-26f0-4240-a9fa-9ea7c2dfb029","ios":"levelo://app?vid=0e4c682c-26f0-4240-a9fa-9ea7c2dfb029"},"vehicle_type_id":"4","last_reported":1750685240,"current_range_meters":16400,"station_id":"ce4bht12rcd13ifvqi60","pricing_plan_id":"cebpf4jnsgd1na2vs0mg"},{"bike_id":"e77b75b6-d130-43a3-abb4-254740d44e61","system_id":"levelo_inurba_marseille","lat":43.24164,"lon":5.36409,"is_reserved":false,"is_disabled":false,"rental_uris":{"android":"levelo://app?vid=e77b75b6-d130-43a3-abb4-254740d44e61","ios":"levelo://app?vid=e77b75b6-d130-43a3-abb4-254740d44e61"},"vehicle_type_id":"4","last_reported":1750685240,"current_range_meters":16400,"station_id":"cpo36qri1sfpv3e86is0","pricing_plan_id":"cebpf4jnsgd1na2vs0mg"},{"bike_id":"7bd7ab6e-0284-4340-acb8-397b5bd3427c","system_id":"levelo_inurba_marseille","lat":43.32018,"lon":5.36822,"is_reserved":false,"is_disabled":false,"rental_uris":{"android":"levelo://app?vid=7bd7ab6e-0284-4340-acb8-397b5bd3427c","ios":"levelo://app?vid=7bd7ab6e-0284-4340-acb8-397b5bd3427c"},"vehicle_type_id":"4","last_reported":1750685240,"current_range_meters":16800,"station_id":"","pricing_plan_id":"cebpf4jnsgd1na2vs0mg"},{"bike_id":"78a570de-ce20-4c69-88a2-331ab1ac1b19","system_id":"levelo_inurba_marseille","lat":43.29709,"lon":5.36594,"is_reserved":false,"is_disabled":false,"rental_uris":{"android":"levelo://app?vid=78a570de-ce20-4c69-88a2-331ab1ac1b19","ios":"levelo://app?vid=78a570de-ce20-4c69-88a2-331ab1ac1b19"},"vehicle_type_id":"4","last_reported":1750685240,"current_range_meters":16800,"station_id":"ce4bgn12rcd13ifvqbt0","pricing_plan_id":"cebpf4jnsgd1na2vs0mg"},{"bike_id":"9224a891-6a6d-4c6b-a8f4-b640a9071c77","system_id":"levelo_inurba_marseille","lat":43.29838,"lon":5.36266,"is_reserved":false,"is_disabled":false,"rental_uris":{"android":"levelo://app?vid=9224a891-6a6d-4c6b-a8f4-b640a9071c77","ios":"levelo://app?vid=9224a891-6a6d-4c6b-a8f4-b640a9071c77"},"vehicle_type_id":"4","last_reported":1750685240,"current_range_meters":16800,"station_id":"ce4bgpp2rcd13ifvqc3g","pricing_plan_id":"cebpf4jnsgd1na2vs0mg"},{"bike_id":"db2f37c4-e656-4d55-a4a0-026eadcd8b19","system_id":"levelo_inurba_marseille","lat":43.28034,"lon":5.36949,"is_reserved":false,"is_disabled":false,"rental_uris":{"android":"levelo://app?vid=db2f37c4-e656-4d55-a4a0-026eadcd8b19","ios":"levelo://app?vid=db2f37c4-e656-4d55-a4a0-026eadcd8b19"},"vehicle_type_id":"4","last_reported":1750685240,"current_range_meters":16800,"station_id":"ce4bha12rcd13ifvqef0","pricing_plan_id":"cebpf4jnsgd1na2vs0mg"},{"bike_id":"8d378607-bff3-4c43-9f1f-4ac43500eb47","system_id":"levelo_inurba_marseille","lat":43.27376,"lon":5.36258,"is_reserved":false,"is_disabled":false,"rental_uris":{"android":"levelo://app?vid=8d378607-bff3-4c43-9f1f-4ac43500eb47","ios":"levelo://app?vid=8d378607-bff3-4c43-9f1f-4ac43500eb47"},"vehicle_type_id":"4","last_reported":1750685240,"current_range_meters":16800,"station_id":"ce4bhbh2rcd13ifvqeo0","pricing_plan_id":"cebpf4jnsgd1na2vs0mg"},{"bike_id":"ff359b06-e82b-4518-b602-f9c62162a27d","system_id":"levelo_inurba_marseille","lat":43.21176,"lon":5.35094,"is_reserved":false,"is_disabled":false,"rental_uris":{"android":"levelo://app?vid=ff359b06-e82b-4518-b602-f9c62162a27d","ios":"levelo://app?vid=ff359b06-e82b-4518-b602-f9c62162a27d"},"vehicle_type_id":"4","last_reported":1750685240,"current_range_meters":16800,"station_id":"st_cvj6sg6p6f1abm77japg","pricing_plan_id":"cebpf4jnsgd1na2vs0mg"},{"bike_id":"66fe660e-bbbe-4cd1-b5fb-9344c71cb66e","system_id":"levelo_inurba_marseille","lat":43.21197,"lon":5.3505,"is_reserved":false,"is_disabled":false,"rental_uris":{"android":"levelo://app?vid=66fe660e-bbbe-4cd1-b5fb-9344c71cb66e","ios":"levelo://app?vid=66fe660e-bbbe-4cd1-b5fb-9344c71cb66e"},"vehicle_type_id":"4","last_reported":1750685240,"current_range_meters":16800,"station_id":"st_cvj6sg6p6f1abm77japg","pricing_plan_id":"cebpf4jnsgd1na2vs0mg"},{"bike_id":"8bc99dda-0ecb-4209-a614-58636df6b374","system_id":"levelo_inurba_marseille","lat":43.21186,"lon":5.35081,"is_reserved":false,"is_disabled":false,"rental_uris":{"android":"levelo://app?vid=8bc99dda-0ecb-4209-a614-58636df6b374","ios":"levelo://app?vid=8bc99dda-0ecb-4209-a614-58636df6b374"},"vehicle_type_id":"4","last_reported":1750685240,"current_range_meters":16800,"station_id":"st_cvj6sg6p6f1abm77japg","pricing_plan_id":"cebpf4jnsgd1na2vs0mg"},{"bike_id":"54f1ff6e-b592-4bff-8baf-ba4cdae139e8","system_id":"levelo_inurba_marseille","lat":43.28883,"lon":5.37883,"is_reserved":false,"is_disabled":false,"rental_uris":{"android":"levelo://app?vid=54f1ff6e-b592-4bff-8baf-ba4cdae139e8","ios":"levelo://app?vid=54f1ff6e-b592-4bff-8baf-ba4cdae139e8"},"vehicle_type_id":"4","last_reported":1750685240,"current_range_meters":17200,"station_id":"","pricing_plan_id":"cebpf4jnsgd1na2vs0mg"},{"bike_id":"7028f74e-f5b1-4ba4-9516-c6cba275b3a1","system_id":"levelo_inurba_marseille","lat":43.25891,"lon":5.40846,"is_reserved":false,"is_disabled":false,"rental_uris":{"android":"levelo://app?vid=7028f74e-f5b1-4ba4-9516-c6cba275b3a1","ios":"levelo://app?vid=7028f74e-f5b1-4ba4-9516-c6cba275b3a1"},"vehicle_type_id":"4","last_reported":1750685240,"current_range_meters":17200,"station_id":"","pricing_plan_id":"cebpf4jnsgd1na2vs0mg"},{"bike_id":"af8ac115-b126-43d0-8dc2-1ca55684e741","system_id":"levelo_inurba_marseille","lat":43.28411,"lon":5.35002,"is_reserved":false,"is_disabled":false,"rental_uris":{"android":"levelo://app?vid=af8ac115-b126-43d0-8dc2-1ca55684e741","ios":"levelo://app?vid=af8ac115-b126-43d0-8dc2-1ca55684e741"},"vehicle_type_id":"4","last_reported":1750685240,"current_range_meters":17200,"station_id":"ce4bhbh2rcd13ifvqepg","pricing_plan_id":"cebpf4jnsgd1na2vs0mg"},{"bike_id":"a2f82b75-0ebb-4c75-a9d4-11be415acd0c","system_id":"levelo_inurba_marseille","lat":43.33605,"lon":5.41019,"is_reserved":false,"is_disabled":false,"rental_uris":{"android":"levelo://app?vid=a2f82b75-0ebb-4c75-a9d4-11be415acd0c","ios":"levelo://app?vid=a2f82b75-0ebb-4c75-a9d4-11be415acd0c"},"vehicle_type_id":"4","last_reported":1750685240,"current_range_meters":17200,"station_id":"ce4bhqh2rcd13ifvqhmg","pricing_plan_id":"cebpf4jnsgd1na2vs0mg"},{"bike_id":"a47b3ca7-ac74-4aca-9c76-314ff6c96723","system_id":"levelo_inurba_marseille","lat":43.24168,"lon":5.36389,"is_reserved":false,"is_disabled":false,"rental_uris":{"android":"levelo://app?vid=a47b3ca7-ac74-4aca-9c76-314ff6c96723","ios":"levelo://app?vid=a47b3ca7-ac74-4aca-9c76-314ff6c96723"},"vehicle_type_id":"4","last_reported":1750685240,"current_range_meters":17200,"station_id":"cpo36qri1sfpv3e86is0","pricing_plan_id":"cebpf4jnsgd1na2vs0mg"},{"bike_id":"c3b67a3c-755c-43da-b7f2-a4d8a045bf9d","system_id":"levelo_inurba_marseille","lat":43.21195,"lon":5.35085,"is_reserved":false,"is_disabled":false,"rental_uris":{"android":"levelo://app?vid=c3b67a3c-755c-43da-b7f2-a4d8a045bf9d","ios":"levelo://app?vid=c3b67a3c-755c-43da-b7f2-a4d8a045bf9d"},"vehicle_type_id":"4","last_reported":1750685240,"current_range_meters":17200,"station_id":"st_cvj6sg6p6f1abm77japg","pricing_plan_id":"cebpf4jnsgd1na2vs0mg"},{"bike_id":"b6b861fa-fd27-43ad-89fb-4be1a264be92","system_id":"levelo_inurba_marseille","lat":43.25307,"lon":5.37497,"is_reserved":false,"is_disabled":false,"rental_uris":{"android":"levelo://app?vid=b6b861fa-fd27-43ad-89fb-4be1a264be92","ios":"levelo://app?vid=b6b861fa-fd27-43ad-89fb-4be1a264be92"},"vehicle_type_id":"4","last_reported":1750685240,"current_range_meters":17600,"station_id":"","pricing_plan_id":"cebpf4jnsgd1na2vs0mg"},{"bike_id":"7c3f6852-4f29-42a9-a8c1-e2b82bb43fcf","system_id":"levelo_inurba_marseille","lat":43.29234,"lon":5.42692,"is_reserved":false,"is_disabled":false,"rental_uris":{"android":"levelo://app?vid=7c3f6852-4f29-42a9-a8c1-e2b82bb43fcf","ios":"levelo://app?vid=7c3f6852-4f29-42a9-a8c1-e2b82bb43fcf"},"vehicle_type_id":"4","last_reported":1750685240,"current_range_meters":17600,"station_id":"","pricing_plan_id":"cebpf4jnsgd1na2vs0mg"},{"bike_id":"cdab7ea0-0a3c-444a-adba-369c02ca39d9","system_id":"levelo_inurba_marseille","lat":43.274959,"lon":5.424553,"is_reserved":false,"is_disabled":false,"rental_uris":{"android":"levelo://app?vid=cdab7ea0-0a3c-444a-adba-369c02ca39d9","ios":"levelo://app?vid=cdab7ea0-0a3c-444a-adba-369c02ca39d9"},"vehicle_type_id":"4","last_reported":1750685240,"current_range_meters":17600,"station_id":"ce4bhn92rcd13ifvqgrg","pricing_plan_id":"cebpf4jnsgd1na2vs0mg"},{"bike_id":"e6e1ec66-36d4-41d2-872a-c2836e7851fd","system_id":"levelo_inurba_marseille","lat":43.21745,"lon":5.3461,"is_reserved":false,"is_disabled":false,"rental_uris":{"android":"levelo://app?vid=e6e1ec66-36d4-41d2-872a-c2836e7851fd","ios":"levelo://app?vid=e6e1ec66-36d4-41d2-872a-c2836e7851fd"},"vehicle_type_id":"4","last_reported":1750685240,"current_range_meters":17600,"station_id":"st_cvj6r9ubvosntc0bgbag","pricing_plan_id":"cebpf4jnsgd1na2vs0mg"},{"bike_id":"ffb9feac-bb19-46ec-b280-10de336104b2","system_id":"levelo_inurba_marseille","lat":43.32523,"lon":5.41503,"is_reserved":false,"is_disabled":false,"rental_uris":{"android":"levelo://app?vid=ffb9feac-bb19-46ec-b280-10de336104b2","ios":"levelo://app?vid=ffb9feac-bb19-46ec-b280-10de336104b2"},"vehicle_type_id":"4","last_reported":1750685240,"current_range_meters":18000,"station_id":"","pricing_plan_id":"cebpf4jnsgd1na2vs0mg"},{"bike_id":"99c5813d-660e-4826-8197-aeb2710801e5","system_id":"levelo_inurba_marseille","lat":43.30512,"lon":5.36702,"is_reserved":false,"is_disabled":false,"rental_uris":{"android":"levelo://app?vid=99c5813d-660e-4826-8197-aeb2710801e5","ios":"levelo://app?vid=99c5813d-660e-4826-8197-aeb2710801e5"},"vehicle_type_id":"4","last_reported":1750685240,"current_range_meters":18000,"station_id":"","pricing_plan_id":"cebpf4jnsgd1na2vs0mg"},{"bike_id":"b784eac6-603a-4467-9909-d93c9d701837","system_id":"levelo_inurba_marseille","lat":43.29937,"lon":5.3655,"is_reserved":false,"is_disabled":false,"rental_uris":{"android":"levelo://app?vid=b784eac6-603a-4467-9909-d93c9d701837","ios":"levelo://app?vid=b784eac6-603a-4467-9909-d93c9d701837"},"vehicle_type_id":"4","last_reported":1750685240,"current_range_meters":18000,"station_id":"ce4bgm92rcd13ifvqbr0","pricing_plan_id":"cebpf4jnsgd1na2vs0mg"},{"bike_id":"ce1d23fd-9801-4110-b8fd-6abf98a96d7e","system_id":"levelo_inurba_marseille","lat":43.30543,"lon":5.36553,"is_reserved":false,"is_disabled":false,"rental_uris":{"android":"levelo://app?vid=ce1d23fd-9801-4110-b8fd-6abf98a96d7e","ios":"levelo://app?vid=ce1d23fd-9801-4110-b8fd-6abf98a96d7e"},"vehicle_type_id":"4","last_reported":1750685240,"current_range_meters":18000,"station_id":"ce4bgs12rcd13ifvqcag","pricing_plan_id":"cebpf4jnsgd1na2vs0mg"},{"bike_id":"65837e07-df57-4e75-a19e-5529c47cd8d7","system_id":"levelo_inurba_marseille","lat":43.30469,"lon":5.379,"is_reserved":false,"is_disabled":false,"rental_uris":{"android":"levelo://app?vid=65837e07-df57-4e75-a19e-5529c47cd8d7","ios":"levelo://app?vid=65837e07-df57-4e75-a19e-5529c47cd8d7"},"vehicle_type_id":"4","last_reported":1750685240,"current_range_meters":18000,"station_id":"ce4bgup2rcd13ifvqcn0","pricing_plan_id":"cebpf4jnsgd1na2vs0mg"},{"bike_id":"fa9aebe2-74b0-48cf-8f8f-ad5f664b4673","system_id":"levelo_inurba_marseille","lat":43.30086,"lon":5.39063,"is_reserved":false,"is_disabled":false,"rental_uris":{"android":"levelo://app?vid=fa9aebe2-74b0-48cf-8f8f-ad5f664b4673","ios":"levelo://app?vid=fa9aebe2-74b0-48cf-8f8f-ad5f664b4673"},"vehicle_type_id":"4","last_reported":1750685240,"current_range_meters":18000,"station_id":"ce4bh192rcd13ifvqdb0","pricing_plan_id":"cebpf4jnsgd1na2vs0mg"},{"bike_id":"3e1fc936-a7d0-4fca-a163-01aaa035daae","system_id":"levelo_inurba_marseille","lat":43.28419,"lon":5.34996,"is_reserved":false,"is_disabled":false,"rental_uris":{"android":"levelo://app?vid=3e1fc936-a7d0-4fca-a163-01aaa035daae","ios":"levelo://app?vid=3e1fc936-a7d0-4fca-a163-01aaa035daae"},"vehicle_type_id":"4","last_reported":1750685240,"current_range_meters":18000,"station_id":"ce4bhbh2rcd13ifvqepg","pricing_plan_id":"cebpf4jnsgd1na2vs0mg"},{"bike_id":"dae444a2-a17a-4dac-8fa0-de2b9dc93eae","system_id":"levelo_inurba_marseille","lat":43.23163,"lon":5.43737,"is_reserved":false,"is_disabled":false,"rental_uris":{"android":"levelo://app?vid=dae444a2-a17a-4dac-8fa0-de2b9dc93eae","ios":"levelo://app?vid=dae444a2-a17a-4dac-8fa0-de2b9dc93eae"},"vehicle_type_id":"4","last_reported":1750685240,"current_range_meters":18000,"station_id":"ce4bhmp2rcd13ifvqgog","pricing_plan_id":"cebpf4jnsgd1na2vs0mg"},{"bike_id":"f1f219f8-ce94-4d65-be05-bffbfbc9de73","system_id":"levelo_inurba_marseille","lat":43.308,"lon":5.43532,"is_reserved":false,"is_disabled":false,"rental_uris":{"android":"levelo://app?vid=f1f219f8-ce94-4d65-be05-bffbfbc9de73","ios":"levelo://app?vid=f1f219f8-ce94-4d65-be05-bffbfbc9de73"},"vehicle_type_id":"4","last_reported":1750685240,"current_range_meters":18000,"station_id":"ce4bhph2rcd13ifvqheg","pricing_plan_id":"cebpf4jnsgd1na2vs0mg"},{"bike_id":"3cd404d1-613f-4351-8fdf-d20535e0aa98","system_id":"levelo_inurba_marseille","lat":43.337444,"lon":5.374475,"is_reserved":false,"is_disabled":false,"rental_uris":{"android":"levelo://app?vid=3cd404d1-613f-4351-8fdf-d20535e0aa98","ios":"levelo://app?vid=3cd404d1-613f-4351-8fdf-d20535e0aa98"},"vehicle_type_id":"4","last_reported":1750685240,"current_range_meters":18800,"station_id":"","pricing_plan_id":"cebpf4jnsgd1na2vs0mg"},{"bike_id":"cd00c7cf-63d2-49b3-8244-b06b4994a1d4","system_id":"levelo_inurba_marseille","lat":43.29623,"lon":5.40594,"is_reserved":false,"is_disabled":false,"rental_uris":{"android":"levelo://app?vid=cd00c7cf-63d2-49b3-8244-b06b4994a1d4","ios":"levelo://app?vid=cd00c7cf-63d2-49b3-8244-b06b4994a1d4"},"vehicle_type_id":"4","last_reported":1750685240,"current_range_meters":18800,"station_id":"ce4bh0h2rcd13ifvqd60","pricing_plan_id":"cebpf4jnsgd1na2vs0mg"},{"bike_id":"a5a5e6a8-4ee8-4f4c-b635-cba799285dee","system_id":"levelo_inurba_marseille","lat":43.30201,"lon":5.39459,"is_reserved":false,"is_disabled":false,"rental_uris":{"android":"levelo://app?vid=a5a5e6a8-4ee8-4f4c-b635-cba799285dee","ios":"levelo://app?vid=a5a5e6a8-4ee8-4f4c-b635-cba799285dee"},"vehicle_type_id":"4","last_reported":1750685240,"current_range_meters":18800,"station_id":"ce4bh0p2rcd13ifvqd70","pricing_plan_id":"cebpf4jnsgd1na2vs0mg"},{"bike_id":"bc06c25f-fd4d-417c-bd1e-e658638f1d6d","system_id":"levelo_inurba_marseille","lat":43.28271,"lon":5.35058,"is_reserved":false,"is_disabled":false,"rental_uris":{"android":"levelo://app?vid=bc06c25f-fd4d-417c-bd1e-e658638f1d6d","ios":"levelo://app?vid=bc06c25f-fd4d-417c-bd1e-e658638f1d6d"},"vehicle_type_id":"4","last_reported":1750685240,"current_range_meters":18800,"station_id":"ce4bhbp2rcd13ifvqerg","pricing_plan_id":"cebpf4jnsgd1na2vs0mg"},