{"last_updated":1718471228,"ttl":30,"version":"2.2","data":{"bikes":[{"bike_id":"671321c9-9fd3-4c56-ab2f-efc242ba5fba","system_id":"levelo_inurba_marseille","lat":43.312239,"lon":5.368562,"is_reserved":false,"is_disabled":false,"rental_uris":{"android":"levelo://app?vid=671321c9-9fd3-4c56-ab2f-efc242ba5fba","ios":"levelo://app?vid=671321c9-9fd3-4c56-ab2f-efc242ba5fba"},"vehicle_type_id":"4","last_reported":1718471228,"current_range_meters":29200,"station_id":"ce4bgl92rcd13ifvqbq0","pricing_plan_id":"cebpf4jnsgd1na2vs0mg"},{"bike_id":"e40d9690-1c24-4abc-b7be-b0f95a1f0ed1","system_id":"levelo_inurba_marseille","lat":43.31224,"lon":5.36882,"is_reserved":false,"is_disabled":false,"rental_uris":{"android":"levelo://app?vid=e40d9690-1c24-4abc-b7be-b0f95a1f0ed1","ios":"levelo://app?vid=e40d9690-1c24-4abc-b7be-b0f95a1f0ed1"},"vehicle_type_id":"4","last_reported":1718471228,"current_range_meters":28400,"station_id":"ce4bgl92rcd13ifvqbq0","pricing_plan_id":"cebpf4jnsgd1na2vs0mg"},{"bike_id":"48d48cdb-002b-425c-b14c-a0158c17e25f","system_id":"levelo_inurba_marseille","lat":43.324771,"lon":5.36557,"is_reserved":false,"is_disabled":false,"rental_uris":{"android":"levelo://app?vid=48d48cdb-002b-425c-b14c-a0158c17e25f","ios":"levelo://app?vid=48d48cdb-002b-425c-b14c-a0158c17e25f"},"vehicle_type_id":"4","last_reported":1718471228,"current_range_meters":16400,"station_id":"ce4bhs12rcd13ifvqhvg","pricing_plan_id":"cebpf4jnsgd1na2vs0mg"},{"bike_id":"45640c56-5731-45a3-aa0a-3ba5053ab6ec","system_id":"levelo_inurba_marseille","lat":43.314811,"lon":5.373103,"is_reserved":false,"is_disabled":false,"rental_uris":{"android":"levelo://app?vid=45640c56-5731-45a3-aa0a-3ba5053ab6ec","ios":"levelo://app?vid=45640c56-5731-45a3-aa0a-3ba5053ab6ec"},"vehicle_type_id":"4","last_reported":1718471228,"current_range_meters":19600,"station_id":"ce4bgt12rcd13ifvqcd0","pricing_plan_id":"cebpf4jnsgd1na2vs0mg"},{"bike_id":"7c155b7f-5e33-439f-8427-6f93142cd231","system_id":"levelo_inurba_marseille","lat":43.313493,"lon":5.37462,"is_reserved":false,"is_disabled":false,"rental_uris":{"android":"levelo://app?vid=7c155b7f-5e33-439f-8427-6f93142cd231","ios":"levelo://app?vid=7c155b7f-5e33-439f-8427-6f93142cd231"},"vehicle_type_id":"4","last_reported":1718471228,"current_range_meters":0,"station_id":"","pricing_plan_id":"cebpf4jnsgd1na2vs0mg"},{"bike_id":"667782ed-8575-47a6-9190-2e5819fed59a","system_id":"levelo_inurba_marseille","lat":43.305712,"lon":5.365641,"is_reserved":false,"is_disabled":false,"rental_uris":{"android":"levelo://app?vid=667782ed-8575-47a6-9190-2e5819fed59a","ios":"levelo://app?vid=667782ed-8575-47a6-9190-2e5819fed59a"},"vehicle_type_id":"4","last_reported":1718471228,"current_range_meters":25200,"station_id":"ce4bgs12rcd13ifvqcag","pricing_plan_id":"cebpf4jnsgd1na2vs0mg"},{"bike_id":"272b991e-d1ee-4133-9cb8-7a3e02fa7515","system_id":"levelo_inurba_marseille","lat":43.3057,"lon":5.36584,"is_reserved":false,"is_disabled":false,"rental_uris":{"android":"levelo://app?vid=272b991e-d1ee-4133-9cb8-7a3e02fa7515","ios":"levelo://app?vid=272b991e-d1ee-4133-9cb8-7a3e02fa7515"},"vehicle_type_id":"4","last_reported":1718471228,"current_range_meters":17600,"station_id":"","pricing_plan_id":"cebpf4jnsgd1na2vs0mg"},{"bike_id":"7f23b321-f5e6-4481-8327-5e33ef9a7cd9","system_id":"levelo_inurba_marseille","lat":43.305712,"lon":5.365641,"is_reserved":false,"is_disabled":false,"rental_uris":{"android":"levelo://app?vid=7f23b321-f5e6-4481-8327-5e33ef9a7cd9","ios":"levelo://app?vid=7f23b321-f5e6-4481-8327-5e33ef9a7cd9"},"vehicle_type_id":"4","last_reported":1718471228,"current_range_meters":400,"station_id":"ce4bgs12rcd13ifvqcag","pricing_plan_id":"cebpf4jnsgd1na2vs0mg"},{"bike_id":"3de030d3-8eaf-47b6-a31c-305e1ede05fe","system_id":"levelo_inurba_marseille","lat":43.305706,"lon":5.365654,"is_reserved":false,"is_disabled":false,"rental_uris":{"android":"levelo://app?vid=3de030d3-8eaf-47b6-a31c-305e1ede05fe","ios":"levelo://app?vid=3de030d3-8eaf-47b6-a31c-305e1ede05fe"},"vehicle_type_id":"4","last_reported":1718471228,"current_range_meters":0,"station_id":"ce4bgs12rcd13ifvqcag","pricing_plan_id":"cebpf4jnsgd1na2vs0mg"},{"bike_id":"37471f4c-741d-4423-ad28-3beb8104ff11","system_id":"levelo_inurba_marseille","lat":43.319516,"lon":5.371731,"is_reserved":false,"is_disabled":false,"rental_uris":{"android":"levelo://app?vid=37471f4c-741d-4423-ad28-3beb8104ff11","ios":"levelo://app?vid=37471f4c-741d-4423-ad28-3beb8104ff11"},"vehicle_type_id":"4","last_reported":1718471228,"current_range_meters":10800,"station_id":"","pricing_plan_id":"cebpf4jnsgd1na2vs0mg"},{"bike_id":"3cc21756-f9f3-4819-a70c-8dc7e54364f5","system_id":"levelo_inurba_marseille","lat":43.305706,"lon":5.365654,"is_reserved":false,"is_disabled":false,"rental_uris":{"android":"levelo://app?vid=3cc21756-f9f3-4819-a70c-8dc7e54364f5","ios":"levelo://app?vid=3cc21756-f9f3-4819-a70c-8dc7e54364f5"},"vehicle_type_id":"4","last_reported":1718471228,"current_range_meters":7200,"station_id":"ce4bgs12rcd13ifvqcag","pricing_plan_id":"cebpf4jnsgd1na2vs0mg"},{"bike_id":"a7827e84-25e5-46a5-bd9b-291e0ba3f50f","system_id":"levelo_inurba_marseille","lat":43.305989,"lon":5.37225,"is_reserved":false,"is_disabled":false,"rental_uris":{"android":"levelo://app?vid=a7827e84-25e5-46a5-bd9b-291e0ba3f50f","ios":"levelo://app?vid=a7827e84-25e5-46a5-bd9b-291e0ba3f50f"},"vehicle_type_id":"4","last_reported":1718471228,"current_range_meters":22400,"station_id":"ce4bgqh2rcd13ifvqc4g","pricing_plan_id":"cebpf4jnsgd1na2vs0mg"},{"bike_id":"2aa1ab7a-8ce6-4b6b-b3d4-a6d41733f78c","system_id":"levelo_inurba_marseille","lat":43.30458,"lon":5.36702,"is_reserved":false,"is_disabled":false,"rental_uris":{"android":"levelo://app?vid=2aa1ab7a-8ce6-4b6b-b3d4-a6d41733f78c","ios":"levelo://app?vid=2aa1ab7a-8ce6-4b6b-b3d4-a6d41733f78c"},"vehicle_type_id":"4","last_reported":1718471228,"current_range_meters":30000,"station_id":"","pricing_plan_id":"cebpf4jnsgd1na2vs0mg"},{"bike_id":"dccb06ec-3d59-4cae-9d4b-e40c059947fd","system_id":"levelo_inurba_marseille","lat":43.317075,"lon":5.377367,"is_reserved":false,"is_disabled":false,"rental_uris":{"android":"levelo://app?vid=dccb06ec-3d59-4cae-9d4b-e40c059947fd","ios":"levelo://app?vid=dccb06ec-3d59-4cae-9d4b-e40c059947fd"},"vehicle_type_id":"4","last_reported":1718471228,"current_range_meters":400,"station_id":"ce4bgth2rcd13ifvqch0","pricing_plan_id":"cebpf4jnsgd1na2vs0mg"},{"bike_id":"1b4cb508-1bd0-4abb-90e1-db692453866d","system_id":"levelo_inurba_marseille","lat":43.317075,"lon":5.377367,"is_reserved":false,"is_disabled":false,"rental_uris":{"android":"levelo://app?vid=1b4cb508-1bd0-4abb-90e1-db692453866d","ios":"levelo://app?vid=1b4cb508-1bd0-4abb-90e1-db692453866d"},"vehicle_type_id":"4","last_reported":1718471228,"current_range_meters":20800,"station_id":"ce4bgth2rcd13ifvqch0","pricing_plan_id":"cebpf4jnsgd1na2vs0mg"},{"bike_id":"f2bdecf8-a6c2-4f3c-81fb-c1c044a9cbee","system_id":"levelo_inurba_marseille","lat":43.30342,"lon":5.36663,"is_reserved":false,"is_disabled":false,"rental_uris":{"android":"levelo://app?vid=f2bdecf8-a6c2-4f3c-81fb-c1c044a9cbee","ios":"levelo://app?vid=f2bdecf8-a6c2-4f3c-81fb-c1c044a9cbee"},"vehicle_type_id":"4","last_reported":1718471228,"current_range_meters":30000,"station_id":"","pricing_plan_id":"cebpf4jnsgd1na2vs0mg"},{"bike_id":"33df08f0-1729-4fd9-b5ae-46024df2b9b7","system_id":"levelo_inurba_marseille","lat":43.303046,"lon":5.368981,"is_reserved":false,"is_disabled":false,"rental_uris":{"android":"levelo://app?vid=33df08f0-1729-4fd9-b5ae-46024df2b9b7","ios":"levelo://app?vid=33df08f0-1729-4fd9-b5ae-46024df2b9b7"},"vehicle_type_id":"4","last_reported":1718471228,"current_range_meters":15600,"station_id":"ce4bgqh2rcd13ifvqc5g","pricing_plan_id":"cebpf4jnsgd1na2vs0mg"},{"bike_id":"7e391f6d-054b-4dd4-b71e-da8f130a0581","system_id":"levelo_inurba_marseille","lat":43.304924,"lon":5.37586,"is_reserved":false,"is_disabled":false,"rental_uris":{"android":"levelo://app?vid=7e391f6d-054b-4dd4-b71e-da8f130a0581","ios":"levelo://app?vid=7e391f6d-054b-4dd4-b71e-da8f130a0581"},"vehicle_type_id":"4","last_reported":1718471228,"current_range_meters":7600,"station_id":"","pricing_plan_id":"cebpf4jnsgd1na2vs0mg"},{"bike_id":"91e65379-4f29-418a-9716-66ddce7b432c","system_id":"levelo_inurba_marseille","lat":43.301325,"lon":5.367126,"is_reserved":false,"is_disabled":false,"rental_uris":{"android":"levelo://app?vid=91e65379-4f29-418a-9716-66ddce7b432c","ios":"levelo://app?vid=91e65379-4f29-418a-9716-66ddce7b432c"},"vehicle_type_id":"4","last_reported":1718471228,"current_range_meters":0,"station_id":"","pricing_plan_id":"cebpf4jnsgd1na2vs0mg"},{"bike_id":"30cef248-167c-4bc0-98ea-d28de3c266f1","system_id":"levelo_inurba_marseille","lat":43.304606,"lon":5.379026,"is_reserved":false,"is_disabled":false,"rental_uris":{"android":"levelo://app?vid=30cef248-167c-4bc0-98ea-d28de3c266f1","ios":"levelo://app?vid=30cef248-167c-4bc0-98ea-d28de3c266f1"},"vehicle_type_id":"4","last_reported":1718471228,"current_range_meters":21200,"station_id":"ce4bgup2rcd13ifvqcn0","pricing_plan_id":"cebpf4jnsgd1na2vs0mg"},{"bike_id":"38b2c9e1-4c23-45fd-99ed-bbe9e26de9f4","system_id":"levelo_inurba_marseille","lat":43.324771,"lon":5.36557,"is_reserved":false,"is_disabled":false,"rental_uris":{"android":"levelo://app?vid=38b2c9e1-4c23-45fd-99ed-bbe9e26de9f4","ios":"levelo://app?vid=38b2c9e1-4c23-45fd-99ed-bbe9e26de9f4"},"vehicle_type_id":"4","last_reported":1718471228,"current_range_meters":18400,"station_id":"ce4bhs12rcd13ifvqhvg","pricing_plan_id":"cebpf4jnsgd1na2vs0mg"},{"bike_id":"d46abc99-67ad-4556-ac08-9e7538173fae","system_id":"levelo_inurba_marseille","lat":43.324771,"lon":5.36557,"is_reserved":false,"is_disabled":false,"rental_uris":{"android":"levelo://app?vid=d46abc99-67ad-4556-ac08-9e7538173fae","ios":"levelo://app?vid=d46abc99-67ad-4556-ac08-9e7538173fae"},"vehicle_type_id":"4","last_reported":1718471228,"current_range_meters":21600,"station_id":"ce4bhs12rcd13ifvqhvg","pricing_plan_id":"cebpf4jnsgd1na2vs0mg"},{"bike_id":"7e87196e-7da2-4a73-bb1f-08a78330daec","system_id":"levelo_inurba_marseille","lat":43.324771,"lon":5.36557,"is_reserved":false,"is_disabled":false,"rental_uris":{"android":"levelo://app?vid=7e87196e-7da2-4a73-bb1f-08a78330daec","ios":"levelo://app?vid=7e87196e-7da2-4a73-bb1f-08a78330daec"},"vehicle_type_id":"4","last_reported":1718471228,"current_range_meters":4000,"station_id":"ce4bhs12rcd13ifvqhvg","pricing_plan_id":"cebpf4jnsgd1na2vs0mg"},{"bike_id":"e04d8555-f083-4eb8-8189-d92050db7a4b","system_id":"levelo_inurba_marseille","lat":43.324771,"lon":5.36557,"is_reserved":false,"is_disabled":false,"rental_uris":{"android":"levelo://app?vid=e04d8555-f083-4eb8-8189-d92050db7a4b","ios":"levelo://app?vid=e04d8555-f083-4eb8-8189-d92050db7a4b"},"vehicle_type_id":"4","last_reported":1718471228,"current_range_meters":4400,"station_id":"ce4bhs12rcd13ifvqhvg","pricing_plan_id":"cebpf4jnsgd1na2vs0mg"},{"bike_id":"0bd7e063-1a25-4aae-af49-2f3318c320b1","system_id":"levelo_inurba_marseille","lat":43.324771,"lon":5.36557,"is_reserved":false,"is_disabled":false,"rental_uris":{"android":"levelo://app?vid=0bd7e063-1a25-4aae-af49-2f3318c320b1","ios":"levelo://app?vid=0bd7e063-1a25-4aae-af49-2f3318c320b1"},"vehicle_type_id":"4","last_reported":1718471228,"current_range_meters":15600,"station_id":"ce4bhs12rcd13ifvqhvg","pricing_plan_id":"cebpf4jnsgd1na2vs0mg"},{"bike_id":"25ac5ebc-294d-4867-aeb3-cc466256aea0","system_id":"levelo_inurba_marseille","lat":43.324771,"lon":5.36557,"is_reserved":false,"is_disabled":false,"rental_uris":{"android":"levelo://app?vid=25ac5ebc-294d-4867-aeb3-cc466256aea0","ios":"levelo://app?vid=25ac5ebc-294d-4867-aeb3-cc466256aea0"},"vehicle_type_id":"4","last_reported":1718471228,"current_range_meters":0,"station_id":"ce4bhs12rcd13ifvqhvg","pricing_plan_id":"cebpf4jnsgd1na2vs0mg"},{"bike_id":"c1f62fdd-d038-4e9b-b660-fdbcc84b953e","system_id":"levelo_inurba_marseille","lat":43.32488,"lon":5.36566,"is_reserved":false,"is_disabled":false,"rental_uris":{"android":"levelo://app?vid=c1f62fdd-d038-4e9b-b660-fdbcc84b953e","ios":"levelo://app?vid=c1f62fdd-d038-4e9b-b660-fdbcc84b953e"},"vehicle_type_id":"4","last_reported":1718471228,"current_range_meters":0,"station_id":"ce4bhs12rcd13ifvqhvg","pricing_plan_id":"cebpf4jnsgd1na2vs0mg"},{"bike_id":"0c078b81-df41-4216-b1d1-63c7b8f03d19","system_id":"levelo_inurba_marseille","lat":43.310804,"lon":5.38359,"is_reserved":false,"is_disabled":false,"rental_uris":{"android":"levelo://app?vid=0c078b81-df41-4216-b1d1-63c7b8f03d19","ios":"levelo://app?vid=0c078b81-df41-4216-b1d1-63c7b8f03d19"},"vehicle_type_id":"4","last_reported":1718471228,"current_range_meters":0,"station_id":"ce4bgv92rcd13ifvqcr0","pricing_plan_id":"cebpf4jnsgd1na2vs0mg"},{"bike_id":"88e2ef8e-16c1-4810-b009-de846a008235","system_id":"levelo_inurba_marseille","lat":43.302784,"lon":5.377158,"is_reserved":false,"is_disabled":false,"rental_uris":{"android":"levelo://app?vid=88e2ef8e-16c1-4810-b009-de846a008235","ios":"levelo://app?vid=88e2ef8e-16c1-4810-b009-de846a008235"},"vehicle_type_id":"4","last_reported":1718471228,"current_range_meters":16000,"station_id":"ce4bguh2rcd13ifvqcj0","pricing_plan_id":"cebpf4jnsgd1na2vs0mg"},{"bike_id":"0aa56b24-bc9f-437d-9c40-21a38999b890","system_id":"levelo_inurba_marseille","lat":43.302784,"lon":5.377158,"is_reserved":false,"is_disabled":false,"rental_uris":{"android":"levelo://app?vid=0aa56b24-bc9f-437d-9c40-21a38999b890","ios":"levelo://app?vid=0aa56b24-bc9f-437d-9c40-21a38999b890"},"vehicle_type_id":"4","last_reported":1718471228,"current_range_meters":20400,"station_id":"ce4bguh2rcd13ifvqcj0","pricing_plan_id":"cebpf4jnsgd1na2vs0mg"},{"bike_id":"30b3d114-7fc4-4b9e-b233-331e99125d43","system_id":"levelo_inurba_marseille","lat":43.319935,"lon":5.381699,"is_reserved":false,"is_disabled":false,"rental_uris":{"android":"levelo://app?vid=30b3d114-7fc4-4b9e-b233-331e99125d43","ios":"levelo://app?vid=30b3d114-7fc4-4b9e-b233-331e99125d43"},"vehicle_type_id":"4","last_reported":1718471228,"current_range_meters":14800,"station_id":"ce4bhr12rcd13ifvqhpg","pricing_plan_id":"cebpf4jnsgd1na2vs0mg"},{"bike_id":"3b477e3a-6ece-46c2-a3d0-f434ed507e91","system_id":"levelo_inurba_marseille","lat":43.319935,"lon":5.381699,"is_reserved":false,"is_disabled":false,"rental_uris":{"android":"levelo://app?vid=3b477e3a-6ece-46c2-a3d0-f434ed507e91","ios":"levelo://app?vid=3b477e3a-6ece-46c2-a3d0-f434ed507e91"},"vehicle_type_id":"4","last_reported":1718471228,"current_range_meters":0,"station_id":"ce4bhr12rcd13ifvqhpg","pricing_plan_id":"cebpf4jnsgd1na2vs0mg"},{"bike_id":"84538e24-c926-4026-8997-11ca0bc7e288","system_id":"levelo_inurba_marseille","lat":43.313571,"lon":5.384829,"is_reserved":false,"is_disabled":false,"rental_uris":{"android":"levelo://app?vid=84538e24-c926-4026-8997-11ca0bc7e288","ios":"levelo://app?vid=84538e24-c926-4026-8997-11ca0bc7e288"},"vehicle_type_id":"4","last_reported":1718471228,"current_range_meters":0,"station_id":"ce4bgt92rcd13ifvqcf0","pricing_plan_id":"cebpf4jnsgd1na2vs0mg"},{"bike_id":"e214c535-f8f3-421c-8e42-04e36fb19963","system_id":"levelo_inurba_marseille","lat":43.31368,"lon":5.38491,"is_reserved":false,"is_disabled":false,"rental_uris":{"android":"levelo://app?vid=e214c535-f8f3-421c-8e42-04e36fb19963","ios":"levelo://app?vid=e214c535-f8f3-421c-8e42-04e36fb19963"},"vehicle_type_id":"4","last_reported":1718471228,"current_range_meters":0,"station_id":"ce4bgt92rcd13ifvqcf0","pricing_plan_id":"cebpf4jnsgd1na2vs0mg"},{"bike_id":"fd6aae69-0a1c-4fc6-a476-00af69ff955f","system_id":"levelo_inurba_marseille","lat":43.313571,"lon":5.384829,"is_reserved":false,"is_disabled":false,"rental_uris":{"android":"levelo://app?vid=fd6aae69-0a1c-4fc6-a476-00af69ff955f","ios":"levelo://app?vid=fd6aae69-0a1c-4fc6-a476-00af69ff955f"},"vehicle_type_id":"4","last_reported":1718471228,"current_range_meters":16800,"station_id":"ce4bgt92rcd13ifvqcf0","pricing_plan_id":"cebpf4jnsgd1na2vs0mg"},{"bike_id":"28104f9e-42cf-4a9b-bf4b-16aaa1ec932f","system_id":"levelo_inurba_marseille","lat":43.299222,"lon":5.365554,"is_reserved":false,"is_disabled":false,"rental_uris":{"android":"levelo://app?vid=28104f9e-42cf-4a9b-bf4b-16aaa1ec932f","ios":"levelo://app?vid=28104f9e-42cf-4a9b-bf4b-16aaa1ec932f"},"vehicle_type_id":"4","last_reported":1718471228,"current_range_meters":25600,"station_id":"ce4bgm92rcd13ifvqbr0","pricing_plan_id":"cebpf4jnsgd1na2vs0mg"},{"bike_id":"7f3ea63c-6f7e-49ab-b3cd-335368d7d9e8","system_id":"levelo_inurba_marseille","lat":43.299222,"lon":5.365554,"is_reserved":false,"is_disabled":false,"rental_uris":{"android":"levelo://app?vid=7f3ea63c-6f7e-49ab-b3cd-335368d7d9e8","ios":"levelo://app?vid=7f3ea63c-6f7e-49ab-b3cd-335368d7d9e8"},"vehicle_type_id":"4","last_reported":1718471228,"current_range_meters":9600,"station_id":"ce4bgm92rcd13ifvqbr0","pricing_plan_id":"cebpf4jnsgd1na2vs0mg"},{"bike_id":"49e32c55-54fc-4d65-afbc-3083103f4cbf","system_id":"levelo_inurba_marseille","lat":43.29952,"lon":5.37472,"is_reserved":false,"is_disabled":false,"rental_uris":{"android":"levelo://app?vid=49e32c55-54fc-4d65-afbc-3083103f4cbf","ios":"levelo://app?vid=49e32c55-54fc-4d65-afbc-3083103f4cbf"},"vehicle_type_id":"4","last_reported":1718471228,"current_range_meters":0,"station_id":"","pricing_plan_id":"cebpf4jnsgd1na2vs0mg"},{"bike_id":"8ff4f340-49f9-4c0e-9d3b-4d03744afd12","system_id":"levelo_inurba_marseille","lat":43.305364,"lon":5.384119,"is_reserved":false,"is_disabled":false,"rental_uris":{"android":"levelo://app?vid=8ff4f340-49f9-4c0e-9d3b-4d03744afd12","ios":"levelo://app?vid=8ff4f340-49f9-4c0e-9d3b-4d03744afd12"},"vehicle_type_id":"4","last_reported":1718471228,"current_range_meters":12800,"station_id":"ce4bgg92rcd13ifvqb30","pricing_plan_id":"cebpf4jnsgd1na2vs0mg"},{"bike_id":"d7a4e072-c713-42b3-baad-853a77b634dd","system_id":"levelo_inurba_marseille","lat":43.29844,"lon":5.36278,"is_reserved":false,"is_disabled":false,"rental_uris":{"android":"levelo://app?vid=d7a4e072-c713-42b3-baad-853a77b634dd","ios":"levelo://app?vid=d7a4e072-c713-42b3-baad-853a77b634dd"},"vehicle_type_id":"4","last_reported":1718471228,"current_range_meters":800,"station_id":"ce4bgpp2rcd13ifvqc3g","pricing_plan_id":"cebpf4jnsgd1na2vs0mg"},{"bike_id":"d5fb957e-76d8-4807-afb7-12880b2f5d2e","system_id":"levelo_inurba_marseille","lat":43.297794,"lon":5.370888,"is_reserved":false,"is_disabled":false,"rental_uris":{"android":"levelo://app?vid=d5fb957e-76d8-4807-afb7-12880b2f5d2e","ios":"levelo://app?vid=d5fb957e-76d8-4807-afb7-12880b2f5d2e"},"vehicle_type_id":"4","last_reported":1718471228,"current_range_meters":17200,"station_id":"ce4bgop2rcd13ifvqc1g","pricing_plan_id":"cebpf4jnsgd1na2vs0mg"},{"bike_id":"8029ecd1-33e2-4630-a400-989116e1b619","system_id":"levelo_inurba_marseille","lat":43.322872,"lon":5.382756,"is_reserved":false,"is_disabled":false,"rental_uris":{"android":"levelo://app?vid=8029ecd1-33e2-4630-a400-989116e1b619","ios":"levelo://app?vid=8029ecd1-33e2-4630-a400-989116e1b619"},"vehicle_type_id":"4","last_reported":1718471228,"current_range_meters":30400,"station_id":"ce4bhr12rcd13ifvqhqg","pricing_plan_id":"cebpf4jnsgd1na2vs0mg"},{"bike_id":"01383fda-e6b3-4a07-9b33-a5992385f3b2","system_id":"levelo_inurba_marseille","lat":43.322872,"lon":5.382756,"is_reserved":false,"is_disabled":false,"rental_uris":{"android":"levelo://app?vid=01383fda-e6b3-4a07-9b33-a5992385f3b2","ios":"levelo://app?vid=01383fda-e6b3-4a07-9b33-a5992385f3b2"},"vehicle_type_id":"4","last_reported":1718471228,"current_range_meters":28400,"station_id":"ce4bhr12rcd13ifvqhqg","pricing_plan_id":"cebpf4jnsgd1na2vs0mg"},{"bike_id":"119b18aa-8a7e-4cbd-ab05-c2a21f71dc57","system_id":"levelo_inurba_marseille","lat":43.322872,"lon":5.382756,"is_reserved":false,"is_disabled":false,"rental_uris":{"android":"levelo://app?vid=119b18aa-8a7e-4cbd-ab05-c2a21f71dc57","ios":"levelo://app?vid=119b18aa-8a7e-4cbd-ab05-c2a21f71dc57"},"vehicle_type_id":"4","last_reported":1718471228,"current_range_meters":13600,"station_id":"ce4bhr12rcd13ifvqhqg","pricing_plan_id":"cebpf4jnsgd1na2vs0mg"},{"bike_id":"b1cff31b-4ed6-49c9-9f41-ac9831875272","system_id":"levelo_inurba_marseille","lat":43.2968,"lon":5.37291,"is_reserved":false,"is_disabled":false,"rental_uris":{"android":"levelo://app?vid=b1cff31b-4ed6-49c9-9f41-ac9831875272","ios":"levelo://app?vid=b1cff31b-4ed6-49c9-9f41-ac9831875272"},"vehicle_type_id":"4","last_reported":1718471228,"current_range_meters":25200,"station_id":"ce4bgk12rcd13ifvqbj0","pricing_plan_id":"cebpf4jnsgd1na2vs0mg"},{"bike_id":"c83dc4b7-2a1a-4b5a-921f-d7d33eb3b2c4","system_id":"levelo_inurba_marseille","lat":43.296131,"lon":5.370791,"is_reserved":false,"is_disabled":false,"rental_uris":{"android":"levelo://app?vid=c83dc4b7-2a1a-4b5a-921f-d7d33eb3b2c4","ios":"levelo://app?vid=c83dc4b7-2a1a-4b5a-921f-d7d33eb3b2c4"},"vehicle_type_id":"4","last_reported":1718471228,"current_range_meters":15200,"station_id":"ce4bgnh2rcd13ifvqc0g","pricing_plan_id":"cebpf4jnsgd1na2vs0mg"},{"bike_id":"6de6e078-ffd7-49a0-b358-0b4be7a9cc3e","system_id":"levelo_inurba_marseille","lat":43.299028,"lon":5.381509,"is_reserved":false,"is_disabled":false,"rental_uris":{"android":"levelo://app?vid=6de6e078-ffd7-49a0-b358-0b4be7a9cc3e","ios":"levelo://app?vid=6de6e078-ffd7-49a0-b358-0b4be7a9cc3e"},"vehicle_type_id":"4","last_reported":1718471228,"current_range_meters":22800,"station_id":"ce4bgj12rcd13ifvqbc0","pricing_plan_id":"cebpf4jnsgd1na2vs0mg"},{"bike_id":"b969334d-f34f-42e4-8653-6ae65a173a72","system_id":"levelo_inurba_marseille","lat":43.29914,"lon":5.38142,"is_reserved":false,"is_disabled":false,"rental_uris":{"android":"levelo://app?vid=b969334d-f34f-42e4-8653-6ae65a173a72","ios":"levelo://app?vid=b969334d-f34f-42e4-8653-6ae65a173a72"},"vehicle_type_id":"4","last_reported":1718471228,"current_range_meters":10400,"station_id":"ce4bgj12rcd13ifvqbc0","pricing_plan_id":"cebpf4jnsgd1na2vs0mg"},{"bike_id":"579b7585-4505-4bed-af29-acb1048018de","system_id":"levelo_inurba_marseille","lat":43.309589,"lon":5.390258,"is_reserved":false,"is_disabled":false,"rental_uris":{"android":"levelo://app?vid=579b7585-4505-4bed-af29-acb1048018de","ios":"levelo://app?vid=579b7585-4505-4bed-af29-acb1048018de"},"vehicle_type_id":"4","last_reported":1718471228,"current_range_meters":6400,"station_id":"ce4bgup2rcd13ifvqco0","pricing_plan_id":"cebpf4jnsgd1na2vs0mg"},{"bike_id":"31030fd7-bfc1-4e84-87b8-e8df0ad818b4","system_id":"levelo_inurba_marseille","lat":43.29913,"lon":5.38157,"is_reserved":false,"is_disabled":false,"rental_uris":{"android":"levelo://app?vid=31030fd7-bfc1-4e84-87b8-e8df0ad818b4","ios":"levelo://app?vid=31030fd7-bfc1-4e84-87b8-e8df0ad818b4"},"vehicle_type_id":"4","last_reported":1718471228,"current_range_meters":9600,"station_id":"ce4bgj12rcd13ifvqbc0","pricing_plan_id":"cebpf4jnsgd1na2vs0mg"},{"bike_id":"7ab2a82b-c596-4c3b-9725-b9667333b4d3","system_id":"levelo_inurba_marseille","lat":43.309589,"lon":5.390258,"is_reserved":false,"is_disabled":false,"rental_uris":{"android":"levelo://app?vid=7ab2a82b-c596-4c3b-9725-b9667333b4d3","ios":"levelo://app?vid=7ab2a82b-c596-4c3b-9725-b9667333b4d3"},"vehicle_type_id":"4","last_reported":1718471228,"current_range_meters":18800,"station_id":"ce4bgup2rcd13ifvqco0","pricing_plan_id":"cebpf4jnsgd1na2vs0mg"},{"bike_id":"460fd94d-a9fc-40ef-a205-a2f14ab54e81","system_id":"levelo_inurba_marseille","lat":43.309589,"lon":5.390258,"is_reserved":false,"is_disabled":false,"rental_uris":{"android":"levelo://app?vid=460fd94d-a9fc-40ef-a205-a2f14ab54e81","ios":"levelo://app?vid=460fd94d-a9fc-40ef-a205-a2f14ab54e81"},"vehicle_type_id":"4","last_reported":1718471228,"current_range_meters":25200,"station_id":"ce4bgup2rcd13ifvqco0","pricing_plan_id":"cebpf4jnsgd1na2vs0mg"},{"bike_id":"2c14229b-a923-4c2b-b560-b10d8408e39e","system_id":"levelo_inurba_marseille","lat":43.299028,"lon":5.381509,"is_reserved":false,"is_disabled":false,"rental_uris":{"android":"levelo://app?vid=2c14229b-a923-4c2b-b560-b10d8408e39e","ios":"levelo://app?vid=2c14229b-a923-4c2b-b560-b10d8408e39e"},"vehicle_type_id":"4","last_reported":1718471228,"current_range_meters":0,"station_id":"ce4bgj12rcd13ifvqbc0","pricing_plan_id":"cebpf4jnsgd1na2vs0mg"},{"bike_id":"0265811e-0d0c-4eaf-8fb1-d07a3048aac4","system_id":"levelo_inurba_marseille","lat":43.309589,"lon":5.390258,"is_reserved":false,"is_disabled":false,"rental_uris":{"android":"levelo://app?vid=0265811e-0d0c-4eaf-8fb1-d07a3048aac4","ios":"levelo://app?vid=0265811e-0d0c-4eaf-8fb1-d07a3048aac4"},"vehicle_type_id":"4","last_reported":1718471228,"current_range_meters":20000,"station_id":"ce4bgup2rcd13ifvqco0","pricing_plan_id":"cebpf4jnsgd1na2vs0mg"},{"bike_id":"620b87da-2c0d-44ae-8abe-4191e7f5c847","system_id":"levelo_inurba_marseille","lat":43.309589,"lon":5.390258,"is_reserved":false,"is_disabled":false,"rental_uris":{"android":"levelo://app?vid=620b87da-2c0d-44ae-8abe-4191e7f5c847","ios":"levelo://app?vid=620b87da-2c0d-44ae-8abe-4191e7f5c847"},"vehicle_type_id":"4","last_reported":1718471228,"current_range_meters":2000,"station_id":"ce4bgup2rcd13ifvqco0","pricing_plan_id":"cebpf4jnsgd1na2vs0mg"},{"bike_id":"a7db4af2-f2dd-44a7-a1f6-f1d8689fd7be","system_id":"levelo_inurba_marseille","lat":43.30956,"lon":5.39041,"is_reserved":false,"is_disabled":false,"rental_uris":{"android":"levelo://app?vid=a7db4af2-f2dd-44a7-a1f6-f1d8689fd7be","ios":"levelo://app?vid=a7db4af2-f2dd-44a7-a1f6-f1d8689fd7be"},"vehicle_type_id":"4","last_reported":1718471228,"current_range_meters":10400,"station_id":"ce4bgup2rcd13ifvqco0","pricing_plan_id":"cebpf4jnsgd1na2vs0mg"},{"bike_id":"89bd9ca2-f900-42bd-a102-cb917e391770","system_id":"levelo_inurba_marseille","lat":43.317557,"lon":5.390173,"is_reserved":false,"is_disabled":false,"rental_uris":{"android":"levelo://app?vid=89bd9ca2-f900-42bd-a102-cb917e391770","ios":"levelo://app?vid=89bd9ca2-f900-42bd-a102-cb917e391770"},"vehicle_type_id":"4","last_reported":1718471228,"current_range_meters":6800,"station_id":"ce4bhqp2rcd13ifvqhng","pricing_plan_id":"cebpf4jnsgd1na2vs0mg"},{"bike_id":"689002ce-381e-4616-a884-d7af9221fd1d","system_id":"levelo_inurba_marseille","lat":43.317557,"lon":5.390173,"is_reserved":false,"is_disabled":false,"rental_uris":{"android":"levelo://app?vid=689002ce-381e-4616-a884-d7af9221fd1d","ios":"levelo://app?vid=689002ce-381e-4616-a884-d7af9221fd1d"},"vehicle_type_id":"4","last_reported":1718471228,"current_range_meters":26000,"station_id":"ce4bhqp2rcd13ifvqhng","pricing_plan_id":"cebpf4jnsgd1na2vs0mg"},{"bike_id":"8d6a9a1b-88cc-40bd-9ff7-8d0d7eac000f","system_id":"levelo_inurba_marseille","lat":43.295748,"lon":5.37522,"is_reserved":false,"is_disabled":false,"rental_uris":{"android":"levelo://app?vid=8d6a9a1b-88cc-40bd-9ff7-8d0d7eac000f","ios":"levelo://app?vid=8d6a9a1b-88cc-40bd-9ff7-8d0d7eac000f"},"vehicle_type_id":"4","last_reported":1718471228,"current_range_meters":1600,"station_id":"ce4bgh92rcd13ifvqb50","pricing_plan_id":"cebpf4jnsgd1na2vs0mg"},{"bike_id":"cada8b91-b9b3-4955-a4a0-a5abaa817b28","system_id":"levelo_inurba_marseille","lat":43.298037,"lon":5.381066,"is_reserved":false,"is_disabled":false,"rental_uris":{"android":"levelo://app?vid=cada8b91-b9b3-4955-a4a0-a5abaa817b28","ios":"levelo://app?vid=cada8b91-b9b3-4955-a4a0-a5abaa817b28"},"vehicle_type_id":"4","last_reported":1718471228,"current_range_meters":31600,"station_id":"ce4bgip2rcd13ifvqbb0","pricing_plan_id":"cebpf4jnsgd1na2vs0mg"},{"bike_id":"5332e04e-0840-4916-9fc3-0ff43fbb6a96","system_id":"levelo_inurba_marseille","lat":43.299028,"lon":5.381509,"is_reserved":false,"is_disabled":false,"rental_uris":{"android":"levelo://app?vid=5332e04e-0840-4916-9fc3-0ff43fbb6a96","ios":"levelo://app?vid=5332e04e-0840-4916-9fc3-0ff43fbb6a96"},"vehicle_type_id":"4","last_reported":1718471228,"current_range_meters":400,"station_id":"ce4bgj12rcd13ifvqbc0","pricing_plan_id":"cebpf4jnsgd1na2vs0mg"},{"bike_id":"50388174-acf3-4867-bbe4-1ef6a8a7dc58","system_id":"levelo_inurba_marseille","lat":43.295279,"lon":5.375048,"is_reserved":false,"is_disabled":false,"rental_uris":{"android":"levelo://app?vid=50388174-acf3-4867-bbe4-1ef6a8a7dc58","ios":"levelo://app?vid=50388174-acf3-4867-bbe4-1ef6a8a7dc58"},"vehicle_type_id":"4","last_reported":1718471228,"current_range_meters":2000,"station_id":"ce4bgkp2rcd13ifvqbmg","pricing_plan_id":"cebpf4jnsgd1na2vs0mg"},{"bike_id":"69256041-a9aa-425e-9349-77ba8e83b878","system_id":"levelo_inurba_marseille","lat":43.299717,"lon":5.384845,"is_reserved":false,"is_disabled":false,"rental_uris":{"android":"levelo://app?vid=69256041-a9aa-425e-9349-77ba8e83b878","ios":"levelo://app?vid=69256041-a9aa-425e-9349-77ba8e83b878"},"vehicle_type_id":"4","last_reported":1718471228,"current_range_meters":0,"station_id":"ce4bgj92rcd13ifvqbd0","pricing_plan_id":"cebpf4jnsgd1na2vs0mg"},{"bike_id":"c0245490-81fd-452a-bc1b-059c2a5ebd25","system_id":"levelo_inurba_marseille","lat":43.32367,"lon":5.388836,"is_reserved":false,"is_disabled":false,"rental_uris":{"android":"levelo://app?vid=c0245490-81fd-452a-bc1b-059c2a5ebd25","ios":"levelo://app?vid=c0245490-81fd-452a-bc1b-059c2a5ebd25"},"vehicle_type_id":"4","last_reported":1718471228,"current_range_meters":8400,"station_id":"ce4bhqp2rcd13ifvqhog","pricing_plan_id":"cebpf4jnsgd1na2vs0mg"},{"bike_id":"54c56d74-ca85-4636-a8e6-4dde109b3fce","system_id":"levelo_inurba_marseille","lat":43.32367,"lon":5.388836,"is_reserved":false,"is_disabled":false,"rental_uris":{"android":"levelo://app?vid=54c56d74-ca85-4636-a8e6-4dde109b3fce","ios":"levelo://app?vid=54c56d74-ca85-4636-a8e6-4dde109b3fce"},"vehicle_type_id":"4","last_reported":1718471228,"current_range_meters":20800,"station_id":"ce4bhqp2rcd13ifvqhog","pricing_plan_id":"cebpf4jnsgd1na2vs0mg"},{"bike_id":"1637f4f3-ad35-4d55-9e30-2b5616539c5f","system_id":"levelo_inurba_marseille","lat":43.32367,"lon":5.388836,"is_reserved":false,"is_disabled":false,"rental_uris":{"android":"levelo://app?vid=1637f4f3-ad35-4d55-9e30-2b5616539c5f","ios":"levelo://app?vid=1637f4f3-ad35-4d55-9e30-2b5616539c5f"},"vehicle_type_id":"4","last_reported":1718471228,"current_range_meters":6800,"station_id":"ce4bhqp2rcd13ifvqhog","pricing_plan_id":"cebpf4jnsgd1na2vs0mg"},{"bike_id":"d86f7998-7a25-40fb-a0d1-14387a955595","system_id":"levelo_inurba_marseille","lat":43.32367,"lon":5.388836,"is_reserved":false,"is_disabled":false,"rental_uris":{"android":"levelo://app?vid=d86f7998-7a25-40fb-a0d1-14387a955595","ios":"levelo://app?vid=d86f7998-7a25-40fb-a0d1-14387a955595"},"vehicle_type_id":"4","last_reported":1718471228,"current_range_meters":2000,"station_id":"ce4bhqp2rcd13ifvqhog","pricing_plan_id":"cebpf4jnsgd1na2vs0mg"},{"bike_id":"cdcb4623-6523-4b9f-88f1-7bd66f1a2926","system_id":"levelo_inurba_marseille","lat":43.32367,"lon":5.388836,"is_reserved":false,"is_disabled":false,"rental_uris":{"android":"levelo://app?vid=cdcb4623-6523-4b9f-88f1-7bd66f1a2926","ios":"levelo://app?vid=cdcb4623-6523-4b9f-88f1-7bd66f1a2926"},"vehicle_type_id":"4","last_reported":1718471228,"current_range_meters":4400,"station_id":"ce4bhqp2rcd13ifvqhog","pricing_plan_id":"cebpf4jnsgd1na2vs0mg"},{"bike_id":"be7bde44-2736-46f6-86d2-f673ea749756","system_id":"levelo_inurba_marseille","lat":43.32367,"lon":5.38884,"is_reserved":false,"is_disabled":false,"rental_uris":{"android":"levelo://app?vid=be7bde44-2736-46f6-86d2-f673ea749756","ios":"levelo://app?vid=be7bde44-2736-46f6-86d2-f673ea749756"},"vehicle_type_id":"4","last_reported":1718471228,"current_range_meters":0,"station_id":"ce4bhqp2rcd13ifvqhog","pricing_plan_id":"cebpf4jnsgd1na2vs0mg"},{"bike_id":"3b29fd31-1a15-408a-9859-999a92754cdf","system_id":"levelo_inurba_marseille","lat":43.32367,"lon":5.388836,"is_reserved":false,"is_disabled":false,"rental_uris":{"android":"levelo://app?vid=3b29fd31-1a15-408a-9859-999a92754cdf","ios":"levelo://app?vid=3b29fd31-1a15-408a-9859-999a92754cdf"},"vehicle_type_id":"4","last_reported":1718471228,"current_range_meters":2000,"station_id":"ce4bhqp2rcd13ifvqhog","pricing_plan_id":"cebpf4jnsgd1na2vs0mg"},{"bike_id":"b897dae1-d287-4269-a686-b6c1ab362700","system_id":"levelo_inurba_marseille","lat":43.32367,"lon":5.388836,"is_reserved":false,"is_disabled":false,"rental_uris":{"android":"levelo://app?vid=b897dae1-d287-4269-a686-b6c1ab362700","ios":"levelo://app?vid=b897dae1-d287-4269-a686-b6c1ab362700"},"vehicle_type_id":"4","last_reported":1718471228,"current_range_meters":6000,"station_id":"ce4bhqp2rcd13ifvqhog","pricing_plan_id":"cebpf4jnsgd1na2vs0mg"},{"bike_id":"91d8f326-da5a-4eb5-b76d-e8e186bd842b","system_id":"levelo_inurba_marseille","lat":43.32367,"lon":5.388836,"is_reserved":false,"is_disabled":false,"rental_uris":{"android":"levelo://app?vid=91d8f326-da5a-4eb5-b76d-e8e186bd842b","ios":"levelo://app?vid=91d8f326-da5a-4eb5-b76d-e8e186bd842b"},"vehicle_type_id":"4","last_reported":1718471228,"current_range_meters":27200,"station_id":"ce4bhqp2rcd13ifvqhog","pricing_plan_id":"cebpf4jnsgd1na2vs0mg"},{"bike_id":"7561201b-0e8e-45e5-8890-9800c6bdc8e0","system_id":"levelo_inurba_marseille","lat":43.32367,"lon":5.388836,"is_reserved":false,"is_disabled":false,"rental_uris":{"android":"levelo://app?vid=7561201b-0e8e-45e5-8890-9800c6bdc8e0","ios":"levelo://app?vid=7561201b-0e8e-45e5-8890-9800c6bdc8e0"},"vehicle_type_id":"4","last_reported":1718471228,"current_range_meters":11200,"station_id":"ce4bhqp2rcd13ifvqhog","pricing_plan_id":"cebpf4jnsgd1na2vs0mg"},{"bike_id":"d109fd83-0a58-41ad-a9ab-081cb15799ce","system_id":"levelo_inurba_marseille","lat":43.29602,"lon":5.381084,"is_reserved":false,"is_disabled":false,"rental_uris":{"android":"levelo://app?vid=d109fd83-0a58-41ad-a9ab-081cb15799ce","ios":"levelo://app?vid=d109fd83-0a58-41ad-a9ab-081cb15799ce"},"vehicle_type_id":"4","last_reported":1718471228,"current_range_meters":18000,"station_id":"ce4bgl12rcd13ifvqbo0","pricing_plan_id":"cebpf4jnsgd1na2vs0mg"},{"bike_id":"53c8a976-67bf-4882-a1af-b8984cde5142","system_id":"levelo_inurba_marseille","lat":43.29601,"lon":5.381084,"is_reserved":false,"is_disabled":false,"rental_uris":{"android":"levelo://app?vid=53c8a976-67bf-4882-a1af-b8984cde5142","ios":"levelo://app?vid=53c8a976-67bf-4882-a1af-b8984cde5142"},"vehicle_type_id":"4","last_reported":1718471228,"current_range_meters":0,"station_id":"ce4bgl12rcd13ifvqbo0","pricing_plan_id":"cebpf4jnsgd1na2vs0mg"},{"bike_id":"5f76de0b-e727-4ccd-9108-2d174d6c9289","system_id":"levelo_inurba_marseille","lat":43.29602,"lon":5.381084,"is_reserved":false,"is_disabled":false,"rental_uris":{"android":"levelo://app?vid=5f76de0b-e727-4ccd-9108-2d174d6c9289","ios":"levelo://app?vid=5f76de0b-e727-4ccd-9108-2d174d6c9289"},"vehicle_type_id":"4","last_reported":1718471228,"current_range_meters":7200,"station_id":"ce4bgl12rcd13ifvqbo0","pricing_plan_id":"cebpf4jnsgd1na2vs0mg"},{"bike_id":"d0fbc088-8d9a-4c5d-a2c5-ac4a559cc811","system_id":"levelo_inurba_marseille","lat":43.29602,"lon":5.381084,"is_reserved":false,"is_disabled":false,"rental_uris":{"android":"levelo://app?vid=d0fbc088-8d9a-4c5d-a2c5-ac4a559cc811","ios":"levelo://app?vid=d0fbc088-8d9a-4c5d-a2c5-ac4a559cc811"},"vehicle_type_id":"4","last_reported":1718471228,"current_range_meters":20800,"station_id":"ce4bgl12rcd13ifvqbo0","pricing_plan_id":"cebpf4jnsgd1na2vs0mg"},{"bike_id":"a9d6b368-42f9-476f-92f5-f820f4d1242a","system_id":"levelo_inurba_marseille","lat":43.293009,"lon":5.374584,"is_reserved":false,"is_disabled":false,"rental_uris":{"android":"levelo://app?vid=a9d6b368-42f9-476f-92f5-f820f4d1242a","ios":"levelo://app?vid=a9d6b368-42f9-476f-92f5-f820f4d1242a"},"vehicle_type_id":"4","last_reported":1718471228,"current_range_meters":0,"station_id":"ce4bgi12rcd13ifvqb70","pricing_plan_id":"cebpf4jnsgd1na2vs0mg"},{"bike_id":"115a528c-5571-45d0-a141-08e046c2d085","system_id":"levelo_inurba_marseille","lat":43.293009,"lon":5.374584,"is_reserved":false,"is_disabled":false,"rental_uris":{"android":"levelo://app?vid=115a528c-5571-45d0-a141-08e046c2d085","ios":"levelo://app?vid=115a528c-5571-45d0-a141-08e046c2d085"},"vehicle_type_id":"4","last_reported":1718471228,"current_range_meters":31600,"station_id":"ce4bgi12rcd13ifvqb70","pricing_plan_id":"cebpf4jnsgd1na2vs0mg"},{"bike_id":"dd20b4db-791f-4add-a3d6-786b3c41fe70","system_id":"levelo_inurba_marseille","lat":43.302992,"lon":5.392136,"is_reserved":false,"is_disabled":false,"rental_uris":{"android":"levelo://app?vid=dd20b4db-791f-4add-a3d6-786b3c41fe70","ios":"levelo://app?vid=dd20b4db-791f-4add-a3d6-786b3c41fe70"},"vehicle_type_id":"4","last_reported":1718471228,"current_range_meters":0,"station_id":"ce4bgkh2rcd13ifvqbk0","pricing_plan_id":"cebpf4jnsgd1na2vs0mg"},{"bike_id":"f815a62c-f5a3-4a5c-8cdb-1d45a8d48421","system_id":"levelo_inurba_marseille","lat":43.303002,"lon":5.392142,"is_reserved":false,"is_disabled":false,"rental_uris":{"android":"levelo://app?vid=f815a62c-f5a3-4a5c-8cdb-1d45a8d48421","ios":"levelo://app?vid=f815a62c-f5a3-4a5c-8cdb-1d45a8d48421"},"vehicle_type_id":"4","last_reported":1718471228,"current_range_meters":3200,"station_id":"ce4bgkh2rcd13ifvqbk0","pricing_plan_id":"cebpf4jnsgd1na2vs0mg"},{"bike_id":"8a237b79-1025-4d97-97c4-1185a927b3ee","system_id":"levelo_inurba_marseille","lat":43.292311,"lon":5.360731,"is_reserved":false,"is_disabled":false,"rental_uris":{"android":"levelo://app?vid=8a237b79-1025-4d97-97c4-1185a927b3ee","ios":"levelo://app?vid=8a237b79-1025-4d97-97c4-1185a927b3ee"},"vehicle_type_id":"4","last_reported":1718471228,"current_range_meters":0,"station_id":"ce4bhbh2rcd13ifvqeqg","pricing_plan_id":"cebpf4jnsgd1na2vs0mg"},{"bike_id":"14d38b4b-5d33-4b9d-8dbf-dd92788b45e5","system_id":"levelo_inurba_marseille","lat":43.292311,"lon":5.360731,"is_reserved":false,"is_disabled":false,"rental_uris":{"android":"levelo://app?vid=14d38b4b-5d33-4b9d-8dbf-dd92788b45e5","ios":"levelo://app?vid=14d38b4b-5d33-4b9d-8dbf-dd92788b45e5"},"vehicle_type_id":"4","last_reported":1718471228,"current_range_meters":26800,"station_id":"ce4bhbh2rcd13ifvqeqg","pricing_plan_id":"cebpf4jnsgd1na2vs0mg"},{"bike_id":"caadb8a9-4103-4996-a9e2-c50cc4d144df","system_id":"levelo_inurba_marseille","lat":43.300852,"lon":5.390859,"is_reserved":false,"is_disabled":false,"rental_uris":{"android":"levelo://app?vid=caadb8a9-4103-4996-a9e2-c50cc4d144df","ios":"levelo://app?vid=caadb8a9-4103-4996-a9e2-c50cc4d144df"},"vehicle_type_id":"4","last_reported":1718471228,"current_range_meters":16800,"station_id":"ce4bh192rcd13ifvqdb0","pricing_plan_id":"cebpf4jnsgd1na2vs0mg"},{"bike_id":"09266a16-c4a1-43e9-8532-65908d6d80e7","system_id":"levelo_inurba_marseille","lat":43.30085,"lon":5.390856,"is_reserved":false,"is_disabled":false,"rental_uris":{"android":"levelo://app?vid=09266a16-c4a1-43e9-8532-65908d6d80e7","ios":"levelo://app?vid=09266a16-c4a1-43e9-8532-65908d6d80e7"},"vehicle_type_id":"4","last_reported":1718471228,"current_range_meters":0,"station_id":"ce4bh192rcd13ifvqdb0","pricing_plan_id":"cebpf4jnsgd1na2vs0mg"},{"bike_id":"2d18374f-5e5b-41b5-b47c-3c073d070b31","system_id":"levelo_inurba_marseille","lat":43.29197,"lon":5.35797,"is_reserved":false,"is_disabled":false,"rental_uris":{"android":"levelo://app?vid=2d18374f-5e5b-41b5-b47c-3c073d070b31","ios":"levelo://app?vid=2d18374f-5e5b-41b5-b47c-3c073d070b31"},"vehicle_type_id":"4","last_reported":1718471228,"current_range_meters":0,"station_id":"ce4bhb12rcd13ifvqel0","pricing_plan_id":"cebpf4jnsgd1na2vs0mg"},{"bike_id":"738ad97f-8a03-4a4c-9cfd-096aba1c4b17","system_id":"levelo_inurba_marseille","lat":43.29529,"lon":5.385581,"is_reserved":false,"is_disabled":false,"rental_uris":{"android":"levelo://app?vid=738ad97f-8a03-4a4c-9cfd-096aba1c4b17","ios":"levelo://app?vid=738ad97f-8a03-4a4c-9cfd-096aba1c4b17"},"vehicle_type_id":"4","last_reported":1718471228,"current_range_meters":0,"station_id":"ce4bgih2rcd13ifvqba0","pricing_plan_id":"cebpf4jnsgd1na2vs0mg"},{"bike_id":"660ca8d3-be7c-432b-a401-4ed9e81e57ae","system_id":"levelo_inurba_marseille","lat":43.29529,"lon":5.385581,"is_reserved":false,"is_disabled":false,"rental_uris":{"android":"levelo://app?vid=660ca8d3-be7c-432b-a401-4ed9e81e57ae","ios":"levelo://app?vid=660ca8d3-be7c-432b-a401-4ed9e81e57ae"},"vehicle_type_id":"4","last_reported":1718471228,"current_range_meters":0,"station_id":"ce4bgih2rcd13ifvqba0","pricing_plan_id":"cebpf4jnsgd1na2vs0mg"},{"bike_id":"4069da7e-6e68-46fb-9c8d-a3cc30093d85","system_id":"levelo_inurba_marseille","lat":43.290631,"lon":5.359244,"is_reserved":false,"is_disabled":false,"rental_uris":{"android":"levelo://app?vid=4069da7e-6e68-46fb-9c8d-a3cc30093d85","ios":"levelo://app?vid=4069da7e-6e68-46fb-9c8d-a3cc30093d85"},"vehicle_type_id":"4","last_reported":1718471228,"current_range_meters":24400,"station_id":"ce4bha92rcd13ifvqeg0","pricing_plan_id":"cebpf4jnsgd1na2vs0mg"},{"bike_id":"5d7fe28b-7c5c-470c-82a3-a96812a4061f","system_id":"levelo_inurba_marseille","lat":43.290624,"lon":5.359245,"is_reserved":false,"is_disabled":false,"rental_uris":{"android":"levelo://app?vid=5d7fe28b-7c5c-470c-82a3-a96812a4061f","ios":"levelo://app?vid=5d7fe28b-7c5c-470c-82a3-a96812a4061f"},"vehicle_type_id":"4","last_reported":1718471228,"current_range_meters":12400,"station_id":"ce4bha92rcd13ifvqeg0","pricing_plan_id":"cebpf4jnsgd1na2vs0mg"},{"bike_id":"fadd83b6-7ef2-41e1-b1a0-fc0cd22947a7","system_id":"levelo_inurba_marseille","lat":43.289468,"lon":5.363719,"is_reserved":false,"is_disabled":false,"rental_uris":{"android":"levelo://app?vid=fadd83b6-7ef2-41e1-b1a0-fc0cd22947a7","ios":"levelo://app?vid=fadd83b6-7ef2-41e1-b1a0-fc0cd22947a7"},"vehicle_type_id":"4","last_reported":1718471228,"current_range_meters":23200,"station_id":"ce4bhc92rcd13ifvqetg","pricing_plan_id":"cebpf4jnsgd1na2vs0mg"},{"bike_id":"93c2936f-325f-4d41-8a26-a738d7545b08","system_id":"levelo_inurba_marseille","lat":43.292644,"lon":5.384257,"is_reserved":false,"is_disabled":false,"rental_uris":{"android":"levelo://app?vid=93c2936f-325f-4d41-8a26-a738d7545b08","ios":"levelo://app?vid=93c2936f-325f-4d41-8a26-a738d7545b08"},"vehicle_type_id":"4","last_reported":1718471228,"current_range_meters":0,"station_id":"ce4bh692rcd13ifvqea0","pricing_plan_id":"cebpf4jnsgd1na2vs0mg"},{"bike_id":"df5de9dd-7f6c-4e21-b790-4ba761d24088","system_id":"levelo_inurba_marseille","lat":43.292642,"lon":5.384254,"is_reserved":false,"is_disabled":false,"rental_uris":{"android":"levelo://app?vid=df5de9dd-7f6c-4e21-b790-4ba761d24088","ios":"levelo://app?vid=df5de9dd-7f6c-4e21-b790-4ba761d24088"},"vehicle_type_id":"4","last_reported":1718471228,"current_range_meters":25200,"station_id":"ce4bh692rcd13ifvqea0","pricing_plan_id":"cebpf4jnsgd1na2vs0mg"},{"bike_id":"df8ad017-11ac-4cc5-917f-fb8e412652b8","system_id":"levelo_inurba_marseille","lat":43.304296,"lon":5.397513,"is_reserved":false,"is_disabled":false,"rental_uris":{"android":"levelo://app?vid=df8ad017-11ac-4cc5-917f-fb8e412652b8","ios":"levelo://app?vid=df8ad017-11ac-4cc5-917f-fb8e412652b8"},"vehicle_type_id":"4","last_reported":1718471228,"current_range_meters":4400,"station_id":"ce4bh092rcd13ifvqd20","pricing_plan_id":"cebpf4jnsgd1na2vs0mg"},{"bike_id":"77598045-6686-48dd-98ca-f7fd2f74fb52","system_id":"levelo_inurba_marseille","lat":43.29255,"lon":5.38438,"is_reserved":false,"is_disabled":false,"rental_uris":{"android":"levelo://app?vid=77598045-6686-48dd-98ca-f7fd2f74fb52","ios":"levelo://app?vid=77598045-6686-48dd-98ca-f7fd2f74fb52"},"vehicle_type_id":"4","last_reported":1718471228,"current_range_meters":0,"station_id":"ce4bh692rcd13ifvqea0","pricing_plan_id":"cebpf4jnsgd1na2vs0mg"},{"bike_id":"d4102a0c-1999-4219-a000-a2fb3d3d42fb","system_id":"levelo_inurba_marseille","lat":43.290103,"lon":5.356114,"is_reserved":false,"is_disabled":false,"rental_uris":{"android":"levelo://app?vid=d4102a0c-1999-4219-a000-a2fb3d3d42fb","ios":"levelo://app?vid=d4102a0c-1999-4219-a000-a2fb3d3d42fb"},"vehicle_type_id":"4","last_reported":1718471228,"current_range_meters":3600,"station_id":"ce4bhb92rcd13ifvqen0","pricing_plan_id":"cebpf4jnsgd1na2vs0mg"},{"bike_id":"7ed82b1f-c845-4cba-83ab-fc387f1637ba","system_id":"levelo_inurba_marseille","lat":43.290104,"lon":5.356111,"is_reserved":false,"is_disabled":false,"rental_uris":{"android":"levelo://app?vid=7ed82b1f-c845-4cba-83ab-fc387f1637ba","ios":"levelo://app?vid=7ed82b1f-c845-4cba-83ab-fc387f1637ba"},"vehicle_type_id":"4","last_reported":1718471228,"current_range_meters":8000,"station_id":"ce4bhb92rcd13ifvqen0","pricing_plan_id":"cebpf4jnsgd1na2vs0mg"},{"bike_id":"d963860a-f925-474e-b596-bdb9eadb2230","system_id":"levelo_inurba_marseille","lat":43.29005,"lon":5.35616,"is_reserved":false,"is_disabled":false,"rental_uris":{"android":"levelo://app?vid=d963860a-f925-474e-b596-bdb9eadb2230","ios":"levelo://app?vid=d963860a-f925-474e-b596-bdb9eadb2230"},"vehicle_type_id":"4","last_reported":1718471228,"current_range_meters":0,"station_id":"ce4bhb92rcd13ifvqen0","pricing_plan_id":"cebpf4jnsgd1na2vs0mg"},{"bike_id":"1a7783db-b282-45b8-97eb-16fd4caf0f61","system_id":"levelo_inurba_marseille","lat":43.29005,"lon":5.35613,"is_reserved":false,"is_disabled":false,"rental_uris":{"android":"levelo://app?vid=1a7783db-b282-45b8-97eb-16fd4caf0f61","ios":"levelo://app?vid=1a7783db-b282-45b8-97eb-16fd4caf0f61"},"vehicle_type_id":"4","last_reported":1718471228,"current_range_meters":0,"station_id":"ce4bhb92rcd13ifvqen0","pricing_plan_id":"cebpf4jnsgd1na2vs0mg"},{"bike_id":"af04af60-de7d-4513-858b-d2138e274a60","system_id":"levelo_inurba_marseille","lat":43.290995,"lon":5.381361,"is_reserved":false,"is_disabled":false,"rental_uris":{"android":"levelo://app?vid=af04af60-de7d-4513-858b-d2138e274a60","ios":"levelo://app?vid=af04af60-de7d-4513-858b-d2138e274a60"},"vehicle_type_id":"4","last_reported":1718471228,"current_range_meters":11600,"station_id":"ce4bh512rcd13ifvqe2g","pricing_plan_id":"cebpf4jnsgd1na2vs0mg"},{"bike_id":"4e0d1bcd-4944-4d67-95ac-44c489b1406d","system_id":"levelo_inurba_marseille","lat":43.290995,"lon":5.381361,"is_reserved":false,"is_disabled":false,"rental_uris":{"android":"levelo://app?vid=4e0d1bcd-4944-4d67-95ac-44c489b1406d","ios":"levelo://app?vid=4e0d1bcd-4944-4d67-95ac-44c489b1406d"},"vehicle_type_id":"4","last_reported":1718471228,"current_range_meters":10400,"station_id":"ce4bh512rcd13ifvqe2g","pricing_plan_id":"cebpf4jnsgd1na2vs0mg"},{"bike_id":"267f87ef-c597-4f8b-b9b5-b4c14a09127c","system_id":"levelo_inurba_marseille","lat":43.29098,"lon":5.38129,"is_reserved":false,"is_disabled":false,"rental_uris":{"android":"levelo://app?vid=267f87ef-c597-4f8b-b9b5-b4c14a09127c","ios":"levelo://app?vid=267f87ef-c597-4f8b-b9b5-b4c14a09127c"},"vehicle_type_id":"4","last_reported":1718471228,"current_range_meters":0,"station_id":"ce4bh512rcd13ifvqe2g","pricing_plan_id":"cebpf4jnsgd1na2vs0mg"},{"bike_id":"8adbe404-6731-4c3c-be41-46c97ac1f767","system_id":"levelo_inurba_marseille","lat":43.290995,"lon":5.381361,"is_reserved":false,"is_disabled":false,"rental_uris":{"android":"levelo://app?vid=8adbe404-6731-4c3c-be41-46c97ac1f767","ios":"levelo://app?vid=8adbe404-6731-4c3c-be41-46c97ac1f767"},"vehicle_type_id":"4","last_reported":1718471228,"current_range_meters":21200,"station_id":"ce4bh512rcd13ifvqe2g","pricing_plan_id":"cebpf4jnsgd1na2vs0mg"},{"bike_id":"5fe429da-aa8b-4fe0-8e8b-76f9e475bf3b","system_id":"levelo_inurba_marseille","lat":43.297897,"lon":5.393417,"is_reserved":false,"is_disabled":false,"rental_uris":{"android":"levelo://app?vid=5fe429da-aa8b-4fe0-8e8b-76f9e475bf3b","ios":"levelo://app?vid=5fe429da-aa8b-4fe0-8e8b-76f9e475bf3b"},"vehicle_type_id":"4","last_reported":1718471228,"current_range_meters":26400,"station_id":"chh1huq6cuj3fo74tm60","pricing_plan_id":"cebpf4jnsgd1na2vs0mg"},{"bike_id":"674ac28d-2f14-43e8-a42f-58832e8d4f7f","system_id":"levelo_inurba_marseille","lat":43.29791,"lon":5.39345,"is_reserved":false,"is_disabled":false,"rental_uris":{"android":"levelo://app?vid=674ac28d-2f14-43e8-a42f-58832e8d4f7f","ios":"levelo://app?vid=674ac28d-2f14-43e8-a42f-58832e8d4f7f"},"vehicle_type_id":"4","last_reported":1718471228,"current_range_meters":0,"station_id":"chh1huq6cuj3fo74tm60","pricing_plan_id":"cebpf4jnsgd1na2vs0mg"},{"bike_id":"54d1fbcc-5221-4932-9be1-8ffef7141f3f","system_id":"levelo_inurba_marseille","lat":43.29782,"lon":5.39347,"is_reserved":false,"is_disabled":false,"rental_uris":{"android":"levelo://app?vid=54d1fbcc-5221-4932-9be1-8ffef7141f3f","ios":"levelo://app?vid=54d1fbcc-5221-4932-9be1-8ffef7141f3f"},"vehicle_type_id":"4","last_reported":1718471228,"current_range_meters":8000,"station_id":"chh1huq6cuj3fo74tm60","pricing_plan_id":"cebpf4jnsgd1na2vs0mg"},{"bike_id":"dfa6132e-d866-42d3-a576-e6c47695899d","system_id":"levelo_inurba_marseille","lat":43.29782,"lon":5.39349,"is_reserved":false,"is_disabled":false,"rental_uris":{"android":"levelo://app?vid=dfa6132e-d866-42d3-a576-e6c47695899d","ios":"levelo://app?vid=dfa6132e-d866-42d3-a576-e6c47695899d"},"vehicle_type_id":"4","last_reported":1718471228,"current_range_meters":0,"station_id":"chh1huq6cuj3fo74tm60","pricing_plan_id":"cebpf4jnsgd1na2vs0mg"},{"bike_id":"58fd9618-080c-475f-891a-15a392467c83","system_id":"levelo_inurba_marseille","lat":43.330442,"lon":5.389148,"is_reserved":false,"is_disabled":false,"rental_uris":{"android":"levelo://app?vid=58fd9618-080c-475f-891a-15a392467c83","ios":"levelo://app?vid=58fd9618-080c-475f-891a-15a392467c83"},"vehicle_type_id":"4","last_reported":1718471228,"current_range_meters":3200,"station_id":"ce4bhr92rcd13ifvqhrg","pricing_plan_id":"cebpf4jnsgd1na2vs0mg"},{"bike_id":"9b0bae2a-642a-45aa-96ac-067e957d609a","system_id":"levelo_inurba_marseille","lat":43.330442,"lon":5.389148,"is_reserved":false,"is_disabled":false,"rental_uris":{"android":"levelo://app?vid=9b0bae2a-642a-45aa-96ac-067e957d609a","ios":"levelo://app?vid=9b0bae2a-642a-45aa-96ac-067e957d609a"},"vehicle_type_id":"4","last_reported":1718471228,"current_range_meters":0,"station_id":"ce4bhr92rcd13ifvqhrg","pricing_plan_id":"cebpf4jnsgd1na2vs0mg"},{"bike_id":"2209a014-ff07-49c9-b765-d08158d6f066","system_id":"levelo_inurba_marseille","lat":43.33024,"lon":5.39042,"is_reserved":false,"is_disabled":false,"rental_uris":{"android":"levelo://app?vid=2209a014-ff07-49c9-b765-d08158d6f066","ios":"levelo://app?vid=2209a014-ff07-49c9-b765-d08158d6f066"},"vehicle_type_id":"4","last_reported":1718471228,"current_range_meters":6800,"station_id":"ce4bhr92rcd13ifvqhrg","pricing_plan_id":"cebpf4jnsgd1na2vs0mg"},{"bike_id":"e5064997-3255-4e36-806a-a6d9648eac61","system_id":"levelo_inurba_marseille","lat":43.312609,"lon":5.401662,"is_reserved":false,"is_disabled":false,"rental_uris":{"android":"levelo://app?vid=e5064997-3255-4e36-806a-a6d9648eac61","ios":"levelo://app?vid=e5064997-3255-4e36-806a-a6d9648eac61"},"vehicle_type_id":"4","last_reported":1718471228,"current_range_meters":18000,"station_id":"ce4bh092rcd13ifvqd30","pricing_plan_id":"cebpf4jnsgd1na2vs0mg"},{"bike_id":"83a6915f-7049-4436-a282-9b0bb7936a1f","system_id":"levelo_inurba_marseille","lat":43.2901,"lon":5.381269,"is_reserved":false,"is_disabled":false,"rental_uris":{"android":"levelo://app?vid=83a6915f-7049-4436-a282-9b0bb7936a1f","ios":"levelo://app?vid=83a6915f-7049-4436-a282-9b0bb7936a1f"},"vehicle_type_id":"4","last_reported":1718471228,"current_range_meters":0,"station_id":"ce4bh4p2rcd13ifvqe1g","pricing_plan_id":"cebpf4jnsgd1na2vs0mg"},{"bike_id":"ccabcc40-99f0-4429-bea7-3c6dfe34f00d","system_id":"levelo_inurba_marseille","lat":43.28856,"lon":5.358371,"is_reserved":false,"is_disabled":false,"rental_uris":{"android":"levelo://app?vid=ccabcc40-99f0-4429-bea7-3c6dfe34f00d","ios":"levelo://app?vid=ccabcc40-99f0-4429-bea7-3c6dfe34f00d"},"vehicle_type_id":"4","last_reported":1718471228,"current_range_meters":13200,"station_id":"ce4bhb12rcd13ifvqem0","pricing_plan_id":"cebpf4jnsgd1na2vs0mg"},{"bike_id":"b94d5d5a-cdbc-45e9-97a8-0e7a08f23462","system_id":"levelo_inurba_marseille","lat":43.290094,"lon":5.381264,"is_reserved":false,"is_disabled":false,"rental_uris":{"android":"levelo://app?vid=b94d5d5a-cdbc-45e9-97a8-0e7a08f23462","ios":"levelo://app?vid=b94d5d5a-cdbc-45e9-97a8-0e7a08f23462"},"vehicle_type_id":"4","last_reported":1718471228,"current_range_meters":27200,"station_id":"ce4bh4p2rcd13ifvqe1g","pricing_plan_id":"cebpf4jnsgd1na2vs0mg"},{"bike_id":"e0647a3c-79a7-449e-93e7-a6f55e0728d2","system_id":"levelo_inurba_marseille","lat":43.312609,"lon":5.401662,"is_reserved":false,"is_disabled":false,"rental_uris":{"android":"levelo://app?vid=e0647a3c-79a7-449e-93e7-a6f55e0728d2","ios":"levelo://app?vid=e0647a3c-79a7-449e-93e7-a6f55e0728d2"},"vehicle_type_id":"4","last_reported":1718471228,"current_range_meters":12000,"station_id":"ce4bh092rcd13ifvqd30","pricing_plan_id":"cebpf4jnsgd1na2vs0mg"},{"bike_id":"cdd57a97-7257-4750-be3b-164e26043069","system_id":"levelo_inurba_marseille","lat":43.312609,"lon":5.401662,"is_reserved":false,"is_disabled":false,"rental_uris":{"android":"levelo://app?vid=cdd57a97-7257-4750-be3b-164e26043069","ios":"levelo://app?vid=cdd57a97-7257-4750-be3b-164e26043069"},"vehicle_type_id":"4","last_reported":1718471228,"current_range_meters":16000,"station_id":"ce4bh092rcd13ifvqd30","pricing_plan_id":"cebpf4jnsgd1na2vs0mg"},{"bike_id":"e1512863-0927-4702-b249-40d36e19f2c0","system_id":"levelo_inurba_marseille","lat":43.33754,"lon":5.37485,"is_reserved":false,"is_disabled":false,"rental_uris":{"android":"levelo://app?vid=e1512863-0927-4702-b249-40d36e19f2c0","ios":"levelo://app?vid=e1512863-0927-4702-b249-40d36e19f2c0"},"vehicle_type_id":"4","last_reported":1718471228,"current_range_meters":22000,"station_id":"","pricing_plan_id":"cebpf4jnsgd1na2vs0mg"},{"bike_id":"299fd549-b1d1-4192-9fad-092b7f8ba211","system_id":"levelo_inurba_marseille","lat":43.306412,"lon":5.401035,"is_reserved":false,"is_disabled":false,"rental_uris":{"android":"levelo://app?vid=299fd549-b1d1-4192-9fad-092b7f8ba211","ios":"levelo://app?vid=299fd549-b1d1-4192-9fad-092b7f8ba211"},"vehicle_type_id":"4","last_reported":1718471228,"current_range_meters":6000,"station_id":"ce4bh112rcd13ifvqda0","pricing_plan_id":"cebpf4jnsgd1na2vs0mg"},{"bike_id":"73383378-8a69-492c-948e-ed2b11a0cb94","system_id":"levelo_inurba_marseille","lat":43.30135,"lon":5.39851,"is_reserved":false,"is_disabled":false,"rental_uris":{"android":"levelo://app?vid=73383378-8a69-492c-948e-ed2b11a0cb94","ios":"levelo://app?vid=73383378-8a69-492c-948e-ed2b11a0cb94"},"vehicle_type_id":"4","last_reported":1718471228,"current_range_meters":0,"station_id":"ce4bh0h2rcd13ifvqd40","pricing_plan_id":"cebpf4jnsgd1na2vs0mg"},{"bike_id":"cdd4ad9b-f781-4bee-8190-02d7038222a9","system_id":"levelo_inurba_marseille","lat":43.301117,"lon":5.398795,"is_reserved":false,"is_disabled":false,"rental_uris":{"android":"levelo://app?vid=cdd4ad9b-f781-4bee-8190-02d7038222a9","ios":"levelo://app?vid=cdd4ad9b-f781-4bee-8190-02d7038222a9"},"vehicle_type_id":"4","last_reported":1718471228,"current_range_meters":26400,"station_id":"ce4bh0h2rcd13ifvqd40","pricing_plan_id":"cebpf4jnsgd1na2vs0mg"},{"bike_id":"1173757e-0139-4aa2-a9fd-3616cadd8c84","system_id":"levelo_inurba_marseille","lat":43.30132,"lon":5.39869,"is_reserved":false,"is_disabled":false,"rental_uris":{"android":"levelo://app?vid=1173757e-0139-4aa2-a9fd-3616cadd8c84","ios":"levelo://app?vid=1173757e-0139-4aa2-a9fd-3616cadd8c84"},"vehicle_type_id":"4","last_reported":1718471228,"current_range_meters":20400,"station_id":"ce4bh0h2rcd13ifvqd40","pricing_plan_id":"cebpf4jnsgd1na2vs0mg"},{"bike_id":"dac03951-299e-4cea-a8d5-b9a394eb41f3","system_id":"levelo_inurba_marseille","lat":43.295196,"lon":5.39397,"is_reserved":false,"is_disabled":false,"rental_uris":{"android":"levelo://app?vid=dac03951-299e-4cea-a8d5-b9a394eb41f3","ios":"levelo://app?vid=dac03951-299e-4cea-a8d5-b9a394eb41f3"},"vehicle_type_id":"4","last_reported":1718471228,"current_range_meters":24400,"station_id":"ce4bh292rcd13ifvqdf0","pricing_plan_id":"cebpf4jnsgd1na2vs0mg"},{"bike_id":"f0aa0d55-42d5-4ed9-8d21-0dfee17d1192","system_id":"levelo_inurba_marseille","lat":43.286591,"lon":5.363346,"is_reserved":false,"is_disabled":false,"rental_uris":{"android":"levelo://app?vid=f0aa0d55-42d5-4ed9-8d21-0dfee17d1192","ios":"levelo://app?vid=f0aa0d55-42d5-4ed9-8d21-0dfee17d1192"},"vehicle_type_id":"4","last_reported":1718471228,"current_range_meters":17200,"station_id":"ce4bhah2rcd13ifvqej0","pricing_plan_id":"cebpf4jnsgd1na2vs0mg"},{"bike_id":"27df32d8-1529-45dd-b859-8f5f026d3d56","system_id":"levelo_inurba_marseille","lat":43.286946,"lon":5.373958,"is_reserved":false,"is_disabled":false,"rental_uris":{"android":"levelo://app?vid=27df32d8-1529-45dd-b859-8f5f026d3d56","ios":"levelo://app?vid=27df32d8-1529-45dd-b859-8f5f026d3d56"},"vehicle_type_id":"4","last_reported":1718471228,"current_range_meters":0,"station_id":"ce4bh3p2rcd13ifvqdq0","pricing_plan_id":"cebpf4jnsgd1na2vs0mg"},{"bike_id":"a9d73d6b-84ee-40f0-b95e-b7f0138ebef3","system_id":"levelo_inurba_marseille","lat":43.295194,"lon":5.39397,"is_reserved":false,"is_disabled":false,"rental_uris":{"android":"levelo://app?vid=a9d73d6b-84ee-40f0-b95e-b7f0138ebef3","ios":"levelo://app?vid=a9d73d6b-84ee-40f0-b95e-b7f0138ebef3"},"vehicle_type_id":"4","last_reported":1718471228,"current_range_meters":2800,"station_id":"ce4bh292rcd13ifvqdf0","pricing_plan_id":"cebpf4jnsgd1na2vs0mg"},{"bike_id":"8deefd11-125c-47ad-b7ff-ea3c502b75d8","system_id":"levelo_inurba_marseille","lat":43.295196,"lon":5.39397,"is_reserved":false,"is_disabled":false,"rental_uris":{"android":"levelo://app?vid=8deefd11-125c-47ad-b7ff-ea3c502b75d8","ios":"levelo://app?vid=8deefd11-125c-47ad-b7ff-ea3c502b75d8"},"vehicle_type_id":"4","last_reported":1718471228,"current_range_meters":10400,"station_id":"ce4bh292rcd13ifvqdf0","pricing_plan_id":"cebpf4jnsgd1na2vs0mg"},{"bike_id":"1015a611-fb44-4d19-85de-51ef982e982e","system_id":"levelo_inurba_marseille","lat":43.290345,"lon":5.38646,"is_reserved":false,"is_disabled":false,"rental_uris":{"android":"levelo://app?vid=1015a611-fb44-4d19-85de-51ef982e982e","ios":"levelo://app?vid=1015a611-fb44-4d19-85de-51ef982e982e"},"vehicle_type_id":"4","last_reported":1718471228,"current_range_meters":7600,"station_id":"ce4bh4p2rcd13ifvqe0g","pricing_plan_id":"cebpf4jnsgd1na2vs0mg"},{"bike_id":"cad10056-4b6c-4eae-a66e-0ad8ef85e448","system_id":"levelo_inurba_marseille","lat":43.295194,"lon":5.39397,"is_reserved":false,"is_disabled":false,"rental_uris":{"android":"levelo://app?vid=cad10056-4b6c-4eae-a66e-0ad8ef85e448","ios":"levelo://app?vid=cad10056-4b6c-4eae-a66e-0ad8ef85e448"},"vehicle_type_id":"4","last_reported":1718471228,"current_range_meters":15600,"station_id":"ce4bh292rcd13ifvqdf0","pricing_plan_id":"cebpf4jnsgd1na2vs0mg"},{"bike_id":"504653d5-ab3d-4152-aaf0-8a337c5136bd","system_id":"levelo_inurba_marseille","lat":43.290336,"lon":5.386425,"is_reserved":false,"is_disabled":false,"rental_uris":{"android":"levelo://app?vid=504653d5-ab3d-4152-aaf0-8a337c5136bd","ios":"levelo://app?vid=504653d5-ab3d-4152-aaf0-8a337c5136bd"},"vehicle_type_id":"4","last_reported":1718471228,"current_range_meters":1600,"station_id":"ce4bh4p2rcd13ifvqe0g","pricing_plan_id":"cebpf4jnsgd1na2vs0mg"},{"bike_id":"11b4d66b-0913-43ba-9886-07f43d715f66","system_id":"levelo_inurba_marseille","lat":43.295194,"lon":5.39397,"is_reserved":false,"is_disabled":false,"rental_uris":{"android":"levelo://app?vid=11b4d66b-0913-43ba-9886-07f43d715f66","ios":"levelo://app?vid=11b4d66b-0913-43ba-9886-07f43d715f66"},"vehicle_type_id":"4","last_reported":1718471228,"current_range_meters":18800,"station_id":"ce4bh292rcd13ifvqdf0","pricing_plan_id":"cebpf4jnsgd1na2vs0mg"},{"bike_id":"b804e491-07b4-48ac-914f-380f24f3e41c","system_id":"levelo_inurba_marseille","lat":43.290345,"lon":5.38646,"is_reserved":false,"is_disabled":false,"rental_uris":{"android":"levelo://app?vid=b804e491-07b4-48ac-914f-380f24f3e41c","ios":"levelo://app?vid=b804e491-07b4-48ac-914f-380f24f3e41c"},"vehicle_type_id":"4","last_reported":1718471228,"current_range_meters":0,"station_id":"ce4bh4p2rcd13ifvqe0g","pricing_plan_id":"cebpf4jnsgd1na2vs0mg"},{"bike_id":"1d4434ca-ee84-4766-acdf-f252e1c3839e","system_id":"levelo_inurba_marseille","lat":43.290336,"lon":5.386425,"is_reserved":false,"is_disabled":false,"rental_uris":{"android":"levelo://app?vid=1d4434ca-ee84-4766-acdf-f252e1c3839e","ios":"levelo://app?vid=1d4434ca-ee84-4766-acdf-f252e1c3839e"},"vehicle_type_id":"4","last_reported":1718471228,"current_range_meters":800,"station_id":"ce4bh4p2rcd13ifvqe0g","pricing_plan_id":"cebpf4jnsgd1na2vs0mg"},{"bike_id":"512b3996-bf02-46b5-b8ec-c98d83c6db71","system_id":"levelo_inurba_marseille","lat":43.289293,"lon":5.384027,"is_reserved":false,"is_disabled":false,"rental_uris":{"android":"levelo://app?vid=512b3996-bf02-46b5-b8ec-c98d83c6db71","ios":"levelo://app?vid=512b3996-bf02-46b5-b8ec-c98d83c6db71"},"vehicle_type_id":"4","last_reported":1718471228,"current_range_meters":0,"station_id":"ce4bh612rcd13ifvqe6g","pricing_plan_id":"cebpf4jnsgd1na2vs0mg"},{"bike_id":"2df421cb-1647-4236-b4a9-16f2ca45e5bb","system_id":"levelo_inurba_marseille","lat":43.290345,"lon":5.38646,"is_reserved":false,"is_disabled":false,"rental_uris":{"android":"levelo://app?vid=2df421cb-1647-4236-b4a9-16f2ca45e5bb","ios":"levelo://app?vid=2df421cb-1647-4236-b4a9-16f2ca45e5bb"},"vehicle_type_id":"4","last_reported":1718471228,"current_range_meters":23600,"station_id":"ce4bh4p2rcd13ifvqe0g","pricing_plan_id":"cebpf4jnsgd1na2vs0mg"},{"bike_id":"d3817ff6-6e6f-460f-b17f-ae3a61a4f15e","system_id":"levelo_inurba_marseille","lat":43.28927,"lon":5.38404,"is_reserved":false,"is_disabled":false,"rental_uris":{"android":"levelo://app?vid=d3817ff6-6e6f-460f-b17f-ae3a61a4f15e","ios":"levelo://app?vid=d3817ff6-6e6f-460f-b17f-ae3a61a4f15e"},"vehicle_type_id":"4","last_reported":1718471228,"current_range_meters":0,"station_id":"ce4bh612rcd13ifvqe6g","pricing_plan_id":"cebpf4jnsgd1na2vs0mg"},{"bike_id":"16eaaad7-bdd7-4743-9ede-dbd3558790c8","system_id":"levelo_inurba_marseille","lat":43.30243,"lon":5.40062,"is_reserved":false,"is_disabled":false,"rental_uris":{"android":"levelo://app?vid=16eaaad7-bdd7-4743-9ede-dbd3558790c8","ios":"levelo://app?vid=16eaaad7-bdd7-4743-9ede-dbd3558790c8"},"vehicle_type_id":"4","last_reported":1718471228,"current_range_meters":1200,"station_id":"ce4bgvh2rcd13ifvqcs0","pricing_plan_id":"cebpf4jnsgd1na2vs0mg"},{"bike_id":"1437b575-6bc1-435e-8d4c-3d2f1a09f47d","system_id":"levelo_inurba_marseille","lat":43.289307,"lon":5.38406,"is_reserved":false,"is_disabled":false,"rental_uris":{"android":"levelo://app?vid=1437b575-6bc1-435e-8d4c-3d2f1a09f47d","ios":"levelo://app?vid=1437b575-6bc1-435e-8d4c-3d2f1a09f47d"},"vehicle_type_id":"4","last_reported":1718471228,"current_range_meters":25600,"station_id":"ce4bh612rcd13ifvqe6g","pricing_plan_id":"cebpf4jnsgd1na2vs0mg"},{"bike_id":"b27b066c-7c84-46e7-a575-d5395a517e31","system_id":"levelo_inurba_marseille","lat":43.301863,"lon":5.400584,"is_reserved":false,"is_disabled":false,"rental_uris":{"android":"levelo://app?vid=b27b066c-7c84-46e7-a575-d5395a517e31","ios":"levelo://app?vid=b27b066c-7c84-46e7-a575-d5395a517e31"},"vehicle_type_id":"4","last_reported":1718471228,"current_range_meters":10400,"station_id":"","pricing_plan_id":"cebpf4jnsgd1na2vs0mg"},{"bike_id":"90b3b508-4098-484c-8da6-d7d700c4e524","system_id":"levelo_inurba_marseille","lat":43.287203,"lon":5.379373,"is_reserved":false,"is_disabled":false,"rental_uris":{"android":"levelo://app?vid=90b3b508-4098-484c-8da6-d7d700c4e524","ios":"levelo://app?vid=90b3b508-4098-484c-8da6-d7d700c4e524"},"vehicle_type_id":"4","last_reported":1718471228,"current_range_meters":0,"station_id":"ce4bh9p2rcd13ifvqec0","pricing_plan_id":"cebpf4jnsgd1na2vs0mg"},{"bike_id":"b0a36a5e-c233-46c3-bf96-b36d8635bac6","system_id":"levelo_inurba_marseille","lat":43.2607,"lon":5.393983,"is_reserved":false,"is_disabled":false,"rental_uris":{"android":"levelo://app?vid=b0a36a5e-c233-46c3-bf96-b36d8635bac6","ios":"levelo://app?vid=b0a36a5e-c233-46c3-bf96-b36d8635bac6"},"vehicle_type_id":"4","last_reported":1718471228,"current_range_meters":5200,"station_id":"ce4bhh92rcd13ifvqfj0","pricing_plan_id":"cebpf4jnsgd1na2vs0mg"},{"bike_id":"748fb322-1a0f-402d-afa7-9bb9aff2b2c2","system_id":"levelo_inurba_marseille","lat":43.287185,"lon":5.379373,"is_reserved":false,"is_disabled":false,"rental_uris":{"android":"levelo://app?vid=748fb322-1a0f-402d-afa7-9bb9aff2b2c2","ios":"levelo://app?vid=748fb322-1a0f-402d-afa7-9bb9aff2b2c2"},"vehicle_type_id":"4","last_reported":1718471228,"current_range_meters":10800,"station_id":"ce4bh9p2rcd13ifvqec0","pricing_plan_id":"cebpf4jnsgd1na2vs0mg"},{"bike_id":"86c769ea-4344-42f2-aea1-4164bed40949","system_id":"levelo_inurba_marseille","lat":43.316821,"lon":5.404737,"is_reserved":false,"is_disabled":false,"rental_uris":{"android":"levelo://app?vid=86c769ea-4344-42f2-aea1-4164bed40949","ios":"levelo://app?vid=86c769ea-4344-42f2-aea1-4164bed40949"},"vehicle_type_id":"4","last_reported":1718471228,"current_range_meters":10400,"station_id":"ce4bh012rcd13ifvqd00","pricing_plan_id":"cebpf4jnsgd1na2vs0mg"},{"bike_id":"516f234e-5d0f-4465-893b-be41211922a7","system_id":"levelo_inurba_marseille","lat":43.316821,"lon":5.404737,"is_reserved":false,"is_disabled":false,"rental_uris":{"android":"levelo://app?vid=516f234e-5d0f-4465-893b-be41211922a7","ios":"levelo://app?vid=516f234e-5d0f-4465-893b-be41211922a7"},"vehicle_type_id":"4","last_reported":1718471228,"current_range_meters":1200,"station_id":"ce4bh012rcd13ifvqd00","pricing_plan_id":"cebpf4jnsgd1na2vs0mg"},{"bike_id":"11a0b4ee-9e0b-417b-b18a-eac504322f51","system_id":"levelo_inurba_marseille","lat":43.316821,"lon":5.404737,"is_reserved":false,"is_disabled":false,"rental_uris":{"android":"levelo://app?vid=11a0b4ee-9e0b-417b-b18a-eac504322f51","ios":"levelo://app?vid=11a0b4ee-9e0b-417b-b18a-eac504322f51"},"vehicle_type_id":"4","last_reported":1718471228,"current_range_meters":26400,"station_id":"ce4bh012rcd13ifvqd00","pricing_plan_id":"cebpf4jnsgd1na2vs0mg"},{"bike_id":"5d666105-dce4-4551-9e8d-d396496f0b7d","system_id":"levelo_inurba_marseille","lat":43.290336,"lon":5.386425,"is_reserved":false,"is_disabled":false,"rental_uris":{"android":"levelo://app?vid=5d666105-dce4-4551-9e8d-d396496f0b7d","ios":"levelo://app?vid=5d666105-dce4-4551-9e8d-d396496f0b7d"},"vehicle_type_id":"4","last_reported":1718471228,"current_range_meters":3200,"station_id":"ce4bh4p2rcd13ifvqe0g","pricing_plan_id":"cebpf4jnsgd1na2vs0mg"},{"bike_id":"65b4e478-732d-45c3-82a2-0f2f94867a8f","system_id":"levelo_inurba_marseille","lat":43.291994,"lon":5.392907,"is_reserved":false,"is_disabled":false,"rental_uris":{"android":"levelo://app?vid=65b4e478-732d-45c3-82a2-0f2f94867a8f","ios":"levelo://app?vid=65b4e478-732d-45c3-82a2-0f2f94867a8f"},"vehicle_type_id":"4","last_reported":1718471228,"current_range_meters":14400,"station_id":"ce4bh192rcd13ifvqdd0","pricing_plan_id":"cebpf4jnsgd1na2vs0mg"},{"bike_id":"92da462a-9031-48e6-bbce-a3ca80f7f2fd","system_id":"levelo_inurba_marseille","lat":43.291994,"lon":5.392907,"is_reserved":false,"is_disabled":false,"rental_uris":{"android":"levelo://app?vid=92da462a-9031-48e6-bbce-a3ca80f7f2fd","ios":"levelo://app?vid=92da462a-9031-48e6-bbce-a3ca80f7f2fd"},"vehicle_type_id":"4","last_reported":1718471228,"current_range_meters":4400,"station_id":"ce4bh192rcd13ifvqdd0","pricing_plan_id":"cebpf4jnsgd1na2vs0mg"},{"bike_id":"00794366-5103-41f0-8e6a-b1771ccda384","system_id":"levelo_inurba_marseille","lat":43.284538,"lon":5.358657,"is_reserved":false,"is_disabled":false,"rental_uris":{"android":"levelo://app?vid=00794366-5103-41f0-8e6a-b1771ccda384","ios":"levelo://app?vid=00794366-5103-41f0-8e6a-b1771ccda384"},"vehicle_type_id":"4","last_reported":1718471228,"current_range_meters":9600,"station_id":"ce4bhah2rcd13ifvqei0","pricing_plan_id":"cebpf4jnsgd1na2vs0mg"},{"bike_id":"be831e2b-f6bf-4d96-9575-96864ea19eda","system_id":"levelo_inurba_marseille","lat":43.284534,"lon":5.358662,"is_reserved":false,"is_disabled":false,"rental_uris":{"android":"levelo://app?vid=be831e2b-f6bf-4d96-9575-96864ea19eda","ios":"levelo://app?vid=be831e2b-f6bf-4d96-9575-96864ea19eda"},"vehicle_type_id":"4","last_reported":1718471228,"current_range_meters":5600,"station_id":"ce4bhah2rcd13ifvqei0","pricing_plan_id":"cebpf4jnsgd1na2vs0mg"},{"bike_id":"46539847-eefe-42ba-b613-eddae7b286ce","system_id":"levelo_inurba_marseille","lat":43.284538,"lon":5.358657,"is_reserved":false,"is_disabled":false,"rental_uris":{"android":"levelo://app?vid=46539847-eefe-42ba-b613-eddae7b286ce","ios":"levelo://app?vid=46539847-eefe-42ba-b613-eddae7b286ce"},"vehicle_type_id":"4","last_reported":1718471228,"current_range_meters":12800,"station_id":"ce4bhah2rcd13ifvqei0","pricing_plan_id":"cebpf4jnsgd1na2vs0mg"},{"bike_id":"31fd9614-9ffe-4d98-8e66-78716ef66677","system_id":"levelo_inurba_marseille","lat":43.284534,"lon":5.358662,"is_reserved":false,"is_disabled":false,"rental_uris":{"android":"levelo://app?vid=31fd9614-9ffe-4d98-8e66-78716ef66677","ios":"levelo://app?vid=31fd9614-9ffe-4d98-8e66-78716ef66677"},"vehicle_type_id":"4","last_reported":1718471228,"current_range_meters":3200,"station_id":"ce4bhah2rcd13ifvqei0","pricing_plan_id":"cebpf4jnsgd1na2vs0mg"},{"bike_id":"d7ac41bc-50b4-431b-87f7-2aa5c1f04d1d","system_id":"levelo_inurba_marseille","lat":43.284538,"lon":5.358657,"is_reserved":false,"is_disabled":false,"rental_uris":{"android":"levelo://app?vid=d7ac41bc-50b4-431b-87f7-2aa5c1f04d1d","ios":"levelo://app?vid=d7ac41bc-50b4-431b-87f7-2aa5c1f04d1d"},"vehicle_type_id":"4","last_reported":1718471228,"current_range_meters":8800,"station_id":"ce4bhah2rcd13ifvqei0","pricing_plan_id":"cebpf4jnsgd1na2vs0mg"},{"bike_id":"d0c61ea4-eed3-45f4-b124-7ddae72aaa13","system_id":"levelo_inurba_marseille","lat":43.28455,"lon":5.35901,"is_reserved":false,"is_disabled":false,"rental_uris":{"android":"levelo://app?vid=d0c61ea4-eed3-45f4-b124-7ddae72aaa13","ios":"levelo://app?vid=d0c61ea4-eed3-45f4-b124-7ddae72aaa13"},"vehicle_type_id":"4","last_reported":1718471228,"current_range_meters":31200,"station_id":"ce4bhah2rcd13ifvqei0","pricing_plan_id":"cebpf4jnsgd1na2vs0mg"},{"bike_id":"cb48ad8f-550a-4ef7-8d24-7eeea25f5f04","system_id":"levelo_inurba_marseille","lat":43.28614,"lon":5.35106,"is_reserved":false,"is_disabled":false,"rental_uris":{"android":"levelo://app?vid=cb48ad8f-550a-4ef7-8d24-7eeea25f5f04","ios":"levelo://app?vid=cb48ad8f-550a-4ef7-8d24-7eeea25f5f04"},"vehicle_type_id":"4","last_reported":1718471228,"current_range_meters":0,"station_id":"ce4bhch2rcd13ifvqeug","pricing_plan_id":"cebpf4jnsgd1na2vs0mg"},{"bike_id":"4ce3402a-17fb-4ba2-9579-00da9cb43521","system_id":"levelo_inurba_marseille","lat":43.285848,"lon":5.350787,"is_reserved":false,"is_disabled":false,"rental_uris":{"android":"levelo://app?vid=4ce3402a-17fb-4ba2-9579-00da9cb43521","ios":"levelo://app?vid=4ce3402a-17fb-4ba2-9579-00da9cb43521"},"vehicle_type_id":"4","last_reported":1718471228,"current_range_meters":21200,"station_id":"ce4bhch2rcd13ifvqeug","pricing_plan_id":"cebpf4jnsgd1na2vs0mg"},{"bike_id":"5eeb5e43-4643-441d-b05c-056cb1c5cc9d","system_id":"levelo_inurba_marseille","lat":43.295713,"lon":5.399639,"is_reserved":false,"is_disabled":false,"rental_uris":{"android":"levelo://app?vid=5eeb5e43-4643-441d-b05c-056cb1c5cc9d","ios":"levelo://app?vid=5eeb5e43-4643-441d-b05c-056cb1c5cc9d"},"vehicle_type_id":"4","last_reported":1718471228,"current_range_meters":2400,"station_id":"ce4bh312rcd13ifvqdj0","pricing_plan_id":"cebpf4jnsgd1na2vs0mg"},{"bike_id":"cf3def9e-e179-4ecf-b719-270db19a884f","system_id":"levelo_inurba_marseille","lat":43.295713,"lon":5.399639,"is_reserved":false,"is_disabled":false,"rental_uris":{"android":"levelo://app?vid=cf3def9e-e179-4ecf-b719-270db19a884f","ios":"levelo://app?vid=cf3def9e-e179-4ecf-b719-270db19a884f"},"vehicle_type_id":"4","last_reported":1718471228,"current_range_meters":5200,"station_id":"ce4bh312rcd13ifvqdj0","pricing_plan_id":"cebpf4jnsgd1na2vs0mg"},{"bike_id":"cae184cc-605f-47d8-8668-abd85cadac46","system_id":"levelo_inurba_marseille","lat":43.285741,"lon":5.383268,"is_reserved":false,"is_disabled":false,"rental_uris":{"android":"levelo://app?vid=cae184cc-605f-47d8-8668-abd85cadac46","ios":"levelo://app?vid=cae184cc-605f-47d8-8668-abd85cadac46"},"vehicle_type_id":"4","last_reported":1718471228,"current_range_meters":0,"station_id":"","pricing_plan_id":"cebpf4jnsgd1na2vs0mg"},{"bike_id":"c789b1dd-1f23-4255-89e4-a6c1dd79ae5b","system_id":"levelo_inurba_marseille","lat":43.28638,"lon":5.38608,"is_reserved":false,"is_disabled":false,"rental_uris":{"android":"levelo://app?vid=c789b1dd-1f23-4255-89e4-a6c1dd79ae5b","ios":"levelo://app?vid=c789b1dd-1f23-4255-89e4-a6c1dd79ae5b"},"vehicle_type_id":"4","last_reported":1718471228,"current_range_meters":0,"station_id":"","pricing_plan_id":"cebpf4jnsgd1na2vs0mg"},{"bike_id":"e229690f-a312-45ef-b429-442417c9cbc8","system_id":"levelo_inurba_marseille","lat":43.319179,"lon":5.407725,"is_reserved":false,"is_disabled":false,"rental_uris":{"android":"levelo://app?vid=e229690f-a312-45ef-b429-442417c9cbc8","ios":"levelo://app?vid=e229690f-a312-45ef-b429-442417c9cbc8"},"vehicle_type_id":"4","last_reported":1718471228,"current_range_meters":31600,"station_id":"ce4bhq12rcd13ifvqhig","pricing_plan_id":"cebpf4jnsgd1na2vs0mg"},{"bike_id":"4a56fdfe-237c-4eb1-9409-668452a8b93b","system_id":"levelo_inurba_marseille","lat":43.319179,"lon":5.407725,"is_reserved":false,"is_disabled":false,"rental_uris":{"android":"levelo://app?vid=4a56fdfe-237c-4eb1-9409-668452a8b93b","ios":"levelo://app?vid=4a56fdfe-237c-4eb1-9409-668452a8b93b"},"vehicle_type_id":"4","last_reported":1718471228,"current_range_meters":27200,"station_id":"ce4bhq12rcd13ifvqhig","pricing_plan_id":"cebpf4jnsgd1na2vs0mg"},{"bike_id":"cb4053bb-75a6-4a28-994d-83cddf62f7bb","system_id":"levelo_inurba_marseille","lat":43.337168,"lon":5.391825,"is_reserved":false,"is_disabled":false,"rental_uris":{"android":"levelo://app?vid=cb4053bb-75a6-4a28-994d-83cddf62f7bb","ios":"levelo://app?vid=cb4053bb-75a6-4a28-994d-83cddf62f7bb"},"vehicle_type_id":"4","last_reported":1718471228,"current_range_meters":4000,"station_id":"ce4bhr92rcd13ifvqhsg","pricing_plan_id":"cebpf4jnsgd1na2vs0mg"},{"bike_id":"7b5c8a38-e9e0-458e-929b-93c91fd5d7f7","system_id":"levelo_inurba_marseille","lat":43.337168,"lon":5.391825,"is_reserved":false,"is_disabled":false,"rental_uris":{"android":"levelo://app?vid=7b5c8a38-e9e0-458e-929b-93c91fd5d7f7","ios":"levelo://app?vid=7b5c8a38-e9e0-458e-929b-93c91fd5d7f7"},"vehicle_type_id":"4","last_reported":1718471228,"current_range_meters":26800,"station_id":"ce4bhr92rcd13ifvqhsg","pricing_plan_id":"cebpf4jnsgd1na2vs0mg"},{"bike_id":"dab35d12-eff4-4ba5-9845-4134f2353abb","system_id":"levelo_inurba_marseille","lat":43.323464,"lon":5.406297,"is_reserved":false,"is_disabled":false,"rental_uris":{"android":"levelo://app?vid=dab35d12-eff4-4ba5-9845-4134f2353abb","ios":"levelo://app?vid=dab35d12-eff4-4ba5-9845-4134f2353abb"},"vehicle_type_id":"4","last_reported":1718471228,"current_range_meters":31600,"station_id":"ce4bhq92rcd13ifvqhjg","pricing_plan_id":"cebpf4jnsgd1na2vs0mg"},{"bike_id":"4ac683cc-1dcb-4847-b406-ffc52fb8fe38","system_id":"levelo_inurba_marseille","lat":43.33727,"lon":5.39175,"is_reserved":false,"is_disabled":false,"rental_uris":{"android":"levelo://app?vid=4ac683cc-1dcb-4847-b406-ffc52fb8fe38","ios":"levelo://app?vid=4ac683cc-1dcb-4847-b406-ffc52fb8fe38"},"vehicle_type_id":"4","last_reported":1718471228,"current_range_meters":0,"station_id":"ce4bhr92rcd13ifvqhsg","pricing_plan_id":"cebpf4jnsgd1na2vs0mg"},{"bike_id":"18b971c1-389c-4e03-991b-3b02b70177a1","system_id":"levelo_inurba_marseille","lat":43.32333,"lon":5.40619,"is_reserved":false,"is_disabled":false,"rental_uris":{"android":"levelo://app?vid=18b971c1-389c-4e03-991b-3b02b70177a1","ios":"levelo://app?vid=18b971c1-389c-4e03-991b-3b02b70177a1"},"vehicle_type_id":"4","last_reported":1718471228,"current_range_meters":13600,"station_id":"ce4bhq92rcd13ifvqhjg","pricing_plan_id":"cebpf4jnsgd1na2vs0mg"},{"bike_id":"01e4e9b1-0ee7-440f-a35f-5235e48b5dde","system_id":"levelo_inurba_marseille","lat":43.323464,"lon":5.406297,"is_reserved":false,"is_disabled":false,"rental_uris":{"android":"levelo://app?vid=01e4e9b1-0ee7-440f-a35f-5235e48b5dde","ios":"levelo://app?vid=01e4e9b1-0ee7-440f-a35f-5235e48b5dde"},"vehicle_type_id":"4","last_reported":1718471228,"current_range_meters":26400,"station_id":"ce4bhq92rcd13ifvqhjg","pricing_plan_id":"cebpf4jnsgd1na2vs0mg"},{"bike_id":"7f7667da-070e-4611-96bb-0eedb00e87db","system_id":"levelo_inurba_marseille","lat":43.323464,"lon":5.406297,"is_reserved":false,"is_disabled":false,"rental_uris":{"android":"levelo://app?vid=7f7667da-070e-4611-96bb-0eedb00e87db","ios":"levelo://app?vid=7f7667da-070e-4611-96bb-0eedb00e87db"},"vehicle_type_id":"4","last_reported":1718471228,"current_range_meters":9200,"station_id":"ce4bhq92rcd13ifvqhjg","pricing_plan_id":"cebpf4jnsgd1na2vs0mg"},{"bike_id":"52f3c3b9-2c83-486d-bbe1-9c7a33471f4c","system_id":"levelo_inurba_marseille","lat":43.323464,"lon":5.406297,"is_reserved":false,"is_disabled":false,"rental_uris":{"android":"levelo://app?vid=52f3c3b9-2c83-486d-bbe1-9c7a33471f4c","ios":"levelo://app?vid=52f3c3b9-2c83-486d-bbe1-9c7a33471f4c"},"vehicle_type_id":"4","last_reported":1718471228,"current_range_meters":18800,"station_id":"ce4bhq92rcd13ifvqhjg","pricing_plan_id":"cebpf4jnsgd1na2vs0mg"},{"bike_id":"c5eab18f-79fa-4fb8-9ddc-ef74c68f1f3b","system_id":"levelo_inurba_marseille","lat":43.33717,"lon":5.391857,"is_reserved":false,"is_disabled":false,"rental_uris":{"android":"levelo://app?vid=c5eab18f-79fa-4fb8-9ddc-ef74c68f1f3b","ios":"levelo://app?vid=c5eab18f-79fa-4fb8-9ddc-ef74c68f1f3b"},"vehicle_type_id":"4","last_reported":1718471228,"current_range_meters":6400,"station_id":"ce4bhr92rcd13ifvqhsg","pricing_plan_id":"cebpf4jnsgd1na2vs0mg"},{"bike_id":"9846c02f-92de-4ccf-83eb-b029d6d33dc3","system_id":"levelo_inurba_marseille","lat":43.323464,"lon":5.406297,"is_reserved":false,"is_disabled":false,"rental_uris":{"android":"levelo://app?vid=9846c02f-92de-4ccf-83eb-b029d6d33dc3","ios":"levelo://app?vid=9846c02f-92de-4ccf-83eb-b029d6d33dc3"},"vehicle_type_id":"4","last_reported":1718471228,"current_range_meters":16400,"station_id":"ce4bhq92rcd13ifvqhjg","pricing_plan_id":"cebpf4jnsgd1na2vs0mg"},{"bike_id":"59a10112-315f-4a52-8e76-96941ca73862","system_id":"levelo_inurba_marseille","lat":43.284793,"lon":5.384119,"is_reserved":false,"is_disabled":false,"rental_uris":{"android":"levelo://app?vid=59a10112-315f-4a52-8e76-96941ca73862","ios":"levelo://app?vid=59a10112-315f-4a52-8e76-96941ca73862"},"vehicle_type_id":"4","last_reported":1718471228,"current_range_meters":0,"station_id":"ce4bh512rcd13ifvqe3g","pricing_plan_id":"cebpf4jnsgd1na2vs0mg"},{"bike_id":"a824c04a-2bc9-4889-a242-30d9e79a1acc","system_id":"levelo_inurba_marseille","lat":43.297946,"lon":5.404063,"is_reserved":false,"is_disabled":false,"rental_uris":{"android":"levelo://app?vid=a824c04a-2bc9-4889-a242-30d9e79a1acc","ios":"levelo://app?vid=a824c04a-2bc9-4889-a242-30d9e79a1acc"},"vehicle_type_id":"4","last_reported":1718471228,"current_range_meters":13200,"station_id":"ce4bh112rcd13ifvqd90","pricing_plan_id":"cebpf4jnsgd1na2vs0mg"},{"bike_id":"800223c0-bc44-4a77-aa27-4a1c8c693141","system_id":"levelo_inurba_marseille","lat":43.297946,"lon":5.404063,"is_reserved":false,"is_disabled":false,"rental_uris":{"android":"levelo://app?vid=800223c0-bc44-4a77-aa27-4a1c8c693141","ios":"levelo://app?vid=800223c0-bc44-4a77-aa27-4a1c8c693141"},"vehicle_type_id":"4","last_reported":1718471228,"current_range_meters":20400,"station_id":"ce4bh112rcd13ifvqd90","pricing_plan_id":"cebpf4jnsgd1na2vs0mg"},{"bike_id":"139fed3d-3490-45b0-ac5c-052287ddbb41","system_id":"levelo_inurba_marseille","lat":43.297946,"lon":5.404063,"is_reserved":false,"is_disabled":false,"rental_uris":{"android":"levelo://app?vid=139fed3d-3490-45b0-ac5c-052287ddbb41","ios":"levelo://app?vid=139fed3d-3490-45b0-ac5c-052287ddbb41"},"vehicle_type_id":"4","last_reported":1718471228,"current_range_meters":8400,"station_id":"ce4bh112rcd13ifvqd90","pricing_plan_id":"cebpf4jnsgd1na2vs0mg"},{"bike_id":"d1d8a370-652e-4cfc-8cff-586dd944d9ba","system_id":"levelo_inurba_marseille","lat":43.283498,"lon":5.380948,"is_reserved":false,"is_disabled":false,"rental_uris":{"android":"levelo://app?vid=d1d8a370-652e-4cfc-8cff-586dd944d9ba","ios":"levelo://app?vid=d1d8a370-652e-4cfc-8cff-586dd944d9ba"},"vehicle_type_id":"4","last_reported":1718471228,"current_range_meters":0,"station_id":"ce4bh412rcd13ifvqdr0","pricing_plan_id":"cebpf4jnsgd1na2vs0mg"},{"bike_id":"4f0154c1-cc73-4662-add3-b232aebf1b3d","system_id":"levelo_inurba_marseille","lat":43.292724,"lon":5.401131,"is_reserved":false,"is_disabled":false,"rental_uris":{"android":"levelo://app?vid=4f0154c1-cc73-4662-add3-b232aebf1b3d","ios":"levelo://app?vid=4f0154c1-cc73-4662-add3-b232aebf1b3d"},"vehicle_type_id":"4","last_reported":1718471228,"current_range_meters":2800,"station_id":"ce4bh312rcd13ifvqdk0","pricing_plan_id":"cebpf4jnsgd1na2vs0mg"},{"bike_id":"cf00b22a-e59a-48f9-bf15-55b75bb7023f","system_id":"levelo_inurba_marseille","lat":43.282754,"lon":5.350519,"is_reserved":false,"is_disabled":false,"rental_uris":{"android":"levelo://app?vid=cf00b22a-e59a-48f9-bf15-55b75bb7023f","ios":"levelo://app?vid=cf00b22a-e59a-48f9-bf15-55b75bb7023f"},"vehicle_type_id":"4","last_reported":1718471228,"current_range_meters":6800,"station_id":"ce4bhbp2rcd13ifvqerg","pricing_plan_id":"cebpf4jnsgd1na2vs0mg"},{"bike_id":"1fd045e6-23ba-422f-85e5-12ca74004afd","system_id":"levelo_inurba_marseille","lat":43.28039,"lon":5.369297,"is_reserved":false,"is_disabled":false,"rental_uris":{"android":"levelo://app?vid=1fd045e6-23ba-422f-85e5-12ca74004afd","ios":"levelo://app?vid=1fd045e6-23ba-422f-85e5-12ca74004afd"},"vehicle_type_id":"4","last_reported":1718471228,"current_range_meters":2800,"station_id":"ce4bha12rcd13ifvqef0","pricing_plan_id":"cebpf4jnsgd1na2vs0mg"},{"bike_id":"20189f6a-7764-4b6b-ab2e-ef879b08f2db","system_id":"levelo_inurba_marseille","lat":43.28362,"lon":5.3864,"is_reserved":false,"is_disabled":false,"rental_uris":{"android":"levelo://app?vid=20189f6a-7764-4b6b-ab2e-ef879b08f2db","ios":"levelo://app?vid=20189f6a-7764-4b6b-ab2e-ef879b08f2db"},"vehicle_type_id":"4","last_reported":1718471228,"current_range_meters":3200,"station_id":"ce4bh492rcd13ifvqdvg","pricing_plan_id":"cebpf4jnsgd1na2vs0mg"},{"bike_id":"1158804d-4110-4821-bb5b-e6e80a369392","system_id":"levelo_inurba_marseille","lat":43.2904,"lon":5.39956,"is_reserved":false,"is_disabled":false,"rental_uris":{"android":"levelo://app?vid=1158804d-4110-4821-bb5b-e6e80a369392","ios":"levelo://app?vid=1158804d-4110-4821-bb5b-e6e80a369392"},"vehicle_type_id":"4","last_reported":1718471228,"current_range_meters":0,"station_id":"ce4bh392rcd13ifvqdm0","pricing_plan_id":"cebpf4jnsgd1na2vs0mg"},{"bike_id":"234aa559-de40-4294-95f4-e28b398de904","system_id":"levelo_inurba_marseille","lat":43.290412,"lon":5.399633,"is_reserved":false,"is_disabled":false,"rental_uris":{"android":"levelo://app?vid=234aa559-de40-4294-95f4-e28b398de904","ios":"levelo://app?vid=234aa559-de40-4294-95f4-e28b398de904"},"vehicle_type_id":"4","last_reported":1718471228,"current_range_meters":0,"station_id":"ce4bh392rcd13ifvqdm0","pricing_plan_id":"cebpf4jnsgd1na2vs0mg"},{"bike_id":"342a5420-bfa8-43c8-ab07-6860ddccca1a","system_id":"levelo_inurba_marseille","lat":43.29037,"lon":5.39971,"is_reserved":false,"is_disabled":false,"rental_uris":{"android":"levelo://app?vid=342a5420-bfa8-43c8-ab07-6860ddccca1a","ios":"levelo://app?vid=342a5420-bfa8-43c8-ab07-6860ddccca1a"},"vehicle_type_id":"4","last_reported":1718471228,"current_range_meters":0,"station_id":"ce4bh392rcd13ifvqdm0","pricing_plan_id":"cebpf4jnsgd1na2vs0mg"},{"bike_id":"35554028-8fb8-477d-81b7-0bb530c8c5c7","system_id":"levelo_inurba_marseille","lat":43.28108,"lon":5.37839,"is_reserved":false,"is_disabled":false,"rental_uris":{"android":"levelo://app?vid=35554028-8fb8-477d-81b7-0bb530c8c5c7","ios":"levelo://app?vid=35554028-8fb8-477d-81b7-0bb530c8c5c7"},"vehicle_type_id":"4","last_reported":1718471228,"current_range_meters":0,"station_id":"ce4bha12rcd13ifvqee0","pricing_plan_id":"cebpf4jnsgd1na2vs0mg"},{"bike_id":"0dedc574-48c1-46e2-af61-e82540aa077e","system_id":"levelo_inurba_marseille","lat":43.296263,"lon":5.40601,"is_reserved":false,"is_disabled":false,"rental_uris":{"android":"levelo://app?vid=0dedc574-48c1-46e2-af61-e82540aa077e","ios":"levelo://app?vid=0dedc574-48c1-46e2-af61-e82540aa077e"},"vehicle_type_id":"4","last_reported":1718471228,"current_range_meters":1600,"station_id":"ce4bh0h2rcd13ifvqd60","pricing_plan_id":"cebpf4jnsgd1na2vs0mg"},{"bike_id":"994f9269-569f-4a90-a44f-d639902b3e80","system_id":"levelo_inurba_marseille","lat":43.296297,"lon":5.40598,"is_reserved":false,"is_disabled":false,"rental_uris":{"android":"levelo://app?vid=994f9269-569f-4a90-a44f-d639902b3e80","ios":"levelo://app?vid=994f9269-569f-4a90-a44f-d639902b3e80"},"vehicle_type_id":"4","last_reported":1718471228,"current_range_meters":1600,"station_id":"ce4bh0h2rcd13ifvqd60","pricing_plan_id":"cebpf4jnsgd1na2vs0mg"},{"bike_id":"87b36d5f-78cb-4c6c-a110-8ad84b4a7261","system_id":"levelo_inurba_marseille","lat":43.285742,"lon":5.395004,"is_reserved":false,"is_disabled":false,"rental_uris":{"android":"levelo://app?vid=87b36d5f-78cb-4c6c-a110-8ad84b4a7261","ios":"levelo://app?vid=87b36d5f-78cb-4c6c-a110-8ad84b4a7261"},"vehicle_type_id":"4","last_reported":1718471228,"current_range_meters":1200,"station_id":"ce4bh292rcd13ifvqdg0","pricing_plan_id":"cebpf4jnsgd1na2vs0mg"},{"bike_id":"76b3e8a8-8d6f-4c3a-a5ea-2ed38dee0ed7","system_id":"levelo_inurba_marseille","lat":43.28863,"lon":5.40019,"is_reserved":false,"is_disabled":false,"rental_uris":{"android":"levelo://app?vid=76b3e8a8-8d6f-4c3a-a5ea-2ed38dee0ed7","ios":"levelo://app?vid=76b3e8a8-8d6f-4c3a-a5ea-2ed38dee0ed7"},"vehicle_type_id":"4","last_reported":1718471228,"current_range_meters":29200,"station_id":"","pricing_plan_id":"cebpf4jnsgd1na2vs0mg"},{"bike_id":"96e5dd57-7c51-4cae-8f8a-9734231bbe90","system_id":"levelo_inurba_marseille","lat":43.326605,"lon":5.409903,"is_reserved":false,"is_disabled":false,"rental_uris":{"android":"levelo://app?vid=96e5dd57-7c51-4cae-8f8a-9734231bbe90","ios":"levelo://app?vid=96e5dd57-7c51-4cae-8f8a-9734231bbe90"},"vehicle_type_id":"4","last_reported":1718471228,"current_range_meters":11200,"station_id":"ce4bhpp2rcd13ifvqhgg","pricing_plan_id":"cebpf4jnsgd1na2vs0mg"},{"bike_id":"844d4f40-f188-4259-b795-22ec494f7103","system_id":"levelo_inurba_marseille","lat":43.326605,"lon":5.409903,"is_reserved":false,"is_disabled":false,"rental_uris":{"android":"levelo://app?vid=844d4f40-f188-4259-b795-22ec494f7103","ios":"levelo://app?vid=844d4f40-f188-4259-b795-22ec494f7103"},"vehicle_type_id":"4","last_reported":1718471228,"current_range_meters":10400,"station_id":"ce4bhpp2rcd13ifvqhgg","pricing_plan_id":"cebpf4jnsgd1na2vs0mg"},{"bike_id":"45a9944e-a0c1-4253-8b3f-e70481bccd9c","system_id":"levelo_inurba_marseille","lat":43.27907,"lon":5.38019,"is_reserved":false,"is_disabled":false,"rental_uris":{"android":"levelo://app?vid=45a9944e-a0c1-4253-8b3f-e70481bccd9c","ios":"levelo://app?vid=45a9944e-a0c1-4253-8b3f-e70481bccd9c"},"vehicle_type_id":"4","last_reported":1718471228,"current_range_meters":0,"station_id":"ce4bhf92rcd13ifvqf50","pricing_plan_id":"cebpf4jnsgd1na2vs0mg"},{"bike_id":"2f70b29f-779d-4344-b621-f726612b5916","system_id":"levelo_inurba_marseille","lat":43.279087,"lon":5.380114,"is_reserved":false,"is_disabled":false,"rental_uris":{"android":"levelo://app?vid=2f70b29f-779d-4344-b621-f726612b5916","ios":"levelo://app?vid=2f70b29f-779d-4344-b621-f726612b5916"},"vehicle_type_id":"4","last_reported":1718471228,"current_range_meters":3600,"station_id":"ce4bhf92rcd13ifvqf50","pricing_plan_id":"cebpf4jnsgd1na2vs0mg"},{"bike_id":"438db947-2025-4158-a266-1872e6555c06","system_id":"levelo_inurba_marseille","lat":43.292569,"lon":5.409107,"is_reserved":false,"is_disabled":false,"rental_uris":{"android":"levelo://app?vid=438db947-2025-4158-a266-1872e6555c06","ios":"levelo://app?vid=438db947-2025-4158-a266-1872e6555c06"},"vehicle_type_id":"4","last_reported":1718471228,"current_range_meters":6400,"station_id":"ce4bh192rcd13ifvqdc0","pricing_plan_id":"cebpf4jnsgd1na2vs0mg"},{"bike_id":"b1872435-2ba0-4dfa-a8d2-bb474e2dd8ec","system_id":"levelo_inurba_marseille","lat":43.29263,"lon":5.40905,"is_reserved":false,"is_disabled":false,"rental_uris":{"android":"levelo://app?vid=b1872435-2ba0-4dfa-a8d2-bb474e2dd8ec","ios":"levelo://app?vid=b1872435-2ba0-4dfa-a8d2-bb474e2dd8ec"},"vehicle_type_id":"4","last_reported":1718471228,"current_range_meters":20400,"station_id":"ce4bh192rcd13ifvqdc0","pricing_plan_id":"cebpf4jnsgd1na2vs0mg"},{"bike_id":"0963dd10-a8be-4858-a2e0-c9160e86e8f4","system_id":"levelo_inurba_marseille","lat":43.29255,"lon":5.40899,"is_reserved":false,"is_disabled":false,"rental_uris":{"android":"levelo://app?vid=0963dd10-a8be-4858-a2e0-c9160e86e8f4","ios":"levelo://app?vid=0963dd10-a8be-4858-a2e0-c9160e86e8f4"},"vehicle_type_id":"4","last_reported":1718471228,"current_range_meters":13600,"station_id":"ce4bh192rcd13ifvqdc0","pricing_plan_id":"cebpf4jnsgd1na2vs0mg"},{"bike_id":"376aa40d-8fdf-4381-b64a-86527cee1e93","system_id":"levelo_inurba_marseille","lat":43.32538,"lon":5.41432,"is_reserved":false,"is_disabled":false,"rental_uris":{"android":"levelo://app?vid=376aa40d-8fdf-4381-b64a-86527cee1e93","ios":"levelo://app?vid=376aa40d-8fdf-4381-b64a-86527cee1e93"},"vehicle_type_id":"4","last_reported":1718471228,"current_range_meters":0,"station_id":"ce4bhq12rcd13ifvqhhg","pricing_plan_id":"cebpf4jnsgd1na2vs0mg"},{"bike_id":"e7ca40ab-b615-409a-bb43-3d104d99160a","system_id":"levelo_inurba_marseille","lat":43.276179,"lon":5.361009,"is_reserved":false,"is_disabled":false,"rental_uris":{"android":"levelo://app?vid=e7ca40ab-b615-409a-bb43-3d104d99160a","ios":"levelo://app?vid=e7ca40ab-b615-409a-bb43-3d104d99160a"},"vehicle_type_id":"4","last_reported":1718471228,"current_range_meters":30000,"station_id":"ce4bgj92rcd13ifvqbe0","pricing_plan_id":"cebpf4jnsgd1na2vs0mg"},{"bike_id":"034df56d-bce8-4710-b1d1-9b0c57617e4a","system_id":"levelo_inurba_marseille","lat":43.325448,"lon":5.414484,"is_reserved":false,"is_disabled":false,"rental_uris":{"android":"levelo://app?vid=034df56d-bce8-4710-b1d1-9b0c57617e4a","ios":"levelo://app?vid=034df56d-bce8-4710-b1d1-9b0c57617e4a"},"vehicle_type_id":"4","last_reported":1718471228,"current_range_meters":12400,"station_id":"ce4bhq12rcd13ifvqhhg","pricing_plan_id":"cebpf4jnsgd1na2vs0mg"},{"bike_id":"d52d712e-afa0-4b20-9c54-0c62314213ca","system_id":"levelo_inurba_marseille","lat":43.277813,"lon":5.385686,"is_reserved":false,"is_disabled":false,"rental_uris":{"android":"levelo://app?vid=d52d712e-afa0-4b20-9c54-0c62314213ca","ios":"levelo://app?vid=d52d712e-afa0-4b20-9c54-0c62314213ca"},"vehicle_type_id":"4","last_reported":1718471228,"current_range_meters":13600,"station_id":"ce4bhh92rcd13ifvqfi0","pricing_plan_id":"cebpf4jnsgd1na2vs0mg"},{"bike_id":"ea769d8d-5583-420f-821a-84d95dff23fd","system_id":"levelo_inurba_marseille","lat":43.280784,"lon":5.396622,"is_reserved":false,"is_disabled":false,"rental_uris":{"android":"levelo://app?vid=ea769d8d-5583-420f-821a-84d95dff23fd","ios":"levelo://app?vid=ea769d8d-5583-420f-821a-84d95dff23fd"},"vehicle_type_id":"4","last_reported":1718471228,"current_range_meters":2800,"station_id":"ce4bho12rcd13ifvqh2g","pricing_plan_id":"cebpf4jnsgd1na2vs0mg"},{"bike_id":"5d15eea2-6324-4595-9069-f6f5455e95dd","system_id":"levelo_inurba_marseille","lat":43.303837,"lon":5.418724,"is_reserved":false,"is_disabled":false,"rental_uris":{"android":"levelo://app?vid=5d15eea2-6324-4595-9069-f6f5455e95dd","ios":"levelo://app?vid=5d15eea2-6324-4595-9069-f6f5455e95dd"},"vehicle_type_id":"4","last_reported":1718471228,"current_range_meters":0,"station_id":"ce4bhop2rcd13ifvqh7g","pricing_plan_id":"cebpf4jnsgd1na2vs0mg"},{"bike_id":"8fd2c1a3-e6e1-40bc-8887-f77daa706d91","system_id":"levelo_inurba_marseille","lat":43.27387,"lon":5.36259,"is_reserved":false,"is_disabled":false,"rental_uris":{"android":"levelo://app?vid=8fd2c1a3-e6e1-40bc-8887-f77daa706d91","ios":"levelo://app?vid=8fd2c1a3-e6e1-40bc-8887-f77daa706d91"},"vehicle_type_id":"4","last_reported":1718471228,"current_range_meters":8400,"station_id":"ce4bhbh2rcd13ifvqeo0","pricing_plan_id":"cebpf4jnsgd1na2vs0mg"},{"bike_id":"af9ac8be-595e-40ad-8f22-1fc4e913eeff","system_id":"levelo_inurba_marseille","lat":43.273609,"lon":5.362708,"is_reserved":false,"is_disabled":false,"rental_uris":{"android":"levelo://app?vid=af9ac8be-595e-40ad-8f22-1fc4e913eeff","ios":"levelo://app?vid=af9ac8be-595e-40ad-8f22-1fc4e913eeff"},"vehicle_type_id":"4","last_reported":1718471228,"current_range_meters":22000,"station_id":"ce4bhbh2rcd13ifvqeo0","pricing_plan_id":"cebpf4jnsgd1na2vs0mg"},{"bike_id":"dccf5181-ce21-4209-9504-b7cbefe2c40f","system_id":"levelo_inurba_marseille","lat":43.275625,"lon":5.384392,"is_reserved":false,"is_disabled":false,"rental_uris":{"android":"levelo://app?vid=dccf5181-ce21-4209-9504-b7cbefe2c40f","ios":"levelo://app?vid=dccf5181-ce21-4209-9504-b7cbefe2c40f"},"vehicle_type_id":"4","last_reported":1718471228,"current_range_meters":9600,"station_id":"ce4bhh92rcd13ifvqfi0","pricing_plan_id":"cebpf4jnsgd1na2vs0mg"},{"bike_id":"e7c2dcb6-763d-4f2c-af13-7882f9a56f76","system_id":"levelo_inurba_marseille","lat":43.33612,"lon":5.410321,"is_reserved":false,"is_disabled":false,"rental_uris":{"android":"levelo://app?vid=e7c2dcb6-763d-4f2c-af13-7882f9a56f76","ios":"levelo://app?vid=e7c2dcb6-763d-4f2c-af13-7882f9a56f76"},"vehicle_type_id":"4","last_reported":1718471228,"current_range_meters":24400,"station_id":"ce4bhqh2rcd13ifvqhmg","pricing_plan_id":"cebpf4jnsgd1na2vs0mg"},{"bike_id":"ba4bcf45-0e01-404a-9b8c-bdf6842b2413","system_id":"levelo_inurba_marseille","lat":43.273609,"lon":5.362708,"is_reserved":false,"is_disabled":false,"rental_uris":{"android":"levelo://app?vid=ba4bcf45-0e01-404a-9b8c-bdf6842b2413","ios":"levelo://app?vid=ba4bcf45-0e01-404a-9b8c-bdf6842b2413"},"vehicle_type_id":"4","last_reported":1718471228,"current_range_meters":1200,"station_id":"ce4bhbh2rcd13ifvqeo0","pricing_plan_id":"cebpf4jnsgd1na2vs0mg"},{"bike_id":"63a3eeee-5fe6-4e59-ac1c-b665965319f2","system_id":"levelo_inurba_marseille","lat":43.275625,"lon":5.384392,"is_reserved":false,"is_disabled":false,"rental_uris":{"android":"levelo://app?vid=63a3eeee-5fe6-4e59-ac1c-b665965319f2","ios":"levelo://app?vid=63a3eeee-5fe6-4e59-ac1c-b665965319f2"},"vehicle_type_id":"4","last_reported":1718471228,"current_range_meters":24400,"station_id":"ce4bhh92rcd13ifvqfi0","pricing_plan_id":"cebpf4jnsgd1na2vs0mg"},{"bike_id":"7b9f9f63-a0d0-43e7-8de5-70752cedd1fb","system_id":"levelo_inurba_marseille","lat":43.275625,"lon":5.384392,"is_reserved":false,"is_disabled":false,"rental_uris":{"android":"levelo://app?vid=7b9f9f63-a0d0-43e7-8de5-70752cedd1fb","ios":"levelo://app?vid=7b9f9f63-a0d0-43e7-8de5-70752cedd1fb"},"vehicle_type_id":"4","last_reported":1718471228,"current_range_meters":11200,"station_id":"ce4bhh92rcd13ifvqfi0","pricing_plan_id":"cebpf4jnsgd1na2vs0mg"},{"bike_id":"d6a6c94a-9e36-4996-9e76-c81a1ace57a6","system_id":"levelo_inurba_marseille","lat":43.273609,"lon":5.362708,"is_reserved":false,"is_disabled":false,"rental_uris":{"android":"levelo://app?vid=d6a6c94a-9e36-4996-9e76-c81a1ace57a6","ios":"levelo://app?vid=d6a6c94a-9e36-4996-9e76-c81a1ace57a6"},"vehicle_type_id":"4","last_reported":1718471228,"current_range_meters":22400,"station_id":"ce4bhbh2rcd13ifvqeo0","pricing_plan_id":"cebpf4jnsgd1na2vs0mg"},{"bike_id":"248d3690-5734-4c90-8d7a-ca93d3e6afb2","system_id":"levelo_inurba_marseille","lat":43.275625,"lon":5.384392,"is_reserved":false,"is_disabled":false,"rental_uris":{"android":"levelo://app?vid=248d3690-5734-4c90-8d7a-ca93d3e6afb2","ios":"levelo://app?vid=248d3690-5734-4c90-8d7a-ca93d3e6afb2"},"vehicle_type_id":"4","last_reported":1718471228,"current_range_meters":1600,"station_id":"ce4bhh92rcd13ifvqfi0","pricing_plan_id":"cebpf4jnsgd1na2vs0mg"},{"bike_id":"b8133f7b-8cba-4f8c-b230-b7ae4a0facac","system_id":"levelo_inurba_marseille","lat":43.2756,"lon":5.38427,"is_reserved":false,"is_disabled":false,"rental_uris":{"android":"levelo://app?vid=b8133f7b-8cba-4f8c-b230-b7ae4a0facac","ios":"levelo://app?vid=b8133f7b-8cba-4f8c-b230-b7ae4a0facac"},"vehicle_type_id":"4","last_reported":1718471228,"current_range_meters":0,"station_id":"ce4bhh92rcd13ifvqfi0","pricing_plan_id":"cebpf4jnsgd1na2vs0mg"},{"bike_id":"16ca9fe5-7e70-490a-bdae-cc3e9d3e7e33","system_id":"levelo_inurba_marseille","lat":43.27701,"lon":5.38929,"is_reserved":false,"is_disabled":false,"rental_uris":{"android":"levelo://app?vid=16ca9fe5-7e70-490a-bdae-cc3e9d3e7e33","ios":"levelo://app?vid=16ca9fe5-7e70-490a-bdae-cc3e9d3e7e33"},"vehicle_type_id":"4","last_reported":1718471228,"current_range_meters":0,"station_id":"ce4bhi12rcd13ifvqfo0","pricing_plan_id":"cebpf4jnsgd1na2vs0mg"},{"bike_id":"c9e5712b-ce7d-4300-a95a-1a952d6579dc","system_id":"levelo_inurba_marseille","lat":43.27679,"lon":5.38878,"is_reserved":false,"is_disabled":false,"rental_uris":{"android":"levelo://app?vid=c9e5712b-ce7d-4300-a95a-1a952d6579dc","ios":"levelo://app?vid=c9e5712b-ce7d-4300-a95a-1a952d6579dc"},"vehicle_type_id":"4","last_reported":1718471228,"current_range_meters":0,"station_id":"ce4bhi12rcd13ifvqfo0","pricing_plan_id":"cebpf4jnsgd1na2vs0mg"},{"bike_id":"b74cc08e-42ed-475e-bb93-fb7758ab8ca3","system_id":"levelo_inurba_marseille","lat":43.276771,"lon":5.388799,"is_reserved":false,"is_disabled":false,"rental_uris":{"android":"levelo://app?vid=b74cc08e-42ed-475e-bb93-fb7758ab8ca3","ios":"levelo://app?vid=b74cc08e-42ed-475e-bb93-fb7758ab8ca3"},"vehicle_type_id":"4","last_reported":1718471228,"current_range_meters":0,"station_id":"ce4bhi12rcd13ifvqfo0","pricing_plan_id":"cebpf4jnsgd1na2vs0mg"},{"bike_id":"e30b6320-0215-4654-8db0-8a063d85ba8b","system_id":"levelo_inurba_marseille","lat":43.279975,"lon":5.40009,"is_reserved":false,"is_disabled":false,"rental_uris":{"android":"levelo://app?vid=e30b6320-0215-4654-8db0-8a063d85ba8b","ios":"levelo://app?vid=e30b6320-0215-4654-8db0-8a063d85ba8b"},"vehicle_type_id":"4","last_reported":1718471228,"current_range_meters":6400,"station_id":"ce4bho92rcd13ifvqh4g","pricing_plan_id":"cebpf4jnsgd1na2vs0mg"},{"bike_id":"35057ea3-f3a9-4b46-9fa3-95f4846ea680","system_id":"levelo_inurba_marseille","lat":43.279952,"lon":5.400085,"is_reserved":false,"is_disabled":false,"rental_uris":{"android":"levelo://app?vid=35057ea3-f3a9-4b46-9fa3-95f4846ea680","ios":"levelo://app?vid=35057ea3-f3a9-4b46-9fa3-95f4846ea680"},"vehicle_type_id":"4","last_reported":1718471228,"current_range_meters":11200,"station_id":"ce4bho92rcd13ifvqh4g","pricing_plan_id":"cebpf4jnsgd1na2vs0mg"},{"bike_id":"3155591e-ff14-481f-8be3-60b815672750","system_id":"levelo_inurba_marseille","lat":43.317121,"lon":5.423936,"is_reserved":false,"is_disabled":false,"rental_uris":{"android":"levelo://app?vid=3155591e-ff14-481f-8be3-60b815672750","ios":"levelo://app?vid=3155591e-ff14-481f-8be3-60b815672750"},"vehicle_type_id":"4","last_reported":1718471228,"current_range_meters":20400,"station_id":"ce4bhp92rcd13ifvqhbg","pricing_plan_id":"cebpf4jnsgd1na2vs0mg"},{"bike_id":"328e4be0-6e8f-413f-81ac-1f03ed36b1db","system_id":"levelo_inurba_marseille","lat":43.27331,"lon":5.39072,"is_reserved":false,"is_disabled":false,"rental_uris":{"android":"levelo://app?vid=328e4be0-6e8f-413f-81ac-1f03ed36b1db","ios":"levelo://app?vid=328e4be0-6e8f-413f-81ac-1f03ed36b1db"},"vehicle_type_id":"4","last_reported":1718471228,"current_range_meters":0,"station_id":"ce4bhgp2rcd13ifvqfe0","pricing_plan_id":"cebpf4jnsgd1na2vs0mg"},{"bike_id":"13852df4-8509-4bf2-9b45-5b1119eabec5","system_id":"levelo_inurba_marseille","lat":43.273129,"lon":5.390725,"is_reserved":false,"is_disabled":false,"rental_uris":{"android":"levelo://app?vid=13852df4-8509-4bf2-9b45-5b1119eabec5","ios":"levelo://app?vid=13852df4-8509-4bf2-9b45-5b1119eabec5"},"vehicle_type_id":"4","last_reported":1718471228,"current_range_meters":0,"station_id":"ce4bhgp2rcd13ifvqfe0","pricing_plan_id":"cebpf4jnsgd1na2vs0mg"},