{"last_updated":1773942362,"ttl":60,"version":"2.2","data":{"bikes":[{"bike_id":"1c288d5a-f4a8-40d6-902e-7c52486386a8","system_id":"levelo_inurba_marseille","lat":43.241782,"lon":5.397264,"is_reserved":false,"is_disabled":false,"rental_uris":{"android":"levelo://app?vid=1c288d5a-f4a8-40d6-902e-7c52486386a8","ios":"levelo://app?vid=1c288d5a-f4a8-40d6-902e-7c52486386a8"},"vehicle_type_id":"4","last_reported":1773942363,"current_range_meters":2800,"station_id":"ce4bhn12rcd13ifvqgpg","pricing_plan_id":"cebpf4jnsgd1na2vs0mg"},{"bike_id":"c539bd65-0e65-469f-b4ed-962f8c4aff1f","system_id":"levelo_inurba_marseille","lat":43.28664,"lon":5.36359,"is_reserved":false,"is_disabled":false,"rental_uris":{"android":"levelo://app?vid=c539bd65-0e65-469f-b4ed-962f8c4aff1f","ios":"levelo://app?vid=c539bd65-0e65-469f-b4ed-962f8c4aff1f"},"vehicle_type_id":"4","last_reported":1773942363,"current_range_meters":2800,"station_id":"ce4bhah2rcd13ifvqej0","pricing_plan_id":"cebpf4jnsgd1na2vs0mg"},{"bike_id":"ccf4cbaf-a48e-4a3a-bd43-50421be7ff22","system_id":"levelo_inurba_marseille","lat":43.273315,"lon":5.390669,"is_reserved":false,"is_disabled":true,"rental_uris":{"android":"levelo://app?vid=ccf4cbaf-a48e-4a3a-bd43-50421be7ff22","ios":"levelo://app?vid=ccf4cbaf-a48e-4a3a-bd43-50421be7ff22"},"vehicle_type_id":"4","last_reported":1773942363,"current_range_meters":2800,"station_id":"ce4bhgp2rcd13ifvqfe0","pricing_plan_id":"cebpf4jnsgd1na2vs0mg"},{"bike_id":"e6aaf05d-10ea-43c2-a0b8-8818d3742731","system_id":"levelo_inurba_marseille","lat":43.291591,"lon":5.377574,"is_reserved":false,"is_disabled":false,"rental_uris":{"android":"levelo://app?vid=e6aaf05d-10ea-43c2-a0b8-8818d3742731","ios":"levelo://app?vid=e6aaf05d-10ea-43c2-a0b8-8818d3742731"},"vehicle_type_id":"4","last_reported":1773942363,"current_range_meters":2800,"station_id":"ce4bgi12rcd13ifvqb70","pricing_plan_id":"cebpf4jnsgd1na2vs0mg"},{"bike_id":"c2a080d0-33ea-4b97-82f0-581b1d107bf9","system_id":"levelo_inurba_marseille","lat":43.28718,"lon":5.36084,"is_reserved":false,"is_disabled":false,"rental_uris":{"android":"levelo://app?vid=c2a080d0-33ea-4b97-82f0-581b1d107bf9","ios":"levelo://app?vid=c2a080d0-33ea-4b97-82f0-581b1d107bf9"},"vehicle_type_id":"4","last_reported":1773942363,"current_range_meters":2800,"station_id":"cki0cbj6b192h4jlfktg","pricing_plan_id":"cebpf4jnsgd1na2vs0mg"},{"bike_id":"1eba6299-4398-40cd-ac74-133611b68047","system_id":"levelo_inurba_marseille","lat":43.28617,"lon":5.35118,"is_reserved":false,"is_disabled":false,"rental_uris":{"android":"levelo://app?vid=1eba6299-4398-40cd-ac74-133611b68047","ios":"levelo://app?vid=1eba6299-4398-40cd-ac74-133611b68047"},"vehicle_type_id":"4","last_reported":1773942363,"current_range_meters":2800,"station_id":"ce4bhch2rcd13ifvqeug","pricing_plan_id":"cebpf4jnsgd1na2vs0mg"},{"bike_id":"2cc0d97c-5ca8-4112-8c8f-b37680534657","system_id":"levelo_inurba_marseille","lat":43.28154,"lon":5.42645,"is_reserved":false,"is_disabled":false,"rental_uris":{"android":"levelo://app?vid=2cc0d97c-5ca8-4112-8c8f-b37680534657","ios":"levelo://app?vid=2cc0d97c-5ca8-4112-8c8f-b37680534657"},"vehicle_type_id":"4","last_reported":1773942363,"current_range_meters":2800,"station_id":"ce4bhnh2rcd13ifvqgug","pricing_plan_id":"cebpf4jnsgd1na2vs0mg"},{"bike_id":"cc70dd6c-3d9f-4561-aba7-f2fa8125b515","system_id":"levelo_inurba_marseille","lat":43.29881,"lon":5.38897,"is_reserved":false,"is_disabled":false,"rental_uris":{"android":"levelo://app?vid=cc70dd6c-3d9f-4561-aba7-f2fa8125b515","ios":"levelo://app?vid=cc70dd6c-3d9f-4561-aba7-f2fa8125b515"},"vehicle_type_id":"4","last_reported":1773942363,"current_range_meters":2800,"station_id":"ce4bh392rcd13ifvqdl0","pricing_plan_id":"cebpf4jnsgd1na2vs0mg"},{"bike_id":"33c32682-cc83-49b3-979c-7d6d6dd01ce5","system_id":"levelo_inurba_marseille","lat":43.266785,"lon":5.382763,"is_reserved":false,"is_disabled":false,"rental_uris":{"android":"levelo://app?vid=33c32682-cc83-49b3-979c-7d6d6dd01ce5","ios":"levelo://app?vid=33c32682-cc83-49b3-979c-7d6d6dd01ce5"},"vehicle_type_id":"4","last_reported":1773942363,"current_range_meters":2800,"station_id":"ce4bhg92rcd13ifvqf90","pricing_plan_id":"cebpf4jnsgd1na2vs0mg"},{"bike_id":"205a70d8-30e3-4990-a7a3-fc9aa0acf96f","system_id":"levelo_inurba_marseille","lat":43.2842,"lon":5.34986,"is_reserved":false,"is_disabled":false,"rental_uris":{"android":"levelo://app?vid=205a70d8-30e3-4990-a7a3-fc9aa0acf96f","ios":"levelo://app?vid=205a70d8-30e3-4990-a7a3-fc9aa0acf96f"},"vehicle_type_id":"4","last_reported":1773942363,"current_range_meters":2800,"station_id":"ce4bhbh2rcd13ifvqepg","pricing_plan_id":"cebpf4jnsgd1na2vs0mg"},{"bike_id":"2947c570-412d-421c-8491-595641ba35cb","system_id":"levelo_inurba_marseille","lat":43.29274,"lon":5.38282,"is_reserved":false,"is_disabled":false,"rental_uris":{"android":"levelo://app?vid=2947c570-412d-421c-8491-595641ba35cb","ios":"levelo://app?vid=2947c570-412d-421c-8491-595641ba35cb"},"vehicle_type_id":"4","last_reported":1773942363,"current_range_meters":2800,"station_id":"","pricing_plan_id":"cebpf4jnsgd1na2vs0mg"},{"bike_id":"4d455aa5-5cfb-40ad-b187-dedb955c0f83","system_id":"levelo_inurba_marseille","lat":43.248123,"lon":5.374661,"is_reserved":false,"is_disabled":false,"rental_uris":{"android":"levelo://app?vid=4d455aa5-5cfb-40ad-b187-dedb955c0f83","ios":"levelo://app?vid=4d455aa5-5cfb-40ad-b187-dedb955c0f83"},"vehicle_type_id":"4","last_reported":1773942363,"current_range_meters":2800,"station_id":"ce4bhgh2rcd13ifvqfb0","pricing_plan_id":"cebpf4jnsgd1na2vs0mg"},{"bike_id":"a39c2269-c1be-4679-b7ec-7b13e4b25bad","system_id":"levelo_inurba_marseille","lat":43.3251,"lon":5.38762,"is_reserved":false,"is_disabled":true,"rental_uris":{"android":"levelo://app?vid=a39c2269-c1be-4679-b7ec-7b13e4b25bad","ios":"levelo://app?vid=a39c2269-c1be-4679-b7ec-7b13e4b25bad"},"vehicle_type_id":"4","last_reported":1773942363,"current_range_meters":2800,"station_id":"","pricing_plan_id":"cebpf4jnsgd1na2vs0mg"},{"bike_id":"779b8a3c-1846-46b5-9cab-bf0ec2b1118f","system_id":"levelo_inurba_marseille","lat":43.28474,"lon":5.48431,"is_reserved":false,"is_disabled":false,"rental_uris":{"android":"levelo://app?vid=779b8a3c-1846-46b5-9cab-bf0ec2b1118f","ios":"levelo://app?vid=779b8a3c-1846-46b5-9cab-bf0ec2b1118f"},"vehicle_type_id":"4","last_reported":1773942363,"current_range_meters":2800,"station_id":"st_d3svhcjqgbts73a3dn0g","pricing_plan_id":"cebpf4jnsgd1na2vs0mg"},{"bike_id":"9f7bd17d-6ef4-4c12-81a2-8afa1ca12f36","system_id":"levelo_inurba_marseille","lat":43.2925,"lon":5.3844,"is_reserved":false,"is_disabled":false,"rental_uris":{"android":"levelo://app?vid=9f7bd17d-6ef4-4c12-81a2-8afa1ca12f36","ios":"levelo://app?vid=9f7bd17d-6ef4-4c12-81a2-8afa1ca12f36"},"vehicle_type_id":"4","last_reported":1773942363,"current_range_meters":2800,"station_id":"ce4bh692rcd13ifvqea0","pricing_plan_id":"cebpf4jnsgd1na2vs0mg"},{"bike_id":"e6751a29-36a8-4e13-b912-d273342e141f","system_id":"levelo_inurba_marseille","lat":43.25339,"lon":5.42184,"is_reserved":false,"is_disabled":false,"rental_uris":{"android":"levelo://app?vid=e6751a29-36a8-4e13-b912-d273342e141f","ios":"levelo://app?vid=e6751a29-36a8-4e13-b912-d273342e141f"},"vehicle_type_id":"4","last_reported":1773942363,"current_range_meters":2800,"station_id":"st_d2m65c5bi1j21697t3ng","pricing_plan_id":"cebpf4jnsgd1na2vs0mg"},{"bike_id":"c56d7a57-2801-4ba4-aa6b-6a110b9efa04","system_id":"levelo_inurba_marseille","lat":43.28402,"lon":5.34974,"is_reserved":false,"is_disabled":false,"rental_uris":{"android":"levelo://app?vid=c56d7a57-2801-4ba4-aa6b-6a110b9efa04","ios":"levelo://app?vid=c56d7a57-2801-4ba4-aa6b-6a110b9efa04"},"vehicle_type_id":"4","last_reported":1773942363,"current_range_meters":3200,"station_id":"ce4bhbh2rcd13ifvqepg","pricing_plan_id":"cebpf4jnsgd1na2vs0mg"},{"bike_id":"1835d134-aa60-491b-98ba-9ebfed3004cb","system_id":"levelo_inurba_marseille","lat":43.27989,"lon":5.40037,"is_reserved":false,"is_disabled":false,"rental_uris":{"android":"levelo://app?vid=1835d134-aa60-491b-98ba-9ebfed3004cb","ios":"levelo://app?vid=1835d134-aa60-491b-98ba-9ebfed3004cb"},"vehicle_type_id":"4","last_reported":1773942363,"current_range_meters":3200,"station_id":"ce4bho92rcd13ifvqh4g","pricing_plan_id":"cebpf4jnsgd1na2vs0mg"},{"bike_id":"9ef9fd3b-08e1-41bf-bbd1-087477917b48","system_id":"levelo_inurba_marseille","lat":43.31229,"lon":5.36856,"is_reserved":false,"is_disabled":false,"rental_uris":{"android":"levelo://app?vid=9ef9fd3b-08e1-41bf-bbd1-087477917b48","ios":"levelo://app?vid=9ef9fd3b-08e1-41bf-bbd1-087477917b48"},"vehicle_type_id":"4","last_reported":1773942363,"current_range_meters":3200,"station_id":"ce4bgl92rcd13ifvqbq0","pricing_plan_id":"cebpf4jnsgd1na2vs0mg"},{"bike_id":"45a8634e-59d3-4651-be81-cb57b0562b59","system_id":"levelo_inurba_marseille","lat":43.29257,"lon":5.40901,"is_reserved":false,"is_disabled":false,"rental_uris":{"android":"levelo://app?vid=45a8634e-59d3-4651-be81-cb57b0562b59","ios":"levelo://app?vid=45a8634e-59d3-4651-be81-cb57b0562b59"},"vehicle_type_id":"4","last_reported":1773942363,"current_range_meters":3200,"station_id":"ce4bh192rcd13ifvqdc0","pricing_plan_id":"cebpf4jnsgd1na2vs0mg"},{"bike_id":"7eef0b8b-8b88-41d8-89b3-c7d44733b5ad","system_id":"levelo_inurba_marseille","lat":43.30148,"lon":5.38091,"is_reserved":false,"is_disabled":true,"rental_uris":{"android":"levelo://app?vid=7eef0b8b-8b88-41d8-89b3-c7d44733b5ad","ios":"levelo://app?vid=7eef0b8b-8b88-41d8-89b3-c7d44733b5ad"},"vehicle_type_id":"4","last_reported":1773942363,"current_range_meters":3200,"station_id":"ce4bgjp2rcd13ifvqbh0","pricing_plan_id":"cebpf4jnsgd1na2vs0mg"},{"bike_id":"fba488f1-9397-49d4-9e0a-afbcae468949","system_id":"levelo_inurba_marseille","lat":43.30787,"lon":5.41362,"is_reserved":false,"is_disabled":false,"rental_uris":{"android":"levelo://app?vid=fba488f1-9397-49d4-9e0a-afbcae468949","ios":"levelo://app?vid=fba488f1-9397-49d4-9e0a-afbcae468949"},"vehicle_type_id":"4","last_reported":1773942363,"current_range_meters":3200,"station_id":"","pricing_plan_id":"cebpf4jnsgd1na2vs0mg"},{"bike_id":"55d183f8-88c0-43bf-b343-96bccab84a71","system_id":"levelo_inurba_marseille","lat":43.28698,"lon":5.37379,"is_reserved":false,"is_disabled":false,"rental_uris":{"android":"levelo://app?vid=55d183f8-88c0-43bf-b343-96bccab84a71","ios":"levelo://app?vid=55d183f8-88c0-43bf-b343-96bccab84a71"},"vehicle_type_id":"4","last_reported":1773942363,"current_range_meters":3200,"station_id":"ce4bh3p2rcd13ifvqdq0","pricing_plan_id":"cebpf4jnsgd1na2vs0mg"},{"bike_id":"1b1c91ee-b819-425b-84ab-0a4ba95f3d7d","system_id":"levelo_inurba_marseille","lat":43.30557,"lon":5.36699,"is_reserved":false,"is_disabled":false,"rental_uris":{"android":"levelo://app?vid=1b1c91ee-b819-425b-84ab-0a4ba95f3d7d","ios":"levelo://app?vid=1b1c91ee-b819-425b-84ab-0a4ba95f3d7d"},"vehicle_type_id":"4","last_reported":1773942363,"current_range_meters":3200,"station_id":"ce4bgrp2rcd13ifvqc9g","pricing_plan_id":"cebpf4jnsgd1na2vs0mg"},{"bike_id":"09e10eda-5428-4eef-bc71-8eaa49fd754f","system_id":"levelo_inurba_marseille","lat":43.28613,"lon":5.3506,"is_reserved":false,"is_disabled":false,"rental_uris":{"android":"levelo://app?vid=09e10eda-5428-4eef-bc71-8eaa49fd754f","ios":"levelo://app?vid=09e10eda-5428-4eef-bc71-8eaa49fd754f"},"vehicle_type_id":"4","last_reported":1773942363,"current_range_meters":3200,"station_id":"ce4bhch2rcd13ifvqeug","pricing_plan_id":"cebpf4jnsgd1na2vs0mg"},{"bike_id":"57f442da-604f-4740-b780-5067da92f444","system_id":"levelo_inurba_marseille","lat":43.27059,"lon":5.38311,"is_reserved":false,"is_disabled":false,"rental_uris":{"android":"levelo://app?vid=57f442da-604f-4740-b780-5067da92f444","ios":"levelo://app?vid=57f442da-604f-4740-b780-5067da92f444"},"vehicle_type_id":"4","last_reported":1773942363,"current_range_meters":3200,"station_id":"st_d3n2fo6cfp8s73cte1j0","pricing_plan_id":"cebpf4jnsgd1na2vs0mg"},{"bike_id":"185101d4-2ef5-482d-9ca4-856f962c4bc7","system_id":"levelo_inurba_marseille","lat":43.29032,"lon":5.35912,"is_reserved":false,"is_disabled":false,"rental_uris":{"android":"levelo://app?vid=185101d4-2ef5-482d-9ca4-856f962c4bc7","ios":"levelo://app?vid=185101d4-2ef5-482d-9ca4-856f962c4bc7"},"vehicle_type_id":"4","last_reported":1773942363,"current_range_meters":3200,"station_id":"ce4bha92rcd13ifvqeg0","pricing_plan_id":"cebpf4jnsgd1na2vs0mg"},{"bike_id":"8de93d8f-26b3-449b-9a04-bba6830a3a4d","system_id":"levelo_inurba_marseille","lat":43.33733,"lon":5.39186,"is_reserved":false,"is_disabled":false,"rental_uris":{"android":"levelo://app?vid=8de93d8f-26b3-449b-9a04-bba6830a3a4d","ios":"levelo://app?vid=8de93d8f-26b3-449b-9a04-bba6830a3a4d"},"vehicle_type_id":"4","last_reported":1773942363,"current_range_meters":3200,"station_id":"ce4bhr92rcd13ifvqhsg","pricing_plan_id":"cebpf4jnsgd1na2vs0mg"},{"bike_id":"b41589ab-4c9f-459b-aae8-acc2f82f2d5a","system_id":"levelo_inurba_marseille","lat":43.27567,"lon":5.38425,"is_reserved":false,"is_disabled":false,"rental_uris":{"android":"levelo://app?vid=b41589ab-4c9f-459b-aae8-acc2f82f2d5a","ios":"levelo://app?vid=b41589ab-4c9f-459b-aae8-acc2f82f2d5a"},"vehicle_type_id":"4","last_reported":1773942363,"current_range_meters":3200,"station_id":"ce4bhh92rcd13ifvqfi0","pricing_plan_id":"cebpf4jnsgd1na2vs0mg"},{"bike_id":"a9d31829-7e0d-482f-af05-97ddd320ae16","system_id":"levelo_inurba_marseille","lat":43.29744,"lon":5.42775,"is_reserved":false,"is_disabled":true,"rental_uris":{"android":"levelo://app?vid=a9d31829-7e0d-482f-af05-97ddd320ae16","ios":"levelo://app?vid=a9d31829-7e0d-482f-af05-97ddd320ae16"},"vehicle_type_id":"4","last_reported":1773942363,"current_range_meters":3200,"station_id":"st_d3md5207bmas73dh9klg","pricing_plan_id":"cebpf4jnsgd1na2vs0mg"},{"bike_id":"546cc814-d238-4f83-90c2-d40d5b64e6c7","system_id":"levelo_inurba_marseille","lat":43.28468,"lon":5.35864,"is_reserved":false,"is_disabled":false,"rental_uris":{"android":"levelo://app?vid=546cc814-d238-4f83-90c2-d40d5b64e6c7","ios":"levelo://app?vid=546cc814-d238-4f83-90c2-d40d5b64e6c7"},"vehicle_type_id":"4","last_reported":1773942363,"current_range_meters":3200,"station_id":"ce4bhah2rcd13ifvqei0","pricing_plan_id":"cebpf4jnsgd1na2vs0mg"},{"bike_id":"af021088-135b-42e1-97a1-be2000f7a8e2","system_id":"levelo_inurba_marseille","lat":43.28412,"lon":5.34982,"is_reserved":false,"is_disabled":false,"rental_uris":{"android":"levelo://app?vid=af021088-135b-42e1-97a1-be2000f7a8e2","ios":"levelo://app?vid=af021088-135b-42e1-97a1-be2000f7a8e2"},"vehicle_type_id":"4","last_reported":1773942363,"current_range_meters":3200,"station_id":"ce4bhbh2rcd13ifvqepg","pricing_plan_id":"cebpf4jnsgd1na2vs0mg"},{"bike_id":"e107cb22-a13d-4c03-93ce-8114e06b9a0f","system_id":"levelo_inurba_marseille","lat":43.28482,"lon":5.48407,"is_reserved":false,"is_disabled":false,"rental_uris":{"android":"levelo://app?vid=e107cb22-a13d-4c03-93ce-8114e06b9a0f","ios":"levelo://app?vid=e107cb22-a13d-4c03-93ce-8114e06b9a0f"},"vehicle_type_id":"4","last_reported":1773942363,"current_range_meters":3200,"station_id":"","pricing_plan_id":"cebpf4jnsgd1na2vs0mg"},{"bike_id":"02b775a4-9cf6-4890-9683-92e3f7881c47","system_id":"levelo_inurba_marseille","lat":43.29873,"lon":5.38914,"is_reserved":false,"is_disabled":false,"rental_uris":{"android":"levelo://app?vid=02b775a4-9cf6-4890-9683-92e3f7881c47","ios":"levelo://app?vid=02b775a4-9cf6-4890-9683-92e3f7881c47"},"vehicle_type_id":"4","last_reported":1773942363,"current_range_meters":3200,"station_id":"ce4bh392rcd13ifvqdl0","pricing_plan_id":"cebpf4jnsgd1na2vs0mg"},{"bike_id":"4a131a49-d0bb-4906-bf8c-1f358df05e3a","system_id":"levelo_inurba_marseille","lat":43.29577,"lon":5.36743,"is_reserved":false,"is_disabled":false,"rental_uris":{"android":"levelo://app?vid=4a131a49-d0bb-4906-bf8c-1f358df05e3a","ios":"levelo://app?vid=4a131a49-d0bb-4906-bf8c-1f358df05e3a"},"vehicle_type_id":"4","last_reported":1773942363,"current_range_meters":3200,"station_id":"ce4bgph2rcd13ifvqc2g","pricing_plan_id":"cebpf4jnsgd1na2vs0mg"},{"bike_id":"d803b450-7766-413e-9f96-9b221b3fd04f","system_id":"levelo_inurba_marseille","lat":43.28712,"lon":5.37944,"is_reserved":false,"is_disabled":false,"rental_uris":{"android":"levelo://app?vid=d803b450-7766-413e-9f96-9b221b3fd04f","ios":"levelo://app?vid=d803b450-7766-413e-9f96-9b221b3fd04f"},"vehicle_type_id":"4","last_reported":1773942363,"current_range_meters":3200,"station_id":"ce4bh9p2rcd13ifvqec0","pricing_plan_id":"cebpf4jnsgd1na2vs0mg"},{"bike_id":"041126dd-3099-456a-9916-19d40944a68c","system_id":"levelo_inurba_marseille","lat":43.24811,"lon":5.3745,"is_reserved":false,"is_disabled":false,"rental_uris":{"android":"levelo://app?vid=041126dd-3099-456a-9916-19d40944a68c","ios":"levelo://app?vid=041126dd-3099-456a-9916-19d40944a68c"},"vehicle_type_id":"4","last_reported":1773942363,"current_range_meters":3200,"station_id":"ce4bhgh2rcd13ifvqfb0","pricing_plan_id":"cebpf4jnsgd1na2vs0mg"},{"bike_id":"488022cf-ae8c-4b5a-bfe4-ba5db4a587f4","system_id":"levelo_inurba_marseille","lat":43.31898,"lon":5.36809,"is_reserved":false,"is_disabled":false,"rental_uris":{"android":"levelo://app?vid=488022cf-ae8c-4b5a-bfe4-ba5db4a587f4","ios":"levelo://app?vid=488022cf-ae8c-4b5a-bfe4-ba5db4a587f4"},"vehicle_type_id":"4","last_reported":1773942363,"current_range_meters":3200,"station_id":"ce4bguh2rcd13ifvqcj0","pricing_plan_id":"cebpf4jnsgd1na2vs0mg"},{"bike_id":"d86cc0ea-def5-41e9-8ba5-a93e64f4c058","system_id":"levelo_inurba_marseille","lat":43.29567,"lon":5.37509,"is_reserved":false,"is_disabled":false,"rental_uris":{"android":"levelo://app?vid=d86cc0ea-def5-41e9-8ba5-a93e64f4c058","ios":"levelo://app?vid=d86cc0ea-def5-41e9-8ba5-a93e64f4c058"},"vehicle_type_id":"4","last_reported":1773942363,"current_range_meters":3200,"station_id":"ce4bgh92rcd13ifvqb50","pricing_plan_id":"cebpf4jnsgd1na2vs0mg"},{"bike_id":"9a4584d3-9166-475e-a88f-472cb4d1a6e9","system_id":"levelo_inurba_marseille","lat":43.26058,"lon":5.39398,"is_reserved":false,"is_disabled":false,"rental_uris":{"android":"levelo://app?vid=9a4584d3-9166-475e-a88f-472cb4d1a6e9","ios":"levelo://app?vid=9a4584d3-9166-475e-a88f-472cb4d1a6e9"},"vehicle_type_id":"4","last_reported":1773942363,"current_range_meters":3200,"station_id":"ce4bhh92rcd13ifvqfj0","pricing_plan_id":"cebpf4jnsgd1na2vs0mg"},{"bike_id":"ef1bb9bf-832c-4e98-94c1-63238ed58d7c","system_id":"levelo_inurba_marseille","lat":43.28728,"lon":5.36082,"is_reserved":false,"is_disabled":false,"rental_uris":{"android":"levelo://app?vid=ef1bb9bf-832c-4e98-94c1-63238ed58d7c","ios":"levelo://app?vid=ef1bb9bf-832c-4e98-94c1-63238ed58d7c"},"vehicle_type_id":"4","last_reported":1773942363,"current_range_meters":3200,"station_id":"cki0cbj6b192h4jlfktg","pricing_plan_id":"cebpf4jnsgd1na2vs0mg"},{"bike_id":"f5633142-06b4-41a8-9523-f83ce443c69f","system_id":"levelo_inurba_marseille","lat":43.286096,"lon":5.35101,"is_reserved":false,"is_disabled":false,"rental_uris":{"android":"levelo://app?vid=f5633142-06b4-41a8-9523-f83ce443c69f","ios":"levelo://app?vid=f5633142-06b4-41a8-9523-f83ce443c69f"},"vehicle_type_id":"4","last_reported":1773942363,"current_range_meters":3600,"station_id":"","pricing_plan_id":"cebpf4jnsgd1na2vs0mg"},{"bike_id":"88da9738-a636-4975-a400-1a06d3c302d2","system_id":"levelo_inurba_marseille","lat":43.29436,"lon":5.39777,"is_reserved":false,"is_disabled":false,"rental_uris":{"android":"levelo://app?vid=88da9738-a636-4975-a400-1a06d3c302d2","ios":"levelo://app?vid=88da9738-a636-4975-a400-1a06d3c302d2"},"vehicle_type_id":"4","last_reported":1773942363,"current_range_meters":3600,"station_id":"ce4bh3h2rcd13ifvqdo0","pricing_plan_id":"cebpf4jnsgd1na2vs0mg"},{"bike_id":"8fb8a72b-82a4-4417-b9b3-4280726bc0c0","system_id":"levelo_inurba_marseille","lat":43.31699,"lon":5.37745,"is_reserved":false,"is_disabled":false,"rental_uris":{"android":"levelo://app?vid=8fb8a72b-82a4-4417-b9b3-4280726bc0c0","ios":"levelo://app?vid=8fb8a72b-82a4-4417-b9b3-4280726bc0c0"},"vehicle_type_id":"4","last_reported":1773942363,"current_range_meters":3600,"station_id":"ce4bgth2rcd13ifvqch0","pricing_plan_id":"cebpf4jnsgd1na2vs0mg"},{"bike_id":"82a443a3-a888-4cad-9416-9a273e3efd86","system_id":"levelo_inurba_marseille","lat":43.295319,"lon":5.385405,"is_reserved":false,"is_disabled":false,"rental_uris":{"android":"levelo://app?vid=82a443a3-a888-4cad-9416-9a273e3efd86","ios":"levelo://app?vid=82a443a3-a888-4cad-9416-9a273e3efd86"},"vehicle_type_id":"4","last_reported":1773942363,"current_range_meters":3600,"station_id":"ce4bgih2rcd13ifvqba0","pricing_plan_id":"cebpf4jnsgd1na2vs0mg"},{"bike_id":"2cd6d2c4-9839-4b08-8d75-805c4c2214dc","system_id":"levelo_inurba_marseille","lat":43.23047,"lon":5.35497,"is_reserved":false,"is_disabled":false,"rental_uris":{"android":"levelo://app?vid=2cd6d2c4-9839-4b08-8d75-805c4c2214dc","ios":"levelo://app?vid=2cd6d2c4-9839-4b08-8d75-805c4c2214dc"},"vehicle_type_id":"4","last_reported":1773942363,"current_range_meters":3600,"station_id":"cpo3342slgdg3j2ifvpg","pricing_plan_id":"cebpf4jnsgd1na2vs0mg"},{"bike_id":"6a3a2dd3-b6da-42ff-864f-fcae3a605fbb","system_id":"levelo_inurba_marseille","lat":43.28614,"lon":5.37056,"is_reserved":false,"is_disabled":false,"rental_uris":{"android":"levelo://app?vid=6a3a2dd3-b6da-42ff-864f-fcae3a605fbb","ios":"levelo://app?vid=6a3a2dd3-b6da-42ff-864f-fcae3a605fbb"},"vehicle_type_id":"4","last_reported":1773942363,"current_range_meters":3600,"station_id":"ce4bht12rcd13ifvqi60","pricing_plan_id":"cebpf4jnsgd1na2vs0mg"},{"bike_id":"6b73238b-72b0-4d8f-a5cf-d227e7a75b43","system_id":"levelo_inurba_marseille","lat":43.310289,"lon":5.371631,"is_reserved":false,"is_disabled":false,"rental_uris":{"android":"levelo://app?vid=6b73238b-72b0-4d8f-a5cf-d227e7a75b43","ios":"levelo://app?vid=6b73238b-72b0-4d8f-a5cf-d227e7a75b43"},"vehicle_type_id":"4","last_reported":1773942363,"current_range_meters":3600,"station_id":"st_d4kl2rp97mjs73e7tdfg","pricing_plan_id":"cebpf4jnsgd1na2vs0mg"},{"bike_id":"fce5b393-49cf-49a1-9a78-252f1e9e061d","system_id":"levelo_inurba_marseille","lat":43.296173,"lon":5.37153,"is_reserved":false,"is_disabled":false,"rental_uris":{"android":"levelo://app?vid=fce5b393-49cf-49a1-9a78-252f1e9e061d","ios":"levelo://app?vid=fce5b393-49cf-49a1-9a78-252f1e9e061d"},"vehicle_type_id":"4","last_reported":1773942363,"current_range_meters":3600,"station_id":"ce4bgnh2rcd13ifvqc0g","pricing_plan_id":"cebpf4jnsgd1na2vs0mg"},{"bike_id":"d0b1f448-6af4-4ef1-a755-e03baf4488aa","system_id":"levelo_inurba_marseille","lat":43.29274,"lon":5.35754,"is_reserved":false,"is_disabled":false,"rental_uris":{"android":"levelo://app?vid=d0b1f448-6af4-4ef1-a755-e03baf4488aa","ios":"levelo://app?vid=d0b1f448-6af4-4ef1-a755-e03baf4488aa"},"vehicle_type_id":"4","last_reported":1773942363,"current_range_meters":3600,"station_id":"","pricing_plan_id":"cebpf4jnsgd1na2vs0mg"},{"bike_id":"5207f5a6-b46e-43bf-82a4-d2a3b404513f","system_id":"levelo_inurba_marseille","lat":43.29182,"lon":5.3934,"is_reserved":false,"is_disabled":false,"rental_uris":{"android":"levelo://app?vid=5207f5a6-b46e-43bf-82a4-d2a3b404513f","ios":"levelo://app?vid=5207f5a6-b46e-43bf-82a4-d2a3b404513f"},"vehicle_type_id":"4","last_reported":1773942363,"current_range_meters":3600,"station_id":"ce4bh192rcd13ifvqdd0","pricing_plan_id":"cebpf4jnsgd1na2vs0mg"},{"bike_id":"2b9d3d39-1405-49f9-97c0-4318c8a64ea3","system_id":"levelo_inurba_marseille","lat":43.22927,"lon":5.35359,"is_reserved":false,"is_disabled":false,"rental_uris":{"android":"levelo://app?vid=2b9d3d39-1405-49f9-97c0-4318c8a64ea3","ios":"levelo://app?vid=2b9d3d39-1405-49f9-97c0-4318c8a64ea3"},"vehicle_type_id":"4","last_reported":1773942363,"current_range_meters":3600,"station_id":"cpo3532slgdg3j2ikp40","pricing_plan_id":"cebpf4jnsgd1na2vs0mg"},{"bike_id":"54432054-fd3a-4a90-9fc2-b7c3a0a99aae","system_id":"levelo_inurba_marseille","lat":43.29585,"lon":5.36763,"is_reserved":false,"is_disabled":false,"rental_uris":{"android":"levelo://app?vid=54432054-fd3a-4a90-9fc2-b7c3a0a99aae","ios":"levelo://app?vid=54432054-fd3a-4a90-9fc2-b7c3a0a99aae"},"vehicle_type_id":"4","last_reported":1773942363,"current_range_meters":3600,"station_id":"ce4bgph2rcd13ifvqc2g","pricing_plan_id":"cebpf4jnsgd1na2vs0mg"},{"bike_id":"fad8e96d-acb2-4874-9608-7180f6b034b8","system_id":"levelo_inurba_marseille","lat":43.2914,"lon":5.40791,"is_reserved":false,"is_disabled":false,"rental_uris":{"android":"levelo://app?vid=fad8e96d-acb2-4874-9608-7180f6b034b8","ios":"levelo://app?vid=fad8e96d-acb2-4874-9608-7180f6b034b8"},"vehicle_type_id":"4","last_reported":1773942363,"current_range_meters":3600,"station_id":"","pricing_plan_id":"cebpf4jnsgd1na2vs0mg"},{"bike_id":"310d3cf6-a6c6-476f-96b5-d8d0ce311306","system_id":"levelo_inurba_marseille","lat":43.27972,"lon":5.38746,"is_reserved":false,"is_disabled":false,"rental_uris":{"android":"levelo://app?vid=310d3cf6-a6c6-476f-96b5-d8d0ce311306","ios":"levelo://app?vid=310d3cf6-a6c6-476f-96b5-d8d0ce311306"},"vehicle_type_id":"4","last_reported":1773942363,"current_range_meters":3600,"station_id":"ce4bhg12rcd13ifvqf80","pricing_plan_id":"cebpf4jnsgd1na2vs0mg"},{"bike_id":"f2319c8b-5e13-4052-8451-4744d09d97b6","system_id":"levelo_inurba_marseille","lat":43.29592,"lon":5.38099,"is_reserved":false,"is_disabled":false,"rental_uris":{"android":"levelo://app?vid=f2319c8b-5e13-4052-8451-4744d09d97b6","ios":"levelo://app?vid=f2319c8b-5e13-4052-8451-4744d09d97b6"},"vehicle_type_id":"4","last_reported":1773942363,"current_range_meters":3600,"station_id":"ce4bgl12rcd13ifvqbo0","pricing_plan_id":"cebpf4jnsgd1na2vs0mg"},{"bike_id":"bd76c094-5344-424d-b7c4-60f8801fbb04","system_id":"levelo_inurba_marseille","lat":43.29896,"lon":5.40234,"is_reserved":false,"is_disabled":false,"rental_uris":{"android":"levelo://app?vid=bd76c094-5344-424d-b7c4-60f8801fbb04","ios":"levelo://app?vid=bd76c094-5344-424d-b7c4-60f8801fbb04"},"vehicle_type_id":"4","last_reported":1773942363,"current_range_meters":3600,"station_id":"","pricing_plan_id":"cebpf4jnsgd1na2vs0mg"},{"bike_id":"cfdd92e2-3bab-4571-9bdc-1d727491a063","system_id":"levelo_inurba_marseille","lat":43.30668,"lon":5.40087,"is_reserved":false,"is_disabled":false,"rental_uris":{"android":"levelo://app?vid=cfdd92e2-3bab-4571-9bdc-1d727491a063","ios":"levelo://app?vid=cfdd92e2-3bab-4571-9bdc-1d727491a063"},"vehicle_type_id":"4","last_reported":1773942363,"current_range_meters":3600,"station_id":"ce4bh112rcd13ifvqda0","pricing_plan_id":"cebpf4jnsgd1na2vs0mg"},{"bike_id":"9cd59127-d5bc-4cd2-afb2-c8febc093057","system_id":"levelo_inurba_marseille","lat":43.29231,"lon":5.360743,"is_reserved":false,"is_disabled":false,"rental_uris":{"android":"levelo://app?vid=9cd59127-d5bc-4cd2-afb2-c8febc093057","ios":"levelo://app?vid=9cd59127-d5bc-4cd2-afb2-c8febc093057"},"vehicle_type_id":"4","last_reported":1773942363,"current_range_meters":3600,"station_id":"ce4bhbh2rcd13ifvqeqg","pricing_plan_id":"cebpf4jnsgd1na2vs0mg"},{"bike_id":"256cd67c-07a1-4fee-8454-044c5bed9e9e","system_id":"levelo_inurba_marseille","lat":43.22929,"lon":5.35391,"is_reserved":false,"is_disabled":false,"rental_uris":{"android":"levelo://app?vid=256cd67c-07a1-4fee-8454-044c5bed9e9e","ios":"levelo://app?vid=256cd67c-07a1-4fee-8454-044c5bed9e9e"},"vehicle_type_id":"4","last_reported":1773942363,"current_range_meters":3600,"station_id":"cpo3532slgdg3j2ikp40","pricing_plan_id":"cebpf4jnsgd1na2vs0mg"},{"bike_id":"f1f29756-a30e-4895-81ad-b432b72c9473","system_id":"levelo_inurba_marseille","lat":43.28933,"lon":5.36628,"is_reserved":false,"is_disabled":false,"rental_uris":{"android":"levelo://app?vid=f1f29756-a30e-4895-81ad-b432b72c9473","ios":"levelo://app?vid=f1f29756-a30e-4895-81ad-b432b72c9473"},"vehicle_type_id":"4","last_reported":1773942363,"current_range_meters":3600,"station_id":"ce4bhap2rcd13ifvqek0","pricing_plan_id":"cebpf4jnsgd1na2vs0mg"},{"bike_id":"74520d74-ff4b-464c-910a-e8a51b881a3d","system_id":"levelo_inurba_marseille","lat":43.25492,"lon":5.37664,"is_reserved":false,"is_disabled":false,"rental_uris":{"android":"levelo://app?vid=74520d74-ff4b-464c-910a-e8a51b881a3d","ios":"levelo://app?vid=74520d74-ff4b-464c-910a-e8a51b881a3d"},"vehicle_type_id":"4","last_reported":1773942363,"current_range_meters":4000,"station_id":"ce4bhh12rcd13ifvqff0","pricing_plan_id":"cebpf4jnsgd1na2vs0mg"},{"bike_id":"cbc8599d-0f53-4276-b29f-85b323d36cb9","system_id":"levelo_inurba_marseille","lat":43.25486,"lon":5.37714,"is_reserved":false,"is_disabled":false,"rental_uris":{"android":"levelo://app?vid=cbc8599d-0f53-4276-b29f-85b323d36cb9","ios":"levelo://app?vid=cbc8599d-0f53-4276-b29f-85b323d36cb9"},"vehicle_type_id":"4","last_reported":1773942363,"current_range_meters":4000,"station_id":"","pricing_plan_id":"cebpf4jnsgd1na2vs0mg"},{"bike_id":"4ceb5d4f-157f-442f-990a-baf46683e926","system_id":"levelo_inurba_marseille","lat":43.27806,"lon":5.40708,"is_reserved":false,"is_disabled":false,"rental_uris":{"android":"levelo://app?vid=4ceb5d4f-157f-442f-990a-baf46683e926","ios":"levelo://app?vid=4ceb5d4f-157f-442f-990a-baf46683e926"},"vehicle_type_id":"4","last_reported":1773942363,"current_range_meters":4000,"station_id":"ce4bhnh2rcd13ifvqgtg","pricing_plan_id":"cebpf4jnsgd1na2vs0mg"},{"bike_id":"8559afa5-a680-432d-8df9-b2b33f7b36b6","system_id":"levelo_inurba_marseille","lat":43.29252,"lon":5.40901,"is_reserved":false,"is_disabled":false,"rental_uris":{"android":"levelo://app?vid=8559afa5-a680-432d-8df9-b2b33f7b36b6","ios":"levelo://app?vid=8559afa5-a680-432d-8df9-b2b33f7b36b6"},"vehicle_type_id":"4","last_reported":1773942363,"current_range_meters":4000,"station_id":"ce4bh192rcd13ifvqdc0","pricing_plan_id":"cebpf4jnsgd1na2vs0mg"},{"bike_id":"72e492c4-0343-4695-ad93-8176ad5e8de2","system_id":"levelo_inurba_marseille","lat":43.28876,"lon":5.35854,"is_reserved":false,"is_disabled":false,"rental_uris":{"android":"levelo://app?vid=72e492c4-0343-4695-ad93-8176ad5e8de2","ios":"levelo://app?vid=72e492c4-0343-4695-ad93-8176ad5e8de2"},"vehicle_type_id":"4","last_reported":1773942363,"current_range_meters":4000,"station_id":"ce4bhb12rcd13ifvqem0","pricing_plan_id":"cebpf4jnsgd1na2vs0mg"},{"bike_id":"50f68294-766f-4d01-a879-67dba24044c3","system_id":"levelo_inurba_marseille","lat":43.29365,"lon":5.37836,"is_reserved":false,"is_disabled":false,"rental_uris":{"android":"levelo://app?vid=50f68294-766f-4d01-a879-67dba24044c3","ios":"levelo://app?vid=50f68294-766f-4d01-a879-67dba24044c3"},"vehicle_type_id":"4","last_reported":1773942363,"current_range_meters":4000,"station_id":"ce4bgjh2rcd13ifvqbf0","pricing_plan_id":"cebpf4jnsgd1na2vs0mg"},{"bike_id":"ff78cced-b431-45a5-9cbb-6fdd517b8437","system_id":"levelo_inurba_marseille","lat":43.3111,"lon":5.37774,"is_reserved":false,"is_disabled":false,"rental_uris":{"android":"levelo://app?vid=ff78cced-b431-45a5-9cbb-6fdd517b8437","ios":"levelo://app?vid=ff78cced-b431-45a5-9cbb-6fdd517b8437"},"vehicle_type_id":"4","last_reported":1773942363,"current_range_meters":4000,"station_id":"ce4bgt92rcd13ifvqcg0","pricing_plan_id":"cebpf4jnsgd1na2vs0mg"},{"bike_id":"b949c23b-fcdb-40db-a2eb-85711b93b95a","system_id":"levelo_inurba_marseille","lat":43.29528,"lon":5.38503,"is_reserved":false,"is_disabled":false,"rental_uris":{"android":"levelo://app?vid=b949c23b-fcdb-40db-a2eb-85711b93b95a","ios":"levelo://app?vid=b949c23b-fcdb-40db-a2eb-85711b93b95a"},"vehicle_type_id":"4","last_reported":1773942363,"current_range_meters":4000,"station_id":"ce4bgih2rcd13ifvqba0","pricing_plan_id":"cebpf4jnsgd1na2vs0mg"},{"bike_id":"29ca079b-50a3-46cc-b23f-205697515a10","system_id":"levelo_inurba_marseille","lat":43.2558,"lon":5.3824,"is_reserved":false,"is_disabled":false,"rental_uris":{"android":"levelo://app?vid=29ca079b-50a3-46cc-b23f-205697515a10","ios":"levelo://app?vid=29ca079b-50a3-46cc-b23f-205697515a10"},"vehicle_type_id":"4","last_reported":1773942363,"current_range_meters":4000,"station_id":"ce4bhih2rcd13ifvqfs0","pricing_plan_id":"cebpf4jnsgd1na2vs0mg"},{"bike_id":"447b11a1-21b5-4523-80dc-ebe593853403","system_id":"levelo_inurba_marseille","lat":43.29132,"lon":5.42614,"is_reserved":false,"is_disabled":false,"rental_uris":{"android":"levelo://app?vid=447b11a1-21b5-4523-80dc-ebe593853403","ios":"levelo://app?vid=447b11a1-21b5-4523-80dc-ebe593853403"},"vehicle_type_id":"4","last_reported":1773942363,"current_range_meters":4000,"station_id":"","pricing_plan_id":"cebpf4jnsgd1na2vs0mg"},{"bike_id":"e193a20b-450a-4386-b80c-7f4426970f73","system_id":"levelo_inurba_marseille","lat":43.29577,"lon":5.36751,"is_reserved":false,"is_disabled":false,"rental_uris":{"android":"levelo://app?vid=e193a20b-450a-4386-b80c-7f4426970f73","ios":"levelo://app?vid=e193a20b-450a-4386-b80c-7f4426970f73"},"vehicle_type_id":"4","last_reported":1773942363,"current_range_meters":4000,"station_id":"ce4bgph2rcd13ifvqc2g","pricing_plan_id":"cebpf4jnsgd1na2vs0mg"},{"bike_id":"c3ac2517-f249-4b05-bfe3-059b3caad86f","system_id":"levelo_inurba_marseille","lat":43.29087,"lon":5.38155,"is_reserved":false,"is_disabled":false,"rental_uris":{"android":"levelo://app?vid=c3ac2517-f249-4b05-bfe3-059b3caad86f","ios":"levelo://app?vid=c3ac2517-f249-4b05-bfe3-059b3caad86f"},"vehicle_type_id":"4","last_reported":1773942363,"current_range_meters":4000,"station_id":"ce4bh512rcd13ifvqe2g","pricing_plan_id":"cebpf4jnsgd1na2vs0mg"},{"bike_id":"935c8daf-8975-44bf-92f9-c83064753bfb","system_id":"levelo_inurba_marseille","lat":43.30514,"lon":5.36545,"is_reserved":false,"is_disabled":false,"rental_uris":{"android":"levelo://app?vid=935c8daf-8975-44bf-92f9-c83064753bfb","ios":"levelo://app?vid=935c8daf-8975-44bf-92f9-c83064753bfb"},"vehicle_type_id":"4","last_reported":1773942363,"current_range_meters":4400,"station_id":"","pricing_plan_id":"cebpf4jnsgd1na2vs0mg"},{"bike_id":"27da98f7-1029-4414-b6a2-057bdf9e184d","system_id":"levelo_inurba_marseille","lat":43.239536,"lon":5.366557,"is_reserved":false,"is_disabled":false,"rental_uris":{"android":"levelo://app?vid=27da98f7-1029-4414-b6a2-057bdf9e184d","ios":"levelo://app?vid=27da98f7-1029-4414-b6a2-057bdf9e184d"},"vehicle_type_id":"4","last_reported":1773942363,"current_range_meters":4400,"station_id":"ce4bhi12rcd13ifvqfp0","pricing_plan_id":"cebpf4jnsgd1na2vs0mg"},{"bike_id":"1c51670a-46e5-4a0c-9d9c-3c2806d077a8","system_id":"levelo_inurba_marseille","lat":43.29027,"lon":5.38137,"is_reserved":false,"is_disabled":true,"rental_uris":{"android":"levelo://app?vid=1c51670a-46e5-4a0c-9d9c-3c2806d077a8","ios":"levelo://app?vid=1c51670a-46e5-4a0c-9d9c-3c2806d077a8"},"vehicle_type_id":"4","last_reported":1773942363,"current_range_meters":4400,"station_id":"ce4bh4p2rcd13ifvqe1g","pricing_plan_id":"cebpf4jnsgd1na2vs0mg"},{"bike_id":"1daac07b-574e-4f85-bef3-58d0379da425","system_id":"levelo_inurba_marseille","lat":43.25528,"lon":5.37636,"is_reserved":false,"is_disabled":false,"rental_uris":{"android":"levelo://app?vid=1daac07b-574e-4f85-bef3-58d0379da425","ios":"levelo://app?vid=1daac07b-574e-4f85-bef3-58d0379da425"},"vehicle_type_id":"4","last_reported":1773942363,"current_range_meters":4400,"station_id":"ce4bhh12rcd13ifvqff0","pricing_plan_id":"cebpf4jnsgd1na2vs0mg"},{"bike_id":"13ad50bf-7f2f-4ad1-a82f-209db682ff58","system_id":"levelo_inurba_marseille","lat":43.26571,"lon":5.39023,"is_reserved":false,"is_disabled":true,"rental_uris":{"android":"levelo://app?vid=13ad50bf-7f2f-4ad1-a82f-209db682ff58","ios":"levelo://app?vid=13ad50bf-7f2f-4ad1-a82f-209db682ff58"},"vehicle_type_id":"4","last_reported":1773942363,"current_range_meters":4400,"station_id":"ce4bhe12rcd13ifvqf30","pricing_plan_id":"cebpf4jnsgd1na2vs0mg"},{"bike_id":"95d31319-d36d-403e-adf6-0b51cdaa5b1b","system_id":"levelo_inurba_marseille","lat":43.3141,"lon":5.39332,"is_reserved":false,"is_disabled":true,"rental_uris":{"android":"levelo://app?vid=95d31319-d36d-403e-adf6-0b51cdaa5b1b","ios":"levelo://app?vid=95d31319-d36d-403e-adf6-0b51cdaa5b1b"},"vehicle_type_id":"4","last_reported":1773942363,"current_range_meters":4400,"station_id":"","pricing_plan_id":"cebpf4jnsgd1na2vs0mg"},{"bike_id":"506661fa-d7d4-473c-8038-c16d45410fe8","system_id":"levelo_inurba_marseille","lat":43.28852,"lon":5.4251,"is_reserved":false,"is_disabled":false,"rental_uris":{"android":"levelo://app?vid=506661fa-d7d4-473c-8038-c16d45410fe8","ios":"levelo://app?vid=506661fa-d7d4-473c-8038-c16d45410fe8"},"vehicle_type_id":"4","last_reported":1773942363,"current_range_meters":4400,"station_id":"","pricing_plan_id":"cebpf4jnsgd1na2vs0mg"},{"bike_id":"edac0d78-de5a-43f7-b611-10865ddf8f4e","system_id":"levelo_inurba_marseille","lat":43.28474,"lon":5.38442,"is_reserved":false,"is_disabled":false,"rental_uris":{"android":"levelo://app?vid=edac0d78-de5a-43f7-b611-10865ddf8f4e","ios":"levelo://app?vid=edac0d78-de5a-43f7-b611-10865ddf8f4e"},"vehicle_type_id":"4","last_reported":1773942363,"current_range_meters":4400,"station_id":"ce4bh512rcd13ifvqe3g","pricing_plan_id":"cebpf4jnsgd1na2vs0mg"},{"bike_id":"869ee81e-ab0b-45ef-bbb8-bfbb8730a6db","system_id":"levelo_inurba_marseille","lat":43.28246,"lon":5.35064,"is_reserved":false,"is_disabled":false,"rental_uris":{"android":"levelo://app?vid=869ee81e-ab0b-45ef-bbb8-bfbb8730a6db","ios":"levelo://app?vid=869ee81e-ab0b-45ef-bbb8-bfbb8730a6db"},"vehicle_type_id":"4","last_reported":1773942363,"current_range_meters":4400,"station_id":"ce4bhbp2rcd13ifvqerg","pricing_plan_id":"cebpf4jnsgd1na2vs0mg"},{"bike_id":"a15529e2-dad5-4ece-a060-3e7f5185c086","system_id":"levelo_inurba_marseille","lat":43.31095,"lon":5.38398,"is_reserved":false,"is_disabled":false,"rental_uris":{"android":"levelo://app?vid=a15529e2-dad5-4ece-a060-3e7f5185c086","ios":"levelo://app?vid=a15529e2-dad5-4ece-a060-3e7f5185c086"},"vehicle_type_id":"4","last_reported":1773942363,"current_range_meters":4400,"station_id":"","pricing_plan_id":"cebpf4jnsgd1na2vs0mg"},{"bike_id":"dd8390c9-eed9-4b5d-95df-1b40250bc11f","system_id":"levelo_inurba_marseille","lat":43.21595,"lon":5.34542,"is_reserved":false,"is_disabled":false,"rental_uris":{"android":"levelo://app?vid=dd8390c9-eed9-4b5d-95df-1b40250bc11f","ios":"levelo://app?vid=dd8390c9-eed9-4b5d-95df-1b40250bc11f"},"vehicle_type_id":"4","last_reported":1773942363,"current_range_meters":4400,"station_id":"","pricing_plan_id":"cebpf4jnsgd1na2vs0mg"},{"bike_id":"ec622c6c-2b8e-40d8-a29b-0183a7e49719","system_id":"levelo_inurba_marseille","lat":43.28503,"lon":5.44102,"is_reserved":false,"is_disabled":false,"rental_uris":{"android":"levelo://app?vid=ec622c6c-2b8e-40d8-a29b-0183a7e49719","ios":"levelo://app?vid=ec622c6c-2b8e-40d8-a29b-0183a7e49719"},"vehicle_type_id":"4","last_reported":1773942363,"current_range_meters":4400,"station_id":"st_d3j3df2ikq2c7380ej80","pricing_plan_id":"cebpf4jnsgd1na2vs0mg"},{"bike_id":"1fdbd032-af28-4158-a02e-01bb107fd2a7","system_id":"levelo_inurba_marseille","lat":43.337444,"lon":5.374475,"is_reserved":false,"is_disabled":false,"rental_uris":{"android":"levelo://app?vid=1fdbd032-af28-4158-a02e-01bb107fd2a7","ios":"levelo://app?vid=1fdbd032-af28-4158-a02e-01bb107fd2a7"},"vehicle_type_id":"4","last_reported":1773942363,"current_range_meters":4800,"station_id":"","pricing_plan_id":"cebpf4jnsgd1na2vs0mg"},{"bike_id":"2bb72e73-a4d4-4f71-90a1-243a66d536e6","system_id":"levelo_inurba_marseille","lat":43.30444,"lon":5.38898,"is_reserved":false,"is_disabled":false,"rental_uris":{"android":"levelo://app?vid=2bb72e73-a4d4-4f71-90a1-243a66d536e6","ios":"levelo://app?vid=2bb72e73-a4d4-4f71-90a1-243a66d536e6"},"vehicle_type_id":"4","last_reported":1773942363,"current_range_meters":4800,"station_id":"ce4bgk12rcd13ifvqbi0","pricing_plan_id":"cebpf4jnsgd1na2vs0mg"},{"bike_id":"07f521f2-168c-437f-9ee7-8d100cdbdf6d","system_id":"levelo_inurba_marseille","lat":43.25563,"lon":5.3825,"is_reserved":false,"is_disabled":false,"rental_uris":{"android":"levelo://app?vid=07f521f2-168c-437f-9ee7-8d100cdbdf6d","ios":"levelo://app?vid=07f521f2-168c-437f-9ee7-8d100cdbdf6d"},"vehicle_type_id":"4","last_reported":1773942363,"current_range_meters":4800,"station_id":"ce4bhih2rcd13ifvqfs0","pricing_plan_id":"cebpf4jnsgd1na2vs0mg"},{"bike_id":"392fcf9a-86d3-4e46-a438-cc6b3eecb0e3","system_id":"levelo_inurba_marseille","lat":43.28649,"lon":5.36356,"is_reserved":false,"is_disabled":false,"rental_uris":{"android":"levelo://app?vid=392fcf9a-86d3-4e46-a438-cc6b3eecb0e3","ios":"levelo://app?vid=392fcf9a-86d3-4e46-a438-cc6b3eecb0e3"},"vehicle_type_id":"4","last_reported":1773942363,"current_range_meters":4800,"station_id":"ce4bhah2rcd13ifvqej0","pricing_plan_id":"cebpf4jnsgd1na2vs0mg"},{"bike_id":"493da811-06b8-424b-9179-231583ef5ace","system_id":"levelo_inurba_marseille","lat":43.30289,"lon":5.39199,"is_reserved":false,"is_disabled":false,"rental_uris":{"android":"levelo://app?vid=493da811-06b8-424b-9179-231583ef5ace","ios":"levelo://app?vid=493da811-06b8-424b-9179-231583ef5ace"},"vehicle_type_id":"4","last_reported":1773942363,"current_range_meters":4800,"station_id":"ce4bgkh2rcd13ifvqbk0","pricing_plan_id":"cebpf4jnsgd1na2vs0mg"},{"bike_id":"cb157327-1afa-4bcb-94d0-6eeda72b4a95","system_id":"levelo_inurba_marseille","lat":43.30196,"lon":5.36625,"is_reserved":false,"is_disabled":false,"rental_uris":{"android":"levelo://app?vid=cb157327-1afa-4bcb-94d0-6eeda72b4a95","ios":"levelo://app?vid=cb157327-1afa-4bcb-94d0-6eeda72b4a95"},"vehicle_type_id":"4","last_reported":1773942363,"current_range_meters":4800,"station_id":"ce4bgrh2rcd13ifvqc8g","pricing_plan_id":"cebpf4jnsgd1na2vs0mg"},{"bike_id":"1a7fe5b5-ca4a-4392-aaef-8a1ca7482c6b","system_id":"levelo_inurba_marseille","lat":43.30633,"lon":5.40095,"is_reserved":false,"is_disabled":false,"rental_uris":{"android":"levelo://app?vid=1a7fe5b5-ca4a-4392-aaef-8a1ca7482c6b","ios":"levelo://app?vid=1a7fe5b5-ca4a-4392-aaef-8a1ca7482c6b"},"vehicle_type_id":"4","last_reported":1773942363,"current_range_meters":4800,"station_id":"ce4bh112rcd13ifvqda0","pricing_plan_id":"cebpf4jnsgd1na2vs0mg"},{"bike_id":"c238e109-962f-44d3-ae53-4765bb4c4460","system_id":"levelo_inurba_marseille","lat":43.27436,"lon":5.39448,"is_reserved":false,"is_disabled":false,"rental_uris":{"android":"levelo://app?vid=c238e109-962f-44d3-ae53-4765bb4c4460","ios":"levelo://app?vid=c238e109-962f-44d3-ae53-4765bb4c4460"},"vehicle_type_id":"4","last_reported":1773942363,"current_range_meters":4800,"station_id":"ce4bhdp2rcd13ifvqf20","pricing_plan_id":"cebpf4jnsgd1na2vs0mg"},{"bike_id":"b37d0d59-e167-412c-877a-0760f21fff49","system_id":"levelo_inurba_marseille","lat":43.29513,"lon":5.38695,"is_reserved":false,"is_disabled":false,"rental_uris":{"android":"levelo://app?vid=b37d0d59-e167-412c-877a-0760f21fff49","ios":"levelo://app?vid=b37d0d59-e167-412c-877a-0760f21fff49"},"vehicle_type_id":"4","last_reported":1773942363,"current_range_meters":4800,"station_id":"","pricing_plan_id":"cebpf4jnsgd1na2vs0mg"},{"bike_id":"9ec65c13-eefe-487d-aa46-a6b1366f6262","system_id":"levelo_inurba_marseille","lat":43.27833,"lon":5.39212,"is_reserved":false,"is_disabled":false,"rental_uris":{"android":"levelo://app?vid=9ec65c13-eefe-487d-aa46-a6b1366f6262","ios":"levelo://app?vid=9ec65c13-eefe-487d-aa46-a6b1366f6262"},"vehicle_type_id":"4","last_reported":1773942363,"current_range_meters":4800,"station_id":"ce4bhjp2rcd13ifvqga0","pricing_plan_id":"cebpf4jnsgd1na2vs0mg"},{"bike_id":"72c3ab1c-faa6-46f4-ab1d-2e1c001a02b7","system_id":"levelo_inurba_marseille","lat":43.30885,"lon":5.39655,"is_reserved":false,"is_disabled":false,"rental_uris":{"android":"levelo://app?vid=72c3ab1c-faa6-46f4-ab1d-2e1c001a02b7","ios":"levelo://app?vid=72c3ab1c-faa6-46f4-ab1d-2e1c001a02b7"},"vehicle_type_id":"4","last_reported":1773942363,"current_range_meters":4800,"station_id":"ce4bh012rcd13ifvqcv0","pricing_plan_id":"cebpf4jnsgd1na2vs0mg"},{"bike_id":"5aa7e78e-bbfb-4b4e-bcf0-a929bcb35862","system_id":"levelo_inurba_marseille","lat":43.26048,"lon":5.3753,"is_reserved":false,"is_disabled":false,"rental_uris":{"android":"levelo://app?vid=5aa7e78e-bbfb-4b4e-bcf0-a929bcb35862","ios":"levelo://app?vid=5aa7e78e-bbfb-4b4e-bcf0-a929bcb35862"},"vehicle_type_id":"4","last_reported":1773942363,"current_range_meters":5600,"station_id":"ce4bhgh2rcd13ifvqfa0","pricing_plan_id":"cebpf4jnsgd1na2vs0mg"},{"bike_id":"69eb8448-c0e0-496f-831c-8ada77fd31e2","system_id":"levelo_inurba_marseille","lat":43.2306,"lon":5.35487,"is_reserved":false,"is_disabled":false,"rental_uris":{"android":"levelo://app?vid=69eb8448-c0e0-496f-831c-8ada77fd31e2","ios":"levelo://app?vid=69eb8448-c0e0-496f-831c-8ada77fd31e2"},"vehicle_type_id":"4","last_reported":1773942363,"current_range_meters":5600,"station_id":"cpo3342slgdg3j2ifvpg","pricing_plan_id":"cebpf4jnsgd1na2vs0mg"},{"bike_id":"4e3195b9-dd9e-464c-a049-e82a7bc62b10","system_id":"levelo_inurba_marseille","lat":43.29898,"lon":5.39776,"is_reserved":false,"is_disabled":false,"rental_uris":{"android":"levelo://app?vid=4e3195b9-dd9e-464c-a049-e82a7bc62b10","ios":"levelo://app?vid=4e3195b9-dd9e-464c-a049-e82a7bc62b10"},"vehicle_type_id":"4","last_reported":1773942363,"current_range_meters":5600,"station_id":"ce4bh0h2rcd13ifvqd50","pricing_plan_id":"cebpf4jnsgd1na2vs0mg"},{"bike_id":"259d41ea-87ed-4cdf-8e8b-65ac7213903d","system_id":"levelo_inurba_marseille","lat":43.25343,"lon":5.42157,"is_reserved":false,"is_disabled":false,"rental_uris":{"android":"levelo://app?vid=259d41ea-87ed-4cdf-8e8b-65ac7213903d","ios":"levelo://app?vid=259d41ea-87ed-4cdf-8e8b-65ac7213903d"},"vehicle_type_id":"4","last_reported":1773942363,"current_range_meters":5600,"station_id":"st_d2m65c5bi1j21697t3ng","pricing_plan_id":"cebpf4jnsgd1na2vs0mg"},{"bike_id":"37a6804d-ef3b-4a1f-a024-499b2046a19b","system_id":"levelo_inurba_marseille","lat":43.22931,"lon":5.35379,"is_reserved":false,"is_disabled":false,"rental_uris":{"android":"levelo://app?vid=37a6804d-ef3b-4a1f-a024-499b2046a19b","ios":"levelo://app?vid=37a6804d-ef3b-4a1f-a024-499b2046a19b"},"vehicle_type_id":"4","last_reported":1773942363,"current_range_meters":5600,"station_id":"cpo3532slgdg3j2ikp40","pricing_plan_id":"cebpf4jnsgd1na2vs0mg"},{"bike_id":"4bd3b9d6-588f-4d53-b251-dfd3df6a912b","system_id":"levelo_inurba_marseille","lat":43.29563,"lon":5.37529,"is_reserved":false,"is_disabled":false,"rental_uris":{"android":"levelo://app?vid=4bd3b9d6-588f-4d53-b251-dfd3df6a912b","ios":"levelo://app?vid=4bd3b9d6-588f-4d53-b251-dfd3df6a912b"},"vehicle_type_id":"4","last_reported":1773942363,"current_range_meters":5600,"station_id":"ce4bgh92rcd13ifvqb50","pricing_plan_id":"cebpf4jnsgd1na2vs0mg"},{"bike_id":"3f021165-0d17-476d-ae48-a3c546c970e6","system_id":"levelo_inurba_marseille","lat":43.26214,"lon":5.3746,"is_reserved":false,"is_disabled":false,"rental_uris":{"android":"levelo://app?vid=3f021165-0d17-476d-ae48-a3c546c970e6","ios":"levelo://app?vid=3f021165-0d17-476d-ae48-a3c546c970e6"},"vehicle_type_id":"4","last_reported":1773942363,"current_range_meters":5600,"station_id":"ce4bhgp2rcd13ifvqfc0","pricing_plan_id":"cebpf4jnsgd1na2vs0mg"},{"bike_id":"532d2a03-a1b3-4251-943f-d6945e5c0de5","system_id":"levelo_inurba_marseille","lat":43.28846,"lon":5.39318,"is_reserved":false,"is_disabled":false,"rental_uris":{"android":"levelo://app?vid=532d2a03-a1b3-4251-943f-d6945e5c0de5","ios":"levelo://app?vid=532d2a03-a1b3-4251-943f-d6945e5c0de5"},"vehicle_type_id":"4","last_reported":1773942363,"current_range_meters":5600,"station_id":"ce4bh2p2rcd13ifvqdi0","pricing_plan_id":"cebpf4jnsgd1na2vs0mg"},{"bike_id":"0ee4ce16-829f-49ee-9a2a-4b4670dfbc6f","system_id":"levelo_inurba_marseille","lat":43.28492,"lon":5.48364,"is_reserved":false,"is_disabled":false,"rental_uris":{"android":"levelo://app?vid=0ee4ce16-829f-49ee-9a2a-4b4670dfbc6f","ios":"levelo://app?vid=0ee4ce16-829f-49ee-9a2a-4b4670dfbc6f"},"vehicle_type_id":"4","last_reported":1773942363,"current_range_meters":5600,"station_id":"st_d3svhcjqgbts73a3dn0g","pricing_plan_id":"cebpf4jnsgd1na2vs0mg"},{"bike_id":"caf5e45c-f3f2-43eb-99a6-b11ec33451e8","system_id":"levelo_inurba_marseille","lat":43.23975,"lon":5.36622,"is_reserved":false,"is_disabled":false,"rental_uris":{"android":"levelo://app?vid=caf5e45c-f3f2-43eb-99a6-b11ec33451e8","ios":"levelo://app?vid=caf5e45c-f3f2-43eb-99a6-b11ec33451e8"},"vehicle_type_id":"4","last_reported":1773942363,"current_range_meters":5600,"station_id":"ce4bhi12rcd13ifvqfp0","pricing_plan_id":"cebpf4jnsgd1na2vs0mg"},{"bike_id":"6f0da953-2adc-429d-bb7c-360d8a3447c9","system_id":"levelo_inurba_marseille","lat":43.27499,"lon":5.41641,"is_reserved":false,"is_disabled":false,"rental_uris":{"android":"levelo://app?vid=6f0da953-2adc-429d-bb7c-360d8a3447c9","ios":"levelo://app?vid=6f0da953-2adc-429d-bb7c-360d8a3447c9"},"vehicle_type_id":"4","last_reported":1773942363,"current_range_meters":5600,"station_id":"st_d6im8g6chgec73a5pndg","pricing_plan_id":"cebpf4jnsgd1na2vs0mg"},{"bike_id":"6cda15e7-fe2d-4eca-9a9a-008e31fbee7c","system_id":"levelo_inurba_marseille","lat":43.24703,"lon":5.382,"is_reserved":false,"is_disabled":true,"rental_uris":{"android":"levelo://app?vid=6cda15e7-fe2d-4eca-9a9a-008e31fbee7c","ios":"levelo://app?vid=6cda15e7-fe2d-4eca-9a9a-008e31fbee7c"},"vehicle_type_id":"4","last_reported":1773942363,"current_range_meters":5600,"station_id":"ce4bhih2rcd13ifvqfr0","pricing_plan_id":"cebpf4jnsgd1na2vs0mg"},{"bike_id":"73e44213-1cd8-4593-a09e-a9c4a914a5d2","system_id":"levelo_inurba_marseille","lat":43.28477,"lon":5.48391,"is_reserved":false,"is_disabled":false,"rental_uris":{"android":"levelo://app?vid=73e44213-1cd8-4593-a09e-a9c4a914a5d2","ios":"levelo://app?vid=73e44213-1cd8-4593-a09e-a9c4a914a5d2"},"vehicle_type_id":"4","last_reported":1773942363,"current_range_meters":5600,"station_id":"","pricing_plan_id":"cebpf4jnsgd1na2vs0mg"},{"bike_id":"78c86868-a79f-4f2a-bb9a-961b0f22d36b","system_id":"levelo_inurba_marseille","lat":43.30062,"lon":5.3862,"is_reserved":false,"is_disabled":false,"rental_uris":{"android":"levelo://app?vid=78c86868-a79f-4f2a-bb9a-961b0f22d36b","ios":"levelo://app?vid=78c86868-a79f-4f2a-bb9a-961b0f22d36b"},"vehicle_type_id":"4","last_reported":1773942363,"current_range_meters":5600,"station_id":"","pricing_plan_id":"cebpf4jnsgd1na2vs0mg"},{"bike_id":"e4b3d71d-7ac6-482b-a7f0-6a622112880a","system_id":"levelo_inurba_marseille","lat":43.28447,"lon":5.35907,"is_reserved":false,"is_disabled":false,"rental_uris":{"android":"levelo://app?vid=e4b3d71d-7ac6-482b-a7f0-6a622112880a","ios":"levelo://app?vid=e4b3d71d-7ac6-482b-a7f0-6a622112880a"},"vehicle_type_id":"4","last_reported":1773942363,"current_range_meters":5600,"station_id":"ce4bhah2rcd13ifvqei0","pricing_plan_id":"cebpf4jnsgd1na2vs0mg"},{"bike_id":"7e38db90-3227-499c-a268-b76fa6534a70","system_id":"levelo_inurba_marseille","lat":43.30293,"lon":5.37713,"is_reserved":false,"is_disabled":false,"rental_uris":{"android":"levelo://app?vid=7e38db90-3227-499c-a268-b76fa6534a70","ios":"levelo://app?vid=7e38db90-3227-499c-a268-b76fa6534a70"},"vehicle_type_id":"4","last_reported":1773942363,"current_range_meters":5600,"station_id":"ce4bguh2rcd13ifvqcj0","pricing_plan_id":"cebpf4jnsgd1na2vs0mg"},{"bike_id":"7f36c086-c890-47ff-9736-bd68a204f19e","system_id":"levelo_inurba_marseille","lat":43.28098,"lon":5.39641,"is_reserved":false,"is_disabled":false,"rental_uris":{"android":"levelo://app?vid=7f36c086-c890-47ff-9736-bd68a204f19e","ios":"levelo://app?vid=7f36c086-c890-47ff-9736-bd68a204f19e"},"vehicle_type_id":"4","last_reported":1773942363,"current_range_meters":5600,"station_id":"ce4bho12rcd13ifvqh2g","pricing_plan_id":"cebpf4jnsgd1na2vs0mg"},{"bike_id":"f9426ad6-6a28-49b5-8632-5bbe3de3fd7e","system_id":"levelo_inurba_marseille","lat":43.30325,"lon":5.4043,"is_reserved":false,"is_disabled":false,"rental_uris":{"android":"levelo://app?vid=f9426ad6-6a28-49b5-8632-5bbe3de3fd7e","ios":"levelo://app?vid=f9426ad6-6a28-49b5-8632-5bbe3de3fd7e"},"vehicle_type_id":"4","last_reported":1773942363,"current_range_meters":5600,"station_id":"ce4bh012rcd13ifvqd10","pricing_plan_id":"cebpf4jnsgd1na2vs0mg"},{"bike_id":"2a4bc145-ac3f-4687-a944-5d85aa877402","system_id":"levelo_inurba_marseille","lat":43.24536,"lon":5.39539,"is_reserved":false,"is_disabled":false,"rental_uris":{"android":"levelo://app?vid=2a4bc145-ac3f-4687-a944-5d85aa877402","ios":"levelo://app?vid=2a4bc145-ac3f-4687-a944-5d85aa877402"},"vehicle_type_id":"4","last_reported":1773942363,"current_range_meters":6000,"station_id":"ce4bhlp2rcd13ifvqgjg","pricing_plan_id":"cebpf4jnsgd1na2vs0mg"},{"bike_id":"2f0354fc-31aa-4398-9c3e-f0f50b7b2184","system_id":"levelo_inurba_marseille","lat":43.24152,"lon":5.39725,"is_reserved":false,"is_disabled":false,"rental_uris":{"android":"levelo://app?vid=2f0354fc-31aa-4398-9c3e-f0f50b7b2184","ios":"levelo://app?vid=2f0354fc-31aa-4398-9c3e-f0f50b7b2184"},"vehicle_type_id":"4","last_reported":1773942363,"current_range_meters":6000,"station_id":"ce4bhn12rcd13ifvqgpg","pricing_plan_id":"cebpf4jnsgd1na2vs0mg"},{"bike_id":"4fe53567-2136-4aca-a956-e7a75525667b","system_id":"levelo_inurba_marseille","lat":43.28868,"lon":5.35853,"is_reserved":false,"is_disabled":false,"rental_uris":{"android":"levelo://app?vid=4fe53567-2136-4aca-a956-e7a75525667b","ios":"levelo://app?vid=4fe53567-2136-4aca-a956-e7a75525667b"},"vehicle_type_id":"4","last_reported":1773942363,"current_range_meters":6000,"station_id":"ce4bhb12rcd13ifvqem0","pricing_plan_id":"cebpf4jnsgd1na2vs0mg"},{"bike_id":"719e9861-af82-4022-a2ea-bd7d6f00ff5f","system_id":"levelo_inurba_marseille","lat":43.28756,"lon":5.42515,"is_reserved":false,"is_disabled":true,"rental_uris":{"android":"levelo://app?vid=719e9861-af82-4022-a2ea-bd7d6f00ff5f","ios":"levelo://app?vid=719e9861-af82-4022-a2ea-bd7d6f00ff5f"},"vehicle_type_id":"4","last_reported":1773942363,"current_range_meters":6000,"station_id":"","pricing_plan_id":"cebpf4jnsgd1na2vs0mg"},{"bike_id":"8c29270d-5d11-446e-a3f0-f5c56ae9c816","system_id":"levelo_inurba_marseille","lat":43.27566,"lon":5.43276,"is_reserved":false,"is_disabled":false,"rental_uris":{"android":"levelo://app?vid=8c29270d-5d11-446e-a3f0-f5c56ae9c816","ios":"levelo://app?vid=8c29270d-5d11-446e-a3f0-f5c56ae9c816"},"vehicle_type_id":"4","last_reported":1773942363,"current_range_meters":6000,"station_id":"","pricing_plan_id":"cebpf4jnsgd1na2vs0mg"},{"bike_id":"464664a2-434c-4f0d-b549-56419f56f9eb","system_id":"levelo_inurba_marseille","lat":43.24398,"lon":5.37065,"is_reserved":false,"is_disabled":false,"rental_uris":{"android":"levelo://app?vid=464664a2-434c-4f0d-b549-56419f56f9eb","ios":"levelo://app?vid=464664a2-434c-4f0d-b549-56419f56f9eb"},"vehicle_type_id":"4","last_reported":1773942363,"current_range_meters":6000,"station_id":"ce4bhhh2rcd13ifvqfk0","pricing_plan_id":"cebpf4jnsgd1na2vs0mg"},{"bike_id":"b51c24aa-f660-4635-b88b-0d8d14473a2d","system_id":"levelo_inurba_marseille","lat":43.23177,"lon":5.39984,"is_reserved":false,"is_disabled":false,"rental_uris":{"android":"levelo://app?vid=b51c24aa-f660-4635-b88b-0d8d14473a2d","ios":"levelo://app?vid=b51c24aa-f660-4635-b88b-0d8d14473a2d"},"vehicle_type_id":"4","last_reported":1773942363,"current_range_meters":6000,"station_id":"ce4bhn12rcd13ifvqgqg","pricing_plan_id":"cebpf4jnsgd1na2vs0mg"},{"bike_id":"fa94ad90-c2bb-41f1-ae62-e5ffb7b9e737","system_id":"levelo_inurba_marseille","lat":43.27385,"lon":5.36261,"is_reserved":false,"is_disabled":false,"rental_uris":{"android":"levelo://app?vid=fa94ad90-c2bb-41f1-ae62-e5ffb7b9e737","ios":"levelo://app?vid=fa94ad90-c2bb-41f1-ae62-e5ffb7b9e737"},"vehicle_type_id":"4","last_reported":1773942363,"current_range_meters":6000,"station_id":"ce4bhbh2rcd13ifvqeo0","pricing_plan_id":"cebpf4jnsgd1na2vs0mg"},{"bike_id":"28025302-46d2-4169-9ce9-8e064c7a81fd","system_id":"levelo_inurba_marseille","lat":43.26377,"lon":5.41079,"is_reserved":false,"is_disabled":true,"rental_uris":{"android":"levelo://app?vid=28025302-46d2-4169-9ce9-8e064c7a81fd","ios":"levelo://app?vid=28025302-46d2-4169-9ce9-8e064c7a81fd"},"vehicle_type_id":"4","last_reported":1773942363,"current_range_meters":6000,"station_id":"","pricing_plan_id":"cebpf4jnsgd1na2vs0mg"},{"bike_id":"82f4e5fc-85e7-469b-81e2-fa0064eb984b","system_id":"levelo_inurba_marseille","lat":43.31882,"lon":5.40735,"is_reserved":false,"is_disabled":false,"rental_uris":{"android":"levelo://app?vid=82f4e5fc-85e7-469b-81e2-fa0064eb984b","ios":"levelo://app?vid=82f4e5fc-85e7-469b-81e2-fa0064eb984b"},"vehicle_type_id":"4","last_reported":1773942363,"current_range_meters":6000,"station_id":"ce4bhq12rcd13ifvqhig","pricing_plan_id":"cebpf4jnsgd1na2vs0mg"},{"bike_id":"f33024bd-13d0-432f-ac79-252b51f2e7df","system_id":"levelo_inurba_marseille","lat":43.26562,"lon":5.38995,"is_reserved":false,"is_disabled":false,"rental_uris":{"android":"levelo://app?vid=f33024bd-13d0-432f-ac79-252b51f2e7df","ios":"levelo://app?vid=f33024bd-13d0-432f-ac79-252b51f2e7df"},"vehicle_type_id":"4","last_reported":1773942363,"current_range_meters":6000,"station_id":"ce4bhe12rcd13ifvqf30","pricing_plan_id":"cebpf4jnsgd1na2vs0mg"},{"bike_id":"85cf966e-8410-4382-ad1a-bf9f9335b2f6","system_id":"levelo_inurba_marseille","lat":43.30584,"lon":5.43257,"is_reserved":false,"is_disabled":false,"rental_uris":{"android":"levelo://app?vid=85cf966e-8410-4382-ad1a-bf9f9335b2f6","ios":"levelo://app?vid=85cf966e-8410-4382-ad1a-bf9f9335b2f6"},"vehicle_type_id":"4","last_reported":1773942363,"current_range_meters":6400,"station_id":"","pricing_plan_id":"cebpf4jnsgd1na2vs0mg"},{"bike_id":"f8002e32-7d40-48f8-99b3-a631b985eba5","system_id":"levelo_inurba_marseille","lat":43.337566,"lon":5.374557,"is_reserved":false,"is_disabled":false,"rental_uris":{"android":"levelo://app?vid=f8002e32-7d40-48f8-99b3-a631b985eba5","ios":"levelo://app?vid=f8002e32-7d40-48f8-99b3-a631b985eba5"},"vehicle_type_id":"4","last_reported":1773942363,"current_range_meters":6400,"station_id":"","pricing_plan_id":"cebpf4jnsgd1na2vs0mg"},{"bike_id":"578a6946-156d-4b3b-867a-8e0e47acde92","system_id":"levelo_inurba_marseille","lat":43.28674,"lon":5.38656,"is_reserved":false,"is_disabled":false,"rental_uris":{"android":"levelo://app?vid=578a6946-156d-4b3b-867a-8e0e47acde92","ios":"levelo://app?vid=578a6946-156d-4b3b-867a-8e0e47acde92"},"vehicle_type_id":"4","last_reported":1773942363,"current_range_meters":6400,"station_id":"ce4bh492rcd13ifvqdug","pricing_plan_id":"cebpf4jnsgd1na2vs0mg"},{"bike_id":"f7e79517-161a-451a-8a95-bb710b1b4d21","system_id":"levelo_inurba_marseille","lat":43.29851,"lon":5.37884,"is_reserved":false,"is_disabled":false,"rental_uris":{"android":"levelo://app?vid=f7e79517-161a-451a-8a95-bb710b1b4d21","ios":"levelo://app?vid=f7e79517-161a-451a-8a95-bb710b1b4d21"},"vehicle_type_id":"4","last_reported":1773942363,"current_range_meters":6400,"station_id":"","pricing_plan_id":"cebpf4jnsgd1na2vs0mg"},{"bike_id":"2a042bc6-ad7c-47d2-8b47-dfe88bfb0a8c","system_id":"levelo_inurba_marseille","lat":43.31362,"lon":5.38491,"is_reserved":false,"is_disabled":false,"rental_uris":{"android":"levelo://app?vid=2a042bc6-ad7c-47d2-8b47-dfe88bfb0a8c","ios":"levelo://app?vid=2a042bc6-ad7c-47d2-8b47-dfe88bfb0a8c"},"vehicle_type_id":"4","last_reported":1773942363,"current_range_meters":6400,"station_id":"ce4bgt92rcd13ifvqcf0","pricing_plan_id":"cebpf4jnsgd1na2vs0mg"},{"bike_id":"13bb751c-1e57-49d9-b4e4-7e707924be0b","system_id":"levelo_inurba_marseille","lat":43.29047,"lon":5.35917,"is_reserved":false,"is_disabled":false,"rental_uris":{"android":"levelo://app?vid=13bb751c-1e57-49d9-b4e4-7e707924be0b","ios":"levelo://app?vid=13bb751c-1e57-49d9-b4e4-7e707924be0b"},"vehicle_type_id":"4","last_reported":1773942363,"current_range_meters":6400,"station_id":"ce4bha92rcd13ifvqeg0","pricing_plan_id":"cebpf4jnsgd1na2vs0mg"},{"bike_id":"d587c369-7b5a-4f48-88cf-962803ec71ba","system_id":"levelo_inurba_marseille","lat":43.24806,"lon":5.3748,"is_reserved":false,"is_disabled":false,"rental_uris":{"android":"levelo://app?vid=d587c369-7b5a-4f48-88cf-962803ec71ba","ios":"levelo://app?vid=d587c369-7b5a-4f48-88cf-962803ec71ba"},"vehicle_type_id":"4","last_reported":1773942363,"current_range_meters":6400,"station_id":"ce4bhgh2rcd13ifvqfb0","pricing_plan_id":"cebpf4jnsgd1na2vs0mg"},{"bike_id":"3cdb9282-92ea-46a0-a841-f2dd988ecc68","system_id":"levelo_inurba_marseille","lat":43.22938,"lon":5.35345,"is_reserved":false,"is_disabled":false,"rental_uris":{"android":"levelo://app?vid=3cdb9282-92ea-46a0-a841-f2dd988ecc68","ios":"levelo://app?vid=3cdb9282-92ea-46a0-a841-f2dd988ecc68"},"vehicle_type_id":"4","last_reported":1773942363,"current_range_meters":6400,"station_id":"cpo3532slgdg3j2ikp40","pricing_plan_id":"cebpf4jnsgd1na2vs0mg"},{"bike_id":"e7f9823d-ae43-405e-8932-181add028905","system_id":"levelo_inurba_marseille","lat":43.29261,"lon":5.38435,"is_reserved":false,"is_disabled":false,"rental_uris":{"android":"levelo://app?vid=e7f9823d-ae43-405e-8932-181add028905","ios":"levelo://app?vid=e7f9823d-ae43-405e-8932-181add028905"},"vehicle_type_id":"4","last_reported":1773942363,"current_range_meters":6400,"station_id":"ce4bh692rcd13ifvqea0","pricing_plan_id":"cebpf4jnsgd1na2vs0mg"},{"bike_id":"a8b5759b-aec2-4828-b9b3-f13f52e0ddca","system_id":"levelo_inurba_marseille","lat":43.2923,"lon":5.36058,"is_reserved":false,"is_disabled":false,"rental_uris":{"android":"levelo://app?vid=a8b5759b-aec2-4828-b9b3-f13f52e0ddca","ios":"levelo://app?vid=a8b5759b-aec2-4828-b9b3-f13f52e0ddca"},"vehicle_type_id":"4","last_reported":1773942363,"current_range_meters":6400,"station_id":"ce4bhbh2rcd13ifvqeqg","pricing_plan_id":"cebpf4jnsgd1na2vs0mg"},{"bike_id":"8c814918-5c1e-4e83-a3ac-8054106ee75a","system_id":"levelo_inurba_marseille","lat":43.29226,"lon":5.36011,"is_reserved":false,"is_disabled":false,"rental_uris":{"android":"levelo://app?vid=8c814918-5c1e-4e83-a3ac-8054106ee75a","ios":"levelo://app?vid=8c814918-5c1e-4e83-a3ac-8054106ee75a"},"vehicle_type_id":"4","last_reported":1773942363,"current_range_meters":6800,"station_id":"ce4bhbh2rcd13ifvqeqg","pricing_plan_id":"cebpf4jnsgd1na2vs0mg"},{"bike_id":"86b0e5aa-a156-4d05-80a6-596ea4e34237","system_id":"levelo_inurba_marseille","lat":43.29788,"lon":5.37101,"is_reserved":false,"is_disabled":false,"rental_uris":{"android":"levelo://app?vid=86b0e5aa-a156-4d05-80a6-596ea4e34237","ios":"levelo://app?vid=86b0e5aa-a156-4d05-80a6-596ea4e34237"},"vehicle_type_id":"4","last_reported":1773942363,"current_range_meters":6800,"station_id":"ce4bgop2rcd13ifvqc1g","pricing_plan_id":"cebpf4jnsgd1na2vs0mg"},{"bike_id":"61abe7b6-a1d5-4fb1-8e97-6efff73823a7","system_id":"levelo_inurba_marseille","lat":43.23792,"lon":5.3663,"is_reserved":false,"is_disabled":true,"rental_uris":{"android":"levelo://app?vid=61abe7b6-a1d5-4fb1-8e97-6efff73823a7","ios":"levelo://app?vid=61abe7b6-a1d5-4fb1-8e97-6efff73823a7"},"vehicle_type_id":"4","last_reported":1773942363,"current_range_meters":6800,"station_id":"st_d3nk18o9ro0c73en2l3g","pricing_plan_id":"cebpf4jnsgd1na2vs0mg"},{"bike_id":"24dc1ce5-2db6-421b-869a-69d6f082b300","system_id":"levelo_inurba_marseille","lat":43.29792,"lon":5.3624,"is_reserved":false,"is_disabled":false,"rental_uris":{"android":"levelo://app?vid=24dc1ce5-2db6-421b-869a-69d6f082b300","ios":"levelo://app?vid=24dc1ce5-2db6-421b-869a-69d6f082b300"},"vehicle_type_id":"4","last_reported":1773942363,"current_range_meters":6800,"station_id":"","pricing_plan_id":"cebpf4jnsgd1na2vs0mg"},{"bike_id":"730ffb5d-408c-403f-ac8c-aeaf0b8ab37d","system_id":"levelo_inurba_marseille","lat":43.28111,"lon":5.37855,"is_reserved":false,"is_disabled":false,"rental_uris":{"android":"levelo://app?vid=730ffb5d-408c-403f-ac8c-aeaf0b8ab37d","ios":"levelo://app?vid=730ffb5d-408c-403f-ac8c-aeaf0b8ab37d"},"vehicle_type_id":"4","last_reported":1773942363,"current_range_meters":6800,"station_id":"ce4bha12rcd13ifvqee0","pricing_plan_id":"cebpf4jnsgd1na2vs0mg"},{"bike_id":"864f588c-6c9a-47f2-bf8a-559a5ddb02ea","system_id":"levelo_inurba_marseille","lat":43.32099,"lon":5.36786,"is_reserved":false,"is_disabled":false,"rental_uris":{"android":"levelo://app?vid=864f588c-6c9a-47f2-bf8a-559a5ddb02ea","ios":"levelo://app?vid=864f588c-6c9a-47f2-bf8a-559a5ddb02ea"},"vehicle_type_id":"4","last_reported":1773942363,"current_range_meters":6800,"station_id":"ce4bhrh2rcd13ifvqhug","pricing_plan_id":"cebpf4jnsgd1na2vs0mg"},{"bike_id":"f7f9a1dc-afb4-4102-8082-821da876719a","system_id":"levelo_inurba_marseille","lat":43.29281,"lon":5.40117,"is_reserved":false,"is_disabled":false,"rental_uris":{"android":"levelo://app?vid=f7f9a1dc-afb4-4102-8082-821da876719a","ios":"levelo://app?vid=f7f9a1dc-afb4-4102-8082-821da876719a"},"vehicle_type_id":"4","last_reported":1773942363,"current_range_meters":6800,"station_id":"ce4bh312rcd13ifvqdk0","pricing_plan_id":"cebpf4jnsgd1na2vs0mg"},{"bike_id":"229f6ed1-d180-48e3-879e-ea767f7a9c0b","system_id":"levelo_inurba_marseille","lat":43.2957,"lon":5.39963,"is_reserved":false,"is_disabled":false,"rental_uris":{"android":"levelo://app?vid=229f6ed1-d180-48e3-879e-ea767f7a9c0b","ios":"levelo://app?vid=229f6ed1-d180-48e3-879e-ea767f7a9c0b"},"vehicle_type_id":"4","last_reported":1773942363,"current_range_meters":6800,"station_id":"ce4bh312rcd13ifvqdj0","pricing_plan_id":"cebpf4jnsgd1na2vs0mg"},{"bike_id":"b3137ec5-db6f-496b-8b43-d93943cd7251","system_id":"levelo_inurba_marseille","lat":43.27569,"lon":5.38415,"is_reserved":false,"is_disabled":false,"rental_uris":{"android":"levelo://app?vid=b3137ec5-db6f-496b-8b43-d93943cd7251","ios":"levelo://app?vid=b3137ec5-db6f-496b-8b43-d93943cd7251"},"vehicle_type_id":"4","last_reported":1773942363,"current_range_meters":6800,"station_id":"ce4bhh92rcd13ifvqfi0","pricing_plan_id":"cebpf4jnsgd1na2vs0mg"},{"bike_id":"d3afdc72-1965-48ae-8a50-f7ba6add6098","system_id":"levelo_inurba_marseille","lat":43.29306,"lon":5.37456,"is_reserved":false,"is_disabled":false,"rental_uris":{"android":"levelo://app?vid=d3afdc72-1965-48ae-8a50-f7ba6add6098","ios":"levelo://app?vid=d3afdc72-1965-48ae-8a50-f7ba6add6098"},"vehicle_type_id":"4","last_reported":1773942363,"current_range_meters":6800,"station_id":"ce4bgi12rcd13ifvqb70","pricing_plan_id":"cebpf4jnsgd1na2vs0mg"},{"bike_id":"d03a2022-6922-4b85-aada-659333694e5e","system_id":"levelo_inurba_marseille","lat":43.31187,"lon":5.38713,"is_reserved":false,"is_disabled":true,"rental_uris":{"android":"levelo://app?vid=d03a2022-6922-4b85-aada-659333694e5e","ios":"levelo://app?vid=d03a2022-6922-4b85-aada-659333694e5e"},"vehicle_type_id":"4","last_reported":1773942363,"current_range_meters":6800,"station_id":"ce4bgv12rcd13ifvqcp0","pricing_plan_id":"cebpf4jnsgd1na2vs0mg"},{"bike_id":"78beea6e-fd38-45c1-919e-297e7a3c4aab","system_id":"levelo_inurba_marseille","lat":43.28605,"lon":5.37078,"is_reserved":false,"is_disabled":false,"rental_uris":{"android":"levelo://app?vid=78beea6e-fd38-45c1-919e-297e7a3c4aab","ios":"levelo://app?vid=78beea6e-fd38-45c1-919e-297e7a3c4aab"},"vehicle_type_id":"4","last_reported":1773942363,"current_range_meters":6800,"station_id":"ce4bht12rcd13ifvqi60","pricing_plan_id":"cebpf4jnsgd1na2vs0mg"},{"bike_id":"3272a6e0-3e44-47ec-89bb-274e71ae96c8","system_id":"levelo_inurba_marseille","lat":43.28103,"lon":5.37839,"is_reserved":false,"is_disabled":false,"rental_uris":{"android":"levelo://app?vid=3272a6e0-3e44-47ec-89bb-274e71ae96c8","ios":"levelo://app?vid=3272a6e0-3e44-47ec-89bb-274e71ae96c8"},"vehicle_type_id":"4","last_reported":1773942363,"current_range_meters":6800,"station_id":"ce4bha12rcd13ifvqee0","pricing_plan_id":"cebpf4jnsgd1na2vs0mg"},{"bike_id":"c49642fb-17ac-41a5-9961-0182dd9c32e7","system_id":"levelo_inurba_marseille","lat":43.24389,"lon":5.3706,"is_reserved":false,"is_disabled":false,"rental_uris":{"android":"levelo://app?vid=c49642fb-17ac-41a5-9961-0182dd9c32e7","ios":"levelo://app?vid=c49642fb-17ac-41a5-9961-0182dd9c32e7"},"vehicle_type_id":"4","last_reported":1773942363,"current_range_meters":6800,"station_id":"ce4bhhh2rcd13ifvqfk0","pricing_plan_id":"cebpf4jnsgd1na2vs0mg"},{"bike_id":"c004016d-22b5-4e1e-bede-b3b08c997a62","system_id":"levelo_inurba_marseille","lat":43.28701,"lon":5.37401,"is_reserved":false,"is_disabled":false,"rental_uris":{"android":"levelo://app?vid=c004016d-22b5-4e1e-bede-b3b08c997a62","ios":"levelo://app?vid=c004016d-22b5-4e1e-bede-b3b08c997a62"},"vehicle_type_id":"4","last_reported":1773942363,"current_range_meters":6800,"station_id":"ce4bh3p2rcd13ifvqdq0","pricing_plan_id":"cebpf4jnsgd1na2vs0mg"},{"bike_id":"6dc02c2b-66f8-4a61-bb5d-75c222a6f2c3","system_id":"levelo_inurba_marseille","lat":43.28467,"lon":5.35889,"is_reserved":false,"is_disabled":false,"rental_uris":{"android":"levelo://app?vid=6dc02c2b-66f8-4a61-bb5d-75c222a6f2c3","ios":"levelo://app?vid=6dc02c2b-66f8-4a61-bb5d-75c222a6f2c3"},"vehicle_type_id":"4","last_reported":1773942363,"current_range_meters":6800,"station_id":"ce4bhah2rcd13ifvqei0","pricing_plan_id":"cebpf4jnsgd1na2vs0mg"},{"bike_id":"1a35434d-c9e2-448e-ab11-b763a506a6ff","system_id":"levelo_inurba_marseille","lat":43.29928,"lon":5.38091,"is_reserved":false,"is_disabled":true,"rental_uris":{"android":"levelo://app?vid=1a35434d-c9e2-448e-ab11-b763a506a6ff","ios":"levelo://app?vid=1a35434d-c9e2-448e-ab11-b763a506a6ff"},"vehicle_type_id":"4","last_reported":1773942363,"current_range_meters":6800,"station_id":"","pricing_plan_id":"cebpf4jnsgd1na2vs0mg"},{"bike_id":"43990e10-736c-4688-bfa9-97f0648e60c3","system_id":"levelo_inurba_marseille","lat":43.29683,"lon":5.37296,"is_reserved":false,"is_disabled":false,"rental_uris":{"android":"levelo://app?vid=43990e10-736c-4688-bfa9-97f0648e60c3","ios":"levelo://app?vid=43990e10-736c-4688-bfa9-97f0648e60c3"},"vehicle_type_id":"4","last_reported":1773942363,"current_range_meters":6800,"station_id":"ce4bgk12rcd13ifvqbj0","pricing_plan_id":"cebpf4jnsgd1na2vs0mg"},{"bike_id":"1cd975e6-1a3e-4be9-832f-9b3d2f667089","system_id":"levelo_inurba_marseille","lat":43.29882,"lon":5.39763,"is_reserved":false,"is_disabled":false,"rental_uris":{"android":"levelo://app?vid=1cd975e6-1a3e-4be9-832f-9b3d2f667089","ios":"levelo://app?vid=1cd975e6-1a3e-4be9-832f-9b3d2f667089"},"vehicle_type_id":"4","last_reported":1773942363,"current_range_meters":6800,"station_id":"ce4bh0h2rcd13ifvqd50","pricing_plan_id":"cebpf4jnsgd1na2vs0mg"},{"bike_id":"a11c8cfa-453a-4892-a974-6a22bafa8290","system_id":"levelo_inurba_marseille","lat":43.23193,"lon":5.35546,"is_reserved":false,"is_disabled":false,"rental_uris":{"android":"levelo://app?vid=a11c8cfa-453a-4892-a974-6a22bafa8290","ios":"levelo://app?vid=a11c8cfa-453a-4892-a974-6a22bafa8290"},"vehicle_type_id":"4","last_reported":1773942363,"current_range_meters":7200,"station_id":"ce4bhu92rcd13ifvqi70","pricing_plan_id":"cebpf4jnsgd1na2vs0mg"},{"bike_id":"c398a6ec-6a2a-4b3d-8072-e3a3dc99e9ec","system_id":"levelo_inurba_marseille","lat":43.28409,"lon":5.37514,"is_reserved":false,"is_disabled":false,"rental_uris":{"android":"levelo://app?vid=c398a6ec-6a2a-4b3d-8072-e3a3dc99e9ec","ios":"levelo://app?vid=c398a6ec-6a2a-4b3d-8072-e3a3dc99e9ec"},"vehicle_type_id":"4","last_reported":1773942363,"current_range_meters":7200,"station_id":"ce4bh412rcd13ifvqds0","pricing_plan_id":"cebpf4jnsgd1na2vs0mg"},{"bike_id":"7603f9a5-a91f-4dd4-884d-ad1569e71bd2","system_id":"levelo_inurba_marseille","lat":43.31046,"lon":5.3721,"is_reserved":false,"is_disabled":false,"rental_uris":{"android":"levelo://app?vid=7603f9a5-a91f-4dd4-884d-ad1569e71bd2","ios":"levelo://app?vid=7603f9a5-a91f-4dd4-884d-ad1569e71bd2"},"vehicle_type_id":"4","last_reported":1773942363,"current_range_meters":7200,"station_id":"st_d4kl2rp97mjs73e7tdfg","pricing_plan_id":"cebpf4jnsgd1na2vs0mg"},{"bike_id":"bd60a6ec-18d4-4476-ab1b-f354043c4b72","system_id":"levelo_inurba_marseille","lat":43.29787,"lon":5.42594,"is_reserved":false,"is_disabled":false,"rental_uris":{"android":"levelo://app?vid=bd60a6ec-18d4-4476-ab1b-f354043c4b72","ios":"levelo://app?vid=bd60a6ec-18d4-4476-ab1b-f354043c4b72"},"vehicle_type_id":"4","last_reported":1773942363,"current_range_meters":7200,"station_id":"","pricing_plan_id":"cebpf4jnsgd1na2vs0mg"},{"bike_id":"081a0881-89b6-4aec-8d87-38fd39de8439","system_id":"levelo_inurba_marseille","lat":43.28529,"lon":5.44147,"is_reserved":false,"is_disabled":false,"rental_uris":{"android":"levelo://app?vid=081a0881-89b6-4aec-8d87-38fd39de8439","ios":"levelo://app?vid=081a0881-89b6-4aec-8d87-38fd39de8439"},"vehicle_type_id":"4","last_reported":1773942363,"current_range_meters":7200,"station_id":"st_d3j3df2ikq2c7380ej80","pricing_plan_id":"cebpf4jnsgd1na2vs0mg"},{"bike_id":"d5f7f0bf-c4f5-45e1-bf7d-f4959ca7505e","system_id":"levelo_inurba_marseille","lat":43.24391,"lon":5.37067,"is_reserved":false,"is_disabled":false,"rental_uris":{"android":"levelo://app?vid=d5f7f0bf-c4f5-45e1-bf7d-f4959ca7505e","ios":"levelo://app?vid=d5f7f0bf-c4f5-45e1-bf7d-f4959ca7505e"},"vehicle_type_id":"4","last_reported":1773942363,"current_range_meters":7200,"station_id":"ce4bhhh2rcd13ifvqfk0","pricing_plan_id":"cebpf4jnsgd1na2vs0mg"},{"bike_id":"e8ef49c7-b190-42a7-8504-7a1aa480ce50","system_id":"levelo_inurba_marseille","lat":43.31731,"lon":5.42397,"is_reserved":false,"is_disabled":false,"rental_uris":{"android":"levelo://app?vid=e8ef49c7-b190-42a7-8504-7a1aa480ce50","ios":"levelo://app?vid=e8ef49c7-b190-42a7-8504-7a1aa480ce50"},"vehicle_type_id":"4","last_reported":1773942363,"current_range_meters":7200,"station_id":"ce4bhp92rcd13ifvqhbg","pricing_plan_id":"cebpf4jnsgd1na2vs0mg"},{"bike_id":"dd10efc5-28b9-436a-be78-8011941e89fc","system_id":"levelo_inurba_marseille","lat":43.28471,"lon":5.48373,"is_reserved":false,"is_disabled":false,"rental_uris":{"android":"levelo://app?vid=dd10efc5-28b9-436a-be78-8011941e89fc","ios":"levelo://app?vid=dd10efc5-28b9-436a-be78-8011941e89fc"},"vehicle_type_id":"4","last_reported":1773942363,"current_range_meters":7200,"station_id":"st_d3svhcjqgbts73a3dn0g","pricing_plan_id":"cebpf4jnsgd1na2vs0mg"},{"bike_id":"a7589a93-7e92-46e3-9adb-33c382fc7b2d","system_id":"levelo_inurba_marseille","lat":43.23966,"lon":5.36653,"is_reserved":false,"is_disabled":false,"rental_uris":{"android":"levelo://app?vid=a7589a93-7e92-46e3-9adb-33c382fc7b2d","ios":"levelo://app?vid=a7589a93-7e92-46e3-9adb-33c382fc7b2d"},"vehicle_type_id":"4","last_reported":1773942363,"current_range_meters":7200,"station_id":"ce4bhi12rcd13ifvqfp0","pricing_plan_id":"cebpf4jnsgd1na2vs0mg"},{"bike_id":"65807bf1-4d22-4096-b4f5-247ab6f0aaaf","system_id":"levelo_inurba_marseille","lat":43.26702,"lon":5.38262,"is_reserved":false,"is_disabled":false,"rental_uris":{"android":"levelo://app?vid=65807bf1-4d22-4096-b4f5-247ab6f0aaaf","ios":"levelo://app?vid=65807bf1-4d22-4096-b4f5-247ab6f0aaaf"},"vehicle_type_id":"4","last_reported":1773942363,"current_range_meters":7200,"station_id":"ce4bhg92rcd13ifvqf90","pricing_plan_id":"cebpf4jnsgd1na2vs0mg"},{"bike_id":"47b958a5-a9e9-4494-8472-abb0f760256b","system_id":"levelo_inurba_marseille","lat":43.23787,"lon":5.36638,"is_reserved":false,"is_disabled":false,"rental_uris":{"android":"levelo://app?vid=47b958a5-a9e9-4494-8472-abb0f760256b","ios":"levelo://app?vid=47b958a5-a9e9-4494-8472-abb0f760256b"},"vehicle_type_id":"4","last_reported":1773942363,"current_range_meters":7200,"station_id":"st_d3nk18o9ro0c73en2l3g","pricing_plan_id":"cebpf4jnsgd1na2vs0mg"},{"bike_id":"e84409cd-ab11-47ab-92ac-0bad50daf5c3","system_id":"levelo_inurba_marseille","lat":43.31907,"lon":5.36829,"is_reserved":false,"is_disabled":false,"rental_uris":{"android":"levelo://app?vid=e84409cd-ab11-47ab-92ac-0bad50daf5c3","ios":"levelo://app?vid=e84409cd-ab11-47ab-92ac-0bad50daf5c3"},"vehicle_type_id":"4","last_reported":1773942363,"current_range_meters":7200,"station_id":"st_d6o2h0d0559c73evc1b0","pricing_plan_id":"cebpf4jnsgd1na2vs0mg"},{"bike_id":"600469f9-bda4-4951-a61e-12b2370882e2","system_id":"levelo_inurba_marseille","lat":43.28869,"lon":5.42526,"is_reserved":false,"is_disabled":false,"rental_uris":{"android":"levelo://app?vid=600469f9-bda4-4951-a61e-12b2370882e2","ios":"levelo://app?vid=600469f9-bda4-4951-a61e-12b2370882e2"},"vehicle_type_id":"4","last_reported":1773942363,"current_range_meters":7200,"station_id":"","pricing_plan_id":"cebpf4jnsgd1na2vs0mg"},{"bike_id":"b7e87515-c3ea-478e-bf01-a70f86b2f092","system_id":"levelo_inurba_marseille","lat":43.24166,"lon":5.36448,"is_reserved":false,"is_disabled":false,"rental_uris":{"android":"levelo://app?vid=b7e87515-c3ea-478e-bf01-a70f86b2f092","ios":"levelo://app?vid=b7e87515-c3ea-478e-bf01-a70f86b2f092"},"vehicle_type_id":"4","last_reported":1773942363,"current_range_meters":7200,"station_id":"cpo36qri1sfpv3e86is0","pricing_plan_id":"cebpf4jnsgd1na2vs0mg"},{"bike_id":"b7a24406-9f2a-4af2-82dc-97636d8a6433","system_id":"levelo_inurba_marseille","lat":43.30881,"lon":5.39656,"is_reserved":false,"is_disabled":false,"rental_uris":{"android":"levelo://app?vid=b7a24406-9f2a-4af2-82dc-97636d8a6433","ios":"levelo://app?vid=b7a24406-9f2a-4af2-82dc-97636d8a6433"},"vehicle_type_id":"4","last_reported":1773942363,"current_range_meters":7200,"station_id":"ce4bh012rcd13ifvqcv0","pricing_plan_id":"cebpf4jnsgd1na2vs0mg"},{"bike_id":"ef484c67-1a88-49a1-8848-fd09c88d1886","system_id":"levelo_inurba_marseille","lat":43.29165,"lon":5.35805,"is_reserved":false,"is_disabled":false,"rental_uris":{"android":"levelo://app?vid=ef484c67-1a88-49a1-8848-fd09c88d1886","ios":"levelo://app?vid=ef484c67-1a88-49a1-8848-fd09c88d1886"},"vehicle_type_id":"4","last_reported":1773942363,"current_range_meters":7200,"station_id":"ce4bhb12rcd13ifvqel0","pricing_plan_id":"cebpf4jnsgd1na2vs0mg"},{"bike_id":"0a2f59bd-c295-4f5d-a51c-8606e2ae7540","system_id":"levelo_inurba_marseille","lat":43.29498,"lon":5.39038,"is_reserved":false,"is_disabled":false,"rental_uris":{"android":"levelo://app?vid=0a2f59bd-c295-4f5d-a51c-8606e2ae7540","ios":"levelo://app?vid=0a2f59bd-c295-4f5d-a51c-8606e2ae7540"},"vehicle_type_id":"4","last_reported":1773942363,"current_range_meters":7200,"station_id":"ce4bh3p2rcd13ifvqdp0","pricing_plan_id":"cebpf4jnsgd1na2vs0mg"},{"bike_id":"d3ec5979-54e8-4a74-8bb1-cf1bbb5dec0a","system_id":"levelo_inurba_marseille","lat":43.25089,"lon":5.3954,"is_reserved":false,"is_disabled":false,"rental_uris":{"android":"levelo://app?vid=d3ec5979-54e8-4a74-8bb1-cf1bbb5dec0a","ios":"levelo://app?vid=d3ec5979-54e8-4a74-8bb1-cf1bbb5dec0a"},"vehicle_type_id":"4","last_reported":1773942363,"current_range_meters":7200,"station_id":"ce4bhm12rcd13ifvqgkg","pricing_plan_id":"cebpf4jnsgd1na2vs0mg"},{"bike_id":"4fe0a0f3-cb70-41a9-abc9-fe05ddae6f49","system_id":"levelo_inurba_marseille","lat":43.31714,"lon":5.43707,"is_reserved":false,"is_disabled":false,"rental_uris":{"android":"levelo://app?vid=4fe0a0f3-cb70-41a9-abc9-fe05ddae6f49","ios":"levelo://app?vid=4fe0a0f3-cb70-41a9-abc9-fe05ddae6f49"},"vehicle_type_id":"4","last_reported":1773942363,"current_range_meters":7200,"station_id":"ce4bhp92rcd13ifvqhcg","pricing_plan_id":"cebpf4jnsgd1na2vs0mg"},{"bike_id":"7799fc69-17b2-4fa4-a695-25322ce6b478","system_id":"levelo_inurba_marseille","lat":43.26564,"lon":5.39011,"is_reserved":false,"is_disabled":false,"rental_uris":{"android":"levelo://app?vid=7799fc69-17b2-4fa4-a695-25322ce6b478","ios":"levelo://app?vid=7799fc69-17b2-4fa4-a695-25322ce6b478"},"vehicle_type_id":"4","last_reported":1773942363,"current_range_meters":8000,"station_id":"ce4bhe12rcd13ifvqf30","pricing_plan_id":"cebpf4jnsgd1na2vs0mg"},{"bike_id":"13ece891-29b9-4ae9-a4c4-ae3da55ec954","system_id":"levelo_inurba_marseille","lat":43.23205,"lon":5.35567,"is_reserved":false,"is_disabled":false,"rental_uris":{"android":"levelo://app?vid=13ece891-29b9-4ae9-a4c4-ae3da55ec954","ios":"levelo://app?vid=13ece891-29b9-4ae9-a4c4-ae3da55ec954"},"vehicle_type_id":"4","last_reported":1773942363,"current_range_meters":8000,"station_id":"ce4bhu92rcd13ifvqi70","pricing_plan_id":"cebpf4jnsgd1na2vs0mg"},{"bike_id":"addd9e53-bfde-4c2f-8c89-4a891b6a7add","system_id":"levelo_inurba_marseille","lat":43.3137,"lon":5.37918,"is_reserved":false,"is_disabled":false,"rental_uris":{"android":"levelo://app?vid=addd9e53-bfde-4c2f-8c89-4a891b6a7add","ios":"levelo://app?vid=addd9e53-bfde-4c2f-8c89-4a891b6a7add"},"vehicle_type_id":"4","last_reported":1773942363,"current_range_meters":8000,"station_id":"","pricing_plan_id":"cebpf4jnsgd1na2vs0mg"},{"bike_id":"6018d565-5c8a-4bab-ba5d-0061fbbaec08","system_id":"levelo_inurba_marseille","lat":43.22946,"lon":5.35382,"is_reserved":false,"is_disabled":false,"rental_uris":{"android":"levelo://app?vid=6018d565-5c8a-4bab-ba5d-0061fbbaec08","ios":"levelo://app?vid=6018d565-5c8a-4bab-ba5d-0061fbbaec08"},"vehicle_type_id":"4","last_reported":1773942363,"current_range_meters":8000,"station_id":"cpo3532slgdg3j2ikp40","pricing_plan_id":"cebpf4jnsgd1na2vs0mg"},{"bike_id":"52f6a6b9-7af9-4956-b458-baf5061e66bf","system_id":"levelo_inurba_marseille","lat":43.23327,"lon":5.44454,"is_reserved":false,"is_disabled":false,"rental_uris":{"android":"levelo://app?vid=52f6a6b9-7af9-4956-b458-baf5061e66bf","ios":"levelo://app?vid=52f6a6b9-7af9-4956-b458-baf5061e66bf"},"vehicle_type_id":"4","last_reported":1773942363,"current_range_meters":8000,"station_id":"","pricing_plan_id":"cebpf4jnsgd1na2vs0mg"},{"bike_id":"347a0133-45d3-4213-ae48-606f4453bbf3","system_id":"levelo_inurba_marseille","lat":43.2306,"lon":5.35474,"is_reserved":false,"is_disabled":false,"rental_uris":{"android":"levelo://app?vid=347a0133-45d3-4213-ae48-606f4453bbf3","ios":"levelo://app?vid=347a0133-45d3-4213-ae48-606f4453bbf3"},"vehicle_type_id":"4","last_reported":1773942363,"current_range_meters":8000,"station_id":"cpo3342slgdg3j2ifvpg","pricing_plan_id":"cebpf4jnsgd1na2vs0mg"},{"bike_id":"dd2f7881-755c-4593-bb3a-7ba359f1b823","system_id":"levelo_inurba_marseille","lat":43.29099,"lon":5.38126,"is_reserved":false,"is_disabled":true,"rental_uris":{"android":"levelo://app?vid=dd2f7881-755c-4593-bb3a-7ba359f1b823","ios":"levelo://app?vid=dd2f7881-755c-4593-bb3a-7ba359f1b823"},"vehicle_type_id":"4","last_reported":1773942363,"current_range_meters":8000,"station_id":"ce4bh512rcd13ifvqe2g","pricing_plan_id":"cebpf4jnsgd1na2vs0mg"},{"bike_id":"29e9868a-ad67-477f-92dc-9db12e8568e1","system_id":"levelo_inurba_marseille","lat":43.24666,"lon":5.38155,"is_reserved":false,"is_disabled":false,"rental_uris":{"android":"levelo://app?vid=29e9868a-ad67-477f-92dc-9db12e8568e1","ios":"levelo://app?vid=29e9868a-ad67-477f-92dc-9db12e8568e1"},"vehicle_type_id":"4","last_reported":1773942363,"current_range_meters":8000,"station_id":"ce4bhih2rcd13ifvqfr0","pricing_plan_id":"cebpf4jnsgd1na2vs0mg"},{"bike_id":"663d064f-1344-4c49-9ca6-160f1fe9dc65","system_id":"levelo_inurba_marseille","lat":43.29276,"lon":5.40112,"is_reserved":false,"is_disabled":false,"rental_uris":{"android":"levelo://app?vid=663d064f-1344-4c49-9ca6-160f1fe9dc65","ios":"levelo://app?vid=663d064f-1344-4c49-9ca6-160f1fe9dc65"},"vehicle_type_id":"4","last_reported":1773942363,"current_range_meters":8000,"station_id":"ce4bh312rcd13ifvqdk0","pricing_plan_id":"cebpf4jnsgd1na2vs0mg"},{"bike_id":"b75069b3-124f-4d1a-ac19-3c9815c251e7","system_id":"levelo_inurba_marseille","lat":43.30612,"lon":5.37222,"is_reserved":false,"is_disabled":false,"rental_uris":{"android":"levelo://app?vid=b75069b3-124f-4d1a-ac19-3c9815c251e7","ios":"levelo://app?vid=b75069b3-124f-4d1a-ac19-3c9815c251e7"},"vehicle_type_id":"4","last_reported":1773942363,"current_range_meters":8000,"station_id":"ce4bgqh2rcd13ifvqc4g","pricing_plan_id":"cebpf4jnsgd1na2vs0mg"},{"bike_id":"8c1bb7e1-fc52-410e-bc8b-57e5a8629823","system_id":"levelo_inurba_marseille","lat":43.29227,"lon":5.3771,"is_reserved":false,"is_disabled":false,"rental_uris":{"android":"levelo://app?vid=8c1bb7e1-fc52-410e-bc8b-57e5a8629823","ios":"levelo://app?vid=8c1bb7e1-fc52-410e-bc8b-57e5a8629823"},"vehicle_type_id":"4","last_reported":1773942363,"current_range_meters":8000,"station_id":"","pricing_plan_id":"cebpf4jnsgd1na2vs0mg"},{"bike_id":"014d4605-a8d4-4713-88b4-53f911c2e6dc","system_id":"levelo_inurba_marseille","lat":43.28436,"lon":5.39203,"is_reserved":false,"is_disabled":false,"rental_uris":{"android":"levelo://app?vid=014d4605-a8d4-4713-88b4-53f911c2e6dc","ios":"levelo://app?vid=014d4605-a8d4-4713-88b4-53f911c2e6dc"},"vehicle_type_id":"4","last_reported":1773942363,"current_range_meters":8000,"station_id":"ce4bhoh2rcd13ifvqh5g","pricing_plan_id":"cebpf4jnsgd1na2vs0mg"},{"bike_id":"d51fe815-5335-4e1f-8e42-efe91c7e85aa","system_id":"levelo_inurba_marseille","lat":43.22924,"lon":5.35377,"is_reserved":false,"is_disabled":false,"rental_uris":{"android":"levelo://app?vid=d51fe815-5335-4e1f-8e42-efe91c7e85aa","ios":"levelo://app?vid=d51fe815-5335-4e1f-8e42-efe91c7e85aa"},"vehicle_type_id":"4","last_reported":1773942363,"current_range_meters":8000,"station_id":"cpo3532slgdg3j2ikp40","pricing_plan_id":"cebpf4jnsgd1na2vs0mg"},{"bike_id":"282ae1f9-acb0-48cd-bf87-5a8e7dbec2e3","system_id":"levelo_inurba_marseille","lat":43.24799,"lon":5.37464,"is_reserved":false,"is_disabled":false,"rental_uris":{"android":"levelo://app?vid=282ae1f9-acb0-48cd-bf87-5a8e7dbec2e3","ios":"levelo://app?vid=282ae1f9-acb0-48cd-bf87-5a8e7dbec2e3"},"vehicle_type_id":"4","last_reported":1773942363,"current_range_meters":8000,"station_id":"ce4bhgh2rcd13ifvqfb0","pricing_plan_id":"cebpf4jnsgd1na2vs0mg"},{"bike_id":"e1fcda96-10f8-4416-a2de-b3c0381d6f12","system_id":"levelo_inurba_marseille","lat":43.2738,"lon":5.36242,"is_reserved":false,"is_disabled":true,"rental_uris":{"android":"levelo://app?vid=e1fcda96-10f8-4416-a2de-b3c0381d6f12","ios":"levelo://app?vid=e1fcda96-10f8-4416-a2de-b3c0381d6f12"},"vehicle_type_id":"4","last_reported":1773942363,"current_range_meters":8000,"station_id":"ce4bhbh2rcd13ifvqeo0","pricing_plan_id":"cebpf4jnsgd1na2vs0mg"},{"bike_id":"be523ae7-f0fc-4e2a-970b-30a3029fa717","system_id":"levelo_inurba_marseille","lat":43.28465,"lon":5.48446,"is_reserved":false,"is_disabled":false,"rental_uris":{"android":"levelo://app?vid=be523ae7-f0fc-4e2a-970b-30a3029fa717","ios":"levelo://app?vid=be523ae7-f0fc-4e2a-970b-30a3029fa717"},"vehicle_type_id":"4","last_reported":1773942363,"current_range_meters":8000,"station_id":"st_d3svhcjqgbts73a3dn0g","pricing_plan_id":"cebpf4jnsgd1na2vs0mg"},{"bike_id":"65881b13-7250-4416-adf0-deab25d7f8bc","system_id":"levelo_inurba_marseille","lat":43.29538,"lon":5.38546,"is_reserved":false,"is_disabled":false,"rental_uris":{"android":"levelo://app?vid=65881b13-7250-4416-adf0-deab25d7f8bc","ios":"levelo://app?vid=65881b13-7250-4416-adf0-deab25d7f8bc"},"vehicle_type_id":"4","last_reported":1773942363,"current_range_meters":8000,"station_id":"ce4bgih2rcd13ifvqba0","pricing_plan_id":"cebpf4jnsgd1na2vs0mg"},{"bike_id":"15750178-4f9b-426f-bafa-493e04eb7e36","system_id":"levelo_inurba_marseille","lat":43.30809,"lon":5.40686,"is_reserved":false,"is_disabled":false,"rental_uris":{"android":"levelo://app?vid=15750178-4f9b-426f-bafa-493e04eb7e36","ios":"levelo://app?vid=15750178-4f9b-426f-bafa-493e04eb7e36"},"vehicle_type_id":"4","last_reported":1773942363,"current_range_meters":8000,"station_id":"","pricing_plan_id":"cebpf4jnsgd1na2vs0mg"},{"bike_id":"afeece1c-4d1a-49ac-8dc3-44b91bef6b52","system_id":"levelo_inurba_marseille","lat":43.25826,"lon":5.3941,"is_reserved":false,"is_disabled":false,"rental_uris":{"android":"levelo://app?vid=afeece1c-4d1a-49ac-8dc3-44b91bef6b52","ios":"levelo://app?vid=afeece1c-4d1a-49ac-8dc3-44b91bef6b52"},"vehicle_type_id":"4","last_reported":1773942363,"current_range_meters":8400,"station_id":"ce4bhip2rcd13ifvqft0","pricing_plan_id":"cebpf4jnsgd1na2vs0mg"},{"bike_id":"b790cc6c-beda-4dcd-96dd-e541806c10fa","system_id":"levelo_inurba_marseille","lat":43.27452,"lon":5.4161,"is_reserved":false,"is_disabled":false,"rental_uris":{"android":"levelo://app?vid=b790cc6c-beda-4dcd-96dd-e541806c10fa","ios":"levelo://app?vid=b790cc6c-beda-4dcd-96dd-e541806c10fa"},"vehicle_type_id":"4","last_reported":1773942363,"current_range_meters":8400,"station_id":"st_d6im8g6chgec73a5pndg","pricing_plan_id":"cebpf4jnsgd1na2vs0mg"},{"bike_id":"91754ca3-cd5e-47a5-b17b-b94faa181426","system_id":"levelo_inurba_marseille","lat":43.32125,"lon":5.368,"is_reserved":false,"is_disabled":false,"rental_uris":{"android":"levelo://app?vid=91754ca3-cd5e-47a5-b17b-b94faa181426","ios":"levelo://app?vid=91754ca3-cd5e-47a5-b17b-b94faa181426"},"vehicle_type_id":"4","last_reported":1773942363,"current_range_meters":8400,"station_id":"ce4bhrh2rcd13ifvqhug","pricing_plan_id":"cebpf4jnsgd1na2vs0mg"},{"bike_id":"bced2001-fba9-4d8d-86c3-40422b1b5919","system_id":"levelo_inurba_marseille","lat":43.28611,"lon":5.35113,"is_reserved":false,"is_disabled":false,"rental_uris":{"android":"levelo://app?vid=bced2001-fba9-4d8d-86c3-40422b1b5919","ios":"levelo://app?vid=bced2001-fba9-4d8d-86c3-40422b1b5919"},"vehicle_type_id":"4","last_reported":1773942363,"current_range_meters":8400,"station_id":"ce4bhch2rcd13ifvqeug","pricing_plan_id":"cebpf4jnsgd1na2vs0mg"},{"bike_id":"5b633a99-6e6c-40eb-b51a-c5e14db697a0","system_id":"levelo_inurba_marseille","lat":43.27071,"lon":5.42288,"is_reserved":false,"is_disabled":false,"rental_uris":{"android":"levelo://app?vid=5b633a99-6e6c-40eb-b51a-c5e14db697a0","ios":"levelo://app?vid=5b633a99-6e6c-40eb-b51a-c5e14db697a0"},"vehicle_type_id":"4","last_reported":1773942363,"current_range_meters":8400,"station_id":"ce4bhk92rcd13ifvqgb0","pricing_plan_id":"cebpf4jnsgd1na2vs0mg"},{"bike_id":"45a7eeba-191c-4d0b-87a5-08f3942ccff8","system_id":"levelo_inurba_marseille","lat":43.27053,"lon":5.38303,"is_reserved":false,"is_disabled":false,"rental_uris":{"android":"levelo://app?vid=45a7eeba-191c-4d0b-87a5-08f3942ccff8","ios":"levelo://app?vid=45a7eeba-191c-4d0b-87a5-08f3942ccff8"},"vehicle_type_id":"4","last_reported":1773942363,"current_range_meters":8400,"station_id":"st_d3n2fo6cfp8s73cte1j0","pricing_plan_id":"cebpf4jnsgd1na2vs0mg"},{"bike_id":"57d1ada9-1a9f-44a6-9752-b843732a3f40","system_id":"levelo_inurba_marseille","lat":43.29954,"lon":5.37142,"is_reserved":false,"is_disabled":false,"rental_uris":{"android":"levelo://app?vid=57d1ada9-1a9f-44a6-9752-b843732a3f40","ios":"levelo://app?vid=57d1ada9-1a9f-44a6-9752-b843732a3f40"},"vehicle_type_id":"4","last_reported":1773942363,"current_range_meters":8400,"station_id":"ce4bgr92rcd13ifvqc7g","pricing_plan_id":"cebpf4jnsgd1na2vs0mg"},{"bike_id":"564860af-7407-49ff-afe3-ecd8dd884bb6","system_id":"levelo_inurba_marseille","lat":43.24996,"lon":5.38926,"is_reserved":false,"is_disabled":false,"rental_uris":{"android":"levelo://app?vid=564860af-7407-49ff-afe3-ecd8dd884bb6","ios":"levelo://app?vid=564860af-7407-49ff-afe3-ecd8dd884bb6"},"vehicle_type_id":"4","last_reported":1773942363,"current_range_meters":8400,"station_id":"ce4bhgp2rcd13ifvqfd0","pricing_plan_id":"cebpf4jnsgd1na2vs0mg"},{"bike_id":"0beaaf65-aa19-4db3-841f-4f62926702ea","system_id":"levelo_inurba_marseille","lat":43.2809,"lon":5.37853,"is_reserved":false,"is_disabled":false,"rental_uris":{"android":"levelo://app?vid=0beaaf65-aa19-4db3-841f-4f62926702ea","ios":"levelo://app?vid=0beaaf65-aa19-4db3-841f-4f62926702ea"},"vehicle_type_id":"4","last_reported":1773942363,"current_range_meters":8400,"station_id":"ce4bha12rcd13ifvqee0","pricing_plan_id":"cebpf4jnsgd1na2vs0mg"},{"bike_id":"31de91b8-2554-4f66-8bc6-9dfb581be216","system_id":"levelo_inurba_marseille","lat":43.28854,"lon":5.39328,"is_reserved":false,"is_disabled":false,"rental_uris":{"android":"levelo://app?vid=31de91b8-2554-4f66-8bc6-9dfb581be216","ios":"levelo://app?vid=31de91b8-2554-4f66-8bc6-9dfb581be216"},"vehicle_type_id":"4","last_reported":1773942363,"current_range_meters":8400,"station_id":"ce4bh2p2rcd13ifvqdi0","pricing_plan_id":"cebpf4jnsgd1na2vs0mg"},{"bike_id":"e7927fb9-21ad-4942-8810-250578d88b93","system_id":"levelo_inurba_marseille","lat":43.29231,"lon":5.36075,"is_reserved":false,"is_disabled":false,"rental_uris":{"android":"levelo://app?vid=e7927fb9-21ad-4942-8810-250578d88b93","ios":"levelo://app?vid=e7927fb9-21ad-4942-8810-250578d88b93"},"vehicle_type_id":"4","last_reported":1773942363,"current_range_meters":8400,"station_id":"ce4bhbh2rcd13ifvqeqg","pricing_plan_id":"cebpf4jnsgd1na2vs0mg"},{"bike_id":"35b98144-a8e9-4b84-b91d-3513211f7aa1","system_id":"levelo_inurba_marseille","lat":43.24801,"lon":5.37467,"is_reserved":false,"is_disabled":false,"rental_uris":{"android":"levelo://app?vid=35b98144-a8e9-4b84-b91d-3513211f7aa1","ios":"levelo://app?vid=35b98144-a8e9-4b84-b91d-3513211f7aa1"},"vehicle_type_id":"4","last_reported":1773942363,"current_range_meters":8400,"station_id":"ce4bhgh2rcd13ifvqfb0","pricing_plan_id":"cebpf4jnsgd1na2vs0mg"},{"bike_id":"85e34bd4-543e-4066-99b9-8180bc7744ae","system_id":"levelo_inurba_marseille","lat":43.29914,"lon":5.36553,"is_reserved":false,"is_disabled":false,"rental_uris":{"android":"levelo://app?vid=85e34bd4-543e-4066-99b9-8180bc7744ae","ios":"levelo://app?vid=85e34bd4-543e-4066-99b9-8180bc7744ae"},"vehicle_type_id":"4","last_reported":1773942363,"current_range_meters":8400,"station_id":"ce4bgm92rcd13ifvqbr0","pricing_plan_id":"cebpf4jnsgd1na2vs0mg"},{"bike_id":"78bb54cf-5275-4554-9f53-8437367c33f2","system_id":"levelo_inurba_marseille","lat":43.23195,"lon":5.35548,"is_reserved":false,"is_disabled":false,"rental_uris":{"android":"levelo://app?vid=78bb54cf-5275-4554-9f53-8437367c33f2","ios":"levelo://app?vid=78bb54cf-5275-4554-9f53-8437367c33f2"},"vehicle_type_id":"4","last_reported":1773942363,"current_range_meters":8400,"station_id":"ce4bhu92rcd13ifvqi70","pricing_plan_id":"cebpf4jnsgd1na2vs0mg"},{"bike_id":"9d7d6495-9f08-4a8f-9cb2-f434fe09cc90","system_id":"levelo_inurba_marseille","lat":43.29801,"lon":5.42731,"is_reserved":false,"is_disabled":false,"rental_uris":{"android":"levelo://app?vid=9d7d6495-9f08-4a8f-9cb2-f434fe09cc90","ios":"levelo://app?vid=9d7d6495-9f08-4a8f-9cb2-f434fe09cc90"},"vehicle_type_id":"4","last_reported":1773942363,"current_range_meters":8400,"station_id":"","pricing_plan_id":"cebpf4jnsgd1na2vs0mg"},{"bike_id":"e97c87c4-4dd9-469b-b154-f883c7b4f319","system_id":"levelo_inurba_marseille","lat":43.29175,"lon":5.35798,"is_reserved":false,"is_disabled":false,"rental_uris":{"android":"levelo://app?vid=e97c87c4-4dd9-469b-b154-f883c7b4f319","ios":"levelo://app?vid=e97c87c4-4dd9-469b-b154-f883c7b4f319"},"vehicle_type_id":"4","last_reported":1773942363,"current_range_meters":8400,"station_id":"ce4bhb12rcd13ifvqel0","pricing_plan_id":"cebpf4jnsgd1na2vs0mg"},{"bike_id":"4ebc5a1c-fa8c-44d8-a7fc-38229c55eb9d","system_id":"levelo_inurba_marseille","lat":43.24643,"lon":5.389,"is_reserved":false,"is_disabled":false,"rental_uris":{"android":"levelo://app?vid=4ebc5a1c-fa8c-44d8-a7fc-38229c55eb9d","ios":"levelo://app?vid=4ebc5a1c-fa8c-44d8-a7fc-38229c55eb9d"},"vehicle_type_id":"4","last_reported":1773942363,"current_range_meters":8400,"station_id":"ce4bhg12rcd13ifvqf60","pricing_plan_id":"cebpf4jnsgd1na2vs0mg"},{"bike_id":"68d61e1c-9937-420c-b216-f80a796914c1","system_id":"levelo_inurba_marseille","lat":43.29873,"lon":5.39733,"is_reserved":false,"is_disabled":false,"rental_uris":{"android":"levelo://app?vid=68d61e1c-9937-420c-b216-f80a796914c1","ios":"levelo://app?vid=68d61e1c-9937-420c-b216-f80a796914c1"},"vehicle_type_id":"4","last_reported":1773942363,"current_range_meters":8400,"station_id":"ce4bh0h2rcd13ifvqd50","pricing_plan_id":"cebpf4jnsgd1na2vs0mg"},{"bike_id":"5b92c37b-970b-400b-a4a2-33eea7ff7ae1","system_id":"levelo_inurba_marseille","lat":43.27608,"lon":5.36139,"is_reserved":false,"is_disabled":false,"rental_uris":{"android":"levelo://app?vid=5b92c37b-970b-400b-a4a2-33eea7ff7ae1","ios":"levelo://app?vid=5b92c37b-970b-400b-a4a2-33eea7ff7ae1"},"vehicle_type_id":"4","last_reported":1773942363,"current_range_meters":8400,"station_id":"ce4bgj92rcd13ifvqbe0","pricing_plan_id":"cebpf4jnsgd1na2vs0mg"},{"bike_id":"27ab0b7e-6e54-4f91-b849-38d6f7d0427e","system_id":"levelo_inurba_marseille","lat":43.28157,"lon":5.42652,"is_reserved":false,"is_disabled":false,"rental_uris":{"android":"levelo://app?vid=27ab0b7e-6e54-4f91-b849-38d6f7d0427e","ios":"levelo://app?vid=27ab0b7e-6e54-4f91-b849-38d6f7d0427e"},"vehicle_type_id":"4","last_reported":1773942363,"current_range_meters":8400,"station_id":"ce4bhnh2rcd13ifvqgug","pricing_plan_id":"cebpf4jnsgd1na2vs0mg"},{"bike_id":"b3c6ee7e-839e-47ca-8bd1-12618e78dd87","system_id":"levelo_inurba_marseille","lat":43.23958,"lon":5.36625,"is_reserved":false,"is_disabled":true,"rental_uris":{"android":"levelo://app?vid=b3c6ee7e-839e-47ca-8bd1-12618e78dd87","ios":"levelo://app?vid=b3c6ee7e-839e-47ca-8bd1-12618e78dd87"},"vehicle_type_id":"4","last_reported":1773942363,"current_range_meters":8400,"station_id":"ce4bhi12rcd13ifvqfp0","pricing_plan_id":"cebpf4jnsgd1na2vs0mg"},{"bike_id":"eabf4d2f-073c-41a2-a840-9f5f81a65f64","system_id":"levelo_inurba_marseille","lat":43.29091,"lon":5.42711,"is_reserved":false,"is_disabled":false,"rental_uris":{"android":"levelo://app?vid=eabf4d2f-073c-41a2-a840-9f5f81a65f64","ios":"levelo://app?vid=eabf4d2f-073c-41a2-a840-9f5f81a65f64"},"vehicle_type_id":"4","last_reported":1773942363,"current_range_meters":8400,"station_id":"","pricing_plan_id":"cebpf4jnsgd1na2vs0mg"},{"bike_id":"ab09d209-60f6-4303-8d09-86dc43261279","system_id":"levelo_inurba_marseille","lat":43.21208,"lon":5.35052,"is_reserved":false,"is_disabled":true,"rental_uris":{"android":"levelo://app?vid=ab09d209-60f6-4303-8d09-86dc43261279","ios":"levelo://app?vid=ab09d209-60f6-4303-8d09-86dc43261279"},"vehicle_type_id":"4","last_reported":1773942363,"current_range_meters":8400,"station_id":"st_cvj6sg6p6f1abm77japg","pricing_plan_id":"cebpf4jnsgd1na2vs0mg"},{"bike_id":"3bcd3f37-7909-4e8a-be03-a9562a2c0e45","system_id":"levelo_inurba_marseille","lat":43.28478,"lon":5.48385,"is_reserved":false,"is_disabled":false,"rental_uris":{"android":"levelo://app?vid=3bcd3f37-7909-4e8a-be03-a9562a2c0e45","ios":"levelo://app?vid=3bcd3f37-7909-4e8a-be03-a9562a2c0e45"},"vehicle_type_id":"4","last_reported":1773942363,"current_range_meters":8800,"station_id":"","pricing_plan_id":"cebpf4jnsgd1na2vs0mg"},{"bike_id":"4d9e23d5-bd87-4727-8d57-c47ef2bf36a8","system_id":"levelo_inurba_marseille","lat":43.29196,"lon":5.35803,"is_reserved":false,"is_disabled":false,"rental_uris":{"android":"levelo://app?vid=4d9e23d5-bd87-4727-8d57-c47ef2bf36a8","ios":"levelo://app?vid=4d9e23d5-bd87-4727-8d57-c47ef2bf36a8"},"vehicle_type_id":"4","last_reported":1773942363,"current_range_meters":8800,"station_id":"ce4bhb12rcd13ifvqel0","pricing_plan_id":"cebpf4jnsgd1na2vs0mg"},{"bike_id":"3072c2b7-499e-4858-9501-6070c7badbaf","system_id":"levelo_inurba_marseille","lat":43.23965,"lon":5.36626,"is_reserved":false,"is_disabled":false,"rental_uris":{"android":"levelo://app?vid=3072c2b7-499e-4858-9501-6070c7badbaf","ios":"levelo://app?vid=3072c2b7-499e-4858-9501-6070c7badbaf"},"vehicle_type_id":"4","last_reported":1773942363,"current_range_meters":8800,"station_id":"ce4bhi12rcd13ifvqfp0","pricing_plan_id":"cebpf4jnsgd1na2vs0mg"},{"bike_id":"69067704-4b9d-4067-8ddd-5b71f4ef1a8a","system_id":"levelo_inurba_marseille","lat":43.2593,"lon":5.40899,"is_reserved":false,"is_disabled":true,"rental_uris":{"android":"levelo://app?vid=69067704-4b9d-4067-8ddd-5b71f4ef1a8a","ios":"levelo://app?vid=69067704-4b9d-4067-8ddd-5b71f4ef1a8a"},"vehicle_type_id":"4","last_reported":1773942363,"current_range_meters":8800,"station_id":"ce4bhm92rcd13ifvqglg","pricing_plan_id":"cebpf4jnsgd1na2vs0mg"},{"bike_id":"f48d7e06-8aaa-498f-83ce-deede002f1f8","system_id":"levelo_inurba_marseille","lat":43.29019,"lon":5.39975,"is_reserved":false,"is_disabled":false,"rental_uris":{"android":"levelo://app?vid=f48d7e06-8aaa-498f-83ce-deede002f1f8","ios":"levelo://app?vid=f48d7e06-8aaa-498f-83ce-deede002f1f8"},"vehicle_type_id":"4","last_reported":1773942363,"current_range_meters":8800,"station_id":"ce4bh392rcd13ifvqdm0","pricing_plan_id":"cebpf4jnsgd1na2vs0mg"},{"bike_id":"88f62a4c-1dd5-4d07-a59a-902271acdb70","system_id":"levelo_inurba_marseille","lat":43.28161,"lon":5.42649,"is_reserved":false,"is_disabled":false,"rental_uris":{"android":"levelo://app?vid=88f62a4c-1dd5-4d07-a59a-902271acdb70","ios":"levelo://app?vid=88f62a4c-1dd5-4d07-a59a-902271acdb70"},"vehicle_type_id":"4","last_reported":1773942363,"current_range_meters":8800,"station_id":"ce4bhnh2rcd13ifvqgug","pricing_plan_id":"cebpf4jnsgd1na2vs0mg"},{"bike_id":"f15a43b5-dd47-45ae-ae7d-e4490cd6b23e","system_id":"levelo_inurba_marseille","lat":43.30902,"lon":5.36863,"is_reserved":false,"is_disabled":false,"rental_uris":{"android":"levelo://app?vid=f15a43b5-dd47-45ae-ae7d-e4490cd6b23e","ios":"levelo://app?vid=f15a43b5-dd47-45ae-ae7d-e4490cd6b23e"},