{"last_updated":1767633253,"ttl":60,"version":"2.2","data":{"bikes":[{"bike_id":"051ac01f-c395-4a6a-927f-07fa52e538f2","system_id":"levelo_inurba_marseille","lat":43.31049,"lon":5.37145,"is_reserved":false,"is_disabled":true,"rental_uris":{"android":"levelo://app?vid=051ac01f-c395-4a6a-927f-07fa52e538f2","ios":"levelo://app?vid=051ac01f-c395-4a6a-927f-07fa52e538f2"},"vehicle_type_id":"4","last_reported":1767633254,"current_range_meters":2800,"station_id":"st_d4kl2rp97mjs73e7tdfg","pricing_plan_id":"cebpf4jnsgd1na2vs0mg"},{"bike_id":"30b8b232-0149-43fe-aeaf-d6f987f833ea","system_id":"levelo_inurba_marseille","lat":43.26221,"lon":5.37429,"is_reserved":false,"is_disabled":false,"rental_uris":{"android":"levelo://app?vid=30b8b232-0149-43fe-aeaf-d6f987f833ea","ios":"levelo://app?vid=30b8b232-0149-43fe-aeaf-d6f987f833ea"},"vehicle_type_id":"4","last_reported":1767633254,"current_range_meters":2800,"station_id":"ce4bhgp2rcd13ifvqfc0","pricing_plan_id":"cebpf4jnsgd1na2vs0mg"},{"bike_id":"322ed97b-7456-4c78-b0fa-08f92ae0ea59","system_id":"levelo_inurba_marseille","lat":43.27205,"lon":5.40959,"is_reserved":false,"is_disabled":false,"rental_uris":{"android":"levelo://app?vid=322ed97b-7456-4c78-b0fa-08f92ae0ea59","ios":"levelo://app?vid=322ed97b-7456-4c78-b0fa-08f92ae0ea59"},"vehicle_type_id":"4","last_reported":1767633254,"current_range_meters":2800,"station_id":"ce4bhl12rcd13ifvqgf0","pricing_plan_id":"cebpf4jnsgd1na2vs0mg"},{"bike_id":"83c5618a-253d-4437-bce1-62e19f452de7","system_id":"levelo_inurba_marseille","lat":43.30663,"lon":5.40095,"is_reserved":false,"is_disabled":false,"rental_uris":{"android":"levelo://app?vid=83c5618a-253d-4437-bce1-62e19f452de7","ios":"levelo://app?vid=83c5618a-253d-4437-bce1-62e19f452de7"},"vehicle_type_id":"4","last_reported":1767633254,"current_range_meters":2800,"station_id":"ce4bh112rcd13ifvqda0","pricing_plan_id":"cebpf4jnsgd1na2vs0mg"},{"bike_id":"d10b7e7e-9c34-4685-8c8c-ab766cfc897f","system_id":"levelo_inurba_marseille","lat":43.26943,"lon":5.40256,"is_reserved":false,"is_disabled":false,"rental_uris":{"android":"levelo://app?vid=d10b7e7e-9c34-4685-8c8c-ab766cfc897f","ios":"levelo://app?vid=d10b7e7e-9c34-4685-8c8c-ab766cfc897f"},"vehicle_type_id":"4","last_reported":1767633254,"current_range_meters":2800,"station_id":"cjm6bp8fraef2m0cb0m0","pricing_plan_id":"cebpf4jnsgd1na2vs0mg"},{"bike_id":"67d174b0-bcb5-4dac-8999-c52800af2503","system_id":"levelo_inurba_marseille","lat":43.29535,"lon":5.38549,"is_reserved":false,"is_disabled":false,"rental_uris":{"android":"levelo://app?vid=67d174b0-bcb5-4dac-8999-c52800af2503","ios":"levelo://app?vid=67d174b0-bcb5-4dac-8999-c52800af2503"},"vehicle_type_id":"4","last_reported":1767633254,"current_range_meters":2800,"station_id":"ce4bgih2rcd13ifvqba0","pricing_plan_id":"cebpf4jnsgd1na2vs0mg"},{"bike_id":"6f540c1e-e32e-4570-9b20-328e4c7a56d5","system_id":"levelo_inurba_marseille","lat":43.30138,"lon":5.38785,"is_reserved":false,"is_disabled":false,"rental_uris":{"android":"levelo://app?vid=6f540c1e-e32e-4570-9b20-328e4c7a56d5","ios":"levelo://app?vid=6f540c1e-e32e-4570-9b20-328e4c7a56d5"},"vehicle_type_id":"4","last_reported":1767633254,"current_range_meters":2800,"station_id":"ce4bghh2rcd13ifvqb60","pricing_plan_id":"cebpf4jnsgd1na2vs0mg"},{"bike_id":"52027431-8160-4d6e-aaa6-6920729dc1ad","system_id":"levelo_inurba_marseille","lat":43.24161,"lon":5.3639,"is_reserved":false,"is_disabled":false,"rental_uris":{"android":"levelo://app?vid=52027431-8160-4d6e-aaa6-6920729dc1ad","ios":"levelo://app?vid=52027431-8160-4d6e-aaa6-6920729dc1ad"},"vehicle_type_id":"4","last_reported":1767633254,"current_range_meters":2800,"station_id":"cpo36qri1sfpv3e86is0","pricing_plan_id":"cebpf4jnsgd1na2vs0mg"},{"bike_id":"e9f3270a-d88a-4cb3-a37f-6048c91f446c","system_id":"levelo_inurba_marseille","lat":43.26213,"lon":5.37447,"is_reserved":false,"is_disabled":false,"rental_uris":{"android":"levelo://app?vid=e9f3270a-d88a-4cb3-a37f-6048c91f446c","ios":"levelo://app?vid=e9f3270a-d88a-4cb3-a37f-6048c91f446c"},"vehicle_type_id":"4","last_reported":1767633254,"current_range_meters":3200,"station_id":"ce4bhgp2rcd13ifvqfc0","pricing_plan_id":"cebpf4jnsgd1na2vs0mg"},{"bike_id":"020c4f52-cf99-4fc2-9d24-6b95e23efb57","system_id":"levelo_inurba_marseille","lat":43.29795,"lon":5.38105,"is_reserved":false,"is_disabled":false,"rental_uris":{"android":"levelo://app?vid=020c4f52-cf99-4fc2-9d24-6b95e23efb57","ios":"levelo://app?vid=020c4f52-cf99-4fc2-9d24-6b95e23efb57"},"vehicle_type_id":"4","last_reported":1767633254,"current_range_meters":3200,"station_id":"ce4bgip2rcd13ifvqbb0","pricing_plan_id":"cebpf4jnsgd1na2vs0mg"},{"bike_id":"1a77071e-4716-4447-af9b-f676d48fe36a","system_id":"levelo_inurba_marseille","lat":43.2719,"lon":5.39158,"is_reserved":false,"is_disabled":false,"rental_uris":{"android":"levelo://app?vid=1a77071e-4716-4447-af9b-f676d48fe36a","ios":"levelo://app?vid=1a77071e-4716-4447-af9b-f676d48fe36a"},"vehicle_type_id":"4","last_reported":1767633254,"current_range_meters":3200,"station_id":"ce4bhhp2rcd13ifvqfm0","pricing_plan_id":"cebpf4jnsgd1na2vs0mg"},{"bike_id":"ba5a76bc-45fa-4bb8-8caa-0c486fe5063a","system_id":"levelo_inurba_marseille","lat":43.31073,"lon":5.38358,"is_reserved":false,"is_disabled":false,"rental_uris":{"android":"levelo://app?vid=ba5a76bc-45fa-4bb8-8caa-0c486fe5063a","ios":"levelo://app?vid=ba5a76bc-45fa-4bb8-8caa-0c486fe5063a"},"vehicle_type_id":"4","last_reported":1767633254,"current_range_meters":3200,"station_id":"ce4bgv92rcd13ifvqcr0","pricing_plan_id":"cebpf4jnsgd1na2vs0mg"},{"bike_id":"97e09d7f-0f6d-421c-b3a2-d98e3a68d82c","system_id":"levelo_inurba_marseille","lat":43.297058,"lon":5.366023,"is_reserved":false,"is_disabled":false,"rental_uris":{"android":"levelo://app?vid=97e09d7f-0f6d-421c-b3a2-d98e3a68d82c","ios":"levelo://app?vid=97e09d7f-0f6d-421c-b3a2-d98e3a68d82c"},"vehicle_type_id":"4","last_reported":1767633254,"current_range_meters":3200,"station_id":"ce4bgn12rcd13ifvqbt0","pricing_plan_id":"cebpf4jnsgd1na2vs0mg"},{"bike_id":"746607d7-0d50-445a-b435-314ed89afc68","system_id":"levelo_inurba_marseille","lat":43.299,"lon":5.43675,"is_reserved":false,"is_disabled":false,"rental_uris":{"android":"levelo://app?vid=746607d7-0d50-445a-b435-314ed89afc68","ios":"levelo://app?vid=746607d7-0d50-445a-b435-314ed89afc68"},"vehicle_type_id":"4","last_reported":1767633254,"current_range_meters":3200,"station_id":"ce4bhpp2rcd13ifvqhfg","pricing_plan_id":"cebpf4jnsgd1na2vs0mg"},{"bike_id":"4414b758-0283-4379-af43-1182aa629122","system_id":"levelo_inurba_marseille","lat":43.30158,"lon":5.38088,"is_reserved":false,"is_disabled":false,"rental_uris":{"android":"levelo://app?vid=4414b758-0283-4379-af43-1182aa629122","ios":"levelo://app?vid=4414b758-0283-4379-af43-1182aa629122"},"vehicle_type_id":"4","last_reported":1767633254,"current_range_meters":3200,"station_id":"ce4bgjp2rcd13ifvqbh0","pricing_plan_id":"cebpf4jnsgd1na2vs0mg"},{"bike_id":"0967db89-e685-4472-b6a4-b19b7ec1c838","system_id":"levelo_inurba_marseille","lat":43.2954,"lon":5.38545,"is_reserved":false,"is_disabled":false,"rental_uris":{"android":"levelo://app?vid=0967db89-e685-4472-b6a4-b19b7ec1c838","ios":"levelo://app?vid=0967db89-e685-4472-b6a4-b19b7ec1c838"},"vehicle_type_id":"4","last_reported":1767633254,"current_range_meters":3200,"station_id":"ce4bgih2rcd13ifvqba0","pricing_plan_id":"cebpf4jnsgd1na2vs0mg"},{"bike_id":"3bea29dc-bfbc-46d1-b3a6-e2bf44ee4334","system_id":"levelo_inurba_marseille","lat":43.299403,"lon":5.365525,"is_reserved":false,"is_disabled":false,"rental_uris":{"android":"levelo://app?vid=3bea29dc-bfbc-46d1-b3a6-e2bf44ee4334","ios":"levelo://app?vid=3bea29dc-bfbc-46d1-b3a6-e2bf44ee4334"},"vehicle_type_id":"4","last_reported":1767633254,"current_range_meters":3200,"station_id":"ce4bgm92rcd13ifvqbr0","pricing_plan_id":"cebpf4jnsgd1na2vs0mg"},{"bike_id":"f0c1deb2-eba3-4d8c-868f-c557271f2f4f","system_id":"levelo_inurba_marseille","lat":43.286176,"lon":5.351052,"is_reserved":false,"is_disabled":false,"rental_uris":{"android":"levelo://app?vid=f0c1deb2-eba3-4d8c-868f-c557271f2f4f","ios":"levelo://app?vid=f0c1deb2-eba3-4d8c-868f-c557271f2f4f"},"vehicle_type_id":"4","last_reported":1767633254,"current_range_meters":3200,"station_id":"ce4bhch2rcd13ifvqeug","pricing_plan_id":"cebpf4jnsgd1na2vs0mg"},{"bike_id":"00c7a6ac-2e13-4f2c-8afc-d95498fc92fa","system_id":"levelo_inurba_marseille","lat":43.23185,"lon":5.39974,"is_reserved":false,"is_disabled":false,"rental_uris":{"android":"levelo://app?vid=00c7a6ac-2e13-4f2c-8afc-d95498fc92fa","ios":"levelo://app?vid=00c7a6ac-2e13-4f2c-8afc-d95498fc92fa"},"vehicle_type_id":"4","last_reported":1767633254,"current_range_meters":3200,"station_id":"ce4bhn12rcd13ifvqgqg","pricing_plan_id":"cebpf4jnsgd1na2vs0mg"},{"bike_id":"074722cb-2569-4df8-9492-e46ca66ccdc6","system_id":"levelo_inurba_marseille","lat":43.32614,"lon":5.36161,"is_reserved":false,"is_disabled":false,"rental_uris":{"android":"levelo://app?vid=074722cb-2569-4df8-9492-e46ca66ccdc6","ios":"levelo://app?vid=074722cb-2569-4df8-9492-e46ca66ccdc6"},"vehicle_type_id":"4","last_reported":1767633254,"current_range_meters":3600,"station_id":"","pricing_plan_id":"cebpf4jnsgd1na2vs0mg"},{"bike_id":"067249c4-fb35-421e-9a6c-c895241c197a","system_id":"levelo_inurba_marseille","lat":43.29487,"lon":5.39303,"is_reserved":false,"is_disabled":false,"rental_uris":{"android":"levelo://app?vid=067249c4-fb35-421e-9a6c-c895241c197a","ios":"levelo://app?vid=067249c4-fb35-421e-9a6c-c895241c197a"},"vehicle_type_id":"4","last_reported":1767633254,"current_range_meters":3600,"station_id":"","pricing_plan_id":"cebpf4jnsgd1na2vs0mg"},{"bike_id":"088ffd9e-e621-46be-9471-ab036728f8c5","system_id":"levelo_inurba_marseille","lat":43.31066,"lon":5.37185,"is_reserved":false,"is_disabled":true,"rental_uris":{"android":"levelo://app?vid=088ffd9e-e621-46be-9471-ab036728f8c5","ios":"levelo://app?vid=088ffd9e-e621-46be-9471-ab036728f8c5"},"vehicle_type_id":"4","last_reported":1767633254,"current_range_meters":3600,"station_id":"st_d4kl2rp97mjs73e7tdfg","pricing_plan_id":"cebpf4jnsgd1na2vs0mg"},{"bike_id":"76d22b38-8bcf-4503-88b0-6fc73440ea3f","system_id":"levelo_inurba_marseille","lat":43.25111,"lon":5.40316,"is_reserved":false,"is_disabled":false,"rental_uris":{"android":"levelo://app?vid=76d22b38-8bcf-4503-88b0-6fc73440ea3f","ios":"levelo://app?vid=76d22b38-8bcf-4503-88b0-6fc73440ea3f"},"vehicle_type_id":"4","last_reported":1767633254,"current_range_meters":3600,"station_id":"ce4bhlh2rcd13ifvqgig","pricing_plan_id":"cebpf4jnsgd1na2vs0mg"},{"bike_id":"63447985-41e3-43a3-92a4-1e959fa40808","system_id":"levelo_inurba_marseille","lat":43.26573,"lon":5.40333,"is_reserved":false,"is_disabled":false,"rental_uris":{"android":"levelo://app?vid=63447985-41e3-43a3-92a4-1e959fa40808","ios":"levelo://app?vid=63447985-41e3-43a3-92a4-1e959fa40808"},"vehicle_type_id":"4","last_reported":1767633254,"current_range_meters":3600,"station_id":"ce4bhmp2rcd13ifvqgng","pricing_plan_id":"cebpf4jnsgd1na2vs0mg"},{"bike_id":"5014b05c-d59c-4f78-a8b0-81a9c672d74c","system_id":"levelo_inurba_marseille","lat":43.25724,"lon":5.41107,"is_reserved":false,"is_disabled":false,"rental_uris":{"android":"levelo://app?vid=5014b05c-d59c-4f78-a8b0-81a9c672d74c","ios":"levelo://app?vid=5014b05c-d59c-4f78-a8b0-81a9c672d74c"},"vehicle_type_id":"4","last_reported":1767633254,"current_range_meters":3600,"station_id":"ce4bhkp2rcd13ifvqgd0","pricing_plan_id":"cebpf4jnsgd1na2vs0mg"},{"bike_id":"ecfba3ac-804e-418b-a7fa-cc102335e836","system_id":"levelo_inurba_marseille","lat":43.30308,"lon":5.45647,"is_reserved":false,"is_disabled":false,"rental_uris":{"android":"levelo://app?vid=ecfba3ac-804e-418b-a7fa-cc102335e836","ios":"levelo://app?vid=ecfba3ac-804e-418b-a7fa-cc102335e836"},"vehicle_type_id":"4","last_reported":1767633254,"current_range_meters":3600,"station_id":"","pricing_plan_id":"cebpf4jnsgd1na2vs0mg"},{"bike_id":"f31f3e17-cf7a-4f42-808d-0e0150645da8","system_id":"levelo_inurba_marseille","lat":43.27665,"lon":5.38881,"is_reserved":false,"is_disabled":false,"rental_uris":{"android":"levelo://app?vid=f31f3e17-cf7a-4f42-808d-0e0150645da8","ios":"levelo://app?vid=f31f3e17-cf7a-4f42-808d-0e0150645da8"},"vehicle_type_id":"4","last_reported":1767633254,"current_range_meters":3600,"station_id":"ce4bhi12rcd13ifvqfo0","pricing_plan_id":"cebpf4jnsgd1na2vs0mg"},{"bike_id":"efd33062-2cef-445f-af98-648f578e9c2a","system_id":"levelo_inurba_marseille","lat":43.32622,"lon":5.41931,"is_reserved":false,"is_disabled":false,"rental_uris":{"android":"levelo://app?vid=efd33062-2cef-445f-af98-648f578e9c2a","ios":"levelo://app?vid=efd33062-2cef-445f-af98-648f578e9c2a"},"vehicle_type_id":"4","last_reported":1767633254,"current_range_meters":4000,"station_id":"","pricing_plan_id":"cebpf4jnsgd1na2vs0mg"},{"bike_id":"6362d2e9-b1aa-4dc0-b92d-936be0445a44","system_id":"levelo_inurba_marseille","lat":43.247757,"lon":5.37418,"is_reserved":false,"is_disabled":false,"rental_uris":{"android":"levelo://app?vid=6362d2e9-b1aa-4dc0-b92d-936be0445a44","ios":"levelo://app?vid=6362d2e9-b1aa-4dc0-b92d-936be0445a44"},"vehicle_type_id":"4","last_reported":1767633254,"current_range_meters":4000,"station_id":"","pricing_plan_id":"cebpf4jnsgd1na2vs0mg"},{"bike_id":"8ae8aa90-6781-4222-83c0-e5413db72fc6","system_id":"levelo_inurba_marseille","lat":43.29575,"lon":5.39971,"is_reserved":false,"is_disabled":false,"rental_uris":{"android":"levelo://app?vid=8ae8aa90-6781-4222-83c0-e5413db72fc6","ios":"levelo://app?vid=8ae8aa90-6781-4222-83c0-e5413db72fc6"},"vehicle_type_id":"4","last_reported":1767633254,"current_range_meters":4000,"station_id":"ce4bh312rcd13ifvqdj0","pricing_plan_id":"cebpf4jnsgd1na2vs0mg"},{"bike_id":"ea433994-4165-420a-9223-37582f30485d","system_id":"levelo_inurba_marseille","lat":43.30642,"lon":5.37572,"is_reserved":false,"is_disabled":false,"rental_uris":{"android":"levelo://app?vid=ea433994-4165-420a-9223-37582f30485d","ios":"levelo://app?vid=ea433994-4165-420a-9223-37582f30485d"},"vehicle_type_id":"4","last_reported":1767633254,"current_range_meters":4000,"station_id":"","pricing_plan_id":"cebpf4jnsgd1na2vs0mg"},{"bike_id":"8e000377-6bb2-46ca-84e4-f3d2a4baf08c","system_id":"levelo_inurba_marseille","lat":43.239629,"lon":5.366348,"is_reserved":false,"is_disabled":false,"rental_uris":{"android":"levelo://app?vid=8e000377-6bb2-46ca-84e4-f3d2a4baf08c","ios":"levelo://app?vid=8e000377-6bb2-46ca-84e4-f3d2a4baf08c"},"vehicle_type_id":"4","last_reported":1767633254,"current_range_meters":4000,"station_id":"ce4bhi12rcd13ifvqfp0","pricing_plan_id":"cebpf4jnsgd1na2vs0mg"},{"bike_id":"0a6c364f-d804-4fee-9be9-784bf5cc774d","system_id":"levelo_inurba_marseille","lat":43.29008,"lon":5.35616,"is_reserved":false,"is_disabled":false,"rental_uris":{"android":"levelo://app?vid=0a6c364f-d804-4fee-9be9-784bf5cc774d","ios":"levelo://app?vid=0a6c364f-d804-4fee-9be9-784bf5cc774d"},"vehicle_type_id":"4","last_reported":1767633254,"current_range_meters":4000,"station_id":"ce4bhb92rcd13ifvqen0","pricing_plan_id":"cebpf4jnsgd1na2vs0mg"},{"bike_id":"7552c46c-a04b-4659-9dd9-77ff8200c7e9","system_id":"levelo_inurba_marseille","lat":43.30322,"lon":5.36898,"is_reserved":false,"is_disabled":false,"rental_uris":{"android":"levelo://app?vid=7552c46c-a04b-4659-9dd9-77ff8200c7e9","ios":"levelo://app?vid=7552c46c-a04b-4659-9dd9-77ff8200c7e9"},"vehicle_type_id":"4","last_reported":1767633254,"current_range_meters":4000,"station_id":"ce4bgqh2rcd13ifvqc5g","pricing_plan_id":"cebpf4jnsgd1na2vs0mg"},{"bike_id":"f37c8ab2-4055-4d0c-bc22-679bade32c8c","system_id":"levelo_inurba_marseille","lat":43.30678,"lon":5.37219,"is_reserved":false,"is_disabled":false,"rental_uris":{"android":"levelo://app?vid=f37c8ab2-4055-4d0c-bc22-679bade32c8c","ios":"levelo://app?vid=f37c8ab2-4055-4d0c-bc22-679bade32c8c"},"vehicle_type_id":"4","last_reported":1767633254,"current_range_meters":4000,"station_id":"","pricing_plan_id":"cebpf4jnsgd1na2vs0mg"},{"bike_id":"c966fa7f-540d-4e2a-bc2b-5644b9dfd18d","system_id":"levelo_inurba_marseille","lat":43.30557,"lon":5.36684,"is_reserved":false,"is_disabled":false,"rental_uris":{"android":"levelo://app?vid=c966fa7f-540d-4e2a-bc2b-5644b9dfd18d","ios":"levelo://app?vid=c966fa7f-540d-4e2a-bc2b-5644b9dfd18d"},"vehicle_type_id":"4","last_reported":1767633254,"current_range_meters":4000,"station_id":"ce4bgrp2rcd13ifvqc9g","pricing_plan_id":"cebpf4jnsgd1na2vs0mg"},{"bike_id":"278b026d-7c90-4296-9421-3e0684d777fa","system_id":"levelo_inurba_marseille","lat":43.29706,"lon":5.376858,"is_reserved":false,"is_disabled":false,"rental_uris":{"android":"levelo://app?vid=278b026d-7c90-4296-9421-3e0684d777fa","ios":"levelo://app?vid=278b026d-7c90-4296-9421-3e0684d777fa"},"vehicle_type_id":"4","last_reported":1767633254,"current_range_meters":4000,"station_id":"ce4bgkh2rcd13ifvqbl0","pricing_plan_id":"cebpf4jnsgd1na2vs0mg"},{"bike_id":"9b4021cf-15f5-49ee-bfc4-492922ebf4c9","system_id":"levelo_inurba_marseille","lat":43.30311,"lon":5.37296,"is_reserved":false,"is_disabled":false,"rental_uris":{"android":"levelo://app?vid=9b4021cf-15f5-49ee-bfc4-492922ebf4c9","ios":"levelo://app?vid=9b4021cf-15f5-49ee-bfc4-492922ebf4c9"},"vehicle_type_id":"4","last_reported":1767633254,"current_range_meters":4000,"station_id":"","pricing_plan_id":"cebpf4jnsgd1na2vs0mg"},{"bike_id":"5f1c2fc2-8ce9-40ca-b90b-4d0952e524f8","system_id":"levelo_inurba_marseille","lat":43.30907,"lon":5.36844,"is_reserved":false,"is_disabled":false,"rental_uris":{"android":"levelo://app?vid=5f1c2fc2-8ce9-40ca-b90b-4d0952e524f8","ios":"levelo://app?vid=5f1c2fc2-8ce9-40ca-b90b-4d0952e524f8"},"vehicle_type_id":"4","last_reported":1767633254,"current_range_meters":4000,"station_id":"ce4bgn92rcd13ifvqbvg","pricing_plan_id":"cebpf4jnsgd1na2vs0mg"},{"bike_id":"fa425a2b-b01f-4040-b6da-de1021f8b95c","system_id":"levelo_inurba_marseille","lat":43.29448,"lon":5.37921,"is_reserved":false,"is_disabled":false,"rental_uris":{"android":"levelo://app?vid=fa425a2b-b01f-4040-b6da-de1021f8b95c","ios":"levelo://app?vid=fa425a2b-b01f-4040-b6da-de1021f8b95c"},"vehicle_type_id":"4","last_reported":1767633254,"current_range_meters":4400,"station_id":"","pricing_plan_id":"cebpf4jnsgd1na2vs0mg"},{"bike_id":"ee777e48-7b1d-477a-8aa7-246572e50a4f","system_id":"levelo_inurba_marseille","lat":43.23784,"lon":5.36633,"is_reserved":false,"is_disabled":false,"rental_uris":{"android":"levelo://app?vid=ee777e48-7b1d-477a-8aa7-246572e50a4f","ios":"levelo://app?vid=ee777e48-7b1d-477a-8aa7-246572e50a4f"},"vehicle_type_id":"4","last_reported":1767633254,"current_range_meters":4400,"station_id":"st_d3nk18o9ro0c73en2l3g","pricing_plan_id":"cebpf4jnsgd1na2vs0mg"},{"bike_id":"3fedbda4-18fb-4459-8990-789e6012cbd1","system_id":"levelo_inurba_marseille","lat":43.29382,"lon":5.3786,"is_reserved":false,"is_disabled":false,"rental_uris":{"android":"levelo://app?vid=3fedbda4-18fb-4459-8990-789e6012cbd1","ios":"levelo://app?vid=3fedbda4-18fb-4459-8990-789e6012cbd1"},"vehicle_type_id":"4","last_reported":1767633254,"current_range_meters":4400,"station_id":"ce4bgjh2rcd13ifvqbf0","pricing_plan_id":"cebpf4jnsgd1na2vs0mg"},{"bike_id":"f9841b6f-46e7-447f-a46b-342ae756d9ac","system_id":"levelo_inurba_marseille","lat":43.27221,"lon":5.39163,"is_reserved":false,"is_disabled":false,"rental_uris":{"android":"levelo://app?vid=f9841b6f-46e7-447f-a46b-342ae756d9ac","ios":"levelo://app?vid=f9841b6f-46e7-447f-a46b-342ae756d9ac"},"vehicle_type_id":"4","last_reported":1767633254,"current_range_meters":4400,"station_id":"ce4bhhp2rcd13ifvqfm0","pricing_plan_id":"cebpf4jnsgd1na2vs0mg"},{"bike_id":"225bdd2a-0ec2-4312-a816-23bf65227ab6","system_id":"levelo_inurba_marseille","lat":43.263727,"lon":5.410842,"is_reserved":false,"is_disabled":false,"rental_uris":{"android":"levelo://app?vid=225bdd2a-0ec2-4312-a816-23bf65227ab6","ios":"levelo://app?vid=225bdd2a-0ec2-4312-a816-23bf65227ab6"},"vehicle_type_id":"4","last_reported":1767633254,"current_range_meters":4400,"station_id":"","pricing_plan_id":"cebpf4jnsgd1na2vs0mg"},{"bike_id":"20600a83-ffb2-4ea6-adcc-6f03f7742df5","system_id":"levelo_inurba_marseille","lat":43.270635,"lon":5.422861,"is_reserved":false,"is_disabled":false,"rental_uris":{"android":"levelo://app?vid=20600a83-ffb2-4ea6-adcc-6f03f7742df5","ios":"levelo://app?vid=20600a83-ffb2-4ea6-adcc-6f03f7742df5"},"vehicle_type_id":"4","last_reported":1767633254,"current_range_meters":4400,"station_id":"ce4bhk92rcd13ifvqgb0","pricing_plan_id":"cebpf4jnsgd1na2vs0mg"},{"bike_id":"61bede02-2851-4fcf-827d-afeac7ac0523","system_id":"levelo_inurba_marseille","lat":43.29858,"lon":5.3766,"is_reserved":false,"is_disabled":false,"rental_uris":{"android":"levelo://app?vid=61bede02-2851-4fcf-827d-afeac7ac0523","ios":"levelo://app?vid=61bede02-2851-4fcf-827d-afeac7ac0523"},"vehicle_type_id":"4","last_reported":1767633254,"current_range_meters":4400,"station_id":"ce4bhr92rcd13ifvqhrg","pricing_plan_id":"cebpf4jnsgd1na2vs0mg"},{"bike_id":"38478ce1-a447-4641-99f3-89c5bb836bdb","system_id":"levelo_inurba_marseille","lat":43.27428,"lon":5.41861,"is_reserved":false,"is_disabled":false,"rental_uris":{"android":"levelo://app?vid=38478ce1-a447-4641-99f3-89c5bb836bdb","ios":"levelo://app?vid=38478ce1-a447-4641-99f3-89c5bb836bdb"},"vehicle_type_id":"4","last_reported":1767633254,"current_range_meters":4400,"station_id":"","pricing_plan_id":"cebpf4jnsgd1na2vs0mg"},{"bike_id":"ce5b50c4-8b7f-4836-923c-9b6bb4694e91","system_id":"levelo_inurba_marseille","lat":43.29911,"lon":5.37562,"is_reserved":false,"is_disabled":false,"rental_uris":{"android":"levelo://app?vid=ce5b50c4-8b7f-4836-923c-9b6bb4694e91","ios":"levelo://app?vid=ce5b50c4-8b7f-4836-923c-9b6bb4694e91"},"vehicle_type_id":"4","last_reported":1767633254,"current_range_meters":4400,"station_id":"","pricing_plan_id":"cebpf4jnsgd1na2vs0mg"},{"bike_id":"6931475d-2e9f-45d6-89bf-e7806014b592","system_id":"levelo_inurba_marseille","lat":43.30783,"lon":5.37638,"is_reserved":false,"is_disabled":true,"rental_uris":{"android":"levelo://app?vid=6931475d-2e9f-45d6-89bf-e7806014b592","ios":"levelo://app?vid=6931475d-2e9f-45d6-89bf-e7806014b592"},"vehicle_type_id":"4","last_reported":1767633254,"current_range_meters":4800,"station_id":"ce4bgv92rcd13ifvqcq0","pricing_plan_id":"cebpf4jnsgd1na2vs0mg"},{"bike_id":"3115bbd7-1c85-4603-a617-db0a037ecab5","system_id":"levelo_inurba_marseille","lat":43.29408,"lon":5.43275,"is_reserved":false,"is_disabled":false,"rental_uris":{"android":"levelo://app?vid=3115bbd7-1c85-4603-a617-db0a037ecab5","ios":"levelo://app?vid=3115bbd7-1c85-4603-a617-db0a037ecab5"},"vehicle_type_id":"4","last_reported":1767633254,"current_range_meters":4800,"station_id":"","pricing_plan_id":"cebpf4jnsgd1na2vs0mg"},{"bike_id":"0e471836-29c5-4d70-93bc-4b375d486538","system_id":"levelo_inurba_marseille","lat":43.29462,"lon":5.39713,"is_reserved":false,"is_disabled":false,"rental_uris":{"android":"levelo://app?vid=0e471836-29c5-4d70-93bc-4b375d486538","ios":"levelo://app?vid=0e471836-29c5-4d70-93bc-4b375d486538"},"vehicle_type_id":"4","last_reported":1767633254,"current_range_meters":4800,"station_id":"ce4bh3h2rcd13ifvqdo0","pricing_plan_id":"cebpf4jnsgd1na2vs0mg"},{"bike_id":"86f4117e-bfd7-4a5f-b403-eeb9a7153bb3","system_id":"levelo_inurba_marseille","lat":43.225324,"lon":5.348299,"is_reserved":false,"is_disabled":false,"rental_uris":{"android":"levelo://app?vid=86f4117e-bfd7-4a5f-b403-eeb9a7153bb3","ios":"levelo://app?vid=86f4117e-bfd7-4a5f-b403-eeb9a7153bb3"},"vehicle_type_id":"4","last_reported":1767633254,"current_range_meters":4800,"station_id":"","pricing_plan_id":"cebpf4jnsgd1na2vs0mg"},{"bike_id":"8f67289a-c445-41d3-a7c1-2b5874f96ec2","system_id":"levelo_inurba_marseille","lat":43.31329,"lon":5.40446,"is_reserved":false,"is_disabled":false,"rental_uris":{"android":"levelo://app?vid=8f67289a-c445-41d3-a7c1-2b5874f96ec2","ios":"levelo://app?vid=8f67289a-c445-41d3-a7c1-2b5874f96ec2"},"vehicle_type_id":"4","last_reported":1767633254,"current_range_meters":4800,"station_id":"","pricing_plan_id":"cebpf4jnsgd1na2vs0mg"},{"bike_id":"aa9d2dca-7259-4050-90ca-43e6e4bfab10","system_id":"levelo_inurba_marseille","lat":43.29534,"lon":5.39045,"is_reserved":false,"is_disabled":false,"rental_uris":{"android":"levelo://app?vid=aa9d2dca-7259-4050-90ca-43e6e4bfab10","ios":"levelo://app?vid=aa9d2dca-7259-4050-90ca-43e6e4bfab10"},"vehicle_type_id":"4","last_reported":1767633254,"current_range_meters":4800,"station_id":"ce4bh3p2rcd13ifvqdp0","pricing_plan_id":"cebpf4jnsgd1na2vs0mg"},{"bike_id":"14b8832b-01e3-4c37-bf12-31d75ee4706f","system_id":"levelo_inurba_marseille","lat":43.30135,"lon":5.38785,"is_reserved":false,"is_disabled":false,"rental_uris":{"android":"levelo://app?vid=14b8832b-01e3-4c37-bf12-31d75ee4706f","ios":"levelo://app?vid=14b8832b-01e3-4c37-bf12-31d75ee4706f"},"vehicle_type_id":"4","last_reported":1767633254,"current_range_meters":4800,"station_id":"ce4bghh2rcd13ifvqb60","pricing_plan_id":"cebpf4jnsgd1na2vs0mg"},{"bike_id":"a760cecb-cecf-4e00-b774-d875d9bc98d9","system_id":"levelo_inurba_marseille","lat":43.25821,"lon":5.3943,"is_reserved":false,"is_disabled":false,"rental_uris":{"android":"levelo://app?vid=a760cecb-cecf-4e00-b774-d875d9bc98d9","ios":"levelo://app?vid=a760cecb-cecf-4e00-b774-d875d9bc98d9"},"vehicle_type_id":"4","last_reported":1767633254,"current_range_meters":4800,"station_id":"ce4bhip2rcd13ifvqft0","pricing_plan_id":"cebpf4jnsgd1na2vs0mg"},{"bike_id":"1448aa72-9c17-4619-b6e4-5401226ce27b","system_id":"levelo_inurba_marseille","lat":43.24161,"lon":5.39725,"is_reserved":false,"is_disabled":false,"rental_uris":{"android":"levelo://app?vid=1448aa72-9c17-4619-b6e4-5401226ce27b","ios":"levelo://app?vid=1448aa72-9c17-4619-b6e4-5401226ce27b"},"vehicle_type_id":"4","last_reported":1767633254,"current_range_meters":4800,"station_id":"ce4bhn12rcd13ifvqgpg","pricing_plan_id":"cebpf4jnsgd1na2vs0mg"},{"bike_id":"8c3e87fb-1d28-47b4-8c2c-d2b9f5aa74c7","system_id":"levelo_inurba_marseille","lat":43.28157,"lon":5.4265,"is_reserved":false,"is_disabled":false,"rental_uris":{"android":"levelo://app?vid=8c3e87fb-1d28-47b4-8c2c-d2b9f5aa74c7","ios":"levelo://app?vid=8c3e87fb-1d28-47b4-8c2c-d2b9f5aa74c7"},"vehicle_type_id":"4","last_reported":1767633254,"current_range_meters":4800,"station_id":"ce4bhnh2rcd13ifvqgug","pricing_plan_id":"cebpf4jnsgd1na2vs0mg"},{"bike_id":"22766950-f9ca-4924-a2bb-55d566040799","system_id":"levelo_inurba_marseille","lat":43.2575,"lon":5.41078,"is_reserved":false,"is_disabled":false,"rental_uris":{"android":"levelo://app?vid=22766950-f9ca-4924-a2bb-55d566040799","ios":"levelo://app?vid=22766950-f9ca-4924-a2bb-55d566040799"},"vehicle_type_id":"4","last_reported":1767633254,"current_range_meters":4800,"station_id":"ce4bhkp2rcd13ifvqgd0","pricing_plan_id":"cebpf4jnsgd1na2vs0mg"},{"bike_id":"7320252b-d479-4819-9a8b-85aa365a8f12","system_id":"levelo_inurba_marseille","lat":43.28707,"lon":5.39964,"is_reserved":false,"is_disabled":false,"rental_uris":{"android":"levelo://app?vid=7320252b-d479-4819-9a8b-85aa365a8f12","ios":"levelo://app?vid=7320252b-d479-4819-9a8b-85aa365a8f12"},"vehicle_type_id":"4","last_reported":1767633254,"current_range_meters":4800,"station_id":"ce4bho92rcd13ifvqh3g","pricing_plan_id":"cebpf4jnsgd1na2vs0mg"},{"bike_id":"b638425e-f8e4-49a1-9c09-1fc288c24970","system_id":"levelo_inurba_marseille","lat":43.32379,"lon":5.36702,"is_reserved":false,"is_disabled":false,"rental_uris":{"android":"levelo://app?vid=b638425e-f8e4-49a1-9c09-1fc288c24970","ios":"levelo://app?vid=b638425e-f8e4-49a1-9c09-1fc288c24970"},"vehicle_type_id":"4","last_reported":1767633254,"current_range_meters":4800,"station_id":"ce4bhsh2rcd13ifvqi2g","pricing_plan_id":"cebpf4jnsgd1na2vs0mg"},{"bike_id":"689e1e25-96b9-418c-bbe1-0e8f9558c52f","system_id":"levelo_inurba_marseille","lat":43.3135,"lon":5.37608,"is_reserved":false,"is_disabled":false,"rental_uris":{"android":"levelo://app?vid=689e1e25-96b9-418c-bbe1-0e8f9558c52f","ios":"levelo://app?vid=689e1e25-96b9-418c-bbe1-0e8f9558c52f"},"vehicle_type_id":"4","last_reported":1767633254,"current_range_meters":4800,"station_id":"","pricing_plan_id":"cebpf4jnsgd1na2vs0mg"},{"bike_id":"2d00e765-c5e3-4921-bdc3-7b346757eae1","system_id":"levelo_inurba_marseille","lat":43.28342,"lon":5.433,"is_reserved":false,"is_disabled":false,"rental_uris":{"android":"levelo://app?vid=2d00e765-c5e3-4921-bdc3-7b346757eae1","ios":"levelo://app?vid=2d00e765-c5e3-4921-bdc3-7b346757eae1"},"vehicle_type_id":"4","last_reported":1767633254,"current_range_meters":5600,"station_id":"","pricing_plan_id":"cebpf4jnsgd1na2vs0mg"},{"bike_id":"86faa162-be29-40c3-8b00-279e3ab5b23d","system_id":"levelo_inurba_marseille","lat":43.29531,"lon":5.38542,"is_reserved":false,"is_disabled":false,"rental_uris":{"android":"levelo://app?vid=86faa162-be29-40c3-8b00-279e3ab5b23d","ios":"levelo://app?vid=86faa162-be29-40c3-8b00-279e3ab5b23d"},"vehicle_type_id":"4","last_reported":1767633254,"current_range_meters":5600,"station_id":"ce4bgih2rcd13ifvqba0","pricing_plan_id":"cebpf4jnsgd1na2vs0mg"},{"bike_id":"3f8b91dc-4190-44ac-a53a-0db98b9d9ad9","system_id":"levelo_inurba_marseille","lat":43.24401,"lon":5.37061,"is_reserved":false,"is_disabled":false,"rental_uris":{"android":"levelo://app?vid=3f8b91dc-4190-44ac-a53a-0db98b9d9ad9","ios":"levelo://app?vid=3f8b91dc-4190-44ac-a53a-0db98b9d9ad9"},"vehicle_type_id":"4","last_reported":1767633254,"current_range_meters":5600,"station_id":"ce4bhhh2rcd13ifvqfk0","pricing_plan_id":"cebpf4jnsgd1na2vs0mg"},{"bike_id":"ec2e2d97-541d-4f0e-9289-f85c25486ad3","system_id":"levelo_inurba_marseille","lat":43.25723,"lon":5.41119,"is_reserved":false,"is_disabled":false,"rental_uris":{"android":"levelo://app?vid=ec2e2d97-541d-4f0e-9289-f85c25486ad3","ios":"levelo://app?vid=ec2e2d97-541d-4f0e-9289-f85c25486ad3"},"vehicle_type_id":"4","last_reported":1767633254,"current_range_meters":5600,"station_id":"ce4bhkp2rcd13ifvqgd0","pricing_plan_id":"cebpf4jnsgd1na2vs0mg"},{"bike_id":"5a9e09f7-e0a5-435b-8c57-47f591f3b9ad","system_id":"levelo_inurba_marseille","lat":43.28719,"lon":5.39993,"is_reserved":false,"is_disabled":false,"rental_uris":{"android":"levelo://app?vid=5a9e09f7-e0a5-435b-8c57-47f591f3b9ad","ios":"levelo://app?vid=5a9e09f7-e0a5-435b-8c57-47f591f3b9ad"},"vehicle_type_id":"4","last_reported":1767633254,"current_range_meters":5600,"station_id":"ce4bho92rcd13ifvqh3g","pricing_plan_id":"cebpf4jnsgd1na2vs0mg"},{"bike_id":"baa79fc4-2655-4469-8f14-c5bbb27af8fc","system_id":"levelo_inurba_marseille","lat":43.2769,"lon":5.38912,"is_reserved":false,"is_disabled":false,"rental_uris":{"android":"levelo://app?vid=baa79fc4-2655-4469-8f14-c5bbb27af8fc","ios":"levelo://app?vid=baa79fc4-2655-4469-8f14-c5bbb27af8fc"},"vehicle_type_id":"4","last_reported":1767633254,"current_range_meters":5600,"station_id":"ce4bhi12rcd13ifvqfo0","pricing_plan_id":"cebpf4jnsgd1na2vs0mg"},{"bike_id":"8f7026e6-c4fc-4844-b573-728bb13a01c6","system_id":"levelo_inurba_marseille","lat":43.30807,"lon":5.38158,"is_reserved":false,"is_disabled":false,"rental_uris":{"android":"levelo://app?vid=8f7026e6-c4fc-4844-b573-728bb13a01c6","ios":"levelo://app?vid=8f7026e6-c4fc-4844-b573-728bb13a01c6"},"vehicle_type_id":"4","last_reported":1767633254,"current_range_meters":5600,"station_id":"ce4bgt12rcd13ifvqce0","pricing_plan_id":"cebpf4jnsgd1na2vs0mg"},{"bike_id":"72945446-b12b-4f8c-ac97-7d8383552220","system_id":"levelo_inurba_marseille","lat":43.30813,"lon":5.38172,"is_reserved":false,"is_disabled":false,"rental_uris":{"android":"levelo://app?vid=72945446-b12b-4f8c-ac97-7d8383552220","ios":"levelo://app?vid=72945446-b12b-4f8c-ac97-7d8383552220"},"vehicle_type_id":"4","last_reported":1767633254,"current_range_meters":5600,"station_id":"ce4bgt12rcd13ifvqce0","pricing_plan_id":"cebpf4jnsgd1na2vs0mg"},{"bike_id":"edbb502a-babb-4b56-b7b2-69e8e10c7c11","system_id":"levelo_inurba_marseille","lat":43.2852,"lon":5.48363,"is_reserved":false,"is_disabled":false,"rental_uris":{"android":"levelo://app?vid=edbb502a-babb-4b56-b7b2-69e8e10c7c11","ios":"levelo://app?vid=edbb502a-babb-4b56-b7b2-69e8e10c7c11"},"vehicle_type_id":"4","last_reported":1767633254,"current_range_meters":5600,"station_id":"","pricing_plan_id":"cebpf4jnsgd1na2vs0mg"},{"bike_id":"27deac45-e711-41b2-b7a5-98c7278bfea1","system_id":"levelo_inurba_marseille","lat":43.25345,"lon":5.42169,"is_reserved":false,"is_disabled":false,"rental_uris":{"android":"levelo://app?vid=27deac45-e711-41b2-b7a5-98c7278bfea1","ios":"levelo://app?vid=27deac45-e711-41b2-b7a5-98c7278bfea1"},"vehicle_type_id":"4","last_reported":1767633254,"current_range_meters":5600,"station_id":"st_d2m65c5bi1j21697t3ng","pricing_plan_id":"cebpf4jnsgd1na2vs0mg"},{"bike_id":"59bca459-f8ba-4ca0-be09-8ae241edab81","system_id":"levelo_inurba_marseille","lat":43.333385,"lon":5.411395,"is_reserved":false,"is_disabled":false,"rental_uris":{"android":"levelo://app?vid=59bca459-f8ba-4ca0-be09-8ae241edab81","ios":"levelo://app?vid=59bca459-f8ba-4ca0-be09-8ae241edab81"},"vehicle_type_id":"4","last_reported":1767633254,"current_range_meters":5600,"station_id":"","pricing_plan_id":"cebpf4jnsgd1na2vs0mg"},{"bike_id":"2a4eee09-2b8e-496c-b029-5a913b17bfd3","system_id":"levelo_inurba_marseille","lat":43.33026,"lon":5.39048,"is_reserved":false,"is_disabled":false,"rental_uris":{"android":"levelo://app?vid=2a4eee09-2b8e-496c-b029-5a913b17bfd3","ios":"levelo://app?vid=2a4eee09-2b8e-496c-b029-5a913b17bfd3"},"vehicle_type_id":"4","last_reported":1767633254,"current_range_meters":5600,"station_id":"ce4bhr92rcd13ifvqhrg","pricing_plan_id":"cebpf4jnsgd1na2vs0mg"},{"bike_id":"711ac434-d9f1-4681-9ad2-e83d5d14d99b","system_id":"levelo_inurba_marseille","lat":43.295999,"lon":5.367957,"is_reserved":false,"is_disabled":false,"rental_uris":{"android":"levelo://app?vid=711ac434-d9f1-4681-9ad2-e83d5d14d99b","ios":"levelo://app?vid=711ac434-d9f1-4681-9ad2-e83d5d14d99b"},"vehicle_type_id":"4","last_reported":1767633254,"current_range_meters":5600,"station_id":"ce4bgph2rcd13ifvqc2g","pricing_plan_id":"cebpf4jnsgd1na2vs0mg"},{"bike_id":"9eb9f2a9-0def-423d-bc04-f48d9e280ab5","system_id":"levelo_inurba_marseille","lat":43.30537,"lon":5.36708,"is_reserved":false,"is_disabled":false,"rental_uris":{"android":"levelo://app?vid=9eb9f2a9-0def-423d-bc04-f48d9e280ab5","ios":"levelo://app?vid=9eb9f2a9-0def-423d-bc04-f48d9e280ab5"},"vehicle_type_id":"4","last_reported":1767633254,"current_range_meters":6000,"station_id":"ce4bgrp2rcd13ifvqc9g","pricing_plan_id":"cebpf4jnsgd1na2vs0mg"},{"bike_id":"9295671d-6c32-4a20-bf7d-90b90d74d484","system_id":"levelo_inurba_marseille","lat":43.28463,"lon":5.35883,"is_reserved":false,"is_disabled":false,"rental_uris":{"android":"levelo://app?vid=9295671d-6c32-4a20-bf7d-90b90d74d484","ios":"levelo://app?vid=9295671d-6c32-4a20-bf7d-90b90d74d484"},"vehicle_type_id":"4","last_reported":1767633254,"current_range_meters":6000,"station_id":"ce4bhah2rcd13ifvqei0","pricing_plan_id":"cebpf4jnsgd1na2vs0mg"},{"bike_id":"d7927a0c-acc6-4dbc-b121-3fe1c24d45cd","system_id":"levelo_inurba_marseille","lat":43.23954,"lon":5.3662,"is_reserved":false,"is_disabled":false,"rental_uris":{"android":"levelo://app?vid=d7927a0c-acc6-4dbc-b121-3fe1c24d45cd","ios":"levelo://app?vid=d7927a0c-acc6-4dbc-b121-3fe1c24d45cd"},"vehicle_type_id":"4","last_reported":1767633254,"current_range_meters":6000,"station_id":"ce4bhi12rcd13ifvqfp0","pricing_plan_id":"cebpf4jnsgd1na2vs0mg"},{"bike_id":"6ee431c7-4e74-4dd8-ad5d-c3ceb8300bdd","system_id":"levelo_inurba_marseille","lat":43.292,"lon":5.358148,"is_reserved":false,"is_disabled":false,"rental_uris":{"android":"levelo://app?vid=6ee431c7-4e74-4dd8-ad5d-c3ceb8300bdd","ios":"levelo://app?vid=6ee431c7-4e74-4dd8-ad5d-c3ceb8300bdd"},"vehicle_type_id":"4","last_reported":1767633254,"current_range_meters":6000,"station_id":"ce4bhb12rcd13ifvqel0","pricing_plan_id":"cebpf4jnsgd1na2vs0mg"},{"bike_id":"2a61f7a8-d2f7-4b6f-8828-528b5bab141c","system_id":"levelo_inurba_marseille","lat":43.27192,"lon":5.40979,"is_reserved":false,"is_disabled":false,"rental_uris":{"android":"levelo://app?vid=2a61f7a8-d2f7-4b6f-8828-528b5bab141c","ios":"levelo://app?vid=2a61f7a8-d2f7-4b6f-8828-528b5bab141c"},"vehicle_type_id":"4","last_reported":1767633254,"current_range_meters":6000,"station_id":"ce4bhl12rcd13ifvqgf0","pricing_plan_id":"cebpf4jnsgd1na2vs0mg"},{"bike_id":"3bc151a5-6a42-4f15-984e-e4dbbdbf3b09","system_id":"levelo_inurba_marseille","lat":43.32339,"lon":5.36739,"is_reserved":false,"is_disabled":false,"rental_uris":{"android":"levelo://app?vid=3bc151a5-6a42-4f15-984e-e4dbbdbf3b09","ios":"levelo://app?vid=3bc151a5-6a42-4f15-984e-e4dbbdbf3b09"},"vehicle_type_id":"4","last_reported":1767633254,"current_range_meters":6000,"station_id":"ce4bhsh2rcd13ifvqi2g","pricing_plan_id":"cebpf4jnsgd1na2vs0mg"},{"bike_id":"994facd5-7149-4513-b00c-c956125f8a82","system_id":"levelo_inurba_marseille","lat":43.27077,"lon":5.42286,"is_reserved":false,"is_disabled":false,"rental_uris":{"android":"levelo://app?vid=994facd5-7149-4513-b00c-c956125f8a82","ios":"levelo://app?vid=994facd5-7149-4513-b00c-c956125f8a82"},"vehicle_type_id":"4","last_reported":1767633254,"current_range_meters":6000,"station_id":"ce4bhk92rcd13ifvqgb0","pricing_plan_id":"cebpf4jnsgd1na2vs0mg"},{"bike_id":"82866fe7-628d-412e-a722-bf250d7406b8","system_id":"levelo_inurba_marseille","lat":43.26689,"lon":5.38266,"is_reserved":false,"is_disabled":false,"rental_uris":{"android":"levelo://app?vid=82866fe7-628d-412e-a722-bf250d7406b8","ios":"levelo://app?vid=82866fe7-628d-412e-a722-bf250d7406b8"},"vehicle_type_id":"4","last_reported":1767633254,"current_range_meters":6000,"station_id":"ce4bhg92rcd13ifvqf90","pricing_plan_id":"cebpf4jnsgd1na2vs0mg"},{"bike_id":"4fd797b3-010e-4c05-8ec1-c14e325d93d3","system_id":"levelo_inurba_marseille","lat":43.29876,"lon":5.39736,"is_reserved":false,"is_disabled":false,"rental_uris":{"android":"levelo://app?vid=4fd797b3-010e-4c05-8ec1-c14e325d93d3","ios":"levelo://app?vid=4fd797b3-010e-4c05-8ec1-c14e325d93d3"},"vehicle_type_id":"4","last_reported":1767633254,"current_range_meters":6000,"station_id":"ce4bh0h2rcd13ifvqd50","pricing_plan_id":"cebpf4jnsgd1na2vs0mg"},{"bike_id":"934c47ce-feb0-4e22-b06f-f4c3c330bae4","system_id":"levelo_inurba_marseille","lat":43.3064,"lon":5.40059,"is_reserved":false,"is_disabled":false,"rental_uris":{"android":"levelo://app?vid=934c47ce-feb0-4e22-b06f-f4c3c330bae4","ios":"levelo://app?vid=934c47ce-feb0-4e22-b06f-f4c3c330bae4"},"vehicle_type_id":"4","last_reported":1767633254,"current_range_meters":6000,"station_id":"ce4bh112rcd13ifvqda0","pricing_plan_id":"cebpf4jnsgd1na2vs0mg"},{"bike_id":"577a8429-e907-45de-a0fc-b8c3d38163f6","system_id":"levelo_inurba_marseille","lat":43.279,"lon":5.38033,"is_reserved":false,"is_disabled":false,"rental_uris":{"android":"levelo://app?vid=577a8429-e907-45de-a0fc-b8c3d38163f6","ios":"levelo://app?vid=577a8429-e907-45de-a0fc-b8c3d38163f6"},"vehicle_type_id":"4","last_reported":1767633254,"current_range_meters":6000,"station_id":"ce4bhf92rcd13ifvqf50","pricing_plan_id":"cebpf4jnsgd1na2vs0mg"},{"bike_id":"e3aa32d8-6703-4bb5-89dd-c6404061fee0","system_id":"levelo_inurba_marseille","lat":43.31377,"lon":5.38048,"is_reserved":false,"is_disabled":false,"rental_uris":{"android":"levelo://app?vid=e3aa32d8-6703-4bb5-89dd-c6404061fee0","ios":"levelo://app?vid=e3aa32d8-6703-4bb5-89dd-c6404061fee0"},"vehicle_type_id":"4","last_reported":1767633254,"current_range_meters":6000,"station_id":"","pricing_plan_id":"cebpf4jnsgd1na2vs0mg"},{"bike_id":"0e920fea-401a-4fec-a702-867e99d7a0b7","system_id":"levelo_inurba_marseille","lat":43.262403,"lon":5.404658,"is_reserved":false,"is_disabled":false,"rental_uris":{"android":"levelo://app?vid=0e920fea-401a-4fec-a702-867e99d7a0b7","ios":"levelo://app?vid=0e920fea-401a-4fec-a702-867e99d7a0b7"},"vehicle_type_id":"4","last_reported":1767633254,"current_range_meters":6000,"station_id":"ce4bhmh2rcd13ifvqgmg","pricing_plan_id":"cebpf4jnsgd1na2vs0mg"},{"bike_id":"da5c5a0f-95ef-4de5-9f48-33641c70fc23","system_id":"levelo_inurba_marseille","lat":43.263671,"lon":5.410729,"is_reserved":false,"is_disabled":false,"rental_uris":{"android":"levelo://app?vid=da5c5a0f-95ef-4de5-9f48-33641c70fc23","ios":"levelo://app?vid=da5c5a0f-95ef-4de5-9f48-33641c70fc23"},"vehicle_type_id":"4","last_reported":1767633254,"current_range_meters":6000,"station_id":"st_d4e5ca6na9uc73bfl5fg","pricing_plan_id":"cebpf4jnsgd1na2vs0mg"},{"bike_id":"a37d40f7-6a7a-463a-8f5a-b25737a5a4f2","system_id":"levelo_inurba_marseille","lat":43.299,"lon":5.38004,"is_reserved":false,"is_disabled":false,"rental_uris":{"android":"levelo://app?vid=a37d40f7-6a7a-463a-8f5a-b25737a5a4f2","ios":"levelo://app?vid=a37d40f7-6a7a-463a-8f5a-b25737a5a4f2"},"vehicle_type_id":"4","last_reported":1767633254,"current_range_meters":6000,"station_id":"","pricing_plan_id":"cebpf4jnsgd1na2vs0mg"},{"bike_id":"6abdf786-693a-4335-ab7c-1da028c03897","system_id":"levelo_inurba_marseille","lat":43.29539,"lon":5.38537,"is_reserved":false,"is_disabled":false,"rental_uris":{"android":"levelo://app?vid=6abdf786-693a-4335-ab7c-1da028c03897","ios":"levelo://app?vid=6abdf786-693a-4335-ab7c-1da028c03897"},"vehicle_type_id":"4","last_reported":1767633254,"current_range_meters":6000,"station_id":"ce4bgih2rcd13ifvqba0","pricing_plan_id":"cebpf4jnsgd1na2vs0mg"},{"bike_id":"0abda507-827b-4ba6-b5d5-a4467158d662","system_id":"levelo_inurba_marseille","lat":43.23187,"lon":5.39991,"is_reserved":false,"is_disabled":false,"rental_uris":{"android":"levelo://app?vid=0abda507-827b-4ba6-b5d5-a4467158d662","ios":"levelo://app?vid=0abda507-827b-4ba6-b5d5-a4467158d662"},"vehicle_type_id":"4","last_reported":1767633254,"current_range_meters":6000,"station_id":"ce4bhn12rcd13ifvqgqg","pricing_plan_id":"cebpf4jnsgd1na2vs0mg"},{"bike_id":"c48b8ab0-3aed-485b-9e87-5ea8f52478d4","system_id":"levelo_inurba_marseille","lat":43.31573,"lon":5.38391,"is_reserved":false,"is_disabled":false,"rental_uris":{"android":"levelo://app?vid=c48b8ab0-3aed-485b-9e87-5ea8f52478d4","ios":"levelo://app?vid=c48b8ab0-3aed-485b-9e87-5ea8f52478d4"},"vehicle_type_id":"4","last_reported":1767633254,"current_range_meters":6000,"station_id":"","pricing_plan_id":"cebpf4jnsgd1na2vs0mg"},{"bike_id":"254a6c59-5f0c-4c52-8628-8e7efad88c7e","system_id":"levelo_inurba_marseille","lat":43.2416,"lon":5.36389,"is_reserved":false,"is_disabled":false,"rental_uris":{"android":"levelo://app?vid=254a6c59-5f0c-4c52-8628-8e7efad88c7e","ios":"levelo://app?vid=254a6c59-5f0c-4c52-8628-8e7efad88c7e"},"vehicle_type_id":"4","last_reported":1767633254,"current_range_meters":6000,"station_id":"cpo36qri1sfpv3e86is0","pricing_plan_id":"cebpf4jnsgd1na2vs0mg"},{"bike_id":"8c1916f3-9874-4eb0-8987-deefc3073e14","system_id":"levelo_inurba_marseille","lat":43.29105,"lon":5.3814,"is_reserved":false,"is_disabled":false,"rental_uris":{"android":"levelo://app?vid=8c1916f3-9874-4eb0-8987-deefc3073e14","ios":"levelo://app?vid=8c1916f3-9874-4eb0-8987-deefc3073e14"},"vehicle_type_id":"4","last_reported":1767633254,"current_range_meters":6400,"station_id":"ce4bh512rcd13ifvqe2g","pricing_plan_id":"cebpf4jnsgd1na2vs0mg"},{"bike_id":"85f65327-244d-4e0f-989f-0ca631a03630","system_id":"levelo_inurba_marseille","lat":43.28156,"lon":5.42638,"is_reserved":false,"is_disabled":false,"rental_uris":{"android":"levelo://app?vid=85f65327-244d-4e0f-989f-0ca631a03630","ios":"levelo://app?vid=85f65327-244d-4e0f-989f-0ca631a03630"},"vehicle_type_id":"4","last_reported":1767633254,"current_range_meters":6400,"station_id":"ce4bhnh2rcd13ifvqgug","pricing_plan_id":"cebpf4jnsgd1na2vs0mg"},{"bike_id":"ddb04fa1-fdee-4548-9e0d-7f639fee9bf2","system_id":"levelo_inurba_marseille","lat":43.28709,"lon":5.37936,"is_reserved":false,"is_disabled":false,"rental_uris":{"android":"levelo://app?vid=ddb04fa1-fdee-4548-9e0d-7f639fee9bf2","ios":"levelo://app?vid=ddb04fa1-fdee-4548-9e0d-7f639fee9bf2"},"vehicle_type_id":"4","last_reported":1767633254,"current_range_meters":6400,"station_id":"ce4bh9p2rcd13ifvqec0","pricing_plan_id":"cebpf4jnsgd1na2vs0mg"},{"bike_id":"a156b5e0-8772-4186-90fa-13651f05bb89","system_id":"levelo_inurba_marseille","lat":43.28444,"lon":5.39206,"is_reserved":false,"is_disabled":false,"rental_uris":{"android":"levelo://app?vid=a156b5e0-8772-4186-90fa-13651f05bb89","ios":"levelo://app?vid=a156b5e0-8772-4186-90fa-13651f05bb89"},"vehicle_type_id":"4","last_reported":1767633254,"current_range_meters":6400,"station_id":"ce4bhoh2rcd13ifvqh5g","pricing_plan_id":"cebpf4jnsgd1na2vs0mg"},{"bike_id":"13588b82-272e-4400-af96-5365185f6624","system_id":"levelo_inurba_marseille","lat":43.295776,"lon":5.375279,"is_reserved":false,"is_disabled":false,"rental_uris":{"android":"levelo://app?vid=13588b82-272e-4400-af96-5365185f6624","ios":"levelo://app?vid=13588b82-272e-4400-af96-5365185f6624"},"vehicle_type_id":"4","last_reported":1767633254,"current_range_meters":6400,"station_id":"ce4bgh92rcd13ifvqb50","pricing_plan_id":"cebpf4jnsgd1na2vs0mg"},{"bike_id":"8797d0e0-3f72-4cce-b6f6-fa9e7c04cd9b","system_id":"levelo_inurba_marseille","lat":43.29524,"lon":5.37493,"is_reserved":false,"is_disabled":false,"rental_uris":{"android":"levelo://app?vid=8797d0e0-3f72-4cce-b6f6-fa9e7c04cd9b","ios":"levelo://app?vid=8797d0e0-3f72-4cce-b6f6-fa9e7c04cd9b"},"vehicle_type_id":"4","last_reported":1767633254,"current_range_meters":6400,"station_id":"ce4bgkp2rcd13ifvqbmg","pricing_plan_id":"cebpf4jnsgd1na2vs0mg"},{"bike_id":"a414d67b-9afa-4a87-9fac-f67cdff12698","system_id":"levelo_inurba_marseille","lat":43.291203,"lon":5.381074,"is_reserved":false,"is_disabled":false,"rental_uris":{"android":"levelo://app?vid=a414d67b-9afa-4a87-9fac-f67cdff12698","ios":"levelo://app?vid=a414d67b-9afa-4a87-9fac-f67cdff12698"},"vehicle_type_id":"4","last_reported":1767633254,"current_range_meters":6400,"station_id":"ce4bh512rcd13ifvqe2g","pricing_plan_id":"cebpf4jnsgd1na2vs0mg"},{"bike_id":"fad88370-eff2-40ad-91f9-be30e2fbd51d","system_id":"levelo_inurba_marseille","lat":43.29437,"lon":5.3977,"is_reserved":false,"is_disabled":true,"rental_uris":{"android":"levelo://app?vid=fad88370-eff2-40ad-91f9-be30e2fbd51d","ios":"levelo://app?vid=fad88370-eff2-40ad-91f9-be30e2fbd51d"},"vehicle_type_id":"4","last_reported":1767633254,"current_range_meters":6400,"station_id":"ce4bh3h2rcd13ifvqdo0","pricing_plan_id":"cebpf4jnsgd1na2vs0mg"},{"bike_id":"d1a8582c-3d84-4b4e-ace7-3ba06413c6cb","system_id":"levelo_inurba_marseille","lat":43.31213,"lon":5.36851,"is_reserved":false,"is_disabled":false,"rental_uris":{"android":"levelo://app?vid=d1a8582c-3d84-4b4e-ace7-3ba06413c6cb","ios":"levelo://app?vid=d1a8582c-3d84-4b4e-ace7-3ba06413c6cb"},"vehicle_type_id":"4","last_reported":1767633254,"current_range_meters":6400,"station_id":"ce4bgl92rcd13ifvqbq0","pricing_plan_id":"cebpf4jnsgd1na2vs0mg"},{"bike_id":"696ba153-8f36-439d-a93a-115af5d73e14","system_id":"levelo_inurba_marseille","lat":43.28244,"lon":5.39049,"is_reserved":false,"is_disabled":false,"rental_uris":{"android":"levelo://app?vid=696ba153-8f36-439d-a93a-115af5d73e14","ios":"levelo://app?vid=696ba153-8f36-439d-a93a-115af5d73e14"},"vehicle_type_id":"4","last_reported":1767633254,"current_range_meters":6400,"station_id":"ce4bhn92rcd13ifvqgsg","pricing_plan_id":"cebpf4jnsgd1na2vs0mg"},{"bike_id":"13a148c5-a1fd-4e51-be3e-efc9d5f353fa","system_id":"levelo_inurba_marseille","lat":43.25523,"lon":5.37644,"is_reserved":false,"is_disabled":false,"rental_uris":{"android":"levelo://app?vid=13a148c5-a1fd-4e51-be3e-efc9d5f353fa","ios":"levelo://app?vid=13a148c5-a1fd-4e51-be3e-efc9d5f353fa"},"vehicle_type_id":"4","last_reported":1767633254,"current_range_meters":6400,"station_id":"ce4bhh12rcd13ifvqff0","pricing_plan_id":"cebpf4jnsgd1na2vs0mg"},{"bike_id":"a8cd7802-144d-4c11-af29-be2259acf14c","system_id":"levelo_inurba_marseille","lat":43.243922,"lon":5.370663,"is_reserved":false,"is_disabled":false,"rental_uris":{"android":"levelo://app?vid=a8cd7802-144d-4c11-af29-be2259acf14c","ios":"levelo://app?vid=a8cd7802-144d-4c11-af29-be2259acf14c"},"vehicle_type_id":"4","last_reported":1767633254,"current_range_meters":6400,"station_id":"","pricing_plan_id":"cebpf4jnsgd1na2vs0mg"},{"bike_id":"fd8f368a-790a-472f-8659-a02b635b9f3b","system_id":"levelo_inurba_marseille","lat":43.31063,"lon":5.37465,"is_reserved":false,"is_disabled":false,"rental_uris":{"android":"levelo://app?vid=fd8f368a-790a-472f-8659-a02b635b9f3b","ios":"levelo://app?vid=fd8f368a-790a-472f-8659-a02b635b9f3b"},"vehicle_type_id":"4","last_reported":1767633254,"current_range_meters":6400,"station_id":"","pricing_plan_id":"cebpf4jnsgd1na2vs0mg"},{"bike_id":"c5365846-c619-4f12-8c92-97c9f9725a15","system_id":"levelo_inurba_marseille","lat":43.2952,"lon":5.37897,"is_reserved":false,"is_disabled":false,"rental_uris":{"android":"levelo://app?vid=c5365846-c619-4f12-8c92-97c9f9725a15","ios":"levelo://app?vid=c5365846-c619-4f12-8c92-97c9f9725a15"},"vehicle_type_id":"4","last_reported":1767633254,"current_range_meters":6400,"station_id":"","pricing_plan_id":"cebpf4jnsgd1na2vs0mg"},{"bike_id":"d938298d-16c1-4fcf-a2a1-90f5a487d129","system_id":"levelo_inurba_marseille","lat":43.2812,"lon":5.35985,"is_reserved":false,"is_disabled":false,"rental_uris":{"android":"levelo://app?vid=d938298d-16c1-4fcf-a2a1-90f5a487d129","ios":"levelo://app?vid=d938298d-16c1-4fcf-a2a1-90f5a487d129"},"vehicle_type_id":"4","last_reported":1767633254,"current_range_meters":6400,"station_id":"","pricing_plan_id":"cebpf4jnsgd1na2vs0mg"},{"bike_id":"c49e27b4-a5f9-4c71-aa66-1ae8ec3b129e","system_id":"levelo_inurba_marseille","lat":43.29276,"lon":5.38904,"is_reserved":false,"is_disabled":false,"rental_uris":{"android":"levelo://app?vid=c49e27b4-a5f9-4c71-aa66-1ae8ec3b129e","ios":"levelo://app?vid=c49e27b4-a5f9-4c71-aa66-1ae8ec3b129e"},"vehicle_type_id":"4","last_reported":1767633254,"current_range_meters":6400,"station_id":"","pricing_plan_id":"cebpf4jnsgd1na2vs0mg"},{"bike_id":"f00ba095-e62a-4c84-a6ab-115e1257e43e","system_id":"levelo_inurba_marseille","lat":43.27916,"lon":5.39565,"is_reserved":false,"is_disabled":false,"rental_uris":{"android":"levelo://app?vid=f00ba095-e62a-4c84-a6ab-115e1257e43e","ios":"levelo://app?vid=f00ba095-e62a-4c84-a6ab-115e1257e43e"},"vehicle_type_id":"4","last_reported":1767633254,"current_range_meters":6400,"station_id":"ce4bhf92rcd13ifvqf40","pricing_plan_id":"cebpf4jnsgd1na2vs0mg"},{"bike_id":"50fc6b08-8ec1-4b86-945f-0af87cfd18c5","system_id":"levelo_inurba_marseille","lat":43.24147,"lon":5.3973,"is_reserved":false,"is_disabled":false,"rental_uris":{"android":"levelo://app?vid=50fc6b08-8ec1-4b86-945f-0af87cfd18c5","ios":"levelo://app?vid=50fc6b08-8ec1-4b86-945f-0af87cfd18c5"},"vehicle_type_id":"4","last_reported":1767633254,"current_range_meters":6800,"station_id":"ce4bhn12rcd13ifvqgpg","pricing_plan_id":"cebpf4jnsgd1na2vs0mg"},{"bike_id":"801e0e40-fac2-4fbc-9636-b8eb982b0989","system_id":"levelo_inurba_marseille","lat":43.23958,"lon":5.36621,"is_reserved":false,"is_disabled":false,"rental_uris":{"android":"levelo://app?vid=801e0e40-fac2-4fbc-9636-b8eb982b0989","ios":"levelo://app?vid=801e0e40-fac2-4fbc-9636-b8eb982b0989"},"vehicle_type_id":"4","last_reported":1767633254,"current_range_meters":6800,"station_id":"ce4bhi12rcd13ifvqfp0","pricing_plan_id":"cebpf4jnsgd1na2vs0mg"},{"bike_id":"49d2b632-8364-4f72-a0e1-2846dfcaf55c","system_id":"levelo_inurba_marseille","lat":43.238112,"lon":5.365895,"is_reserved":false,"is_disabled":false,"rental_uris":{"android":"levelo://app?vid=49d2b632-8364-4f72-a0e1-2846dfcaf55c","ios":"levelo://app?vid=49d2b632-8364-4f72-a0e1-2846dfcaf55c"},"vehicle_type_id":"4","last_reported":1767633254,"current_range_meters":6800,"station_id":"","pricing_plan_id":"cebpf4jnsgd1na2vs0mg"},{"bike_id":"58fdae85-8d47-4e41-bb91-d79cc2f232b1","system_id":"levelo_inurba_marseille","lat":43.28463,"lon":5.38403,"is_reserved":false,"is_disabled":false,"rental_uris":{"android":"levelo://app?vid=58fdae85-8d47-4e41-bb91-d79cc2f232b1","ios":"levelo://app?vid=58fdae85-8d47-4e41-bb91-d79cc2f232b1"},"vehicle_type_id":"4","last_reported":1767633254,"current_range_meters":6800,"station_id":"ce4bh512rcd13ifvqe3g","pricing_plan_id":"cebpf4jnsgd1na2vs0mg"},{"bike_id":"b0b11713-f8aa-429f-a801-41c448218cb0","system_id":"levelo_inurba_marseille","lat":43.30362,"lon":5.43064,"is_reserved":false,"is_disabled":false,"rental_uris":{"android":"levelo://app?vid=b0b11713-f8aa-429f-a801-41c448218cb0","ios":"levelo://app?vid=b0b11713-f8aa-429f-a801-41c448218cb0"},"vehicle_type_id":"4","last_reported":1767633254,"current_range_meters":6800,"station_id":"","pricing_plan_id":"cebpf4jnsgd1na2vs0mg"},{"bike_id":"831294d3-0f66-4ca1-a706-138b980b5682","system_id":"levelo_inurba_marseille","lat":43.30584,"lon":5.37105,"is_reserved":false,"is_disabled":false,"rental_uris":{"android":"levelo://app?vid=831294d3-0f66-4ca1-a706-138b980b5682","ios":"levelo://app?vid=831294d3-0f66-4ca1-a706-138b980b5682"},"vehicle_type_id":"4","last_reported":1767633254,"current_range_meters":6800,"station_id":"","pricing_plan_id":"cebpf4jnsgd1na2vs0mg"},{"bike_id":"5c752d77-7b25-48ba-99ef-9b278d0c9e59","system_id":"levelo_inurba_marseille","lat":43.24386,"lon":5.37047,"is_reserved":false,"is_disabled":false,"rental_uris":{"android":"levelo://app?vid=5c752d77-7b25-48ba-99ef-9b278d0c9e59","ios":"levelo://app?vid=5c752d77-7b25-48ba-99ef-9b278d0c9e59"},"vehicle_type_id":"4","last_reported":1767633254,"current_range_meters":6800,"station_id":"ce4bhhh2rcd13ifvqfk0","pricing_plan_id":"cebpf4jnsgd1na2vs0mg"},{"bike_id":"55654a27-5cd8-4223-b844-2fc4c9f1600a","system_id":"levelo_inurba_marseille","lat":43.31349,"lon":5.38003,"is_reserved":false,"is_disabled":false,"rental_uris":{"android":"levelo://app?vid=55654a27-5cd8-4223-b844-2fc4c9f1600a","ios":"levelo://app?vid=55654a27-5cd8-4223-b844-2fc4c9f1600a"},"vehicle_type_id":"4","last_reported":1767633254,"current_range_meters":6800,"station_id":"","pricing_plan_id":"cebpf4jnsgd1na2vs0mg"},{"bike_id":"0bb50464-ce96-4c77-bc35-a36d4c839068","system_id":"levelo_inurba_marseille","lat":43.302641,"lon":5.377255,"is_reserved":false,"is_disabled":false,"rental_uris":{"android":"levelo://app?vid=0bb50464-ce96-4c77-bc35-a36d4c839068","ios":"levelo://app?vid=0bb50464-ce96-4c77-bc35-a36d4c839068"},"vehicle_type_id":"4","last_reported":1767633254,"current_range_meters":6800,"station_id":"ce4bgt12rcd13ifvqce0","pricing_plan_id":"cebpf4jnsgd1na2vs0mg"},{"bike_id":"bded8fdd-ec77-4f6c-ac80-640892e88778","system_id":"levelo_inurba_marseille","lat":43.27814,"lon":5.40735,"is_reserved":false,"is_disabled":false,"rental_uris":{"android":"levelo://app?vid=bded8fdd-ec77-4f6c-ac80-640892e88778","ios":"levelo://app?vid=bded8fdd-ec77-4f6c-ac80-640892e88778"},"vehicle_type_id":"4","last_reported":1767633254,"current_range_meters":6800,"station_id":"ce4bhnh2rcd13ifvqgtg","pricing_plan_id":"cebpf4jnsgd1na2vs0mg"},{"bike_id":"fc24e154-126f-487a-abd8-81f2874cd1b6","system_id":"levelo_inurba_marseille","lat":43.2719,"lon":5.40986,"is_reserved":false,"is_disabled":false,"rental_uris":{"android":"levelo://app?vid=fc24e154-126f-487a-abd8-81f2874cd1b6","ios":"levelo://app?vid=fc24e154-126f-487a-abd8-81f2874cd1b6"},"vehicle_type_id":"4","last_reported":1767633254,"current_range_meters":7200,"station_id":"ce4bhl12rcd13ifvqgf0","pricing_plan_id":"cebpf4jnsgd1na2vs0mg"},{"bike_id":"3289b887-0235-458b-9f2a-a7cfac24d206","system_id":"levelo_inurba_marseille","lat":43.29802,"lon":5.39345,"is_reserved":false,"is_disabled":false,"rental_uris":{"android":"levelo://app?vid=3289b887-0235-458b-9f2a-a7cfac24d206","ios":"levelo://app?vid=3289b887-0235-458b-9f2a-a7cfac24d206"},"vehicle_type_id":"4","last_reported":1767633254,"current_range_meters":7200,"station_id":"chh1huq6cuj3fo74tm60","pricing_plan_id":"cebpf4jnsgd1na2vs0mg"},{"bike_id":"792e1e2e-f71f-47ee-9471-2778171764aa","system_id":"levelo_inurba_marseille","lat":43.27821,"lon":5.4065,"is_reserved":false,"is_disabled":false,"rental_uris":{"android":"levelo://app?vid=792e1e2e-f71f-47ee-9471-2778171764aa","ios":"levelo://app?vid=792e1e2e-f71f-47ee-9471-2778171764aa"},"vehicle_type_id":"4","last_reported":1767633254,"current_range_meters":7200,"station_id":"","pricing_plan_id":"cebpf4jnsgd1na2vs0mg"},{"bike_id":"58aa433d-6523-48fb-83cc-9676ed151533","system_id":"levelo_inurba_marseille","lat":43.27916,"lon":5.39581,"is_reserved":false,"is_disabled":false,"rental_uris":{"android":"levelo://app?vid=58aa433d-6523-48fb-83cc-9676ed151533","ios":"levelo://app?vid=58aa433d-6523-48fb-83cc-9676ed151533"},"vehicle_type_id":"4","last_reported":1767633254,"current_range_meters":7200,"station_id":"ce4bhf92rcd13ifvqf40","pricing_plan_id":"cebpf4jnsgd1na2vs0mg"},{"bike_id":"6b6d8f9f-6e00-4965-a447-66d7628c7986","system_id":"levelo_inurba_marseille","lat":43.25113,"lon":5.4033,"is_reserved":false,"is_disabled":false,"rental_uris":{"android":"levelo://app?vid=6b6d8f9f-6e00-4965-a447-66d7628c7986","ios":"levelo://app?vid=6b6d8f9f-6e00-4965-a447-66d7628c7986"},"vehicle_type_id":"4","last_reported":1767633254,"current_range_meters":7200,"station_id":"ce4bhlh2rcd13ifvqgig","pricing_plan_id":"cebpf4jnsgd1na2vs0mg"},{"bike_id":"78b11bb5-5700-4fb6-b0c1-d37e13475e71","system_id":"levelo_inurba_marseille","lat":43.29365,"lon":5.37856,"is_reserved":false,"is_disabled":false,"rental_uris":{"android":"levelo://app?vid=78b11bb5-5700-4fb6-b0c1-d37e13475e71","ios":"levelo://app?vid=78b11bb5-5700-4fb6-b0c1-d37e13475e71"},"vehicle_type_id":"4","last_reported":1767633254,"current_range_meters":7200,"station_id":"ce4bgjh2rcd13ifvqbf0","pricing_plan_id":"cebpf4jnsgd1na2vs0mg"},{"bike_id":"d19e7d8f-8d39-4e32-b60a-b3305948b30b","system_id":"levelo_inurba_marseille","lat":43.24201,"lon":5.36399,"is_reserved":false,"is_disabled":false,"rental_uris":{"android":"levelo://app?vid=d19e7d8f-8d39-4e32-b60a-b3305948b30b","ios":"levelo://app?vid=d19e7d8f-8d39-4e32-b60a-b3305948b30b"},"vehicle_type_id":"4","last_reported":1767633254,"current_range_meters":7200,"station_id":"cpo36qri1sfpv3e86is0","pricing_plan_id":"cebpf4jnsgd1na2vs0mg"},{"bike_id":"799baf21-a08b-4a99-a9eb-bb046d6f86b1","system_id":"levelo_inurba_marseille","lat":43.28412,"lon":5.34984,"is_reserved":false,"is_disabled":false,"rental_uris":{"android":"levelo://app?vid=799baf21-a08b-4a99-a9eb-bb046d6f86b1","ios":"levelo://app?vid=799baf21-a08b-4a99-a9eb-bb046d6f86b1"},"vehicle_type_id":"4","last_reported":1767633254,"current_range_meters":7200,"station_id":"ce4bhbh2rcd13ifvqepg","pricing_plan_id":"cebpf4jnsgd1na2vs0mg"},{"bike_id":"624def88-3290-4b1b-8e34-827eb7187f9b","system_id":"levelo_inurba_marseille","lat":43.27061,"lon":5.42271,"is_reserved":false,"is_disabled":false,"rental_uris":{"android":"levelo://app?vid=624def88-3290-4b1b-8e34-827eb7187f9b","ios":"levelo://app?vid=624def88-3290-4b1b-8e34-827eb7187f9b"},"vehicle_type_id":"4","last_reported":1767633254,"current_range_meters":7200,"station_id":"ce4bhk92rcd13ifvqgb0","pricing_plan_id":"cebpf4jnsgd1na2vs0mg"},{"bike_id":"e3a366e7-432a-4c86-8fda-c24791fb1ce5","system_id":"levelo_inurba_marseille","lat":43.29796,"lon":5.37752,"is_reserved":false,"is_disabled":false,"rental_uris":{"android":"levelo://app?vid=e3a366e7-432a-4c86-8fda-c24791fb1ce5","ios":"levelo://app?vid=e3a366e7-432a-4c86-8fda-c24791fb1ce5"},"vehicle_type_id":"4","last_reported":1767633254,"current_range_meters":7200,"station_id":"","pricing_plan_id":"cebpf4jnsgd1na2vs0mg"},{"bike_id":"3583a7a8-b7a0-427f-9909-91e4acd68737","system_id":"levelo_inurba_marseille","lat":43.25827,"lon":5.39442,"is_reserved":false,"is_disabled":false,"rental_uris":{"android":"levelo://app?vid=3583a7a8-b7a0-427f-9909-91e4acd68737","ios":"levelo://app?vid=3583a7a8-b7a0-427f-9909-91e4acd68737"},"vehicle_type_id":"4","last_reported":1767633254,"current_range_meters":7200,"station_id":"ce4bhip2rcd13ifvqft0","pricing_plan_id":"cebpf4jnsgd1na2vs0mg"},{"bike_id":"8888b60a-8078-401c-9213-eda80077f961","system_id":"levelo_inurba_marseille","lat":43.28613,"lon":5.35103,"is_reserved":false,"is_disabled":false,"rental_uris":{"android":"levelo://app?vid=8888b60a-8078-401c-9213-eda80077f961","ios":"levelo://app?vid=8888b60a-8078-401c-9213-eda80077f961"},"vehicle_type_id":"4","last_reported":1767633254,"current_range_meters":7200,"station_id":"ce4bhch2rcd13ifvqeug","pricing_plan_id":"cebpf4jnsgd1na2vs0mg"},{"bike_id":"f16359d6-f21c-49d3-9687-73851f8d0ff3","system_id":"levelo_inurba_marseille","lat":43.28352,"lon":5.38113,"is_reserved":false,"is_disabled":false,"rental_uris":{"android":"levelo://app?vid=f16359d6-f21c-49d3-9687-73851f8d0ff3","ios":"levelo://app?vid=f16359d6-f21c-49d3-9687-73851f8d0ff3"},"vehicle_type_id":"4","last_reported":1767633254,"current_range_meters":7200,"station_id":"ce4bh412rcd13ifvqdr0","pricing_plan_id":"cebpf4jnsgd1na2vs0mg"},{"bike_id":"1e10dcce-a010-467a-a316-8a67faec7426","system_id":"levelo_inurba_marseille","lat":43.2976,"lon":5.42767,"is_reserved":false,"is_disabled":false,"rental_uris":{"android":"levelo://app?vid=1e10dcce-a010-467a-a316-8a67faec7426","ios":"levelo://app?vid=1e10dcce-a010-467a-a316-8a67faec7426"},"vehicle_type_id":"4","last_reported":1767633254,"current_range_meters":7200,"station_id":"st_d3md5207bmas73dh9klg","pricing_plan_id":"cebpf4jnsgd1na2vs0mg"},{"bike_id":"7409f8d2-dfa9-4964-9bc6-c3a46a1923df","system_id":"levelo_inurba_marseille","lat":43.27381,"lon":5.36257,"is_reserved":false,"is_disabled":false,"rental_uris":{"android":"levelo://app?vid=7409f8d2-dfa9-4964-9bc6-c3a46a1923df","ios":"levelo://app?vid=7409f8d2-dfa9-4964-9bc6-c3a46a1923df"},"vehicle_type_id":"4","last_reported":1767633254,"current_range_meters":7200,"station_id":"ce4bhbh2rcd13ifvqeo0","pricing_plan_id":"cebpf4jnsgd1na2vs0mg"},{"bike_id":"9a898d8c-cf91-4640-acfb-d3be64781fb9","system_id":"levelo_inurba_marseille","lat":43.284699,"lon":5.484008,"is_reserved":false,"is_disabled":false,"rental_uris":{"android":"levelo://app?vid=9a898d8c-cf91-4640-acfb-d3be64781fb9","ios":"levelo://app?vid=9a898d8c-cf91-4640-acfb-d3be64781fb9"},"vehicle_type_id":"4","last_reported":1767633254,"current_range_meters":7200,"station_id":"","pricing_plan_id":"cebpf4jnsgd1na2vs0mg"},{"bike_id":"9bdd5d0f-d41a-448f-b3e2-3c35350aba17","system_id":"levelo_inurba_marseille","lat":43.25106,"lon":5.40324,"is_reserved":false,"is_disabled":false,"rental_uris":{"android":"levelo://app?vid=9bdd5d0f-d41a-448f-b3e2-3c35350aba17","ios":"levelo://app?vid=9bdd5d0f-d41a-448f-b3e2-3c35350aba17"},"vehicle_type_id":"4","last_reported":1767633254,"current_range_meters":7200,"station_id":"ce4bhlh2rcd13ifvqgig","pricing_plan_id":"cebpf4jnsgd1na2vs0mg"},{"bike_id":"ac148974-ee63-4511-9513-af1eee66931e","system_id":"levelo_inurba_marseille","lat":43.30328,"lon":5.3691,"is_reserved":false,"is_disabled":false,"rental_uris":{"android":"levelo://app?vid=ac148974-ee63-4511-9513-af1eee66931e","ios":"levelo://app?vid=ac148974-ee63-4511-9513-af1eee66931e"},"vehicle_type_id":"4","last_reported":1767633254,"current_range_meters":7200,"station_id":"ce4bgqh2rcd13ifvqc5g","pricing_plan_id":"cebpf4jnsgd1na2vs0mg"},{"bike_id":"bd370c67-7ebd-4b98-b04e-decd496cefe6","system_id":"levelo_inurba_marseille","lat":43.30102,"lon":5.3909,"is_reserved":false,"is_disabled":true,"rental_uris":{"android":"levelo://app?vid=bd370c67-7ebd-4b98-b04e-decd496cefe6","ios":"levelo://app?vid=bd370c67-7ebd-4b98-b04e-decd496cefe6"},"vehicle_type_id":"4","last_reported":1767633254,"current_range_meters":8000,"station_id":"ce4bh192rcd13ifvqdb0","pricing_plan_id":"cebpf4jnsgd1na2vs0mg"},{"bike_id":"dca9a712-a982-44b1-8cbd-17efb24372eb","system_id":"levelo_inurba_marseille","lat":43.30191,"lon":5.36609,"is_reserved":false,"is_disabled":false,"rental_uris":{"android":"levelo://app?vid=dca9a712-a982-44b1-8cbd-17efb24372eb","ios":"levelo://app?vid=dca9a712-a982-44b1-8cbd-17efb24372eb"},"vehicle_type_id":"4","last_reported":1767633254,"current_range_meters":8000,"station_id":"ce4bgrh2rcd13ifvqc8g","pricing_plan_id":"cebpf4jnsgd1na2vs0mg"},{"bike_id":"e5080626-6fd3-465a-95fc-ffeeb81121ed","system_id":"levelo_inurba_marseille","lat":43.30514,"lon":5.36717,"is_reserved":false,"is_disabled":false,"rental_uris":{"android":"levelo://app?vid=e5080626-6fd3-465a-95fc-ffeeb81121ed","ios":"levelo://app?vid=e5080626-6fd3-465a-95fc-ffeeb81121ed"},"vehicle_type_id":"4","last_reported":1767633254,"current_range_meters":8000,"station_id":"ce4bgrp2rcd13ifvqc9g","pricing_plan_id":"cebpf4jnsgd1na2vs0mg"},{"bike_id":"f97c9d69-08f3-4e6e-837a-e318a0cb9742","system_id":"levelo_inurba_marseille","lat":43.29281,"lon":5.36835,"is_reserved":false,"is_disabled":false,"rental_uris":{"android":"levelo://app?vid=f97c9d69-08f3-4e6e-837a-e318a0cb9742","ios":"levelo://app?vid=f97c9d69-08f3-4e6e-837a-e318a0cb9742"},"vehicle_type_id":"4","last_reported":1767633254,"current_range_meters":8000,"station_id":"ce4bhbp2rcd13ifvqesg","pricing_plan_id":"cebpf4jnsgd1na2vs0mg"},{"bike_id":"00da6500-68b4-4b45-be1f-48d675212bd1","system_id":"levelo_inurba_marseille","lat":43.30537,"lon":5.3654,"is_reserved":false,"is_disabled":false,"rental_uris":{"android":"levelo://app?vid=00da6500-68b4-4b45-be1f-48d675212bd1","ios":"levelo://app?vid=00da6500-68b4-4b45-be1f-48d675212bd1"},"vehicle_type_id":"4","last_reported":1767633254,"current_range_meters":8000,"station_id":"ce4bgs12rcd13ifvqcag","pricing_plan_id":"cebpf4jnsgd1na2vs0mg"},{"bike_id":"9b6d4335-5c89-40cd-a57b-155467c3599f","system_id":"levelo_inurba_marseille","lat":43.28081,"lon":5.39658,"is_reserved":false,"is_disabled":false,"rental_uris":{"android":"levelo://app?vid=9b6d4335-5c89-40cd-a57b-155467c3599f","ios":"levelo://app?vid=9b6d4335-5c89-40cd-a57b-155467c3599f"},"vehicle_type_id":"4","last_reported":1767633254,"current_range_meters":8000,"station_id":"ce4bho12rcd13ifvqh2g","pricing_plan_id":"cebpf4jnsgd1na2vs0mg"},{"bike_id":"fb8690e4-7bf8-40b2-86ae-cc6b72716ee9","system_id":"levelo_inurba_marseille","lat":43.29278,"lon":5.36837,"is_reserved":false,"is_disabled":false,"rental_uris":{"android":"levelo://app?vid=fb8690e4-7bf8-40b2-86ae-cc6b72716ee9","ios":"levelo://app?vid=fb8690e4-7bf8-40b2-86ae-cc6b72716ee9"},"vehicle_type_id":"4","last_reported":1767633254,"current_range_meters":8000,"station_id":"ce4bhbp2rcd13ifvqesg","pricing_plan_id":"cebpf4jnsgd1na2vs0mg"},{"bike_id":"139e13a1-e72b-4a5d-ab11-5f421c44da57","system_id":"levelo_inurba_marseille","lat":43.30384,"lon":5.42539,"is_reserved":false,"is_disabled":false,"rental_uris":{"android":"levelo://app?vid=139e13a1-e72b-4a5d-ab11-5f421c44da57","ios":"levelo://app?vid=139e13a1-e72b-4a5d-ab11-5f421c44da57"},"vehicle_type_id":"4","last_reported":1767633254,"current_range_meters":8000,"station_id":"","pricing_plan_id":"cebpf4jnsgd1na2vs0mg"},{"bike_id":"80a1d79c-2791-4ff1-a41e-735d5b121f90","system_id":"levelo_inurba_marseille","lat":43.28,"lon":5.41665,"is_reserved":false,"is_disabled":false,"rental_uris":{"android":"levelo://app?vid=80a1d79c-2791-4ff1-a41e-735d5b121f90","ios":"levelo://app?vid=80a1d79c-2791-4ff1-a41e-735d5b121f90"},"vehicle_type_id":"4","last_reported":1767633254,"current_range_meters":8000,"station_id":"ce4bho12rcd13ifvqh1g","pricing_plan_id":"cebpf4jnsgd1na2vs0mg"},{"bike_id":"cfd96779-ac06-41e3-84f7-a5ca7fe9eaab","system_id":"levelo_inurba_marseille","lat":43.28473,"lon":5.48384,"is_reserved":false,"is_disabled":false,"rental_uris":{"android":"levelo://app?vid=cfd96779-ac06-41e3-84f7-a5ca7fe9eaab","ios":"levelo://app?vid=cfd96779-ac06-41e3-84f7-a5ca7fe9eaab"},"vehicle_type_id":"4","last_reported":1767633254,"current_range_meters":8000,"station_id":"","pricing_plan_id":"cebpf4jnsgd1na2vs0mg"},{"bike_id":"024748c2-b554-4be1-8c70-dca9e903d76f","system_id":"levelo_inurba_marseille","lat":43.30144,"lon":5.39881,"is_reserved":false,"is_disabled":false,"rental_uris":{"android":"levelo://app?vid=024748c2-b554-4be1-8c70-dca9e903d76f","ios":"levelo://app?vid=024748c2-b554-4be1-8c70-dca9e903d76f"},"vehicle_type_id":"4","last_reported":1767633254,"current_range_meters":8000,"station_id":"ce4bh0h2rcd13ifvqd40","pricing_plan_id":"cebpf4jnsgd1na2vs0mg"},{"bike_id":"fde24df3-addb-4a7b-b0e7-f2e289c22e5d","system_id":"levelo_inurba_marseille","lat":43.31028,"lon":5.39337,"is_reserved":false,"is_disabled":false,"rental_uris":{"android":"levelo://app?vid=fde24df3-addb-4a7b-b0e7-f2e289c22e5d","ios":"levelo://app?vid=fde24df3-addb-4a7b-b0e7-f2e289c22e5d"},"vehicle_type_id":"4","last_reported":1767633254,"current_range_meters":8000,"station_id":"","pricing_plan_id":"cebpf4jnsgd1na2vs0mg"},{"bike_id":"504c62db-8dc0-4d03-9c83-c1acce2e5fab","system_id":"levelo_inurba_marseille","lat":43.29147,"lon":5.37972,"is_reserved":false,"is_disabled":false,"rental_uris":{"android":"levelo://app?vid=504c62db-8dc0-4d03-9c83-c1acce2e5fab","ios":"levelo://app?vid=504c62db-8dc0-4d03-9c83-c1acce2e5fab"},"vehicle_type_id":"4","last_reported":1767633254,"current_range_meters":8000,"station_id":"","pricing_plan_id":"cebpf4jnsgd1na2vs0mg"},{"bike_id":"4bd23ea9-b05f-4fa4-b129-e810a0577ee2","system_id":"levelo_inurba_marseille","lat":43.2984,"lon":5.36265,"is_reserved":false,"is_disabled":false,"rental_uris":{"android":"levelo://app?vid=4bd23ea9-b05f-4fa4-b129-e810a0577ee2","ios":"levelo://app?vid=4bd23ea9-b05f-4fa4-b129-e810a0577ee2"},"vehicle_type_id":"4","last_reported":1767633254,"current_range_meters":8000,"station_id":"ce4bgpp2rcd13ifvqc3g","pricing_plan_id":"cebpf4jnsgd1na2vs0mg"},{"bike_id":"531ba190-2d4e-4722-99ab-7185252e6433","system_id":"levelo_inurba_marseille","lat":43.22572,"lon":5.41633,"is_reserved":false,"is_disabled":false,"rental_uris":{"android":"levelo://app?vid=531ba190-2d4e-4722-99ab-7185252e6433","ios":"levelo://app?vid=531ba190-2d4e-4722-99ab-7185252e6433"},"vehicle_type_id":"4","last_reported":1767633254,"current_range_meters":8000,"station_id":"st_d2o4gvlbi1j2169b742g","pricing_plan_id":"cebpf4jnsgd1na2vs0mg"},{"bike_id":"0e56497d-2fdb-4797-b5b0-2fbc698bc20a","system_id":"levelo_inurba_marseille","lat":43.29387,"lon":5.37865,"is_reserved":false,"is_disabled":false,"rental_uris":{"android":"levelo://app?vid=0e56497d-2fdb-4797-b5b0-2fbc698bc20a","ios":"levelo://app?vid=0e56497d-2fdb-4797-b5b0-2fbc698bc20a"},"vehicle_type_id":"4","last_reported":1767633254,"current_range_meters":8000,"station_id":"ce4bgjh2rcd13ifvqbf0","pricing_plan_id":"cebpf4jnsgd1na2vs0mg"},{"bike_id":"49a70347-36ae-4442-a0c3-32c4ed4b4ff4","system_id":"levelo_inurba_marseille","lat":43.28856,"lon":5.42524,"is_reserved":false,"is_disabled":false,"rental_uris":{"android":"levelo://app?vid=49a70347-36ae-4442-a0c3-32c4ed4b4ff4","ios":"levelo://app?vid=49a70347-36ae-4442-a0c3-32c4ed4b4ff4"},"vehicle_type_id":"4","last_reported":1767633254,"current_range_meters":8400,"station_id":"st_d3b462108ojc7389ooeg","pricing_plan_id":"cebpf4jnsgd1na2vs0mg"},{"bike_id":"363d24ec-7f56-48ba-afb4-d6a61684329e","system_id":"levelo_inurba_marseille","lat":43.304887,"lon":5.41061,"is_reserved":false,"is_disabled":false,"rental_uris":{"android":"levelo://app?vid=363d24ec-7f56-48ba-afb4-d6a61684329e","ios":"levelo://app?vid=363d24ec-7f56-48ba-afb4-d6a61684329e"},"vehicle_type_id":"4","last_reported":1767633254,"current_range_meters":8400,"station_id":"","pricing_plan_id":"cebpf4jnsgd1na2vs0mg"},{"bike_id":"2ad11e8b-6525-4219-97fa-e942c570f9bd","system_id":"levelo_inurba_marseille","lat":43.27066,"lon":5.38306,"is_reserved":false,"is_disabled":false,"rental_uris":{"android":"levelo://app?vid=2ad11e8b-6525-4219-97fa-e942c570f9bd","ios":"levelo://app?vid=2ad11e8b-6525-4219-97fa-e942c570f9bd"},"vehicle_type_id":"4","last_reported":1767633254,"current_range_meters":8400,"station_id":"st_d3n2fo6cfp8s73cte1j0","pricing_plan_id":"cebpf4jnsgd1na2vs0mg"},{"bike_id":"f8955f7f-6a62-4f1c-9c38-317bddfc1330","system_id":"levelo_inurba_marseille","lat":43.31484,"lon":5.37307,"is_reserved":false,"is_disabled":false,"rental_uris":{"android":"levelo://app?vid=f8955f7f-6a62-4f1c-9c38-317bddfc1330","ios":"levelo://app?vid=f8955f7f-6a62-4f1c-9c38-317bddfc1330"},"vehicle_type_id":"4","last_reported":1767633254,"current_range_meters":8400,"station_id":"ce4bgt12rcd13ifvqcd0","pricing_plan_id":"cebpf4jnsgd1na2vs0mg"},{"bike_id":"0f7eefdf-8972-4dc8-89aa-952cc1944736","system_id":"levelo_inurba_marseille","lat":43.27799,"lon":5.40723,"is_reserved":false,"is_disabled":false,"rental_uris":{"android":"levelo://app?vid=0f7eefdf-8972-4dc8-89aa-952cc1944736","ios":"levelo://app?vid=0f7eefdf-8972-4dc8-89aa-952cc1944736"},"vehicle_type_id":"4","last_reported":1767633254,"current_range_meters":8400,"station_id":"ce4bhnh2rcd13ifvqgtg","pricing_plan_id":"cebpf4jnsgd1na2vs0mg"},{"bike_id":"b653fbd4-7886-4bb6-bacf-cc2077001c84","system_id":"levelo_inurba_marseille","lat":43.30562,"lon":5.36671,"is_reserved":false,"is_disabled":false,"rental_uris":{"android":"levelo://app?vid=b653fbd4-7886-4bb6-bacf-cc2077001c84","ios":"levelo://app?vid=b653fbd4-7886-4bb6-bacf-cc2077001c84"},"vehicle_type_id":"4","last_reported":1767633254,"current_range_meters":8400,"station_id":"","pricing_plan_id":"cebpf4jnsgd1na2vs0mg"},{"bike_id":"246c6b83-d7eb-487f-b32f-aeb3bf09ab9b","system_id":"levelo_inurba_marseille","lat":43.274295,"lon":5.393975,"is_reserved":false,"is_disabled":false,"rental_uris":{"android":"levelo://app?vid=246c6b83-d7eb-487f-b32f-aeb3bf09ab9b","ios":"levelo://app?vid=246c6b83-d7eb-487f-b32f-aeb3bf09ab9b"},"vehicle_type_id":"4","last_reported":1767633254,"current_range_meters":8400,"station_id":"ce4bhdp2rcd13ifvqf20","pricing_plan_id":"cebpf4jnsgd1na2vs0mg"},{"bike_id":"28abf1e2-a38c-4481-b948-880e95850eb2","system_id":"levelo_inurba_marseille","lat":43.30564,"lon":5.36673,"is_reserved":false,"is_disabled":false,"rental_uris":{"android":"levelo://app?vid=28abf1e2-a38c-4481-b948-880e95850eb2","ios":"levelo://app?vid=28abf1e2-a38c-4481-b948-880e95850eb2"},"vehicle_type_id":"4","last_reported":1767633254,"current_range_meters":8400,"station_id":"","pricing_plan_id":"cebpf4jnsgd1na2vs0mg"},{"bike_id":"9645f65a-5cc6-494d-89f5-c60be2e5f5fe","system_id":"levelo_inurba_marseille","lat":43.313553,"lon":5.367027,"is_reserved":false,"is_disabled":false,"rental_uris":{"android":"levelo://app?vid=9645f65a-5cc6-494d-89f5-c60be2e5f5fe","ios":"levelo://app?vid=9645f65a-5cc6-494d-89f5-c60be2e5f5fe"},"vehicle_type_id":"4","last_reported":1767633254,"current_range_meters":8400,"station_id":"ce4bgr92rcd13ifvqc6g","pricing_plan_id":"cebpf4jnsgd1na2vs0mg"},{"bike_id":"76bec599-971c-48cf-b2ac-2350af051e20","system_id":"levelo_inurba_marseille","lat":43.27913,"lon":5.39577,"is_reserved":false,"is_disabled":false,"rental_uris":{"android":"levelo://app?vid=76bec599-971c-48cf-b2ac-2350af051e20","ios":"levelo://app?vid=76bec599-971c-48cf-b2ac-2350af051e20"},"vehicle_type_id":"4","last_reported":1767633254,"current_range_meters":8400,"station_id":"ce4bhf92rcd13ifvqf40","pricing_plan_id":"cebpf4jnsgd1na2vs0mg"},{"bike_id":"7d36967b-8ce1-41f9-868f-3636826c49a4","system_id":"levelo_inurba_marseille","lat":43.33126,"lon":5.37685,"is_reserved":false,"is_disabled":false,"rental_uris":{"android":"levelo://app?vid=7d36967b-8ce1-41f9-868f-3636826c49a4","ios":"levelo://app?vid=7d36967b-8ce1-41f9-868f-3636826c49a4"},"vehicle_type_id":"4","last_reported":1767633254,"current_range_meters":8400,"station_id":"st_d46cu089ee8s73dldbu0","pricing_plan_id":"cebpf4jnsgd1na2vs0mg"},{"bike_id":"00ebedf9-0c96-49ce-bb80-7f39d448d3e4","system_id":"levelo_inurba_marseille","lat":43.29186,"lon":5.3582,"is_reserved":false,"is_disabled":false,"rental_uris":{"android":"levelo://app?vid=00ebedf9-0c96-49ce-bb80-7f39d448d3e4","ios":"levelo://app?vid=00ebedf9-0c96-49ce-bb80-7f39d448d3e4"},"vehicle_type_id":"4","last_reported":1767633254,"current_range_meters":8400,"station_id":"ce4bhb12rcd13ifvqel0","pricing_plan_id":"cebpf4jnsgd1na2vs0mg"},{"bike_id":"6978fec3-7553-4c88-b8a0-53d7a29ef142","system_id":"levelo_inurba_marseille","lat":43.26268,"lon":5.3977,"is_reserved":false,"is_disabled":false,"rental_uris":{"android":"levelo://app?vid=6978fec3-7553-4c88-b8a0-53d7a29ef142","ios":"levelo://app?vid=6978fec3-7553-4c88-b8a0-53d7a29ef142"},"vehicle_type_id":"4","last_reported":1767633254,"current_range_meters":8400,"station_id":"","pricing_plan_id":"cebpf4jnsgd1na2vs0mg"},{"bike_id":"1d4ac6c2-012e-450b-8aaf-8c6e192c5e5b","system_id":"levelo_inurba_marseille","lat":43.30208,"lon":5.39467,"is_reserved":false,"is_disabled":false,"rental_uris":{"android":"levelo://app?vid=1d4ac6c2-012e-450b-8aaf-8c6e192c5e5b","ios":"levelo://app?vid=1d4ac6c2-012e-450b-8aaf-8c6e192c5e5b"},"vehicle_type_id":"4","last_reported":1767633254,"current_range_meters":8400,"station_id":"ce4bh0p2rcd13ifvqd70","pricing_plan_id":"cebpf4jnsgd1na2vs0mg"},{"bike_id":"536bc369-bab0-4183-accb-382a4505b9df","system_id":"levelo_inurba_marseille","lat":43.30135,"lon":5.39865,"is_reserved":false,"is_disabled":false,"rental_uris":{"android":"levelo://app?vid=536bc369-bab0-4183-accb-382a4505b9df","ios":"levelo://app?vid=536bc369-bab0-4183-accb-382a4505b9df"},"vehicle_type_id":"4","last_reported":1767633254,"current_range_meters":8400,"station_id":"ce4bh0h2rcd13ifvqd40","pricing_plan_id":"cebpf4jnsgd1na2vs0mg"},{"bike_id":"8f968c9d-e057-45ea-898c-8595b6240a39","system_id":"levelo_inurba_marseille","lat":43.29743,"lon":5.37921,"is_reserved":false,"is_disabled":false,"rental_uris":{"android":"levelo://app?vid=8f968c9d-e057-45ea-898c-8595b6240a39","ios":"levelo://app?vid=8f968c9d-e057-45ea-898c-8595b6240a39"},"vehicle_type_id":"4","last_reported":1767633254,"current_range_meters":8800,"station_id":"","pricing_plan_id":"cebpf4jnsgd1na2vs0mg"},{"bike_id":"da033954-77a4-4a42-af93-ddd0b90806cb","system_id":"levelo_inurba_marseille","lat":43.31284,"lon":5.37376,"is_reserved":false,"is_disabled":false,"rental_uris":{"android":"levelo://app?vid=da033954-77a4-4a42-af93-ddd0b90806cb","ios":"levelo://app?vid=da033954-77a4-4a42-af93-ddd0b90806cb"},"vehicle_type_id":"4","last_reported":1767633254,"current_range_meters":8800,"station_id":"","pricing_plan_id":"cebpf4jnsgd1na2vs0mg"},{"bike_id":"d15604ea-0fc0-44a6-9e74-3c22078bdf03","system_id":"levelo_inurba_marseille","lat":43.29573,"lon":5.37508,"is_reserved":false,"is_disabled":false,"rental_uris":{"android":"levelo://app?vid=d15604ea-0fc0-44a6-9e74-3c22078bdf03","ios":"levelo://app?vid=d15604ea-0fc0-44a6-9e74-3c22078bdf03"},"vehicle_type_id":"4","last_reported":1767633254,"current_range_meters":8800,"station_id":"ce4bgh92rcd13ifvqb50","pricing_plan_id":"cebpf4jnsgd1na2vs0mg"},{"bike_id":"d82bb0e5-290e-412a-8a0d-b5c3858cfef1","system_id":"levelo_inurba_marseille","lat":43.255014,"lon":5.376497,"is_reserved":false,"is_disabled":false,"rental_uris":{"android":"levelo://app?vid=d82bb0e5-290e-412a-8a0d-b5c3858cfef1","ios":"levelo://app?vid=d82bb0e5-290e-412a-8a0d-b5c3858cfef1"},"vehicle_type_id":"4","last_reported":1767633254,"current_range_meters":8800,"station_id":"ce4bhh12rcd13ifvqff0","pricing_plan_id":"cebpf4jnsgd1na2vs0mg"},{"bike_id":"355c1d25-ff0d-43f2-abc7-da11db998286","system_id":"levelo_inurba_marseille","lat":43.23191,"lon":5.35562,"is_reserved":false,"is_disabled":false,"rental_uris":{"android":"levelo://app?vid=355c1d25-ff0d-43f2-abc7-da11db998286","ios":"levelo://app?vid=355c1d25-ff0d-43f2-abc7-da11db998286"},"vehicle_type_id":"4","last_reported":1767633254,"current_range_meters":8800,"station_id":"ce4bhu92rcd13ifvqi70","pricing_plan_id":"cebpf4jnsgd1na2vs0mg"},{"bike_id":"1e8f5205-973a-43e9-90dc-afde1e68dc83","system_id":"levelo_inurba_marseille","lat":43.31069,"lon":5.40068,"is_reserved":false,"is_disabled":false,"rental_uris":{"android":"levelo://app?vid=1e8f5205-973a-43e9-90dc-afde1e68dc83","ios":"levelo://app?vid=1e8f5205-973a-43e9-90dc-afde1e68dc83"},"vehicle_type_id":"4","last_reported":1767633254,"current_range_meters":8800,"station_id":"","pricing_plan_id":"cebpf4jnsgd1na2vs0mg"},{"bike_id":"6d144e18-c317-45d2-a70f-5ce6eec5adda","system_id":"levelo_inurba_marseille","lat":43.2671,"lon":5.40208,"is_reserved":false,"is_disabled":false,"rental_uris":{"android":"levelo://app?vid=6d144e18-c317-45d2-a70f-5ce6eec5adda","ios":"levelo://app?vid=6d144e18-c317-45d2-a70f-5ce6eec5adda"},"vehicle_type_id":"4","last_reported":1767633254,"current_range_meters":8800,"station_id":"","pricing_plan_id":"cebpf4jnsgd1na2vs0mg"},{"bike_id":"2375141c-46f9-4ef6-890b-4fbb983a553c","system_id":"levelo_inurba_marseille","lat":43.29328,"lon":5.37188,"is_reserved":false,"is_disabled":true,"rental_uris":{"android":"levelo://app?vid=2375141c-46f9-4ef6-890b-4fbb983a553c","ios":"levelo://app?vid=2375141c-46f9-4ef6-890b-4fbb983a553c"},"vehicle_type_id":"4","last_reported":1767633254,"current_range_meters":8800,"station_id":"ce4bgh92rcd13ifvqb40","pricing_plan_id":"cebpf4jnsgd1na2vs0mg"},{"bike_id":"7f0effc9-a455-4ad1-9f50-585d68dccc8b","system_id":"levelo_inurba_marseille","lat":43.288131,"lon":5.363781,"is_reserved":false,"is_disabled":false,"rental_uris":{"android":"levelo://app?vid=7f0effc9-a455-4ad1-9f50-585d68dccc8b","ios":"levelo://app?vid=7f0effc9-a455-4ad1-9f50-585d68dccc8b"},"vehicle_type_id":"4","last_reported":1767633254,"current_range_meters":8800,"station_id":"","pricing_plan_id":"cebpf4jnsgd1na2vs0mg"},{"bike_id":"3f40a5f2-fac1-4f8c-b601-5ab221d91cf7","system_id":"levelo_inurba_marseille","lat":43.27444,"lon":5.39395,"is_reserved":false,"is_disabled":false,"rental_uris":{"android":"levelo://app?vid=3f40a5f2-fac1-4f8c-b601-5ab221d91cf7","ios":"levelo://app?vid=3f40a5f2-fac1-4f8c-b601-5ab221d91cf7"},"vehicle_type_id":"4","last_reported":1767633254,"current_range_meters":8800,"station_id":"ce4bhdp2rcd13ifvqf20","pricing_plan_id":"cebpf4jnsgd1na2vs0mg"},{"bike_id":"39bf0acd-4f70-47d3-a144-ba9f5f687ddd","system_id":"levelo_inurba_marseille","lat":43.25525,"lon":5.37642,"is_reserved":false,"is_disabled":false,"rental_uris":{"android":"levelo://app?vid=39bf0acd-4f70-47d3-a144-ba9f5f687ddd","ios":"levelo://app?vid=39bf0acd-4f70-47d3-a144-ba9f5f687ddd"},"vehicle_type_id":"4","last_reported":1767633254,"current_range_meters":8800,"station_id":"ce4bhh12rcd13ifvqff0","pricing_plan_id":"cebpf4jnsgd1na2vs0mg"},{"bike_id":"1ae92490-659a-4b31-9282-3be4a846553c","system_id":"levelo_inurba_marseille","lat":43.3169,"lon":5.39851,"is_reserved":false,"is_disabled":false,"rental_uris":{"android":"levelo://app?vid=1ae92490-659a-4b31-9282-3be4a846553c","ios":"levelo://app?vid=1ae92490-659a-4b31-9282-3be4a846553c"},"vehicle_type_id":"4","last_reported":1767633254,"current_range_meters":8800,"station_id":"","pricing_plan_id":"cebpf4jnsgd1na2vs0mg"},{"bike_id":"150aba92-ff82-4e7d-aa4f-4d9583997907","system_id":"levelo_inurba_marseille","lat":43.22928,"lon":5.35373,"is_reserved":false,"is_disabled":false,"rental_uris":{"android":"levelo://app?vid=150aba92-ff82-4e7d-aa4f-4d9583997907","ios":"levelo://app?vid=150aba92-ff82-4e7d-aa4f-4d9583997907"},"vehicle_type_id":"4","last_reported":1767633254,"current_range_meters":8800,"station_id":"cpo3532slgdg3j2ikp40","pricing_plan_id":"cebpf4jnsgd1na2vs0mg"},{"bike_id":"7fb60e4c-351d-4c82-b949-05a0c6795968","system_id":"levelo_inurba_marseille","lat":43.29953,"lon":5.37168,"is_reserved":false,"is_disabled":false,"rental_uris":{"android":"levelo://app?vid=7fb60e4c-351d-4c82-b949-05a0c6795968","ios":"levelo://app?vid=7fb60e4c-351d-4c82-b949-05a0c6795968"},"vehicle_type_id":"4","last_reported":1767633254,"current_range_meters":8800,"station_id":"ce4bgr92rcd13ifvqc7g","pricing_plan_id":"cebpf4jnsgd1na2vs0mg"},{"bike_id":"6f46e1b4-663e-4c43-9cc4-4c8a983f164f","system_id":"levelo_inurba_marseille","lat":43.23143,"lon":5.43713,"is_reserved":false,"is_disabled":false,"rental_uris":{"android":"levelo://app?vid=6f46e1b4-663e-4c43-9cc4-4c8a983f164f","ios":"levelo://app?vid=6f46e1b4-663e-4c43-9cc4-4c8a983f164f"},"vehicle_type_id":"4","last_reported":1767633254,"current_range_meters":8800,"station_id":"ce4bhmp2rcd13ifvqgog","pricing_plan_id":"cebpf4jnsgd1na2vs0mg"},{"bike_id":"7c66cd5b-1ea7-4bc0-8234-30b50d6f8f8b","system_id":"levelo_inurba_marseille","lat":43.33146,"lon":5.37696,"is_reserved":false,"is_disabled":false,"rental_uris":{"android":"levelo://app?vid=7c66cd5b-1ea7-4bc0-8234-30b50d6f8f8b","ios":"levelo://app?vid=7c66cd5b-1ea7-4bc0-8234-30b50d6f8f8b"},"vehicle_type_id":"4","last_reported":1767633254,"current_range_meters":8800,"station_id":"st_d46cu089ee8s73dldbu0","pricing_plan_id":"cebpf4jnsgd1na2vs0mg"},{"bike_id":"5ea8c758-8d88-4a0d-8adf-3234df9934ae","system_id":"levelo_inurba_marseille","lat":43.29783,"lon":5.37761,"is_reserved":false,"is_disabled":false,"rental_uris":{"android":"levelo://app?vid=5ea8c758-8d88-4a0d-8adf-3234df9934ae","ios":"levelo://app?vid=5ea8c758-8d88-4a0d-8adf-3234df9934ae"},"vehicle_type_id":"4","last_reported":1767633254,"current_range_meters":8800,"station_id":"","pricing_plan_id":"cebpf4jnsgd1na2vs0mg"},{"bike_id":"0242a1c2-b03f-4a3a-842d-1410b959cdb4","system_id":"levelo_inurba_marseille","lat":43.30548,"lon":5.3674,"is_reserved":false,"is_disabled":false,"rental_uris":{"android":"levelo://app?vid=0242a1c2-b03f-4a3a-842d-1410b959cdb4","ios":"levelo://app?vid=0242a1c2-b03f-4a3a-842d-1410b959cdb4"},"vehicle_type_id":"4","last_reported":1767633254,"current_range_meters":8800,"station_id":"ce4bgrp2rcd13ifvqc9g","pricing_plan_id":"cebpf4jnsgd1na2vs0mg"},{"bike_id":"f96d9448-b77f-434b-8c61-0a6d4704e14f","system_id":"levelo_inurba_marseille","lat":43.25327,"lon":5.42164,"is_reserved":false,"is_disabled":false,"rental_uris":{"android":"levelo://app?vid=f96d9448-b77f-434b-8c61-0a6d4704e14f","ios":"levelo://app?vid=f96d9448-b77f-434b-8c61-0a6d4704e14f"},"vehicle_type_id":"4","last_reported":1767633254,"current_range_meters":8800,"station_id":"st_d2m65c5bi1j21697t3ng","pricing_plan_id":"cebpf4jnsgd1na2vs0mg"},{"bike_id":"1264fd15-027a-4cd5-ae9c-a0390e29b43c","system_id":"levelo_inurba_marseille","lat":43.27996,"lon":5.40021,"is_reserved":false,"is_disabled":false,"rental_uris":{"android":"levelo://app?vid=1264fd15-027a-4cd5-ae9c-a0390e29b43c","ios":"levelo://app?vid=1264fd15-027a-4cd5-ae9c-a0390e29b43c"},"vehicle_type_id":"4","last_reported":1767633254,"current_range_meters":8800,"station_id":"ce4bho92rcd13ifvqh4g","pricing_plan_id":"cebpf4jnsgd1na2vs0mg"},{"bike_id":"d63adab8-fe33-47d0-bef7-72b9f680ef30","system_id":"levelo_inurba_marseille","lat":43.28862,"lon":5.42523,"is_reserved":false,"is_disabled":false,"rental_uris":{"android":"levelo://app?vid=d63adab8-fe33-47d0-bef7-72b9f680ef30","ios":"levelo://app?vid=d63adab8-fe33-47d0-bef7-72b9f680ef30"},"vehicle_type_id":"4","last_reported":1767633254,"current_range_meters":8800,"station_id":"st_d3b462108ojc7389ooeg","pricing_plan_id":"cebpf4jnsgd1na2vs0mg"},{"bike_id":"7691ecae-e3bc-4c1e-bb4e-7b24a1d8adc3","system_id":"levelo_inurba_marseille","lat":43.23965,"lon":5.36617,"is_reserved":false,"is_disabled":false,"rental_uris":{"android":"levelo://app?vid=7691ecae-e3bc-4c1e-bb4e-7b24a1d8adc3","ios":"levelo://app?vid=7691ecae-e3bc-4c1e-bb4e-7b24a1d8adc3"},"vehicle_type_id":"4","last_reported":1767633254,"current_range_meters":8800,"station_id":"ce4bhi12rcd13ifvqfp0","pricing_plan_id":"cebpf4jnsgd1na2vs0mg"},{"bike_id":"92aeda0c-1895-4c69-98d6-84e3cfc51c11","system_id":"levelo_inurba_marseille","lat":43.30068,"lon":5.39069,"is_reserved":false,"is_disabled":false,"rental_uris":{"android":"levelo://app?vid=92aeda0c-1895-4c69-98d6-84e3cfc51c11","ios":"levelo://app?vid=92aeda0c-1895-4c69-98d6-84e3cfc51c11"},"vehicle_type_id":"4","last_reported":1767633254,"current_range_meters":8800,"station_id":"ce4bh192rcd13ifvqdb0","pricing_plan_id":"cebpf4jnsgd1na2vs0mg"},{"bike_id":"8d12e143-53ab-41c2-932c-c721f685728d","system_id":"levelo_inurba_marseille","lat":43.27843,"lon":5.39211,"is_reserved":false,"is_disabled":false,"rental_uris":{"android":"levelo://app?vid=8d12e143-53ab-41c2-932c-c721f685728d","ios":"levelo://app?vid=8d12e143-53ab-41c2-932c-c721f685728d"},"vehicle_type_id":"4","last_reported":1767633254,"current_range_meters":9200,"station_id":"ce4bhjp2rcd13ifvqga0","pricing_plan_id":"cebpf4jnsgd1na2vs0mg"},{"bike_id":"551eef8a-43e6-4ab8-96b2-da5b120401fd","system_id":"levelo_inurba_marseille","lat":43.29531,"lon":5.39048,"is_reserved":false,"is_disabled":false,"rental_uris":{"android":"levelo://app?vid=551eef8a-43e6-4ab8-96b2-da5b120401fd","ios":"levelo://app?vid=551eef8a-43e6-4ab8-96b2-da5b120401fd"},"vehicle_type_id":"4","last_reported":1767633254,"current_range_meters":9200,"station_id":"ce4bh3p2rcd13ifvqdp0","pricing_plan_id":"cebpf4jnsgd1na2vs0mg"},{"bike_id":"ece91064-8675-490a-b853-1cfa2d016560","system_id":"levelo_inurba_marseille","lat":43.23973,"lon":5.36607,"is_reserved":false,"is_disabled":false,"rental_uris":{"android":"levelo://app?vid=ece91064-8675-490a-b853-1cfa2d016560","ios":"levelo://app?vid=ece91064-8675-490a-b853-1cfa2d016560"},"vehicle_type_id":"4","last_reported":1767633254,"current_range_meters":9200,"station_id":"ce4bhi12rcd13ifvqfp0","pricing_plan_id":"cebpf4jnsgd1na2vs0mg"},{"bike_id":"b54e5aa3-f80c-415f-8398-f57ed95bfed2","system_id":"levelo_inurba_marseille","lat":43.22557,"lon":5.41641,"is_reserved":false,"is_disabled":false,"rental_uris":{"android":"levelo://app?vid=b54e5aa3-f80c-415f-8398-f57ed95bfed2","ios":"levelo://app?vid=b54e5aa3-f80c-415f-8398-f57ed95bfed2"},"vehicle_type_id":"4","last_reported":1767633254,"current_range_meters":9200,"station_id":"st_d2o4gvlbi1j2169b742g","pricing_plan_id":"cebpf4jnsgd1na2vs0mg"},{"bike_id":"f195a72e-e4f7-4129-808a-cab5b6257fad","system_id":"levelo_inurba_marseille","lat":43.21203,"lon":5.35073,"is_reserved":false,"is_disabled":false,"rental_uris":{"android":"levelo://app?vid=f195a72e-e4f7-4129-808a-cab5b6257fad","ios":"levelo://app?vid=f195a72e-e4f7-4129-808a-cab5b6257fad"},"vehicle_type_id":"4","last_reported":1767633254,"current_range_meters":9200,"station_id":"st_cvj6sg6p6f1abm77japg","pricing_plan_id":"cebpf4jnsgd1na2vs0mg"},{"bike_id":"d479a5e7-3cbe-4ebf-a3e1-182f6667dcef","system_id":"levelo_inurba_marseille","lat":43.24395,"lon":5.37068,"is_reserved":false,"is_disabled":false,"rental_uris":{"android":"levelo://app?vid=d479a5e7-3cbe-4ebf-a3e1-182f6667dcef","ios":"levelo://app?vid=d479a5e7-3cbe-4ebf-a3e1-182f6667dcef"},"vehicle_type_id":"4","last_reported":1767633254,"current_range_meters":9200,"station_id":"ce4bhhh2rcd13ifvqfk0","pricing_plan_id":"cebpf4jnsgd1na2vs0mg"},{"bike_id":"0cefd005-8f14-4104-a68c-2a3b94f7cc3f","system_id":"levelo_inurba_marseille","lat":43.308913,"lon":5.396604,"is_reserved":false,"is_disabled":false,"rental_uris":{"android":"levelo://app?vid=0cefd005-8f14-4104-a68c-2a3b94f7cc3f","ios":"levelo://app?vid=0cefd005-8f14-4104-a68c-2a3b94f7cc3f"},"vehicle_type_id":"4","last_reported":1767633254,"current_range_meters":9200,"station_id":"ce4bh012rcd13ifvqcv0","pricing_plan_id":"cebpf4jnsgd1na2vs0mg"},{"bike_id":"7213f801-8035-4d92-8a3f-13fbdf97c210","system_id":"levelo_inurba_marseille","lat":43.313413,"lon":5.367149,"is_reserved":false,"is_disabled":false,"rental_uris":{"android":"levelo://app?vid=7213f801-8035-4d92-8a3f-13fbdf97c210","ios":"levelo://app?vid=7213f801-8035-4d92-8a3f-13fbdf97c210"},"vehicle_type_id":"4","last_reported":1767633254,"current_range_meters":9200,"station_id":"ce4bgr92rcd13ifvqc6g","pricing_plan_id":"cebpf4jnsgd1na2vs0mg"},{"bike_id":"5eb9d049-497c-49ad-9dab-0cd5459065b5","system_id":"levelo_inurba_marseille","lat":43.28487,"lon":5.3841,"is_reserved":false,"is_disabled":false,"rental_uris":{"android":"levelo://app?vid=5eb9d049-497c-49ad-9dab-0cd5459065b5","ios":"levelo://app?vid=5eb9d049-497c-49ad-9dab-0cd5459065b5"},"vehicle_type_id":"4","last_reported":1767633254,"current_range_meters":9200,"station_id":"ce4bh512rcd13ifvqe3g","pricing_plan_id":"cebpf4jnsgd1na2vs0mg"},{"bike_id":"c1694b41-e18e-46a6-ad0f-1cad09925867","system_id":"levelo_inurba_marseille","lat":43.28865,"lon":5.42512,"is_reserved":false,"is_disabled":false,"rental_uris":{"android":"levelo://app?vid=c1694b41-e18e-46a6-ad0f-1cad09925867","ios":"levelo://app?vid=c1694b41-e18e-46a6-ad0f-1cad09925867"},"vehicle_type_id":"4","last_reported":1767633254,"current_range_meters":9200,"station_id":"st_d3b462108ojc7389ooeg","pricing_plan_id":"cebpf4jnsgd1na2vs0mg"},{"bike_id":"3a8eae66-603b-4cc6-a47a-5e999d573fad","system_id":"levelo_inurba_marseille","lat":43.27013,"lon":5.3874,"is_reserved":false,"is_disabled":false,"rental_uris":{"android":"levelo://app?vid=3a8eae66-603b-4cc6-a47a-5e999d573fad","ios":"levelo://app?vid=3a8eae66-603b-4cc6-a47a-5e999d573fad"},"vehicle_type_id":"4","last_reported":1767633254,"current_range_meters":9200,"station_id":"","pricing_plan_id":"cebpf4jnsgd1na2vs0mg"},{"bike_id":"23d1602c-a47e-48e7-813b-03d60c356b05","system_id":"levelo_inurba_marseille","lat":43.30143,"lon":5.37422,"is_reserved":false,"is_disabled":false,"rental_uris":{"android":"levelo://app?vid=23d1602c-a47e-48e7-813b-03d60c356b05","ios":"levelo://app?vid=23d1602c-a47e-48e7-813b-03d60c356b05"},"vehicle_type_id":"4","last_reported":1767633254,"current_range_meters":9200,"station_id":"ce4bgs92rcd13ifvqcc0","pricing_plan_id":"cebpf4jnsgd1na2vs0mg"},{"bike_id":"aff7ede2-d3c6-4426-827e-a4ce14157f34","system_id":"levelo_inurba_marseille","lat":43.30763,"lon":5.3814,"is_reserved":false,"is_disabled":false,"rental_uris":{"android":"levelo://app?vid=aff7ede2-d3c6-4426-827e-a4ce14157f34","ios":"levelo://app?vid=aff7ede2-d3c6-4426-827e-a4ce14157f34"},"vehicle_type_id":"4","last_reported":1767633254,"current_range_meters":9200,"station_id":"ce4bgj12rcd13ifvqbc0","pricing_plan_id":"cebpf4jnsgd1na2vs0mg"},{"bike_id":"1a2813d5-d6c9-4ab7-995b-dd7864d7e0a5","system_id":"levelo_inurba_marseille","lat":43.28708,"lon":5.39967,"is_reserved":false,"is_disabled":false,"rental_uris":{"android":"levelo://app?vid=1a2813d5-d6c9-4ab7-995b-dd7864d7e0a5","ios":"levelo://app?vid=1a2813d5-d6c9-4ab7-995b-dd7864d7e0a5"},"vehicle_type_id":"4","last_reported":1767633254,"current_range_meters":9200,"station_id":"ce4bho92rcd13ifvqh3g","pricing_plan_id":"cebpf4jnsgd1na2vs0mg"},{"bike_id":"48cb5e65-0874-43c1-81b7-43be0bcb9709","system_id":"levelo_inurba_marseille","lat":43.248265,"lon":5.374478,"is_reserved":false,"is_disabled":false,"rental_uris":{"android":"levelo://app?vid=48cb5e65-0874-43c1-81b7-43be0bcb9709","ios":"levelo://app?vid=48cb5e65-0874-43c1-81b7-43be0bcb9709"},"vehicle_type_id":"4","last_reported":1767633254,"current_range_meters":9200,"station_id":"ce4bhgh2rcd13ifvqfb0","pricing_plan_id":"cebpf4jnsgd1na2vs0mg"},{"bike_id":"e95ce2d0-07e6-408c-94e5-1989f12b6691","system_id":"levelo_inurba_marseille","lat":43.24394,"lon":5.37062,"is_reserved":false,"is_disabled":false,"rental_uris":{"android":"levelo://app?vid=e95ce2d0-07e6-408c-94e5-1989f12b6691","ios":"levelo://app?vid=e95ce2d0-07e6-408c-94e5-1989f12b6691"},"vehicle_type_id":"4","last_reported":1767633254,"current_range_meters":9200,"station_id":"ce4bhhh2rcd13ifvqfk0","pricing_plan_id":"cebpf4jnsgd1na2vs0mg"},{"bike_id":"08597d3b-78bf-4d1d-84e3-67cebc91408d","system_id":"levelo_inurba_marseille","lat":43.2558,"lon":5.38231,"is_reserved":false,"is_disabled":false,"rental_uris":{"android":"levelo://app?vid=08597d3b-78bf-4d1d-84e3-67cebc91408d","ios":"levelo://app?vid=08597d3b-78bf-4d1d-84e3-67cebc91408d"},"vehicle_type_id":"4","last_reported":1767633254,"current_range_meters":9200,"station_id":"ce4bhih2rcd13ifvqfs0","pricing_plan_id":"cebpf4jnsgd1na2vs0mg"},{"bike_id":"a7964125-5226-4a01-9db6-d54dd3124381","system_id":"levelo_inurba_marseille","lat":43.30441,"lon":5.38899,"is_reserved":false,"is_disabled":false,"rental_uris":{"android":"levelo://app?vid=a7964125-5226-4a01-9db6-d54dd3124381","ios":"levelo://app?vid=a7964125-5226-4a01-9db6-d54dd3124381"},"vehicle_type_id":"4","last_reported":1767633254,"current_range_meters":9600,"station_id":"ce4bgk12rcd13ifvqbi0","pricing_plan_id":"cebpf4jnsgd1na2vs0mg"},{"bike_id":"8b3ac315-2885-4111-ba33-ec1516cc1aa3","system_id":"levelo_inurba_marseille","lat":43.31169,"lon":5.38711,"is_reserved":false,"is_disabled":false,"rental_uris":{"android":"levelo://app?vid=8b3ac315-2885-4111-ba33-ec1516cc1aa3","ios":"levelo://app?vid=8b3ac315-2885-4111-ba33-ec1516cc1aa3"},"vehicle_type_id":"4","last_reported":1767633254,"current_range_meters":9600,"station_id":"ce4bgv12rcd13ifvqcp0","pricing_plan_id":"cebpf4jnsgd1na2vs0mg"},{"bike_id":"0e1237f5-c526-48aa-8d6e-d4762d4905eb","system_id":"levelo_inurba_marseille","lat":43.28866,"lon":5.42504,"is_reserved":false,"is_disabled":false,"rental_uris":{"android":"levelo://app?vid=0e1237f5-c526-48aa-8d6e-d4762d4905eb","ios":"levelo://app?vid=0e1237f5-c526-48aa-8d6e-d4762d4905eb"},"vehicle_type_id":"4","last_reported":1767633254,"current_range_meters":9600,"station_id":"st_d3b462108ojc7389ooeg","pricing_plan_id":"cebpf4jnsgd1na2vs0mg"},{"bike_id":"1a6e1c7c-9ed2-4166-8162-ade6bcac84e8","system_id":"levelo_inurba_marseille","lat":43.23953,"lon":5.36646,"is_reserved":false,"is_disabled":false,"rental_uris":{"android":"levelo://app?vid=1a6e1c7c-9ed2-4166-8162-ade6bcac84e8","ios":"levelo://app?vid=1a6e1c7c-9ed2-4166-8162-ade6bcac84e8"},"vehicle_type_id":"4","last_reported":1767633254,"current_range_meters":9600,"station_id":"ce4bhi12rcd13ifvqfp0","pricing_plan_id":"cebpf4jnsgd1na2vs0mg"},{"bike_id":"69b54c5e-99fd-4b4a-a8fa-07e156c09108","system_id":"levelo_inurba_marseille","lat":43.27949,"lon":5.41048,"is_reserved":false,"is_disabled":false,"rental_uris":{"android":"levelo://app?vid=69b54c5e-99fd-4b4a-a8fa-07e156c09108","ios":"levelo://app?vid=69b54c5e-99fd-4b4a-a8fa-07e156c09108"},"vehicle_type_id":"4","last_reported":1767633254,"current_range_meters":9600,"station_id":"ce4bhnp2rcd13ifvqh0g","pricing_plan_id":"cebpf4jnsgd1na2vs0mg"},{"bike_id":"b3210e81-09d9-486e-b51e-83859801ecb9","system_id":"levelo_inurba_marseille","lat":43.246164,"lon":5.431443,"is_reserved":false,"is_disabled":false,"rental_uris":{"android":"levelo://app?vid=b3210e81-09d9-486e-b51e-83859801ecb9","ios":"levelo://app?vid=b3210e81-09d9-486e-b51e-83859801ecb9"},"vehicle_type_id":"4","last_reported":1767633254,"current_range_meters":9600,"station_id":"st_d2m6c4gdas8pm72e190g","pricing_plan_id":"cebpf4jnsgd1na2vs0mg"},{"bike_id":"1b152ae5-9ff7-4d57-b381-b6d23a851225","system_id":"levelo_inurba_marseille","lat":43.3353,"lon":5.37451,"is_reserved":false,"is_disabled":false,"rental_uris":{"android":"levelo://app?vid=1b152ae5-9ff7-4d57-b381-b6d23a851225","ios":"levelo://app?vid=1b152ae5-9ff7-4d57-b381-b6d23a851225"},"vehicle_type_id":"4","last_reported":1767633254,"current_range_meters":9600,"station_id":"st_d46tts09ee8s73dlu43g","pricing_plan_id":"cebpf4jnsgd1na2vs0mg"},{"bike_id":"40f2de2e-f0cb-4446-9f43-80012f17f8ce","system_id":"levelo_inurba_marseille","lat":43.3234,"lon":5.36723,"is_reserved":false,"is_disabled":false,"rental_uris":{"android":"levelo://app?vid=40f2de2e-f0cb-4446-9f43-80012f17f8ce","ios":"levelo://app?vid=40f2de2e-f0cb-4446-9f43-80012f17f8ce"},"vehicle_type_id":"4","last_reported":1767633254,"current_range_meters":9600,"station_id":"ce4bhsh2rcd13ifvqi2g","pricing_plan_id":"cebpf4jnsgd1na2vs0mg"},{"bike_id":"9ffd8e4e-6671-4e68-b198-26c59cc5e3d1","system_id":"levelo_inurba_marseille","lat":43.32652,"lon":5.41944,"is_reserved":false,"is_disabled":false,"rental_uris":{"android":"levelo://app?vid=9ffd8e4e-6671-4e68-b198-26c59cc5e3d1","ios":"levelo://app?vid=9ffd8e4e-6671-4e68-b198-26c59cc5e3d1"},"vehicle_type_id":"4","last_reported":1767633254,"current_range_meters":9600,"station_id":"","pricing_plan_id":"cebpf4jnsgd1na2vs0mg"},{"bike_id":"3077bbe2-40f3-4b7c-bbe1-e9dd2ad409a9","system_id":"levelo_inurba_marseille","lat":43.301223,"lon":5.398905,"is_reserved":false,"is_disabled":false,"rental_uris":{"android":"levelo://app?vid=3077bbe2-40f3-4b7c-bbe1-e9dd2ad409a9","ios":"levelo://app?vid=3077bbe2-40f3-4b7c-bbe1-e9dd2ad409a9"},"vehicle_type_id":"4","last_reported":1767633254,"current_range_meters":9600,"station_id":"ce4bh0h2rcd13ifvqd40","pricing_plan_id":"cebpf4jnsgd1na2vs0mg"},{"bike_id":"f3085532-c820-4ee5-8fb7-55e6df518667","system_id":"levelo_inurba_marseille","lat":43.25335,"lon":5.42165,"is_reserved":false,"is_disabled":false,"rental_uris":{"android":"levelo://app?vid=f3085532-c820-4ee5-8fb7-55e6df518667","ios":"levelo://app?vid=f3085532-c820-4ee5-8fb7-55e6df518667"},"vehicle_type_id":"4","last_reported":1767633254,"current_range_meters":9600,"station_id":"st_d2m65c5bi1j21697t3ng","pricing_plan_id":"cebpf4jnsgd1na2vs0mg"},