{"last_updated":1740863241,"ttl":60,"version":"2.2","data":{"bikes":[{"bike_id":"4e912246-6e6e-4649-bf22-2ef3d8f31d5e","system_id":"levelo_inurba_marseille","lat":43.297931,"lon":5.381022,"is_reserved":false,"is_disabled":false,"rental_uris":{"android":"levelo://app?vid=4e912246-6e6e-4649-bf22-2ef3d8f31d5e","ios":"levelo://app?vid=4e912246-6e6e-4649-bf22-2ef3d8f31d5e"},"vehicle_type_id":"4","last_reported":1740863241,"current_range_meters":2800,"station_id":"ce4bgip2rcd13ifvqbb0","pricing_plan_id":"cebpf4jnsgd1na2vs0mg"},{"bike_id":"7c42f1a6-ce55-47af-8ce7-9ec28bbe1b69","system_id":"levelo_inurba_marseille","lat":43.28972,"lon":5.37849,"is_reserved":false,"is_disabled":false,"rental_uris":{"android":"levelo://app?vid=7c42f1a6-ce55-47af-8ce7-9ec28bbe1b69","ios":"levelo://app?vid=7c42f1a6-ce55-47af-8ce7-9ec28bbe1b69"},"vehicle_type_id":"4","last_reported":1740863241,"current_range_meters":2800,"station_id":"ce4bh9p2rcd13ifvqed0","pricing_plan_id":"cebpf4jnsgd1na2vs0mg"},{"bike_id":"b04c65e5-66d7-4157-8f06-49b7a58abf34","system_id":"levelo_inurba_marseille","lat":43.25019,"lon":5.38928,"is_reserved":false,"is_disabled":false,"rental_uris":{"android":"levelo://app?vid=b04c65e5-66d7-4157-8f06-49b7a58abf34","ios":"levelo://app?vid=b04c65e5-66d7-4157-8f06-49b7a58abf34"},"vehicle_type_id":"4","last_reported":1740863241,"current_range_meters":2800,"station_id":"ce4bhgp2rcd13ifvqfd0","pricing_plan_id":"cebpf4jnsgd1na2vs0mg"},{"bike_id":"5db4270d-6f4d-4254-8f90-b51dba2cf689","system_id":"levelo_inurba_marseille","lat":43.24804,"lon":5.37453,"is_reserved":false,"is_disabled":false,"rental_uris":{"android":"levelo://app?vid=5db4270d-6f4d-4254-8f90-b51dba2cf689","ios":"levelo://app?vid=5db4270d-6f4d-4254-8f90-b51dba2cf689"},"vehicle_type_id":"4","last_reported":1740863241,"current_range_meters":3200,"station_id":"ce4bhgh2rcd13ifvqfb0","pricing_plan_id":"cebpf4jnsgd1na2vs0mg"},{"bike_id":"68b77d19-8319-49bf-b0ec-48b4a1819124","system_id":"levelo_inurba_marseille","lat":43.29419,"lon":5.38628,"is_reserved":false,"is_disabled":false,"rental_uris":{"android":"levelo://app?vid=68b77d19-8319-49bf-b0ec-48b4a1819124","ios":"levelo://app?vid=68b77d19-8319-49bf-b0ec-48b4a1819124"},"vehicle_type_id":"4","last_reported":1740863241,"current_range_meters":3600,"station_id":"ce4bh2h2rcd13ifvqdh0","pricing_plan_id":"cebpf4jnsgd1na2vs0mg"},{"bike_id":"510dc392-1a06-4284-b142-193be3fd0624","system_id":"levelo_inurba_marseille","lat":43.29292,"lon":5.37164,"is_reserved":false,"is_disabled":false,"rental_uris":{"android":"levelo://app?vid=510dc392-1a06-4284-b142-193be3fd0624","ios":"levelo://app?vid=510dc392-1a06-4284-b142-193be3fd0624"},"vehicle_type_id":"4","last_reported":1740863241,"current_range_meters":3600,"station_id":"ce4bgh92rcd13ifvqb40","pricing_plan_id":"cebpf4jnsgd1na2vs0mg"},{"bike_id":"49e0a034-277f-4658-83cf-83e39377ef50","system_id":"levelo_inurba_marseille","lat":43.29521,"lon":5.37954,"is_reserved":false,"is_disabled":false,"rental_uris":{"android":"levelo://app?vid=49e0a034-277f-4658-83cf-83e39377ef50","ios":"levelo://app?vid=49e0a034-277f-4658-83cf-83e39377ef50"},"vehicle_type_id":"4","last_reported":1740863241,"current_range_meters":4000,"station_id":"","pricing_plan_id":"cebpf4jnsgd1na2vs0mg"},{"bike_id":"01db09d2-daee-4fa5-8866-08b35e9af81f","system_id":"levelo_inurba_marseille","lat":43.29552,"lon":5.42267,"is_reserved":false,"is_disabled":true,"rental_uris":{"android":"levelo://app?vid=01db09d2-daee-4fa5-8866-08b35e9af81f","ios":"levelo://app?vid=01db09d2-daee-4fa5-8866-08b35e9af81f"},"vehicle_type_id":"4","last_reported":1740863241,"current_range_meters":4400,"station_id":"ce4bhph2rcd13ifvqhdg","pricing_plan_id":"cebpf4jnsgd1na2vs0mg"},{"bike_id":"f2f2e75b-65a1-46e6-81f2-12533db5645e","system_id":"levelo_inurba_marseille","lat":43.29299,"lon":5.37154,"is_reserved":false,"is_disabled":false,"rental_uris":{"android":"levelo://app?vid=f2f2e75b-65a1-46e6-81f2-12533db5645e","ios":"levelo://app?vid=f2f2e75b-65a1-46e6-81f2-12533db5645e"},"vehicle_type_id":"4","last_reported":1740863241,"current_range_meters":4400,"station_id":"ce4bgh92rcd13ifvqb40","pricing_plan_id":"cebpf4jnsgd1na2vs0mg"},{"bike_id":"bed4b083-1606-44bf-9af2-257efa1b1d7c","system_id":"levelo_inurba_marseille","lat":43.24163,"lon":5.36395,"is_reserved":false,"is_disabled":false,"rental_uris":{"android":"levelo://app?vid=bed4b083-1606-44bf-9af2-257efa1b1d7c","ios":"levelo://app?vid=bed4b083-1606-44bf-9af2-257efa1b1d7c"},"vehicle_type_id":"4","last_reported":1740863241,"current_range_meters":4800,"station_id":"cpo36qri1sfpv3e86is0","pricing_plan_id":"cebpf4jnsgd1na2vs0mg"},{"bike_id":"49ddb994-ddea-4fb8-b458-86b6a51e708b","system_id":"levelo_inurba_marseille","lat":43.29203,"lon":5.39334,"is_reserved":false,"is_disabled":false,"rental_uris":{"android":"levelo://app?vid=49ddb994-ddea-4fb8-b458-86b6a51e708b","ios":"levelo://app?vid=49ddb994-ddea-4fb8-b458-86b6a51e708b"},"vehicle_type_id":"4","last_reported":1740863241,"current_range_meters":4800,"station_id":"ce4bh192rcd13ifvqdd0","pricing_plan_id":"cebpf4jnsgd1na2vs0mg"},{"bike_id":"e0449a16-1829-4a59-b5b9-8208f7e75e57","system_id":"levelo_inurba_marseille","lat":43.29032,"lon":5.38125,"is_reserved":false,"is_disabled":false,"rental_uris":{"android":"levelo://app?vid=e0449a16-1829-4a59-b5b9-8208f7e75e57","ios":"levelo://app?vid=e0449a16-1829-4a59-b5b9-8208f7e75e57"},"vehicle_type_id":"4","last_reported":1740863241,"current_range_meters":4800,"station_id":"ce4bh4p2rcd13ifvqe1g","pricing_plan_id":"cebpf4jnsgd1na2vs0mg"},{"bike_id":"d314dfb4-8399-4acf-aadf-42bb5083f38c","system_id":"levelo_inurba_marseille","lat":43.25815,"lon":5.39428,"is_reserved":false,"is_disabled":false,"rental_uris":{"android":"levelo://app?vid=d314dfb4-8399-4acf-aadf-42bb5083f38c","ios":"levelo://app?vid=d314dfb4-8399-4acf-aadf-42bb5083f38c"},"vehicle_type_id":"4","last_reported":1740863241,"current_range_meters":4800,"station_id":"ce4bhip2rcd13ifvqft0","pricing_plan_id":"cebpf4jnsgd1na2vs0mg"},{"bike_id":"abf92611-d2e4-4b09-88b1-462f8bf2d515","system_id":"levelo_inurba_marseille","lat":43.30607,"lon":5.37226,"is_reserved":false,"is_disabled":false,"rental_uris":{"android":"levelo://app?vid=abf92611-d2e4-4b09-88b1-462f8bf2d515","ios":"levelo://app?vid=abf92611-d2e4-4b09-88b1-462f8bf2d515"},"vehicle_type_id":"4","last_reported":1740863241,"current_range_meters":4800,"station_id":"ce4bgqh2rcd13ifvqc4g","pricing_plan_id":"cebpf4jnsgd1na2vs0mg"},{"bike_id":"8feb1ea1-34fe-459d-a1cb-0836f242991b","system_id":"levelo_inurba_marseille","lat":43.24179,"lon":5.39729,"is_reserved":false,"is_disabled":false,"rental_uris":{"android":"levelo://app?vid=8feb1ea1-34fe-459d-a1cb-0836f242991b","ios":"levelo://app?vid=8feb1ea1-34fe-459d-a1cb-0836f242991b"},"vehicle_type_id":"4","last_reported":1740863241,"current_range_meters":5600,"station_id":"ce4bhn12rcd13ifvqgpg","pricing_plan_id":"cebpf4jnsgd1na2vs0mg"},{"bike_id":"6d4e9e84-63f2-43f4-89a7-8fff77e62439","system_id":"levelo_inurba_marseille","lat":43.29532,"lon":5.37498,"is_reserved":false,"is_disabled":false,"rental_uris":{"android":"levelo://app?vid=6d4e9e84-63f2-43f4-89a7-8fff77e62439","ios":"levelo://app?vid=6d4e9e84-63f2-43f4-89a7-8fff77e62439"},"vehicle_type_id":"4","last_reported":1740863241,"current_range_meters":5600,"station_id":"ce4bgkp2rcd13ifvqbmg","pricing_plan_id":"cebpf4jnsgd1na2vs0mg"},{"bike_id":"dd34c543-1097-404a-9add-e2758e6c0d99","system_id":"levelo_inurba_marseille","lat":43.24172,"lon":5.36404,"is_reserved":false,"is_disabled":false,"rental_uris":{"android":"levelo://app?vid=dd34c543-1097-404a-9add-e2758e6c0d99","ios":"levelo://app?vid=dd34c543-1097-404a-9add-e2758e6c0d99"},"vehicle_type_id":"4","last_reported":1740863241,"current_range_meters":6000,"station_id":"cpo36qri1sfpv3e86is0","pricing_plan_id":"cebpf4jnsgd1na2vs0mg"},{"bike_id":"ec9654ec-f05c-4214-9ace-1abe99c74b52","system_id":"levelo_inurba_marseille","lat":43.27489,"lon":5.43488,"is_reserved":false,"is_disabled":false,"rental_uris":{"android":"levelo://app?vid=ec9654ec-f05c-4214-9ace-1abe99c74b52","ios":"levelo://app?vid=ec9654ec-f05c-4214-9ace-1abe99c74b52"},"vehicle_type_id":"4","last_reported":1740863241,"current_range_meters":6000,"station_id":"","pricing_plan_id":"cebpf4jnsgd1na2vs0mg"},{"bike_id":"8dbd79ab-8d7e-44ba-9f11-4afd7e562df1","system_id":"levelo_inurba_marseille","lat":43.250247,"lon":5.38916,"is_reserved":false,"is_disabled":false,"rental_uris":{"android":"levelo://app?vid=8dbd79ab-8d7e-44ba-9f11-4afd7e562df1","ios":"levelo://app?vid=8dbd79ab-8d7e-44ba-9f11-4afd7e562df1"},"vehicle_type_id":"4","last_reported":1740863241,"current_range_meters":6000,"station_id":"ce4bhgp2rcd13ifvqfd0","pricing_plan_id":"cebpf4jnsgd1na2vs0mg"},{"bike_id":"576bf4de-0033-46bf-9e74-74d91d945d5e","system_id":"levelo_inurba_marseille","lat":43.31218,"lon":5.36868,"is_reserved":false,"is_disabled":false,"rental_uris":{"android":"levelo://app?vid=576bf4de-0033-46bf-9e74-74d91d945d5e","ios":"levelo://app?vid=576bf4de-0033-46bf-9e74-74d91d945d5e"},"vehicle_type_id":"4","last_reported":1740863241,"current_range_meters":6400,"station_id":"ce4bgl92rcd13ifvqbq0","pricing_plan_id":"cebpf4jnsgd1na2vs0mg"},{"bike_id":"edf65a5a-d9d1-40bf-ba7e-a28da1bdd82b","system_id":"levelo_inurba_marseille","lat":43.29365,"lon":5.37852,"is_reserved":false,"is_disabled":false,"rental_uris":{"android":"levelo://app?vid=edf65a5a-d9d1-40bf-ba7e-a28da1bdd82b","ios":"levelo://app?vid=edf65a5a-d9d1-40bf-ba7e-a28da1bdd82b"},"vehicle_type_id":"4","last_reported":1740863241,"current_range_meters":6400,"station_id":"ce4bgjh2rcd13ifvqbf0","pricing_plan_id":"cebpf4jnsgd1na2vs0mg"},{"bike_id":"bf539502-6044-4aa2-acf9-ffbcdaefd787","system_id":"levelo_inurba_marseille","lat":43.27972,"lon":5.3875,"is_reserved":false,"is_disabled":false,"rental_uris":{"android":"levelo://app?vid=bf539502-6044-4aa2-acf9-ffbcdaefd787","ios":"levelo://app?vid=bf539502-6044-4aa2-acf9-ffbcdaefd787"},"vehicle_type_id":"4","last_reported":1740863241,"current_range_meters":6400,"station_id":"ce4bhg12rcd13ifvqf80","pricing_plan_id":"cebpf4jnsgd1na2vs0mg"},{"bike_id":"5700abad-eeff-40d2-b282-06e4ac95674c","system_id":"levelo_inurba_marseille","lat":43.301636,"lon":5.364277,"is_reserved":false,"is_disabled":false,"rental_uris":{"android":"levelo://app?vid=5700abad-eeff-40d2-b282-06e4ac95674c","ios":"levelo://app?vid=5700abad-eeff-40d2-b282-06e4ac95674c"},"vehicle_type_id":"4","last_reported":1740863241,"current_range_meters":6800,"station_id":"ce4bgrp2rcd13ifvqc9g","pricing_plan_id":"cebpf4jnsgd1na2vs0mg"},{"bike_id":"be047da3-12fb-470e-9d78-68641c40dc2c","system_id":"levelo_inurba_marseille","lat":43.286623,"lon":5.409686,"is_reserved":false,"is_disabled":false,"rental_uris":{"android":"levelo://app?vid=be047da3-12fb-470e-9d78-68641c40dc2c","ios":"levelo://app?vid=be047da3-12fb-470e-9d78-68641c40dc2c"},"vehicle_type_id":"4","last_reported":1740863241,"current_range_meters":6800,"station_id":"","pricing_plan_id":"cebpf4jnsgd1na2vs0mg"},{"bike_id":"62b12a83-e85f-4351-a240-b88e48bc1e02","system_id":"levelo_inurba_marseille","lat":43.27816,"lon":5.40717,"is_reserved":false,"is_disabled":false,"rental_uris":{"android":"levelo://app?vid=62b12a83-e85f-4351-a240-b88e48bc1e02","ios":"levelo://app?vid=62b12a83-e85f-4351-a240-b88e48bc1e02"},"vehicle_type_id":"4","last_reported":1740863241,"current_range_meters":7200,"station_id":"ce4bhnh2rcd13ifvqgtg","pricing_plan_id":"cebpf4jnsgd1na2vs0mg"},{"bike_id":"fae476d3-9b56-41b2-bf66-f3dbcd342b61","system_id":"levelo_inurba_marseille","lat":43.29528,"lon":5.39406,"is_reserved":false,"is_disabled":false,"rental_uris":{"android":"levelo://app?vid=fae476d3-9b56-41b2-bf66-f3dbcd342b61","ios":"levelo://app?vid=fae476d3-9b56-41b2-bf66-f3dbcd342b61"},"vehicle_type_id":"4","last_reported":1740863241,"current_range_meters":7200,"station_id":"ce4bh292rcd13ifvqdf0","pricing_plan_id":"cebpf4jnsgd1na2vs0mg"},{"bike_id":"f7b95c21-221d-4d86-a207-66de37b8e03b","system_id":"levelo_inurba_marseille","lat":43.28075,"lon":5.39662,"is_reserved":false,"is_disabled":false,"rental_uris":{"android":"levelo://app?vid=f7b95c21-221d-4d86-a207-66de37b8e03b","ios":"levelo://app?vid=f7b95c21-221d-4d86-a207-66de37b8e03b"},"vehicle_type_id":"4","last_reported":1740863241,"current_range_meters":7200,"station_id":"ce4bho12rcd13ifvqh2g","pricing_plan_id":"cebpf4jnsgd1na2vs0mg"},{"bike_id":"a5fd71ea-4807-4e2d-a716-448c8cd70326","system_id":"levelo_inurba_marseille","lat":43.26594,"lon":5.37353,"is_reserved":false,"is_disabled":false,"rental_uris":{"android":"levelo://app?vid=a5fd71ea-4807-4e2d-a716-448c8cd70326","ios":"levelo://app?vid=a5fd71ea-4807-4e2d-a716-448c8cd70326"},"vehicle_type_id":"4","last_reported":1740863241,"current_range_meters":7200,"station_id":"","pricing_plan_id":"cebpf4jnsgd1na2vs0mg"},{"bike_id":"1a36ce33-57c5-4422-8943-c369a6f5ca89","system_id":"levelo_inurba_marseille","lat":43.27215,"lon":5.39172,"is_reserved":false,"is_disabled":false,"rental_uris":{"android":"levelo://app?vid=1a36ce33-57c5-4422-8943-c369a6f5ca89","ios":"levelo://app?vid=1a36ce33-57c5-4422-8943-c369a6f5ca89"},"vehicle_type_id":"4","last_reported":1740863241,"current_range_meters":7200,"station_id":"ce4bhhp2rcd13ifvqfm0","pricing_plan_id":"cebpf4jnsgd1na2vs0mg"},{"bike_id":"4705d312-f56d-46d9-bbe9-2693493b5bb3","system_id":"levelo_inurba_marseille","lat":43.24388,"lon":5.3706,"is_reserved":false,"is_disabled":false,"rental_uris":{"android":"levelo://app?vid=4705d312-f56d-46d9-bbe9-2693493b5bb3","ios":"levelo://app?vid=4705d312-f56d-46d9-bbe9-2693493b5bb3"},"vehicle_type_id":"4","last_reported":1740863241,"current_range_meters":8000,"station_id":"ce4bhhh2rcd13ifvqfk0","pricing_plan_id":"cebpf4jnsgd1na2vs0mg"},{"bike_id":"b79c0ed9-d9eb-4849-9bdc-2483e1aeed10","system_id":"levelo_inurba_marseille","lat":43.27205,"lon":5.39195,"is_reserved":false,"is_disabled":false,"rental_uris":{"android":"levelo://app?vid=b79c0ed9-d9eb-4849-9bdc-2483e1aeed10","ios":"levelo://app?vid=b79c0ed9-d9eb-4849-9bdc-2483e1aeed10"},"vehicle_type_id":"4","last_reported":1740863241,"current_range_meters":8000,"station_id":"ce4bhhp2rcd13ifvqfm0","pricing_plan_id":"cebpf4jnsgd1na2vs0mg"},{"bike_id":"49cf196d-46c2-4b6a-b1ce-adef85481502","system_id":"levelo_inurba_marseille","lat":43.24168,"lon":5.36399,"is_reserved":false,"is_disabled":false,"rental_uris":{"android":"levelo://app?vid=49cf196d-46c2-4b6a-b1ce-adef85481502","ios":"levelo://app?vid=49cf196d-46c2-4b6a-b1ce-adef85481502"},"vehicle_type_id":"4","last_reported":1740863241,"current_range_meters":8000,"station_id":"cpo36qri1sfpv3e86is0","pricing_plan_id":"cebpf4jnsgd1na2vs0mg"},{"bike_id":"e9a4b0f8-fe43-4273-8eea-71c87774992a","system_id":"levelo_inurba_marseille","lat":43.29423,"lon":5.38652,"is_reserved":false,"is_disabled":false,"rental_uris":{"android":"levelo://app?vid=e9a4b0f8-fe43-4273-8eea-71c87774992a","ios":"levelo://app?vid=e9a4b0f8-fe43-4273-8eea-71c87774992a"},"vehicle_type_id":"4","last_reported":1740863241,"current_range_meters":8400,"station_id":"ce4bh2h2rcd13ifvqdh0","pricing_plan_id":"cebpf4jnsgd1na2vs0mg"},{"bike_id":"7b608ffe-7142-45c3-aa35-4beb92d7fac5","system_id":"levelo_inurba_marseille","lat":43.298,"lon":5.38079,"is_reserved":false,"is_disabled":false,"rental_uris":{"android":"levelo://app?vid=7b608ffe-7142-45c3-aa35-4beb92d7fac5","ios":"levelo://app?vid=7b608ffe-7142-45c3-aa35-4beb92d7fac5"},"vehicle_type_id":"4","last_reported":1740863241,"current_range_meters":8400,"station_id":"ce4bgip2rcd13ifvqbb0","pricing_plan_id":"cebpf4jnsgd1na2vs0mg"},{"bike_id":"a5f66114-17e8-42d6-afc9-6a6dfabe8141","system_id":"levelo_inurba_marseille","lat":43.287,"lon":5.37393,"is_reserved":false,"is_disabled":false,"rental_uris":{"android":"levelo://app?vid=a5f66114-17e8-42d6-afc9-6a6dfabe8141","ios":"levelo://app?vid=a5f66114-17e8-42d6-afc9-6a6dfabe8141"},"vehicle_type_id":"4","last_reported":1740863241,"current_range_meters":8400,"station_id":"ce4bh3p2rcd13ifvqdq0","pricing_plan_id":"cebpf4jnsgd1na2vs0mg"},{"bike_id":"364b209e-752e-45ea-b26c-06b2552c1833","system_id":"levelo_inurba_marseille","lat":43.23194,"lon":5.35562,"is_reserved":false,"is_disabled":false,"rental_uris":{"android":"levelo://app?vid=364b209e-752e-45ea-b26c-06b2552c1833","ios":"levelo://app?vid=364b209e-752e-45ea-b26c-06b2552c1833"},"vehicle_type_id":"4","last_reported":1740863241,"current_range_meters":8400,"station_id":"ce4bhu92rcd13ifvqi70","pricing_plan_id":"cebpf4jnsgd1na2vs0mg"},{"bike_id":"49e9cdc7-76a5-4b66-ae2d-61c73beb73a8","system_id":"levelo_inurba_marseille","lat":43.24167,"lon":5.36419,"is_reserved":false,"is_disabled":false,"rental_uris":{"android":"levelo://app?vid=49e9cdc7-76a5-4b66-ae2d-61c73beb73a8","ios":"levelo://app?vid=49e9cdc7-76a5-4b66-ae2d-61c73beb73a8"},"vehicle_type_id":"4","last_reported":1740863241,"current_range_meters":8400,"station_id":"cpo36qri1sfpv3e86is0","pricing_plan_id":"cebpf4jnsgd1na2vs0mg"},{"bike_id":"9b596371-d612-49f2-b81f-de4bef0d4e5a","system_id":"levelo_inurba_marseille","lat":43.24156,"lon":5.36409,"is_reserved":false,"is_disabled":false,"rental_uris":{"android":"levelo://app?vid=9b596371-d612-49f2-b81f-de4bef0d4e5a","ios":"levelo://app?vid=9b596371-d612-49f2-b81f-de4bef0d4e5a"},"vehicle_type_id":"4","last_reported":1740863241,"current_range_meters":8400,"station_id":"cpo36qri1sfpv3e86is0","pricing_plan_id":"cebpf4jnsgd1na2vs0mg"},{"bike_id":"593edb3c-7add-4a3d-9dbe-95cef549de0d","system_id":"levelo_inurba_marseille","lat":43.23078,"lon":5.35485,"is_reserved":false,"is_disabled":false,"rental_uris":{"android":"levelo://app?vid=593edb3c-7add-4a3d-9dbe-95cef549de0d","ios":"levelo://app?vid=593edb3c-7add-4a3d-9dbe-95cef549de0d"},"vehicle_type_id":"4","last_reported":1740863241,"current_range_meters":8400,"station_id":"cpo3342slgdg3j2ifvpg","pricing_plan_id":"cebpf4jnsgd1na2vs0mg"},{"bike_id":"59aefcfd-cb49-414f-a2b4-58f76bb5ab27","system_id":"levelo_inurba_marseille","lat":43.30378,"lon":5.42873,"is_reserved":false,"is_disabled":false,"rental_uris":{"android":"levelo://app?vid=59aefcfd-cb49-414f-a2b4-58f76bb5ab27","ios":"levelo://app?vid=59aefcfd-cb49-414f-a2b4-58f76bb5ab27"},"vehicle_type_id":"4","last_reported":1740863241,"current_range_meters":8800,"station_id":"","pricing_plan_id":"cebpf4jnsgd1na2vs0mg"},{"bike_id":"03a302fb-b187-4fdc-b649-695431f73b06","system_id":"levelo_inurba_marseille","lat":43.26527,"lon":5.39564,"is_reserved":false,"is_disabled":false,"rental_uris":{"android":"levelo://app?vid=03a302fb-b187-4fdc-b649-695431f73b06","ios":"levelo://app?vid=03a302fb-b187-4fdc-b649-695431f73b06"},"vehicle_type_id":"4","last_reported":1740863241,"current_range_meters":8800,"station_id":"ce4bhi12rcd13ifvqfq0","pricing_plan_id":"cebpf4jnsgd1na2vs0mg"},{"bike_id":"bddf37d4-a2ae-4c74-bcad-602e7e9ee614","system_id":"levelo_inurba_marseille","lat":43.24664,"lon":5.38166,"is_reserved":false,"is_disabled":false,"rental_uris":{"android":"levelo://app?vid=bddf37d4-a2ae-4c74-bcad-602e7e9ee614","ios":"levelo://app?vid=bddf37d4-a2ae-4c74-bcad-602e7e9ee614"},"vehicle_type_id":"4","last_reported":1740863241,"current_range_meters":8800,"station_id":"ce4bhih2rcd13ifvqfr0","pricing_plan_id":"cebpf4jnsgd1na2vs0mg"},{"bike_id":"238dad8e-7390-4519-b579-e0e5a28aed49","system_id":"levelo_inurba_marseille","lat":43.29623,"lon":5.37173,"is_reserved":false,"is_disabled":false,"rental_uris":{"android":"levelo://app?vid=238dad8e-7390-4519-b579-e0e5a28aed49","ios":"levelo://app?vid=238dad8e-7390-4519-b579-e0e5a28aed49"},"vehicle_type_id":"4","last_reported":1740863241,"current_range_meters":8800,"station_id":"ce4bgnh2rcd13ifvqc0g","pricing_plan_id":"cebpf4jnsgd1na2vs0mg"},{"bike_id":"d97b49f8-19d8-4dfd-892c-6565d4b2d881","system_id":"levelo_inurba_marseille","lat":43.28698,"lon":5.39989,"is_reserved":false,"is_disabled":false,"rental_uris":{"android":"levelo://app?vid=d97b49f8-19d8-4dfd-892c-6565d4b2d881","ios":"levelo://app?vid=d97b49f8-19d8-4dfd-892c-6565d4b2d881"},"vehicle_type_id":"4","last_reported":1740863241,"current_range_meters":8800,"station_id":"ce4bho92rcd13ifvqh3g","pricing_plan_id":"cebpf4jnsgd1na2vs0mg"},{"bike_id":"11eeaa41-65fd-4096-aabf-ea952f76267a","system_id":"levelo_inurba_marseille","lat":43.34159,"lon":5.40929,"is_reserved":false,"is_disabled":false,"rental_uris":{"android":"levelo://app?vid=11eeaa41-65fd-4096-aabf-ea952f76267a","ios":"levelo://app?vid=11eeaa41-65fd-4096-aabf-ea952f76267a"},"vehicle_type_id":"4","last_reported":1740863241,"current_range_meters":8800,"station_id":"ce4bhqh2rcd13ifvqhlg","pricing_plan_id":"cebpf4jnsgd1na2vs0mg"},{"bike_id":"48b99982-0af0-4535-926e-bd5b708812d5","system_id":"levelo_inurba_marseille","lat":43.27949,"lon":5.4106,"is_reserved":false,"is_disabled":false,"rental_uris":{"android":"levelo://app?vid=48b99982-0af0-4535-926e-bd5b708812d5","ios":"levelo://app?vid=48b99982-0af0-4535-926e-bd5b708812d5"},"vehicle_type_id":"4","last_reported":1740863241,"current_range_meters":9200,"station_id":"ce4bhnp2rcd13ifvqh0g","pricing_plan_id":"cebpf4jnsgd1na2vs0mg"},{"bike_id":"53ebed9a-fd1a-4d94-96e3-0c8bc5887ace","system_id":"levelo_inurba_marseille","lat":43.31422,"lon":5.39404,"is_reserved":false,"is_disabled":false,"rental_uris":{"android":"levelo://app?vid=53ebed9a-fd1a-4d94-96e3-0c8bc5887ace","ios":"levelo://app?vid=53ebed9a-fd1a-4d94-96e3-0c8bc5887ace"},"vehicle_type_id":"4","last_reported":1740863241,"current_range_meters":9200,"station_id":"","pricing_plan_id":"cebpf4jnsgd1na2vs0mg"},{"bike_id":"ddac9575-a53c-4b3f-bbde-f174815474c4","system_id":"levelo_inurba_marseille","lat":43.23964,"lon":5.36638,"is_reserved":false,"is_disabled":false,"rental_uris":{"android":"levelo://app?vid=ddac9575-a53c-4b3f-bbde-f174815474c4","ios":"levelo://app?vid=ddac9575-a53c-4b3f-bbde-f174815474c4"},"vehicle_type_id":"4","last_reported":1740863241,"current_range_meters":9200,"station_id":"ce4bhi12rcd13ifvqfp0","pricing_plan_id":"cebpf4jnsgd1na2vs0mg"},{"bike_id":"03a21d1c-b84b-414f-a2dd-d400086a40f9","system_id":"levelo_inurba_marseille","lat":43.27939,"lon":5.41041,"is_reserved":false,"is_disabled":false,"rental_uris":{"android":"levelo://app?vid=03a21d1c-b84b-414f-a2dd-d400086a40f9","ios":"levelo://app?vid=03a21d1c-b84b-414f-a2dd-d400086a40f9"},"vehicle_type_id":"4","last_reported":1740863241,"current_range_meters":9200,"station_id":"ce4bhnp2rcd13ifvqh0g","pricing_plan_id":"cebpf4jnsgd1na2vs0mg"},{"bike_id":"ce5b717b-8065-41cb-ac73-ea554cd5c020","system_id":"levelo_inurba_marseille","lat":43.26563,"lon":5.39011,"is_reserved":false,"is_disabled":false,"rental_uris":{"android":"levelo://app?vid=ce5b717b-8065-41cb-ac73-ea554cd5c020","ios":"levelo://app?vid=ce5b717b-8065-41cb-ac73-ea554cd5c020"},"vehicle_type_id":"4","last_reported":1740863241,"current_range_meters":9200,"station_id":"ce4bhe12rcd13ifvqf30","pricing_plan_id":"cebpf4jnsgd1na2vs0mg"},{"bike_id":"99bc9c0c-41e6-4f4a-8532-b6c99df1bd30","system_id":"levelo_inurba_marseille","lat":43.28681,"lon":5.38669,"is_reserved":false,"is_disabled":false,"rental_uris":{"android":"levelo://app?vid=99bc9c0c-41e6-4f4a-8532-b6c99df1bd30","ios":"levelo://app?vid=99bc9c0c-41e6-4f4a-8532-b6c99df1bd30"},"vehicle_type_id":"4","last_reported":1740863241,"current_range_meters":9200,"station_id":"ce4bh492rcd13ifvqdug","pricing_plan_id":"cebpf4jnsgd1na2vs0mg"},{"bike_id":"b777b4cf-3a59-4bd6-bbe8-877c47f15172","system_id":"levelo_inurba_marseille","lat":43.29274,"lon":5.36837,"is_reserved":false,"is_disabled":false,"rental_uris":{"android":"levelo://app?vid=b777b4cf-3a59-4bd6-bbe8-877c47f15172","ios":"levelo://app?vid=b777b4cf-3a59-4bd6-bbe8-877c47f15172"},"vehicle_type_id":"4","last_reported":1740863241,"current_range_meters":9200,"station_id":"ce4bhbp2rcd13ifvqesg","pricing_plan_id":"cebpf4jnsgd1na2vs0mg"},{"bike_id":"24b426ec-114a-4cca-b485-1331408dda43","system_id":"levelo_inurba_marseille","lat":43.24073,"lon":5.37762,"is_reserved":false,"is_disabled":false,"rental_uris":{"android":"levelo://app?vid=24b426ec-114a-4cca-b485-1331408dda43","ios":"levelo://app?vid=24b426ec-114a-4cca-b485-1331408dda43"},"vehicle_type_id":"4","last_reported":1740863241,"current_range_meters":9600,"station_id":"ce4bhnp2rcd13ifvqgvg","pricing_plan_id":"cebpf4jnsgd1na2vs0mg"},{"bike_id":"f480da84-1887-4ade-84fb-1c0d19a4cdd8","system_id":"levelo_inurba_marseille","lat":43.323688,"lon":5.388872,"is_reserved":false,"is_disabled":false,"rental_uris":{"android":"levelo://app?vid=f480da84-1887-4ade-84fb-1c0d19a4cdd8","ios":"levelo://app?vid=f480da84-1887-4ade-84fb-1c0d19a4cdd8"},"vehicle_type_id":"4","last_reported":1740863241,"current_range_meters":9600,"station_id":"ce4bhqp2rcd13ifvqhog","pricing_plan_id":"cebpf4jnsgd1na2vs0mg"},{"bike_id":"fd4ceb47-7745-40bf-b9f8-cbc3ab65ca1f","system_id":"levelo_inurba_marseille","lat":43.23193,"lon":5.39995,"is_reserved":false,"is_disabled":false,"rental_uris":{"android":"levelo://app?vid=fd4ceb47-7745-40bf-b9f8-cbc3ab65ca1f","ios":"levelo://app?vid=fd4ceb47-7745-40bf-b9f8-cbc3ab65ca1f"},"vehicle_type_id":"4","last_reported":1740863241,"current_range_meters":9600,"station_id":"ce4bhn12rcd13ifvqgqg","pricing_plan_id":"cebpf4jnsgd1na2vs0mg"},{"bike_id":"68fe3e03-e289-4b20-90e8-16c9ff429710","system_id":"levelo_inurba_marseille","lat":43.29268,"lon":5.36834,"is_reserved":false,"is_disabled":false,"rental_uris":{"android":"levelo://app?vid=68fe3e03-e289-4b20-90e8-16c9ff429710","ios":"levelo://app?vid=68fe3e03-e289-4b20-90e8-16c9ff429710"},"vehicle_type_id":"4","last_reported":1740863241,"current_range_meters":9600,"station_id":"ce4bhbp2rcd13ifvqesg","pricing_plan_id":"cebpf4jnsgd1na2vs0mg"},{"bike_id":"26e70f26-0d3d-41f9-9111-200c32830cbc","system_id":"levelo_inurba_marseille","lat":43.30313,"lon":5.3692,"is_reserved":false,"is_disabled":false,"rental_uris":{"android":"levelo://app?vid=26e70f26-0d3d-41f9-9111-200c32830cbc","ios":"levelo://app?vid=26e70f26-0d3d-41f9-9111-200c32830cbc"},"vehicle_type_id":"4","last_reported":1740863241,"current_range_meters":9600,"station_id":"ce4bgqh2rcd13ifvqc5g","pricing_plan_id":"cebpf4jnsgd1na2vs0mg"},{"bike_id":"c1680bf3-a159-40f5-a36a-7ae00f9bf0fb","system_id":"levelo_inurba_marseille","lat":43.29426,"lon":5.38616,"is_reserved":false,"is_disabled":false,"rental_uris":{"android":"levelo://app?vid=c1680bf3-a159-40f5-a36a-7ae00f9bf0fb","ios":"levelo://app?vid=c1680bf3-a159-40f5-a36a-7ae00f9bf0fb"},"vehicle_type_id":"4","last_reported":1740863241,"current_range_meters":9600,"station_id":"ce4bh2h2rcd13ifvqdh0","pricing_plan_id":"cebpf4jnsgd1na2vs0mg"},{"bike_id":"b96348d0-016a-4755-98cf-653ca3521b3f","system_id":"levelo_inurba_marseille","lat":43.29034,"lon":5.39967,"is_reserved":false,"is_disabled":false,"rental_uris":{"android":"levelo://app?vid=b96348d0-016a-4755-98cf-653ca3521b3f","ios":"levelo://app?vid=b96348d0-016a-4755-98cf-653ca3521b3f"},"vehicle_type_id":"4","last_reported":1740863241,"current_range_meters":9600,"station_id":"ce4bh392rcd13ifvqdm0","pricing_plan_id":"cebpf4jnsgd1na2vs0mg"},{"bike_id":"331d8231-4ea9-4594-bb6b-337f1c1933fc","system_id":"levelo_inurba_marseille","lat":43.2898,"lon":5.37851,"is_reserved":false,"is_disabled":false,"rental_uris":{"android":"levelo://app?vid=331d8231-4ea9-4594-bb6b-337f1c1933fc","ios":"levelo://app?vid=331d8231-4ea9-4594-bb6b-337f1c1933fc"},"vehicle_type_id":"4","last_reported":1740863241,"current_range_meters":10000,"station_id":"ce4bh9p2rcd13ifvqed0","pricing_plan_id":"cebpf4jnsgd1na2vs0mg"},{"bike_id":"161d70e9-e213-4bf5-bde1-9c3d7296d89c","system_id":"levelo_inurba_marseille","lat":43.27832,"lon":5.391993,"is_reserved":false,"is_disabled":false,"rental_uris":{"android":"levelo://app?vid=161d70e9-e213-4bf5-bde1-9c3d7296d89c","ios":"levelo://app?vid=161d70e9-e213-4bf5-bde1-9c3d7296d89c"},"vehicle_type_id":"4","last_reported":1740863241,"current_range_meters":10000,"station_id":"ce4bhjp2rcd13ifvqga0","pricing_plan_id":"cebpf4jnsgd1na2vs0mg"},{"bike_id":"c2ab15d3-a7ae-4e1f-9a13-24b8c5e92320","system_id":"levelo_inurba_marseille","lat":43.29525,"lon":5.38529,"is_reserved":false,"is_disabled":false,"rental_uris":{"android":"levelo://app?vid=c2ab15d3-a7ae-4e1f-9a13-24b8c5e92320","ios":"levelo://app?vid=c2ab15d3-a7ae-4e1f-9a13-24b8c5e92320"},"vehicle_type_id":"4","last_reported":1740863241,"current_range_meters":10000,"station_id":"ce4bgih2rcd13ifvqba0","pricing_plan_id":"cebpf4jnsgd1na2vs0mg"},{"bike_id":"875e0e4e-acc7-4916-a21e-8a4a106acaf9","system_id":"levelo_inurba_marseille","lat":43.31286,"lon":5.4016,"is_reserved":false,"is_disabled":true,"rental_uris":{"android":"levelo://app?vid=875e0e4e-acc7-4916-a21e-8a4a106acaf9","ios":"levelo://app?vid=875e0e4e-acc7-4916-a21e-8a4a106acaf9"},"vehicle_type_id":"4","last_reported":1740863241,"current_range_meters":10000,"station_id":"ce4bh092rcd13ifvqd30","pricing_plan_id":"cebpf4jnsgd1na2vs0mg"},{"bike_id":"2667b23c-67ae-471f-a157-93cd2283f666","system_id":"levelo_inurba_marseille","lat":43.29634,"lon":5.38132,"is_reserved":false,"is_disabled":false,"rental_uris":{"android":"levelo://app?vid=2667b23c-67ae-471f-a157-93cd2283f666","ios":"levelo://app?vid=2667b23c-67ae-471f-a157-93cd2283f666"},"vehicle_type_id":"4","last_reported":1740863241,"current_range_meters":10000,"station_id":"ce4bgl12rcd13ifvqbo0","pricing_plan_id":"cebpf4jnsgd1na2vs0mg"},{"bike_id":"4a01e614-9a34-4e70-9e02-4e744008ae90","system_id":"levelo_inurba_marseille","lat":43.31381,"lon":5.3919,"is_reserved":false,"is_disabled":false,"rental_uris":{"android":"levelo://app?vid=4a01e614-9a34-4e70-9e02-4e744008ae90","ios":"levelo://app?vid=4a01e614-9a34-4e70-9e02-4e744008ae90"},"vehicle_type_id":"4","last_reported":1740863241,"current_range_meters":10000,"station_id":"","pricing_plan_id":"cebpf4jnsgd1na2vs0mg"},{"bike_id":"e25971ae-b848-41b0-adae-263be3d8bc59","system_id":"levelo_inurba_marseille","lat":43.29306,"lon":5.3718,"is_reserved":false,"is_disabled":false,"rental_uris":{"android":"levelo://app?vid=e25971ae-b848-41b0-adae-263be3d8bc59","ios":"levelo://app?vid=e25971ae-b848-41b0-adae-263be3d8bc59"},"vehicle_type_id":"4","last_reported":1740863241,"current_range_meters":10000,"station_id":"ce4bgh92rcd13ifvqb40","pricing_plan_id":"cebpf4jnsgd1na2vs0mg"},{"bike_id":"cbd3b7da-1333-4458-b6f2-7065ce830ca2","system_id":"levelo_inurba_marseille","lat":43.28076,"lon":5.39642,"is_reserved":false,"is_disabled":false,"rental_uris":{"android":"levelo://app?vid=cbd3b7da-1333-4458-b6f2-7065ce830ca2","ios":"levelo://app?vid=cbd3b7da-1333-4458-b6f2-7065ce830ca2"},"vehicle_type_id":"4","last_reported":1740863241,"current_range_meters":10000,"station_id":"ce4bho12rcd13ifvqh2g","pricing_plan_id":"cebpf4jnsgd1na2vs0mg"},{"bike_id":"7f7c455d-31c3-4413-8821-eca6cd5cb252","system_id":"levelo_inurba_marseille","lat":43.27816,"lon":5.407191,"is_reserved":false,"is_disabled":false,"rental_uris":{"android":"levelo://app?vid=7f7c455d-31c3-4413-8821-eca6cd5cb252","ios":"levelo://app?vid=7f7c455d-31c3-4413-8821-eca6cd5cb252"},"vehicle_type_id":"4","last_reported":1740863241,"current_range_meters":10000,"station_id":"ce4bhnh2rcd13ifvqgtg","pricing_plan_id":"cebpf4jnsgd1na2vs0mg"},{"bike_id":"0693b9d6-4a9d-4e38-bfa2-80f934bcc2e3","system_id":"levelo_inurba_marseille","lat":43.2417,"lon":5.36412,"is_reserved":false,"is_disabled":false,"rental_uris":{"android":"levelo://app?vid=0693b9d6-4a9d-4e38-bfa2-80f934bcc2e3","ios":"levelo://app?vid=0693b9d6-4a9d-4e38-bfa2-80f934bcc2e3"},"vehicle_type_id":"4","last_reported":1740863241,"current_range_meters":10800,"station_id":"cpo36qri1sfpv3e86is0","pricing_plan_id":"cebpf4jnsgd1na2vs0mg"},{"bike_id":"ddf90109-4572-4b1a-a4f2-eae9f9d34937","system_id":"levelo_inurba_marseille","lat":43.24396,"lon":5.37067,"is_reserved":false,"is_disabled":false,"rental_uris":{"android":"levelo://app?vid=ddf90109-4572-4b1a-a4f2-eae9f9d34937","ios":"levelo://app?vid=ddf90109-4572-4b1a-a4f2-eae9f9d34937"},"vehicle_type_id":"4","last_reported":1740863241,"current_range_meters":10800,"station_id":"ce4bhhh2rcd13ifvqfk0","pricing_plan_id":"cebpf4jnsgd1na2vs0mg"},{"bike_id":"5d581bbf-c03d-40c4-8c08-d40ad9eeaa19","system_id":"levelo_inurba_marseille","lat":43.291,"lon":5.42701,"is_reserved":false,"is_disabled":false,"rental_uris":{"android":"levelo://app?vid=5d581bbf-c03d-40c4-8c08-d40ad9eeaa19","ios":"levelo://app?vid=5d581bbf-c03d-40c4-8c08-d40ad9eeaa19"},"vehicle_type_id":"4","last_reported":1740863241,"current_range_meters":10800,"station_id":"","pricing_plan_id":"cebpf4jnsgd1na2vs0mg"},{"bike_id":"2742beb1-22dc-4927-b00f-d397cf50bf7a","system_id":"levelo_inurba_marseille","lat":43.29606,"lon":5.38112,"is_reserved":false,"is_disabled":false,"rental_uris":{"android":"levelo://app?vid=2742beb1-22dc-4927-b00f-d397cf50bf7a","ios":"levelo://app?vid=2742beb1-22dc-4927-b00f-d397cf50bf7a"},"vehicle_type_id":"4","last_reported":1740863241,"current_range_meters":10800,"station_id":"ce4bgl12rcd13ifvqbo0","pricing_plan_id":"cebpf4jnsgd1na2vs0mg"},{"bike_id":"32d87a1d-3b95-4d4f-a80f-ff25c2d04e97","system_id":"levelo_inurba_marseille","lat":43.28942,"lon":5.36643,"is_reserved":false,"is_disabled":false,"rental_uris":{"android":"levelo://app?vid=32d87a1d-3b95-4d4f-a80f-ff25c2d04e97","ios":"levelo://app?vid=32d87a1d-3b95-4d4f-a80f-ff25c2d04e97"},"vehicle_type_id":"4","last_reported":1740863241,"current_range_meters":10800,"station_id":"ce4bhap2rcd13ifvqek0","pricing_plan_id":"cebpf4jnsgd1na2vs0mg"},{"bike_id":"e3ea0c82-575d-4f15-b57c-6eebd57f815a","system_id":"levelo_inurba_marseille","lat":43.27324,"lon":5.39104,"is_reserved":false,"is_disabled":true,"rental_uris":{"android":"levelo://app?vid=e3ea0c82-575d-4f15-b57c-6eebd57f815a","ios":"levelo://app?vid=e3ea0c82-575d-4f15-b57c-6eebd57f815a"},"vehicle_type_id":"4","last_reported":1740863241,"current_range_meters":11200,"station_id":"ce4bhgp2rcd13ifvqfe0","pricing_plan_id":"cebpf4jnsgd1na2vs0mg"},{"bike_id":"60144b22-2ef8-47e9-bcd1-a5c8229cefa5","system_id":"levelo_inurba_marseille","lat":43.31273,"lon":5.40173,"is_reserved":false,"is_disabled":false,"rental_uris":{"android":"levelo://app?vid=60144b22-2ef8-47e9-bcd1-a5c8229cefa5","ios":"levelo://app?vid=60144b22-2ef8-47e9-bcd1-a5c8229cefa5"},"vehicle_type_id":"4","last_reported":1740863241,"current_range_meters":11200,"station_id":"ce4bh092rcd13ifvqd30","pricing_plan_id":"cebpf4jnsgd1na2vs0mg"},{"bike_id":"8040b270-2d88-48d7-bff4-c53dcb8e32e3","system_id":"levelo_inurba_marseille","lat":43.29945,"lon":5.36509,"is_reserved":false,"is_disabled":false,"rental_uris":{"android":"levelo://app?vid=8040b270-2d88-48d7-bff4-c53dcb8e32e3","ios":"levelo://app?vid=8040b270-2d88-48d7-bff4-c53dcb8e32e3"},"vehicle_type_id":"4","last_reported":1740863241,"current_range_meters":11200,"station_id":"ce4bgm92rcd13ifvqbr0","pricing_plan_id":"cebpf4jnsgd1na2vs0mg"},{"bike_id":"1697087c-3a15-4d2b-8fbc-57126afe45c3","system_id":"levelo_inurba_marseille","lat":43.23167,"lon":5.43721,"is_reserved":false,"is_disabled":false,"rental_uris":{"android":"levelo://app?vid=1697087c-3a15-4d2b-8fbc-57126afe45c3","ios":"levelo://app?vid=1697087c-3a15-4d2b-8fbc-57126afe45c3"},"vehicle_type_id":"4","last_reported":1740863241,"current_range_meters":11600,"station_id":"ce4bhmp2rcd13ifvqgog","pricing_plan_id":"cebpf4jnsgd1na2vs0mg"},{"bike_id":"364da244-0443-4187-a98a-bc7b7ca7b9dc","system_id":"levelo_inurba_marseille","lat":43.29556,"lon":5.42282,"is_reserved":false,"is_disabled":false,"rental_uris":{"android":"levelo://app?vid=364da244-0443-4187-a98a-bc7b7ca7b9dc","ios":"levelo://app?vid=364da244-0443-4187-a98a-bc7b7ca7b9dc"},"vehicle_type_id":"4","last_reported":1740863241,"current_range_meters":11600,"station_id":"ce4bhph2rcd13ifvqhdg","pricing_plan_id":"cebpf4jnsgd1na2vs0mg"},{"bike_id":"8180e023-b3d1-4bf5-874d-4a6f178d2fe3","system_id":"levelo_inurba_marseille","lat":43.31997,"lon":5.41575,"is_reserved":false,"is_disabled":false,"rental_uris":{"android":"levelo://app?vid=8180e023-b3d1-4bf5-874d-4a6f178d2fe3","ios":"levelo://app?vid=8180e023-b3d1-4bf5-874d-4a6f178d2fe3"},"vehicle_type_id":"4","last_reported":1740863241,"current_range_meters":11600,"station_id":"ce4bhq92rcd13ifvqhkg","pricing_plan_id":"cebpf4jnsgd1na2vs0mg"},{"bike_id":"3855b81d-29e5-4a02-9567-894a4a6238e1","system_id":"levelo_inurba_marseille","lat":43.29263,"lon":5.38466,"is_reserved":false,"is_disabled":false,"rental_uris":{"android":"levelo://app?vid=3855b81d-29e5-4a02-9567-894a4a6238e1","ios":"levelo://app?vid=3855b81d-29e5-4a02-9567-894a4a6238e1"},"vehicle_type_id":"4","last_reported":1740863241,"current_range_meters":11600,"station_id":"ce4bh692rcd13ifvqea0","pricing_plan_id":"cebpf4jnsgd1na2vs0mg"},{"bike_id":"541e6c9e-7ca1-4a26-a4f7-36e89b274840","system_id":"levelo_inurba_marseille","lat":43.29885,"lon":5.38911,"is_reserved":false,"is_disabled":false,"rental_uris":{"android":"levelo://app?vid=541e6c9e-7ca1-4a26-a4f7-36e89b274840","ios":"levelo://app?vid=541e6c9e-7ca1-4a26-a4f7-36e89b274840"},"vehicle_type_id":"4","last_reported":1740863241,"current_range_meters":12800,"station_id":"ce4bh392rcd13ifvqdl0","pricing_plan_id":"cebpf4jnsgd1na2vs0mg"},{"bike_id":"3d326c83-df55-456d-a39d-f1c118f8a994","system_id":"levelo_inurba_marseille","lat":43.30241,"lon":5.40051,"is_reserved":false,"is_disabled":true,"rental_uris":{"android":"levelo://app?vid=3d326c83-df55-456d-a39d-f1c118f8a994","ios":"levelo://app?vid=3d326c83-df55-456d-a39d-f1c118f8a994"},"vehicle_type_id":"4","last_reported":1740863241,"current_range_meters":11600,"station_id":"ce4bgvh2rcd13ifvqcs0","pricing_plan_id":"cebpf4jnsgd1na2vs0mg"},{"bike_id":"dffb758b-45b1-42bf-9027-7cf51e23cf4d","system_id":"levelo_inurba_marseille","lat":43.29796,"lon":5.38102,"is_reserved":false,"is_disabled":false,"rental_uris":{"android":"levelo://app?vid=dffb758b-45b1-42bf-9027-7cf51e23cf4d","ios":"levelo://app?vid=dffb758b-45b1-42bf-9027-7cf51e23cf4d"},"vehicle_type_id":"4","last_reported":1740863241,"current_range_meters":11200,"station_id":"ce4bgip2rcd13ifvqbb0","pricing_plan_id":"cebpf4jnsgd1na2vs0mg"},{"bike_id":"44253db3-626e-4059-82ed-a096ac51915b","system_id":"levelo_inurba_marseille","lat":43.28266,"lon":5.35093,"is_reserved":false,"is_disabled":false,"rental_uris":{"android":"levelo://app?vid=44253db3-626e-4059-82ed-a096ac51915b","ios":"levelo://app?vid=44253db3-626e-4059-82ed-a096ac51915b"},"vehicle_type_id":"4","last_reported":1740863241,"current_range_meters":12000,"station_id":"ce4bhbp2rcd13ifvqerg","pricing_plan_id":"cebpf4jnsgd1na2vs0mg"},{"bike_id":"55366fd1-3765-4b5a-863d-5fa1381890c9","system_id":"levelo_inurba_marseille","lat":43.24664,"lon":5.3817,"is_reserved":false,"is_disabled":false,"rental_uris":{"android":"levelo://app?vid=55366fd1-3765-4b5a-863d-5fa1381890c9","ios":"levelo://app?vid=55366fd1-3765-4b5a-863d-5fa1381890c9"},"vehicle_type_id":"4","last_reported":1740863241,"current_range_meters":12000,"station_id":"ce4bhih2rcd13ifvqfr0","pricing_plan_id":"cebpf4jnsgd1na2vs0mg"},{"bike_id":"98d30ac8-3bd7-4aef-a008-2521b117e221","system_id":"levelo_inurba_marseille","lat":43.26567,"lon":5.39075,"is_reserved":false,"is_disabled":false,"rental_uris":{"android":"levelo://app?vid=98d30ac8-3bd7-4aef-a008-2521b117e221","ios":"levelo://app?vid=98d30ac8-3bd7-4aef-a008-2521b117e221"},"vehicle_type_id":"4","last_reported":1740863241,"current_range_meters":12000,"station_id":"ce4bhe12rcd13ifvqf30","pricing_plan_id":"cebpf4jnsgd1na2vs0mg"},{"bike_id":"fb18759c-f3ca-4612-8704-baf08a44bab2","system_id":"levelo_inurba_marseille","lat":43.28423,"lon":5.34975,"is_reserved":false,"is_disabled":false,"rental_uris":{"android":"levelo://app?vid=fb18759c-f3ca-4612-8704-baf08a44bab2","ios":"levelo://app?vid=fb18759c-f3ca-4612-8704-baf08a44bab2"},"vehicle_type_id":"4","last_reported":1740863241,"current_range_meters":12000,"station_id":"ce4bhbh2rcd13ifvqepg","pricing_plan_id":"cebpf4jnsgd1na2vs0mg"},{"bike_id":"63c397fe-d712-409b-ba49-04542c9b3bbe","system_id":"levelo_inurba_marseille","lat":43.29532,"lon":5.38566,"is_reserved":false,"is_disabled":false,"rental_uris":{"android":"levelo://app?vid=63c397fe-d712-409b-ba49-04542c9b3bbe","ios":"levelo://app?vid=63c397fe-d712-409b-ba49-04542c9b3bbe"},"vehicle_type_id":"4","last_reported":1740863241,"current_range_meters":12000,"station_id":"ce4bgih2rcd13ifvqba0","pricing_plan_id":"cebpf4jnsgd1na2vs0mg"},{"bike_id":"464f77a5-9848-4f50-9301-a6ee175f3dcb","system_id":"levelo_inurba_marseille","lat":43.29258,"lon":5.38447,"is_reserved":false,"is_disabled":false,"rental_uris":{"android":"levelo://app?vid=464f77a5-9848-4f50-9301-a6ee175f3dcb","ios":"levelo://app?vid=464f77a5-9848-4f50-9301-a6ee175f3dcb"},"vehicle_type_id":"4","last_reported":1740863241,"current_range_meters":12000,"station_id":"ce4bh692rcd13ifvqea0","pricing_plan_id":"cebpf4jnsgd1na2vs0mg"},{"bike_id":"735e28a9-598b-4187-a8b9-b473a9ef87e2","system_id":"levelo_inurba_marseille","lat":43.27995,"lon":5.41661,"is_reserved":false,"is_disabled":false,"rental_uris":{"android":"levelo://app?vid=735e28a9-598b-4187-a8b9-b473a9ef87e2","ios":"levelo://app?vid=735e28a9-598b-4187-a8b9-b473a9ef87e2"},"vehicle_type_id":"4","last_reported":1740863241,"current_range_meters":12400,"station_id":"ce4bho12rcd13ifvqh1g","pricing_plan_id":"cebpf4jnsgd1na2vs0mg"},{"bike_id":"64a1ebcd-3f6c-4fff-853a-be9dfa7712ae","system_id":"levelo_inurba_marseille","lat":43.2858,"lon":5.39506,"is_reserved":false,"is_disabled":false,"rental_uris":{"android":"levelo://app?vid=64a1ebcd-3f6c-4fff-853a-be9dfa7712ae","ios":"levelo://app?vid=64a1ebcd-3f6c-4fff-853a-be9dfa7712ae"},"vehicle_type_id":"4","last_reported":1740863241,"current_range_meters":12400,"station_id":"ce4bh292rcd13ifvqdg0","pricing_plan_id":"cebpf4jnsgd1na2vs0mg"},{"bike_id":"35a1b829-6f7a-4e10-bec0-d26c30cdb9f1","system_id":"levelo_inurba_marseille","lat":43.29414,"lon":5.38634,"is_reserved":false,"is_disabled":false,"rental_uris":{"android":"levelo://app?vid=35a1b829-6f7a-4e10-bec0-d26c30cdb9f1","ios":"levelo://app?vid=35a1b829-6f7a-4e10-bec0-d26c30cdb9f1"},"vehicle_type_id":"4","last_reported":1740863241,"current_range_meters":12400,"station_id":"ce4bh2h2rcd13ifvqdh0","pricing_plan_id":"cebpf4jnsgd1na2vs0mg"},{"bike_id":"e0a413a7-bc6b-4647-8e86-c0926ac098ec","system_id":"levelo_inurba_marseille","lat":43.29259,"lon":5.36846,"is_reserved":false,"is_disabled":false,"rental_uris":{"android":"levelo://app?vid=e0a413a7-bc6b-4647-8e86-c0926ac098ec","ios":"levelo://app?vid=e0a413a7-bc6b-4647-8e86-c0926ac098ec"},"vehicle_type_id":"4","last_reported":1740863241,"current_range_meters":12400,"station_id":"ce4bhbp2rcd13ifvqesg","pricing_plan_id":"cebpf4jnsgd1na2vs0mg"},{"bike_id":"8235333d-301f-40af-bcff-249a4ee0b3a0","system_id":"levelo_inurba_marseille","lat":43.29609,"lon":5.38101,"is_reserved":false,"is_disabled":false,"rental_uris":{"android":"levelo://app?vid=8235333d-301f-40af-bcff-249a4ee0b3a0","ios":"levelo://app?vid=8235333d-301f-40af-bcff-249a4ee0b3a0"},"vehicle_type_id":"4","last_reported":1740863241,"current_range_meters":12400,"station_id":"ce4bgl12rcd13ifvqbo0","pricing_plan_id":"cebpf4jnsgd1na2vs0mg"},{"bike_id":"c7a66b5d-2fa3-4b79-b04f-7141790bc8f6","system_id":"levelo_inurba_marseille","lat":43.27621,"lon":5.36109,"is_reserved":false,"is_disabled":false,"rental_uris":{"android":"levelo://app?vid=c7a66b5d-2fa3-4b79-b04f-7141790bc8f6","ios":"levelo://app?vid=c7a66b5d-2fa3-4b79-b04f-7141790bc8f6"},"vehicle_type_id":"4","last_reported":1740863241,"current_range_meters":12400,"station_id":"ce4bgj92rcd13ifvqbe0","pricing_plan_id":"cebpf4jnsgd1na2vs0mg"},{"bike_id":"94fa0b73-5864-4665-bdbb-eb6df01414c8","system_id":"levelo_inurba_marseille","lat":43.24663,"lon":5.38165,"is_reserved":false,"is_disabled":false,"rental_uris":{"android":"levelo://app?vid=94fa0b73-5864-4665-bdbb-eb6df01414c8","ios":"levelo://app?vid=94fa0b73-5864-4665-bdbb-eb6df01414c8"},"vehicle_type_id":"4","last_reported":1740863241,"current_range_meters":12800,"station_id":"ce4bhih2rcd13ifvqfr0","pricing_plan_id":"cebpf4jnsgd1na2vs0mg"},{"bike_id":"42e0d264-f7d3-46cd-9096-5b1fe049a510","system_id":"levelo_inurba_marseille","lat":43.293102,"lon":5.371701,"is_reserved":false,"is_disabled":false,"rental_uris":{"android":"levelo://app?vid=42e0d264-f7d3-46cd-9096-5b1fe049a510","ios":"levelo://app?vid=42e0d264-f7d3-46cd-9096-5b1fe049a510"},"vehicle_type_id":"4","last_reported":1740863241,"current_range_meters":12800,"station_id":"ce4bh4p2rcd13ifvqe0g","pricing_plan_id":"cebpf4jnsgd1na2vs0mg"},{"bike_id":"b29d087e-9bb3-4ee9-8593-0beaa7d07105","system_id":"levelo_inurba_marseille","lat":43.309256,"lon":5.401392,"is_reserved":false,"is_disabled":false,"rental_uris":{"android":"levelo://app?vid=b29d087e-9bb3-4ee9-8593-0beaa7d07105","ios":"levelo://app?vid=b29d087e-9bb3-4ee9-8593-0beaa7d07105"},"vehicle_type_id":"4","last_reported":1740863241,"current_range_meters":12400,"station_id":"ce4bgop2rcd13ifvqc1g","pricing_plan_id":"cebpf4jnsgd1na2vs0mg"},{"bike_id":"5d7c7708-0760-4884-8883-b9dd9eef0e36","system_id":"levelo_inurba_marseille","lat":43.29789,"lon":5.381048,"is_reserved":false,"is_disabled":false,"rental_uris":{"android":"levelo://app?vid=5d7c7708-0760-4884-8883-b9dd9eef0e36","ios":"levelo://app?vid=5d7c7708-0760-4884-8883-b9dd9eef0e36"},"vehicle_type_id":"4","last_reported":1740863241,"current_range_meters":12800,"station_id":"ce4bgip2rcd13ifvqbb0","pricing_plan_id":"cebpf4jnsgd1na2vs0mg"},{"bike_id":"f711a177-8c95-4e96-bcaf-e6e0dc33f59e","system_id":"levelo_inurba_marseille","lat":43.24398,"lon":5.37067,"is_reserved":false,"is_disabled":false,"rental_uris":{"android":"levelo://app?vid=f711a177-8c95-4e96-bcaf-e6e0dc33f59e","ios":"levelo://app?vid=f711a177-8c95-4e96-bcaf-e6e0dc33f59e"},"vehicle_type_id":"4","last_reported":1740863241,"current_range_meters":12800,"station_id":"ce4bhhh2rcd13ifvqfk0","pricing_plan_id":"cebpf4jnsgd1na2vs0mg"},{"bike_id":"4be7107a-e40e-49fb-94ff-1f0cc576b224","system_id":"levelo_inurba_marseille","lat":43.28979,"lon":5.37842,"is_reserved":false,"is_disabled":false,"rental_uris":{"android":"levelo://app?vid=4be7107a-e40e-49fb-94ff-1f0cc576b224","ios":"levelo://app?vid=4be7107a-e40e-49fb-94ff-1f0cc576b224"},"vehicle_type_id":"4","last_reported":1740863241,"current_range_meters":12800,"station_id":"ce4bh9p2rcd13ifvqed0","pricing_plan_id":"cebpf4jnsgd1na2vs0mg"},{"bike_id":"41845b2b-1d0f-44f8-9cb2-fc36009477dc","system_id":"levelo_inurba_marseille","lat":43.23153,"lon":5.43725,"is_reserved":false,"is_disabled":false,"rental_uris":{"android":"levelo://app?vid=41845b2b-1d0f-44f8-9cb2-fc36009477dc","ios":"levelo://app?vid=41845b2b-1d0f-44f8-9cb2-fc36009477dc"},"vehicle_type_id":"4","last_reported":1740863241,"current_range_meters":12800,"station_id":"ce4bhmp2rcd13ifvqgog","pricing_plan_id":"cebpf4jnsgd1na2vs0mg"},{"bike_id":"27d57ba8-cb2b-4da3-bcfc-1efd3956d0fa","system_id":"levelo_inurba_marseille","lat":43.29558,"lon":5.42295,"is_reserved":false,"is_disabled":false,"rental_uris":{"android":"levelo://app?vid=27d57ba8-cb2b-4da3-bcfc-1efd3956d0fa","ios":"levelo://app?vid=27d57ba8-cb2b-4da3-bcfc-1efd3956d0fa"},"vehicle_type_id":"4","last_reported":1740863241,"current_range_meters":14000,"station_id":"ce4bhph2rcd13ifvqhdg","pricing_plan_id":"cebpf4jnsgd1na2vs0mg"},{"bike_id":"3c888da5-10a3-48b2-bde3-68f1af4c75b1","system_id":"levelo_inurba_marseille","lat":43.313463,"lon":5.367042,"is_reserved":false,"is_disabled":false,"rental_uris":{"android":"levelo://app?vid=3c888da5-10a3-48b2-bde3-68f1af4c75b1","ios":"levelo://app?vid=3c888da5-10a3-48b2-bde3-68f1af4c75b1"},"vehicle_type_id":"4","last_reported":1740863241,"current_range_meters":14000,"station_id":"ce4bgr92rcd13ifvqc6g","pricing_plan_id":"cebpf4jnsgd1na2vs0mg"},{"bike_id":"14335e3a-3794-4b2a-9f63-b5f5e3d13643","system_id":"levelo_inurba_marseille","lat":43.29532,"lon":5.38561,"is_reserved":false,"is_disabled":false,"rental_uris":{"android":"levelo://app?vid=14335e3a-3794-4b2a-9f63-b5f5e3d13643","ios":"levelo://app?vid=14335e3a-3794-4b2a-9f63-b5f5e3d13643"},"vehicle_type_id":"4","last_reported":1740863241,"current_range_meters":14000,"station_id":"ce4bgih2rcd13ifvqba0","pricing_plan_id":"cebpf4jnsgd1na2vs0mg"},{"bike_id":"218457ac-5064-4483-b256-7af7da02f0cd","system_id":"levelo_inurba_marseille","lat":43.279687,"lon":5.387146,"is_reserved":false,"is_disabled":true,"rental_uris":{"android":"levelo://app?vid=218457ac-5064-4483-b256-7af7da02f0cd","ios":"levelo://app?vid=218457ac-5064-4483-b256-7af7da02f0cd"},"vehicle_type_id":"4","last_reported":1740863241,"current_range_meters":14000,"station_id":"ce4bhg12rcd13ifvqf80","pricing_plan_id":"cebpf4jnsgd1na2vs0mg"},{"bike_id":"f1317508-b318-42b3-b6cc-485d3729a439","system_id":"levelo_inurba_marseille","lat":43.26204,"lon":5.37913,"is_reserved":false,"is_disabled":false,"rental_uris":{"android":"levelo://app?vid=f1317508-b318-42b3-b6cc-485d3729a439","ios":"levelo://app?vid=f1317508-b318-42b3-b6cc-485d3729a439"},"vehicle_type_id":"4","last_reported":1740863241,"current_range_meters":14400,"station_id":"ce4bhjp2rcd13ifvqg90","pricing_plan_id":"cebpf4jnsgd1na2vs0mg"},{"bike_id":"e43f4f71-054c-410e-9efa-c6d5ef79ac61","system_id":"levelo_inurba_marseille","lat":43.2418,"lon":5.39732,"is_reserved":false,"is_disabled":false,"rental_uris":{"android":"levelo://app?vid=e43f4f71-054c-410e-9efa-c6d5ef79ac61","ios":"levelo://app?vid=e43f4f71-054c-410e-9efa-c6d5ef79ac61"},"vehicle_type_id":"4","last_reported":1740863241,"current_range_meters":14400,"station_id":"ce4bhn12rcd13ifvqgpg","pricing_plan_id":"cebpf4jnsgd1na2vs0mg"},{"bike_id":"2c61996a-507a-4480-822d-eacdcb7cade2","system_id":"levelo_inurba_marseille","lat":43.31313,"lon":5.37344,"is_reserved":false,"is_disabled":false,"rental_uris":{"android":"levelo://app?vid=2c61996a-507a-4480-822d-eacdcb7cade2","ios":"levelo://app?vid=2c61996a-507a-4480-822d-eacdcb7cade2"},"vehicle_type_id":"4","last_reported":1740863241,"current_range_meters":14400,"station_id":"","pricing_plan_id":"cebpf4jnsgd1na2vs0mg"},{"bike_id":"ba17e1df-906d-4da3-9abc-6e9444291005","system_id":"levelo_inurba_marseille","lat":43.31335,"lon":5.39695,"is_reserved":false,"is_disabled":false,"rental_uris":{"android":"levelo://app?vid=ba17e1df-906d-4da3-9abc-6e9444291005","ios":"levelo://app?vid=ba17e1df-906d-4da3-9abc-6e9444291005"},"vehicle_type_id":"4","last_reported":1740863241,"current_range_meters":14400,"station_id":"ce4bgvp2rcd13ifvqcu0","pricing_plan_id":"cebpf4jnsgd1na2vs0mg"},{"bike_id":"20d46fcb-4529-4896-b225-392c7b6d1f52","system_id":"levelo_inurba_marseille","lat":43.29207,"lon":5.39337,"is_reserved":false,"is_disabled":true,"rental_uris":{"android":"levelo://app?vid=20d46fcb-4529-4896-b225-392c7b6d1f52","ios":"levelo://app?vid=20d46fcb-4529-4896-b225-392c7b6d1f52"},"vehicle_type_id":"4","last_reported":1740863241,"current_range_meters":14400,"station_id":"ce4bh192rcd13ifvqdd0","pricing_plan_id":"cebpf4jnsgd1na2vs0mg"},{"bike_id":"ede6d75f-0492-4633-8934-e77f5f462006","system_id":"levelo_inurba_marseille","lat":43.29436,"lon":5.38633,"is_reserved":false,"is_disabled":false,"rental_uris":{"android":"levelo://app?vid=ede6d75f-0492-4633-8934-e77f5f462006","ios":"levelo://app?vid=ede6d75f-0492-4633-8934-e77f5f462006"},"vehicle_type_id":"4","last_reported":1740863241,"current_range_meters":14400,"station_id":"ce4bh2h2rcd13ifvqdh0","pricing_plan_id":"cebpf4jnsgd1na2vs0mg"},{"bike_id":"1ea7a632-51c6-4bad-bf6d-ba2c50a0cffe","system_id":"levelo_inurba_marseille","lat":43.29312,"lon":5.37193,"is_reserved":false,"is_disabled":false,"rental_uris":{"android":"levelo://app?vid=1ea7a632-51c6-4bad-bf6d-ba2c50a0cffe","ios":"levelo://app?vid=1ea7a632-51c6-4bad-bf6d-ba2c50a0cffe"},"vehicle_type_id":"4","last_reported":1740863241,"current_range_meters":14400,"station_id":"ce4bgh92rcd13ifvqb40","pricing_plan_id":"cebpf4jnsgd1na2vs0mg"},{"bike_id":"0e28f403-f960-4b93-baae-4b438caeec98","system_id":"levelo_inurba_marseille","lat":43.29265,"lon":5.38443,"is_reserved":false,"is_disabled":false,"rental_uris":{"android":"levelo://app?vid=0e28f403-f960-4b93-baae-4b438caeec98","ios":"levelo://app?vid=0e28f403-f960-4b93-baae-4b438caeec98"},"vehicle_type_id":"4","last_reported":1740863241,"current_range_meters":14800,"station_id":"ce4bh692rcd13ifvqea0","pricing_plan_id":"cebpf4jnsgd1na2vs0mg"},{"bike_id":"8d00842f-efad-41dd-bf0b-221436aa8a27","system_id":"levelo_inurba_marseille","lat":43.27961,"lon":5.38664,"is_reserved":false,"is_disabled":false,"rental_uris":{"android":"levelo://app?vid=8d00842f-efad-41dd-bf0b-221436aa8a27","ios":"levelo://app?vid=8d00842f-efad-41dd-bf0b-221436aa8a27"},"vehicle_type_id":"4","last_reported":1740863241,"current_range_meters":14800,"station_id":"ce4bhg12rcd13ifvqf80","pricing_plan_id":"cebpf4jnsgd1na2vs0mg"},{"bike_id":"abdce9a5-165a-430d-93c6-b1980bc72eea","system_id":"levelo_inurba_marseille","lat":43.3133,"lon":5.39713,"is_reserved":false,"is_disabled":false,"rental_uris":{"android":"levelo://app?vid=abdce9a5-165a-430d-93c6-b1980bc72eea","ios":"levelo://app?vid=abdce9a5-165a-430d-93c6-b1980bc72eea"},"vehicle_type_id":"4","last_reported":1740863241,"current_range_meters":14800,"station_id":"ce4bgvp2rcd13ifvqcu0","pricing_plan_id":"cebpf4jnsgd1na2vs0mg"},{"bike_id":"4013bc6c-c7f7-4089-af65-618d0eeef3f4","system_id":"levelo_inurba_marseille","lat":43.24545,"lon":5.39522,"is_reserved":false,"is_disabled":false,"rental_uris":{"android":"levelo://app?vid=4013bc6c-c7f7-4089-af65-618d0eeef3f4","ios":"levelo://app?vid=4013bc6c-c7f7-4089-af65-618d0eeef3f4"},"vehicle_type_id":"4","last_reported":1740863241,"current_range_meters":15200,"station_id":"ce4bhlp2rcd13ifvqgjg","pricing_plan_id":"cebpf4jnsgd1na2vs0mg"},{"bike_id":"ed8bb562-d048-4d97-a62c-052cc210d3b2","system_id":"levelo_inurba_marseille","lat":43.31684,"lon":5.43715,"is_reserved":false,"is_disabled":false,"rental_uris":{"android":"levelo://app?vid=ed8bb562-d048-4d97-a62c-052cc210d3b2","ios":"levelo://app?vid=ed8bb562-d048-4d97-a62c-052cc210d3b2"},"vehicle_type_id":"4","last_reported":1740863241,"current_range_meters":15200,"station_id":"ce4bhp92rcd13ifvqhcg","pricing_plan_id":"cebpf4jnsgd1na2vs0mg"},{"bike_id":"28094c26-ebf7-4f10-9752-a86036fd897f","system_id":"levelo_inurba_marseille","lat":43.284218,"lon":5.349878,"is_reserved":false,"is_disabled":false,"rental_uris":{"android":"levelo://app?vid=28094c26-ebf7-4f10-9752-a86036fd897f","ios":"levelo://app?vid=28094c26-ebf7-4f10-9752-a86036fd897f"},"vehicle_type_id":"4","last_reported":1740863241,"current_range_meters":16000,"station_id":"ce4bhbh2rcd13ifvqepg","pricing_plan_id":"cebpf4jnsgd1na2vs0mg"},{"bike_id":"e2b1a97c-05f9-4994-8c76-5c4c26614832","system_id":"levelo_inurba_marseille","lat":43.265627,"lon":5.372961,"is_reserved":false,"is_disabled":false,"rental_uris":{"android":"levelo://app?vid=e2b1a97c-05f9-4994-8c76-5c4c26614832","ios":"levelo://app?vid=e2b1a97c-05f9-4994-8c76-5c4c26614832"},"vehicle_type_id":"4","last_reported":1740863241,"current_range_meters":16000,"station_id":"ce4bhg12rcd13ifvqf70","pricing_plan_id":"cebpf4jnsgd1na2vs0mg"},{"bike_id":"186fb4cb-c1a3-4c9e-a8db-9ff7331ca560","system_id":"levelo_inurba_marseille","lat":43.29889,"lon":5.38899,"is_reserved":false,"is_disabled":false,"rental_uris":{"android":"levelo://app?vid=186fb4cb-c1a3-4c9e-a8db-9ff7331ca560","ios":"levelo://app?vid=186fb4cb-c1a3-4c9e-a8db-9ff7331ca560"},"vehicle_type_id":"4","last_reported":1740863241,"current_range_meters":16000,"station_id":"ce4bh392rcd13ifvqdl0","pricing_plan_id":"cebpf4jnsgd1na2vs0mg"},{"bike_id":"f3ad00dc-3847-4960-884e-4246f65fa3c4","system_id":"levelo_inurba_marseille","lat":43.23189,"lon":5.39987,"is_reserved":false,"is_disabled":false,"rental_uris":{"android":"levelo://app?vid=f3ad00dc-3847-4960-884e-4246f65fa3c4","ios":"levelo://app?vid=f3ad00dc-3847-4960-884e-4246f65fa3c4"},"vehicle_type_id":"4","last_reported":1740863241,"current_range_meters":16000,"station_id":"ce4bhn12rcd13ifvqgqg","pricing_plan_id":"cebpf4jnsgd1na2vs0mg"},{"bike_id":"2751b868-ec98-4dab-b990-46118ec53f94","system_id":"levelo_inurba_marseille","lat":43.301473,"lon":5.374133,"is_reserved":false,"is_disabled":false,"rental_uris":{"android":"levelo://app?vid=2751b868-ec98-4dab-b990-46118ec53f94","ios":"levelo://app?vid=2751b868-ec98-4dab-b990-46118ec53f94"},"vehicle_type_id":"4","last_reported":1740863241,"current_range_meters":16000,"station_id":"ce4bgs92rcd13ifvqcc0","pricing_plan_id":"cebpf4jnsgd1na2vs0mg"},{"bike_id":"953cc1e5-7e17-4c1d-b0f2-bff801d3a91c","system_id":"levelo_inurba_marseille","lat":43.29256,"lon":5.38422,"is_reserved":false,"is_disabled":true,"rental_uris":{"android":"levelo://app?vid=953cc1e5-7e17-4c1d-b0f2-bff801d3a91c","ios":"levelo://app?vid=953cc1e5-7e17-4c1d-b0f2-bff801d3a91c"},"vehicle_type_id":"4","last_reported":1740863241,"current_range_meters":16000,"station_id":"ce4bh692rcd13ifvqea0","pricing_plan_id":"cebpf4jnsgd1na2vs0mg"},{"bike_id":"671ccf8a-3e46-43c4-bd76-4373d8752478","system_id":"levelo_inurba_marseille","lat":43.29261,"lon":5.38453,"is_reserved":false,"is_disabled":false,"rental_uris":{"android":"levelo://app?vid=671ccf8a-3e46-43c4-bd76-4373d8752478","ios":"levelo://app?vid=671ccf8a-3e46-43c4-bd76-4373d8752478"},"vehicle_type_id":"4","last_reported":1740863241,"current_range_meters":16000,"station_id":"ce4bh692rcd13ifvqea0","pricing_plan_id":"cebpf4jnsgd1na2vs0mg"},{"bike_id":"01af45f0-40f6-4dbb-8674-926a2ca03f64","system_id":"levelo_inurba_marseille","lat":43.29025,"lon":5.37555,"is_reserved":false,"is_disabled":false,"rental_uris":{"android":"levelo://app?vid=01af45f0-40f6-4dbb-8674-926a2ca03f64","ios":"levelo://app?vid=01af45f0-40f6-4dbb-8674-926a2ca03f64"},"vehicle_type_id":"4","last_reported":1740863241,"current_range_meters":16000,"station_id":"ce4bh692rcd13ifvqe90","pricing_plan_id":"cebpf4jnsgd1na2vs0mg"},{"bike_id":"49645587-4897-47af-80cb-ea0df5af90cc","system_id":"levelo_inurba_marseille","lat":43.26243,"lon":5.37455,"is_reserved":false,"is_disabled":false,"rental_uris":{"android":"levelo://app?vid=49645587-4897-47af-80cb-ea0df5af90cc","ios":"levelo://app?vid=49645587-4897-47af-80cb-ea0df5af90cc"},"vehicle_type_id":"4","last_reported":1740863241,"current_range_meters":16000,"station_id":"","pricing_plan_id":"cebpf4jnsgd1na2vs0mg"},{"bike_id":"33e1bbfb-0c5c-475a-8d0c-68d94454c5f3","system_id":"levelo_inurba_marseille","lat":43.29277,"lon":5.36847,"is_reserved":false,"is_disabled":false,"rental_uris":{"android":"levelo://app?vid=33e1bbfb-0c5c-475a-8d0c-68d94454c5f3","ios":"levelo://app?vid=33e1bbfb-0c5c-475a-8d0c-68d94454c5f3"},"vehicle_type_id":"4","last_reported":1740863241,"current_range_meters":16000,"station_id":"ce4bhbp2rcd13ifvqesg","pricing_plan_id":"cebpf4jnsgd1na2vs0mg"},{"bike_id":"3d3e1218-9db2-47a8-a44c-42be77ca5680","system_id":"levelo_inurba_marseille","lat":43.29285,"lon":5.3686,"is_reserved":false,"is_disabled":false,"rental_uris":{"android":"levelo://app?vid=3d3e1218-9db2-47a8-a44c-42be77ca5680","ios":"levelo://app?vid=3d3e1218-9db2-47a8-a44c-42be77ca5680"},"vehicle_type_id":"4","last_reported":1740863241,"current_range_meters":16000,"station_id":"ce4bhbp2rcd13ifvqesg","pricing_plan_id":"cebpf4jnsgd1na2vs0mg"},{"bike_id":"14da2a3a-0d3b-4102-84c6-346945a4b8ae","system_id":"levelo_inurba_marseille","lat":43.31271,"lon":5.40166,"is_reserved":false,"is_disabled":false,"rental_uris":{"android":"levelo://app?vid=14da2a3a-0d3b-4102-84c6-346945a4b8ae","ios":"levelo://app?vid=14da2a3a-0d3b-4102-84c6-346945a4b8ae"},"vehicle_type_id":"4","last_reported":1740863241,"current_range_meters":12400,"station_id":"ce4bh092rcd13ifvqd30","pricing_plan_id":"cebpf4jnsgd1na2vs0mg"},{"bike_id":"3c9c65ff-a2a8-4c52-a6f4-62bcc77556ef","system_id":"levelo_inurba_marseille","lat":43.24152,"lon":5.36415,"is_reserved":false,"is_disabled":false,"rental_uris":{"android":"levelo://app?vid=3c9c65ff-a2a8-4c52-a6f4-62bcc77556ef","ios":"levelo://app?vid=3c9c65ff-a2a8-4c52-a6f4-62bcc77556ef"},"vehicle_type_id":"4","last_reported":1740863241,"current_range_meters":16000,"station_id":"cpo36qri1sfpv3e86is0","pricing_plan_id":"cebpf4jnsgd1na2vs0mg"},{"bike_id":"5f914a90-cf72-4e49-aa7f-d26f1ae8e799","system_id":"levelo_inurba_marseille","lat":43.29408,"lon":5.38624,"is_reserved":false,"is_disabled":false,"rental_uris":{"android":"levelo://app?vid=5f914a90-cf72-4e49-aa7f-d26f1ae8e799","ios":"levelo://app?vid=5f914a90-cf72-4e49-aa7f-d26f1ae8e799"},"vehicle_type_id":"4","last_reported":1740863241,"current_range_meters":16000,"station_id":"ce4bh2h2rcd13ifvqdh0","pricing_plan_id":"cebpf4jnsgd1na2vs0mg"},{"bike_id":"c272f144-1302-4356-8d7d-046dcce3b360","system_id":"levelo_inurba_marseille","lat":43.262,"lon":5.37932,"is_reserved":false,"is_disabled":false,"rental_uris":{"android":"levelo://app?vid=c272f144-1302-4356-8d7d-046dcce3b360","ios":"levelo://app?vid=c272f144-1302-4356-8d7d-046dcce3b360"},"vehicle_type_id":"4","last_reported":1740863241,"current_range_meters":16000,"station_id":"ce4bhjp2rcd13ifvqg90","pricing_plan_id":"cebpf4jnsgd1na2vs0mg"},{"bike_id":"d31a0a79-58a9-42aa-9796-fdd3c868284a","system_id":"levelo_inurba_marseille","lat":43.29561,"lon":5.39959,"is_reserved":false,"is_disabled":false,"rental_uris":{"android":"levelo://app?vid=d31a0a79-58a9-42aa-9796-fdd3c868284a","ios":"levelo://app?vid=d31a0a79-58a9-42aa-9796-fdd3c868284a"},"vehicle_type_id":"4","last_reported":1740863241,"current_range_meters":16400,"station_id":"ce4bh312rcd13ifvqdj0","pricing_plan_id":"cebpf4jnsgd1na2vs0mg"},{"bike_id":"c55a2b5f-0954-4e06-bb68-763b7bf2d253","system_id":"levelo_inurba_marseille","lat":43.31364,"lon":5.36719,"is_reserved":false,"is_disabled":false,"rental_uris":{"android":"levelo://app?vid=c55a2b5f-0954-4e06-bb68-763b7bf2d253","ios":"levelo://app?vid=c55a2b5f-0954-4e06-bb68-763b7bf2d253"},"vehicle_type_id":"4","last_reported":1740863241,"current_range_meters":16400,"station_id":"ce4bgr92rcd13ifvqc6g","pricing_plan_id":"cebpf4jnsgd1na2vs0mg"},{"bike_id":"0855bd57-8cee-4add-b3e4-1528e2d8d003","system_id":"levelo_inurba_marseille","lat":43.2958,"lon":5.37527,"is_reserved":false,"is_disabled":false,"rental_uris":{"android":"levelo://app?vid=0855bd57-8cee-4add-b3e4-1528e2d8d003","ios":"levelo://app?vid=0855bd57-8cee-4add-b3e4-1528e2d8d003"},"vehicle_type_id":"4","last_reported":1740863241,"current_range_meters":16400,"station_id":"ce4bgh92rcd13ifvqb50","pricing_plan_id":"cebpf4jnsgd1na2vs0mg"},{"bike_id":"ebab742d-6e34-4288-9aad-9f08d5dbfb37","system_id":"levelo_inurba_marseille","lat":43.29527,"lon":5.38547,"is_reserved":false,"is_disabled":false,"rental_uris":{"android":"levelo://app?vid=ebab742d-6e34-4288-9aad-9f08d5dbfb37","ios":"levelo://app?vid=ebab742d-6e34-4288-9aad-9f08d5dbfb37"},"vehicle_type_id":"4","last_reported":1740863241,"current_range_meters":16400,"station_id":"ce4bgih2rcd13ifvqba0","pricing_plan_id":"cebpf4jnsgd1na2vs0mg"},{"bike_id":"9e5520b4-bf3a-4c93-8806-f068ef30cd9f","system_id":"levelo_inurba_marseille","lat":43.27394,"lon":5.36261,"is_reserved":false,"is_disabled":false,"rental_uris":{"android":"levelo://app?vid=9e5520b4-bf3a-4c93-8806-f068ef30cd9f","ios":"levelo://app?vid=9e5520b4-bf3a-4c93-8806-f068ef30cd9f"},"vehicle_type_id":"4","last_reported":1740863241,"current_range_meters":16400,"station_id":"ce4bhbh2rcd13ifvqeo0","pricing_plan_id":"cebpf4jnsgd1na2vs0mg"},{"bike_id":"562b3747-ab90-4fc7-864a-9df54c9c616c","system_id":"levelo_inurba_marseille","lat":43.29264,"lon":5.38451,"is_reserved":false,"is_disabled":false,"rental_uris":{"android":"levelo://app?vid=562b3747-ab90-4fc7-864a-9df54c9c616c","ios":"levelo://app?vid=562b3747-ab90-4fc7-864a-9df54c9c616c"},"vehicle_type_id":"4","last_reported":1740863241,"current_range_meters":16400,"station_id":"ce4bh692rcd13ifvqea0","pricing_plan_id":"cebpf4jnsgd1na2vs0mg"},{"bike_id":"1a19f09d-0b6a-4b64-9d93-aa6bb1c37f46","system_id":"levelo_inurba_marseille","lat":43.29619,"lon":5.38093,"is_reserved":false,"is_disabled":false,"rental_uris":{"android":"levelo://app?vid=1a19f09d-0b6a-4b64-9d93-aa6bb1c37f46","ios":"levelo://app?vid=1a19f09d-0b6a-4b64-9d93-aa6bb1c37f46"},"vehicle_type_id":"4","last_reported":1740863241,"current_range_meters":16400,"station_id":"ce4bgl12rcd13ifvqbo0","pricing_plan_id":"cebpf4jnsgd1na2vs0mg"},{"bike_id":"5403e46a-6736-48f6-a05b-eecba0752b54","system_id":"levelo_inurba_marseille","lat":43.27616,"lon":5.36102,"is_reserved":false,"is_disabled":false,"rental_uris":{"android":"levelo://app?vid=5403e46a-6736-48f6-a05b-eecba0752b54","ios":"levelo://app?vid=5403e46a-6736-48f6-a05b-eecba0752b54"},"vehicle_type_id":"4","last_reported":1740863241,"current_range_meters":16400,"station_id":"ce4bgj92rcd13ifvqbe0","pricing_plan_id":"cebpf4jnsgd1na2vs0mg"},{"bike_id":"76d58a2e-82e7-4e1d-a98f-c6152e9b38bc","system_id":"levelo_inurba_marseille","lat":43.27333,"lon":5.39117,"is_reserved":false,"is_disabled":false,"rental_uris":{"android":"levelo://app?vid=76d58a2e-82e7-4e1d-a98f-c6152e9b38bc","ios":"levelo://app?vid=76d58a2e-82e7-4e1d-a98f-c6152e9b38bc"},"vehicle_type_id":"4","last_reported":1740863241,"current_range_meters":16400,"station_id":"ce4bhgp2rcd13ifvqfe0","pricing_plan_id":"cebpf4jnsgd1na2vs0mg"},{"bike_id":"848e1728-4a39-474c-b550-8bc497cd3e33","system_id":"levelo_inurba_marseille","lat":43.32374,"lon":5.36766,"is_reserved":false,"is_disabled":false,"rental_uris":{"android":"levelo://app?vid=848e1728-4a39-474c-b550-8bc497cd3e33","ios":"levelo://app?vid=848e1728-4a39-474c-b550-8bc497cd3e33"},"vehicle_type_id":"4","last_reported":1740863241,"current_range_meters":16400,"station_id":"ce4bhsh2rcd13ifvqi2g","pricing_plan_id":"cebpf4jnsgd1na2vs0mg"},{"bike_id":"819fc6fd-4768-4c11-82f9-0b5fd0b62d4a","system_id":"levelo_inurba_marseille","lat":43.28617,"lon":5.35106,"is_reserved":false,"is_disabled":false,"rental_uris":{"android":"levelo://app?vid=819fc6fd-4768-4c11-82f9-0b5fd0b62d4a","ios":"levelo://app?vid=819fc6fd-4768-4c11-82f9-0b5fd0b62d4a"},"vehicle_type_id":"4","last_reported":1740863241,"current_range_meters":16800,"station_id":"ce4bhch2rcd13ifvqeug","pricing_plan_id":"cebpf4jnsgd1na2vs0mg"},{"bike_id":"f8774b53-6aad-4c74-8fcb-de09dc38caee","system_id":"levelo_inurba_marseille","lat":43.27384,"lon":5.36256,"is_reserved":false,"is_disabled":true,"rental_uris":{"android":"levelo://app?vid=f8774b53-6aad-4c74-8fcb-de09dc38caee","ios":"levelo://app?vid=f8774b53-6aad-4c74-8fcb-de09dc38caee"},"vehicle_type_id":"4","last_reported":1740863241,"current_range_meters":16800,"station_id":"ce4bhbh2rcd13ifvqeo0","pricing_plan_id":"cebpf4jnsgd1na2vs0mg"},{"bike_id":"91470621-d7b5-4632-8189-89cd0fb32d4a","system_id":"levelo_inurba_marseille","lat":43.29313,"lon":5.36836,"is_reserved":false,"is_disabled":false,"rental_uris":{"android":"levelo://app?vid=91470621-d7b5-4632-8189-89cd0fb32d4a","ios":"levelo://app?vid=91470621-d7b5-4632-8189-89cd0fb32d4a"},"vehicle_type_id":"4","last_reported":1740863241,"current_range_meters":16800,"station_id":"ce4bhbp2rcd13ifvqesg","pricing_plan_id":"cebpf4jnsgd1na2vs0mg"},{"bike_id":"620a5eb3-daee-44ad-a3ba-f984dc8c768a","system_id":"levelo_inurba_marseille","lat":43.30192,"lon":5.36625,"is_reserved":false,"is_disabled":true,"rental_uris":{"android":"levelo://app?vid=620a5eb3-daee-44ad-a3ba-f984dc8c768a","ios":"levelo://app?vid=620a5eb3-daee-44ad-a3ba-f984dc8c768a"},"vehicle_type_id":"4","last_reported":1740863241,"current_range_meters":16800,"station_id":"ce4bgrh2rcd13ifvqc8g","pricing_plan_id":"cebpf4jnsgd1na2vs0mg"},{"bike_id":"1b2a055e-ea37-482f-853e-c714e4fa336c","system_id":"levelo_inurba_marseille","lat":43.28087,"lon":5.39642,"is_reserved":false,"is_disabled":false,"rental_uris":{"android":"levelo://app?vid=1b2a055e-ea37-482f-853e-c714e4fa336c","ios":"levelo://app?vid=1b2a055e-ea37-482f-853e-c714e4fa336c"},"vehicle_type_id":"4","last_reported":1740863241,"current_range_meters":16800,"station_id":"ce4bho12rcd13ifvqh2g","pricing_plan_id":"cebpf4jnsgd1na2vs0mg"},{"bike_id":"d0338d15-401f-4f02-ad15-e1eebf71fa48","system_id":"levelo_inurba_marseille","lat":43.2961,"lon":5.38111,"is_reserved":false,"is_disabled":false,"rental_uris":{"android":"levelo://app?vid=d0338d15-401f-4f02-ad15-e1eebf71fa48","ios":"levelo://app?vid=d0338d15-401f-4f02-ad15-e1eebf71fa48"},"vehicle_type_id":"4","last_reported":1740863241,"current_range_meters":16800,"station_id":"ce4bgl12rcd13ifvqbo0","pricing_plan_id":"cebpf4jnsgd1na2vs0mg"},{"bike_id":"95c3a078-e294-4263-bd3c-02d6dad0df55","system_id":"levelo_inurba_marseille","lat":43.29289,"lon":5.40117,"is_reserved":false,"is_disabled":false,"rental_uris":{"android":"levelo://app?vid=95c3a078-e294-4263-bd3c-02d6dad0df55","ios":"levelo://app?vid=95c3a078-e294-4263-bd3c-02d6dad0df55"},"vehicle_type_id":"4","last_reported":1740863241,"current_range_meters":16800,"station_id":"ce4bh312rcd13ifvqdk0","pricing_plan_id":"cebpf4jnsgd1na2vs0mg"},{"bike_id":"8c528749-43df-40d6-b9b4-e80d7e8bda23","system_id":"levelo_inurba_marseille","lat":43.26549,"lon":5.37306,"is_reserved":false,"is_disabled":false,"rental_uris":{"android":"levelo://app?vid=8c528749-43df-40d6-b9b4-e80d7e8bda23","ios":"levelo://app?vid=8c528749-43df-40d6-b9b4-e80d7e8bda23"},"vehicle_type_id":"4","last_reported":1740863241,"current_range_meters":16800,"station_id":"ce4bhg12rcd13ifvqf70","pricing_plan_id":"cebpf4jnsgd1na2vs0mg"},{"bike_id":"b89b9e97-65c4-4473-a19f-c73995b54f7e","system_id":"levelo_inurba_marseille","lat":43.23064,"lon":5.35491,"is_reserved":false,"is_disabled":false,"rental_uris":{"android":"levelo://app?vid=b89b9e97-65c4-4473-a19f-c73995b54f7e","ios":"levelo://app?vid=b89b9e97-65c4-4473-a19f-c73995b54f7e"},"vehicle_type_id":"4","last_reported":1740863241,"current_range_meters":16800,"station_id":"cpo3342slgdg3j2ifvpg","pricing_plan_id":"cebpf4jnsgd1na2vs0mg"},{"bike_id":"9b0d1c21-53f6-4e0b-a7ea-ee690fad178f","system_id":"levelo_inurba_marseille","lat":43.27619,"lon":5.36107,"is_reserved":false,"is_disabled":false,"rental_uris":{"android":"levelo://app?vid=9b0d1c21-53f6-4e0b-a7ea-ee690fad178f","ios":"levelo://app?vid=9b0d1c21-53f6-4e0b-a7ea-ee690fad178f"},"vehicle_type_id":"4","last_reported":1740863241,"current_range_meters":17200,"station_id":"ce4bgj92rcd13ifvqbe0","pricing_plan_id":"cebpf4jnsgd1na2vs0mg"},{"bike_id":"8de9a0a9-c35c-4c1b-ade6-1c5398560482","system_id":"levelo_inurba_marseille","lat":43.29266,"lon":5.38446,"is_reserved":false,"is_disabled":false,"rental_uris":{"android":"levelo://app?vid=8de9a0a9-c35c-4c1b-ade6-1c5398560482","ios":"levelo://app?vid=8de9a0a9-c35c-4c1b-ade6-1c5398560482"},"vehicle_type_id":"4","last_reported":1740863241,"current_range_meters":17200,"station_id":"ce4bh692rcd13ifvqea0","pricing_plan_id":"cebpf4jnsgd1na2vs0mg"},{"bike_id":"a6c49399-864e-4abf-bb26-61f3efdb0256","system_id":"levelo_inurba_marseille","lat":43.29846,"lon":5.36281,"is_reserved":false,"is_disabled":false,"rental_uris":{"android":"levelo://app?vid=a6c49399-864e-4abf-bb26-61f3efdb0256","ios":"levelo://app?vid=a6c49399-864e-4abf-bb26-61f3efdb0256"},"vehicle_type_id":"4","last_reported":1740863241,"current_range_meters":17200,"station_id":"ce4bgpp2rcd13ifvqc3g","pricing_plan_id":"cebpf4jnsgd1na2vs0mg"},{"bike_id":"ac179dc8-c007-4192-8231-1712dffa8b94","system_id":"levelo_inurba_marseille","lat":43.29305,"lon":5.37184,"is_reserved":false,"is_disabled":false,"rental_uris":{"android":"levelo://app?vid=ac179dc8-c007-4192-8231-1712dffa8b94","ios":"levelo://app?vid=ac179dc8-c007-4192-8231-1712dffa8b94"},"vehicle_type_id":"4","last_reported":1740863241,"current_range_meters":17200,"station_id":"ce4bgh92rcd13ifvqb40","pricing_plan_id":"cebpf4jnsgd1na2vs0mg"},{"bike_id":"545e5b69-cc18-4d78-9bfe-d54184e50a70","system_id":"levelo_inurba_marseille","lat":43.29444,"lon":5.40308,"is_reserved":false,"is_disabled":false,"rental_uris":{"android":"levelo://app?vid=545e5b69-cc18-4d78-9bfe-d54184e50a70","ios":"levelo://app?vid=545e5b69-cc18-4d78-9bfe-d54184e50a70"},"vehicle_type_id":"4","last_reported":1740863241,"current_range_meters":17200,"station_id":"","pricing_plan_id":"cebpf4jnsgd1na2vs0mg"},{"bike_id":"4ba4bfbe-d749-4bdd-abf2-5bed3c4ef563","system_id":"levelo_inurba_marseille","lat":43.29404,"lon":5.38622,"is_reserved":false,"is_disabled":false,"rental_uris":{"android":"levelo://app?vid=4ba4bfbe-d749-4bdd-abf2-5bed3c4ef563","ios":"levelo://app?vid=4ba4bfbe-d749-4bdd-abf2-5bed3c4ef563"},"vehicle_type_id":"4","last_reported":1740863241,"current_range_meters":17200,"station_id":"ce4bh2h2rcd13ifvqdh0","pricing_plan_id":"cebpf4jnsgd1na2vs0mg"},{"bike_id":"c35077d2-28da-4825-8164-89d4ec8e4fbe","system_id":"levelo_inurba_marseille","lat":43.29422,"lon":5.38628,"is_reserved":false,"is_disabled":false,"rental_uris":{"android":"levelo://app?vid=c35077d2-28da-4825-8164-89d4ec8e4fbe","ios":"levelo://app?vid=c35077d2-28da-4825-8164-89d4ec8e4fbe"},"vehicle_type_id":"4","last_reported":1740863241,"current_range_meters":17200,"station_id":"ce4bh2h2rcd13ifvqdh0","pricing_plan_id":"cebpf4jnsgd1na2vs0mg"},{"bike_id":"68dc1ac9-85a9-4c82-8df1-ffd45ed84f89","system_id":"levelo_inurba_marseille","lat":43.29534,"lon":5.38546,"is_reserved":false,"is_disabled":false,"rental_uris":{"android":"levelo://app?vid=68dc1ac9-85a9-4c82-8df1-ffd45ed84f89","ios":"levelo://app?vid=68dc1ac9-85a9-4c82-8df1-ffd45ed84f89"},"vehicle_type_id":"4","last_reported":1740863241,"current_range_meters":17200,"station_id":"ce4bgih2rcd13ifvqba0","pricing_plan_id":"cebpf4jnsgd1na2vs0mg"},{"bike_id":"048ed5c8-0402-4cc6-b32c-bc70026d156b","system_id":"levelo_inurba_marseille","lat":43.29272,"lon":5.36825,"is_reserved":false,"is_disabled":false,"rental_uris":{"android":"levelo://app?vid=048ed5c8-0402-4cc6-b32c-bc70026d156b","ios":"levelo://app?vid=048ed5c8-0402-4cc6-b32c-bc70026d156b"},"vehicle_type_id":"4","last_reported":1740863241,"current_range_meters":17200,"station_id":"ce4bhbp2rcd13ifvqesg","pricing_plan_id":"cebpf4jnsgd1na2vs0mg"},{"bike_id":"4574d4c9-63f4-4000-9ac7-c1db590aaec7","system_id":"levelo_inurba_marseille","lat":43.2927,"lon":5.38446,"is_reserved":false,"is_disabled":false,"rental_uris":{"android":"levelo://app?vid=4574d4c9-63f4-4000-9ac7-c1db590aaec7","ios":"levelo://app?vid=4574d4c9-63f4-4000-9ac7-c1db590aaec7"},"vehicle_type_id":"4","last_reported":1740863241,"current_range_meters":17200,"station_id":"ce4bh692rcd13ifvqea0","pricing_plan_id":"cebpf4jnsgd1na2vs0mg"},{"bike_id":"3bfe0672-d474-4856-948f-7f65acaf4d22","system_id":"levelo_inurba_marseille","lat":43.31326,"lon":5.39698,"is_reserved":false,"is_disabled":false,"rental_uris":{"android":"levelo://app?vid=3bfe0672-d474-4856-948f-7f65acaf4d22","ios":"levelo://app?vid=3bfe0672-d474-4856-948f-7f65acaf4d22"},"vehicle_type_id":"4","last_reported":1740863241,"current_range_meters":17200,"station_id":"ce4bgvp2rcd13ifvqcu0","pricing_plan_id":"cebpf4jnsgd1na2vs0mg"},{"bike_id":"c5fd8d12-1948-40b4-b9a1-13cde478e090","system_id":"levelo_inurba_marseille","lat":43.30895,"lon":5.37203,"is_reserved":false,"is_disabled":false,"rental_uris":{"android":"levelo://app?vid=c5fd8d12-1948-40b4-b9a1-13cde478e090","ios":"levelo://app?vid=c5fd8d12-1948-40b4-b9a1-13cde478e090"},"vehicle_type_id":"4","last_reported":1740863241,"current_range_meters":18000,"station_id":"ce4bguh2rcd13ifvqckg","pricing_plan_id":"cebpf4jnsgd1na2vs0mg"},{"bike_id":"09259c0d-5f84-43b8-acec-cad485feacec","system_id":"levelo_inurba_marseille","lat":43.28722,"lon":5.37403,"is_reserved":false,"is_disabled":false,"rental_uris":{"android":"levelo://app?vid=09259c0d-5f84-43b8-acec-cad485feacec","ios":"levelo://app?vid=09259c0d-5f84-43b8-acec-cad485feacec"},"vehicle_type_id":"4","last_reported":1740863241,"current_range_meters":17600,"station_id":"ce4bh3p2rcd13ifvqdq0","pricing_plan_id":"cebpf4jnsgd1na2vs0mg"},{"bike_id":"0011faf0-d055-4dc6-a1ac-2cad8df76524","system_id":"levelo_inurba_marseille","lat":43.29628,"lon":5.37725,"is_reserved":false,"is_disabled":false,"rental_uris":{"android":"levelo://app?vid=0011faf0-d055-4dc6-a1ac-2cad8df76524","ios":"levelo://app?vid=0011faf0-d055-4dc6-a1ac-2cad8df76524"},"vehicle_type_id":"4","last_reported":1740863241,"current_range_meters":17600,"station_id":"ce4bgi92rcd13ifvqb90","pricing_plan_id":"cebpf4jnsgd1na2vs0mg"},{"bike_id":"0ef53640-d017-41fd-9253-5a11c3b9ca62","system_id":"levelo_inurba_marseille","lat":43.2847,"lon":5.38405,"is_reserved":false,"is_disabled":false,"rental_uris":{"android":"levelo://app?vid=0ef53640-d017-41fd-9253-5a11c3b9ca62","ios":"levelo://app?vid=0ef53640-d017-41fd-9253-5a11c3b9ca62"},"vehicle_type_id":"4","last_reported":1740863241,"current_range_meters":17600,"station_id":"ce4bh512rcd13ifvqe3g","pricing_plan_id":"cebpf4jnsgd1na2vs0mg"},{"bike_id":"17734ec1-1b6f-43cf-ba11-3fbe80210b41","system_id":"levelo_inurba_marseille","lat":43.29514,"lon":5.37499,"is_reserved":false,"is_disabled":false,"rental_uris":{"android":"levelo://app?vid=17734ec1-1b6f-43cf-ba11-3fbe80210b41","ios":"levelo://app?vid=17734ec1-1b6f-43cf-ba11-3fbe80210b41"},"vehicle_type_id":"4","last_reported":1740863241,"current_range_meters":17600,"station_id":"ce4bgkp2rcd13ifvqbmg","pricing_plan_id":"cebpf4jnsgd1na2vs0mg"},{"bike_id":"8b1b8bd8-51ac-4d3f-92f3-58695230689e","system_id":"levelo_inurba_marseille","lat":43.28276,"lon":5.3509,"is_reserved":false,"is_disabled":false,"rental_uris":{"android":"levelo://app?vid=8b1b8bd8-51ac-4d3f-92f3-58695230689e","ios":"levelo://app?vid=8b1b8bd8-51ac-4d3f-92f3-58695230689e"},"vehicle_type_id":"4","last_reported":1740863241,"current_range_meters":17200,"station_id":"ce4bhbp2rcd13ifvqerg","pricing_plan_id":"cebpf4jnsgd1na2vs0mg"},{"bike_id":"96090500-e92b-4618-a8ce-3e71815df01c","system_id":"levelo_inurba_marseille","lat":43.31084,"lon":5.38243,"is_reserved":false,"is_disabled":false,"rental_uris":{"android":"levelo://app?vid=96090500-e92b-4618-a8ce-3e71815df01c","ios":"levelo://app?vid=96090500-e92b-4618-a8ce-3e71815df01c"},"vehicle_type_id":"4","last_reported":1740863241,"current_range_meters":17600,"station_id":"","pricing_plan_id":"cebpf4jnsgd1na2vs0mg"},{"bike_id":"d582d420-ad76-4943-9aaa-ec3ad66c7cfa","system_id":"levelo_inurba_marseille","lat":43.24076,"lon":5.37733,"is_reserved":false,"is_disabled":false,"rental_uris":{"android":"levelo://app?vid=d582d420-ad76-4943-9aaa-ec3ad66c7cfa","ios":"levelo://app?vid=d582d420-ad76-4943-9aaa-ec3ad66c7cfa"},"vehicle_type_id":"4","last_reported":1740863241,"current_range_meters":17600,"station_id":"ce4bhnp2rcd13ifvqgvg","pricing_plan_id":"cebpf4jnsgd1na2vs0mg"},{"bike_id":"659fe34b-3eb4-4a4f-9034-229dee96eb43","system_id":"levelo_inurba_marseille","lat":43.29299,"lon":5.3718,"is_reserved":false,"is_disabled":false,"rental_uris":{"android":"levelo://app?vid=659fe34b-3eb4-4a4f-9034-229dee96eb43","ios":"levelo://app?vid=659fe34b-3eb4-4a4f-9034-229dee96eb43"},"vehicle_type_id":"4","last_reported":1740863241,"current_range_meters":17600,"station_id":"ce4bgh92rcd13ifvqb40","pricing_plan_id":"cebpf4jnsgd1na2vs0mg"},{"bike_id":"18ed809a-93be-4ceb-a90d-b4661309b51d","system_id":"levelo_inurba_marseille","lat":43.30944,"lon":5.37447,"is_reserved":false,"is_disabled":false,"rental_uris":{"android":"levelo://app?vid=18ed809a-93be-4ceb-a90d-b4661309b51d","ios":"levelo://app?vid=18ed809a-93be-4ceb-a90d-b4661309b51d"},"vehicle_type_id":"4","last_reported":1740863241,"current_range_meters":18000,"station_id":"","pricing_plan_id":"cebpf4jnsgd1na2vs0mg"},{"bike_id":"606bdd66-5162-4f4c-bf53-fba710dcc40d","system_id":"levelo_inurba_marseille","lat":43.24415,"lon":5.37076,"is_reserved":false,"is_disabled":true,"rental_uris":{"android":"levelo://app?vid=606bdd66-5162-4f4c-bf53-fba710dcc40d","ios":"levelo://app?vid=606bdd66-5162-4f4c-bf53-fba710dcc40d"},"vehicle_type_id":"4","last_reported":1740863241,"current_range_meters":18000,"station_id":"ce4bhhh2rcd13ifvqfk0","pricing_plan_id":"cebpf4jnsgd1na2vs0mg"},{"bike_id":"d66b749a-0808-469e-b143-0787b08d816b","system_id":"levelo_inurba_marseille","lat":43.26224,"lon":5.37446,"is_reserved":false,"is_disabled":false,"rental_uris":{"android":"levelo://app?vid=d66b749a-0808-469e-b143-0787b08d816b","ios":"levelo://app?vid=d66b749a-0808-469e-b143-0787b08d816b"},"vehicle_type_id":"4","last_reported":1740863241,"current_range_meters":18000,"station_id":"","pricing_plan_id":"cebpf4jnsgd1na2vs0mg"},{"bike_id":"9128b294-c3d7-4dfb-bd9a-a3f33882fc25","system_id":"levelo_inurba_marseille","lat":43.29374,"lon":5.3785,"is_reserved":false,"is_disabled":false,"rental_uris":{"android":"levelo://app?vid=9128b294-c3d7-4dfb-bd9a-a3f33882fc25","ios":"levelo://app?vid=9128b294-c3d7-4dfb-bd9a-a3f33882fc25"},"vehicle_type_id":"4","last_reported":1740863241,"current_range_meters":17600,"station_id":"ce4bgjh2rcd13ifvqbf0","pricing_plan_id":"cebpf4jnsgd1na2vs0mg"},{"bike_id":"fa9d4a65-1d05-4c70-99dd-f8a4ca6d683d","system_id":"levelo_inurba_marseille","lat":43.29256,"lon":5.38435,"is_reserved":false,"is_disabled":false,"rental_uris":{"android":"levelo://app?vid=fa9d4a65-1d05-4c70-99dd-f8a4ca6d683d","ios":"levelo://app?vid=fa9d4a65-1d05-4c70-99dd-f8a4ca6d683d"},"vehicle_type_id":"4","last_reported":1740863241,"current_range_meters":18000,"station_id":"ce4bh692rcd13ifvqea0","pricing_plan_id":"cebpf4jnsgd1na2vs0mg"},{"bike_id":"c5b35fc3-133b-4fcd-9bc1-000b1b46221f","system_id":"levelo_inurba_marseille","lat":43.24158,"lon":5.36417,"is_reserved":false,"is_disabled":false,"rental_uris":{"android":"levelo://app?vid=c5b35fc3-133b-4fcd-9bc1-000b1b46221f","ios":"levelo://app?vid=c5b35fc3-133b-4fcd-9bc1-000b1b46221f"},"vehicle_type_id":"4","last_reported":1740863241,"current_range_meters":18800,"station_id":"cpo36qri1sfpv3e86is0","pricing_plan_id":"cebpf4jnsgd1na2vs0mg"},{"bike_id":"e83f85fa-ccb8-419b-9413-d79fda30485d","system_id":"levelo_inurba_marseille","lat":43.248,"lon":5.37463,"is_reserved":false,"is_disabled":false,"rental_uris":{"android":"levelo://app?vid=e83f85fa-ccb8-419b-9413-d79fda30485d","ios":"levelo://app?vid=e83f85fa-ccb8-419b-9413-d79fda30485d"},"vehicle_type_id":"4","last_reported":1740863241,"current_range_meters":18800,"station_id":"ce4bhgh2rcd13ifvqfb0","pricing_plan_id":"cebpf4jnsgd1na2vs0mg"},{"bike_id":"169767c3-55b5-4cea-a877-161d02055a4f","system_id":"levelo_inurba_marseille","lat":43.31325,"lon":5.39693,"is_reserved":false,"is_disabled":false,"rental_uris":{"android":"levelo://app?vid=169767c3-55b5-4cea-a877-161d02055a4f","ios":"levelo://app?vid=169767c3-55b5-4cea-a877-161d02055a4f"},"vehicle_type_id":"4","last_reported":1740863241,"current_range_meters":18800,"station_id":"ce4bgvp2rcd13ifvqcu0","pricing_plan_id":"cebpf4jnsgd1na2vs0mg"},{"bike_id":"3ccec53c-6e42-439f-b4ea-6b7012a2d938","system_id":"levelo_inurba_marseille","lat":43.29376,"lon":5.37842,"is_reserved":false,"is_disabled":false,"rental_uris":{"android":"levelo://app?vid=3ccec53c-6e42-439f-b4ea-6b7012a2d938","ios":"levelo://app?vid=3ccec53c-6e42-439f-b4ea-6b7012a2d938"},"vehicle_type_id":"4","last_reported":1740863241,"current_range_meters":18800,"station_id":"ce4bgjh2rcd13ifvqbf0","pricing_plan_id":"cebpf4jnsgd1na2vs0mg"},{"bike_id":"5e814625-ea8c-4d84-b949-f4ebde66e9eb","system_id":"levelo_inurba_marseille","lat":43.29536,"lon":5.38551,"is_reserved":false,"is_disabled":false,"rental_uris":{"android":"levelo://app?vid=5e814625-ea8c-4d84-b949-f4ebde66e9eb","ios":"levelo://app?vid=5e814625-ea8c-4d84-b949-f4ebde66e9eb"},"vehicle_type_id":"4","last_reported":1740863241,"current_range_meters":18800,"station_id":"ce4bgih2rcd13ifvqba0","pricing_plan_id":"cebpf4jnsgd1na2vs0mg"},{"bike_id":"35de5d9e-453d-4b6e-a49a-d72de279088a","system_id":"levelo_inurba_marseille","lat":43.26201,"lon":5.37473,"is_reserved":false,"is_disabled":false,"rental_uris":{"android":"levelo://app?vid=35de5d9e-453d-4b6e-a49a-d72de279088a","ios":"levelo://app?vid=35de5d9e-453d-4b6e-a49a-d72de279088a"},"vehicle_type_id":"4","last_reported":1740863241,"current_range_meters":18800,"station_id":"ce4bhgp2rcd13ifvqfc0","pricing_plan_id":"cebpf4jnsgd1na2vs0mg"},{"bike_id":"219c3b0b-00a7-466e-b12d-57038ccef4f4","system_id":"levelo_inurba_marseille","lat":43.26204,"lon":5.37455,"is_reserved":false,"is_disabled":false,"rental_uris":{"android":"levelo://app?vid=219c3b0b-00a7-466e-b12d-57038ccef4f4","ios":"levelo://app?vid=219c3b0b-00a7-466e-b12d-57038ccef4f4"},"vehicle_type_id":"4","last_reported":1740863241,"current_range_meters":18800,"station_id":"ce4bhgp2rcd13ifvqfc0","pricing_plan_id":"cebpf4jnsgd1na2vs0mg"},{"bike_id":"b863bc21-ecc3-4be8-b58d-8f3ecf2d3213","system_id":"levelo_inurba_marseille","lat":43.29449,"lon":5.39764,"is_reserved":false,"is_disabled":true,"rental_uris":{"android":"levelo://app?vid=b863bc21-ecc3-4be8-b58d-8f3ecf2d3213","ios":"levelo://app?vid=b863bc21-ecc3-4be8-b58d-8f3ecf2d3213"},"vehicle_type_id":"4","last_reported":1740863241,"current_range_meters":18800,"station_id":"ce4bh3h2rcd13ifvqdo0","pricing_plan_id":"cebpf4jnsgd1na2vs0mg"},{"bike_id":"c8aa2c53-795a-4a12-830b-17795b22d3f0","system_id":"levelo_inurba_marseille","lat":43.29808,"lon":5.38087,"is_reserved":false,"is_disabled":true,"rental_uris":{"android":"levelo://app?vid=c8aa2c53-795a-4a12-830b-17795b22d3f0","ios":"levelo://app?vid=c8aa2c53-795a-4a12-830b-17795b22d3f0"},"vehicle_type_id":"4","last_reported":1740863241,"current_range_meters":18800,"station_id":"ce4bgip2rcd13ifvqbb0","pricing_plan_id":"cebpf4jnsgd1na2vs0mg"},{"bike_id":"cc836fe0-3cfd-4fe9-beb4-1fec15d76872","system_id":"levelo_inurba_marseille","lat":43.30408,"lon":5.37333,"is_reserved":false,"is_disabled":false,"rental_uris":{"android":"levelo://app?vid=cc836fe0-3cfd-4fe9-beb4-1fec15d76872","ios":"levelo://app?vid=cc836fe0-3cfd-4fe9-beb4-1fec15d76872"},"vehicle_type_id":"4","last_reported":1740863241,"current_range_meters":18800,"station_id":"","pricing_plan_id":"cebpf4jnsgd1na2vs0mg"},{"bike_id":"303c2b96-5131-48b9-8dd0-e5a82865f4bc","system_id":"levelo_inurba_marseille","lat":43.28625,"lon":5.35098,"is_reserved":false,"is_disabled":false,"rental_uris":{"android":"levelo://app?vid=303c2b96-5131-48b9-8dd0-e5a82865f4bc","ios":"levelo://app?vid=303c2b96-5131-48b9-8dd0-e5a82865f4bc"},"vehicle_type_id":"4","last_reported":1740863241,"current_range_meters":19200,"station_id":"ce4bhch2rcd13ifvqeug","pricing_plan_id":"cebpf4jnsgd1na2vs0mg"},{"bike_id":"e304c15e-3b61-4a8f-918b-6c63875b025d","system_id":"levelo_inurba_marseille","lat":43.26197,"lon":5.37447,"is_reserved":false,"is_disabled":false,"rental_uris":{"android":"levelo://app?vid=e304c15e-3b61-4a8f-918b-6c63875b025d","ios":"levelo://app?vid=e304c15e-3b61-4a8f-918b-6c63875b025d"},"vehicle_type_id":"4","last_reported":1740863241,"current_range_meters":19200,"station_id":"ce4bhgp2rcd13ifvqfc0","pricing_plan_id":"cebpf4jnsgd1na2vs0mg"},{"bike_id":"d741aaf3-6062-460e-b109-b5b0486e37ac","system_id":"levelo_inurba_marseille","lat":43.29557,"lon":5.4229,"is_reserved":false,"is_disabled":false,"rental_uris":{"android":"levelo://app?vid=d741aaf3-6062-460e-b109-b5b0486e37ac","ios":"levelo://app?vid=d741aaf3-6062-460e-b109-b5b0486e37ac"},"vehicle_type_id":"4","last_reported":1740863241,"current_range_meters":19200,"station_id":"ce4bhph2rcd13ifvqhdg","pricing_plan_id":"cebpf4jnsgd1na2vs0mg"},{"bike_id":"128983cf-ff31-435d-b9af-aa3c5eb60cbb","system_id":"levelo_inurba_marseille","lat":43.2985,"lon":5.36287,"is_reserved":false,"is_disabled":false,"rental_uris":{"android":"levelo://app?vid=128983cf-ff31-435d-b9af-aa3c5eb60cbb","ios":"levelo://app?vid=128983cf-ff31-435d-b9af-aa3c5eb60cbb"},"vehicle_type_id":"4","last_reported":1740863241,"current_range_meters":19200,"station_id":"ce4bgpp2rcd13ifvqc3g","pricing_plan_id":"cebpf4jnsgd1na2vs0mg"},{"bike_id":"cc9351c4-7429-4314-a267-2e490567aafb","system_id":"levelo_inurba_marseille","lat":43.29316,"lon":5.37162,"is_reserved":false,"is_disabled":false,"rental_uris":{"android":"levelo://app?vid=cc9351c4-7429-4314-a267-2e490567aafb","ios":"levelo://app?vid=cc9351c4-7429-4314-a267-2e490567aafb"},"vehicle_type_id":"4","last_reported":1740863241,"current_range_meters":19200,"station_id":"ce4bgh92rcd13ifvqb40","pricing_plan_id":"cebpf4jnsgd1na2vs0mg"},{"bike_id":"e43adffa-d574-436f-b3f7-fb8f965faf45","system_id":"levelo_inurba_marseille","lat":43.30312,"lon":5.36899,"is_reserved":false,"is_disabled":false,"rental_uris":{"android":"levelo://app?vid=e43adffa-d574-436f-b3f7-fb8f965faf45","ios":"levelo://app?vid=e43adffa-d574-436f-b3f7-fb8f965faf45"},"vehicle_type_id":"4","last_reported":1740863241,"current_range_meters":19200,"station_id":"ce4bgqh2rcd13ifvqc5g","pricing_plan_id":"cebpf4jnsgd1na2vs0mg"},{"bike_id":"d29e82e5-442b-4177-903e-3742ab7d0a8c","system_id":"levelo_inurba_marseille","lat":43.30042,"lon":5.37441,"is_reserved":false,"is_disabled":false,"rental_uris":{"android":"levelo://app?vid=d29e82e5-442b-4177-903e-3742ab7d0a8c","ios":"levelo://app?vid=d29e82e5-442b-4177-903e-3742ab7d0a8c"},"vehicle_type_id":"4","last_reported":1740863241,"current_range_meters":19200,"station_id":"","pricing_plan_id":"cebpf4jnsgd1na2vs0mg"},{"bike_id":"670122a3-157a-4ef1-82d1-a5574649dac0","system_id":"levelo_inurba_marseille","lat":43.23962,"lon":5.36639,"is_reserved":false,"is_disabled":false,"rental_uris":{"android":"levelo://app?vid=670122a3-157a-4ef1-82d1-a5574649dac0","ios":"levelo://app?vid=670122a3-157a-4ef1-82d1-a5574649dac0"},"vehicle_type_id":"4","last_reported":1740863241,"current_range_meters":19200,"station_id":"ce4bhi12rcd13ifvqfp0","pricing_plan_id":"cebpf4jnsgd1na2vs0mg"},{"bike_id":"52c30768-823c-4f29-9a33-bf074f73acb0","system_id":"levelo_inurba_marseille","lat":43.28082,"lon":5.39675,"is_reserved":false,"is_disabled":false,"rental_uris":{"android":"levelo://app?vid=52c30768-823c-4f29-9a33-bf074f73acb0","ios":"levelo://app?vid=52c30768-823c-4f29-9a33-bf074f73acb0"},"vehicle_type_id":"4","last_reported":1740863241,"current_range_meters":19200,"station_id":"ce4bho12rcd13ifvqh2g","pricing_plan_id":"cebpf4jnsgd1na2vs0mg"},{"bike_id":"46b42730-9dd3-44c5-91a9-d6d931f385c3","system_id":"levelo_inurba_marseille","lat":43.2549,"lon":5.37693,"is_reserved":false,"is_disabled":false,"rental_uris":{"android":"levelo://app?vid=46b42730-9dd3-44c5-91a9-d6d931f385c3","ios":"levelo://app?vid=46b42730-9dd3-44c5-91a9-d6d931f385c3"},"vehicle_type_id":"4","last_reported":1740863241,"current_range_meters":19600,"station_id":"ce4bhh12rcd13ifvqff0","pricing_plan_id":"cebpf4jnsgd1na2vs0mg"},{"bike_id":"0b85d778-5f42-41f6-99e6-93c2062ce94d","system_id":"levelo_inurba_marseille","lat":43.31715,"lon":5.43717,"is_reserved":false,"is_disabled":false,"rental_uris":{"android":"levelo://app?vid=0b85d778-5f42-41f6-99e6-93c2062ce94d","ios":"levelo://app?vid=0b85d778-5f42-41f6-99e6-93c2062ce94d"},"vehicle_type_id":"4","last_reported":1740863241,"current_range_meters":19600,"station_id":"ce4bhp92rcd13ifvqhcg","pricing_plan_id":"cebpf4jnsgd1na2vs0mg"},{"bike_id":"24289a33-e716-453e-af16-817ae23cf35d","system_id":"levelo_inurba_marseille","lat":43.29038,"lon":5.39972,"is_reserved":false,"is_disabled":false,"rental_uris":{"android":"levelo://app?vid=24289a33-e716-453e-af16-817ae23cf35d","ios":"levelo://app?vid=24289a33-e716-453e-af16-817ae23cf35d"},"vehicle_type_id":"4","last_reported":1740863241,"current_range_meters":19600,"station_id":"ce4bh392rcd13ifvqdm0","pricing_plan_id":"cebpf4jnsgd1na2vs0mg"},{"bike_id":"2c894b2b-ef09-4256-baad-fbb7abc3124f","system_id":"levelo_inurba_marseille","lat":43.28703,"lon":5.39991,"is_reserved":false,"is_disabled":false,"rental_uris":{"android":"levelo://app?vid=2c894b2b-ef09-4256-baad-fbb7abc3124f","ios":"levelo://app?vid=2c894b2b-ef09-4256-baad-fbb7abc3124f"},"vehicle_type_id":"4","last_reported":1740863241,"current_range_meters":19600,"station_id":"ce4bho92rcd13ifvqh3g","pricing_plan_id":"cebpf4jnsgd1na2vs0mg"},{"bike_id":"982a6c2e-2f14-45e6-81c3-569abb57b097","system_id":"levelo_inurba_marseille","lat":43.23056,"lon":5.35505,"is_reserved":false,"is_disabled":false,"rental_uris":{"android":"levelo://app?vid=982a6c2e-2f14-45e6-81c3-569abb57b097","ios":"levelo://app?vid=982a6c2e-2f14-45e6-81c3-569abb57b097"},"vehicle_type_id":"4","last_reported":1740863241,"current_range_meters":19600,"station_id":"cpo3342slgdg3j2ifvpg","pricing_plan_id":"cebpf4jnsgd1na2vs0mg"},{"bike_id":"32a83324-ace6-4d4b-833d-739c4097e38d","system_id":"levelo_inurba_marseille","lat":43.29266,"lon":5.38438,"is_reserved":false,"is_disabled":false,"rental_uris":{"android":"levelo://app?vid=32a83324-ace6-4d4b-833d-739c4097e38d","ios":"levelo://app?vid=32a83324-ace6-4d4b-833d-739c4097e38d"},"vehicle_type_id":"4","last_reported":1740863241,"current_range_meters":19600,"station_id":"ce4bh692rcd13ifvqea0","pricing_plan_id":"cebpf4jnsgd1na2vs0mg"},{"bike_id":"c0c23cc5-000e-4265-b94f-531119dd1fa1","system_id":"levelo_inurba_marseille","lat":43.23182,"lon":5.39992,"is_reserved":false,"is_disabled":false,"rental_uris":{"android":"levelo://app?vid=c0c23cc5-000e-4265-b94f-531119dd1fa1","ios":"levelo://app?vid=c0c23cc5-000e-4265-b94f-531119dd1fa1"},"vehicle_type_id":"4","last_reported":1740863241,"current_range_meters":20000,"station_id":"ce4bhn12rcd13ifvqgqg","pricing_plan_id":"cebpf4jnsgd1na2vs0mg"},{"bike_id":"0ced025f-e8ab-4d5b-970c-b6e25bf3e50a","system_id":"levelo_inurba_marseille","lat":43.2762,"lon":5.36134,"is_reserved":false,"is_disabled":false,"rental_uris":{"android":"levelo://app?vid=0ced025f-e8ab-4d5b-970c-b6e25bf3e50a","ios":"levelo://app?vid=0ced025f-e8ab-4d5b-970c-b6e25bf3e50a"},"vehicle_type_id":"4","last_reported":1740863241,"current_range_meters":20000,"station_id":"ce4bgj92rcd13ifvqbe0","pricing_plan_id":"cebpf4jnsgd1na2vs0mg"},{"bike_id":"6307fc4c-99ff-417a-af1f-0f33e36ce81e","system_id":"levelo_inurba_marseille","lat":43.29009,"lon":5.35622,"is_reserved":false,"is_disabled":false,"rental_uris":{"android":"levelo://app?vid=6307fc4c-99ff-417a-af1f-0f33e36ce81e","ios":"levelo://app?vid=6307fc4c-99ff-417a-af1f-0f33e36ce81e"},"vehicle_type_id":"4","last_reported":1740863241,"current_range_meters":20000,"station_id":"ce4bhb92rcd13ifvqen0","pricing_plan_id":"cebpf4jnsgd1na2vs0mg"},{"bike_id":"3cb1463c-003f-45bc-aec3-05bd78d2b18e","system_id":"levelo_inurba_marseille","lat":43.29306,"lon":5.37175,"is_reserved":false,"is_disabled":false,"rental_uris":{"android":"levelo://app?vid=3cb1463c-003f-45bc-aec3-05bd78d2b18e","ios":"levelo://app?vid=3cb1463c-003f-45bc-aec3-05bd78d2b18e"},"vehicle_type_id":"4","last_reported":1740863241,"current_range_meters":20000,"station_id":"ce4bgh92rcd13ifvqb40","pricing_plan_id":"cebpf4jnsgd1na2vs0mg"},{"bike_id":"b807de75-33b5-46fe-919d-20eed079785e","system_id":"levelo_inurba_marseille","lat":43.27966,"lon":5.38702,"is_reserved":false,"is_disabled":false,"rental_uris":{"android":"levelo://app?vid=b807de75-33b5-46fe-919d-20eed079785e","ios":"levelo://app?vid=b807de75-33b5-46fe-919d-20eed079785e"},"vehicle_type_id":"4","last_reported":1740863241,"current_range_meters":20000,"station_id":"ce4bhg12rcd13ifvqf80","pricing_plan_id":"cebpf4jnsgd1na2vs0mg"},{"bike_id":"a0251263-ddf5-4b31-82b5-def622127dba","system_id":"levelo_inurba_marseille","lat":43.29519,"lon":5.3904,"is_reserved":false,"is_disabled":false,"rental_uris":{"android":"levelo://app?vid=a0251263-ddf5-4b31-82b5-def622127dba","ios":"levelo://app?vid=a0251263-ddf5-4b31-82b5-def622127dba"},"vehicle_type_id":"4","last_reported":1740863241,"current_range_meters":20000,"station_id":"ce4bh3p2rcd13ifvqdp0","pricing_plan_id":"cebpf4jnsgd1na2vs0mg"},{"bike_id":"985eb8ad-cf0b-483c-83ba-7bf0b29f6f00","system_id":"levelo_inurba_marseille","lat":43.2952,"lon":5.39406,"is_reserved":false,"is_disabled":false,"rental_uris":{"android":"levelo://app?vid=985eb8ad-cf0b-483c-83ba-7bf0b29f6f00","ios":"levelo://app?vid=985eb8ad-cf0b-483c-83ba-7bf0b29f6f00"},"vehicle_type_id":"4","last_reported":1740863241,"current_range_meters":20000,"station_id":"ce4bh292rcd13ifvqdf0","pricing_plan_id":"cebpf4jnsgd1na2vs0mg"},{"bike_id":"23418860-f591-46dc-a2d5-0cc5111bf86a","system_id":"levelo_inurba_marseille","lat":43.26188,"lon":5.42068,"is_reserved":false,"is_disabled":false,"rental_uris":{"android":"levelo://app?vid=23418860-f591-46dc-a2d5-0cc5111bf86a","ios":"levelo://app?vid=23418860-f591-46dc-a2d5-0cc5111bf86a"},"vehicle_type_id":"4","last_reported":1740863241,"current_range_meters":20400,"station_id":"","pricing_plan_id":"cebpf4jnsgd1na2vs0mg"},{"bike_id":"ab771a5e-1f93-41b8-9ddd-e44ebc847f5b","system_id":"levelo_inurba_marseille","lat":43.29278,"lon":5.36866,"is_reserved":false,"is_disabled":false,"rental_uris":{"android":"levelo://app?vid=ab771a5e-1f93-41b8-9ddd-e44ebc847f5b","ios":"levelo://app?vid=ab771a5e-1f93-41b8-9ddd-e44ebc847f5b"},"vehicle_type_id":"4","last_reported":1740863241,"current_range_meters":20400,"station_id":"ce4bhbp2rcd13ifvqesg","pricing_plan_id":"cebpf4jnsgd1na2vs0mg"},{"bike_id":"ed3fdd04-4f01-4dec-bae0-dc817c8e7da9","system_id":"levelo_inurba_marseille","lat":43.30632,"lon":5.37208,"is_reserved":false,"is_disabled":false,"rental_uris":{"android":"levelo://app?vid=ed3fdd04-4f01-4dec-bae0-dc817c8e7da9","ios":"levelo://app?vid=ed3fdd04-4f01-4dec-bae0-dc817c8e7da9"},"vehicle_type_id":"4","last_reported":1740863241,"current_range_meters":20400,"station_id":"ce4bgqh2rcd13ifvqc4g","pricing_plan_id":"cebpf4jnsgd1na2vs0mg"},{"bike_id":"ad3f9331-e2cd-4bf0-845a-bfb8a08a858f","system_id":"levelo_inurba_marseille","lat":43.30218,"lon":5.39788,"is_reserved":false,"is_disabled":false,"rental_uris":{"android":"levelo://app?vid=ad3f9331-e2cd-4bf0-845a-bfb8a08a858f","ios":"levelo://app?vid=ad3f9331-e2cd-4bf0-845a-bfb8a08a858f"},"vehicle_type_id":"4","last_reported":1740863241,"current_range_meters":20400,"station_id":"","pricing_plan_id":"cebpf4jnsgd1na2vs0mg"},{"bike_id":"24dad244-7d68-4b69-9f9c-378937bf1d3c","system_id":"levelo_inurba_marseille","lat":43.29516,"lon":5.38542,"is_reserved":false,"is_disabled":false,"rental_uris":{"android":"levelo://app?vid=24dad244-7d68-4b69-9f9c-378937bf1d3c","ios":"levelo://app?vid=24dad244-7d68-4b69-9f9c-378937bf1d3c"},"vehicle_type_id":"4","last_reported":1740863241,"current_range_meters":20400,"station_id":"ce4bgih2rcd13ifvqba0","pricing_plan_id":"cebpf4jnsgd1na2vs0mg"},{"bike_id":"5d4cd240-6bd2-4254-96b3-7adb516ea578","system_id":"levelo_inurba_marseille","lat":43.297055,"lon":5.36606,"is_reserved":false,"is_disabled":false,"rental_uris":{"android":"levelo://app?vid=5d4cd240-6bd2-4254-96b3-7adb516ea578","ios":"levelo://app?vid=5d4cd240-6bd2-4254-96b3-7adb516ea578"},"vehicle_type_id":"4","last_reported":1740863241,"current_range_meters":20000,"station_id":"ce4bgrp2rcd13ifvqc9g","pricing_plan_id":"cebpf4jnsgd1na2vs0mg"},{"bike_id":"85c5b6aa-63dc-4dc7-9cb4-78ad33ccbb03","system_id":"levelo_inurba_marseille","lat":43.27609,"lon":5.36109,"is_reserved":false,"is_disabled":false,"rental_uris":{"android":"levelo://app?vid=85c5b6aa-63dc-4dc7-9cb4-78ad33ccbb03","ios":"levelo://app?vid=85c5b6aa-63dc-4dc7-9cb4-78ad33ccbb03"},"vehicle_type_id":"4","last_reported":1740863241,"current_range_meters":20400,"station_id":"ce4bgj92rcd13ifvqbe0","pricing_plan_id":"cebpf4jnsgd1na2vs0mg"},{"bike_id":"be1bca98-7eff-44bc-9edb-a3c2a34e7f9a","system_id":"levelo_inurba_marseille","lat":43.26569,"lon":5.39008,"is_reserved":false,"is_disabled":false,"rental_uris":{"android":"levelo://app?vid=be1bca98-7eff-44bc-9edb-a3c2a34e7f9a","ios":"levelo://app?vid=be1bca98-7eff-44bc-9edb-a3c2a34e7f9a"},"vehicle_type_id":"4","last_reported":1740863241,"current_range_meters":20400,"station_id":"ce4bhe12rcd13ifvqf30","pricing_plan_id":"cebpf4jnsgd1na2vs0mg"},{"bike_id":"417fbd7d-d6d8-4c3a-98dd-ce0156edb9f1","system_id":"levelo_inurba_marseille","lat":43.2842,"lon":5.34993,"is_reserved":false,"is_disabled":false,"rental_uris":{"android":"levelo://app?vid=417fbd7d-d6d8-4c3a-98dd-ce0156edb9f1","ios":"levelo://app?vid=417fbd7d-d6d8-4c3a-98dd-ce0156edb9f1"},"vehicle_type_id":"4","last_reported":1740863241,"current_range_meters":20400,"station_id":"ce4bhbh2rcd13ifvqepg","pricing_plan_id":"cebpf4jnsgd1na2vs0mg"},{"bike_id":"b6d72229-34df-42f0-a1f9-8bd8853fad55","system_id":"levelo_inurba_marseille","lat":43.29298,"lon":5.37153,"is_reserved":false,"is_disabled":false,"rental_uris":{"android":"levelo://app?vid=b6d72229-34df-42f0-a1f9-8bd8853fad55","ios":"levelo://app?vid=b6d72229-34df-42f0-a1f9-8bd8853fad55"},"vehicle_type_id":"4","last_reported":1740863241,"current_range_meters":21600,"station_id":"ce4bgh92rcd13ifvqb40","pricing_plan_id":"cebpf4jnsgd1na2vs0mg"},