{"last_updated":1777055756,"ttl":60,"version":"2.2","data":{"bikes":[{"bike_id":"7e726f3f-feee-40f4-90de-d0a0aef3a526","system_id":"levelo_inurba_marseille","lat":43.27069,"lon":5.42276,"is_reserved":false,"is_disabled":false,"rental_uris":{"android":"levelo://app?vid=7e726f3f-feee-40f4-90de-d0a0aef3a526","ios":"levelo://app?vid=7e726f3f-feee-40f4-90de-d0a0aef3a526"},"vehicle_type_id":"4","last_reported":1777055757,"current_range_meters":2800,"station_id":"ce4bhk92rcd13ifvqgb0","pricing_plan_id":"cebpf4jnsgd1na2vs0mg"},{"bike_id":"dc3d93ea-ae84-4a55-9dbf-fa49417dc298","system_id":"levelo_inurba_marseille","lat":43.25752,"lon":5.38648,"is_reserved":false,"is_disabled":false,"rental_uris":{"android":"levelo://app?vid=dc3d93ea-ae84-4a55-9dbf-fa49417dc298","ios":"levelo://app?vid=dc3d93ea-ae84-4a55-9dbf-fa49417dc298"},"vehicle_type_id":"4","last_reported":1777055757,"current_range_meters":2800,"station_id":"","pricing_plan_id":"cebpf4jnsgd1na2vs0mg"},{"bike_id":"1dfc4c50-427d-4f80-817f-cb9a8aa375fa","system_id":"levelo_inurba_marseille","lat":43.29019,"lon":5.3562,"is_reserved":false,"is_disabled":false,"rental_uris":{"android":"levelo://app?vid=1dfc4c50-427d-4f80-817f-cb9a8aa375fa","ios":"levelo://app?vid=1dfc4c50-427d-4f80-817f-cb9a8aa375fa"},"vehicle_type_id":"4","last_reported":1777055757,"current_range_meters":2800,"station_id":"ce4bhb92rcd13ifvqen0","pricing_plan_id":"cebpf4jnsgd1na2vs0mg"},{"bike_id":"677ae57b-0436-4527-8d17-622f1ba5020d","system_id":"levelo_inurba_marseille","lat":43.29577,"lon":5.3752,"is_reserved":false,"is_disabled":false,"rental_uris":{"android":"levelo://app?vid=677ae57b-0436-4527-8d17-622f1ba5020d","ios":"levelo://app?vid=677ae57b-0436-4527-8d17-622f1ba5020d"},"vehicle_type_id":"4","last_reported":1777055757,"current_range_meters":2800,"station_id":"ce4bgh92rcd13ifvqb50","pricing_plan_id":"cebpf4jnsgd1na2vs0mg"},{"bike_id":"5b4c1bfa-a4bb-4dae-b02e-c6365b8a2a96","system_id":"levelo_inurba_marseille","lat":43.28676,"lon":5.46695,"is_reserved":false,"is_disabled":false,"rental_uris":{"android":"levelo://app?vid=5b4c1bfa-a4bb-4dae-b02e-c6365b8a2a96","ios":"levelo://app?vid=5b4c1bfa-a4bb-4dae-b02e-c6365b8a2a96"},"vehicle_type_id":"4","last_reported":1777055757,"current_range_meters":2800,"station_id":"st_d6tc3vkotcvc738tfjhg","pricing_plan_id":"cebpf4jnsgd1na2vs0mg"},{"bike_id":"d1dde369-37de-45e9-80bf-c35fc590d268","system_id":"levelo_inurba_marseille","lat":43.28473,"lon":5.38413,"is_reserved":false,"is_disabled":false,"rental_uris":{"android":"levelo://app?vid=d1dde369-37de-45e9-80bf-c35fc590d268","ios":"levelo://app?vid=d1dde369-37de-45e9-80bf-c35fc590d268"},"vehicle_type_id":"4","last_reported":1777055757,"current_range_meters":2800,"station_id":"ce4bh512rcd13ifvqe3g","pricing_plan_id":"cebpf4jnsgd1na2vs0mg"},{"bike_id":"5a65e4ce-6ae9-46a9-8b43-4807dee35377","system_id":"levelo_inurba_marseille","lat":43.299345,"lon":5.365548,"is_reserved":false,"is_disabled":false,"rental_uris":{"android":"levelo://app?vid=5a65e4ce-6ae9-46a9-8b43-4807dee35377","ios":"levelo://app?vid=5a65e4ce-6ae9-46a9-8b43-4807dee35377"},"vehicle_type_id":"4","last_reported":1777055757,"current_range_meters":2800,"station_id":"ce4bgm92rcd13ifvqbr0","pricing_plan_id":"cebpf4jnsgd1na2vs0mg"},{"bike_id":"f3b66ab9-5402-4a54-abb4-bb6d93771ba9","system_id":"levelo_inurba_marseille","lat":43.29265,"lon":5.38424,"is_reserved":false,"is_disabled":false,"rental_uris":{"android":"levelo://app?vid=f3b66ab9-5402-4a54-abb4-bb6d93771ba9","ios":"levelo://app?vid=f3b66ab9-5402-4a54-abb4-bb6d93771ba9"},"vehicle_type_id":"4","last_reported":1777055757,"current_range_meters":2800,"station_id":"ce4bh692rcd13ifvqea0","pricing_plan_id":"cebpf4jnsgd1na2vs0mg"},{"bike_id":"9eec296c-8317-4f60-a178-0802fe101cd9","system_id":"levelo_inurba_marseille","lat":43.3031,"lon":5.36901,"is_reserved":false,"is_disabled":false,"rental_uris":{"android":"levelo://app?vid=9eec296c-8317-4f60-a178-0802fe101cd9","ios":"levelo://app?vid=9eec296c-8317-4f60-a178-0802fe101cd9"},"vehicle_type_id":"4","last_reported":1777055757,"current_range_meters":2800,"station_id":"ce4bgqh2rcd13ifvqc5g","pricing_plan_id":"cebpf4jnsgd1na2vs0mg"},{"bike_id":"9c3677d0-627f-49f8-bd9c-64ba96ef4fce","system_id":"levelo_inurba_marseille","lat":43.28464,"lon":5.48406,"is_reserved":false,"is_disabled":false,"rental_uris":{"android":"levelo://app?vid=9c3677d0-627f-49f8-bd9c-64ba96ef4fce","ios":"levelo://app?vid=9c3677d0-627f-49f8-bd9c-64ba96ef4fce"},"vehicle_type_id":"4","last_reported":1777055757,"current_range_meters":2800,"station_id":"","pricing_plan_id":"cebpf4jnsgd1na2vs0mg"},{"bike_id":"30a2e2ae-c8dc-4c77-9898-e3e0a0b8ba9f","system_id":"levelo_inurba_marseille","lat":43.30932,"lon":5.40147,"is_reserved":false,"is_disabled":false,"rental_uris":{"android":"levelo://app?vid=30a2e2ae-c8dc-4c77-9898-e3e0a0b8ba9f","ios":"levelo://app?vid=30a2e2ae-c8dc-4c77-9898-e3e0a0b8ba9f"},"vehicle_type_id":"4","last_reported":1777055757,"current_range_meters":2800,"station_id":"ce4bgvp2rcd13ifvqct0","pricing_plan_id":"cebpf4jnsgd1na2vs0mg"},{"bike_id":"51df99b1-2a53-45f8-ab0d-dacb7d45e0b8","system_id":"levelo_inurba_marseille","lat":43.3014,"lon":5.39851,"is_reserved":false,"is_disabled":false,"rental_uris":{"android":"levelo://app?vid=51df99b1-2a53-45f8-ab0d-dacb7d45e0b8","ios":"levelo://app?vid=51df99b1-2a53-45f8-ab0d-dacb7d45e0b8"},"vehicle_type_id":"4","last_reported":1777055757,"current_range_meters":2800,"station_id":"ce4bh0h2rcd13ifvqd40","pricing_plan_id":"cebpf4jnsgd1na2vs0mg"},{"bike_id":"b386a95b-6f3a-42bd-8ab6-c7a25430e274","system_id":"levelo_inurba_marseille","lat":43.305311,"lon":5.384331,"is_reserved":false,"is_disabled":false,"rental_uris":{"android":"levelo://app?vid=b386a95b-6f3a-42bd-8ab6-c7a25430e274","ios":"levelo://app?vid=b386a95b-6f3a-42bd-8ab6-c7a25430e274"},"vehicle_type_id":"4","last_reported":1777055757,"current_range_meters":2800,"station_id":"ce4bgg92rcd13ifvqb30","pricing_plan_id":"cebpf4jnsgd1na2vs0mg"},{"bike_id":"509021cd-babc-40a9-924d-d1180be36d49","system_id":"levelo_inurba_marseille","lat":43.298476,"lon":5.362957,"is_reserved":false,"is_disabled":false,"rental_uris":{"android":"levelo://app?vid=509021cd-babc-40a9-924d-d1180be36d49","ios":"levelo://app?vid=509021cd-babc-40a9-924d-d1180be36d49"},"vehicle_type_id":"4","last_reported":1777055757,"current_range_meters":2800,"station_id":"ce4bgpp2rcd13ifvqc3g","pricing_plan_id":"cebpf4jnsgd1na2vs0mg"},{"bike_id":"416a18e8-cfad-45f6-9579-0f51ebff9cdb","system_id":"levelo_inurba_marseille","lat":43.29531,"lon":5.38526,"is_reserved":false,"is_disabled":false,"rental_uris":{"android":"levelo://app?vid=416a18e8-cfad-45f6-9579-0f51ebff9cdb","ios":"levelo://app?vid=416a18e8-cfad-45f6-9579-0f51ebff9cdb"},"vehicle_type_id":"4","last_reported":1777055757,"current_range_meters":2800,"station_id":"","pricing_plan_id":"cebpf4jnsgd1na2vs0mg"},{"bike_id":"2270c834-d8c9-4d4c-946a-7742ecbf16a4","system_id":"levelo_inurba_marseille","lat":43.30736,"lon":5.42452,"is_reserved":false,"is_disabled":false,"rental_uris":{"android":"levelo://app?vid=2270c834-d8c9-4d4c-946a-7742ecbf16a4","ios":"levelo://app?vid=2270c834-d8c9-4d4c-946a-7742ecbf16a4"},"vehicle_type_id":"4","last_reported":1777055757,"current_range_meters":3200,"station_id":"st_cvj6ca6bvosntc0bfgr0","pricing_plan_id":"cebpf4jnsgd1na2vs0mg"},{"bike_id":"8f975cf4-69f4-4fd4-8c34-d7df8df21514","system_id":"levelo_inurba_marseille","lat":43.33755,"lon":5.37451,"is_reserved":false,"is_disabled":false,"rental_uris":{"android":"levelo://app?vid=8f975cf4-69f4-4fd4-8c34-d7df8df21514","ios":"levelo://app?vid=8f975cf4-69f4-4fd4-8c34-d7df8df21514"},"vehicle_type_id":"4","last_reported":1777055757,"current_range_meters":3200,"station_id":"st_d46cu089ee8s73dldbu0","pricing_plan_id":"cebpf4jnsgd1na2vs0mg"},{"bike_id":"fab422c3-3e71-460a-9231-398cabf4cd0f","system_id":"levelo_inurba_marseille","lat":43.2319,"lon":5.35566,"is_reserved":false,"is_disabled":true,"rental_uris":{"android":"levelo://app?vid=fab422c3-3e71-460a-9231-398cabf4cd0f","ios":"levelo://app?vid=fab422c3-3e71-460a-9231-398cabf4cd0f"},"vehicle_type_id":"4","last_reported":1777055757,"current_range_meters":3200,"station_id":"ce4bhu92rcd13ifvqi70","pricing_plan_id":"cebpf4jnsgd1na2vs0mg"},{"bike_id":"f34c7e1a-b0f3-4321-9e11-96d3ac100623","system_id":"levelo_inurba_marseille","lat":43.27373,"lon":5.36265,"is_reserved":false,"is_disabled":false,"rental_uris":{"android":"levelo://app?vid=f34c7e1a-b0f3-4321-9e11-96d3ac100623","ios":"levelo://app?vid=f34c7e1a-b0f3-4321-9e11-96d3ac100623"},"vehicle_type_id":"4","last_reported":1777055757,"current_range_meters":3200,"station_id":"ce4bhbh2rcd13ifvqeo0","pricing_plan_id":"cebpf4jnsgd1na2vs0mg"},{"bike_id":"bffb5cb8-6e5c-43de-b33c-33bc5803c6b2","system_id":"levelo_inurba_marseille","lat":43.298413,"lon":5.362829,"is_reserved":false,"is_disabled":false,"rental_uris":{"android":"levelo://app?vid=bffb5cb8-6e5c-43de-b33c-33bc5803c6b2","ios":"levelo://app?vid=bffb5cb8-6e5c-43de-b33c-33bc5803c6b2"},"vehicle_type_id":"4","last_reported":1777055757,"current_range_meters":3200,"station_id":"ce4bgpp2rcd13ifvqc3g","pricing_plan_id":"cebpf4jnsgd1na2vs0mg"},{"bike_id":"a767dc6e-2f51-4d71-9e29-f318a1beff69","system_id":"levelo_inurba_marseille","lat":43.30043,"lon":5.36549,"is_reserved":false,"is_disabled":false,"rental_uris":{"android":"levelo://app?vid=a767dc6e-2f51-4d71-9e29-f318a1beff69","ios":"levelo://app?vid=a767dc6e-2f51-4d71-9e29-f318a1beff69"},"vehicle_type_id":"4","last_reported":1777055757,"current_range_meters":3200,"station_id":"","pricing_plan_id":"cebpf4jnsgd1na2vs0mg"},{"bike_id":"8cface65-b4eb-461b-bfbf-47e7ffe88fe6","system_id":"levelo_inurba_marseille","lat":43.27456,"lon":5.43894,"is_reserved":false,"is_disabled":false,"rental_uris":{"android":"levelo://app?vid=8cface65-b4eb-461b-bfbf-47e7ffe88fe6","ios":"levelo://app?vid=8cface65-b4eb-461b-bfbf-47e7ffe88fe6"},"vehicle_type_id":"4","last_reported":1777055757,"current_range_meters":3200,"station_id":"","pricing_plan_id":"cebpf4jnsgd1na2vs0mg"},{"bike_id":"81a1824e-97df-43b0-a57c-a5237f263903","system_id":"levelo_inurba_marseille","lat":43.30598,"lon":5.39365,"is_reserved":false,"is_disabled":true,"rental_uris":{"android":"levelo://app?vid=81a1824e-97df-43b0-a57c-a5237f263903","ios":"levelo://app?vid=81a1824e-97df-43b0-a57c-a5237f263903"},"vehicle_type_id":"4","last_reported":1777055757,"current_range_meters":3200,"station_id":"ce4bh0p2rcd13ifvqd80","pricing_plan_id":"cebpf4jnsgd1na2vs0mg"},{"bike_id":"9d993c45-1aee-481c-b576-0ee69822ada1","system_id":"levelo_inurba_marseille","lat":43.25511,"lon":5.37641,"is_reserved":false,"is_disabled":false,"rental_uris":{"android":"levelo://app?vid=9d993c45-1aee-481c-b576-0ee69822ada1","ios":"levelo://app?vid=9d993c45-1aee-481c-b576-0ee69822ada1"},"vehicle_type_id":"4","last_reported":1777055757,"current_range_meters":3200,"station_id":"ce4bhh12rcd13ifvqff0","pricing_plan_id":"cebpf4jnsgd1na2vs0mg"},{"bike_id":"9bfeccac-b800-482b-985d-afce18ea474b","system_id":"levelo_inurba_marseille","lat":43.30715,"lon":5.38373,"is_reserved":false,"is_disabled":false,"rental_uris":{"android":"levelo://app?vid=9bfeccac-b800-482b-985d-afce18ea474b","ios":"levelo://app?vid=9bfeccac-b800-482b-985d-afce18ea474b"},"vehicle_type_id":"4","last_reported":1777055757,"current_range_meters":3200,"station_id":"","pricing_plan_id":"cebpf4jnsgd1na2vs0mg"},{"bike_id":"77bae04d-b155-4a06-9049-fda6a4b9e974","system_id":"levelo_inurba_marseille","lat":43.29147,"lon":5.42616,"is_reserved":false,"is_disabled":false,"rental_uris":{"android":"levelo://app?vid=77bae04d-b155-4a06-9049-fda6a4b9e974","ios":"levelo://app?vid=77bae04d-b155-4a06-9049-fda6a4b9e974"},"vehicle_type_id":"4","last_reported":1777055757,"current_range_meters":3600,"station_id":"","pricing_plan_id":"cebpf4jnsgd1na2vs0mg"},{"bike_id":"ea4f8e7e-1810-4cbe-af6e-b93b97482b8d","system_id":"levelo_inurba_marseille","lat":43.28039,"lon":5.36943,"is_reserved":false,"is_disabled":false,"rental_uris":{"android":"levelo://app?vid=ea4f8e7e-1810-4cbe-af6e-b93b97482b8d","ios":"levelo://app?vid=ea4f8e7e-1810-4cbe-af6e-b93b97482b8d"},"vehicle_type_id":"4","last_reported":1777055757,"current_range_meters":3600,"station_id":"ce4bha12rcd13ifvqef0","pricing_plan_id":"cebpf4jnsgd1na2vs0mg"},{"bike_id":"1aaf0100-915b-4670-a711-1dd0c7417865","system_id":"levelo_inurba_marseille","lat":43.24073,"lon":5.37752,"is_reserved":false,"is_disabled":false,"rental_uris":{"android":"levelo://app?vid=1aaf0100-915b-4670-a711-1dd0c7417865","ios":"levelo://app?vid=1aaf0100-915b-4670-a711-1dd0c7417865"},"vehicle_type_id":"4","last_reported":1777055757,"current_range_meters":3600,"station_id":"ce4bhnp2rcd13ifvqgvg","pricing_plan_id":"cebpf4jnsgd1na2vs0mg"},{"bike_id":"51a2fc7e-9958-4b12-a62f-c365ec038a53","system_id":"levelo_inurba_marseille","lat":43.28543,"lon":5.40172,"is_reserved":false,"is_disabled":false,"rental_uris":{"android":"levelo://app?vid=51a2fc7e-9958-4b12-a62f-c365ec038a53","ios":"levelo://app?vid=51a2fc7e-9958-4b12-a62f-c365ec038a53"},"vehicle_type_id":"4","last_reported":1777055757,"current_range_meters":3600,"station_id":"","pricing_plan_id":"cebpf4jnsgd1na2vs0mg"},{"bike_id":"257abedb-30b2-4430-9d1c-4db74ab7660b","system_id":"levelo_inurba_marseille","lat":43.291691,"lon":5.371587,"is_reserved":false,"is_disabled":false,"rental_uris":{"android":"levelo://app?vid=257abedb-30b2-4430-9d1c-4db74ab7660b","ios":"levelo://app?vid=257abedb-30b2-4430-9d1c-4db74ab7660b"},"vehicle_type_id":"4","last_reported":1777055757,"current_range_meters":3600,"station_id":"ce4bha92rcd13ifvqeh0","pricing_plan_id":"cebpf4jnsgd1na2vs0mg"},{"bike_id":"5b6b783e-0d52-4bbd-b5a7-c33df0c76194","system_id":"levelo_inurba_marseille","lat":43.28236,"lon":5.37049,"is_reserved":false,"is_disabled":false,"rental_uris":{"android":"levelo://app?vid=5b6b783e-0d52-4bbd-b5a7-c33df0c76194","ios":"levelo://app?vid=5b6b783e-0d52-4bbd-b5a7-c33df0c76194"},"vehicle_type_id":"4","last_reported":1777055757,"current_range_meters":3600,"station_id":"","pricing_plan_id":"cebpf4jnsgd1na2vs0mg"},{"bike_id":"5f90bc3b-5238-4833-bf83-8c00f116801e","system_id":"levelo_inurba_marseille","lat":43.28702,"lon":5.37395,"is_reserved":false,"is_disabled":false,"rental_uris":{"android":"levelo://app?vid=5f90bc3b-5238-4833-bf83-8c00f116801e","ios":"levelo://app?vid=5f90bc3b-5238-4833-bf83-8c00f116801e"},"vehicle_type_id":"4","last_reported":1777055757,"current_range_meters":3600,"station_id":"ce4bh3p2rcd13ifvqdq0","pricing_plan_id":"cebpf4jnsgd1na2vs0mg"},{"bike_id":"11780fbd-1d56-4762-a44a-958f3585eae0","system_id":"levelo_inurba_marseille","lat":43.25502,"lon":5.37648,"is_reserved":false,"is_disabled":false,"rental_uris":{"android":"levelo://app?vid=11780fbd-1d56-4762-a44a-958f3585eae0","ios":"levelo://app?vid=11780fbd-1d56-4762-a44a-958f3585eae0"},"vehicle_type_id":"4","last_reported":1777055757,"current_range_meters":3600,"station_id":"ce4bhh12rcd13ifvqff0","pricing_plan_id":"cebpf4jnsgd1na2vs0mg"},{"bike_id":"66361f4d-9a26-43a4-ba32-acc7e4c565e4","system_id":"levelo_inurba_marseille","lat":43.30956,"lon":5.39039,"is_reserved":false,"is_disabled":false,"rental_uris":{"android":"levelo://app?vid=66361f4d-9a26-43a4-ba32-acc7e4c565e4","ios":"levelo://app?vid=66361f4d-9a26-43a4-ba32-acc7e4c565e4"},"vehicle_type_id":"4","last_reported":1777055757,"current_range_meters":3600,"station_id":"ce4bgup2rcd13ifvqco0","pricing_plan_id":"cebpf4jnsgd1na2vs0mg"},{"bike_id":"be3395ac-ccc9-4697-8504-3a4d24ca70ac","system_id":"levelo_inurba_marseille","lat":43.29705,"lon":5.36607,"is_reserved":false,"is_disabled":false,"rental_uris":{"android":"levelo://app?vid=be3395ac-ccc9-4697-8504-3a4d24ca70ac","ios":"levelo://app?vid=be3395ac-ccc9-4697-8504-3a4d24ca70ac"},"vehicle_type_id":"4","last_reported":1777055757,"current_range_meters":3600,"station_id":"ce4bgn12rcd13ifvqbt0","pricing_plan_id":"cebpf4jnsgd1na2vs0mg"},{"bike_id":"7f7fc20c-7dd9-4544-8240-f27a3d75f927","system_id":"levelo_inurba_marseille","lat":43.276195,"lon":5.361041,"is_reserved":false,"is_disabled":false,"rental_uris":{"android":"levelo://app?vid=7f7fc20c-7dd9-4544-8240-f27a3d75f927","ios":"levelo://app?vid=7f7fc20c-7dd9-4544-8240-f27a3d75f927"},"vehicle_type_id":"4","last_reported":1777055757,"current_range_meters":3600,"station_id":"ce4bgj92rcd13ifvqbe0","pricing_plan_id":"cebpf4jnsgd1na2vs0mg"},{"bike_id":"314f6c79-a7e7-42bb-931f-f8ba51919804","system_id":"levelo_inurba_marseille","lat":43.295435,"lon":5.374328,"is_reserved":false,"is_disabled":false,"rental_uris":{"android":"levelo://app?vid=314f6c79-a7e7-42bb-931f-f8ba51919804","ios":"levelo://app?vid=314f6c79-a7e7-42bb-931f-f8ba51919804"},"vehicle_type_id":"4","last_reported":1777055757,"current_range_meters":4000,"station_id":"ce4bgnh2rcd13ifvqc0g","pricing_plan_id":"cebpf4jnsgd1na2vs0mg"},{"bike_id":"20c3670a-57f9-4aca-b674-acf22d26b0f8","system_id":"levelo_inurba_marseille","lat":43.23978,"lon":5.36598,"is_reserved":false,"is_disabled":true,"rental_uris":{"android":"levelo://app?vid=20c3670a-57f9-4aca-b674-acf22d26b0f8","ios":"levelo://app?vid=20c3670a-57f9-4aca-b674-acf22d26b0f8"},"vehicle_type_id":"4","last_reported":1777055757,"current_range_meters":4000,"station_id":"ce4bhi12rcd13ifvqfp0","pricing_plan_id":"cebpf4jnsgd1na2vs0mg"},{"bike_id":"8fb84350-1a94-4bc1-975c-56b8215e2ec6","system_id":"levelo_inurba_marseille","lat":43.27458,"lon":5.43903,"is_reserved":false,"is_disabled":false,"rental_uris":{"android":"levelo://app?vid=8fb84350-1a94-4bc1-975c-56b8215e2ec6","ios":"levelo://app?vid=8fb84350-1a94-4bc1-975c-56b8215e2ec6"},"vehicle_type_id":"4","last_reported":1777055757,"current_range_meters":4000,"station_id":"","pricing_plan_id":"cebpf4jnsgd1na2vs0mg"},{"bike_id":"62b4e9dd-7e0c-4fe8-9116-3399c40acc29","system_id":"levelo_inurba_marseille","lat":43.28858,"lon":5.3583,"is_reserved":false,"is_disabled":false,"rental_uris":{"android":"levelo://app?vid=62b4e9dd-7e0c-4fe8-9116-3399c40acc29","ios":"levelo://app?vid=62b4e9dd-7e0c-4fe8-9116-3399c40acc29"},"vehicle_type_id":"4","last_reported":1777055757,"current_range_meters":4000,"station_id":"ce4bhb12rcd13ifvqem0","pricing_plan_id":"cebpf4jnsgd1na2vs0mg"},{"bike_id":"c3029403-b858-40e7-a821-5bc99fbb9e3e","system_id":"levelo_inurba_marseille","lat":43.28565,"lon":5.39449,"is_reserved":false,"is_disabled":false,"rental_uris":{"android":"levelo://app?vid=c3029403-b858-40e7-a821-5bc99fbb9e3e","ios":"levelo://app?vid=c3029403-b858-40e7-a821-5bc99fbb9e3e"},"vehicle_type_id":"4","last_reported":1777055757,"current_range_meters":4000,"station_id":"ce4bh292rcd13ifvqdg0","pricing_plan_id":"cebpf4jnsgd1na2vs0mg"},{"bike_id":"c5144401-e972-4445-9dc7-2e728caa9411","system_id":"levelo_inurba_marseille","lat":43.23188,"lon":5.39976,"is_reserved":false,"is_disabled":false,"rental_uris":{"android":"levelo://app?vid=c5144401-e972-4445-9dc7-2e728caa9411","ios":"levelo://app?vid=c5144401-e972-4445-9dc7-2e728caa9411"},"vehicle_type_id":"4","last_reported":1777055757,"current_range_meters":4000,"station_id":"ce4bhn12rcd13ifvqgqg","pricing_plan_id":"cebpf4jnsgd1na2vs0mg"},{"bike_id":"0a557f2f-d9e8-4593-822e-b7f959fbb634","system_id":"levelo_inurba_marseille","lat":43.2799,"lon":5.40008,"is_reserved":false,"is_disabled":false,"rental_uris":{"android":"levelo://app?vid=0a557f2f-d9e8-4593-822e-b7f959fbb634","ios":"levelo://app?vid=0a557f2f-d9e8-4593-822e-b7f959fbb634"},"vehicle_type_id":"4","last_reported":1777055757,"current_range_meters":4000,"station_id":"ce4bho92rcd13ifvqh4g","pricing_plan_id":"cebpf4jnsgd1na2vs0mg"},{"bike_id":"103c8fbe-fb6a-429c-8352-603ed6805209","system_id":"levelo_inurba_marseille","lat":43.29176,"lon":5.3716,"is_reserved":false,"is_disabled":false,"rental_uris":{"android":"levelo://app?vid=103c8fbe-fb6a-429c-8352-603ed6805209","ios":"levelo://app?vid=103c8fbe-fb6a-429c-8352-603ed6805209"},"vehicle_type_id":"4","last_reported":1777055757,"current_range_meters":4400,"station_id":"ce4bha92rcd13ifvqeh0","pricing_plan_id":"cebpf4jnsgd1na2vs0mg"},{"bike_id":"774f7fe7-3632-4f28-918c-e17f369084c5","system_id":"levelo_inurba_marseille","lat":43.28615,"lon":5.35106,"is_reserved":false,"is_disabled":false,"rental_uris":{"android":"levelo://app?vid=774f7fe7-3632-4f28-918c-e17f369084c5","ios":"levelo://app?vid=774f7fe7-3632-4f28-918c-e17f369084c5"},"vehicle_type_id":"4","last_reported":1777055757,"current_range_meters":4400,"station_id":"ce4bhch2rcd13ifvqeug","pricing_plan_id":"cebpf4jnsgd1na2vs0mg"},{"bike_id":"ecdd1e60-1fc1-490d-889b-d83c1e7933b8","system_id":"levelo_inurba_marseille","lat":43.23979,"lon":5.36612,"is_reserved":false,"is_disabled":false,"rental_uris":{"android":"levelo://app?vid=ecdd1e60-1fc1-490d-889b-d83c1e7933b8","ios":"levelo://app?vid=ecdd1e60-1fc1-490d-889b-d83c1e7933b8"},"vehicle_type_id":"4","last_reported":1777055757,"current_range_meters":4400,"station_id":"ce4bhi12rcd13ifvqfp0","pricing_plan_id":"cebpf4jnsgd1na2vs0mg"},{"bike_id":"6180becc-b7c0-4d8a-a9da-46c1cf2430b3","system_id":"levelo_inurba_marseille","lat":43.29219,"lon":5.36058,"is_reserved":false,"is_disabled":false,"rental_uris":{"android":"levelo://app?vid=6180becc-b7c0-4d8a-a9da-46c1cf2430b3","ios":"levelo://app?vid=6180becc-b7c0-4d8a-a9da-46c1cf2430b3"},"vehicle_type_id":"4","last_reported":1777055757,"current_range_meters":4400,"station_id":"ce4bhbh2rcd13ifvqeqg","pricing_plan_id":"cebpf4jnsgd1na2vs0mg"},{"bike_id":"ea3c1786-161a-49ba-9999-4db433e959c3","system_id":"levelo_inurba_marseille","lat":43.24431,"lon":5.40866,"is_reserved":false,"is_disabled":false,"rental_uris":{"android":"levelo://app?vid=ea3c1786-161a-49ba-9999-4db433e959c3","ios":"levelo://app?vid=ea3c1786-161a-49ba-9999-4db433e959c3"},"vehicle_type_id":"4","last_reported":1777055757,"current_range_meters":4400,"station_id":"","pricing_plan_id":"cebpf4jnsgd1na2vs0mg"},{"bike_id":"861f15af-4411-452e-85ca-78bef5ecae4e","system_id":"levelo_inurba_marseille","lat":43.28606,"lon":5.35107,"is_reserved":false,"is_disabled":false,"rental_uris":{"android":"levelo://app?vid=861f15af-4411-452e-85ca-78bef5ecae4e","ios":"levelo://app?vid=861f15af-4411-452e-85ca-78bef5ecae4e"},"vehicle_type_id":"4","last_reported":1777055757,"current_range_meters":4400,"station_id":"ce4bhch2rcd13ifvqeug","pricing_plan_id":"cebpf4jnsgd1na2vs0mg"},{"bike_id":"7a421a6a-0355-4808-95a3-93f514aaf57c","system_id":"levelo_inurba_marseille","lat":43.30591,"lon":5.39363,"is_reserved":false,"is_disabled":false,"rental_uris":{"android":"levelo://app?vid=7a421a6a-0355-4808-95a3-93f514aaf57c","ios":"levelo://app?vid=7a421a6a-0355-4808-95a3-93f514aaf57c"},"vehicle_type_id":"4","last_reported":1777055757,"current_range_meters":4400,"station_id":"ce4bh0p2rcd13ifvqd80","pricing_plan_id":"cebpf4jnsgd1na2vs0mg"},{"bike_id":"9be1fb83-d98a-48d3-b8d6-227019da0299","system_id":"levelo_inurba_marseille","lat":43.255,"lon":5.37654,"is_reserved":false,"is_disabled":false,"rental_uris":{"android":"levelo://app?vid=9be1fb83-d98a-48d3-b8d6-227019da0299","ios":"levelo://app?vid=9be1fb83-d98a-48d3-b8d6-227019da0299"},"vehicle_type_id":"4","last_reported":1777055757,"current_range_meters":4400,"station_id":"ce4bhh12rcd13ifvqff0","pricing_plan_id":"cebpf4jnsgd1na2vs0mg"},{"bike_id":"c3659485-1703-4d7b-8bb6-1bd6f0d4749e","system_id":"levelo_inurba_marseille","lat":43.27947,"lon":5.41055,"is_reserved":false,"is_disabled":false,"rental_uris":{"android":"levelo://app?vid=c3659485-1703-4d7b-8bb6-1bd6f0d4749e","ios":"levelo://app?vid=c3659485-1703-4d7b-8bb6-1bd6f0d4749e"},"vehicle_type_id":"4","last_reported":1777055757,"current_range_meters":4400,"station_id":"ce4bhnp2rcd13ifvqh0g","pricing_plan_id":"cebpf4jnsgd1na2vs0mg"},{"bike_id":"10c4ef3b-fca3-4082-8a18-da8d430d0e8b","system_id":"levelo_inurba_marseille","lat":43.30948,"lon":5.39042,"is_reserved":false,"is_disabled":false,"rental_uris":{"android":"levelo://app?vid=10c4ef3b-fca3-4082-8a18-da8d430d0e8b","ios":"levelo://app?vid=10c4ef3b-fca3-4082-8a18-da8d430d0e8b"},"vehicle_type_id":"4","last_reported":1777055757,"current_range_meters":4400,"station_id":"ce4bgup2rcd13ifvqco0","pricing_plan_id":"cebpf4jnsgd1na2vs0mg"},{"bike_id":"f4d9ef01-6b22-4474-afe1-c4f05b6d6ca5","system_id":"levelo_inurba_marseille","lat":43.27064,"lon":5.4227,"is_reserved":false,"is_disabled":false,"rental_uris":{"android":"levelo://app?vid=f4d9ef01-6b22-4474-afe1-c4f05b6d6ca5","ios":"levelo://app?vid=f4d9ef01-6b22-4474-afe1-c4f05b6d6ca5"},"vehicle_type_id":"4","last_reported":1777055757,"current_range_meters":4400,"station_id":"ce4bhk92rcd13ifvqgb0","pricing_plan_id":"cebpf4jnsgd1na2vs0mg"},{"bike_id":"4f43ac66-fb73-4f75-8d40-a05e28cde456","system_id":"levelo_inurba_marseille","lat":43.28935,"lon":5.36649,"is_reserved":false,"is_disabled":false,"rental_uris":{"android":"levelo://app?vid=4f43ac66-fb73-4f75-8d40-a05e28cde456","ios":"levelo://app?vid=4f43ac66-fb73-4f75-8d40-a05e28cde456"},"vehicle_type_id":"4","last_reported":1777055757,"current_range_meters":4800,"station_id":"ce4bhap2rcd13ifvqek0","pricing_plan_id":"cebpf4jnsgd1na2vs0mg"},{"bike_id":"5203cba9-d3ba-4dae-bc08-6b3637aba68d","system_id":"levelo_inurba_marseille","lat":43.27614,"lon":5.36111,"is_reserved":false,"is_disabled":false,"rental_uris":{"android":"levelo://app?vid=5203cba9-d3ba-4dae-bc08-6b3637aba68d","ios":"levelo://app?vid=5203cba9-d3ba-4dae-bc08-6b3637aba68d"},"vehicle_type_id":"4","last_reported":1777055757,"current_range_meters":4800,"station_id":"ce4bgj92rcd13ifvqbe0","pricing_plan_id":"cebpf4jnsgd1na2vs0mg"},{"bike_id":"0802d81a-fc51-4a40-b8bd-5dbd8906e7aa","system_id":"levelo_inurba_marseille","lat":43.30945,"lon":5.39027,"is_reserved":false,"is_disabled":false,"rental_uris":{"android":"levelo://app?vid=0802d81a-fc51-4a40-b8bd-5dbd8906e7aa","ios":"levelo://app?vid=0802d81a-fc51-4a40-b8bd-5dbd8906e7aa"},"vehicle_type_id":"4","last_reported":1777055757,"current_range_meters":4800,"station_id":"ce4bgup2rcd13ifvqco0","pricing_plan_id":"cebpf4jnsgd1na2vs0mg"},{"bike_id":"e82c5f15-7416-40c4-aff4-bfd73fce1db9","system_id":"levelo_inurba_marseille","lat":43.24392,"lon":5.37058,"is_reserved":false,"is_disabled":false,"rental_uris":{"android":"levelo://app?vid=e82c5f15-7416-40c4-aff4-bfd73fce1db9","ios":"levelo://app?vid=e82c5f15-7416-40c4-aff4-bfd73fce1db9"},"vehicle_type_id":"4","last_reported":1777055757,"current_range_meters":4800,"station_id":"ce4bhhh2rcd13ifvqfk0","pricing_plan_id":"cebpf4jnsgd1na2vs0mg"},{"bike_id":"9ed6731c-95a0-463a-9bac-f90650dbda35","system_id":"levelo_inurba_marseille","lat":43.30587,"lon":5.39361,"is_reserved":false,"is_disabled":false,"rental_uris":{"android":"levelo://app?vid=9ed6731c-95a0-463a-9bac-f90650dbda35","ios":"levelo://app?vid=9ed6731c-95a0-463a-9bac-f90650dbda35"},"vehicle_type_id":"4","last_reported":1777055757,"current_range_meters":4800,"station_id":"ce4bh0p2rcd13ifvqd80","pricing_plan_id":"cebpf4jnsgd1na2vs0mg"},{"bike_id":"a9e9b945-ea2c-40dd-8704-13f159f020c8","system_id":"levelo_inurba_marseille","lat":43.27919,"lon":5.39578,"is_reserved":false,"is_disabled":false,"rental_uris":{"android":"levelo://app?vid=a9e9b945-ea2c-40dd-8704-13f159f020c8","ios":"levelo://app?vid=a9e9b945-ea2c-40dd-8704-13f159f020c8"},"vehicle_type_id":"4","last_reported":1777055757,"current_range_meters":4800,"station_id":"ce4bhf92rcd13ifvqf40","pricing_plan_id":"cebpf4jnsgd1na2vs0mg"},{"bike_id":"db53972d-d542-4ce9-9ecf-e496ddeb3536","system_id":"levelo_inurba_marseille","lat":43.30968,"lon":5.39049,"is_reserved":false,"is_disabled":false,"rental_uris":{"android":"levelo://app?vid=db53972d-d542-4ce9-9ecf-e496ddeb3536","ios":"levelo://app?vid=db53972d-d542-4ce9-9ecf-e496ddeb3536"},"vehicle_type_id":"4","last_reported":1777055757,"current_range_meters":4800,"station_id":"ce4bgup2rcd13ifvqco0","pricing_plan_id":"cebpf4jnsgd1na2vs0mg"},{"bike_id":"234ba78f-d7f2-4abb-a69c-ce8f9d4b1d3e","system_id":"levelo_inurba_marseille","lat":43.29787,"lon":5.3811,"is_reserved":false,"is_disabled":false,"rental_uris":{"android":"levelo://app?vid=234ba78f-d7f2-4abb-a69c-ce8f9d4b1d3e","ios":"levelo://app?vid=234ba78f-d7f2-4abb-a69c-ce8f9d4b1d3e"},"vehicle_type_id":"4","last_reported":1777055757,"current_range_meters":4800,"station_id":"ce4bgpp2rcd13ifvqc3g","pricing_plan_id":"cebpf4jnsgd1na2vs0mg"},{"bike_id":"dd1a99ac-9ba0-4a84-938d-f1c875f271c6","system_id":"levelo_inurba_marseille","lat":43.29166,"lon":5.35806,"is_reserved":false,"is_disabled":false,"rental_uris":{"android":"levelo://app?vid=dd1a99ac-9ba0-4a84-938d-f1c875f271c6","ios":"levelo://app?vid=dd1a99ac-9ba0-4a84-938d-f1c875f271c6"},"vehicle_type_id":"4","last_reported":1777055757,"current_range_meters":4800,"station_id":"ce4bhb12rcd13ifvqel0","pricing_plan_id":"cebpf4jnsgd1na2vs0mg"},{"bike_id":"adaf11df-c473-413c-9c2b-e4ca9cbaf12d","system_id":"levelo_inurba_marseille","lat":43.25494,"lon":5.3765,"is_reserved":false,"is_disabled":false,"rental_uris":{"android":"levelo://app?vid=adaf11df-c473-413c-9c2b-e4ca9cbaf12d","ios":"levelo://app?vid=adaf11df-c473-413c-9c2b-e4ca9cbaf12d"},"vehicle_type_id":"4","last_reported":1777055757,"current_range_meters":4800,"station_id":"ce4bhh12rcd13ifvqff0","pricing_plan_id":"cebpf4jnsgd1na2vs0mg"},{"bike_id":"7faff955-ce8b-4264-9035-7d6f4a9b7bc5","system_id":"levelo_inurba_marseille","lat":43.27972,"lon":5.38755,"is_reserved":false,"is_disabled":false,"rental_uris":{"android":"levelo://app?vid=7faff955-ce8b-4264-9035-7d6f4a9b7bc5","ios":"levelo://app?vid=7faff955-ce8b-4264-9035-7d6f4a9b7bc5"},"vehicle_type_id":"4","last_reported":1777055757,"current_range_meters":4800,"station_id":"ce4bhg12rcd13ifvqf80","pricing_plan_id":"cebpf4jnsgd1na2vs0mg"},{"bike_id":"b1e898c4-c1a6-466c-8eaa-8e09d40429de","system_id":"levelo_inurba_marseille","lat":43.31533,"lon":5.38055,"is_reserved":false,"is_disabled":false,"rental_uris":{"android":"levelo://app?vid=b1e898c4-c1a6-466c-8eaa-8e09d40429de","ios":"levelo://app?vid=b1e898c4-c1a6-466c-8eaa-8e09d40429de"},"vehicle_type_id":"4","last_reported":1777055757,"current_range_meters":4800,"station_id":"ce4bhsp2rcd13ifvqi50","pricing_plan_id":"cebpf4jnsgd1na2vs0mg"},{"bike_id":"53d0b464-9d84-4ebb-a788-233487c8451c","system_id":"levelo_inurba_marseille","lat":43.33261,"lon":5.37783,"is_reserved":false,"is_disabled":false,"rental_uris":{"android":"levelo://app?vid=53d0b464-9d84-4ebb-a788-233487c8451c","ios":"levelo://app?vid=53d0b464-9d84-4ebb-a788-233487c8451c"},"vehicle_type_id":"4","last_reported":1777055757,"current_range_meters":5600,"station_id":"","pricing_plan_id":"cebpf4jnsgd1na2vs0mg"},{"bike_id":"732477f8-f155-4d59-a54d-b8bf4e772643","system_id":"levelo_inurba_marseille","lat":43.30166,"lon":5.38085,"is_reserved":false,"is_disabled":false,"rental_uris":{"android":"levelo://app?vid=732477f8-f155-4d59-a54d-b8bf4e772643","ios":"levelo://app?vid=732477f8-f155-4d59-a54d-b8bf4e772643"},"vehicle_type_id":"4","last_reported":1777055757,"current_range_meters":5600,"station_id":"ce4bgjp2rcd13ifvqbh0","pricing_plan_id":"cebpf4jnsgd1na2vs0mg"},{"bike_id":"89cb976b-df3a-46fc-a9ef-0025de561630","system_id":"levelo_inurba_marseille","lat":43.29421,"lon":5.43401,"is_reserved":false,"is_disabled":false,"rental_uris":{"android":"levelo://app?vid=89cb976b-df3a-46fc-a9ef-0025de561630","ios":"levelo://app?vid=89cb976b-df3a-46fc-a9ef-0025de561630"},"vehicle_type_id":"4","last_reported":1777055757,"current_range_meters":5600,"station_id":"","pricing_plan_id":"cebpf4jnsgd1na2vs0mg"},{"bike_id":"639e02b1-3bff-4dbf-9c38-c040865a0f40","system_id":"levelo_inurba_marseille","lat":43.29274,"lon":5.36852,"is_reserved":false,"is_disabled":false,"rental_uris":{"android":"levelo://app?vid=639e02b1-3bff-4dbf-9c38-c040865a0f40","ios":"levelo://app?vid=639e02b1-3bff-4dbf-9c38-c040865a0f40"},"vehicle_type_id":"4","last_reported":1777055757,"current_range_meters":5600,"station_id":"ce4bhbp2rcd13ifvqesg","pricing_plan_id":"cebpf4jnsgd1na2vs0mg"},{"bike_id":"9bb0a986-5c33-4a09-9f3d-92917f401b2b","system_id":"levelo_inurba_marseille","lat":43.28622,"lon":5.35103,"is_reserved":false,"is_disabled":false,"rental_uris":{"android":"levelo://app?vid=9bb0a986-5c33-4a09-9f3d-92917f401b2b","ios":"levelo://app?vid=9bb0a986-5c33-4a09-9f3d-92917f401b2b"},"vehicle_type_id":"4","last_reported":1777055757,"current_range_meters":5600,"station_id":"ce4bhch2rcd13ifvqeug","pricing_plan_id":"cebpf4jnsgd1na2vs0mg"},{"bike_id":"4453c01c-b844-4c68-8e60-1655e94625b7","system_id":"levelo_inurba_marseille","lat":43.27464,"lon":5.43888,"is_reserved":false,"is_disabled":false,"rental_uris":{"android":"levelo://app?vid=4453c01c-b844-4c68-8e60-1655e94625b7","ios":"levelo://app?vid=4453c01c-b844-4c68-8e60-1655e94625b7"},"vehicle_type_id":"4","last_reported":1777055757,"current_range_meters":5600,"station_id":"","pricing_plan_id":"cebpf4jnsgd1na2vs0mg"},{"bike_id":"783c184a-b441-48fa-8c33-a402db65b787","system_id":"levelo_inurba_marseille","lat":43.29253,"lon":5.38439,"is_reserved":false,"is_disabled":false,"rental_uris":{"android":"levelo://app?vid=783c184a-b441-48fa-8c33-a402db65b787","ios":"levelo://app?vid=783c184a-b441-48fa-8c33-a402db65b787"},"vehicle_type_id":"4","last_reported":1777055757,"current_range_meters":5600,"station_id":"ce4bh692rcd13ifvqea0","pricing_plan_id":"cebpf4jnsgd1na2vs0mg"},{"bike_id":"bc99bfa9-3520-427a-983a-ed257aae3ce0","system_id":"levelo_inurba_marseille","lat":43.28631,"lon":5.35096,"is_reserved":false,"is_disabled":false,"rental_uris":{"android":"levelo://app?vid=bc99bfa9-3520-427a-983a-ed257aae3ce0","ios":"levelo://app?vid=bc99bfa9-3520-427a-983a-ed257aae3ce0"},"vehicle_type_id":"4","last_reported":1777055757,"current_range_meters":5600,"station_id":"ce4bhch2rcd13ifvqeug","pricing_plan_id":"cebpf4jnsgd1na2vs0mg"},{"bike_id":"2adf6855-73d1-4524-8161-4f51a38f6e77","system_id":"levelo_inurba_marseille","lat":43.28927,"lon":5.38383,"is_reserved":false,"is_disabled":false,"rental_uris":{"android":"levelo://app?vid=2adf6855-73d1-4524-8161-4f51a38f6e77","ios":"levelo://app?vid=2adf6855-73d1-4524-8161-4f51a38f6e77"},"vehicle_type_id":"4","last_reported":1777055757,"current_range_meters":5600,"station_id":"ce4bh612rcd13ifvqe6g","pricing_plan_id":"cebpf4jnsgd1na2vs0mg"},{"bike_id":"35d1e7a1-a3d6-41b2-8c96-40c2cbb0f502","system_id":"levelo_inurba_marseille","lat":43.26558,"lon":5.37282,"is_reserved":false,"is_disabled":false,"rental_uris":{"android":"levelo://app?vid=35d1e7a1-a3d6-41b2-8c96-40c2cbb0f502","ios":"levelo://app?vid=35d1e7a1-a3d6-41b2-8c96-40c2cbb0f502"},"vehicle_type_id":"4","last_reported":1777055757,"current_range_meters":6000,"station_id":"ce4bhg12rcd13ifvqf70","pricing_plan_id":"cebpf4jnsgd1na2vs0mg"},{"bike_id":"08ca7757-4bd8-4438-b228-591a36ea424c","system_id":"levelo_inurba_marseille","lat":43.29198,"lon":5.39326,"is_reserved":false,"is_disabled":false,"rental_uris":{"android":"levelo://app?vid=08ca7757-4bd8-4438-b228-591a36ea424c","ios":"levelo://app?vid=08ca7757-4bd8-4438-b228-591a36ea424c"},"vehicle_type_id":"4","last_reported":1777055757,"current_range_meters":6000,"station_id":"ce4bh192rcd13ifvqdd0","pricing_plan_id":"cebpf4jnsgd1na2vs0mg"},{"bike_id":"146def8f-c25a-4a36-bb78-c0e04f65294e","system_id":"levelo_inurba_marseille","lat":43.28878,"lon":5.43038,"is_reserved":false,"is_disabled":false,"rental_uris":{"android":"levelo://app?vid=146def8f-c25a-4a36-bb78-c0e04f65294e","ios":"levelo://app?vid=146def8f-c25a-4a36-bb78-c0e04f65294e"},"vehicle_type_id":"4","last_reported":1777055757,"current_range_meters":6000,"station_id":"","pricing_plan_id":"cebpf4jnsgd1na2vs0mg"},{"bike_id":"0c22485a-a711-4725-8592-dab240ed7b73","system_id":"levelo_inurba_marseille","lat":43.2397,"lon":5.36619,"is_reserved":false,"is_disabled":false,"rental_uris":{"android":"levelo://app?vid=0c22485a-a711-4725-8592-dab240ed7b73","ios":"levelo://app?vid=0c22485a-a711-4725-8592-dab240ed7b73"},"vehicle_type_id":"4","last_reported":1777055757,"current_range_meters":6000,"station_id":"ce4bhi12rcd13ifvqfp0","pricing_plan_id":"cebpf4jnsgd1na2vs0mg"},{"bike_id":"5ead6c82-945e-40fd-95a3-a76f14e965c1","system_id":"levelo_inurba_marseille","lat":43.29536,"lon":5.38542,"is_reserved":false,"is_disabled":false,"rental_uris":{"android":"levelo://app?vid=5ead6c82-945e-40fd-95a3-a76f14e965c1","ios":"levelo://app?vid=5ead6c82-945e-40fd-95a3-a76f14e965c1"},"vehicle_type_id":"4","last_reported":1777055757,"current_range_meters":6000,"station_id":"ce4bgih2rcd13ifvqba0","pricing_plan_id":"cebpf4jnsgd1na2vs0mg"},{"bike_id":"c05d70c7-b112-48d9-9143-4ff03e3673ef","system_id":"levelo_inurba_marseille","lat":43.2621,"lon":5.37438,"is_reserved":false,"is_disabled":false,"rental_uris":{"android":"levelo://app?vid=c05d70c7-b112-48d9-9143-4ff03e3673ef","ios":"levelo://app?vid=c05d70c7-b112-48d9-9143-4ff03e3673ef"},"vehicle_type_id":"4","last_reported":1777055757,"current_range_meters":6000,"station_id":"ce4bhgp2rcd13ifvqfc0","pricing_plan_id":"cebpf4jnsgd1na2vs0mg"},{"bike_id":"c025fe4d-f167-4f80-bde7-0dfb9be7b37b","system_id":"levelo_inurba_marseille","lat":43.28472,"lon":5.48392,"is_reserved":false,"is_disabled":false,"rental_uris":{"android":"levelo://app?vid=c025fe4d-f167-4f80-bde7-0dfb9be7b37b","ios":"levelo://app?vid=c025fe4d-f167-4f80-bde7-0dfb9be7b37b"},"vehicle_type_id":"4","last_reported":1777055757,"current_range_meters":6000,"station_id":"","pricing_plan_id":"cebpf4jnsgd1na2vs0mg"},{"bike_id":"001ed0b6-f80d-40bc-93ea-a2f882ed6577","system_id":"levelo_inurba_marseille","lat":43.31115,"lon":5.37764,"is_reserved":false,"is_disabled":true,"rental_uris":{"android":"levelo://app?vid=001ed0b6-f80d-40bc-93ea-a2f882ed6577","ios":"levelo://app?vid=001ed0b6-f80d-40bc-93ea-a2f882ed6577"},"vehicle_type_id":"4","last_reported":1777055757,"current_range_meters":6000,"station_id":"ce4bgt92rcd13ifvqcg0","pricing_plan_id":"cebpf4jnsgd1na2vs0mg"},{"bike_id":"500c3cdf-5e69-46f4-9694-d063e2b1b8f7","system_id":"levelo_inurba_marseille","lat":43.31329,"lon":5.39693,"is_reserved":false,"is_disabled":false,"rental_uris":{"android":"levelo://app?vid=500c3cdf-5e69-46f4-9694-d063e2b1b8f7","ios":"levelo://app?vid=500c3cdf-5e69-46f4-9694-d063e2b1b8f7"},"vehicle_type_id":"4","last_reported":1777055757,"current_range_meters":6000,"station_id":"ce4bgvp2rcd13ifvqcu0","pricing_plan_id":"cebpf4jnsgd1na2vs0mg"},{"bike_id":"f0081e3d-b45c-40d4-b9f9-f49400998cb9","system_id":"levelo_inurba_marseille","lat":43.32058,"lon":5.41534,"is_reserved":false,"is_disabled":false,"rental_uris":{"android":"levelo://app?vid=f0081e3d-b45c-40d4-b9f9-f49400998cb9","ios":"levelo://app?vid=f0081e3d-b45c-40d4-b9f9-f49400998cb9"},"vehicle_type_id":"4","last_reported":1777055757,"current_range_meters":6000,"station_id":"ce4bhq92rcd13ifvqhkg","pricing_plan_id":"cebpf4jnsgd1na2vs0mg"},{"bike_id":"250b15a8-ae72-4a04-beeb-15324439784f","system_id":"levelo_inurba_marseille","lat":43.31481,"lon":5.37297,"is_reserved":false,"is_disabled":false,"rental_uris":{"android":"levelo://app?vid=250b15a8-ae72-4a04-beeb-15324439784f","ios":"levelo://app?vid=250b15a8-ae72-4a04-beeb-15324439784f"},"vehicle_type_id":"4","last_reported":1777055757,"current_range_meters":6000,"station_id":"ce4bgt12rcd13ifvqcd0","pricing_plan_id":"cebpf4jnsgd1na2vs0mg"},{"bike_id":"6af4f39e-837e-4025-97a5-3fa7efa09353","system_id":"levelo_inurba_marseille","lat":43.24086,"lon":5.37758,"is_reserved":false,"is_disabled":false,"rental_uris":{"android":"levelo://app?vid=6af4f39e-837e-4025-97a5-3fa7efa09353","ios":"levelo://app?vid=6af4f39e-837e-4025-97a5-3fa7efa09353"},"vehicle_type_id":"4","last_reported":1777055757,"current_range_meters":6000,"station_id":"ce4bhnp2rcd13ifvqgvg","pricing_plan_id":"cebpf4jnsgd1na2vs0mg"},{"bike_id":"cea5ebf8-1529-4f85-9604-6823d4aac1c3","system_id":"levelo_inurba_marseille","lat":43.27967,"lon":5.38749,"is_reserved":false,"is_disabled":false,"rental_uris":{"android":"levelo://app?vid=cea5ebf8-1529-4f85-9604-6823d4aac1c3","ios":"levelo://app?vid=cea5ebf8-1529-4f85-9604-6823d4aac1c3"},"vehicle_type_id":"4","last_reported":1777055757,"current_range_meters":6000,"station_id":"ce4bhg12rcd13ifvqf80","pricing_plan_id":"cebpf4jnsgd1na2vs0mg"},{"bike_id":"b20f81ff-4965-4456-af00-d04b89a77e0e","system_id":"levelo_inurba_marseille","lat":43.30309,"lon":5.39207,"is_reserved":false,"is_disabled":false,"rental_uris":{"android":"levelo://app?vid=b20f81ff-4965-4456-af00-d04b89a77e0e","ios":"levelo://app?vid=b20f81ff-4965-4456-af00-d04b89a77e0e"},"vehicle_type_id":"4","last_reported":1777055757,"current_range_meters":6000,"station_id":"ce4bgkh2rcd13ifvqbk0","pricing_plan_id":"cebpf4jnsgd1na2vs0mg"},{"bike_id":"858320d8-1562-4a9d-ab98-022ccf76766e","system_id":"levelo_inurba_marseille","lat":43.31166,"lon":5.38726,"is_reserved":false,"is_disabled":false,"rental_uris":{"android":"levelo://app?vid=858320d8-1562-4a9d-ab98-022ccf76766e","ios":"levelo://app?vid=858320d8-1562-4a9d-ab98-022ccf76766e"},"vehicle_type_id":"4","last_reported":1777055757,"current_range_meters":6000,"station_id":"ce4bgv12rcd13ifvqcp0","pricing_plan_id":"cebpf4jnsgd1na2vs0mg"},{"bike_id":"1e90c9da-ed67-4c03-9e8f-2c1266e304fc","system_id":"levelo_inurba_marseille","lat":43.3095,"lon":5.39038,"is_reserved":false,"is_disabled":false,"rental_uris":{"android":"levelo://app?vid=1e90c9da-ed67-4c03-9e8f-2c1266e304fc","ios":"levelo://app?vid=1e90c9da-ed67-4c03-9e8f-2c1266e304fc"},"vehicle_type_id":"4","last_reported":1777055757,"current_range_meters":6000,"station_id":"ce4bgup2rcd13ifvqco0","pricing_plan_id":"cebpf4jnsgd1na2vs0mg"},{"bike_id":"2f5837b5-417d-4465-9514-c2e400d5dd41","system_id":"levelo_inurba_marseille","lat":43.25337,"lon":5.42179,"is_reserved":false,"is_disabled":false,"rental_uris":{"android":"levelo://app?vid=2f5837b5-417d-4465-9514-c2e400d5dd41","ios":"levelo://app?vid=2f5837b5-417d-4465-9514-c2e400d5dd41"},"vehicle_type_id":"4","last_reported":1777055757,"current_range_meters":6000,"station_id":"st_d2m65c5bi1j21697t3ng","pricing_plan_id":"cebpf4jnsgd1na2vs0mg"},{"bike_id":"6547afef-40c8-4494-aabc-a49f959e475e","system_id":"levelo_inurba_marseille","lat":43.31346,"lon":5.36715,"is_reserved":false,"is_disabled":false,"rental_uris":{"android":"levelo://app?vid=6547afef-40c8-4494-aabc-a49f959e475e","ios":"levelo://app?vid=6547afef-40c8-4494-aabc-a49f959e475e"},"vehicle_type_id":"4","last_reported":1777055757,"current_range_meters":6000,"station_id":"ce4bgr92rcd13ifvqc6g","pricing_plan_id":"cebpf4jnsgd1na2vs0mg"},{"bike_id":"efd183ea-3543-470c-a367-4664dc34ad30","system_id":"levelo_inurba_marseille","lat":43.25568,"lon":5.38232,"is_reserved":false,"is_disabled":false,"rental_uris":{"android":"levelo://app?vid=efd183ea-3543-470c-a367-4664dc34ad30","ios":"levelo://app?vid=efd183ea-3543-470c-a367-4664dc34ad30"},"vehicle_type_id":"4","last_reported":1777055757,"current_range_meters":6000,"station_id":"ce4bhih2rcd13ifvqfs0","pricing_plan_id":"cebpf4jnsgd1na2vs0mg"},{"bike_id":"e60e9371-ff3c-4469-9986-7b43cc5f0903","system_id":"levelo_inurba_marseille","lat":43.2649,"lon":5.39549,"is_reserved":false,"is_disabled":false,"rental_uris":{"android":"levelo://app?vid=e60e9371-ff3c-4469-9986-7b43cc5f0903","ios":"levelo://app?vid=e60e9371-ff3c-4469-9986-7b43cc5f0903"},"vehicle_type_id":"4","last_reported":1777055757,"current_range_meters":6400,"station_id":"ce4bhi12rcd13ifvqfq0","pricing_plan_id":"cebpf4jnsgd1na2vs0mg"},{"bike_id":"cc9b3be5-f544-457e-ab47-628e16eeac7a","system_id":"levelo_inurba_marseille","lat":43.290087,"lon":5.356146,"is_reserved":false,"is_disabled":false,"rental_uris":{"android":"levelo://app?vid=cc9b3be5-f544-457e-ab47-628e16eeac7a","ios":"levelo://app?vid=cc9b3be5-f544-457e-ab47-628e16eeac7a"},"vehicle_type_id":"4","last_reported":1777055757,"current_range_meters":6400,"station_id":"ce4bhb92rcd13ifvqen0","pricing_plan_id":"cebpf4jnsgd1na2vs0mg"},{"bike_id":"eb0bc669-27ac-4a41-b200-c9414b34635e","system_id":"levelo_inurba_marseille","lat":43.29277,"lon":5.40906,"is_reserved":false,"is_disabled":true,"rental_uris":{"android":"levelo://app?vid=eb0bc669-27ac-4a41-b200-c9414b34635e","ios":"levelo://app?vid=eb0bc669-27ac-4a41-b200-c9414b34635e"},"vehicle_type_id":"4","last_reported":1777055757,"current_range_meters":6400,"station_id":"ce4bh192rcd13ifvqdc0","pricing_plan_id":"cebpf4jnsgd1na2vs0mg"},{"bike_id":"aa897415-67a0-4b07-b64e-cbc8da7d4792","system_id":"levelo_inurba_marseille","lat":43.24179,"lon":5.36411,"is_reserved":false,"is_disabled":false,"rental_uris":{"android":"levelo://app?vid=aa897415-67a0-4b07-b64e-cbc8da7d4792","ios":"levelo://app?vid=aa897415-67a0-4b07-b64e-cbc8da7d4792"},"vehicle_type_id":"4","last_reported":1777055757,"current_range_meters":6400,"station_id":"cpo36qri1sfpv3e86is0","pricing_plan_id":"cebpf4jnsgd1na2vs0mg"},{"bike_id":"bf941743-da61-4fe3-9e32-46f004a7578b","system_id":"levelo_inurba_marseille","lat":43.28606,"lon":5.37104,"is_reserved":false,"is_disabled":false,"rental_uris":{"android":"levelo://app?vid=bf941743-da61-4fe3-9e32-46f004a7578b","ios":"levelo://app?vid=bf941743-da61-4fe3-9e32-46f004a7578b"},"vehicle_type_id":"4","last_reported":1777055757,"current_range_meters":6400,"station_id":"ce4bht12rcd13ifvqi60","pricing_plan_id":"cebpf4jnsgd1na2vs0mg"},{"bike_id":"eb54d19c-192d-4b9f-8d7f-dd3accd1602e","system_id":"levelo_inurba_marseille","lat":43.24795,"lon":5.3746,"is_reserved":false,"is_disabled":false,"rental_uris":{"android":"levelo://app?vid=eb54d19c-192d-4b9f-8d7f-dd3accd1602e","ios":"levelo://app?vid=eb54d19c-192d-4b9f-8d7f-dd3accd1602e"},"vehicle_type_id":"4","last_reported":1777055757,"current_range_meters":6400,"station_id":"ce4bhgh2rcd13ifvqfb0","pricing_plan_id":"cebpf4jnsgd1na2vs0mg"},{"bike_id":"50b3537d-0369-460e-8281-426df86e0856","system_id":"levelo_inurba_marseille","lat":43.30071,"lon":5.36431,"is_reserved":false,"is_disabled":false,"rental_uris":{"android":"levelo://app?vid=50b3537d-0369-460e-8281-426df86e0856","ios":"levelo://app?vid=50b3537d-0369-460e-8281-426df86e0856"},"vehicle_type_id":"4","last_reported":1777055757,"current_range_meters":6400,"station_id":"","pricing_plan_id":"cebpf4jnsgd1na2vs0mg"},{"bike_id":"30a4e4bd-aac1-4b0d-a7c7-d74096733ad5","system_id":"levelo_inurba_marseille","lat":43.29007,"lon":5.35619,"is_reserved":false,"is_disabled":false,"rental_uris":{"android":"levelo://app?vid=30a4e4bd-aac1-4b0d-a7c7-d74096733ad5","ios":"levelo://app?vid=30a4e4bd-aac1-4b0d-a7c7-d74096733ad5"},"vehicle_type_id":"4","last_reported":1777055757,"current_range_meters":6400,"station_id":"ce4bhb92rcd13ifvqen0","pricing_plan_id":"cebpf4jnsgd1na2vs0mg"},{"bike_id":"f6c1fa56-7d89-4c1a-bfa0-9e055b47346d","system_id":"levelo_inurba_marseille","lat":43.27816,"lon":5.40723,"is_reserved":false,"is_disabled":false,"rental_uris":{"android":"levelo://app?vid=f6c1fa56-7d89-4c1a-bfa0-9e055b47346d","ios":"levelo://app?vid=f6c1fa56-7d89-4c1a-bfa0-9e055b47346d"},"vehicle_type_id":"4","last_reported":1777055757,"current_range_meters":6400,"station_id":"ce4bhnh2rcd13ifvqgtg","pricing_plan_id":"cebpf4jnsgd1na2vs0mg"},{"bike_id":"9b93fcb2-a849-4cab-a6d4-6b1955a049a6","system_id":"levelo_inurba_marseille","lat":43.29525,"lon":5.38538,"is_reserved":false,"is_disabled":false,"rental_uris":{"android":"levelo://app?vid=9b93fcb2-a849-4cab-a6d4-6b1955a049a6","ios":"levelo://app?vid=9b93fcb2-a849-4cab-a6d4-6b1955a049a6"},"vehicle_type_id":"4","last_reported":1777055757,"current_range_meters":6400,"station_id":"ce4bgih2rcd13ifvqba0","pricing_plan_id":"cebpf4jnsgd1na2vs0mg"},{"bike_id":"b723bff1-1eac-46ab-8fbc-73caf5bddf1a","system_id":"levelo_inurba_marseille","lat":43.29933,"lon":5.37471,"is_reserved":false,"is_disabled":false,"rental_uris":{"android":"levelo://app?vid=b723bff1-1eac-46ab-8fbc-73caf5bddf1a","ios":"levelo://app?vid=b723bff1-1eac-46ab-8fbc-73caf5bddf1a"},"vehicle_type_id":"4","last_reported":1777055757,"current_range_meters":6400,"station_id":"ce4bgjh2rcd13ifvqbg0","pricing_plan_id":"cebpf4jnsgd1na2vs0mg"},{"bike_id":"6a979988-2dd0-41f2-9c5f-0c6cc10fba5f","system_id":"levelo_inurba_marseille","lat":43.24179,"lon":5.36378,"is_reserved":false,"is_disabled":false,"rental_uris":{"android":"levelo://app?vid=6a979988-2dd0-41f2-9c5f-0c6cc10fba5f","ios":"levelo://app?vid=6a979988-2dd0-41f2-9c5f-0c6cc10fba5f"},"vehicle_type_id":"4","last_reported":1777055757,"current_range_meters":6400,"station_id":"cpo36qri1sfpv3e86is0","pricing_plan_id":"cebpf4jnsgd1na2vs0mg"},{"bike_id":"3718d017-507d-448e-bcdc-da80c1989ac4","system_id":"levelo_inurba_marseille","lat":43.284,"lon":5.43496,"is_reserved":false,"is_disabled":false,"rental_uris":{"android":"levelo://app?vid=3718d017-507d-448e-bcdc-da80c1989ac4","ios":"levelo://app?vid=3718d017-507d-448e-bcdc-da80c1989ac4"},"vehicle_type_id":"4","last_reported":1777055757,"current_range_meters":6400,"station_id":"","pricing_plan_id":"cebpf4jnsgd1na2vs0mg"},{"bike_id":"95a9a5b5-a006-4a3d-b08b-6ad4f00a6401","system_id":"levelo_inurba_marseille","lat":43.32084,"lon":5.41521,"is_reserved":false,"is_disabled":false,"rental_uris":{"android":"levelo://app?vid=95a9a5b5-a006-4a3d-b08b-6ad4f00a6401","ios":"levelo://app?vid=95a9a5b5-a006-4a3d-b08b-6ad4f00a6401"},"vehicle_type_id":"4","last_reported":1777055757,"current_range_meters":6400,"station_id":"","pricing_plan_id":"cebpf4jnsgd1na2vs0mg"},{"bike_id":"bab7cad4-d1a4-434a-ada5-56f652707f0f","system_id":"levelo_inurba_marseille","lat":43.29313,"lon":5.37165,"is_reserved":false,"is_disabled":false,"rental_uris":{"android":"levelo://app?vid=bab7cad4-d1a4-434a-ada5-56f652707f0f","ios":"levelo://app?vid=bab7cad4-d1a4-434a-ada5-56f652707f0f"},"vehicle_type_id":"4","last_reported":1777055757,"current_range_meters":6400,"station_id":"ce4bgh92rcd13ifvqb40","pricing_plan_id":"cebpf4jnsgd1na2vs0mg"},{"bike_id":"9aa85686-92ad-4b58-8d89-55fc507da644","system_id":"levelo_inurba_marseille","lat":43.28267,"lon":5.35065,"is_reserved":false,"is_disabled":false,"rental_uris":{"android":"levelo://app?vid=9aa85686-92ad-4b58-8d89-55fc507da644","ios":"levelo://app?vid=9aa85686-92ad-4b58-8d89-55fc507da644"},"vehicle_type_id":"4","last_reported":1777055757,"current_range_meters":6400,"station_id":"ce4bhbp2rcd13ifvqerg","pricing_plan_id":"cebpf4jnsgd1na2vs0mg"},{"bike_id":"b4ec1f77-4b2c-466f-b10a-55946aa5ddbf","system_id":"levelo_inurba_marseille","lat":43.31215,"lon":5.3685,"is_reserved":false,"is_disabled":false,"rental_uris":{"android":"levelo://app?vid=b4ec1f77-4b2c-466f-b10a-55946aa5ddbf","ios":"levelo://app?vid=b4ec1f77-4b2c-466f-b10a-55946aa5ddbf"},"vehicle_type_id":"4","last_reported":1777055757,"current_range_meters":6400,"station_id":"ce4bgl92rcd13ifvqbq0","pricing_plan_id":"cebpf4jnsgd1na2vs0mg"},{"bike_id":"31807bc1-1629-4461-b62e-dc21ba26ef45","system_id":"levelo_inurba_marseille","lat":43.21743,"lon":5.34602,"is_reserved":false,"is_disabled":false,"rental_uris":{"android":"levelo://app?vid=31807bc1-1629-4461-b62e-dc21ba26ef45","ios":"levelo://app?vid=31807bc1-1629-4461-b62e-dc21ba26ef45"},"vehicle_type_id":"4","last_reported":1777055757,"current_range_meters":6800,"station_id":"st_cvj6r9ubvosntc0bgbag","pricing_plan_id":"cebpf4jnsgd1na2vs0mg"},{"bike_id":"5e11e684-fa64-4c77-b0be-d956e8d30748","system_id":"levelo_inurba_marseille","lat":43.30524,"lon":5.36726,"is_reserved":false,"is_disabled":false,"rental_uris":{"android":"levelo://app?vid=5e11e684-fa64-4c77-b0be-d956e8d30748","ios":"levelo://app?vid=5e11e684-fa64-4c77-b0be-d956e8d30748"},"vehicle_type_id":"4","last_reported":1777055757,"current_range_meters":6800,"station_id":"ce4bgrp2rcd13ifvqc9g","pricing_plan_id":"cebpf4jnsgd1na2vs0mg"},{"bike_id":"fbad382b-d0e0-4b4d-b7e9-7eaeef0c00e6","system_id":"levelo_inurba_marseille","lat":43.25653,"lon":5.38996,"is_reserved":false,"is_disabled":false,"rental_uris":{"android":"levelo://app?vid=fbad382b-d0e0-4b4d-b7e9-7eaeef0c00e6","ios":"levelo://app?vid=fbad382b-d0e0-4b4d-b7e9-7eaeef0c00e6"},"vehicle_type_id":"4","last_reported":1777055757,"current_range_meters":6800,"station_id":"","pricing_plan_id":"cebpf4jnsgd1na2vs0mg"},{"bike_id":"6e9f591a-dfe8-44ce-b50b-8b0c31b2b04f","system_id":"levelo_inurba_marseille","lat":43.27689,"lon":5.3888,"is_reserved":false,"is_disabled":false,"rental_uris":{"android":"levelo://app?vid=6e9f591a-dfe8-44ce-b50b-8b0c31b2b04f","ios":"levelo://app?vid=6e9f591a-dfe8-44ce-b50b-8b0c31b2b04f"},"vehicle_type_id":"4","last_reported":1777055757,"current_range_meters":6800,"station_id":"ce4bhi12rcd13ifvqfo0","pricing_plan_id":"cebpf4jnsgd1na2vs0mg"},{"bike_id":"03d50329-e768-413f-8f2a-24897a3a945b","system_id":"levelo_inurba_marseille","lat":43.24804,"lon":5.37447,"is_reserved":false,"is_disabled":false,"rental_uris":{"android":"levelo://app?vid=03d50329-e768-413f-8f2a-24897a3a945b","ios":"levelo://app?vid=03d50329-e768-413f-8f2a-24897a3a945b"},"vehicle_type_id":"4","last_reported":1777055757,"current_range_meters":6800,"station_id":"ce4bhgh2rcd13ifvqfb0","pricing_plan_id":"cebpf4jnsgd1na2vs0mg"},{"bike_id":"b60dda8d-c3f3-4366-a484-80290e9a55fe","system_id":"levelo_inurba_marseille","lat":43.30549,"lon":5.36557,"is_reserved":false,"is_disabled":false,"rental_uris":{"android":"levelo://app?vid=b60dda8d-c3f3-4366-a484-80290e9a55fe","ios":"levelo://app?vid=b60dda8d-c3f3-4366-a484-80290e9a55fe"},"vehicle_type_id":"4","last_reported":1777055757,"current_range_meters":6800,"station_id":"ce4bgs12rcd13ifvqcag","pricing_plan_id":"cebpf4jnsgd1na2vs0mg"},{"bike_id":"b38d89b8-c3c9-4fae-b6f2-09980d89f2e9","system_id":"levelo_inurba_marseille","lat":43.28464,"lon":5.48408,"is_reserved":false,"is_disabled":false,"rental_uris":{"android":"levelo://app?vid=b38d89b8-c3c9-4fae-b6f2-09980d89f2e9","ios":"levelo://app?vid=b38d89b8-c3c9-4fae-b6f2-09980d89f2e9"},"vehicle_type_id":"4","last_reported":1777055757,"current_range_meters":6800,"station_id":"st_d3svhcjqgbts73a3dn0g","pricing_plan_id":"cebpf4jnsgd1na2vs0mg"},{"bike_id":"e8d6ce3d-1aa9-47ef-9b48-93862ee5f7fd","system_id":"levelo_inurba_marseille","lat":43.21281,"lon":5.35426,"is_reserved":false,"is_disabled":false,"rental_uris":{"android":"levelo://app?vid=e8d6ce3d-1aa9-47ef-9b48-93862ee5f7fd","ios":"levelo://app?vid=e8d6ce3d-1aa9-47ef-9b48-93862ee5f7fd"},"vehicle_type_id":"4","last_reported":1777055757,"current_range_meters":6800,"station_id":"","pricing_plan_id":"cebpf4jnsgd1na2vs0mg"},{"bike_id":"270b440b-af51-4777-a5c9-e386dc9dac81","system_id":"levelo_inurba_marseille","lat":43.28573,"lon":5.39494,"is_reserved":false,"is_disabled":false,"rental_uris":{"android":"levelo://app?vid=270b440b-af51-4777-a5c9-e386dc9dac81","ios":"levelo://app?vid=270b440b-af51-4777-a5c9-e386dc9dac81"},"vehicle_type_id":"4","last_reported":1777055757,"current_range_meters":6800,"station_id":"ce4bh292rcd13ifvqdg0","pricing_plan_id":"cebpf4jnsgd1na2vs0mg"},{"bike_id":"5607da76-763a-4c03-abaa-325e4b0bd44e","system_id":"levelo_inurba_marseille","lat":43.30774,"lon":5.37645,"is_reserved":false,"is_disabled":false,"rental_uris":{"android":"levelo://app?vid=5607da76-763a-4c03-abaa-325e4b0bd44e","ios":"levelo://app?vid=5607da76-763a-4c03-abaa-325e4b0bd44e"},"vehicle_type_id":"4","last_reported":1777055757,"current_range_meters":6800,"station_id":"ce4bgv92rcd13ifvqcq0","pricing_plan_id":"cebpf4jnsgd1na2vs0mg"},{"bike_id":"dfa9d5f5-b0ee-498b-bd3b-b6128830b4b6","system_id":"levelo_inurba_marseille","lat":43.29537,"lon":5.39019,"is_reserved":false,"is_disabled":false,"rental_uris":{"android":"levelo://app?vid=dfa9d5f5-b0ee-498b-bd3b-b6128830b4b6","ios":"levelo://app?vid=dfa9d5f5-b0ee-498b-bd3b-b6128830b4b6"},"vehicle_type_id":"4","last_reported":1777055757,"current_range_meters":6800,"station_id":"ce4bh3p2rcd13ifvqdp0","pricing_plan_id":"cebpf4jnsgd1na2vs0mg"},{"bike_id":"704a48c0-ec6c-4124-b4bd-3e539f785890","system_id":"levelo_inurba_marseille","lat":43.29189,"lon":5.35794,"is_reserved":false,"is_disabled":false,"rental_uris":{"android":"levelo://app?vid=704a48c0-ec6c-4124-b4bd-3e539f785890","ios":"levelo://app?vid=704a48c0-ec6c-4124-b4bd-3e539f785890"},"vehicle_type_id":"4","last_reported":1777055757,"current_range_meters":6800,"station_id":"ce4bhb12rcd13ifvqel0","pricing_plan_id":"cebpf4jnsgd1na2vs0mg"},{"bike_id":"dd2047c2-bb91-49cf-b349-a50990a16979","system_id":"levelo_inurba_marseille","lat":43.29016,"lon":5.38154,"is_reserved":false,"is_disabled":true,"rental_uris":{"android":"levelo://app?vid=dd2047c2-bb91-49cf-b349-a50990a16979","ios":"levelo://app?vid=dd2047c2-bb91-49cf-b349-a50990a16979"},"vehicle_type_id":"4","last_reported":1777055757,"current_range_meters":6800,"station_id":"ce4bh4p2rcd13ifvqe1g","pricing_plan_id":"cebpf4jnsgd1na2vs0mg"},{"bike_id":"d4578027-cf0c-4653-85fc-03385bd8ac3c","system_id":"levelo_inurba_marseille","lat":43.29035,"lon":5.35901,"is_reserved":false,"is_disabled":false,"rental_uris":{"android":"levelo://app?vid=d4578027-cf0c-4653-85fc-03385bd8ac3c","ios":"levelo://app?vid=d4578027-cf0c-4653-85fc-03385bd8ac3c"},"vehicle_type_id":"4","last_reported":1777055757,"current_range_meters":6800,"station_id":"ce4bha92rcd13ifvqeg0","pricing_plan_id":"cebpf4jnsgd1na2vs0mg"},{"bike_id":"511a07b4-6464-4c78-9aa6-e1013bbe91a1","system_id":"levelo_inurba_marseille","lat":43.3213,"lon":5.36769,"is_reserved":false,"is_disabled":false,"rental_uris":{"android":"levelo://app?vid=511a07b4-6464-4c78-9aa6-e1013bbe91a1","ios":"levelo://app?vid=511a07b4-6464-4c78-9aa6-e1013bbe91a1"},"vehicle_type_id":"4","last_reported":1777055757,"current_range_meters":6800,"station_id":"ce4bhrh2rcd13ifvqhug","pricing_plan_id":"cebpf4jnsgd1na2vs0mg"},{"bike_id":"90fac789-06e9-4c33-94b9-e82543e03c21","system_id":"levelo_inurba_marseille","lat":43.27382,"lon":5.36263,"is_reserved":false,"is_disabled":true,"rental_uris":{"android":"levelo://app?vid=90fac789-06e9-4c33-94b9-e82543e03c21","ios":"levelo://app?vid=90fac789-06e9-4c33-94b9-e82543e03c21"},"vehicle_type_id":"4","last_reported":1777055757,"current_range_meters":6800,"station_id":"ce4bhbh2rcd13ifvqeo0","pricing_plan_id":"cebpf4jnsgd1na2vs0mg"},{"bike_id":"1f582608-2655-4ba4-b095-16566a7cd559","system_id":"levelo_inurba_marseille","lat":43.31779,"lon":5.4455,"is_reserved":false,"is_disabled":false,"rental_uris":{"android":"levelo://app?vid=1f582608-2655-4ba4-b095-16566a7cd559","ios":"levelo://app?vid=1f582608-2655-4ba4-b095-16566a7cd559"},"vehicle_type_id":"4","last_reported":1777055757,"current_range_meters":6800,"station_id":"","pricing_plan_id":"cebpf4jnsgd1na2vs0mg"},{"bike_id":"f8b71621-9ee0-4284-b9b2-be8fa047ba8a","system_id":"levelo_inurba_marseille","lat":43.30111,"lon":5.43104,"is_reserved":false,"is_disabled":false,"rental_uris":{"android":"levelo://app?vid=f8b71621-9ee0-4284-b9b2-be8fa047ba8a","ios":"levelo://app?vid=f8b71621-9ee0-4284-b9b2-be8fa047ba8a"},"vehicle_type_id":"4","last_reported":1777055757,"current_range_meters":6800,"station_id":"st_d3js3co5814s73ftftug","pricing_plan_id":"cebpf4jnsgd1na2vs0mg"},{"bike_id":"b8db4049-8ac9-4111-b434-38e31963ff46","system_id":"levelo_inurba_marseille","lat":43.23896,"lon":5.374617,"is_reserved":false,"is_disabled":false,"rental_uris":{"android":"levelo://app?vid=b8db4049-8ac9-4111-b434-38e31963ff46","ios":"levelo://app?vid=b8db4049-8ac9-4111-b434-38e31963ff46"},"vehicle_type_id":"4","last_reported":1777055757,"current_range_meters":6800,"station_id":"st_d6sm7csbq4hs73f8fpjg","pricing_plan_id":"cebpf4jnsgd1na2vs0mg"},{"bike_id":"b2690d37-293b-40be-acb1-b0ae7d3bbfe3","system_id":"levelo_inurba_marseille","lat":43.28404,"lon":5.34988,"is_reserved":false,"is_disabled":false,"rental_uris":{"android":"levelo://app?vid=b2690d37-293b-40be-acb1-b0ae7d3bbfe3","ios":"levelo://app?vid=b2690d37-293b-40be-acb1-b0ae7d3bbfe3"},"vehicle_type_id":"4","last_reported":1777055757,"current_range_meters":6800,"station_id":"ce4bhbh2rcd13ifvqepg","pricing_plan_id":"cebpf4jnsgd1na2vs0mg"},{"bike_id":"ae2736b2-7770-4b7b-82a1-0fab885495d7","system_id":"levelo_inurba_marseille","lat":43.24811,"lon":5.37461,"is_reserved":false,"is_disabled":false,"rental_uris":{"android":"levelo://app?vid=ae2736b2-7770-4b7b-82a1-0fab885495d7","ios":"levelo://app?vid=ae2736b2-7770-4b7b-82a1-0fab885495d7"},"vehicle_type_id":"4","last_reported":1777055757,"current_range_meters":6800,"station_id":"ce4bhgh2rcd13ifvqfb0","pricing_plan_id":"cebpf4jnsgd1na2vs0mg"},{"bike_id":"1db16bb3-900c-4e43-b2bf-259a6de5185e","system_id":"levelo_inurba_marseille","lat":43.30144,"lon":5.37422,"is_reserved":false,"is_disabled":false,"rental_uris":{"android":"levelo://app?vid=1db16bb3-900c-4e43-b2bf-259a6de5185e","ios":"levelo://app?vid=1db16bb3-900c-4e43-b2bf-259a6de5185e"},"vehicle_type_id":"4","last_reported":1777055757,"current_range_meters":6800,"station_id":"ce4bgs92rcd13ifvqcc0","pricing_plan_id":"cebpf4jnsgd1na2vs0mg"},{"bike_id":"81ed35b0-6aa4-4121-af08-caa41baecea9","system_id":"levelo_inurba_marseille","lat":43.28928,"lon":5.3841,"is_reserved":false,"is_disabled":false,"rental_uris":{"android":"levelo://app?vid=81ed35b0-6aa4-4121-af08-caa41baecea9","ios":"levelo://app?vid=81ed35b0-6aa4-4121-af08-caa41baecea9"},"vehicle_type_id":"4","last_reported":1777055757,"current_range_meters":6800,"station_id":"ce4bh612rcd13ifvqe6g","pricing_plan_id":"cebpf4jnsgd1na2vs0mg"},{"bike_id":"c67bc8ba-c731-46f1-8afa-144d4cf96c16","system_id":"levelo_inurba_marseille","lat":43.30945,"lon":5.39036,"is_reserved":false,"is_disabled":false,"rental_uris":{"android":"levelo://app?vid=c67bc8ba-c731-46f1-8afa-144d4cf96c16","ios":"levelo://app?vid=c67bc8ba-c731-46f1-8afa-144d4cf96c16"},"vehicle_type_id":"4","last_reported":1777055757,"current_range_meters":6800,"station_id":"ce4bgup2rcd13ifvqco0","pricing_plan_id":"cebpf4jnsgd1na2vs0mg"},{"bike_id":"0e9e079a-462b-4488-93af-797bc9564e7a","system_id":"levelo_inurba_marseille","lat":43.29527,"lon":5.38542,"is_reserved":false,"is_disabled":false,"rental_uris":{"android":"levelo://app?vid=0e9e079a-462b-4488-93af-797bc9564e7a","ios":"levelo://app?vid=0e9e079a-462b-4488-93af-797bc9564e7a"},"vehicle_type_id":"4","last_reported":1777055757,"current_range_meters":7200,"station_id":"ce4bgih2rcd13ifvqba0","pricing_plan_id":"cebpf4jnsgd1na2vs0mg"},{"bike_id":"c4a6cf3f-a5b9-43d7-91d0-4da564433a66","system_id":"levelo_inurba_marseille","lat":43.30138,"lon":5.37409,"is_reserved":false,"is_disabled":false,"rental_uris":{"android":"levelo://app?vid=c4a6cf3f-a5b9-43d7-91d0-4da564433a66","ios":"levelo://app?vid=c4a6cf3f-a5b9-43d7-91d0-4da564433a66"},"vehicle_type_id":"4","last_reported":1777055757,"current_range_meters":7200,"station_id":"ce4bgs92rcd13ifvqcc0","pricing_plan_id":"cebpf4jnsgd1na2vs0mg"},{"bike_id":"3762a15a-49a2-4fc6-b2e6-a79b5f91a12f","system_id":"levelo_inurba_marseille","lat":43.28479,"lon":5.48395,"is_reserved":false,"is_disabled":false,"rental_uris":{"android":"levelo://app?vid=3762a15a-49a2-4fc6-b2e6-a79b5f91a12f","ios":"levelo://app?vid=3762a15a-49a2-4fc6-b2e6-a79b5f91a12f"},"vehicle_type_id":"4","last_reported":1777055757,"current_range_meters":7200,"station_id":"st_d3svhcjqgbts73a3dn0g","pricing_plan_id":"cebpf4jnsgd1na2vs0mg"},{"bike_id":"ca5a4c50-07fb-4bf6-afa2-b0bf8e359ed9","system_id":"levelo_inurba_marseille","lat":43.26215,"lon":5.37433,"is_reserved":false,"is_disabled":false,"rental_uris":{"android":"levelo://app?vid=ca5a4c50-07fb-4bf6-afa2-b0bf8e359ed9","ios":"levelo://app?vid=ca5a4c50-07fb-4bf6-afa2-b0bf8e359ed9"},"vehicle_type_id":"4","last_reported":1777055757,"current_range_meters":7200,"station_id":"ce4bhgp2rcd13ifvqfc0","pricing_plan_id":"cebpf4jnsgd1na2vs0mg"},{"bike_id":"8a4d316b-7dfb-42df-8aea-4c7d58210d7a","system_id":"levelo_inurba_marseille","lat":43.31279,"lon":5.4306,"is_reserved":false,"is_disabled":false,"rental_uris":{"android":"levelo://app?vid=8a4d316b-7dfb-42df-8aea-4c7d58210d7a","ios":"levelo://app?vid=8a4d316b-7dfb-42df-8aea-4c7d58210d7a"},"vehicle_type_id":"4","last_reported":1777055757,"current_range_meters":7200,"station_id":"","pricing_plan_id":"cebpf4jnsgd1na2vs0mg"},{"bike_id":"f0a1e37a-8694-452a-931d-6013132b6a0d","system_id":"levelo_inurba_marseille","lat":43.29876,"lon":5.38913,"is_reserved":false,"is_disabled":false,"rental_uris":{"android":"levelo://app?vid=f0a1e37a-8694-452a-931d-6013132b6a0d","ios":"levelo://app?vid=f0a1e37a-8694-452a-931d-6013132b6a0d"},"vehicle_type_id":"4","last_reported":1777055757,"current_range_meters":7200,"station_id":"ce4bh392rcd13ifvqdl0","pricing_plan_id":"cebpf4jnsgd1na2vs0mg"},{"bike_id":"cd21f6c1-a1f8-4978-8025-1d254a6bf514","system_id":"levelo_inurba_marseille","lat":43.28478,"lon":5.48394,"is_reserved":false,"is_disabled":false,"rental_uris":{"android":"levelo://app?vid=cd21f6c1-a1f8-4978-8025-1d254a6bf514","ios":"levelo://app?vid=cd21f6c1-a1f8-4978-8025-1d254a6bf514"},"vehicle_type_id":"4","last_reported":1777055757,"current_range_meters":7200,"station_id":"st_d3svhcjqgbts73a3dn0g","pricing_plan_id":"cebpf4jnsgd1na2vs0mg"},{"bike_id":"b51ac87f-04a3-4bf1-9075-041179aa6f28","system_id":"levelo_inurba_marseille","lat":43.22567,"lon":5.41636,"is_reserved":false,"is_disabled":false,"rental_uris":{"android":"levelo://app?vid=b51ac87f-04a3-4bf1-9075-041179aa6f28","ios":"levelo://app?vid=b51ac87f-04a3-4bf1-9075-041179aa6f28"},"vehicle_type_id":"4","last_reported":1777055757,"current_range_meters":7200,"station_id":"st_d2o4gvlbi1j2169b742g","pricing_plan_id":"cebpf4jnsgd1na2vs0mg"},{"bike_id":"ec19aaad-2410-439f-9123-e83fa1c535f8","system_id":"levelo_inurba_marseille","lat":43.28281,"lon":5.37903,"is_reserved":false,"is_disabled":false,"rental_uris":{"android":"levelo://app?vid=ec19aaad-2410-439f-9123-e83fa1c535f8","ios":"levelo://app?vid=ec19aaad-2410-439f-9123-e83fa1c535f8"},"vehicle_type_id":"4","last_reported":1777055757,"current_range_meters":7200,"station_id":"","pricing_plan_id":"cebpf4jnsgd1na2vs0mg"},{"bike_id":"6442a10f-5380-41c8-ba93-bd58107568fc","system_id":"levelo_inurba_marseille","lat":43.31226,"lon":5.36861,"is_reserved":false,"is_disabled":false,"rental_uris":{"android":"levelo://app?vid=6442a10f-5380-41c8-ba93-bd58107568fc","ios":"levelo://app?vid=6442a10f-5380-41c8-ba93-bd58107568fc"},"vehicle_type_id":"4","last_reported":1777055757,"current_range_meters":7200,"station_id":"ce4bgl92rcd13ifvqbq0","pricing_plan_id":"cebpf4jnsgd1na2vs0mg"},{"bike_id":"5d8db3c9-b88c-4ca9-88c4-303f3fd1f1ad","system_id":"levelo_inurba_marseille","lat":43.28931,"lon":5.36406,"is_reserved":false,"is_disabled":false,"rental_uris":{"android":"levelo://app?vid=5d8db3c9-b88c-4ca9-88c4-303f3fd1f1ad","ios":"levelo://app?vid=5d8db3c9-b88c-4ca9-88c4-303f3fd1f1ad"},"vehicle_type_id":"4","last_reported":1777055757,"current_range_meters":7200,"station_id":"ce4bhc92rcd13ifvqetg","pricing_plan_id":"cebpf4jnsgd1na2vs0mg"},{"bike_id":"7593f94d-8c25-43ba-ae65-d7473bf002fd","system_id":"levelo_inurba_marseille","lat":43.28924,"lon":5.36643,"is_reserved":false,"is_disabled":false,"rental_uris":{"android":"levelo://app?vid=7593f94d-8c25-43ba-ae65-d7473bf002fd","ios":"levelo://app?vid=7593f94d-8c25-43ba-ae65-d7473bf002fd"},"vehicle_type_id":"4","last_reported":1777055757,"current_range_meters":7200,"station_id":"ce4bhap2rcd13ifvqek0","pricing_plan_id":"cebpf4jnsgd1na2vs0mg"},{"bike_id":"64991ad6-eddb-424c-90d7-7c19df4876dc","system_id":"levelo_inurba_marseille","lat":43.2954,"lon":5.38542,"is_reserved":false,"is_disabled":false,"rental_uris":{"android":"levelo://app?vid=64991ad6-eddb-424c-90d7-7c19df4876dc","ios":"levelo://app?vid=64991ad6-eddb-424c-90d7-7c19df4876dc"},"vehicle_type_id":"4","last_reported":1777055757,"current_range_meters":7200,"station_id":"ce4bgih2rcd13ifvqba0","pricing_plan_id":"cebpf4jnsgd1na2vs0mg"},{"bike_id":"1f3906dd-948e-4d18-9bb2-b2fc350fa481","system_id":"levelo_inurba_marseille","lat":43.27425,"lon":5.39407,"is_reserved":false,"is_disabled":true,"rental_uris":{"android":"levelo://app?vid=1f3906dd-948e-4d18-9bb2-b2fc350fa481","ios":"levelo://app?vid=1f3906dd-948e-4d18-9bb2-b2fc350fa481"},"vehicle_type_id":"4","last_reported":1777055757,"current_range_meters":7200,"station_id":"ce4bhdp2rcd13ifvqf20","pricing_plan_id":"cebpf4jnsgd1na2vs0mg"},{"bike_id":"7ab9e9d2-55c6-492f-8e60-126c7a6965ab","system_id":"levelo_inurba_marseille","lat":43.27962,"lon":5.37029,"is_reserved":false,"is_disabled":false,"rental_uris":{"android":"levelo://app?vid=7ab9e9d2-55c6-492f-8e60-126c7a6965ab","ios":"levelo://app?vid=7ab9e9d2-55c6-492f-8e60-126c7a6965ab"},"vehicle_type_id":"4","last_reported":1777055757,"current_range_meters":7200,"station_id":"","pricing_plan_id":"cebpf4jnsgd1na2vs0mg"},{"bike_id":"3d318b38-22b2-4ddf-8feb-49a52a3a5630","system_id":"levelo_inurba_marseille","lat":43.28272,"lon":5.3506,"is_reserved":false,"is_disabled":false,"rental_uris":{"android":"levelo://app?vid=3d318b38-22b2-4ddf-8feb-49a52a3a5630","ios":"levelo://app?vid=3d318b38-22b2-4ddf-8feb-49a52a3a5630"},"vehicle_type_id":"4","last_reported":1777055757,"current_range_meters":7200,"station_id":"ce4bhbp2rcd13ifvqerg","pricing_plan_id":"cebpf4jnsgd1na2vs0mg"},{"bike_id":"fe0bff08-b882-4d14-95fb-834906cc7c4c","system_id":"levelo_inurba_marseille","lat":43.33032,"lon":5.39037,"is_reserved":false,"is_disabled":false,"rental_uris":{"android":"levelo://app?vid=fe0bff08-b882-4d14-95fb-834906cc7c4c","ios":"levelo://app?vid=fe0bff08-b882-4d14-95fb-834906cc7c4c"},"vehicle_type_id":"4","last_reported":1777055757,"current_range_meters":7200,"station_id":"ce4bhr92rcd13ifvqhrg","pricing_plan_id":"cebpf4jnsgd1na2vs0mg"},{"bike_id":"494dd797-907e-40ec-ad40-30ecb997fc45","system_id":"levelo_inurba_marseille","lat":43.31355,"lon":5.38491,"is_reserved":false,"is_disabled":false,"rental_uris":{"android":"levelo://app?vid=494dd797-907e-40ec-ad40-30ecb997fc45","ios":"levelo://app?vid=494dd797-907e-40ec-ad40-30ecb997fc45"},"vehicle_type_id":"4","last_reported":1777055757,"current_range_meters":7200,"station_id":"ce4bgt92rcd13ifvqcf0","pricing_plan_id":"cebpf4jnsgd1na2vs0mg"},{"bike_id":"27c42ac1-b3ae-44d2-a7ac-ec95314cb289","system_id":"levelo_inurba_marseille","lat":43.28372,"lon":5.35001,"is_reserved":false,"is_disabled":false,"rental_uris":{"android":"levelo://app?vid=27c42ac1-b3ae-44d2-a7ac-ec95314cb289","ios":"levelo://app?vid=27c42ac1-b3ae-44d2-a7ac-ec95314cb289"},"vehicle_type_id":"4","last_reported":1777055757,"current_range_meters":8000,"station_id":"","pricing_plan_id":"cebpf4jnsgd1na2vs0mg"},{"bike_id":"feb32492-c682-40ce-a486-b3128ef279f4","system_id":"levelo_inurba_marseille","lat":43.299675,"lon":5.384783,"is_reserved":false,"is_disabled":true,"rental_uris":{"android":"levelo://app?vid=feb32492-c682-40ce-a486-b3128ef279f4","ios":"levelo://app?vid=feb32492-c682-40ce-a486-b3128ef279f4"},"vehicle_type_id":"4","last_reported":1777055757,"current_range_meters":8000,"station_id":"ce4bho92rcd13ifvqh3g","pricing_plan_id":"cebpf4jnsgd1na2vs0mg"},{"bike_id":"27cd71a7-0940-4415-a67f-21597fbf1cd9","system_id":"levelo_inurba_marseille","lat":43.33006,"lon":5.39043,"is_reserved":false,"is_disabled":false,"rental_uris":{"android":"levelo://app?vid=27cd71a7-0940-4415-a67f-21597fbf1cd9","ios":"levelo://app?vid=27cd71a7-0940-4415-a67f-21597fbf1cd9"},"vehicle_type_id":"4","last_reported":1777055757,"current_range_meters":8000,"station_id":"ce4bhr92rcd13ifvqhrg","pricing_plan_id":"cebpf4jnsgd1na2vs0mg"},{"bike_id":"3d157094-1633-4b6b-b41f-2648a50f3eee","system_id":"levelo_inurba_marseille","lat":43.31485,"lon":5.37309,"is_reserved":false,"is_disabled":false,"rental_uris":{"android":"levelo://app?vid=3d157094-1633-4b6b-b41f-2648a50f3eee","ios":"levelo://app?vid=3d157094-1633-4b6b-b41f-2648a50f3eee"},"vehicle_type_id":"4","last_reported":1777055757,"current_range_meters":8000,"station_id":"ce4bgt12rcd13ifvqcd0","pricing_plan_id":"cebpf4jnsgd1na2vs0mg"},{"bike_id":"da01db46-4020-43ed-9929-e47222eacbd4","system_id":"levelo_inurba_marseille","lat":43.28871,"lon":5.39308,"is_reserved":false,"is_disabled":false,"rental_uris":{"android":"levelo://app?vid=da01db46-4020-43ed-9929-e47222eacbd4","ios":"levelo://app?vid=da01db46-4020-43ed-9929-e47222eacbd4"},"vehicle_type_id":"4","last_reported":1777055757,"current_range_meters":8000,"station_id":"ce4bh2p2rcd13ifvqdi0","pricing_plan_id":"cebpf4jnsgd1na2vs0mg"},{"bike_id":"4e928814-5022-4042-9008-7f0b77bb4b57","system_id":"levelo_inurba_marseille","lat":43.25847,"lon":5.39441,"is_reserved":false,"is_disabled":false,"rental_uris":{"android":"levelo://app?vid=4e928814-5022-4042-9008-7f0b77bb4b57","ios":"levelo://app?vid=4e928814-5022-4042-9008-7f0b77bb4b57"},"vehicle_type_id":"4","last_reported":1777055757,"current_range_meters":8000,"station_id":"ce4bhip2rcd13ifvqft0","pricing_plan_id":"cebpf4jnsgd1na2vs0mg"},{"bike_id":"91889499-4844-46b1-ac07-db3a8bcdf22f","system_id":"levelo_inurba_marseille","lat":43.28618,"lon":5.35101,"is_reserved":false,"is_disabled":false,"rental_uris":{"android":"levelo://app?vid=91889499-4844-46b1-ac07-db3a8bcdf22f","ios":"levelo://app?vid=91889499-4844-46b1-ac07-db3a8bcdf22f"},"vehicle_type_id":"4","last_reported":1777055757,"current_range_meters":8000,"station_id":"ce4bhch2rcd13ifvqeug","pricing_plan_id":"cebpf4jnsgd1na2vs0mg"},{"bike_id":"c8151679-5057-484c-88ae-0e239797bf21","system_id":"levelo_inurba_marseille","lat":43.29825,"lon":5.38082,"is_reserved":false,"is_disabled":false,"rental_uris":{"android":"levelo://app?vid=c8151679-5057-484c-88ae-0e239797bf21","ios":"levelo://app?vid=c8151679-5057-484c-88ae-0e239797bf21"},"vehicle_type_id":"4","last_reported":1777055757,"current_range_meters":8000,"station_id":"ce4bgip2rcd13ifvqbb0","pricing_plan_id":"cebpf4jnsgd1na2vs0mg"},{"bike_id":"68073481-bb35-400f-9f12-cde8e6fa769c","system_id":"levelo_inurba_marseille","lat":43.29976,"lon":5.37181,"is_reserved":false,"is_disabled":false,"rental_uris":{"android":"levelo://app?vid=68073481-bb35-400f-9f12-cde8e6fa769c","ios":"levelo://app?vid=68073481-bb35-400f-9f12-cde8e6fa769c"},"vehicle_type_id":"4","last_reported":1777055757,"current_range_meters":8000,"station_id":"ce4bgr92rcd13ifvqc7g","pricing_plan_id":"cebpf4jnsgd1na2vs0mg"},{"bike_id":"87422405-667b-4bca-b8a8-438798be6607","system_id":"levelo_inurba_marseille","lat":43.28691,"lon":5.38667,"is_reserved":false,"is_disabled":false,"rental_uris":{"android":"levelo://app?vid=87422405-667b-4bca-b8a8-438798be6607","ios":"levelo://app?vid=87422405-667b-4bca-b8a8-438798be6607"},"vehicle_type_id":"4","last_reported":1777055757,"current_range_meters":8000,"station_id":"ce4bh492rcd13ifvqdug","pricing_plan_id":"cebpf4jnsgd1na2vs0mg"},{"bike_id":"18e13fc5-22a6-496a-b2e9-f9cec8063e1e","system_id":"levelo_inurba_marseille","lat":43.29097,"lon":5.38134,"is_reserved":false,"is_disabled":false,"rental_uris":{"android":"levelo://app?vid=18e13fc5-22a6-496a-b2e9-f9cec8063e1e","ios":"levelo://app?vid=18e13fc5-22a6-496a-b2e9-f9cec8063e1e"},"vehicle_type_id":"4","last_reported":1777055757,"current_range_meters":8000,"station_id":"ce4bh512rcd13ifvqe2g","pricing_plan_id":"cebpf4jnsgd1na2vs0mg"},{"bike_id":"62cc32f7-8b47-4970-acfe-751d93f568e6","system_id":"levelo_inurba_marseille","lat":43.25494,"lon":5.37646,"is_reserved":false,"is_disabled":false,"rental_uris":{"android":"levelo://app?vid=62cc32f7-8b47-4970-acfe-751d93f568e6","ios":"levelo://app?vid=62cc32f7-8b47-4970-acfe-751d93f568e6"},"vehicle_type_id":"4","last_reported":1777055757,"current_range_meters":8000,"station_id":"ce4bhh12rcd13ifvqff0","pricing_plan_id":"cebpf4jnsgd1na2vs0mg"},{"bike_id":"e8060ed7-a520-4982-a99d-be31ef931eb0","system_id":"levelo_inurba_marseille","lat":43.2943,"lon":5.39757,"is_reserved":false,"is_disabled":false,"rental_uris":{"android":"levelo://app?vid=e8060ed7-a520-4982-a99d-be31ef931eb0","ios":"levelo://app?vid=e8060ed7-a520-4982-a99d-be31ef931eb0"},"vehicle_type_id":"4","last_reported":1777055757,"current_range_meters":8000,"station_id":"ce4bh3h2rcd13ifvqdo0","pricing_plan_id":"cebpf4jnsgd1na2vs0mg"},{"bike_id":"cb1f4399-4413-4d71-a922-367215d4218a","system_id":"levelo_inurba_marseille","lat":43.29527,"lon":5.39047,"is_reserved":false,"is_disabled":false,"rental_uris":{"android":"levelo://app?vid=cb1f4399-4413-4d71-a922-367215d4218a","ios":"levelo://app?vid=cb1f4399-4413-4d71-a922-367215d4218a"},"vehicle_type_id":"4","last_reported":1777055757,"current_range_meters":8000,"station_id":"ce4bh3p2rcd13ifvqdp0","pricing_plan_id":"cebpf4jnsgd1na2vs0mg"},{"bike_id":"e8d002b1-199e-4516-8ed6-821a0c98040c","system_id":"levelo_inurba_marseille","lat":43.33768,"lon":5.37495,"is_reserved":false,"is_disabled":false,"rental_uris":{"android":"levelo://app?vid=e8d002b1-199e-4516-8ed6-821a0c98040c","ios":"levelo://app?vid=e8d002b1-199e-4516-8ed6-821a0c98040c"},"vehicle_type_id":"4","last_reported":1777055757,"current_range_meters":8000,"station_id":"st_d46cu089ee8s73dldbu0","pricing_plan_id":"cebpf4jnsgd1na2vs0mg"},{"bike_id":"5e255dd5-743a-434d-815c-738436cca911","system_id":"levelo_inurba_marseille","lat":43.24691,"lon":5.38131,"is_reserved":false,"is_disabled":false,"rental_uris":{"android":"levelo://app?vid=5e255dd5-743a-434d-815c-738436cca911","ios":"levelo://app?vid=5e255dd5-743a-434d-815c-738436cca911"},"vehicle_type_id":"4","last_reported":1777055757,"current_range_meters":8000,"station_id":"ce4bhih2rcd13ifvqfr0","pricing_plan_id":"cebpf4jnsgd1na2vs0mg"},{"bike_id":"a7b87245-c28d-4f8d-becb-31bbaad379e8","system_id":"levelo_inurba_marseille","lat":43.28396,"lon":5.3865,"is_reserved":false,"is_disabled":true,"rental_uris":{"android":"levelo://app?vid=a7b87245-c28d-4f8d-becb-31bbaad379e8","ios":"levelo://app?vid=a7b87245-c28d-4f8d-becb-31bbaad379e8"},"vehicle_type_id":"4","last_reported":1777055757,"current_range_meters":8000,"station_id":"ce4bh492rcd13ifvqdvg","pricing_plan_id":"cebpf4jnsgd1na2vs0mg"},{"bike_id":"f8135554-93f2-4fcd-94cf-d8c591265c05","system_id":"levelo_inurba_marseille","lat":43.28438,"lon":5.39188,"is_reserved":false,"is_disabled":false,"rental_uris":{"android":"levelo://app?vid=f8135554-93f2-4fcd-94cf-d8c591265c05","ios":"levelo://app?vid=f8135554-93f2-4fcd-94cf-d8c591265c05"},"vehicle_type_id":"4","last_reported":1777055757,"current_range_meters":8000,"station_id":"ce4bhoh2rcd13ifvqh5g","pricing_plan_id":"cebpf4jnsgd1na2vs0mg"},{"bike_id":"30f3eb60-f173-472f-8a94-153bd61e2bbb","system_id":"levelo_inurba_marseille","lat":43.28613,"lon":5.35117,"is_reserved":false,"is_disabled":false,"rental_uris":{"android":"levelo://app?vid=30f3eb60-f173-472f-8a94-153bd61e2bbb","ios":"levelo://app?vid=30f3eb60-f173-472f-8a94-153bd61e2bbb"},"vehicle_type_id":"4","last_reported":1777055757,"current_range_meters":8000,"station_id":"ce4bhch2rcd13ifvqeug","pricing_plan_id":"cebpf4jnsgd1na2vs0mg"},{"bike_id":"6683f1c1-5438-4145-9f5d-8b7a78196c6b","system_id":"levelo_inurba_marseille","lat":43.2825,"lon":5.35062,"is_reserved":false,"is_disabled":false,"rental_uris":{"android":"levelo://app?vid=6683f1c1-5438-4145-9f5d-8b7a78196c6b","ios":"levelo://app?vid=6683f1c1-5438-4145-9f5d-8b7a78196c6b"},"vehicle_type_id":"4","last_reported":1777055757,"current_range_meters":8000,"station_id":"ce4bhbp2rcd13ifvqerg","pricing_plan_id":"cebpf4jnsgd1na2vs0mg"},{"bike_id":"68385ad1-5a71-4622-9ac2-dcc837084f17","system_id":"levelo_inurba_marseille","lat":43.24028,"lon":5.37793,"is_reserved":false,"is_disabled":false,"rental_uris":{"android":"levelo://app?vid=68385ad1-5a71-4622-9ac2-dcc837084f17","ios":"levelo://app?vid=68385ad1-5a71-4622-9ac2-dcc837084f17"},"vehicle_type_id":"4","last_reported":1777055757,"current_range_meters":8000,"station_id":"ce4bhnp2rcd13ifvqgvg","pricing_plan_id":"cebpf4jnsgd1na2vs0mg"},{"bike_id":"a748cb5a-6e0a-4ecb-b83c-da5775a99539","system_id":"levelo_inurba_marseille","lat":43.29883,"lon":5.38905,"is_reserved":false,"is_disabled":false,"rental_uris":{"android":"levelo://app?vid=a748cb5a-6e0a-4ecb-b83c-da5775a99539","ios":"levelo://app?vid=a748cb5a-6e0a-4ecb-b83c-da5775a99539"},"vehicle_type_id":"4","last_reported":1777055757,"current_range_meters":8000,"station_id":"ce4bh392rcd13ifvqdl0","pricing_plan_id":"cebpf4jnsgd1na2vs0mg"},{"bike_id":"d6b4cbae-4be5-450f-832b-b4bc0296d23b","system_id":"levelo_inurba_marseille","lat":43.27993,"lon":5.40007,"is_reserved":false,"is_disabled":false,"rental_uris":{"android":"levelo://app?vid=d6b4cbae-4be5-450f-832b-b4bc0296d23b","ios":"levelo://app?vid=d6b4cbae-4be5-450f-832b-b4bc0296d23b"},"vehicle_type_id":"4","last_reported":1777055757,"current_range_meters":8000,"station_id":"ce4bho92rcd13ifvqh4g","pricing_plan_id":"cebpf4jnsgd1na2vs0mg"},{"bike_id":"c7ac0306-6afc-4781-8692-f962ddfe1a23","system_id":"levelo_inurba_marseille","lat":43.32349,"lon":5.36738,"is_reserved":false,"is_disabled":false,"rental_uris":{"android":"levelo://app?vid=c7ac0306-6afc-4781-8692-f962ddfe1a23","ios":"levelo://app?vid=c7ac0306-6afc-4781-8692-f962ddfe1a23"},"vehicle_type_id":"4","last_reported":1777055757,"current_range_meters":8000,"station_id":"ce4bhsh2rcd13ifvqi2g","pricing_plan_id":"cebpf4jnsgd1na2vs0mg"},{"bike_id":"525142eb-4707-4efd-a317-84c48314d0aa","system_id":"levelo_inurba_marseille","lat":43.25044,"lon":5.39248,"is_reserved":false,"is_disabled":false,"rental_uris":{"android":"levelo://app?vid=525142eb-4707-4efd-a317-84c48314d0aa","ios":"levelo://app?vid=525142eb-4707-4efd-a317-84c48314d0aa"},"vehicle_type_id":"4","last_reported":1777055757,"current_range_meters":8000,"station_id":"","pricing_plan_id":"cebpf4jnsgd1na2vs0mg"},{"bike_id":"bc0099df-f306-483b-886d-f98614947259","system_id":"levelo_inurba_marseille","lat":43.33158,"lon":5.37655,"is_reserved":false,"is_disabled":false,"rental_uris":{"android":"levelo://app?vid=bc0099df-f306-483b-886d-f98614947259","ios":"levelo://app?vid=bc0099df-f306-483b-886d-f98614947259"},"vehicle_type_id":"4","last_reported":1777055757,"current_range_meters":8400,"station_id":"st_d46cu089ee8s73dldbu0","pricing_plan_id":"cebpf4jnsgd1na2vs0mg"},{"bike_id":"f9c28b33-e7ba-4f82-bdba-494d269ab6b2","system_id":"levelo_inurba_marseille","lat":43.2919,"lon":5.39336,"is_reserved":false,"is_disabled":false,"rental_uris":{"android":"levelo://app?vid=f9c28b33-e7ba-4f82-bdba-494d269ab6b2","ios":"levelo://app?vid=f9c28b33-e7ba-4f82-bdba-494d269ab6b2"},"vehicle_type_id":"4","last_reported":1777055757,"current_range_meters":8400,"station_id":"ce4bh192rcd13ifvqdd0","pricing_plan_id":"cebpf4jnsgd1na2vs0mg"},{"bike_id":"4af5f932-71ad-4954-ac3b-fecb2a352994","system_id":"levelo_inurba_marseille","lat":43.32341,"lon":5.36739,"is_reserved":false,"is_disabled":false,"rental_uris":{"android":"levelo://app?vid=4af5f932-71ad-4954-ac3b-fecb2a352994","ios":"levelo://app?vid=4af5f932-71ad-4954-ac3b-fecb2a352994"},"vehicle_type_id":"4","last_reported":1777055757,"current_range_meters":8400,"station_id":"ce4bhsh2rcd13ifvqi2g","pricing_plan_id":"cebpf4jnsgd1na2vs0mg"},{"bike_id":"929ec495-3063-4e3b-9b6e-b622e307d6fd","system_id":"levelo_inurba_marseille","lat":43.29537,"lon":5.38546,"is_reserved":false,"is_disabled":false,"rental_uris":{"android":"levelo://app?vid=929ec495-3063-4e3b-9b6e-b622e307d6fd","ios":"levelo://app?vid=929ec495-3063-4e3b-9b6e-b622e307d6fd"},"vehicle_type_id":"4","last_reported":1777055757,"current_range_meters":8400,"station_id":"ce4bgih2rcd13ifvqba0","pricing_plan_id":"cebpf4jnsgd1na2vs0mg"},{"bike_id":"f44d6bc2-2424-4075-9f05-9a1fd1edfab6","system_id":"levelo_inurba_marseille","lat":43.28033,"lon":5.36952,"is_reserved":false,"is_disabled":false,"rental_uris":{"android":"levelo://app?vid=f44d6bc2-2424-4075-9f05-9a1fd1edfab6","ios":"levelo://app?vid=f44d6bc2-2424-4075-9f05-9a1fd1edfab6"},"vehicle_type_id":"4","last_reported":1777055757,"current_range_meters":8400,"station_id":"ce4bha12rcd13ifvqef0","pricing_plan_id":"cebpf4jnsgd1na2vs0mg"},{"bike_id":"5a0255e7-1579-4072-83a0-d43df24a710e","system_id":"levelo_inurba_marseille","lat":43.2978,"lon":5.38083,"is_reserved":false,"is_disabled":false,"rental_uris":{"android":"levelo://app?vid=5a0255e7-1579-4072-83a0-d43df24a710e","ios":"levelo://app?vid=5a0255e7-1579-4072-83a0-d43df24a710e"},"vehicle_type_id":"4","last_reported":1777055757,"current_range_meters":8400,"station_id":"ce4bgip2rcd13ifvqbb0","pricing_plan_id":"cebpf4jnsgd1na2vs0mg"},{"bike_id":"eeac2ee0-be9f-48ee-a8da-259774c71024","system_id":"levelo_inurba_marseille","lat":43.28415,"lon":5.34997,"is_reserved":false,"is_disabled":false,"rental_uris":{"android":"levelo://app?vid=eeac2ee0-be9f-48ee-a8da-259774c71024","ios":"levelo://app?vid=eeac2ee0-be9f-48ee-a8da-259774c71024"},"vehicle_type_id":"4","last_reported":1777055757,"current_range_meters":8400,"station_id":"ce4bhbh2rcd13ifvqepg","pricing_plan_id":"cebpf4jnsgd1na2vs0mg"},{"bike_id":"a3dee876-3af2-46d4-9131-1dd0997e500a","system_id":"levelo_inurba_marseille","lat":43.24394,"lon":5.37072,"is_reserved":false,"is_disabled":true,"rental_uris":{"android":"levelo://app?vid=a3dee876-3af2-46d4-9131-1dd0997e500a","ios":"levelo://app?vid=a3dee876-3af2-46d4-9131-1dd0997e500a"},"vehicle_type_id":"4","last_reported":1777055757,"current_range_meters":8400,"station_id":"ce4bhhh2rcd13ifvqfk0","pricing_plan_id":"cebpf4jnsgd1na2vs0mg"},{"bike_id":"18ee4449-686a-4257-a830-821bcc128ad8","system_id":"levelo_inurba_marseille","lat":43.29538,"lon":5.38536,"is_reserved":false,"is_disabled":false,"rental_uris":{"android":"levelo://app?vid=18ee4449-686a-4257-a830-821bcc128ad8","ios":"levelo://app?vid=18ee4449-686a-4257-a830-821bcc128ad8"},"vehicle_type_id":"4","last_reported":1777055757,"current_range_meters":8400,"station_id":"ce4bgih2rcd13ifvqba0","pricing_plan_id":"cebpf4jnsgd1na2vs0mg"},{"bike_id":"48f1503f-b6d3-4785-969b-449c510fa78d","system_id":"levelo_inurba_marseille","lat":43.295272,"lon":5.385424,"is_reserved":false,"is_disabled":false,"rental_uris":{"android":"levelo://app?vid=48f1503f-b6d3-4785-969b-449c510fa78d","ios":"levelo://app?vid=48f1503f-b6d3-4785-969b-449c510fa78d"},"vehicle_type_id":"4","last_reported":1777055757,"current_range_meters":8400,"station_id":"ce4bgkp2rcd13ifvqbmg","pricing_plan_id":"cebpf4jnsgd1na2vs0mg"},{"bike_id":"909cae9d-5222-473b-aef5-d47a9de17fb2","system_id":"levelo_inurba_marseille","lat":43.28249,"lon":5.35079,"is_reserved":false,"is_disabled":false,"rental_uris":{"android":"levelo://app?vid=909cae9d-5222-473b-aef5-d47a9de17fb2","ios":"levelo://app?vid=909cae9d-5222-473b-aef5-d47a9de17fb2"},"vehicle_type_id":"4","last_reported":1777055757,"current_range_meters":8400,"station_id":"ce4bhbp2rcd13ifvqerg","pricing_plan_id":"cebpf4jnsgd1na2vs0mg"},{"bike_id":"60be4b0d-4c83-4300-8220-7b23e159ba6b","system_id":"levelo_inurba_marseille","lat":43.24795,"lon":5.37446,"is_reserved":false,"is_disabled":false,"rental_uris":{"android":"levelo://app?vid=60be4b0d-4c83-4300-8220-7b23e159ba6b","ios":"levelo://app?vid=60be4b0d-4c83-4300-8220-7b23e159ba6b"},"vehicle_type_id":"4","last_reported":1777055757,"current_range_meters":8400,"station_id":"ce4bhgh2rcd13ifvqfb0","pricing_plan_id":"cebpf4jnsgd1na2vs0mg"},{"bike_id":"05483cf0-c1ae-4465-a083-0bc3c7400548","system_id":"levelo_inurba_marseille","lat":43.27675,"lon":5.3889,"is_reserved":false,"is_disabled":true,"rental_uris":{"android":"levelo://app?vid=05483cf0-c1ae-4465-a083-0bc3c7400548","ios":"levelo://app?vid=05483cf0-c1ae-4465-a083-0bc3c7400548"},"vehicle_type_id":"4","last_reported":1777055757,"current_range_meters":8400,"station_id":"ce4bhi12rcd13ifvqfo0","pricing_plan_id":"cebpf4jnsgd1na2vs0mg"},{"bike_id":"ddef2dd6-6243-43e9-8e3f-d1a8299bf8e2","system_id":"levelo_inurba_marseille","lat":43.29528,"lon":5.38556,"is_reserved":false,"is_disabled":false,"rental_uris":{"android":"levelo://app?vid=ddef2dd6-6243-43e9-8e3f-d1a8299bf8e2","ios":"levelo://app?vid=ddef2dd6-6243-43e9-8e3f-d1a8299bf8e2"},"vehicle_type_id":"4","last_reported":1777055757,"current_range_meters":8400,"station_id":"ce4bgih2rcd13ifvqba0","pricing_plan_id":"cebpf4jnsgd1na2vs0mg"},{"bike_id":"33b474e7-79ff-4803-b72e-82f4ac2d8854","system_id":"levelo_inurba_marseille","lat":43.30897,"lon":5.39636,"is_reserved":false,"is_disabled":false,"rental_uris":{"android":"levelo://app?vid=33b474e7-79ff-4803-b72e-82f4ac2d8854","ios":"levelo://app?vid=33b474e7-79ff-4803-b72e-82f4ac2d8854"},"vehicle_type_id":"4","last_reported":1777055757,"current_range_meters":8400,"station_id":"ce4bh012rcd13ifvqcv0","pricing_plan_id":"cebpf4jnsgd1na2vs0mg"},{"bike_id":"51d63916-b3ac-4df9-a8a5-aa7114694a68","system_id":"levelo_inurba_marseille","lat":43.2781,"lon":5.40724,"is_reserved":false,"is_disabled":false,"rental_uris":{"android":"levelo://app?vid=51d63916-b3ac-4df9-a8a5-aa7114694a68","ios":"levelo://app?vid=51d63916-b3ac-4df9-a8a5-aa7114694a68"},"vehicle_type_id":"4","last_reported":1777055757,"current_range_meters":8400,"station_id":"ce4bhnh2rcd13ifvqgtg","pricing_plan_id":"cebpf4jnsgd1na2vs0mg"},{"bike_id":"080a2ab7-8e26-4fcb-ae09-7737519c830d","system_id":"levelo_inurba_marseille","lat":43.28623,"lon":5.35103,"is_reserved":false,"is_disabled":false,"rental_uris":{"android":"levelo://app?vid=080a2ab7-8e26-4fcb-ae09-7737519c830d","ios":"levelo://app?vid=080a2ab7-8e26-4fcb-ae09-7737519c830d"},"vehicle_type_id":"4","last_reported":1777055757,"current_range_meters":8400,"station_id":"ce4bhch2rcd13ifvqeug","pricing_plan_id":"cebpf4jnsgd1na2vs0mg"},{"bike_id":"3b59f7e2-cc49-4562-9a15-0c4210cbe295","system_id":"levelo_inurba_marseille","lat":43.28937,"lon":5.36633,"is_reserved":false,"is_disabled":false,"rental_uris":{"android":"levelo://app?vid=3b59f7e2-cc49-4562-9a15-0c4210cbe295","ios":"levelo://app?vid=3b59f7e2-cc49-4562-9a15-0c4210cbe295"},"vehicle_type_id":"4","last_reported":1777055757,"current_range_meters":8400,"station_id":"ce4bhap2rcd13ifvqek0","pricing_plan_id":"cebpf4jnsgd1na2vs0mg"},{"bike_id":"25da488e-77a1-4b15-a23b-57f58235fca3","system_id":"levelo_inurba_marseille","lat":43.26073,"lon":5.39391,"is_reserved":false,"is_disabled":false,"rental_uris":{"android":"levelo://app?vid=25da488e-77a1-4b15-a23b-57f58235fca3","ios":"levelo://app?vid=25da488e-77a1-4b15-a23b-57f58235fca3"},"vehicle_type_id":"4","last_reported":1777055757,"current_range_meters":8400,"station_id":"ce4bhh92rcd13ifvqfj0","pricing_plan_id":"cebpf4jnsgd1na2vs0mg"},{"bike_id":"8b8b5db3-e95a-497f-b84a-b89a12682ca4","system_id":"levelo_inurba_marseille","lat":43.29784,"lon":5.44042,"is_reserved":false,"is_disabled":false,"rental_uris":{"android":"levelo://app?vid=8b8b5db3-e95a-497f-b84a-b89a12682ca4","ios":"levelo://app?vid=8b8b5db3-e95a-497f-b84a-b89a12682ca4"},"vehicle_type_id":"4","last_reported":1777055757,"current_range_meters":8400,"station_id":"st_d3jp68qikq2c7381ktn0","pricing_plan_id":"cebpf4jnsgd1na2vs0mg"},{"bike_id":"b000728b-1637-4a4e-ae71-291f2ae04e19","system_id":"levelo_inurba_marseille","lat":43.28888,"lon":5.39997,"is_reserved":false,"is_disabled":false,"rental_uris":{"android":"levelo://app?vid=b000728b-1637-4a4e-ae71-291f2ae04e19","ios":"levelo://app?vid=b000728b-1637-4a4e-ae71-291f2ae04e19"},"vehicle_type_id":"4","last_reported":1777055757,"current_range_meters":8400,"station_id":"","pricing_plan_id":"cebpf4jnsgd1na2vs0mg"},{"bike_id":"973940ce-e545-4d71-9396-486542a3f8e7","system_id":"levelo_inurba_marseille","lat":43.28614,"lon":5.351,"is_reserved":false,"is_disabled":false,"rental_uris":{"android":"levelo://app?vid=973940ce-e545-4d71-9396-486542a3f8e7","ios":"levelo://app?vid=973940ce-e545-4d71-9396-486542a3f8e7"},"vehicle_type_id":"4","last_reported":1777055757,"current_range_meters":8400,"station_id":"ce4bhch2rcd13ifvqeug","pricing_plan_id":"cebpf4jnsgd1na2vs0mg"},{"bike_id":"261b4d20-3fce-4a9a-b1df-f7d9447249df","system_id":"levelo_inurba_marseille","lat":43.28473,"lon":5.48399,"is_reserved":false,"is_disabled":false,"rental_uris":{"android":"levelo://app?vid=261b4d20-3fce-4a9a-b1df-f7d9447249df","ios":"levelo://app?vid=261b4d20-3fce-4a9a-b1df-f7d9447249df"},"vehicle_type_id":"4","last_reported":1777055757,"current_range_meters":8400,"station_id":"st_d3svhcjqgbts73a3dn0g","pricing_plan_id":"cebpf4jnsgd1na2vs0mg"},{"bike_id":"57c3df95-03a4-4c5f-aa9e-60f38d93e044","system_id":"levelo_inurba_marseille","lat":43.31109,"lon":5.42426,"is_reserved":false,"is_disabled":false,"rental_uris":{"android":"levelo://app?vid=57c3df95-03a4-4c5f-aa9e-60f38d93e044","ios":"levelo://app?vid=57c3df95-03a4-4c5f-aa9e-60f38d93e044"},"vehicle_type_id":"4","last_reported":1777055757,"current_range_meters":8400,"station_id":"ce4bhp92rcd13ifvqhag","pricing_plan_id":"cebpf4jnsgd1na2vs0mg"},{"bike_id":"75a682ee-b43a-49a5-a92f-41f2c40445d1","system_id":"levelo_inurba_marseille","lat":43.27957,"lon":5.4104,"is_reserved":false,"is_disabled":false,"rental_uris":{"android":"levelo://app?vid=75a682ee-b43a-49a5-a92f-41f2c40445d1","ios":"levelo://app?vid=75a682ee-b43a-49a5-a92f-41f2c40445d1"},"vehicle_type_id":"4","last_reported":1777055757,"current_range_meters":8400,"station_id":"ce4bhnp2rcd13ifvqh0g","pricing_plan_id":"cebpf4jnsgd1na2vs0mg"},{"bike_id":"7a69ea77-881a-4771-9115-4df032584bb0","system_id":"levelo_inurba_marseille","lat":43.286896,"lon":5.37387,"is_reserved":false,"is_disabled":false,"rental_uris":{"android":"levelo://app?vid=7a69ea77-881a-4771-9115-4df032584bb0","ios":"levelo://app?vid=7a69ea77-881a-4771-9115-4df032584bb0"},"vehicle_type_id":"4","last_reported":1777055757,"current_range_meters":8400,"station_id":"ce4bh3p2rcd13ifvqdq0","pricing_plan_id":"cebpf4jnsgd1na2vs0mg"},{"bike_id":"3a4c01f4-403d-4e43-9b94-4f7c3c869903","system_id":"levelo_inurba_marseille","lat":43.31222,"lon":5.36842,"is_reserved":false,"is_disabled":false,"rental_uris":{"android":"levelo://app?vid=3a4c01f4-403d-4e43-9b94-4f7c3c869903","ios":"levelo://app?vid=3a4c01f4-403d-4e43-9b94-4f7c3c869903"},"vehicle_type_id":"4","last_reported":1777055757,"current_range_meters":8400,"station_id":"ce4bgl92rcd13ifvqbq0","pricing_plan_id":"cebpf4jnsgd1na2vs0mg"},{"bike_id":"4ce71f71-1a28-4592-bd5c-1940ff667306","system_id":"levelo_inurba_marseille","lat":43.30903,"lon":5.36839,"is_reserved":false,"is_disabled":false,"rental_uris":{"android":"levelo://app?vid=4ce71f71-1a28-4592-bd5c-1940ff667306","ios":"levelo://app?vid=4ce71f71-1a28-4592-bd5c-1940ff667306"},"vehicle_type_id":"4","last_reported":1777055757,"current_range_meters":8800,"station_id":"ce4bgn92rcd13ifvqbvg","pricing_plan_id":"cebpf4jnsgd1na2vs0mg"},{"bike_id":"0ce641a1-ca62-4f05-b894-4a72f77b98f2","system_id":"levelo_inurba_marseille","lat":43.32393,"lon":5.36714,"is_reserved":false,"is_disabled":false,"rental_uris":{"android":"levelo://app?vid=0ce641a1-ca62-4f05-b894-4a72f77b98f2","ios":"levelo://app?vid=0ce641a1-ca62-4f05-b894-4a72f77b98f2"},"vehicle_type_id":"4","last_reported":1777055757,"current_range_meters":8800,"station_id":"","pricing_plan_id":"cebpf4jnsgd1na2vs0mg"},{"bike_id":"ef1780af-1aea-4e08-82c2-da4d0be385bf","system_id":"levelo_inurba_marseille","lat":43.29031,"lon":5.36015,"is_reserved":false,"is_disabled":false,"rental_uris":{"android":"levelo://app?vid=ef1780af-1aea-4e08-82c2-da4d0be385bf","ios":"levelo://app?vid=ef1780af-1aea-4e08-82c2-da4d0be385bf"},"vehicle_type_id":"4","last_reported":1777055757,"current_range_meters":8800,"station_id":"","pricing_plan_id":"cebpf4jnsgd1na2vs0mg"},{"bike_id":"4e7f60dc-2079-4f51-9d09-01d31cdd2f9b","system_id":"levelo_inurba_marseille","lat":43.24696,"lon":5.43085,"is_reserved":false,"is_disabled":false,"rental_uris":{"android":"levelo://app?vid=4e7f60dc-2079-4f51-9d09-01d31cdd2f9b","ios":"levelo://app?vid=4e7f60dc-2079-4f51-9d09-01d31cdd2f9b"},"vehicle_type_id":"4","last_reported":1777055757,"current_range_meters":8800,"station_id":"","pricing_plan_id":"cebpf4jnsgd1na2vs0mg"},{"bike_id":"c27c14c5-d60c-48fb-84ce-ac2a5ae3f6eb","system_id":"levelo_inurba_marseille","lat":43.28631,"lon":5.35096,"is_reserved":false,"is_disabled":false,"rental_uris":{"android":"levelo://app?vid=c27c14c5-d60c-48fb-84ce-ac2a5ae3f6eb","ios":"levelo://app?vid=c27c14c5-d60c-48fb-84ce-ac2a5ae3f6eb"},"vehicle_type_id":"4","last_reported":1777055757,"current_range_meters":8800,"station_id":"ce4bhch2rcd13ifvqeug","pricing_plan_id":"cebpf4jnsgd1na2vs0mg"},{"bike_id":"1d368fe1-0c8f-4a40-864c-b54082c58fa1","system_id":"levelo_inurba_marseille","lat":43.33524,"lon":5.37469,"is_reserved":false,"is_disabled":false,"rental_uris":{"android":"levelo://app?vid=1d368fe1-0c8f-4a40-864c-b54082c58fa1","ios":"levelo://app?vid=1d368fe1-0c8f-4a40-864c-b54082c58fa1"},"vehicle_type_id":"4","last_reported":1777055757,"current_range_meters":8800,"station_id":"st_d46tts09ee8s73dlu43g","pricing_plan_id":"cebpf4jnsgd1na2vs0mg"},{"bike_id":"1370c3f0-6074-43de-a93b-f7f87c829b3b","system_id":"levelo_inurba_marseille","lat":43.2912,"lon":5.39985,"is_reserved":false,"is_disabled":false,"rental_uris":{"android":"levelo://app?vid=1370c3f0-6074-43de-a93b-f7f87c829b3b","ios":"levelo://app?vid=1370c3f0-6074-43de-a93b-f7f87c829b3b"},"vehicle_type_id":"4","last_reported":1777055757,"current_range_meters":8800,"station_id":"","pricing_plan_id":"cebpf4jnsgd1na2vs0mg"},{"bike_id":"851295c3-468d-4148-95d8-ad52f26696d5","system_id":"levelo_inurba_marseille","lat":43.24185,"lon":5.36382,"is_reserved":false,"is_disabled":false,"rental_uris":{"android":"levelo://app?vid=851295c3-468d-4148-95d8-ad52f26696d5","ios":"levelo://app?vid=851295c3-468d-4148-95d8-ad52f26696d5"},"vehicle_type_id":"4","last_reported":1777055757,"current_range_meters":8800,"station_id":"cpo36qri1sfpv3e86is0","pricing_plan_id":"cebpf4jnsgd1na2vs0mg"},{"bike_id":"b5b34d31-2576-4519-9e8b-4ff23585ebda","system_id":"levelo_inurba_marseille","lat":43.28993,"lon":5.37833,"is_reserved":false,"is_disabled":false,"rental_uris":{"android":"levelo://app?vid=b5b34d31-2576-4519-9e8b-4ff23585ebda","ios":"levelo://app?vid=b5b34d31-2576-4519-9e8b-4ff23585ebda"},"vehicle_type_id":"4","last_reported":1777055757,"current_range_meters":8800,"station_id":"ce4bh9p2rcd13ifvqed0","pricing_plan_id":"cebpf4jnsgd1na2vs0mg"},{"bike_id":"d5f3a701-3218-4332-b085-948410ae581b","system_id":"levelo_inurba_marseille","lat":43.2931,"lon":5.41173,"is_reserved":false,"is_disabled":false,"rental_uris":{"android":"levelo://app?vid=d5f3a701-3218-4332-b085-948410ae581b","ios":"levelo://app?vid=d5f3a701-3218-4332-b085-948410ae581b"},"vehicle_type_id":"4","last_reported":1777055757,"current_range_meters":8800,"station_id":"","pricing_plan_id":"cebpf4jnsgd1na2vs0mg"},{"bike_id":"26dce1c0-12d8-4e11-8420-9a847ac122d3","system_id":"levelo_inurba_marseille","lat":43.28156,"lon":5.42643,"is_reserved":false,"is_disabled":false,"rental_uris":{"android":"levelo://app?vid=26dce1c0-12d8-4e11-8420-9a847ac122d3","ios":"levelo://app?vid=26dce1c0-12d8-4e11-8420-9a847ac122d3"},"vehicle_type_id":"4","last_reported":1777055757,"current_range_meters":8800,"station_id":"ce4bhnh2rcd13ifvqgug","pricing_plan_id":"cebpf4jnsgd1na2vs0mg"},{"bike_id":"90f0899c-ea92-4940-a366-2693d36d5037","system_id":"levelo_inurba_marseille","lat":43.31124,"lon":5.37763,"is_reserved":false,"is_disabled":false,"rental_uris":{"android":"levelo://app?vid=90f0899c-ea92-4940-a366-2693d36d5037","ios":"levelo://app?vid=90f0899c-ea92-4940-a366-2693d36d5037"},"vehicle_type_id":"4","last_reported":1777055757,"current_range_meters":8800,"station_id":"ce4bgt92rcd13ifvqcg0","pricing_plan_id":"cebpf4jnsgd1na2vs0mg"},{"bike_id":"4d5b4915-5fc0-4782-a3a4-e445cc2cf470","system_id":"levelo_inurba_marseille","lat":43.29871,"lon":5.42101,"is_reserved":false,"is_disabled":false,"rental_uris":{"android":"levelo://app?vid=4d5b4915-5fc0-4782-a3a4-e445cc2cf470","ios":"levelo://app?vid=4d5b4915-5fc0-4782-a3a4-e445cc2cf470"},"vehicle_type_id":"4","last_reported":1777055757,"current_range_meters":8800,"station_id":"st_d6tc004otcvc738tfe70","pricing_plan_id":"cebpf4jnsgd1na2vs0mg"},{"bike_id":"a8b7eaa1-6f34-431e-a84f-354312f1ae3a","system_id":"levelo_inurba_marseille","lat":43.24073,"lon":5.37761,"is_reserved":false,"is_disabled":false,"rental_uris":{"android":"levelo://app?vid=a8b7eaa1-6f34-431e-a84f-354312f1ae3a","ios":"levelo://app?vid=a8b7eaa1-6f34-431e-a84f-354312f1ae3a"},"vehicle_type_id":"4","last_reported":1777055757,"current_range_meters":8800,"station_id":"ce4bhnp2rcd13ifvqgvg","pricing_plan_id":"cebpf4jnsgd1na2vs0mg"},{"bike_id":"089b86c6-b135-4c3c-abb5-0e9d379575d5","system_id":"levelo_inurba_marseille","lat":43.29528,"lon":5.39027,"is_reserved":false,"is_disabled":false,"rental_uris":{"android":"levelo://app?vid=089b86c6-b135-4c3c-abb5-0e9d379575d5","ios":"levelo://app?vid=089b86c6-b135-4c3c-abb5-0e9d379575d5"},"vehicle_type_id":"4","last_reported":1777055757,"current_range_meters":8800,"station_id":"ce4bh3p2rcd13ifvqdp0","pricing_plan_id":"cebpf4jnsgd1na2vs0mg"},