{"last_updated":1749492897,"ttl":60,"version":"2.2","data":{"bikes":[{"bike_id":"2e647003-1d2d-4142-ac90-bff05fc13542","system_id":"levelo_inurba_marseille","lat":43.279967,"lon":5.416617,"is_reserved":false,"is_disabled":false,"rental_uris":{"android":"levelo://app?vid=2e647003-1d2d-4142-ac90-bff05fc13542","ios":"levelo://app?vid=2e647003-1d2d-4142-ac90-bff05fc13542"},"vehicle_type_id":"4","last_reported":1749492897,"current_range_meters":2800,"station_id":"ce4bho12rcd13ifvqh1g","pricing_plan_id":"cebpf4jnsgd1na2vs0mg"},{"bike_id":"6b343164-84b0-455c-a620-2866ed2a5e18","system_id":"levelo_inurba_marseille","lat":43.25866,"lon":5.39896,"is_reserved":false,"is_disabled":false,"rental_uris":{"android":"levelo://app?vid=6b343164-84b0-455c-a620-2866ed2a5e18","ios":"levelo://app?vid=6b343164-84b0-455c-a620-2866ed2a5e18"},"vehicle_type_id":"4","last_reported":1749492897,"current_range_meters":2800,"station_id":"ce4bhl92rcd13ifvqghg","pricing_plan_id":"cebpf4jnsgd1na2vs0mg"},{"bike_id":"e47ff1b3-84f4-4223-8488-03c55121b410","system_id":"levelo_inurba_marseille","lat":43.32445,"lon":5.43579,"is_reserved":false,"is_disabled":false,"rental_uris":{"android":"levelo://app?vid=e47ff1b3-84f4-4223-8488-03c55121b410","ios":"levelo://app?vid=e47ff1b3-84f4-4223-8488-03c55121b410"},"vehicle_type_id":"4","last_reported":1749492897,"current_range_meters":2800,"station_id":"","pricing_plan_id":"cebpf4jnsgd1na2vs0mg"},{"bike_id":"458448fc-fcca-4aa4-8d90-16c3547cbc28","system_id":"levelo_inurba_marseille","lat":43.3018,"lon":5.40076,"is_reserved":false,"is_disabled":false,"rental_uris":{"android":"levelo://app?vid=458448fc-fcca-4aa4-8d90-16c3547cbc28","ios":"levelo://app?vid=458448fc-fcca-4aa4-8d90-16c3547cbc28"},"vehicle_type_id":"4","last_reported":1749492897,"current_range_meters":2800,"station_id":"","pricing_plan_id":"cebpf4jnsgd1na2vs0mg"},{"bike_id":"e24529de-4aad-443a-a985-ef9d7cbe0f15","system_id":"levelo_inurba_marseille","lat":43.28705,"lon":5.37391,"is_reserved":false,"is_disabled":false,"rental_uris":{"android":"levelo://app?vid=e24529de-4aad-443a-a985-ef9d7cbe0f15","ios":"levelo://app?vid=e24529de-4aad-443a-a985-ef9d7cbe0f15"},"vehicle_type_id":"4","last_reported":1749492897,"current_range_meters":3200,"station_id":"ce4bh3p2rcd13ifvqdq0","pricing_plan_id":"cebpf4jnsgd1na2vs0mg"},{"bike_id":"1acc2ca2-3d9c-43d1-9aca-1c6f640f8943","system_id":"levelo_inurba_marseille","lat":43.30433,"lon":5.38889,"is_reserved":false,"is_disabled":false,"rental_uris":{"android":"levelo://app?vid=1acc2ca2-3d9c-43d1-9aca-1c6f640f8943","ios":"levelo://app?vid=1acc2ca2-3d9c-43d1-9aca-1c6f640f8943"},"vehicle_type_id":"4","last_reported":1749492897,"current_range_meters":2800,"station_id":"ce4bgk12rcd13ifvqbi0","pricing_plan_id":"cebpf4jnsgd1na2vs0mg"},{"bike_id":"84a685a2-d5e8-43b0-be4c-0ca8b4a86841","system_id":"levelo_inurba_marseille","lat":43.28152,"lon":5.42632,"is_reserved":false,"is_disabled":false,"rental_uris":{"android":"levelo://app?vid=84a685a2-d5e8-43b0-be4c-0ca8b4a86841","ios":"levelo://app?vid=84a685a2-d5e8-43b0-be4c-0ca8b4a86841"},"vehicle_type_id":"4","last_reported":1749492897,"current_range_meters":3200,"station_id":"ce4bhnh2rcd13ifvqgug","pricing_plan_id":"cebpf4jnsgd1na2vs0mg"},{"bike_id":"5cae7341-17bd-45c7-bbb4-6963fcd342bd","system_id":"levelo_inurba_marseille","lat":43.27936,"lon":5.41052,"is_reserved":false,"is_disabled":false,"rental_uris":{"android":"levelo://app?vid=5cae7341-17bd-45c7-bbb4-6963fcd342bd","ios":"levelo://app?vid=5cae7341-17bd-45c7-bbb4-6963fcd342bd"},"vehicle_type_id":"4","last_reported":1749492897,"current_range_meters":3200,"station_id":"ce4bhnp2rcd13ifvqh0g","pricing_plan_id":"cebpf4jnsgd1na2vs0mg"},{"bike_id":"af33d591-ee19-4f28-8873-2e84ad684f0c","system_id":"levelo_inurba_marseille","lat":43.29198,"lon":5.39321,"is_reserved":false,"is_disabled":false,"rental_uris":{"android":"levelo://app?vid=af33d591-ee19-4f28-8873-2e84ad684f0c","ios":"levelo://app?vid=af33d591-ee19-4f28-8873-2e84ad684f0c"},"vehicle_type_id":"4","last_reported":1749492897,"current_range_meters":3200,"station_id":"ce4bh192rcd13ifvqdd0","pricing_plan_id":"cebpf4jnsgd1na2vs0mg"},{"bike_id":"92c18920-e255-45d3-a7c8-a3404982175b","system_id":"levelo_inurba_marseille","lat":43.29874,"lon":5.38909,"is_reserved":false,"is_disabled":false,"rental_uris":{"android":"levelo://app?vid=92c18920-e255-45d3-a7c8-a3404982175b","ios":"levelo://app?vid=92c18920-e255-45d3-a7c8-a3404982175b"},"vehicle_type_id":"4","last_reported":1749492897,"current_range_meters":3200,"station_id":"ce4bh392rcd13ifvqdl0","pricing_plan_id":"cebpf4jnsgd1na2vs0mg"},{"bike_id":"14f6b6b6-eb14-4278-a4d7-020f17aa32c7","system_id":"levelo_inurba_marseille","lat":43.27051,"lon":5.40258,"is_reserved":false,"is_disabled":false,"rental_uris":{"android":"levelo://app?vid=14f6b6b6-eb14-4278-a4d7-020f17aa32c7","ios":"levelo://app?vid=14f6b6b6-eb14-4278-a4d7-020f17aa32c7"},"vehicle_type_id":"4","last_reported":1749492897,"current_range_meters":3200,"station_id":"ce4bhk92rcd13ifvqgc0","pricing_plan_id":"cebpf4jnsgd1na2vs0mg"},{"bike_id":"174d8361-5219-4672-9abf-2e756213df48","system_id":"levelo_inurba_marseille","lat":43.2798,"lon":5.41666,"is_reserved":false,"is_disabled":false,"rental_uris":{"android":"levelo://app?vid=174d8361-5219-4672-9abf-2e756213df48","ios":"levelo://app?vid=174d8361-5219-4672-9abf-2e756213df48"},"vehicle_type_id":"4","last_reported":1749492897,"current_range_meters":3200,"station_id":"ce4bho12rcd13ifvqh1g","pricing_plan_id":"cebpf4jnsgd1na2vs0mg"},{"bike_id":"c00a88fa-3bb2-4f8e-81c0-06b6f6a5b074","system_id":"levelo_inurba_marseille","lat":43.27812,"lon":5.38334,"is_reserved":false,"is_disabled":false,"rental_uris":{"android":"levelo://app?vid=c00a88fa-3bb2-4f8e-81c0-06b6f6a5b074","ios":"levelo://app?vid=c00a88fa-3bb2-4f8e-81c0-06b6f6a5b074"},"vehicle_type_id":"4","last_reported":1749492897,"current_range_meters":3600,"station_id":"ce4bhh92rcd13ifvqfi0","pricing_plan_id":"cebpf4jnsgd1na2vs0mg"},{"bike_id":"795029c3-61ab-4b1a-94a2-65ca03491da3","system_id":"levelo_inurba_marseille","lat":43.30145,"lon":5.38773,"is_reserved":false,"is_disabled":false,"rental_uris":{"android":"levelo://app?vid=795029c3-61ab-4b1a-94a2-65ca03491da3","ios":"levelo://app?vid=795029c3-61ab-4b1a-94a2-65ca03491da3"},"vehicle_type_id":"4","last_reported":1749492897,"current_range_meters":3600,"station_id":"ce4bghh2rcd13ifvqb60","pricing_plan_id":"cebpf4jnsgd1na2vs0mg"},{"bike_id":"12dfbc36-ad5f-42ab-a77e-d7f78e9faaa4","system_id":"levelo_inurba_marseille","lat":43.29066,"lon":5.37165,"is_reserved":false,"is_disabled":false,"rental_uris":{"android":"levelo://app?vid=12dfbc36-ad5f-42ab-a77e-d7f78e9faaa4","ios":"levelo://app?vid=12dfbc36-ad5f-42ab-a77e-d7f78e9faaa4"},"vehicle_type_id":"4","last_reported":1749492897,"current_range_meters":3600,"station_id":"ce4bh5p2rcd13ifvqe4g","pricing_plan_id":"cebpf4jnsgd1na2vs0mg"},{"bike_id":"6ea2d0ee-ca00-4a09-9a06-83b619723eaa","system_id":"levelo_inurba_marseille","lat":43.30593,"lon":5.39361,"is_reserved":false,"is_disabled":true,"rental_uris":{"android":"levelo://app?vid=6ea2d0ee-ca00-4a09-9a06-83b619723eaa","ios":"levelo://app?vid=6ea2d0ee-ca00-4a09-9a06-83b619723eaa"},"vehicle_type_id":"4","last_reported":1749492897,"current_range_meters":3600,"station_id":"ce4bh0p2rcd13ifvqd80","pricing_plan_id":"cebpf4jnsgd1na2vs0mg"},{"bike_id":"1ea4d901-280f-4050-a043-0b37afe86b03","system_id":"levelo_inurba_marseille","lat":43.2119,"lon":5.35077,"is_reserved":false,"is_disabled":false,"rental_uris":{"android":"levelo://app?vid=1ea4d901-280f-4050-a043-0b37afe86b03","ios":"levelo://app?vid=1ea4d901-280f-4050-a043-0b37afe86b03"},"vehicle_type_id":"4","last_reported":1749492897,"current_range_meters":3600,"station_id":"st_cvj6sg6p6f1abm77japg","pricing_plan_id":"cebpf4jnsgd1na2vs0mg"},{"bike_id":"f7d7cf59-11f0-4c0d-9e07-195527dafdeb","system_id":"levelo_inurba_marseille","lat":43.29569,"lon":5.39986,"is_reserved":false,"is_disabled":false,"rental_uris":{"android":"levelo://app?vid=f7d7cf59-11f0-4c0d-9e07-195527dafdeb","ios":"levelo://app?vid=f7d7cf59-11f0-4c0d-9e07-195527dafdeb"},"vehicle_type_id":"4","last_reported":1749492897,"current_range_meters":3600,"station_id":"ce4bh312rcd13ifvqdj0","pricing_plan_id":"cebpf4jnsgd1na2vs0mg"},{"bike_id":"edb37134-f8c4-4d47-a89d-93cf511a2fbc","system_id":"levelo_inurba_marseille","lat":43.29424,"lon":5.38611,"is_reserved":false,"is_disabled":true,"rental_uris":{"android":"levelo://app?vid=edb37134-f8c4-4d47-a89d-93cf511a2fbc","ios":"levelo://app?vid=edb37134-f8c4-4d47-a89d-93cf511a2fbc"},"vehicle_type_id":"4","last_reported":1749492897,"current_range_meters":3600,"station_id":"ce4bh2h2rcd13ifvqdh0","pricing_plan_id":"cebpf4jnsgd1na2vs0mg"},{"bike_id":"7a1bb590-5534-44ee-8c59-51a487d8a747","system_id":"levelo_inurba_marseille","lat":43.28966,"lon":5.37838,"is_reserved":false,"is_disabled":false,"rental_uris":{"android":"levelo://app?vid=7a1bb590-5534-44ee-8c59-51a487d8a747","ios":"levelo://app?vid=7a1bb590-5534-44ee-8c59-51a487d8a747"},"vehicle_type_id":"4","last_reported":1749492897,"current_range_meters":4000,"station_id":"ce4bh9p2rcd13ifvqed0","pricing_plan_id":"cebpf4jnsgd1na2vs0mg"},{"bike_id":"67d4735d-a812-4e55-90bc-5641f4e35931","system_id":"levelo_inurba_marseille","lat":43.211885,"lon":5.350692,"is_reserved":false,"is_disabled":false,"rental_uris":{"android":"levelo://app?vid=67d4735d-a812-4e55-90bc-5641f4e35931","ios":"levelo://app?vid=67d4735d-a812-4e55-90bc-5641f4e35931"},"vehicle_type_id":"4","last_reported":1749492897,"current_range_meters":4000,"station_id":"st_cvj6sg6p6f1abm77japg","pricing_plan_id":"cebpf4jnsgd1na2vs0mg"},{"bike_id":"0f485a98-36e5-4f87-aaa5-a4aed93a1b3d","system_id":"levelo_inurba_marseille","lat":43.29275,"lon":5.40122,"is_reserved":false,"is_disabled":false,"rental_uris":{"android":"levelo://app?vid=0f485a98-36e5-4f87-aaa5-a4aed93a1b3d","ios":"levelo://app?vid=0f485a98-36e5-4f87-aaa5-a4aed93a1b3d"},"vehicle_type_id":"4","last_reported":1749492897,"current_range_meters":4000,"station_id":"ce4bh312rcd13ifvqdk0","pricing_plan_id":"cebpf4jnsgd1na2vs0mg"},{"bike_id":"efa4d42b-0cca-4c3c-89ca-053210ba2ac3","system_id":"levelo_inurba_marseille","lat":43.32327,"lon":5.40626,"is_reserved":false,"is_disabled":false,"rental_uris":{"android":"levelo://app?vid=efa4d42b-0cca-4c3c-89ca-053210ba2ac3","ios":"levelo://app?vid=efa4d42b-0cca-4c3c-89ca-053210ba2ac3"},"vehicle_type_id":"4","last_reported":1749492897,"current_range_meters":4000,"station_id":"ce4bhq92rcd13ifvqhjg","pricing_plan_id":"cebpf4jnsgd1na2vs0mg"},{"bike_id":"a2d73be7-868a-4600-9834-af16b43b12ad","system_id":"levelo_inurba_marseille","lat":43.24475,"lon":5.42512,"is_reserved":false,"is_disabled":false,"rental_uris":{"android":"levelo://app?vid=a2d73be7-868a-4600-9834-af16b43b12ad","ios":"levelo://app?vid=a2d73be7-868a-4600-9834-af16b43b12ad"},"vehicle_type_id":"4","last_reported":1749492897,"current_range_meters":4400,"station_id":"","pricing_plan_id":"cebpf4jnsgd1na2vs0mg"},{"bike_id":"b30e20c3-91af-4187-ae4d-e2494ed6e0a2","system_id":"levelo_inurba_marseille","lat":43.285283,"lon":5.394526,"is_reserved":false,"is_disabled":false,"rental_uris":{"android":"levelo://app?vid=b30e20c3-91af-4187-ae4d-e2494ed6e0a2","ios":"levelo://app?vid=b30e20c3-91af-4187-ae4d-e2494ed6e0a2"},"vehicle_type_id":"4","last_reported":1749492897,"current_range_meters":4400,"station_id":"ce4bh292rcd13ifvqdg0","pricing_plan_id":"cebpf4jnsgd1na2vs0mg"},{"bike_id":"6ec66ee9-e846-467a-b3ed-66f9944d2b16","system_id":"levelo_inurba_marseille","lat":43.27613,"lon":5.36105,"is_reserved":false,"is_disabled":false,"rental_uris":{"android":"levelo://app?vid=6ec66ee9-e846-467a-b3ed-66f9944d2b16","ios":"levelo://app?vid=6ec66ee9-e846-467a-b3ed-66f9944d2b16"},"vehicle_type_id":"4","last_reported":1749492897,"current_range_meters":4400,"station_id":"ce4bgj92rcd13ifvqbe0","pricing_plan_id":"cebpf4jnsgd1na2vs0mg"},{"bike_id":"34a3906f-5cd9-468e-a003-43a16a0c0738","system_id":"levelo_inurba_marseille","lat":43.29961,"lon":5.38497,"is_reserved":false,"is_disabled":false,"rental_uris":{"android":"levelo://app?vid=34a3906f-5cd9-468e-a003-43a16a0c0738","ios":"levelo://app?vid=34a3906f-5cd9-468e-a003-43a16a0c0738"},"vehicle_type_id":"4","last_reported":1749492897,"current_range_meters":4800,"station_id":"ce4bgj92rcd13ifvqbd0","pricing_plan_id":"cebpf4jnsgd1na2vs0mg"},{"bike_id":"3740405a-2647-4804-bac9-7004c70779a2","system_id":"levelo_inurba_marseille","lat":43.28098,"lon":5.3783,"is_reserved":false,"is_disabled":false,"rental_uris":{"android":"levelo://app?vid=3740405a-2647-4804-bac9-7004c70779a2","ios":"levelo://app?vid=3740405a-2647-4804-bac9-7004c70779a2"},"vehicle_type_id":"4","last_reported":1749492897,"current_range_meters":4800,"station_id":"ce4bha12rcd13ifvqee0","pricing_plan_id":"cebpf4jnsgd1na2vs0mg"},{"bike_id":"433a68ef-d482-41d2-a100-9f955063725c","system_id":"levelo_inurba_marseille","lat":43.28156,"lon":5.42633,"is_reserved":false,"is_disabled":false,"rental_uris":{"android":"levelo://app?vid=433a68ef-d482-41d2-a100-9f955063725c","ios":"levelo://app?vid=433a68ef-d482-41d2-a100-9f955063725c"},"vehicle_type_id":"4","last_reported":1749492897,"current_range_meters":4800,"station_id":"ce4bhnh2rcd13ifvqgug","pricing_plan_id":"cebpf4jnsgd1na2vs0mg"},{"bike_id":"2df636c8-f86a-4e87-bcc8-328056f2d9ca","system_id":"levelo_inurba_marseille","lat":43.28568,"lon":5.39485,"is_reserved":false,"is_disabled":false,"rental_uris":{"android":"levelo://app?vid=2df636c8-f86a-4e87-bcc8-328056f2d9ca","ios":"levelo://app?vid=2df636c8-f86a-4e87-bcc8-328056f2d9ca"},"vehicle_type_id":"4","last_reported":1749492897,"current_range_meters":4800,"station_id":"ce4bh292rcd13ifvqdg0","pricing_plan_id":"cebpf4jnsgd1na2vs0mg"},{"bike_id":"c0d7a48f-a7e4-42a5-be09-f3f15d2a236b","system_id":"levelo_inurba_marseille","lat":43.28709,"lon":5.39986,"is_reserved":false,"is_disabled":false,"rental_uris":{"android":"levelo://app?vid=c0d7a48f-a7e4-42a5-be09-f3f15d2a236b","ios":"levelo://app?vid=c0d7a48f-a7e4-42a5-be09-f3f15d2a236b"},"vehicle_type_id":"4","last_reported":1749492897,"current_range_meters":4800,"station_id":"ce4bho92rcd13ifvqh3g","pricing_plan_id":"cebpf4jnsgd1na2vs0mg"},{"bike_id":"2ee95ae0-83a2-4f87-92e7-182763430c39","system_id":"levelo_inurba_marseille","lat":43.28659,"lon":5.36347,"is_reserved":false,"is_disabled":true,"rental_uris":{"android":"levelo://app?vid=2ee95ae0-83a2-4f87-92e7-182763430c39","ios":"levelo://app?vid=2ee95ae0-83a2-4f87-92e7-182763430c39"},"vehicle_type_id":"4","last_reported":1749492897,"current_range_meters":5600,"station_id":"ce4bhah2rcd13ifvqej0","pricing_plan_id":"cebpf4jnsgd1na2vs0mg"},{"bike_id":"cbba6660-5ceb-4fd4-90b6-45e232640b09","system_id":"levelo_inurba_marseille","lat":43.29889,"lon":5.38892,"is_reserved":false,"is_disabled":false,"rental_uris":{"android":"levelo://app?vid=cbba6660-5ceb-4fd4-90b6-45e232640b09","ios":"levelo://app?vid=cbba6660-5ceb-4fd4-90b6-45e232640b09"},"vehicle_type_id":"4","last_reported":1749492897,"current_range_meters":5600,"station_id":"ce4bh392rcd13ifvqdl0","pricing_plan_id":"cebpf4jnsgd1na2vs0mg"},{"bike_id":"3d8bb55b-08c0-4807-ba99-5bb255e64186","system_id":"levelo_inurba_marseille","lat":43.29908,"lon":5.38143,"is_reserved":false,"is_disabled":false,"rental_uris":{"android":"levelo://app?vid=3d8bb55b-08c0-4807-ba99-5bb255e64186","ios":"levelo://app?vid=3d8bb55b-08c0-4807-ba99-5bb255e64186"},"vehicle_type_id":"4","last_reported":1749492897,"current_range_meters":5600,"station_id":"ce4bgj12rcd13ifvqbc0","pricing_plan_id":"cebpf4jnsgd1na2vs0mg"},{"bike_id":"01cef6df-f0c3-411c-b655-4c78d48c812c","system_id":"levelo_inurba_marseille","lat":43.31176,"lon":5.38719,"is_reserved":false,"is_disabled":false,"rental_uris":{"android":"levelo://app?vid=01cef6df-f0c3-411c-b655-4c78d48c812c","ios":"levelo://app?vid=01cef6df-f0c3-411c-b655-4c78d48c812c"},"vehicle_type_id":"4","last_reported":1749492897,"current_range_meters":5600,"station_id":"ce4bgv12rcd13ifvqcp0","pricing_plan_id":"cebpf4jnsgd1na2vs0mg"},{"bike_id":"e13aa271-4ffb-46c4-9f5c-0bc5cf36f861","system_id":"levelo_inurba_marseille","lat":43.31324,"lon":5.39686,"is_reserved":false,"is_disabled":false,"rental_uris":{"android":"levelo://app?vid=e13aa271-4ffb-46c4-9f5c-0bc5cf36f861","ios":"levelo://app?vid=e13aa271-4ffb-46c4-9f5c-0bc5cf36f861"},"vehicle_type_id":"4","last_reported":1749492897,"current_range_meters":5600,"station_id":"ce4bgvp2rcd13ifvqcu0","pricing_plan_id":"cebpf4jnsgd1na2vs0mg"},{"bike_id":"a61242dd-8369-4520-9963-a504224e1a30","system_id":"levelo_inurba_marseille","lat":43.23139,"lon":5.4081,"is_reserved":false,"is_disabled":false,"rental_uris":{"android":"levelo://app?vid=a61242dd-8369-4520-9963-a504224e1a30","ios":"levelo://app?vid=a61242dd-8369-4520-9963-a504224e1a30"},"vehicle_type_id":"4","last_reported":1749492897,"current_range_meters":6000,"station_id":"","pricing_plan_id":"cebpf4jnsgd1na2vs0mg"},{"bike_id":"b5ae9a77-92a6-4dbb-bc76-f48cdaa60ebe","system_id":"levelo_inurba_marseille","lat":43.30116,"lon":5.38801,"is_reserved":false,"is_disabled":false,"rental_uris":{"android":"levelo://app?vid=b5ae9a77-92a6-4dbb-bc76-f48cdaa60ebe","ios":"levelo://app?vid=b5ae9a77-92a6-4dbb-bc76-f48cdaa60ebe"},"vehicle_type_id":"4","last_reported":1749492897,"current_range_meters":6000,"station_id":"ce4bghh2rcd13ifvqb60","pricing_plan_id":"cebpf4jnsgd1na2vs0mg"},{"bike_id":"4482bc6d-df43-43ee-8f76-85062f0e3ddb","system_id":"levelo_inurba_marseille","lat":43.28053,"lon":5.36952,"is_reserved":false,"is_disabled":false,"rental_uris":{"android":"levelo://app?vid=4482bc6d-df43-43ee-8f76-85062f0e3ddb","ios":"levelo://app?vid=4482bc6d-df43-43ee-8f76-85062f0e3ddb"},"vehicle_type_id":"4","last_reported":1749492897,"current_range_meters":6000,"station_id":"ce4bha12rcd13ifvqef0","pricing_plan_id":"cebpf4jnsgd1na2vs0mg"},{"bike_id":"78b669bf-0f2b-416d-9b6a-d4ea66aa92a1","system_id":"levelo_inurba_marseille","lat":43.29305,"lon":5.3717,"is_reserved":false,"is_disabled":false,"rental_uris":{"android":"levelo://app?vid=78b669bf-0f2b-416d-9b6a-d4ea66aa92a1","ios":"levelo://app?vid=78b669bf-0f2b-416d-9b6a-d4ea66aa92a1"},"vehicle_type_id":"4","last_reported":1749492897,"current_range_meters":6000,"station_id":"ce4bgh92rcd13ifvqb40","pricing_plan_id":"cebpf4jnsgd1na2vs0mg"},{"bike_id":"d682b59c-2a89-4c69-a9e8-d9a6a1aeb0cf","system_id":"levelo_inurba_marseille","lat":43.32368,"lon":5.38881,"is_reserved":false,"is_disabled":false,"rental_uris":{"android":"levelo://app?vid=d682b59c-2a89-4c69-a9e8-d9a6a1aeb0cf","ios":"levelo://app?vid=d682b59c-2a89-4c69-a9e8-d9a6a1aeb0cf"},"vehicle_type_id":"4","last_reported":1749492897,"current_range_meters":6000,"station_id":"ce4bhqp2rcd13ifvqhog","pricing_plan_id":"cebpf4jnsgd1na2vs0mg"},{"bike_id":"77fd0045-1097-4d68-ad5d-524a899f9be4","system_id":"levelo_inurba_marseille","lat":43.30549,"lon":5.36527,"is_reserved":false,"is_disabled":false,"rental_uris":{"android":"levelo://app?vid=77fd0045-1097-4d68-ad5d-524a899f9be4","ios":"levelo://app?vid=77fd0045-1097-4d68-ad5d-524a899f9be4"},"vehicle_type_id":"4","last_reported":1749492897,"current_range_meters":6000,"station_id":"ce4bgs12rcd13ifvqcag","pricing_plan_id":"cebpf4jnsgd1na2vs0mg"},{"bike_id":"ab17a6a7-ab75-4482-946b-1bbdbab601e9","system_id":"levelo_inurba_marseille","lat":43.33604,"lon":5.41031,"is_reserved":false,"is_disabled":false,"rental_uris":{"android":"levelo://app?vid=ab17a6a7-ab75-4482-946b-1bbdbab601e9","ios":"levelo://app?vid=ab17a6a7-ab75-4482-946b-1bbdbab601e9"},"vehicle_type_id":"4","last_reported":1749492897,"current_range_meters":6000,"station_id":"ce4bhqh2rcd13ifvqhmg","pricing_plan_id":"cebpf4jnsgd1na2vs0mg"},{"bike_id":"df468be2-9497-45fa-bda5-cca7434771dd","system_id":"levelo_inurba_marseille","lat":43.28849,"lon":5.35856,"is_reserved":false,"is_disabled":false,"rental_uris":{"android":"levelo://app?vid=df468be2-9497-45fa-bda5-cca7434771dd","ios":"levelo://app?vid=df468be2-9497-45fa-bda5-cca7434771dd"},"vehicle_type_id":"4","last_reported":1749492897,"current_range_meters":6400,"station_id":"ce4bhb12rcd13ifvqem0","pricing_plan_id":"cebpf4jnsgd1na2vs0mg"},{"bike_id":"994fbbd1-7b7a-4973-8b72-780a5cbeda75","system_id":"levelo_inurba_marseille","lat":43.28971,"lon":5.37873,"is_reserved":false,"is_disabled":true,"rental_uris":{"android":"levelo://app?vid=994fbbd1-7b7a-4973-8b72-780a5cbeda75","ios":"levelo://app?vid=994fbbd1-7b7a-4973-8b72-780a5cbeda75"},"vehicle_type_id":"4","last_reported":1749492897,"current_range_meters":6400,"station_id":"ce4bh9p2rcd13ifvqed0","pricing_plan_id":"cebpf4jnsgd1na2vs0mg"},{"bike_id":"27014726-3376-4321-8ab5-b353da2d270a","system_id":"levelo_inurba_marseille","lat":43.28696,"lon":5.37385,"is_reserved":false,"is_disabled":false,"rental_uris":{"android":"levelo://app?vid=27014726-3376-4321-8ab5-b353da2d270a","ios":"levelo://app?vid=27014726-3376-4321-8ab5-b353da2d270a"},"vehicle_type_id":"4","last_reported":1749492897,"current_range_meters":6400,"station_id":"ce4bh3p2rcd13ifvqdq0","pricing_plan_id":"cebpf4jnsgd1na2vs0mg"},{"bike_id":"84351d3d-7144-4da1-a310-4760967578db","system_id":"levelo_inurba_marseille","lat":43.29254,"lon":5.40902,"is_reserved":false,"is_disabled":false,"rental_uris":{"android":"levelo://app?vid=84351d3d-7144-4da1-a310-4760967578db","ios":"levelo://app?vid=84351d3d-7144-4da1-a310-4760967578db"},"vehicle_type_id":"4","last_reported":1749492897,"current_range_meters":6400,"station_id":"ce4bh192rcd13ifvqdc0","pricing_plan_id":"cebpf4jnsgd1na2vs0mg"},{"bike_id":"5cab8021-47c8-4131-a2c2-7572304f54a4","system_id":"levelo_inurba_marseille","lat":43.28273,"lon":5.35052,"is_reserved":false,"is_disabled":true,"rental_uris":{"android":"levelo://app?vid=5cab8021-47c8-4131-a2c2-7572304f54a4","ios":"levelo://app?vid=5cab8021-47c8-4131-a2c2-7572304f54a4"},"vehicle_type_id":"4","last_reported":1749492897,"current_range_meters":6800,"station_id":"ce4bhbp2rcd13ifvqerg","pricing_plan_id":"cebpf4jnsgd1na2vs0mg"},{"bike_id":"f4a3bae8-06a5-4948-94fa-ab6b0ea8d161","system_id":"levelo_inurba_marseille","lat":43.27992,"lon":5.40031,"is_reserved":false,"is_disabled":false,"rental_uris":{"android":"levelo://app?vid=f4a3bae8-06a5-4948-94fa-ab6b0ea8d161","ios":"levelo://app?vid=f4a3bae8-06a5-4948-94fa-ab6b0ea8d161"},"vehicle_type_id":"4","last_reported":1749492897,"current_range_meters":6800,"station_id":"ce4bho92rcd13ifvqh4g","pricing_plan_id":"cebpf4jnsgd1na2vs0mg"},{"bike_id":"46ad0958-a2d7-473e-8aeb-a02bfd147679","system_id":"levelo_inurba_marseille","lat":43.2396,"lon":5.36623,"is_reserved":false,"is_disabled":true,"rental_uris":{"android":"levelo://app?vid=46ad0958-a2d7-473e-8aeb-a02bfd147679","ios":"levelo://app?vid=46ad0958-a2d7-473e-8aeb-a02bfd147679"},"vehicle_type_id":"4","last_reported":1749492897,"current_range_meters":6800,"station_id":"ce4bhi12rcd13ifvqfp0","pricing_plan_id":"cebpf4jnsgd1na2vs0mg"},{"bike_id":"0f2ef367-6f32-422e-949c-03f2c9b2e932","system_id":"levelo_inurba_marseille","lat":43.28732,"lon":5.36073,"is_reserved":false,"is_disabled":false,"rental_uris":{"android":"levelo://app?vid=0f2ef367-6f32-422e-949c-03f2c9b2e932","ios":"levelo://app?vid=0f2ef367-6f32-422e-949c-03f2c9b2e932"},"vehicle_type_id":"4","last_reported":1749492897,"current_range_meters":6800,"station_id":"cki0cbj6b192h4jlfktg","pricing_plan_id":"cebpf4jnsgd1na2vs0mg"},{"bike_id":"6e0393fe-edb6-4f43-83ae-b7d813017c7e","system_id":"levelo_inurba_marseille","lat":43.28037,"lon":5.36941,"is_reserved":false,"is_disabled":false,"rental_uris":{"android":"levelo://app?vid=6e0393fe-edb6-4f43-83ae-b7d813017c7e","ios":"levelo://app?vid=6e0393fe-edb6-4f43-83ae-b7d813017c7e"},"vehicle_type_id":"4","last_reported":1749492897,"current_range_meters":6800,"station_id":"ce4bha12rcd13ifvqef0","pricing_plan_id":"cebpf4jnsgd1na2vs0mg"},{"bike_id":"a34aa760-19cf-4750-9133-b676aeeef362","system_id":"levelo_inurba_marseille","lat":43.29523,"lon":5.37512,"is_reserved":false,"is_disabled":true,"rental_uris":{"android":"levelo://app?vid=a34aa760-19cf-4750-9133-b676aeeef362","ios":"levelo://app?vid=a34aa760-19cf-4750-9133-b676aeeef362"},"vehicle_type_id":"4","last_reported":1749492897,"current_range_meters":7200,"station_id":"ce4bgkp2rcd13ifvqbmg","pricing_plan_id":"cebpf4jnsgd1na2vs0mg"},{"bike_id":"26b898cc-11a0-4c85-a890-8a9bb099fecf","system_id":"levelo_inurba_marseille","lat":43.322873,"lon":5.382686,"is_reserved":false,"is_disabled":false,"rental_uris":{"android":"levelo://app?vid=26b898cc-11a0-4c85-a890-8a9bb099fecf","ios":"levelo://app?vid=26b898cc-11a0-4c85-a890-8a9bb099fecf"},"vehicle_type_id":"4","last_reported":1749492897,"current_range_meters":7200,"station_id":"ce4bhr12rcd13ifvqhqg","pricing_plan_id":"cebpf4jnsgd1na2vs0mg"},{"bike_id":"f9e022f9-eeaf-409f-8151-5bd4d9a3de14","system_id":"levelo_inurba_marseille","lat":43.31356,"lon":5.38495,"is_reserved":false,"is_disabled":false,"rental_uris":{"android":"levelo://app?vid=f9e022f9-eeaf-409f-8151-5bd4d9a3de14","ios":"levelo://app?vid=f9e022f9-eeaf-409f-8151-5bd4d9a3de14"},"vehicle_type_id":"4","last_reported":1749492897,"current_range_meters":7200,"station_id":"ce4bgt92rcd13ifvqcf0","pricing_plan_id":"cebpf4jnsgd1na2vs0mg"},{"bike_id":"31ff44e2-f459-4743-b25e-00a05f1d877e","system_id":"levelo_inurba_marseille","lat":43.30593,"lon":5.39356,"is_reserved":false,"is_disabled":false,"rental_uris":{"android":"levelo://app?vid=31ff44e2-f459-4743-b25e-00a05f1d877e","ios":"levelo://app?vid=31ff44e2-f459-4743-b25e-00a05f1d877e"},"vehicle_type_id":"4","last_reported":1749492897,"current_range_meters":7200,"station_id":"ce4bh0p2rcd13ifvqd80","pricing_plan_id":"cebpf4jnsgd1na2vs0mg"},{"bike_id":"de0e9c53-4347-40f5-aad3-5b5b2c7913a6","system_id":"levelo_inurba_marseille","lat":43.29088,"lon":5.38131,"is_reserved":false,"is_disabled":false,"rental_uris":{"android":"levelo://app?vid=de0e9c53-4347-40f5-aad3-5b5b2c7913a6","ios":"levelo://app?vid=de0e9c53-4347-40f5-aad3-5b5b2c7913a6"},"vehicle_type_id":"4","last_reported":1749492897,"current_range_meters":8000,"station_id":"ce4bh512rcd13ifvqe2g","pricing_plan_id":"cebpf4jnsgd1na2vs0mg"},{"bike_id":"781bcf50-52ca-4350-bf0f-8071b3b2b128","system_id":"levelo_inurba_marseille","lat":43.29922,"lon":5.43684,"is_reserved":false,"is_disabled":false,"rental_uris":{"android":"levelo://app?vid=781bcf50-52ca-4350-bf0f-8071b3b2b128","ios":"levelo://app?vid=781bcf50-52ca-4350-bf0f-8071b3b2b128"},"vehicle_type_id":"4","last_reported":1749492897,"current_range_meters":8000,"station_id":"","pricing_plan_id":"cebpf4jnsgd1na2vs0mg"},{"bike_id":"11d99533-1239-4522-b0b5-f8a3bff696e7","system_id":"levelo_inurba_marseille","lat":43.30169,"lon":5.42423,"is_reserved":false,"is_disabled":false,"rental_uris":{"android":"levelo://app?vid=11d99533-1239-4522-b0b5-f8a3bff696e7","ios":"levelo://app?vid=11d99533-1239-4522-b0b5-f8a3bff696e7"},"vehicle_type_id":"4","last_reported":1749492897,"current_range_meters":8400,"station_id":"","pricing_plan_id":"cebpf4jnsgd1na2vs0mg"},{"bike_id":"9ab5dcb2-22af-49e2-b2c1-32117ad578dc","system_id":"levelo_inurba_marseille","lat":43.29516,"lon":5.42561,"is_reserved":false,"is_disabled":false,"rental_uris":{"android":"levelo://app?vid=9ab5dcb2-22af-49e2-b2c1-32117ad578dc","ios":"levelo://app?vid=9ab5dcb2-22af-49e2-b2c1-32117ad578dc"},"vehicle_type_id":"4","last_reported":1749492897,"current_range_meters":8400,"station_id":"","pricing_plan_id":"cebpf4jnsgd1na2vs0mg"},{"bike_id":"8b4caff4-6ee7-47a5-a64f-5ccaa83c132f","system_id":"levelo_inurba_marseille","lat":43.295357,"lon":5.42516,"is_reserved":false,"is_disabled":false,"rental_uris":{"android":"levelo://app?vid=8b4caff4-6ee7-47a5-a64f-5ccaa83c132f","ios":"levelo://app?vid=8b4caff4-6ee7-47a5-a64f-5ccaa83c132f"},"vehicle_type_id":"4","last_reported":1749492897,"current_range_meters":8400,"station_id":"","pricing_plan_id":"cebpf4jnsgd1na2vs0mg"},{"bike_id":"30c4daaa-0c39-4052-9849-bb80b594dd5e","system_id":"levelo_inurba_marseille","lat":43.29784,"lon":5.38108,"is_reserved":false,"is_disabled":false,"rental_uris":{"android":"levelo://app?vid=30c4daaa-0c39-4052-9849-bb80b594dd5e","ios":"levelo://app?vid=30c4daaa-0c39-4052-9849-bb80b594dd5e"},"vehicle_type_id":"4","last_reported":1749492897,"current_range_meters":8400,"station_id":"ce4bgip2rcd13ifvqbb0","pricing_plan_id":"cebpf4jnsgd1na2vs0mg"},{"bike_id":"9d073130-46db-46c4-affb-6564e2de5a50","system_id":"levelo_inurba_marseille","lat":43.32375,"lon":5.388115,"is_reserved":false,"is_disabled":false,"rental_uris":{"android":"levelo://app?vid=9d073130-46db-46c4-affb-6564e2de5a50","ios":"levelo://app?vid=9d073130-46db-46c4-affb-6564e2de5a50"},"vehicle_type_id":"4","last_reported":1749492897,"current_range_meters":8400,"station_id":"","pricing_plan_id":"cebpf4jnsgd1na2vs0mg"},{"bike_id":"63a3d702-26a2-4b2a-9572-153a439049bb","system_id":"levelo_inurba_marseille","lat":43.30135,"lon":5.39857,"is_reserved":false,"is_disabled":false,"rental_uris":{"android":"levelo://app?vid=63a3d702-26a2-4b2a-9572-153a439049bb","ios":"levelo://app?vid=63a3d702-26a2-4b2a-9572-153a439049bb"},"vehicle_type_id":"4","last_reported":1749492897,"current_range_meters":8400,"station_id":"ce4bh0h2rcd13ifvqd40","pricing_plan_id":"cebpf4jnsgd1na2vs0mg"},{"bike_id":"8990c0d6-b765-466a-beee-1a9dd63c2409","system_id":"levelo_inurba_marseille","lat":43.29249,"lon":5.4092,"is_reserved":false,"is_disabled":false,"rental_uris":{"android":"levelo://app?vid=8990c0d6-b765-466a-beee-1a9dd63c2409","ios":"levelo://app?vid=8990c0d6-b765-466a-beee-1a9dd63c2409"},"vehicle_type_id":"4","last_reported":1749492897,"current_range_meters":8400,"station_id":"ce4bh192rcd13ifvqdc0","pricing_plan_id":"cebpf4jnsgd1na2vs0mg"},{"bike_id":"89e61be4-479c-4cec-a748-e4051ae578a2","system_id":"levelo_inurba_marseille","lat":43.323665,"lon":5.388828,"is_reserved":false,"is_disabled":false,"rental_uris":{"android":"levelo://app?vid=89e61be4-479c-4cec-a748-e4051ae578a2","ios":"levelo://app?vid=89e61be4-479c-4cec-a748-e4051ae578a2"},"vehicle_type_id":"4","last_reported":1749492897,"current_range_meters":8400,"station_id":"ce4bhqp2rcd13ifvqhog","pricing_plan_id":"cebpf4jnsgd1na2vs0mg"},{"bike_id":"7eedcc0e-33d2-492d-876b-2852803d9891","system_id":"levelo_inurba_marseille","lat":43.26491,"lon":5.392397,"is_reserved":false,"is_disabled":false,"rental_uris":{"android":"levelo://app?vid=7eedcc0e-33d2-492d-876b-2852803d9891","ios":"levelo://app?vid=7eedcc0e-33d2-492d-876b-2852803d9891"},"vehicle_type_id":"4","last_reported":1749492897,"current_range_meters":8400,"station_id":"","pricing_plan_id":"cebpf4jnsgd1na2vs0mg"},{"bike_id":"3bb87db6-8022-418f-a4aa-7c455834f81e","system_id":"levelo_inurba_marseille","lat":43.235736,"lon":5.379126,"is_reserved":false,"is_disabled":false,"rental_uris":{"android":"levelo://app?vid=3bb87db6-8022-418f-a4aa-7c455834f81e","ios":"levelo://app?vid=3bb87db6-8022-418f-a4aa-7c455834f81e"},"vehicle_type_id":"4","last_reported":1749492897,"current_range_meters":8800,"station_id":"","pricing_plan_id":"cebpf4jnsgd1na2vs0mg"},{"bike_id":"550a5ece-f81c-4b30-ac5c-1b8343f8e0ae","system_id":"levelo_inurba_marseille","lat":43.29616,"lon":5.37726,"is_reserved":false,"is_disabled":false,"rental_uris":{"android":"levelo://app?vid=550a5ece-f81c-4b30-ac5c-1b8343f8e0ae","ios":"levelo://app?vid=550a5ece-f81c-4b30-ac5c-1b8343f8e0ae"},"vehicle_type_id":"4","last_reported":1749492897,"current_range_meters":8800,"station_id":"ce4bgi92rcd13ifvqb90","pricing_plan_id":"cebpf4jnsgd1na2vs0mg"},{"bike_id":"5478c1b4-4c7d-476f-b8e4-102490ff70cd","system_id":"levelo_inurba_marseille","lat":43.31938,"lon":5.37307,"is_reserved":false,"is_disabled":false,"rental_uris":{"android":"levelo://app?vid=5478c1b4-4c7d-476f-b8e4-102490ff70cd","ios":"levelo://app?vid=5478c1b4-4c7d-476f-b8e4-102490ff70cd"},"vehicle_type_id":"4","last_reported":1749492897,"current_range_meters":8800,"station_id":"","pricing_plan_id":"cebpf4jnsgd1na2vs0mg"},{"bike_id":"dd67f108-95bf-4a1e-b619-4bb77e009c5b","system_id":"levelo_inurba_marseille","lat":43.290403,"lon":5.427793,"is_reserved":false,"is_disabled":false,"rental_uris":{"android":"levelo://app?vid=dd67f108-95bf-4a1e-b619-4bb77e009c5b","ios":"levelo://app?vid=dd67f108-95bf-4a1e-b619-4bb77e009c5b"},"vehicle_type_id":"4","last_reported":1749492897,"current_range_meters":8800,"station_id":"","pricing_plan_id":"cebpf4jnsgd1na2vs0mg"},{"bike_id":"3dea0788-427c-4800-bb1a-9ab4e14d7b62","system_id":"levelo_inurba_marseille","lat":43.32317,"lon":5.40624,"is_reserved":false,"is_disabled":false,"rental_uris":{"android":"levelo://app?vid=3dea0788-427c-4800-bb1a-9ab4e14d7b62","ios":"levelo://app?vid=3dea0788-427c-4800-bb1a-9ab4e14d7b62"},"vehicle_type_id":"4","last_reported":1749492897,"current_range_meters":8800,"station_id":"ce4bhq92rcd13ifvqhjg","pricing_plan_id":"cebpf4jnsgd1na2vs0mg"},{"bike_id":"ee7a2e6a-3e65-41f6-b8b3-501fb42682dc","system_id":"levelo_inurba_marseille","lat":43.27587,"lon":5.38394,"is_reserved":false,"is_disabled":true,"rental_uris":{"android":"levelo://app?vid=ee7a2e6a-3e65-41f6-b8b3-501fb42682dc","ios":"levelo://app?vid=ee7a2e6a-3e65-41f6-b8b3-501fb42682dc"},"vehicle_type_id":"4","last_reported":1749492897,"current_range_meters":8800,"station_id":"ce4bhh92rcd13ifvqfi0","pricing_plan_id":"cebpf4jnsgd1na2vs0mg"},{"bike_id":"39cdf7ed-89dc-4de2-aafe-6c9905ce3698","system_id":"levelo_inurba_marseille","lat":43.29785,"lon":5.3677,"is_reserved":false,"is_disabled":false,"rental_uris":{"android":"levelo://app?vid=39cdf7ed-89dc-4de2-aafe-6c9905ce3698","ios":"levelo://app?vid=39cdf7ed-89dc-4de2-aafe-6c9905ce3698"},"vehicle_type_id":"4","last_reported":1749492897,"current_range_meters":9200,"station_id":"","pricing_plan_id":"cebpf4jnsgd1na2vs0mg"},{"bike_id":"164919ed-6ce0-4c17-990d-139a643280f6","system_id":"levelo_inurba_marseille","lat":43.292357,"lon":5.392833,"is_reserved":false,"is_disabled":false,"rental_uris":{"android":"levelo://app?vid=164919ed-6ce0-4c17-990d-139a643280f6","ios":"levelo://app?vid=164919ed-6ce0-4c17-990d-139a643280f6"},"vehicle_type_id":"4","last_reported":1749492897,"current_range_meters":9200,"station_id":"ce4bh192rcd13ifvqdd0","pricing_plan_id":"cebpf4jnsgd1na2vs0mg"},{"bike_id":"2efc6d52-62af-49d2-8160-c4325da543cc","system_id":"levelo_inurba_marseille","lat":43.295331,"lon":5.385448,"is_reserved":false,"is_disabled":false,"rental_uris":{"android":"levelo://app?vid=2efc6d52-62af-49d2-8160-c4325da543cc","ios":"levelo://app?vid=2efc6d52-62af-49d2-8160-c4325da543cc"},"vehicle_type_id":"4","last_reported":1749492897,"current_range_meters":9200,"station_id":"ce4bgih2rcd13ifvqba0","pricing_plan_id":"cebpf4jnsgd1na2vs0mg"},{"bike_id":"2b74abfb-1262-40a3-bda3-f22e67504377","system_id":"levelo_inurba_marseille","lat":43.30445,"lon":5.36879,"is_reserved":false,"is_disabled":false,"rental_uris":{"android":"levelo://app?vid=2b74abfb-1262-40a3-bda3-f22e67504377","ios":"levelo://app?vid=2b74abfb-1262-40a3-bda3-f22e67504377"},"vehicle_type_id":"4","last_reported":1749492897,"current_range_meters":9200,"station_id":"","pricing_plan_id":"cebpf4jnsgd1na2vs0mg"},{"bike_id":"1b24bf28-13e9-4510-a3d9-036905bea2ea","system_id":"levelo_inurba_marseille","lat":43.29284,"lon":5.40119,"is_reserved":false,"is_disabled":false,"rental_uris":{"android":"levelo://app?vid=1b24bf28-13e9-4510-a3d9-036905bea2ea","ios":"levelo://app?vid=1b24bf28-13e9-4510-a3d9-036905bea2ea"},"vehicle_type_id":"4","last_reported":1749492897,"current_range_meters":9200,"station_id":"ce4bh312rcd13ifvqdk0","pricing_plan_id":"cebpf4jnsgd1na2vs0mg"},{"bike_id":"cb990818-444e-4c31-908c-0ac881770dbf","system_id":"levelo_inurba_marseille","lat":43.33143,"lon":5.3824,"is_reserved":false,"is_disabled":false,"rental_uris":{"android":"levelo://app?vid=cb990818-444e-4c31-908c-0ac881770dbf","ios":"levelo://app?vid=cb990818-444e-4c31-908c-0ac881770dbf"},"vehicle_type_id":"4","last_reported":1749492897,"current_range_meters":9200,"station_id":"","pricing_plan_id":"cebpf4jnsgd1na2vs0mg"},{"bike_id":"e343ad49-ca8b-453e-a90d-8567237bb920","system_id":"levelo_inurba_marseille","lat":43.29873,"lon":5.39731,"is_reserved":false,"is_disabled":false,"rental_uris":{"android":"levelo://app?vid=e343ad49-ca8b-453e-a90d-8567237bb920","ios":"levelo://app?vid=e343ad49-ca8b-453e-a90d-8567237bb920"},"vehicle_type_id":"4","last_reported":1749492897,"current_range_meters":9200,"station_id":"ce4bh0h2rcd13ifvqd50","pricing_plan_id":"cebpf4jnsgd1na2vs0mg"},{"bike_id":"7101e620-cc76-4028-b91a-a52aa997ec1d","system_id":"levelo_inurba_marseille","lat":43.30637,"lon":5.37346,"is_reserved":false,"is_disabled":false,"rental_uris":{"android":"levelo://app?vid=7101e620-cc76-4028-b91a-a52aa997ec1d","ios":"levelo://app?vid=7101e620-cc76-4028-b91a-a52aa997ec1d"},"vehicle_type_id":"4","last_reported":1749492897,"current_range_meters":9200,"station_id":"","pricing_plan_id":"cebpf4jnsgd1na2vs0mg"},{"bike_id":"25a253ad-7ee7-4c2e-bab0-87a81f95e00c","system_id":"levelo_inurba_marseille","lat":43.28418,"lon":5.35005,"is_reserved":false,"is_disabled":true,"rental_uris":{"android":"levelo://app?vid=25a253ad-7ee7-4c2e-bab0-87a81f95e00c","ios":"levelo://app?vid=25a253ad-7ee7-4c2e-bab0-87a81f95e00c"},"vehicle_type_id":"4","last_reported":1749492897,"current_range_meters":9600,"station_id":"ce4bhbh2rcd13ifvqepg","pricing_plan_id":"cebpf4jnsgd1na2vs0mg"},{"bike_id":"b6285f6b-e9e7-470d-9b6d-1afe99ab71bf","system_id":"levelo_inurba_marseille","lat":43.26186,"lon":5.42066,"is_reserved":false,"is_disabled":false,"rental_uris":{"android":"levelo://app?vid=b6285f6b-e9e7-470d-9b6d-1afe99ab71bf","ios":"levelo://app?vid=b6285f6b-e9e7-470d-9b6d-1afe99ab71bf"},"vehicle_type_id":"4","last_reported":1749492897,"current_range_meters":9600,"station_id":"","pricing_plan_id":"cebpf4jnsgd1na2vs0mg"},{"bike_id":"225d6a06-1905-40c7-8338-e8ce391b2d84","system_id":"levelo_inurba_marseille","lat":43.23178,"lon":5.39991,"is_reserved":false,"is_disabled":false,"rental_uris":{"android":"levelo://app?vid=225d6a06-1905-40c7-8338-e8ce391b2d84","ios":"levelo://app?vid=225d6a06-1905-40c7-8338-e8ce391b2d84"},"vehicle_type_id":"4","last_reported":1749492897,"current_range_meters":9600,"station_id":"ce4bhn12rcd13ifvqgqg","pricing_plan_id":"cebpf4jnsgd1na2vs0mg"},{"bike_id":"6ec3047c-5030-4518-b445-38ca3527de8a","system_id":"levelo_inurba_marseille","lat":43.3136,"lon":5.38487,"is_reserved":false,"is_disabled":false,"rental_uris":{"android":"levelo://app?vid=6ec3047c-5030-4518-b445-38ca3527de8a","ios":"levelo://app?vid=6ec3047c-5030-4518-b445-38ca3527de8a"},"vehicle_type_id":"4","last_reported":1749492897,"current_range_meters":9600,"station_id":"ce4bgt92rcd13ifvqcf0","pricing_plan_id":"cebpf4jnsgd1na2vs0mg"},{"bike_id":"0831ccca-512c-4e05-948b-03ca62e8d765","system_id":"levelo_inurba_marseille","lat":43.29534,"lon":5.38539,"is_reserved":false,"is_disabled":false,"rental_uris":{"android":"levelo://app?vid=0831ccca-512c-4e05-948b-03ca62e8d765","ios":"levelo://app?vid=0831ccca-512c-4e05-948b-03ca62e8d765"},"vehicle_type_id":"4","last_reported":1749492897,"current_range_meters":9600,"station_id":"ce4bgih2rcd13ifvqba0","pricing_plan_id":"cebpf4jnsgd1na2vs0mg"},{"bike_id":"706ee846-b96b-41b3-892f-aa3930b8a164","system_id":"levelo_inurba_marseille","lat":43.29621,"lon":5.37167,"is_reserved":false,"is_disabled":false,"rental_uris":{"android":"levelo://app?vid=706ee846-b96b-41b3-892f-aa3930b8a164","ios":"levelo://app?vid=706ee846-b96b-41b3-892f-aa3930b8a164"},"vehicle_type_id":"4","last_reported":1749492897,"current_range_meters":9600,"station_id":"ce4bgnh2rcd13ifvqc0g","pricing_plan_id":"cebpf4jnsgd1na2vs0mg"},{"bike_id":"83ab303c-c8f5-496f-a396-9f9d2cb59352","system_id":"levelo_inurba_marseille","lat":43.2797,"lon":5.38737,"is_reserved":false,"is_disabled":false,"rental_uris":{"android":"levelo://app?vid=83ab303c-c8f5-496f-a396-9f9d2cb59352","ios":"levelo://app?vid=83ab303c-c8f5-496f-a396-9f9d2cb59352"},"vehicle_type_id":"4","last_reported":1749492897,"current_range_meters":10000,"station_id":"ce4bhg12rcd13ifvqf80","pricing_plan_id":"cebpf4jnsgd1na2vs0mg"},{"bike_id":"7b1a23e4-2a0f-4dda-84d1-7608a173fa4b","system_id":"levelo_inurba_marseille","lat":43.29287,"lon":5.36835,"is_reserved":false,"is_disabled":false,"rental_uris":{"android":"levelo://app?vid=7b1a23e4-2a0f-4dda-84d1-7608a173fa4b","ios":"levelo://app?vid=7b1a23e4-2a0f-4dda-84d1-7608a173fa4b"},"vehicle_type_id":"4","last_reported":1749492897,"current_range_meters":10000,"station_id":"ce4bhbp2rcd13ifvqesg","pricing_plan_id":"cebpf4jnsgd1na2vs0mg"},{"bike_id":"df6e19e4-95d9-41bd-a26c-7e815c305fc0","system_id":"levelo_inurba_marseille","lat":43.29534,"lon":5.39391,"is_reserved":false,"is_disabled":false,"rental_uris":{"android":"levelo://app?vid=df6e19e4-95d9-41bd-a26c-7e815c305fc0","ios":"levelo://app?vid=df6e19e4-95d9-41bd-a26c-7e815c305fc0"},"vehicle_type_id":"4","last_reported":1749492897,"current_range_meters":10000,"station_id":"ce4bh292rcd13ifvqdf0","pricing_plan_id":"cebpf4jnsgd1na2vs0mg"},{"bike_id":"a8fcb642-c8d4-48b7-bc7d-d92da8830f3d","system_id":"levelo_inurba_marseille","lat":43.29984,"lon":5.37176,"is_reserved":false,"is_disabled":true,"rental_uris":{"android":"levelo://app?vid=a8fcb642-c8d4-48b7-bc7d-d92da8830f3d","ios":"levelo://app?vid=a8fcb642-c8d4-48b7-bc7d-d92da8830f3d"},"vehicle_type_id":"4","last_reported":1749492897,"current_range_meters":10000,"station_id":"ce4bgr92rcd13ifvqc7g","pricing_plan_id":"cebpf4jnsgd1na2vs0mg"},{"bike_id":"7a286b17-17df-491a-a381-1330c2f7a715","system_id":"levelo_inurba_marseille","lat":43.29895,"lon":5.43669,"is_reserved":false,"is_disabled":false,"rental_uris":{"android":"levelo://app?vid=7a286b17-17df-491a-a381-1330c2f7a715","ios":"levelo://app?vid=7a286b17-17df-491a-a381-1330c2f7a715"},"vehicle_type_id":"4","last_reported":1749492897,"current_range_meters":10000,"station_id":"ce4bhpp2rcd13ifvqhfg","pricing_plan_id":"cebpf4jnsgd1na2vs0mg"},{"bike_id":"c93413aa-68e8-4d5e-812e-497e6c9a2b3e","system_id":"levelo_inurba_marseille","lat":43.27616,"lon":5.36108,"is_reserved":false,"is_disabled":false,"rental_uris":{"android":"levelo://app?vid=c93413aa-68e8-4d5e-812e-497e6c9a2b3e","ios":"levelo://app?vid=c93413aa-68e8-4d5e-812e-497e6c9a2b3e"},"vehicle_type_id":"4","last_reported":1749492897,"current_range_meters":10000,"station_id":"ce4bgj92rcd13ifvqbe0","pricing_plan_id":"cebpf4jnsgd1na2vs0mg"},{"bike_id":"9ae15a98-537a-48a6-aff8-047898908bb4","system_id":"levelo_inurba_marseille","lat":43.2844,"lon":5.34983,"is_reserved":false,"is_disabled":false,"rental_uris":{"android":"levelo://app?vid=9ae15a98-537a-48a6-aff8-047898908bb4","ios":"levelo://app?vid=9ae15a98-537a-48a6-aff8-047898908bb4"},"vehicle_type_id":"4","last_reported":1749492897,"current_range_meters":8400,"station_id":"ce4bhbh2rcd13ifvqepg","pricing_plan_id":"cebpf4jnsgd1na2vs0mg"},{"bike_id":"95d79e5e-4056-477e-b85c-600348f5cea7","system_id":"levelo_inurba_marseille","lat":43.29594,"lon":5.3749,"is_reserved":false,"is_disabled":false,"rental_uris":{"android":"levelo://app?vid=95d79e5e-4056-477e-b85c-600348f5cea7","ios":"levelo://app?vid=95d79e5e-4056-477e-b85c-600348f5cea7"},"vehicle_type_id":"4","last_reported":1749492897,"current_range_meters":10000,"station_id":"ce4bgh92rcd13ifvqb50","pricing_plan_id":"cebpf4jnsgd1na2vs0mg"},{"bike_id":"da14da1f-7442-42b5-98f6-365f4fbd4c56","system_id":"levelo_inurba_marseille","lat":43.31866,"lon":5.38702,"is_reserved":false,"is_disabled":false,"rental_uris":{"android":"levelo://app?vid=da14da1f-7442-42b5-98f6-365f4fbd4c56","ios":"levelo://app?vid=da14da1f-7442-42b5-98f6-365f4fbd4c56"},"vehicle_type_id":"4","last_reported":1749492897,"current_range_meters":10000,"station_id":"","pricing_plan_id":"cebpf4jnsgd1na2vs0mg"},{"bike_id":"c9391fcd-4e6b-4ac0-a32a-c0b3dc828387","system_id":"levelo_inurba_marseille","lat":43.29795,"lon":5.38085,"is_reserved":false,"is_disabled":false,"rental_uris":{"android":"levelo://app?vid=c9391fcd-4e6b-4ac0-a32a-c0b3dc828387","ios":"levelo://app?vid=c9391fcd-4e6b-4ac0-a32a-c0b3dc828387"},"vehicle_type_id":"4","last_reported":1749492897,"current_range_meters":10000,"station_id":"ce4bgip2rcd13ifvqbb0","pricing_plan_id":"cebpf4jnsgd1na2vs0mg"},{"bike_id":"e87eb276-2073-4331-8306-167a14e1326b","system_id":"levelo_inurba_marseille","lat":43.30123,"lon":5.39867,"is_reserved":false,"is_disabled":false,"rental_uris":{"android":"levelo://app?vid=e87eb276-2073-4331-8306-167a14e1326b","ios":"levelo://app?vid=e87eb276-2073-4331-8306-167a14e1326b"},"vehicle_type_id":"4","last_reported":1749492897,"current_range_meters":10000,"station_id":"ce4bh0h2rcd13ifvqd40","pricing_plan_id":"cebpf4jnsgd1na2vs0mg"},{"bike_id":"a112afbb-33b4-434c-b7c0-a2249e9e9092","system_id":"levelo_inurba_marseille","lat":43.26548,"lon":5.37307,"is_reserved":false,"is_disabled":false,"rental_uris":{"android":"levelo://app?vid=a112afbb-33b4-434c-b7c0-a2249e9e9092","ios":"levelo://app?vid=a112afbb-33b4-434c-b7c0-a2249e9e9092"},"vehicle_type_id":"4","last_reported":1749492897,"current_range_meters":10800,"station_id":"ce4bhg12rcd13ifvqf70","pricing_plan_id":"cebpf4jnsgd1na2vs0mg"},{"bike_id":"09ae2d0d-f1c1-464f-92c9-abc0446d6e7e","system_id":"levelo_inurba_marseille","lat":43.31529,"lon":5.38038,"is_reserved":false,"is_disabled":false,"rental_uris":{"android":"levelo://app?vid=09ae2d0d-f1c1-464f-92c9-abc0446d6e7e","ios":"levelo://app?vid=09ae2d0d-f1c1-464f-92c9-abc0446d6e7e"},"vehicle_type_id":"4","last_reported":1749492897,"current_range_meters":10800,"station_id":"ce4bhsp2rcd13ifvqi50","pricing_plan_id":"cebpf4jnsgd1na2vs0mg"},{"bike_id":"52d5c0a8-6b11-4615-a281-9636deb83f79","system_id":"levelo_inurba_marseille","lat":43.32339,"lon":5.4061,"is_reserved":false,"is_disabled":false,"rental_uris":{"android":"levelo://app?vid=52d5c0a8-6b11-4615-a281-9636deb83f79","ios":"levelo://app?vid=52d5c0a8-6b11-4615-a281-9636deb83f79"},"vehicle_type_id":"4","last_reported":1749492897,"current_range_meters":10800,"station_id":"ce4bhq92rcd13ifvqhjg","pricing_plan_id":"cebpf4jnsgd1na2vs0mg"},{"bike_id":"d7cd5f7d-bf11-4f5d-922a-d8c4d8c1facc","system_id":"levelo_inurba_marseille","lat":43.29802,"lon":5.3809,"is_reserved":false,"is_disabled":false,"rental_uris":{"android":"levelo://app?vid=d7cd5f7d-bf11-4f5d-922a-d8c4d8c1facc","ios":"levelo://app?vid=d7cd5f7d-bf11-4f5d-922a-d8c4d8c1facc"},"vehicle_type_id":"4","last_reported":1749492897,"current_range_meters":10800,"station_id":"ce4bgip2rcd13ifvqbb0","pricing_plan_id":"cebpf4jnsgd1na2vs0mg"},{"bike_id":"6b4e32c5-a92b-4a10-a37e-214cc258a599","system_id":"levelo_inurba_marseille","lat":43.292,"lon":5.35796,"is_reserved":false,"is_disabled":false,"rental_uris":{"android":"levelo://app?vid=6b4e32c5-a92b-4a10-a37e-214cc258a599","ios":"levelo://app?vid=6b4e32c5-a92b-4a10-a37e-214cc258a599"},"vehicle_type_id":"4","last_reported":1749492897,"current_range_meters":10800,"station_id":"ce4bhb12rcd13ifvqel0","pricing_plan_id":"cebpf4jnsgd1na2vs0mg"},{"bike_id":"62bea32f-b147-4070-b162-523f879a2a9c","system_id":"levelo_inurba_marseille","lat":43.253327,"lon":5.39338,"is_reserved":false,"is_disabled":false,"rental_uris":{"android":"levelo://app?vid=62bea32f-b147-4070-b162-523f879a2a9c","ios":"levelo://app?vid=62bea32f-b147-4070-b162-523f879a2a9c"},"vehicle_type_id":"4","last_reported":1749492897,"current_range_meters":10800,"station_id":"","pricing_plan_id":"cebpf4jnsgd1na2vs0mg"},{"bike_id":"eab47579-de7b-47bc-ade1-b879be6f299e","system_id":"levelo_inurba_marseille","lat":43.29622,"lon":5.37731,"is_reserved":false,"is_disabled":false,"rental_uris":{"android":"levelo://app?vid=eab47579-de7b-47bc-ade1-b879be6f299e","ios":"levelo://app?vid=eab47579-de7b-47bc-ade1-b879be6f299e"},"vehicle_type_id":"4","last_reported":1749492897,"current_range_meters":11200,"station_id":"ce4bgi92rcd13ifvqb90","pricing_plan_id":"cebpf4jnsgd1na2vs0mg"},{"bike_id":"898adc08-6852-494f-92e0-a15241901b70","system_id":"levelo_inurba_marseille","lat":43.26206,"lon":5.37562,"is_reserved":false,"is_disabled":false,"rental_uris":{"android":"levelo://app?vid=898adc08-6852-494f-92e0-a15241901b70","ios":"levelo://app?vid=898adc08-6852-494f-92e0-a15241901b70"},"vehicle_type_id":"4","last_reported":1749492897,"current_range_meters":11200,"station_id":"","pricing_plan_id":"cebpf4jnsgd1na2vs0mg"},{"bike_id":"3a20c262-0119-452d-89df-86a1905ef8d7","system_id":"levelo_inurba_marseille","lat":43.28843,"lon":5.39309,"is_reserved":false,"is_disabled":false,"rental_uris":{"android":"levelo://app?vid=3a20c262-0119-452d-89df-86a1905ef8d7","ios":"levelo://app?vid=3a20c262-0119-452d-89df-86a1905ef8d7"},"vehicle_type_id":"4","last_reported":1749492897,"current_range_meters":11200,"station_id":"ce4bh2p2rcd13ifvqdi0","pricing_plan_id":"cebpf4jnsgd1na2vs0mg"},{"bike_id":"c09b1c1e-6d5b-4a72-8f97-eccd430a9e54","system_id":"levelo_inurba_marseille","lat":43.26677,"lon":5.38264,"is_reserved":false,"is_disabled":false,"rental_uris":{"android":"levelo://app?vid=c09b1c1e-6d5b-4a72-8f97-eccd430a9e54","ios":"levelo://app?vid=c09b1c1e-6d5b-4a72-8f97-eccd430a9e54"},"vehicle_type_id":"4","last_reported":1749492897,"current_range_meters":11200,"station_id":"ce4bhgp2rcd13ifvqfc0","pricing_plan_id":"cebpf4jnsgd1na2vs0mg"},{"bike_id":"ade30eea-ac20-442c-bb30-deef8cfbba60","system_id":"levelo_inurba_marseille","lat":43.276611,"lon":5.388814,"is_reserved":false,"is_disabled":false,"rental_uris":{"android":"levelo://app?vid=ade30eea-ac20-442c-bb30-deef8cfbba60","ios":"levelo://app?vid=ade30eea-ac20-442c-bb30-deef8cfbba60"},"vehicle_type_id":"4","last_reported":1749492897,"current_range_meters":11600,"station_id":"ce4bhi12rcd13ifvqfo0","pricing_plan_id":"cebpf4jnsgd1na2vs0mg"},{"bike_id":"fbb9b34c-7031-4d75-9691-342c610b2101","system_id":"levelo_inurba_marseille","lat":43.28393,"lon":5.36467,"is_reserved":false,"is_disabled":false,"rental_uris":{"android":"levelo://app?vid=fbb9b34c-7031-4d75-9691-342c610b2101","ios":"levelo://app?vid=fbb9b34c-7031-4d75-9691-342c610b2101"},"vehicle_type_id":"4","last_reported":1749492897,"current_range_meters":11600,"station_id":"","pricing_plan_id":"cebpf4jnsgd1na2vs0mg"},{"bike_id":"508f2612-98d7-41fc-a38b-53a5587663d2","system_id":"levelo_inurba_marseille","lat":43.28987,"lon":5.37834,"is_reserved":false,"is_disabled":false,"rental_uris":{"android":"levelo://app?vid=508f2612-98d7-41fc-a38b-53a5587663d2","ios":"levelo://app?vid=508f2612-98d7-41fc-a38b-53a5587663d2"},"vehicle_type_id":"4","last_reported":1749492897,"current_range_meters":11600,"station_id":"ce4bh9p2rcd13ifvqed0","pricing_plan_id":"cebpf4jnsgd1na2vs0mg"},{"bike_id":"1a940e73-187b-4f13-819f-cdd9699aa032","system_id":"levelo_inurba_marseille","lat":43.297,"lon":5.36609,"is_reserved":false,"is_disabled":false,"rental_uris":{"android":"levelo://app?vid=1a940e73-187b-4f13-819f-cdd9699aa032","ios":"levelo://app?vid=1a940e73-187b-4f13-819f-cdd9699aa032"},"vehicle_type_id":"4","last_reported":1749492897,"current_range_meters":11600,"station_id":"ce4bgn12rcd13ifvqbt0","pricing_plan_id":"cebpf4jnsgd1na2vs0mg"},{"bike_id":"ed20176b-74c6-4244-9b34-8d86f19dc335","system_id":"levelo_inurba_marseille","lat":43.297329,"lon":5.377225,"is_reserved":false,"is_disabled":false,"rental_uris":{"android":"levelo://app?vid=ed20176b-74c6-4244-9b34-8d86f19dc335","ios":"levelo://app?vid=ed20176b-74c6-4244-9b34-8d86f19dc335"},"vehicle_type_id":"4","last_reported":1749492897,"current_range_meters":11600,"station_id":"ce4bgkh2rcd13ifvqbl0","pricing_plan_id":"cebpf4jnsgd1na2vs0mg"},{"bike_id":"5aee6e98-5d72-4a58-8068-559ee9f9703d","system_id":"levelo_inurba_marseille","lat":43.211939,"lon":5.3507,"is_reserved":false,"is_disabled":false,"rental_uris":{"android":"levelo://app?vid=5aee6e98-5d72-4a58-8068-559ee9f9703d","ios":"levelo://app?vid=5aee6e98-5d72-4a58-8068-559ee9f9703d"},"vehicle_type_id":"4","last_reported":1749492897,"current_range_meters":11600,"station_id":"st_cvj6sg6p6f1abm77japg","pricing_plan_id":"cebpf4jnsgd1na2vs0mg"},{"bike_id":"c8c4af1d-070c-484a-a3f7-babd17d99646","system_id":"levelo_inurba_marseille","lat":43.33726,"lon":5.39193,"is_reserved":false,"is_disabled":false,"rental_uris":{"android":"levelo://app?vid=c8c4af1d-070c-484a-a3f7-babd17d99646","ios":"levelo://app?vid=c8c4af1d-070c-484a-a3f7-babd17d99646"},"vehicle_type_id":"4","last_reported":1749492897,"current_range_meters":11600,"station_id":"ce4bhr92rcd13ifvqhsg","pricing_plan_id":"cebpf4jnsgd1na2vs0mg"},{"bike_id":"846c1ab8-e2d4-4236-b75a-c286469d92b0","system_id":"levelo_inurba_marseille","lat":43.30317,"lon":5.40434,"is_reserved":false,"is_disabled":false,"rental_uris":{"android":"levelo://app?vid=846c1ab8-e2d4-4236-b75a-c286469d92b0","ios":"levelo://app?vid=846c1ab8-e2d4-4236-b75a-c286469d92b0"},"vehicle_type_id":"4","last_reported":1749492897,"current_range_meters":11600,"station_id":"ce4bh012rcd13ifvqd10","pricing_plan_id":"cebpf4jnsgd1na2vs0mg"},{"bike_id":"ccb5bf22-ad94-4d1f-ae27-4053400a5df2","system_id":"levelo_inurba_marseille","lat":43.25107,"lon":5.40318,"is_reserved":false,"is_disabled":false,"rental_uris":{"android":"levelo://app?vid=ccb5bf22-ad94-4d1f-ae27-4053400a5df2","ios":"levelo://app?vid=ccb5bf22-ad94-4d1f-ae27-4053400a5df2"},"vehicle_type_id":"4","last_reported":1749492897,"current_range_meters":12000,"station_id":"ce4bhlh2rcd13ifvqgig","pricing_plan_id":"cebpf4jnsgd1na2vs0mg"},{"bike_id":"c6ffa8b1-c78e-4f99-8f27-dc90f2522d88","system_id":"levelo_inurba_marseille","lat":43.29176,"lon":5.37152,"is_reserved":false,"is_disabled":false,"rental_uris":{"android":"levelo://app?vid=c6ffa8b1-c78e-4f99-8f27-dc90f2522d88","ios":"levelo://app?vid=c6ffa8b1-c78e-4f99-8f27-dc90f2522d88"},"vehicle_type_id":"4","last_reported":1749492897,"current_range_meters":12000,"station_id":"ce4bha92rcd13ifvqeh0","pricing_plan_id":"cebpf4jnsgd1na2vs0mg"},{"bike_id":"2649ef45-0b6a-4349-a65a-a2f74f74f74f","system_id":"levelo_inurba_marseille","lat":43.26474,"lon":5.39241,"is_reserved":false,"is_disabled":false,"rental_uris":{"android":"levelo://app?vid=2649ef45-0b6a-4349-a65a-a2f74f74f74f","ios":"levelo://app?vid=2649ef45-0b6a-4349-a65a-a2f74f74f74f"},"vehicle_type_id":"4","last_reported":1749492897,"current_range_meters":12000,"station_id":"","pricing_plan_id":"cebpf4jnsgd1na2vs0mg"},{"bike_id":"2f32b755-3ca4-4102-8e33-37fff5e1ff8d","system_id":"levelo_inurba_marseille","lat":43.27147,"lon":5.40191,"is_reserved":false,"is_disabled":false,"rental_uris":{"android":"levelo://app?vid=2f32b755-3ca4-4102-8e33-37fff5e1ff8d","ios":"levelo://app?vid=2f32b755-3ca4-4102-8e33-37fff5e1ff8d"},"vehicle_type_id":"4","last_reported":1749492897,"current_range_meters":12000,"station_id":"","pricing_plan_id":"cebpf4jnsgd1na2vs0mg"},{"bike_id":"489550ef-77bc-4e95-8a62-be1297bd7aec","system_id":"levelo_inurba_marseille","lat":43.29042,"lon":5.35917,"is_reserved":false,"is_disabled":false,"rental_uris":{"android":"levelo://app?vid=489550ef-77bc-4e95-8a62-be1297bd7aec","ios":"levelo://app?vid=489550ef-77bc-4e95-8a62-be1297bd7aec"},"vehicle_type_id":"4","last_reported":1749492897,"current_range_meters":12000,"station_id":"ce4bha92rcd13ifvqeg0","pricing_plan_id":"cebpf4jnsgd1na2vs0mg"},{"bike_id":"e2343323-2fa3-49b5-b4c6-c4369cca4d0f","system_id":"levelo_inurba_marseille","lat":43.292529,"lon":5.38386,"is_reserved":false,"is_disabled":false,"rental_uris":{"android":"levelo://app?vid=e2343323-2fa3-49b5-b4c6-c4369cca4d0f","ios":"levelo://app?vid=e2343323-2fa3-49b5-b4c6-c4369cca4d0f"},"vehicle_type_id":"4","last_reported":1749492897,"current_range_meters":12400,"station_id":"ce4bh692rcd13ifvqea0","pricing_plan_id":"cebpf4jnsgd1na2vs0mg"},{"bike_id":"42a73130-b9c8-4f01-8767-7d13e2aadd2f","system_id":"levelo_inurba_marseille","lat":43.24171,"lon":5.3971,"is_reserved":false,"is_disabled":false,"rental_uris":{"android":"levelo://app?vid=42a73130-b9c8-4f01-8767-7d13e2aadd2f","ios":"levelo://app?vid=42a73130-b9c8-4f01-8767-7d13e2aadd2f"},"vehicle_type_id":"4","last_reported":1749492897,"current_range_meters":12400,"station_id":"ce4bhn12rcd13ifvqgpg","pricing_plan_id":"cebpf4jnsgd1na2vs0mg"},{"bike_id":"7e9ab3d4-de96-411e-9e0c-f82c679c8eff","system_id":"levelo_inurba_marseille","lat":43.28621,"lon":5.35104,"is_reserved":false,"is_disabled":true,"rental_uris":{"android":"levelo://app?vid=7e9ab3d4-de96-411e-9e0c-f82c679c8eff","ios":"levelo://app?vid=7e9ab3d4-de96-411e-9e0c-f82c679c8eff"},"vehicle_type_id":"4","last_reported":1749492897,"current_range_meters":12400,"station_id":"ce4bhch2rcd13ifvqeug","pricing_plan_id":"cebpf4jnsgd1na2vs0mg"},{"bike_id":"9adda8bb-9fca-4ed1-b7c9-9a95b961bdbe","system_id":"levelo_inurba_marseille","lat":43.31167,"lon":5.38721,"is_reserved":false,"is_disabled":false,"rental_uris":{"android":"levelo://app?vid=9adda8bb-9fca-4ed1-b7c9-9a95b961bdbe","ios":"levelo://app?vid=9adda8bb-9fca-4ed1-b7c9-9a95b961bdbe"},"vehicle_type_id":"4","last_reported":1749492897,"current_range_meters":12800,"station_id":"ce4bgv12rcd13ifvqcp0","pricing_plan_id":"cebpf4jnsgd1na2vs0mg"},{"bike_id":"de8c0736-607b-471e-836f-cc3139fd1b7f","system_id":"levelo_inurba_marseille","lat":43.28,"lon":5.40026,"is_reserved":false,"is_disabled":false,"rental_uris":{"android":"levelo://app?vid=de8c0736-607b-471e-836f-cc3139fd1b7f","ios":"levelo://app?vid=de8c0736-607b-471e-836f-cc3139fd1b7f"},"vehicle_type_id":"4","last_reported":1749492897,"current_range_meters":12800,"station_id":"ce4bho92rcd13ifvqh4g","pricing_plan_id":"cebpf4jnsgd1na2vs0mg"},{"bike_id":"dedeea7e-9ff1-41e2-a1ca-3ecca467e74d","system_id":"levelo_inurba_marseille","lat":43.26494,"lon":5.39539,"is_reserved":false,"is_disabled":false,"rental_uris":{"android":"levelo://app?vid=dedeea7e-9ff1-41e2-a1ca-3ecca467e74d","ios":"levelo://app?vid=dedeea7e-9ff1-41e2-a1ca-3ecca467e74d"},"vehicle_type_id":"4","last_reported":1749492897,"current_range_meters":12800,"station_id":"ce4bhi12rcd13ifvqfq0","pricing_plan_id":"cebpf4jnsgd1na2vs0mg"},{"bike_id":"38722336-c116-4b23-ae8e-66c0fda48cd5","system_id":"levelo_inurba_marseille","lat":43.29786,"lon":5.37085,"is_reserved":false,"is_disabled":false,"rental_uris":{"android":"levelo://app?vid=38722336-c116-4b23-ae8e-66c0fda48cd5","ios":"levelo://app?vid=38722336-c116-4b23-ae8e-66c0fda48cd5"},"vehicle_type_id":"4","last_reported":1749492897,"current_range_meters":12800,"station_id":"ce4bgop2rcd13ifvqc1g","pricing_plan_id":"cebpf4jnsgd1na2vs0mg"},{"bike_id":"38732871-8503-466e-a980-ace2b8f5936b","system_id":"levelo_inurba_marseille","lat":43.27064,"lon":5.42276,"is_reserved":false,"is_disabled":false,"rental_uris":{"android":"levelo://app?vid=38732871-8503-466e-a980-ace2b8f5936b","ios":"levelo://app?vid=38732871-8503-466e-a980-ace2b8f5936b"},"vehicle_type_id":"4","last_reported":1749492897,"current_range_meters":13600,"station_id":"ce4bhk92rcd13ifvqgb0","pricing_plan_id":"cebpf4jnsgd1na2vs0mg"},{"bike_id":"acf56c95-903d-4e41-b227-6ed213a46e8f","system_id":"levelo_inurba_marseille","lat":43.31377,"lon":5.38492,"is_reserved":false,"is_disabled":false,"rental_uris":{"android":"levelo://app?vid=acf56c95-903d-4e41-b227-6ed213a46e8f","ios":"levelo://app?vid=acf56c95-903d-4e41-b227-6ed213a46e8f"},"vehicle_type_id":"4","last_reported":1749492897,"current_range_meters":13600,"station_id":"ce4bgt92rcd13ifvqcf0","pricing_plan_id":"cebpf4jnsgd1na2vs0mg"},{"bike_id":"66df5d98-66ed-4c71-b0c0-9c09884d0556","system_id":"levelo_inurba_marseille","lat":43.31524,"lon":5.38045,"is_reserved":false,"is_disabled":false,"rental_uris":{"android":"levelo://app?vid=66df5d98-66ed-4c71-b0c0-9c09884d0556","ios":"levelo://app?vid=66df5d98-66ed-4c71-b0c0-9c09884d0556"},"vehicle_type_id":"4","last_reported":1749492897,"current_range_meters":13600,"station_id":"ce4bhsp2rcd13ifvqi50","pricing_plan_id":"cebpf4jnsgd1na2vs0mg"},{"bike_id":"7facd0d3-e088-4a5a-a896-d77e8e818ab6","system_id":"levelo_inurba_marseille","lat":43.292343,"lon":5.361047,"is_reserved":false,"is_disabled":true,"rental_uris":{"android":"levelo://app?vid=7facd0d3-e088-4a5a-a896-d77e8e818ab6","ios":"levelo://app?vid=7facd0d3-e088-4a5a-a896-d77e8e818ab6"},"vehicle_type_id":"4","last_reported":1749492897,"current_range_meters":13600,"station_id":"ce4bhbh2rcd13ifvqeqg","pricing_plan_id":"cebpf4jnsgd1na2vs0mg"},{"bike_id":"fea03510-d732-494e-a818-113e6eebaa67","system_id":"levelo_inurba_marseille","lat":43.22934,"lon":5.35379,"is_reserved":false,"is_disabled":true,"rental_uris":{"android":"levelo://app?vid=fea03510-d732-494e-a818-113e6eebaa67","ios":"levelo://app?vid=fea03510-d732-494e-a818-113e6eebaa67"},"vehicle_type_id":"4","last_reported":1749492897,"current_range_meters":13600,"station_id":"cpo3532slgdg3j2ikp40","pricing_plan_id":"cebpf4jnsgd1na2vs0mg"},{"bike_id":"5fda9a87-2b68-4421-b415-520c832f56e9","system_id":"levelo_inurba_marseille","lat":43.21189,"lon":5.35069,"is_reserved":false,"is_disabled":false,"rental_uris":{"android":"levelo://app?vid=5fda9a87-2b68-4421-b415-520c832f56e9","ios":"levelo://app?vid=5fda9a87-2b68-4421-b415-520c832f56e9"},"vehicle_type_id":"4","last_reported":1749492897,"current_range_meters":13600,"station_id":"st_cvj6sg6p6f1abm77japg","pricing_plan_id":"cebpf4jnsgd1na2vs0mg"},{"bike_id":"ef6a7716-b177-4bad-85ba-a04f0001f4e2","system_id":"levelo_inurba_marseille","lat":43.28611,"lon":5.37061,"is_reserved":false,"is_disabled":false,"rental_uris":{"android":"levelo://app?vid=ef6a7716-b177-4bad-85ba-a04f0001f4e2","ios":"levelo://app?vid=ef6a7716-b177-4bad-85ba-a04f0001f4e2"},"vehicle_type_id":"4","last_reported":1749492897,"current_range_meters":14000,"station_id":"ce4bht12rcd13ifvqi60","pricing_plan_id":"cebpf4jnsgd1na2vs0mg"},{"bike_id":"b1428231-f7d0-41b4-82e6-611a90031269","system_id":"levelo_inurba_marseille","lat":43.298891,"lon":5.43666,"is_reserved":false,"is_disabled":false,"rental_uris":{"android":"levelo://app?vid=b1428231-f7d0-41b4-82e6-611a90031269","ios":"levelo://app?vid=b1428231-f7d0-41b4-82e6-611a90031269"},"vehicle_type_id":"4","last_reported":1749492897,"current_range_meters":14000,"station_id":"ce4bhpp2rcd13ifvqhfg","pricing_plan_id":"cebpf4jnsgd1na2vs0mg"},{"bike_id":"556cf1e9-0ac9-489f-903f-3179e2e76283","system_id":"levelo_inurba_marseille","lat":43.25119,"lon":5.40314,"is_reserved":false,"is_disabled":false,"rental_uris":{"android":"levelo://app?vid=556cf1e9-0ac9-489f-903f-3179e2e76283","ios":"levelo://app?vid=556cf1e9-0ac9-489f-903f-3179e2e76283"},"vehicle_type_id":"4","last_reported":1749492897,"current_range_meters":14000,"station_id":"ce4bhlh2rcd13ifvqgig","pricing_plan_id":"cebpf4jnsgd1na2vs0mg"},{"bike_id":"3b33593f-98f0-4b12-b11c-8ecbf0798666","system_id":"levelo_inurba_marseille","lat":43.269204,"lon":5.393562,"is_reserved":false,"is_disabled":false,"rental_uris":{"android":"levelo://app?vid=3b33593f-98f0-4b12-b11c-8ecbf0798666","ios":"levelo://app?vid=3b33593f-98f0-4b12-b11c-8ecbf0798666"},"vehicle_type_id":"4","last_reported":1749492897,"current_range_meters":14000,"station_id":"","pricing_plan_id":"cebpf4jnsgd1na2vs0mg"},{"bike_id":"a4283ca9-ec23-47ea-8659-bcafb405b016","system_id":"levelo_inurba_marseille","lat":43.30143,"lon":5.39852,"is_reserved":false,"is_disabled":false,"rental_uris":{"android":"levelo://app?vid=a4283ca9-ec23-47ea-8659-bcafb405b016","ios":"levelo://app?vid=a4283ca9-ec23-47ea-8659-bcafb405b016"},"vehicle_type_id":"4","last_reported":1749492897,"current_range_meters":14000,"station_id":"ce4bh0h2rcd13ifvqd40","pricing_plan_id":"cebpf4jnsgd1na2vs0mg"},{"bike_id":"660219bc-9f09-49e5-8bb8-0a89276755ae","system_id":"levelo_inurba_marseille","lat":43.29976,"lon":5.37182,"is_reserved":false,"is_disabled":true,"rental_uris":{"android":"levelo://app?vid=660219bc-9f09-49e5-8bb8-0a89276755ae","ios":"levelo://app?vid=660219bc-9f09-49e5-8bb8-0a89276755ae"},"vehicle_type_id":"4","last_reported":1749492897,"current_range_meters":14400,"station_id":"ce4bgr92rcd13ifvqc7g","pricing_plan_id":"cebpf4jnsgd1na2vs0mg"},{"bike_id":"fc994508-5e5c-4f76-b853-02902db606fe","system_id":"levelo_inurba_marseille","lat":43.29875,"lon":5.38913,"is_reserved":false,"is_disabled":false,"rental_uris":{"android":"levelo://app?vid=fc994508-5e5c-4f76-b853-02902db606fe","ios":"levelo://app?vid=fc994508-5e5c-4f76-b853-02902db606fe"},"vehicle_type_id":"4","last_reported":1749492897,"current_range_meters":14400,"station_id":"ce4bh392rcd13ifvqdl0","pricing_plan_id":"cebpf4jnsgd1na2vs0mg"},{"bike_id":"88113087-f0bb-4133-ab2a-bbfce1f3d99a","system_id":"levelo_inurba_marseille","lat":43.31716,"lon":5.40441,"is_reserved":false,"is_disabled":true,"rental_uris":{"android":"levelo://app?vid=88113087-f0bb-4133-ab2a-bbfce1f3d99a","ios":"levelo://app?vid=88113087-f0bb-4133-ab2a-bbfce1f3d99a"},"vehicle_type_id":"4","last_reported":1749492897,"current_range_meters":14400,"station_id":"ce4bh012rcd13ifvqd00","pricing_plan_id":"cebpf4jnsgd1na2vs0mg"},{"bike_id":"8e317286-d121-41fb-88b8-5b957116b9fe","system_id":"levelo_inurba_marseille","lat":43.21186,"lon":5.35073,"is_reserved":false,"is_disabled":false,"rental_uris":{"android":"levelo://app?vid=8e317286-d121-41fb-88b8-5b957116b9fe","ios":"levelo://app?vid=8e317286-d121-41fb-88b8-5b957116b9fe"},"vehicle_type_id":"4","last_reported":1749492897,"current_range_meters":14400,"station_id":"st_cvj6sg6p6f1abm77japg","pricing_plan_id":"cebpf4jnsgd1na2vs0mg"},{"bike_id":"ad6c329c-2135-419b-93d2-3080b8444257","system_id":"levelo_inurba_marseille","lat":43.28329,"lon":5.38127,"is_reserved":false,"is_disabled":true,"rental_uris":{"android":"levelo://app?vid=ad6c329c-2135-419b-93d2-3080b8444257","ios":"levelo://app?vid=ad6c329c-2135-419b-93d2-3080b8444257"},"vehicle_type_id":"4","last_reported":1749492897,"current_range_meters":14400,"station_id":"ce4bh412rcd13ifvqdr0","pricing_plan_id":"cebpf4jnsgd1na2vs0mg"},{"bike_id":"db7d70dc-4af9-4101-92ad-02ba7f39ee69","system_id":"levelo_inurba_marseille","lat":43.3132,"lon":5.39708,"is_reserved":false,"is_disabled":false,"rental_uris":{"android":"levelo://app?vid=db7d70dc-4af9-4101-92ad-02ba7f39ee69","ios":"levelo://app?vid=db7d70dc-4af9-4101-92ad-02ba7f39ee69"},"vehicle_type_id":"4","last_reported":1749492897,"current_range_meters":14400,"station_id":"ce4bgvp2rcd13ifvqcu0","pricing_plan_id":"cebpf4jnsgd1na2vs0mg"},{"bike_id":"9455d38b-6f8c-4442-87c1-499e849fe884","system_id":"levelo_inurba_marseille","lat":43.28421,"lon":5.349834,"is_reserved":false,"is_disabled":true,"rental_uris":{"android":"levelo://app?vid=9455d38b-6f8c-4442-87c1-499e849fe884","ios":"levelo://app?vid=9455d38b-6f8c-4442-87c1-499e849fe884"},"vehicle_type_id":"4","last_reported":1749492897,"current_range_meters":14400,"station_id":"ce4bhbh2rcd13ifvqepg","pricing_plan_id":"cebpf4jnsgd1na2vs0mg"},{"bike_id":"3e9f39f5-15ea-43f3-a633-141730b8857f","system_id":"levelo_inurba_marseille","lat":43.24071,"lon":5.37758,"is_reserved":false,"is_disabled":false,"rental_uris":{"android":"levelo://app?vid=3e9f39f5-15ea-43f3-a633-141730b8857f","ios":"levelo://app?vid=3e9f39f5-15ea-43f3-a633-141730b8857f"},"vehicle_type_id":"4","last_reported":1749492897,"current_range_meters":14400,"station_id":"ce4bhnp2rcd13ifvqgvg","pricing_plan_id":"cebpf4jnsgd1na2vs0mg"},{"bike_id":"f6c4ab9c-11ac-425a-b5b9-1e092be4204f","system_id":"levelo_inurba_marseille","lat":43.29003,"lon":5.35612,"is_reserved":false,"is_disabled":false,"rental_uris":{"android":"levelo://app?vid=f6c4ab9c-11ac-425a-b5b9-1e092be4204f","ios":"levelo://app?vid=f6c4ab9c-11ac-425a-b5b9-1e092be4204f"},"vehicle_type_id":"4","last_reported":1749492897,"current_range_meters":14800,"station_id":"ce4bhb92rcd13ifvqen0","pricing_plan_id":"cebpf4jnsgd1na2vs0mg"},{"bike_id":"0053f0bd-3481-4f8f-a19e-7dd7a6624507","system_id":"levelo_inurba_marseille","lat":43.29901,"lon":5.43672,"is_reserved":false,"is_disabled":false,"rental_uris":{"android":"levelo://app?vid=0053f0bd-3481-4f8f-a19e-7dd7a6624507","ios":"levelo://app?vid=0053f0bd-3481-4f8f-a19e-7dd7a6624507"},"vehicle_type_id":"4","last_reported":1749492897,"current_range_meters":14800,"station_id":"ce4bhpp2rcd13ifvqhfg","pricing_plan_id":"cebpf4jnsgd1na2vs0mg"},{"bike_id":"48faceba-c918-435b-8450-37309543f608","system_id":"levelo_inurba_marseille","lat":43.24187,"lon":5.39736,"is_reserved":false,"is_disabled":false,"rental_uris":{"android":"levelo://app?vid=48faceba-c918-435b-8450-37309543f608","ios":"levelo://app?vid=48faceba-c918-435b-8450-37309543f608"},"vehicle_type_id":"4","last_reported":1749492897,"current_range_meters":14800,"station_id":"ce4bhn12rcd13ifvqgpg","pricing_plan_id":"cebpf4jnsgd1na2vs0mg"},{"bike_id":"90045359-b860-4580-adcb-488959540ff6","system_id":"levelo_inurba_marseille","lat":43.298676,"lon":5.38923,"is_reserved":false,"is_disabled":false,"rental_uris":{"android":"levelo://app?vid=90045359-b860-4580-adcb-488959540ff6","ios":"levelo://app?vid=90045359-b860-4580-adcb-488959540ff6"},"vehicle_type_id":"4","last_reported":1749492897,"current_range_meters":14800,"station_id":"ce4bh392rcd13ifvqdl0","pricing_plan_id":"cebpf4jnsgd1na2vs0mg"},{"bike_id":"72a79edf-9b9d-4b95-a494-506dc1345647","system_id":"levelo_inurba_marseille","lat":43.29573,"lon":5.39981,"is_reserved":false,"is_disabled":false,"rental_uris":{"android":"levelo://app?vid=72a79edf-9b9d-4b95-a494-506dc1345647","ios":"levelo://app?vid=72a79edf-9b9d-4b95-a494-506dc1345647"},"vehicle_type_id":"4","last_reported":1749492897,"current_range_meters":14800,"station_id":"ce4bh312rcd13ifvqdj0","pricing_plan_id":"cebpf4jnsgd1na2vs0mg"},{"bike_id":"42018332-4c10-42ea-9b10-ac26a1e7ebbc","system_id":"levelo_inurba_marseille","lat":43.24388,"lon":5.3706,"is_reserved":false,"is_disabled":false,"rental_uris":{"android":"levelo://app?vid=42018332-4c10-42ea-9b10-ac26a1e7ebbc","ios":"levelo://app?vid=42018332-4c10-42ea-9b10-ac26a1e7ebbc"},"vehicle_type_id":"4","last_reported":1749492897,"current_range_meters":14800,"station_id":"ce4bhhh2rcd13ifvqfk0","pricing_plan_id":"cebpf4jnsgd1na2vs0mg"},{"bike_id":"5077581b-cebb-46fc-ba69-4fa8272d4810","system_id":"levelo_inurba_marseille","lat":43.21363,"lon":5.35523,"is_reserved":false,"is_disabled":false,"rental_uris":{"android":"levelo://app?vid=5077581b-cebb-46fc-ba69-4fa8272d4810","ios":"levelo://app?vid=5077581b-cebb-46fc-ba69-4fa8272d4810"},"vehicle_type_id":"4","last_reported":1749492897,"current_range_meters":15200,"station_id":"","pricing_plan_id":"cebpf4jnsgd1na2vs0mg"},{"bike_id":"4eada35f-a65e-4d4e-b60d-b88e9a624416","system_id":"levelo_inurba_marseille","lat":43.24387,"lon":5.37059,"is_reserved":false,"is_disabled":true,"rental_uris":{"android":"levelo://app?vid=4eada35f-a65e-4d4e-b60d-b88e9a624416","ios":"levelo://app?vid=4eada35f-a65e-4d4e-b60d-b88e9a624416"},"vehicle_type_id":"4","last_reported":1749492897,"current_range_meters":15200,"station_id":"ce4bhhh2rcd13ifvqfk0","pricing_plan_id":"cebpf4jnsgd1na2vs0mg"},{"bike_id":"8f42afda-5fac-4106-acfe-cd646fb51590","system_id":"levelo_inurba_marseille","lat":43.29708,"lon":5.3661,"is_reserved":false,"is_disabled":false,"rental_uris":{"android":"levelo://app?vid=8f42afda-5fac-4106-acfe-cd646fb51590","ios":"levelo://app?vid=8f42afda-5fac-4106-acfe-cd646fb51590"},"vehicle_type_id":"4","last_reported":1749492897,"current_range_meters":15200,"station_id":"ce4bgn12rcd13ifvqbt0","pricing_plan_id":"cebpf4jnsgd1na2vs0mg"},{"bike_id":"c7432800-1b14-4854-84d5-dd3690953cae","system_id":"levelo_inurba_marseille","lat":43.26185,"lon":5.37444,"is_reserved":false,"is_disabled":true,"rental_uris":{"android":"levelo://app?vid=c7432800-1b14-4854-84d5-dd3690953cae","ios":"levelo://app?vid=c7432800-1b14-4854-84d5-dd3690953cae"},"vehicle_type_id":"4","last_reported":1749492897,"current_range_meters":15200,"station_id":"ce4bhgp2rcd13ifvqfc0","pricing_plan_id":"cebpf4jnsgd1na2vs0mg"},{"bike_id":"f4d39fe3-afe9-4d85-87f9-457d9f9c136e","system_id":"levelo_inurba_marseille","lat":43.27618,"lon":5.3609,"is_reserved":false,"is_disabled":false,"rental_uris":{"android":"levelo://app?vid=f4d39fe3-afe9-4d85-87f9-457d9f9c136e","ios":"levelo://app?vid=f4d39fe3-afe9-4d85-87f9-457d9f9c136e"},"vehicle_type_id":"4","last_reported":1749492897,"current_range_meters":15200,"station_id":"ce4bgj92rcd13ifvqbe0","pricing_plan_id":"cebpf4jnsgd1na2vs0mg"},{"bike_id":"47e11a5a-9ec7-4846-820e-087b900f1f55","system_id":"levelo_inurba_marseille","lat":43.281559,"lon":5.426407,"is_reserved":false,"is_disabled":false,"rental_uris":{"android":"levelo://app?vid=47e11a5a-9ec7-4846-820e-087b900f1f55","ios":"levelo://app?vid=47e11a5a-9ec7-4846-820e-087b900f1f55"},"vehicle_type_id":"4","last_reported":1749492897,"current_range_meters":15200,"station_id":"ce4bhnh2rcd13ifvqgug","pricing_plan_id":"cebpf4jnsgd1na2vs0mg"},{"bike_id":"e83c1c2a-1fcf-46e1-adbb-09f634aa3f06","system_id":"levelo_inurba_marseille","lat":43.29011,"lon":5.35608,"is_reserved":false,"is_disabled":true,"rental_uris":{"android":"levelo://app?vid=e83c1c2a-1fcf-46e1-adbb-09f634aa3f06","ios":"levelo://app?vid=e83c1c2a-1fcf-46e1-adbb-09f634aa3f06"},"vehicle_type_id":"4","last_reported":1749492897,"current_range_meters":15200,"station_id":"ce4bhb92rcd13ifvqen0","pricing_plan_id":"cebpf4jnsgd1na2vs0mg"},{"bike_id":"6fd4cd93-a409-4da9-ad4b-b6025023458d","system_id":"levelo_inurba_marseille","lat":43.30111,"lon":5.37109,"is_reserved":false,"is_disabled":false,"rental_uris":{"android":"levelo://app?vid=6fd4cd93-a409-4da9-ad4b-b6025023458d","ios":"levelo://app?vid=6fd4cd93-a409-4da9-ad4b-b6025023458d"},"vehicle_type_id":"4","last_reported":1749492897,"current_range_meters":16000,"station_id":"","pricing_plan_id":"cebpf4jnsgd1na2vs0mg"},{"bike_id":"ec02e175-aaa4-4066-abe1-304d2d5f3fc5","system_id":"levelo_inurba_marseille","lat":43.24172,"lon":5.39718,"is_reserved":false,"is_disabled":false,"rental_uris":{"android":"levelo://app?vid=ec02e175-aaa4-4066-abe1-304d2d5f3fc5","ios":"levelo://app?vid=ec02e175-aaa4-4066-abe1-304d2d5f3fc5"},"vehicle_type_id":"4","last_reported":1749492897,"current_range_meters":16000,"station_id":"ce4bhn12rcd13ifvqgpg","pricing_plan_id":"cebpf4jnsgd1na2vs0mg"},{"bike_id":"8a0cafec-06e8-4f23-beb4-d4c2b90aca2c","system_id":"levelo_inurba_marseille","lat":43.29006,"lon":5.35616,"is_reserved":false,"is_disabled":false,"rental_uris":{"android":"levelo://app?vid=8a0cafec-06e8-4f23-beb4-d4c2b90aca2c","ios":"levelo://app?vid=8a0cafec-06e8-4f23-beb4-d4c2b90aca2c"},"vehicle_type_id":"4","last_reported":1749492897,"current_range_meters":16000,"station_id":"ce4bhb92rcd13ifvqen0","pricing_plan_id":"cebpf4jnsgd1na2vs0mg"},{"bike_id":"e1d9ab8a-de6e-4a59-815a-0c6ebde2cf3b","system_id":"levelo_inurba_marseille","lat":43.31726,"lon":5.42426,"is_reserved":false,"is_disabled":false,"rental_uris":{"android":"levelo://app?vid=e1d9ab8a-de6e-4a59-815a-0c6ebde2cf3b","ios":"levelo://app?vid=e1d9ab8a-de6e-4a59-815a-0c6ebde2cf3b"},"vehicle_type_id":"4","last_reported":1749492897,"current_range_meters":16000,"station_id":"ce4bhp92rcd13ifvqhbg","pricing_plan_id":"cebpf4jnsgd1na2vs0mg"},{"bike_id":"60a8540b-0b97-4e6a-b532-b4cdb1bca662","system_id":"levelo_inurba_marseille","lat":43.25978,"lon":5.38772,"is_reserved":false,"is_disabled":false,"rental_uris":{"android":"levelo://app?vid=60a8540b-0b97-4e6a-b532-b4cdb1bca662","ios":"levelo://app?vid=60a8540b-0b97-4e6a-b532-b4cdb1bca662"},"vehicle_type_id":"4","last_reported":1749492897,"current_range_meters":16000,"station_id":"","pricing_plan_id":"cebpf4jnsgd1na2vs0mg"},{"bike_id":"7fb0be7a-1a36-43c3-afbb-c1f55eebc7d6","system_id":"levelo_inurba_marseille","lat":43.30596,"lon":5.37215,"is_reserved":false,"is_disabled":false,"rental_uris":{"android":"levelo://app?vid=7fb0be7a-1a36-43c3-afbb-c1f55eebc7d6","ios":"levelo://app?vid=7fb0be7a-1a36-43c3-afbb-c1f55eebc7d6"},"vehicle_type_id":"4","last_reported":1749492897,"current_range_meters":16000,"station_id":"ce4bgqh2rcd13ifvqc4g","pricing_plan_id":"cebpf4jnsgd1na2vs0mg"},{"bike_id":"402b268f-51d8-4319-85da-3f411d4d5d91","system_id":"levelo_inurba_marseille","lat":43.21184,"lon":5.35083,"is_reserved":false,"is_disabled":false,"rental_uris":{"android":"levelo://app?vid=402b268f-51d8-4319-85da-3f411d4d5d91","ios":"levelo://app?vid=402b268f-51d8-4319-85da-3f411d4d5d91"},"vehicle_type_id":"4","last_reported":1749492897,"current_range_meters":16000,"station_id":"st_cvj6sg6p6f1abm77japg","pricing_plan_id":"cebpf4jnsgd1na2vs0mg"},{"bike_id":"0e3068bb-8bc4-4a9d-9159-6e889b7304e5","system_id":"levelo_inurba_marseille","lat":43.29168,"lon":5.37158,"is_reserved":false,"is_disabled":false,"rental_uris":{"android":"levelo://app?vid=0e3068bb-8bc4-4a9d-9159-6e889b7304e5","ios":"levelo://app?vid=0e3068bb-8bc4-4a9d-9159-6e889b7304e5"},"vehicle_type_id":"4","last_reported":1749492897,"current_range_meters":16400,"station_id":"ce4bha92rcd13ifvqeh0","pricing_plan_id":"cebpf4jnsgd1na2vs0mg"},{"bike_id":"72492861-d42a-44da-93fd-a019f15e601d","system_id":"levelo_inurba_marseille","lat":43.29961,"lon":5.38492,"is_reserved":false,"is_disabled":false,"rental_uris":{"android":"levelo://app?vid=72492861-d42a-44da-93fd-a019f15e601d","ios":"levelo://app?vid=72492861-d42a-44da-93fd-a019f15e601d"},"vehicle_type_id":"4","last_reported":1749492897,"current_range_meters":16400,"station_id":"ce4bgj92rcd13ifvqbd0","pricing_plan_id":"cebpf4jnsgd1na2vs0mg"},{"bike_id":"066904d3-0d6f-4bc3-9667-8647a9b69501","system_id":"levelo_inurba_marseille","lat":43.29636,"lon":5.37155,"is_reserved":false,"is_disabled":false,"rental_uris":{"android":"levelo://app?vid=066904d3-0d6f-4bc3-9667-8647a9b69501","ios":"levelo://app?vid=066904d3-0d6f-4bc3-9667-8647a9b69501"},"vehicle_type_id":"4","last_reported":1749492897,"current_range_meters":16400,"station_id":"ce4bgnh2rcd13ifvqc0g","pricing_plan_id":"cebpf4jnsgd1na2vs0mg"},{"bike_id":"ed53c6ff-87cc-4c99-9e28-8fe2b9357376","system_id":"levelo_inurba_marseille","lat":43.29512,"lon":5.39042,"is_reserved":false,"is_disabled":false,"rental_uris":{"android":"levelo://app?vid=ed53c6ff-87cc-4c99-9e28-8fe2b9357376","ios":"levelo://app?vid=ed53c6ff-87cc-4c99-9e28-8fe2b9357376"},"vehicle_type_id":"4","last_reported":1749492897,"current_range_meters":16400,"station_id":"ce4bh3p2rcd13ifvqdp0","pricing_plan_id":"cebpf4jnsgd1na2vs0mg"},{"bike_id":"e1d64f00-20b8-48cf-bd7e-016f6bf2c717","system_id":"levelo_inurba_marseille","lat":43.28455,"lon":5.35892,"is_reserved":false,"is_disabled":false,"rental_uris":{"android":"levelo://app?vid=e1d64f00-20b8-48cf-bd7e-016f6bf2c717","ios":"levelo://app?vid=e1d64f00-20b8-48cf-bd7e-016f6bf2c717"},"vehicle_type_id":"4","last_reported":1749492897,"current_range_meters":16400,"station_id":"ce4bhah2rcd13ifvqei0","pricing_plan_id":"cebpf4jnsgd1na2vs0mg"},{"bike_id":"9affd009-cd7f-4839-8584-aef04111c070","system_id":"levelo_inurba_marseille","lat":43.31355,"lon":5.38487,"is_reserved":false,"is_disabled":false,"rental_uris":{"android":"levelo://app?vid=9affd009-cd7f-4839-8584-aef04111c070","ios":"levelo://app?vid=9affd009-cd7f-4839-8584-aef04111c070"},"vehicle_type_id":"4","last_reported":1749492897,"current_range_meters":16800,"station_id":"ce4bgt92rcd13ifvqcf0","pricing_plan_id":"cebpf4jnsgd1na2vs0mg"},{"bike_id":"23e89bac-e2bf-4e89-8e08-1f432b7a4188","system_id":"levelo_inurba_marseille","lat":43.21187,"lon":5.35071,"is_reserved":false,"is_disabled":true,"rental_uris":{"android":"levelo://app?vid=23e89bac-e2bf-4e89-8e08-1f432b7a4188","ios":"levelo://app?vid=23e89bac-e2bf-4e89-8e08-1f432b7a4188"},"vehicle_type_id":"4","last_reported":1749492897,"current_range_meters":16800,"station_id":"st_cvj6sg6p6f1abm77japg","pricing_plan_id":"cebpf4jnsgd1na2vs0mg"},{"bike_id":"f5766809-e362-467d-9a6a-8ab1a6beaf0e","system_id":"levelo_inurba_marseille","lat":43.29593,"lon":5.38103,"is_reserved":false,"is_disabled":false,"rental_uris":{"android":"levelo://app?vid=f5766809-e362-467d-9a6a-8ab1a6beaf0e","ios":"levelo://app?vid=f5766809-e362-467d-9a6a-8ab1a6beaf0e"},"vehicle_type_id":"4","last_reported":1749492897,"current_range_meters":16800,"station_id":"ce4bgl12rcd13ifvqbo0","pricing_plan_id":"cebpf4jnsgd1na2vs0mg"},{"bike_id":"f815b9b5-f439-4683-b083-95f09110807f","system_id":"levelo_inurba_marseille","lat":43.287976,"lon":5.385531,"is_reserved":false,"is_disabled":false,"rental_uris":{"android":"levelo://app?vid=f815b9b5-f439-4683-b083-95f09110807f","ios":"levelo://app?vid=f815b9b5-f439-4683-b083-95f09110807f"},"vehicle_type_id":"4","last_reported":1749492897,"current_range_meters":16800,"station_id":"ce4bh612rcd13ifvqe6g","pricing_plan_id":"cebpf4jnsgd1na2vs0mg"},{"bike_id":"03c0db53-7bee-41cf-9720-4c41e24c0048","system_id":"levelo_inurba_marseille","lat":43.2827,"lon":5.3508,"is_reserved":false,"is_disabled":true,"rental_uris":{"android":"levelo://app?vid=03c0db53-7bee-41cf-9720-4c41e24c0048","ios":"levelo://app?vid=03c0db53-7bee-41cf-9720-4c41e24c0048"},"vehicle_type_id":"4","last_reported":1749492897,"current_range_meters":16800,"station_id":"ce4bhbp2rcd13ifvqerg","pricing_plan_id":"cebpf4jnsgd1na2vs0mg"},{"bike_id":"b7651752-8eb3-4b67-91fc-0a6e006c8d1f","system_id":"levelo_inurba_marseille","lat":43.21181,"lon":5.35086,"is_reserved":false,"is_disabled":false,"rental_uris":{"android":"levelo://app?vid=b7651752-8eb3-4b67-91fc-0a6e006c8d1f","ios":"levelo://app?vid=b7651752-8eb3-4b67-91fc-0a6e006c8d1f"},"vehicle_type_id":"4","last_reported":1749492897,"current_range_meters":16800,"station_id":"st_cvj6sg6p6f1abm77japg","pricing_plan_id":"cebpf4jnsgd1na2vs0mg"},{"bike_id":"c46183ac-8cca-4cdf-a8a9-22b7c63cf27e","system_id":"levelo_inurba_marseille","lat":43.28854,"lon":5.3583,"is_reserved":false,"is_disabled":true,"rental_uris":{"android":"levelo://app?vid=c46183ac-8cca-4cdf-a8a9-22b7c63cf27e","ios":"levelo://app?vid=c46183ac-8cca-4cdf-a8a9-22b7c63cf27e"},"vehicle_type_id":"4","last_reported":1749492897,"current_range_meters":16800,"station_id":"ce4bhb12rcd13ifvqem0","pricing_plan_id":"cebpf4jnsgd1na2vs0mg"},{"bike_id":"2138ff97-c5bf-410d-b7b3-dbef5874d459","system_id":"levelo_inurba_marseille","lat":43.21207,"lon":5.35078,"is_reserved":false,"is_disabled":false,"rental_uris":{"android":"levelo://app?vid=2138ff97-c5bf-410d-b7b3-dbef5874d459","ios":"levelo://app?vid=2138ff97-c5bf-410d-b7b3-dbef5874d459"},"vehicle_type_id":"4","last_reported":1749492897,"current_range_meters":16800,"station_id":"st_cvj6sg6p6f1abm77japg","pricing_plan_id":"cebpf4jnsgd1na2vs0mg"},{"bike_id":"9dde2f24-3a16-48c8-b3a8-92a6ff410290","system_id":"levelo_inurba_marseille","lat":43.2407,"lon":5.37762,"is_reserved":false,"is_disabled":false,"rental_uris":{"android":"levelo://app?vid=9dde2f24-3a16-48c8-b3a8-92a6ff410290","ios":"levelo://app?vid=9dde2f24-3a16-48c8-b3a8-92a6ff410290"},"vehicle_type_id":"4","last_reported":1749492897,"current_range_meters":16800,"station_id":"ce4bhnp2rcd13ifvqgvg","pricing_plan_id":"cebpf4jnsgd1na2vs0mg"},{"bike_id":"5dac4ca9-580e-4595-90fe-94e798456eb4","system_id":"levelo_inurba_marseille","lat":43.28703,"lon":5.399894,"is_reserved":false,"is_disabled":false,"rental_uris":{"android":"levelo://app?vid=5dac4ca9-580e-4595-90fe-94e798456eb4","ios":"levelo://app?vid=5dac4ca9-580e-4595-90fe-94e798456eb4"},"vehicle_type_id":"4","last_reported":1749492897,"current_range_meters":16800,"station_id":"ce4bho92rcd13ifvqh3g","pricing_plan_id":"cebpf4jnsgd1na2vs0mg"},{"bike_id":"26353d4c-4afe-447c-b633-822b3b9d9720","system_id":"levelo_inurba_marseille","lat":43.28615,"lon":5.3706,"is_reserved":false,"is_disabled":false,"rental_uris":{"android":"levelo://app?vid=26353d4c-4afe-447c-b633-822b3b9d9720","ios":"levelo://app?vid=26353d4c-4afe-447c-b633-822b3b9d9720"},"vehicle_type_id":"4","last_reported":1749492897,"current_range_meters":16800,"station_id":"ce4bht12rcd13ifvqi60","pricing_plan_id":"cebpf4jnsgd1na2vs0mg"},{"bike_id":"ca27e12a-1f2d-4cf2-be29-12a2b9ff1547","system_id":"levelo_inurba_marseille","lat":43.31707,"lon":5.42428,"is_reserved":false,"is_disabled":false,"rental_uris":{"android":"levelo://app?vid=ca27e12a-1f2d-4cf2-be29-12a2b9ff1547","ios":"levelo://app?vid=ca27e12a-1f2d-4cf2-be29-12a2b9ff1547"},"vehicle_type_id":"4","last_reported":1749492897,"current_range_meters":16800,"station_id":"ce4bhp92rcd13ifvqhbg","pricing_plan_id":"cebpf4jnsgd1na2vs0mg"},{"bike_id":"493a93f4-75ed-48d5-8645-509d48b3f343","system_id":"levelo_inurba_marseille","lat":43.30945,"lon":5.39043,"is_reserved":false,"is_disabled":false,"rental_uris":{"android":"levelo://app?vid=493a93f4-75ed-48d5-8645-509d48b3f343","ios":"levelo://app?vid=493a93f4-75ed-48d5-8645-509d48b3f343"},"vehicle_type_id":"4","last_reported":1749492897,"current_range_meters":16800,"station_id":"ce4bgup2rcd13ifvqco0","pricing_plan_id":"cebpf4jnsgd1na2vs0mg"},{"bike_id":"b2a55171-9e11-4eba-beeb-f2e7c5d27df2","system_id":"levelo_inurba_marseille","lat":43.211898,"lon":5.350738,"is_reserved":false,"is_disabled":false,"rental_uris":{"android":"levelo://app?vid=b2a55171-9e11-4eba-beeb-f2e7c5d27df2","ios":"levelo://app?vid=b2a55171-9e11-4eba-beeb-f2e7c5d27df2"},"vehicle_type_id":"4","last_reported":1749492897,"current_range_meters":16800,"station_id":"st_cvj6sg6p6f1abm77japg","pricing_plan_id":"cebpf4jnsgd1na2vs0mg"},{"bike_id":"e925ed2b-babc-4cf9-b75b-bac898fd5635","system_id":"levelo_inurba_marseille","lat":43.21191,"lon":5.350707,"is_reserved":false,"is_disabled":false,"rental_uris":{"android":"levelo://app?vid=e925ed2b-babc-4cf9-b75b-bac898fd5635","ios":"levelo://app?vid=e925ed2b-babc-4cf9-b75b-bac898fd5635"},"vehicle_type_id":"4","last_reported":1749492897,"current_range_meters":16800,"station_id":"st_cvj6sg6p6f1abm77japg","pricing_plan_id":"cebpf4jnsgd1na2vs0mg"},{"bike_id":"e39c4bcb-bfbf-4402-802d-d00fa0947399","system_id":"levelo_inurba_marseille","lat":43.31181,"lon":5.38707,"is_reserved":false,"is_disabled":false,"rental_uris":{"android":"levelo://app?vid=e39c4bcb-bfbf-4402-802d-d00fa0947399","ios":"levelo://app?vid=e39c4bcb-bfbf-4402-802d-d00fa0947399"},"vehicle_type_id":"4","last_reported":1749492897,"current_range_meters":17200,"station_id":"ce4bgv12rcd13ifvqcp0","pricing_plan_id":"cebpf4jnsgd1na2vs0mg"},{"bike_id":"0cf43a71-46c4-4b0d-b1e8-b5d2e538af02","system_id":"levelo_inurba_marseille","lat":43.2709,"lon":5.4229,"is_reserved":false,"is_disabled":false,"rental_uris":{"android":"levelo://app?vid=0cf43a71-46c4-4b0d-b1e8-b5d2e538af02","ios":"levelo://app?vid=0cf43a71-46c4-4b0d-b1e8-b5d2e538af02"},"vehicle_type_id":"4","last_reported":1749492897,"current_range_meters":17200,"station_id":"ce4bhk92rcd13ifvqgb0","pricing_plan_id":"cebpf4jnsgd1na2vs0mg"},{"bike_id":"7c2ad8a5-4b30-4eca-a016-b09bc7c4cfd5","system_id":"levelo_inurba_marseille","lat":43.331612,"lon":5.380484,"is_reserved":false,"is_disabled":false,"rental_uris":{"android":"levelo://app?vid=7c2ad8a5-4b30-4eca-a016-b09bc7c4cfd5","ios":"levelo://app?vid=7c2ad8a5-4b30-4eca-a016-b09bc7c4cfd5"},"vehicle_type_id":"4","last_reported":1749492897,"current_range_meters":17200,"station_id":"","pricing_plan_id":"cebpf4jnsgd1na2vs0mg"},{"bike_id":"b3c3101b-9ee4-4287-a4d5-462b292294aa","system_id":"levelo_inurba_marseille","lat":43.27052,"lon":5.40258,"is_reserved":false,"is_disabled":false,"rental_uris":{"android":"levelo://app?vid=b3c3101b-9ee4-4287-a4d5-462b292294aa","ios":"levelo://app?vid=b3c3101b-9ee4-4287-a4d5-462b292294aa"},"vehicle_type_id":"4","last_reported":1749492897,"current_range_meters":17200,"station_id":"ce4bhk92rcd13ifvqgc0","pricing_plan_id":"cebpf4jnsgd1na2vs0mg"},{"bike_id":"7fbb8cf5-f563-4c4a-90cf-1a5ac10b01c4","system_id":"levelo_inurba_marseille","lat":43.211923,"lon":5.350667,"is_reserved":false,"is_disabled":false,"rental_uris":{"android":"levelo://app?vid=7fbb8cf5-f563-4c4a-90cf-1a5ac10b01c4","ios":"levelo://app?vid=7fbb8cf5-f563-4c4a-90cf-1a5ac10b01c4"},"vehicle_type_id":"4","last_reported":1749492897,"current_range_meters":17200,"station_id":"st_cvj6sg6p6f1abm77japg","pricing_plan_id":"cebpf4jnsgd1na2vs0mg"},{"bike_id":"c6830c0d-e468-46fa-b9c2-96c1aec56a2d","system_id":"levelo_inurba_marseille","lat":43.27279,"lon":5.43102,"is_reserved":false,"is_disabled":false,"rental_uris":{"android":"levelo://app?vid=c6830c0d-e468-46fa-b9c2-96c1aec56a2d","ios":"levelo://app?vid=c6830c0d-e468-46fa-b9c2-96c1aec56a2d"},"vehicle_type_id":"4","last_reported":1749492897,"current_range_meters":17200,"station_id":"","pricing_plan_id":"cebpf4jnsgd1na2vs0mg"},{"bike_id":"15143306-7967-4e57-a3dd-52d6c6142180","system_id":"levelo_inurba_marseille","lat":43.29067,"lon":5.37163,"is_reserved":false,"is_disabled":false,"rental_uris":{"android":"levelo://app?vid=15143306-7967-4e57-a3dd-52d6c6142180","ios":"levelo://app?vid=15143306-7967-4e57-a3dd-52d6c6142180"},"vehicle_type_id":"4","last_reported":1749492897,"current_range_meters":17600,"station_id":"ce4bh5p2rcd13ifvqe4g","pricing_plan_id":"cebpf4jnsgd1na2vs0mg"},{"bike_id":"24c354b2-1426-4285-9d06-b35a510ce015","system_id":"levelo_inurba_marseille","lat":43.2861,"lon":5.37065,"is_reserved":false,"is_disabled":false,"rental_uris":{"android":"levelo://app?vid=24c354b2-1426-4285-9d06-b35a510ce015","ios":"levelo://app?vid=24c354b2-1426-4285-9d06-b35a510ce015"},"vehicle_type_id":"4","last_reported":1749492897,"current_range_meters":17600,"station_id":"ce4bht12rcd13ifvqi60","pricing_plan_id":"cebpf4jnsgd1na2vs0mg"},{"bike_id":"f79292e4-f3c3-4e7a-bd5f-6ad7145387ef","system_id":"levelo_inurba_marseille","lat":43.27421,"lon":5.39415,"is_reserved":false,"is_disabled":true,"rental_uris":{"android":"levelo://app?vid=f79292e4-f3c3-4e7a-bd5f-6ad7145387ef","ios":"levelo://app?vid=f79292e4-f3c3-4e7a-bd5f-6ad7145387ef"},"vehicle_type_id":"4","last_reported":1749492897,"current_range_meters":17600,"station_id":"ce4bhdp2rcd13ifvqf20","pricing_plan_id":"cebpf4jnsgd1na2vs0mg"},{"bike_id":"e05597e3-78c5-48d6-9f4b-0acb7d62f53e","system_id":"levelo_inurba_marseille","lat":43.29007,"lon":5.3561,"is_reserved":false,"is_disabled":false,"rental_uris":{"android":"levelo://app?vid=e05597e3-78c5-48d6-9f4b-0acb7d62f53e","ios":"levelo://app?vid=e05597e3-78c5-48d6-9f4b-0acb7d62f53e"},"vehicle_type_id":"4","last_reported":1749492897,"current_range_meters":17600,"station_id":"ce4bhb92rcd13ifvqen0","pricing_plan_id":"cebpf4jnsgd1na2vs0mg"},{"bike_id":"b1e8eb07-82b7-4bcc-af1f-8461c1c89166","system_id":"levelo_inurba_marseille","lat":43.31358,"lon":5.38501,"is_reserved":false,"is_disabled":false,"rental_uris":{"android":"levelo://app?vid=b1e8eb07-82b7-4bcc-af1f-8461c1c89166","ios":"levelo://app?vid=b1e8eb07-82b7-4bcc-af1f-8461c1c89166"},"vehicle_type_id":"4","last_reported":1749492897,"current_range_meters":17600,"station_id":"ce4bgt92rcd13ifvqcf0","pricing_plan_id":"cebpf4jnsgd1na2vs0mg"},{"bike_id":"eca942b4-34e9-4d21-b68a-0dfee2c9821f","system_id":"levelo_inurba_marseille","lat":43.30129,"lon":5.38781,"is_reserved":false,"is_disabled":true,"rental_uris":{"android":"levelo://app?vid=eca942b4-34e9-4d21-b68a-0dfee2c9821f","ios":"levelo://app?vid=eca942b4-34e9-4d21-b68a-0dfee2c9821f"},"vehicle_type_id":"4","last_reported":1749492897,"current_range_meters":17600,"station_id":"ce4bghh2rcd13ifvqb60","pricing_plan_id":"cebpf4jnsgd1na2vs0mg"},{"bike_id":"112205fc-97ec-440d-b64f-48d2d80248b9","system_id":"levelo_inurba_marseille","lat":43.26062,"lon":5.3939,"is_reserved":false,"is_disabled":false,"rental_uris":{"android":"levelo://app?vid=112205fc-97ec-440d-b64f-48d2d80248b9","ios":"levelo://app?vid=112205fc-97ec-440d-b64f-48d2d80248b9"},"vehicle_type_id":"4","last_reported":1749492897,"current_range_meters":17600,"station_id":"ce4bhh92rcd13ifvqfj0","pricing_plan_id":"cebpf4jnsgd1na2vs0mg"},{"bike_id":"25ca0cc3-c9a5-4932-9d66-031eb7e74037","system_id":"levelo_inurba_marseille","lat":43.31357,"lon":5.38488,"is_reserved":false,"is_disabled":false,"rental_uris":{"android":"levelo://app?vid=25ca0cc3-c9a5-4932-9d66-031eb7e74037","ios":"levelo://app?vid=25ca0cc3-c9a5-4932-9d66-031eb7e74037"},"vehicle_type_id":"4","last_reported":1749492897,"current_range_meters":17600,"station_id":"ce4bgt92rcd13ifvqcf0","pricing_plan_id":"cebpf4jnsgd1na2vs0mg"},{"bike_id":"ed19b723-24bc-40b3-b2e8-62f940ce0c06","system_id":"levelo_inurba_marseille","lat":43.30296,"lon":5.37053,"is_reserved":false,"is_disabled":false,"rental_uris":{"android":"levelo://app?vid=ed19b723-24bc-40b3-b2e8-62f940ce0c06","ios":"levelo://app?vid=ed19b723-24bc-40b3-b2e8-62f940ce0c06"},"vehicle_type_id":"4","last_reported":1749492897,"current_range_meters":17600,"station_id":"","pricing_plan_id":"cebpf4jnsgd1na2vs0mg"},{"bike_id":"dcfc51c1-974a-48a3-b998-5f1aa6ba2366","system_id":"levelo_inurba_marseille","lat":43.30147,"lon":5.39851,"is_reserved":false,"is_disabled":false,"rental_uris":{"android":"levelo://app?vid=dcfc51c1-974a-48a3-b998-5f1aa6ba2366","ios":"levelo://app?vid=dcfc51c1-974a-48a3-b998-5f1aa6ba2366"},"vehicle_type_id":"4","last_reported":1749492897,"current_range_meters":18000,"station_id":"ce4bh0h2rcd13ifvqd40","pricing_plan_id":"cebpf4jnsgd1na2vs0mg"},{"bike_id":"3540b961-3ed4-4d72-bb94-f309c9967768","system_id":"levelo_inurba_marseille","lat":43.31117,"lon":5.37762,"is_reserved":false,"is_disabled":false,"rental_uris":{"android":"levelo://app?vid=3540b961-3ed4-4d72-bb94-f309c9967768","ios":"levelo://app?vid=3540b961-3ed4-4d72-bb94-f309c9967768"},"vehicle_type_id":"4","last_reported":1749492897,"current_range_meters":18000,"station_id":"ce4bgt92rcd13ifvqcg0","pricing_plan_id":"cebpf4jnsgd1na2vs0mg"},{"bike_id":"96fc865b-20bb-4364-9278-fab5b169af8c","system_id":"levelo_inurba_marseille","lat":43.28155,"lon":5.42641,"is_reserved":false,"is_disabled":false,"rental_uris":{"android":"levelo://app?vid=96fc865b-20bb-4364-9278-fab5b169af8c","ios":"levelo://app?vid=96fc865b-20bb-4364-9278-fab5b169af8c"},"vehicle_type_id":"4","last_reported":1749492897,"current_range_meters":18000,"station_id":"ce4bhnh2rcd13ifvqgug","pricing_plan_id":"cebpf4jnsgd1na2vs0mg"},{"bike_id":"7702b3f7-6b2d-446a-b086-3b082076f633","system_id":"levelo_inurba_marseille","lat":43.27623,"lon":5.36086,"is_reserved":false,"is_disabled":false,"rental_uris":{"android":"levelo://app?vid=7702b3f7-6b2d-446a-b086-3b082076f633","ios":"levelo://app?vid=7702b3f7-6b2d-446a-b086-3b082076f633"},"vehicle_type_id":"4","last_reported":1749492897,"current_range_meters":18000,"station_id":"ce4bgj92rcd13ifvqbe0","pricing_plan_id":"cebpf4jnsgd1na2vs0mg"},{"bike_id":"28f3a5a7-1660-4216-8c3a-3e58f0f129aa","system_id":"levelo_inurba_marseille","lat":43.24185,"lon":5.3972,"is_reserved":false,"is_disabled":false,"rental_uris":{"android":"levelo://app?vid=28f3a5a7-1660-4216-8c3a-3e58f0f129aa","ios":"levelo://app?vid=28f3a5a7-1660-4216-8c3a-3e58f0f129aa"},"vehicle_type_id":"4","last_reported":1749492897,"current_range_meters":18000,"station_id":"ce4bhn12rcd13ifvqgpg","pricing_plan_id":"cebpf4jnsgd1na2vs0mg"},{"bike_id":"65369fcc-2ae4-48ec-b85b-55af189a7df3","system_id":"levelo_inurba_marseille","lat":43.289972,"lon":5.356206,"is_reserved":false,"is_disabled":false,"rental_uris":{"android":"levelo://app?vid=65369fcc-2ae4-48ec-b85b-55af189a7df3","ios":"levelo://app?vid=65369fcc-2ae4-48ec-b85b-55af189a7df3"},"vehicle_type_id":"4","last_reported":1749492897,"current_range_meters":18000,"station_id":"ce4bhb92rcd13ifvqen0","pricing_plan_id":"cebpf4jnsgd1na2vs0mg"},{"bike_id":"6f66c2db-0c51-4985-8a1d-27f4678324fd","system_id":"levelo_inurba_marseille","lat":43.28477,"lon":5.38429,"is_reserved":false,"is_disabled":false,"rental_uris":{"android":"levelo://app?vid=6f66c2db-0c51-4985-8a1d-27f4678324fd","ios":"levelo://app?vid=6f66c2db-0c51-4985-8a1d-27f4678324fd"},"vehicle_type_id":"4","last_reported":1749492897,"current_range_meters":18000,"station_id":"ce4bh512rcd13ifvqe3g","pricing_plan_id":"cebpf4jnsgd1na2vs0mg"},{"bike_id":"187b0a7b-e256-4c19-9794-bb250a6c5653","system_id":"levelo_inurba_marseille","lat":43.31394,"lon":5.39176,"is_reserved":false,"is_disabled":false,"rental_uris":{"android":"levelo://app?vid=187b0a7b-e256-4c19-9794-bb250a6c5653","ios":"levelo://app?vid=187b0a7b-e256-4c19-9794-bb250a6c5653"},"vehicle_type_id":"4","last_reported":1749492897,"current_range_meters":18000,"station_id":"","pricing_plan_id":"cebpf4jnsgd1na2vs0mg"},{"bike_id":"b6d9cd5a-4639-4fde-8f89-9492414ad8f0","system_id":"levelo_inurba_marseille","lat":43.27623,"lon":5.36103,"is_reserved":false,"is_disabled":false,"rental_uris":{"android":"levelo://app?vid=b6d9cd5a-4639-4fde-8f89-9492414ad8f0","ios":"levelo://app?vid=b6d9cd5a-4639-4fde-8f89-9492414ad8f0"},"vehicle_type_id":"4","last_reported":1749492897,"current_range_meters":18800,"station_id":"ce4bgj92rcd13ifvqbe0","pricing_plan_id":"cebpf4jnsgd1na2vs0mg"},{"bike_id":"4488a8de-b971-4524-ad28-009ff49fe5be","system_id":"levelo_inurba_marseille","lat":43.29532,"lon":5.38552,"is_reserved":false,"is_disabled":false,"rental_uris":{"android":"levelo://app?vid=4488a8de-b971-4524-ad28-009ff49fe5be","ios":"levelo://app?vid=4488a8de-b971-4524-ad28-009ff49fe5be"},"vehicle_type_id":"4","last_reported":1749492897,"current_range_meters":18800,"station_id":"ce4bgih2rcd13ifvqba0","pricing_plan_id":"cebpf4jnsgd1na2vs0mg"},{"bike_id":"84f5a926-1dd6-4535-b647-2764ce0ca103","system_id":"levelo_inurba_marseille","lat":43.32112,"lon":5.36776,"is_reserved":false,"is_disabled":false,"rental_uris":{"android":"levelo://app?vid=84f5a926-1dd6-4535-b647-2764ce0ca103","ios":"levelo://app?vid=84f5a926-1dd6-4535-b647-2764ce0ca103"},"vehicle_type_id":"4","last_reported":1749492897,"current_range_meters":18800,"station_id":"ce4bhrh2rcd13ifvqhug","pricing_plan_id":"cebpf4jnsgd1na2vs0mg"},{"bike_id":"1e20f032-0f6a-40b2-ad29-e4d2225496fa","system_id":"levelo_inurba_marseille","lat":43.30308,"lon":5.37062,"is_reserved":false,"is_disabled":false,"rental_uris":{"android":"levelo://app?vid=1e20f032-0f6a-40b2-ad29-e4d2225496fa","ios":"levelo://app?vid=1e20f032-0f6a-40b2-ad29-e4d2225496fa"},"vehicle_type_id":"4","last_reported":1749492897,"current_range_meters":18800,"station_id":"","pricing_plan_id":"cebpf4jnsgd1na2vs0mg"},{"bike_id":"d7f228d3-40c9-494e-aaba-c8ab739652fc","system_id":"levelo_inurba_marseille","lat":43.29762,"lon":5.38099,"is_reserved":false,"is_disabled":false,"rental_uris":{"android":"levelo://app?vid=d7f228d3-40c9-494e-aaba-c8ab739652fc","ios":"levelo://app?vid=d7f228d3-40c9-494e-aaba-c8ab739652fc"},"vehicle_type_id":"4","last_reported":1749492897,"current_range_meters":18800,"station_id":"","pricing_plan_id":"cebpf4jnsgd1na2vs0mg"},{"bike_id":"f47be119-bfcb-4a6a-b442-d0ce0aaf9e3f","system_id":"levelo_inurba_marseille","lat":43.29263,"lon":5.40887,"is_reserved":false,"is_disabled":true,"rental_uris":{"android":"levelo://app?vid=f47be119-bfcb-4a6a-b442-d0ce0aaf9e3f","ios":"levelo://app?vid=f47be119-bfcb-4a6a-b442-d0ce0aaf9e3f"},"vehicle_type_id":"4","last_reported":1749492897,"current_range_meters":18800,"station_id":"ce4bh192rcd13ifvqdc0","pricing_plan_id":"cebpf4jnsgd1na2vs0mg"},{"bike_id":"a5da21bd-71eb-4d26-82be-85824b99a760","system_id":"levelo_inurba_marseille","lat":43.24069,"lon":5.3776,"is_reserved":false,"is_disabled":false,"rental_uris":{"android":"levelo://app?vid=a5da21bd-71eb-4d26-82be-85824b99a760","ios":"levelo://app?vid=a5da21bd-71eb-4d26-82be-85824b99a760"},"vehicle_type_id":"4","last_reported":1749492897,"current_range_meters":18800,"station_id":"ce4bhnp2rcd13ifvqgvg","pricing_plan_id":"cebpf4jnsgd1na2vs0mg"},{"bike_id":"a06a5e76-7a40-4637-ae47-ceef6131d43b","system_id":"levelo_inurba_marseille","lat":43.30385,"lon":5.3708,"is_reserved":false,"is_disabled":false,"rental_uris":{"android":"levelo://app?vid=a06a5e76-7a40-4637-ae47-ceef6131d43b","ios":"levelo://app?vid=a06a5e76-7a40-4637-ae47-ceef6131d43b"},"vehicle_type_id":"4","last_reported":1749492897,"current_range_meters":19200,"station_id":"","pricing_plan_id":"cebpf4jnsgd1na2vs0mg"},{"bike_id":"30a6dbfb-a53d-4260-b26e-9b5ce52672ad","system_id":"levelo_inurba_marseille","lat":43.24165,"lon":5.36392,"is_reserved":false,"is_disabled":false,"rental_uris":{"android":"levelo://app?vid=30a6dbfb-a53d-4260-b26e-9b5ce52672ad","ios":"levelo://app?vid=30a6dbfb-a53d-4260-b26e-9b5ce52672ad"},"vehicle_type_id":"4","last_reported":1749492897,"current_range_meters":19200,"station_id":"cpo36qri1sfpv3e86is0","pricing_plan_id":"cebpf4jnsgd1na2vs0mg"},{"bike_id":"65a8cebb-3a85-4302-bb2a-319bedf20eb9","system_id":"levelo_inurba_marseille","lat":43.2594,"lon":5.40897,"is_reserved":false,"is_disabled":false,"rental_uris":{"android":"levelo://app?vid=65a8cebb-3a85-4302-bb2a-319bedf20eb9","ios":"levelo://app?vid=65a8cebb-3a85-4302-bb2a-319bedf20eb9"},"vehicle_type_id":"4","last_reported":1749492897,"current_range_meters":19200,"station_id":"ce4bhm92rcd13ifvqglg","pricing_plan_id":"cebpf4jnsgd1na2vs0mg"},