{"last_updated":1742645767,"ttl":60,"version":"2.2","data":{"bikes":[{"bike_id":"5598a285-a859-428b-94b8-9502fa251890","system_id":"levelo_inurba_marseille","lat":43.25576,"lon":5.38246,"is_reserved":false,"is_disabled":false,"rental_uris":{"android":"levelo://app?vid=5598a285-a859-428b-94b8-9502fa251890","ios":"levelo://app?vid=5598a285-a859-428b-94b8-9502fa251890"},"vehicle_type_id":"4","last_reported":1742645767,"current_range_meters":3200,"station_id":"ce4bhih2rcd13ifvqfs0","pricing_plan_id":"cebpf4jnsgd1na2vs0mg"},{"bike_id":"49db28d3-a884-4b82-8d69-edbe7b9691f6","system_id":"levelo_inurba_marseille","lat":43.23967,"lon":5.36629,"is_reserved":false,"is_disabled":true,"rental_uris":{"android":"levelo://app?vid=49db28d3-a884-4b82-8d69-edbe7b9691f6","ios":"levelo://app?vid=49db28d3-a884-4b82-8d69-edbe7b9691f6"},"vehicle_type_id":"4","last_reported":1742645767,"current_range_meters":3200,"station_id":"ce4bhi12rcd13ifvqfp0","pricing_plan_id":"cebpf4jnsgd1na2vs0mg"},{"bike_id":"d2f8c05b-f28f-4633-8dd4-9fcd5241ff6e","system_id":"levelo_inurba_marseille","lat":43.23149,"lon":5.43713,"is_reserved":false,"is_disabled":false,"rental_uris":{"android":"levelo://app?vid=d2f8c05b-f28f-4633-8dd4-9fcd5241ff6e","ios":"levelo://app?vid=d2f8c05b-f28f-4633-8dd4-9fcd5241ff6e"},"vehicle_type_id":"4","last_reported":1742645767,"current_range_meters":3200,"station_id":"ce4bhmp2rcd13ifvqgog","pricing_plan_id":"cebpf4jnsgd1na2vs0mg"},{"bike_id":"62bf2f5c-9819-4816-afad-4a268d7a76b8","system_id":"levelo_inurba_marseille","lat":43.241684,"lon":5.364138,"is_reserved":false,"is_disabled":true,"rental_uris":{"android":"levelo://app?vid=62bf2f5c-9819-4816-afad-4a268d7a76b8","ios":"levelo://app?vid=62bf2f5c-9819-4816-afad-4a268d7a76b8"},"vehicle_type_id":"4","last_reported":1742645767,"current_range_meters":3600,"station_id":"cpo36qri1sfpv3e86is0","pricing_plan_id":"cebpf4jnsgd1na2vs0mg"},{"bike_id":"c0f7b5e9-db8b-4d57-9d62-6f30fd8a39f4","system_id":"levelo_inurba_marseille","lat":43.24385,"lon":5.37088,"is_reserved":false,"is_disabled":false,"rental_uris":{"android":"levelo://app?vid=c0f7b5e9-db8b-4d57-9d62-6f30fd8a39f4","ios":"levelo://app?vid=c0f7b5e9-db8b-4d57-9d62-6f30fd8a39f4"},"vehicle_type_id":"4","last_reported":1742645767,"current_range_meters":3600,"station_id":"ce4bhhh2rcd13ifvqfk0","pricing_plan_id":"cebpf4jnsgd1na2vs0mg"},{"bike_id":"e0c85bf7-6615-4e4e-b5cb-18becd69b89c","system_id":"levelo_inurba_marseille","lat":43.27214,"lon":5.3918,"is_reserved":false,"is_disabled":false,"rental_uris":{"android":"levelo://app?vid=e0c85bf7-6615-4e4e-b5cb-18becd69b89c","ios":"levelo://app?vid=e0c85bf7-6615-4e4e-b5cb-18becd69b89c"},"vehicle_type_id":"4","last_reported":1742645767,"current_range_meters":2800,"station_id":"ce4bhhp2rcd13ifvqfm0","pricing_plan_id":"cebpf4jnsgd1na2vs0mg"},{"bike_id":"e258e0d8-7e82-49c3-8330-213ca880ed0b","system_id":"levelo_inurba_marseille","lat":43.27908,"lon":5.38007,"is_reserved":false,"is_disabled":false,"rental_uris":{"android":"levelo://app?vid=e258e0d8-7e82-49c3-8330-213ca880ed0b","ios":"levelo://app?vid=e258e0d8-7e82-49c3-8330-213ca880ed0b"},"vehicle_type_id":"4","last_reported":1742645767,"current_range_meters":4000,"station_id":"ce4bhf92rcd13ifvqf50","pricing_plan_id":"cebpf4jnsgd1na2vs0mg"},{"bike_id":"e9a17b05-cd91-4a35-a891-d04f8abac0b6","system_id":"levelo_inurba_marseille","lat":43.23054,"lon":5.35491,"is_reserved":false,"is_disabled":false,"rental_uris":{"android":"levelo://app?vid=e9a17b05-cd91-4a35-a891-d04f8abac0b6","ios":"levelo://app?vid=e9a17b05-cd91-4a35-a891-d04f8abac0b6"},"vehicle_type_id":"4","last_reported":1742645767,"current_range_meters":4000,"station_id":"cpo3342slgdg3j2ifvpg","pricing_plan_id":"cebpf4jnsgd1na2vs0mg"},{"bike_id":"98f9335d-10a9-4a19-b95e-b045c7846d8b","system_id":"levelo_inurba_marseille","lat":43.305242,"lon":5.384334,"is_reserved":false,"is_disabled":false,"rental_uris":{"android":"levelo://app?vid=98f9335d-10a9-4a19-b95e-b045c7846d8b","ios":"levelo://app?vid=98f9335d-10a9-4a19-b95e-b045c7846d8b"},"vehicle_type_id":"4","last_reported":1742645767,"current_range_meters":4000,"station_id":"ce4bgg92rcd13ifvqb30","pricing_plan_id":"cebpf4jnsgd1na2vs0mg"},{"bike_id":"7efc763b-b69d-45d7-bb25-a659455da627","system_id":"levelo_inurba_marseille","lat":43.26551,"lon":5.3729,"is_reserved":false,"is_disabled":false,"rental_uris":{"android":"levelo://app?vid=7efc763b-b69d-45d7-bb25-a659455da627","ios":"levelo://app?vid=7efc763b-b69d-45d7-bb25-a659455da627"},"vehicle_type_id":"4","last_reported":1742645767,"current_range_meters":4400,"station_id":"ce4bhg12rcd13ifvqf70","pricing_plan_id":"cebpf4jnsgd1na2vs0mg"},{"bike_id":"b25c16cc-fcf3-4005-ae0f-e8353c1178cb","system_id":"levelo_inurba_marseille","lat":43.24701,"lon":5.38135,"is_reserved":false,"is_disabled":true,"rental_uris":{"android":"levelo://app?vid=b25c16cc-fcf3-4005-ae0f-e8353c1178cb","ios":"levelo://app?vid=b25c16cc-fcf3-4005-ae0f-e8353c1178cb"},"vehicle_type_id":"4","last_reported":1742645767,"current_range_meters":4400,"station_id":"ce4bhih2rcd13ifvqfr0","pricing_plan_id":"cebpf4jnsgd1na2vs0mg"},{"bike_id":"fe21deb7-e0f1-44bb-b524-3daaae9b4923","system_id":"levelo_inurba_marseille","lat":43.29004,"lon":5.35614,"is_reserved":false,"is_disabled":false,"rental_uris":{"android":"levelo://app?vid=fe21deb7-e0f1-44bb-b524-3daaae9b4923","ios":"levelo://app?vid=fe21deb7-e0f1-44bb-b524-3daaae9b4923"},"vehicle_type_id":"4","last_reported":1742645767,"current_range_meters":4400,"station_id":"ce4bhb92rcd13ifvqen0","pricing_plan_id":"cebpf4jnsgd1na2vs0mg"},{"bike_id":"4671c13b-bd62-4a61-b95c-3b59d31652e8","system_id":"levelo_inurba_marseille","lat":43.29947,"lon":5.36544,"is_reserved":false,"is_disabled":false,"rental_uris":{"android":"levelo://app?vid=4671c13b-bd62-4a61-b95c-3b59d31652e8","ios":"levelo://app?vid=4671c13b-bd62-4a61-b95c-3b59d31652e8"},"vehicle_type_id":"4","last_reported":1742645767,"current_range_meters":4800,"station_id":"ce4bgm92rcd13ifvqbr0","pricing_plan_id":"cebpf4jnsgd1na2vs0mg"},{"bike_id":"b00605e3-b50e-457e-a9d6-59adef6bb5fb","system_id":"levelo_inurba_marseille","lat":43.28154,"lon":5.42639,"is_reserved":false,"is_disabled":false,"rental_uris":{"android":"levelo://app?vid=b00605e3-b50e-457e-a9d6-59adef6bb5fb","ios":"levelo://app?vid=b00605e3-b50e-457e-a9d6-59adef6bb5fb"},"vehicle_type_id":"4","last_reported":1742645767,"current_range_meters":4800,"station_id":"ce4bhnh2rcd13ifvqgug","pricing_plan_id":"cebpf4jnsgd1na2vs0mg"},{"bike_id":"df0f6df6-7586-4f58-b30e-6b808956d7d4","system_id":"levelo_inurba_marseille","lat":43.28603,"lon":5.37067,"is_reserved":false,"is_disabled":false,"rental_uris":{"android":"levelo://app?vid=df0f6df6-7586-4f58-b30e-6b808956d7d4","ios":"levelo://app?vid=df0f6df6-7586-4f58-b30e-6b808956d7d4"},"vehicle_type_id":"4","last_reported":1742645767,"current_range_meters":4800,"station_id":"ce4bht12rcd13ifvqi60","pricing_plan_id":"cebpf4jnsgd1na2vs0mg"},{"bike_id":"37222b26-59e5-4287-bdb5-c0c0a3e975cf","system_id":"levelo_inurba_marseille","lat":43.2885,"lon":5.3931,"is_reserved":false,"is_disabled":false,"rental_uris":{"android":"levelo://app?vid=37222b26-59e5-4287-bdb5-c0c0a3e975cf","ios":"levelo://app?vid=37222b26-59e5-4287-bdb5-c0c0a3e975cf"},"vehicle_type_id":"4","last_reported":1742645767,"current_range_meters":5600,"station_id":"ce4bh2p2rcd13ifvqdi0","pricing_plan_id":"cebpf4jnsgd1na2vs0mg"},{"bike_id":"4ed6a51f-ae4f-4ece-a377-80c6b88db198","system_id":"levelo_inurba_marseille","lat":43.24082,"lon":5.37758,"is_reserved":false,"is_disabled":false,"rental_uris":{"android":"levelo://app?vid=4ed6a51f-ae4f-4ece-a377-80c6b88db198","ios":"levelo://app?vid=4ed6a51f-ae4f-4ece-a377-80c6b88db198"},"vehicle_type_id":"4","last_reported":1742645767,"current_range_meters":4800,"station_id":"ce4bhnp2rcd13ifvqgvg","pricing_plan_id":"cebpf4jnsgd1na2vs0mg"},{"bike_id":"6f0638c6-50c7-475d-9f03-b4c5329cc52a","system_id":"levelo_inurba_marseille","lat":43.23977,"lon":5.3661,"is_reserved":false,"is_disabled":false,"rental_uris":{"android":"levelo://app?vid=6f0638c6-50c7-475d-9f03-b4c5329cc52a","ios":"levelo://app?vid=6f0638c6-50c7-475d-9f03-b4c5329cc52a"},"vehicle_type_id":"4","last_reported":1742645767,"current_range_meters":4800,"station_id":"ce4bhi12rcd13ifvqfp0","pricing_plan_id":"cebpf4jnsgd1na2vs0mg"},{"bike_id":"3f7014a7-f3b0-4542-b8ce-80ef44f54b7d","system_id":"levelo_inurba_marseille","lat":43.23152,"lon":5.43699,"is_reserved":false,"is_disabled":false,"rental_uris":{"android":"levelo://app?vid=3f7014a7-f3b0-4542-b8ce-80ef44f54b7d","ios":"levelo://app?vid=3f7014a7-f3b0-4542-b8ce-80ef44f54b7d"},"vehicle_type_id":"4","last_reported":1742645767,"current_range_meters":5600,"station_id":"ce4bhmp2rcd13ifvqgog","pricing_plan_id":"cebpf4jnsgd1na2vs0mg"},{"bike_id":"1c3b5361-695c-4ccc-94f9-aca7f37b6d45","system_id":"levelo_inurba_marseille","lat":43.2319,"lon":5.35552,"is_reserved":false,"is_disabled":false,"rental_uris":{"android":"levelo://app?vid=1c3b5361-695c-4ccc-94f9-aca7f37b6d45","ios":"levelo://app?vid=1c3b5361-695c-4ccc-94f9-aca7f37b6d45"},"vehicle_type_id":"4","last_reported":1742645767,"current_range_meters":5600,"station_id":"ce4bhu92rcd13ifvqi70","pricing_plan_id":"cebpf4jnsgd1na2vs0mg"},{"bike_id":"eb448bf3-577c-4133-8b3d-d5e88414cb62","system_id":"levelo_inurba_marseille","lat":43.2901,"lon":5.35609,"is_reserved":false,"is_disabled":false,"rental_uris":{"android":"levelo://app?vid=eb448bf3-577c-4133-8b3d-d5e88414cb62","ios":"levelo://app?vid=eb448bf3-577c-4133-8b3d-d5e88414cb62"},"vehicle_type_id":"4","last_reported":1742645767,"current_range_meters":6000,"station_id":"ce4bhb92rcd13ifvqen0","pricing_plan_id":"cebpf4jnsgd1na2vs0mg"},{"bike_id":"a67c54b6-5ce9-4632-8070-5ca7d5b7fc9e","system_id":"levelo_inurba_marseille","lat":43.2306,"lon":5.35509,"is_reserved":false,"is_disabled":false,"rental_uris":{"android":"levelo://app?vid=a67c54b6-5ce9-4632-8070-5ca7d5b7fc9e","ios":"levelo://app?vid=a67c54b6-5ce9-4632-8070-5ca7d5b7fc9e"},"vehicle_type_id":"4","last_reported":1742645767,"current_range_meters":6000,"station_id":"cpo3342slgdg3j2ifvpg","pricing_plan_id":"cebpf4jnsgd1na2vs0mg"},{"bike_id":"4ae497d6-c69c-4595-b6ea-8283739c35e6","system_id":"levelo_inurba_marseille","lat":43.27212,"lon":5.39175,"is_reserved":false,"is_disabled":false,"rental_uris":{"android":"levelo://app?vid=4ae497d6-c69c-4595-b6ea-8283739c35e6","ios":"levelo://app?vid=4ae497d6-c69c-4595-b6ea-8283739c35e6"},"vehicle_type_id":"4","last_reported":1742645767,"current_range_meters":6000,"station_id":"ce4bhhp2rcd13ifvqfm0","pricing_plan_id":"cebpf4jnsgd1na2vs0mg"},{"bike_id":"69f2eace-d8b4-452a-9ecd-42f079d9cac5","system_id":"levelo_inurba_marseille","lat":43.2743,"lon":5.39412,"is_reserved":false,"is_disabled":false,"rental_uris":{"android":"levelo://app?vid=69f2eace-d8b4-452a-9ecd-42f079d9cac5","ios":"levelo://app?vid=69f2eace-d8b4-452a-9ecd-42f079d9cac5"},"vehicle_type_id":"4","last_reported":1742645767,"current_range_meters":6000,"station_id":"ce4bhdp2rcd13ifvqf20","pricing_plan_id":"cebpf4jnsgd1na2vs0mg"},{"bike_id":"2330c8bb-3508-4fa1-9310-6ce923a32561","system_id":"levelo_inurba_marseille","lat":43.2306,"lon":5.35487,"is_reserved":false,"is_disabled":false,"rental_uris":{"android":"levelo://app?vid=2330c8bb-3508-4fa1-9310-6ce923a32561","ios":"levelo://app?vid=2330c8bb-3508-4fa1-9310-6ce923a32561"},"vehicle_type_id":"4","last_reported":1742645767,"current_range_meters":6400,"station_id":"cpo3342slgdg3j2ifvpg","pricing_plan_id":"cebpf4jnsgd1na2vs0mg"},{"bike_id":"7a276385-b081-47a9-b1ff-0974e6d36fc2","system_id":"levelo_inurba_marseille","lat":43.28612,"lon":5.37057,"is_reserved":false,"is_disabled":false,"rental_uris":{"android":"levelo://app?vid=7a276385-b081-47a9-b1ff-0974e6d36fc2","ios":"levelo://app?vid=7a276385-b081-47a9-b1ff-0974e6d36fc2"},"vehicle_type_id":"4","last_reported":1742645767,"current_range_meters":6400,"station_id":"ce4bht12rcd13ifvqi60","pricing_plan_id":"cebpf4jnsgd1na2vs0mg"},{"bike_id":"1f4b5356-d265-454a-aa48-2f7dec9d4d2a","system_id":"levelo_inurba_marseille","lat":43.33728,"lon":5.39189,"is_reserved":false,"is_disabled":false,"rental_uris":{"android":"levelo://app?vid=1f4b5356-d265-454a-aa48-2f7dec9d4d2a","ios":"levelo://app?vid=1f4b5356-d265-454a-aa48-2f7dec9d4d2a"},"vehicle_type_id":"4","last_reported":1742645767,"current_range_meters":6400,"station_id":"ce4bhr92rcd13ifvqhsg","pricing_plan_id":"cebpf4jnsgd1na2vs0mg"},{"bike_id":"22fc8a9f-a716-4c67-b5de-c39abadd7316","system_id":"levelo_inurba_marseille","lat":43.27216,"lon":5.39187,"is_reserved":false,"is_disabled":false,"rental_uris":{"android":"levelo://app?vid=22fc8a9f-a716-4c67-b5de-c39abadd7316","ios":"levelo://app?vid=22fc8a9f-a716-4c67-b5de-c39abadd7316"},"vehicle_type_id":"4","last_reported":1742645767,"current_range_meters":6800,"station_id":"ce4bhhp2rcd13ifvqfm0","pricing_plan_id":"cebpf4jnsgd1na2vs0mg"},{"bike_id":"9689a4b5-b9bb-45af-815b-74c4658ab903","system_id":"levelo_inurba_marseille","lat":43.25941,"lon":5.40921,"is_reserved":false,"is_disabled":false,"rental_uris":{"android":"levelo://app?vid=9689a4b5-b9bb-45af-815b-74c4658ab903","ios":"levelo://app?vid=9689a4b5-b9bb-45af-815b-74c4658ab903"},"vehicle_type_id":"4","last_reported":1742645767,"current_range_meters":6800,"station_id":"ce4bhm92rcd13ifvqglg","pricing_plan_id":"cebpf4jnsgd1na2vs0mg"},{"bike_id":"d000c8ac-0c96-4fc1-ac84-5f67409cab71","system_id":"levelo_inurba_marseille","lat":43.32475,"lon":5.36547,"is_reserved":false,"is_disabled":false,"rental_uris":{"android":"levelo://app?vid=d000c8ac-0c96-4fc1-ac84-5f67409cab71","ios":"levelo://app?vid=d000c8ac-0c96-4fc1-ac84-5f67409cab71"},"vehicle_type_id":"4","last_reported":1742645767,"current_range_meters":6800,"station_id":"ce4bhs12rcd13ifvqhvg","pricing_plan_id":"cebpf4jnsgd1na2vs0mg"},{"bike_id":"c92885b7-d47b-4ad8-bfd3-08f832a5c66e","system_id":"levelo_inurba_marseille","lat":43.27084,"lon":5.38257,"is_reserved":false,"is_disabled":false,"rental_uris":{"android":"levelo://app?vid=c92885b7-d47b-4ad8-bfd3-08f832a5c66e","ios":"levelo://app?vid=c92885b7-d47b-4ad8-bfd3-08f832a5c66e"},"vehicle_type_id":"4","last_reported":1742645767,"current_range_meters":6800,"station_id":"ce4bhf92rcd13ifvqf50","pricing_plan_id":"cebpf4jnsgd1na2vs0mg"},{"bike_id":"1323d2cd-c4e0-4783-b4f1-4daaeb41faef","system_id":"levelo_inurba_marseille","lat":43.23964,"lon":5.3663,"is_reserved":false,"is_disabled":false,"rental_uris":{"android":"levelo://app?vid=1323d2cd-c4e0-4783-b4f1-4daaeb41faef","ios":"levelo://app?vid=1323d2cd-c4e0-4783-b4f1-4daaeb41faef"},"vehicle_type_id":"4","last_reported":1742645767,"current_range_meters":6800,"station_id":"ce4bhi12rcd13ifvqfp0","pricing_plan_id":"cebpf4jnsgd1na2vs0mg"},{"bike_id":"c41362a9-fbd0-4208-9c70-b2d457ad1df4","system_id":"levelo_inurba_marseille","lat":43.23196,"lon":5.35549,"is_reserved":false,"is_disabled":false,"rental_uris":{"android":"levelo://app?vid=c41362a9-fbd0-4208-9c70-b2d457ad1df4","ios":"levelo://app?vid=c41362a9-fbd0-4208-9c70-b2d457ad1df4"},"vehicle_type_id":"4","last_reported":1742645767,"current_range_meters":6800,"station_id":"ce4bhu92rcd13ifvqi70","pricing_plan_id":"cebpf4jnsgd1na2vs0mg"},{"bike_id":"b8947409-508b-461c-b433-a1d5d02b6078","system_id":"levelo_inurba_marseille","lat":43.26556,"lon":5.37299,"is_reserved":false,"is_disabled":false,"rental_uris":{"android":"levelo://app?vid=b8947409-508b-461c-b433-a1d5d02b6078","ios":"levelo://app?vid=b8947409-508b-461c-b433-a1d5d02b6078"},"vehicle_type_id":"4","last_reported":1742645767,"current_range_meters":6800,"station_id":"ce4bhg12rcd13ifvqf70","pricing_plan_id":"cebpf4jnsgd1na2vs0mg"},{"bike_id":"264e371d-4be5-4c86-b6ff-2300fb9f3f35","system_id":"levelo_inurba_marseille","lat":43.23192,"lon":5.35557,"is_reserved":false,"is_disabled":false,"rental_uris":{"android":"levelo://app?vid=264e371d-4be5-4c86-b6ff-2300fb9f3f35","ios":"levelo://app?vid=264e371d-4be5-4c86-b6ff-2300fb9f3f35"},"vehicle_type_id":"4","last_reported":1742645767,"current_range_meters":6800,"station_id":"ce4bhu92rcd13ifvqi70","pricing_plan_id":"cebpf4jnsgd1na2vs0mg"},{"bike_id":"e34e7a93-d63f-4e4e-a99a-78b61e987ca2","system_id":"levelo_inurba_marseille","lat":43.29098,"lon":5.38157,"is_reserved":false,"is_disabled":false,"rental_uris":{"android":"levelo://app?vid=e34e7a93-d63f-4e4e-a99a-78b61e987ca2","ios":"levelo://app?vid=e34e7a93-d63f-4e4e-a99a-78b61e987ca2"},"vehicle_type_id":"4","last_reported":1742645767,"current_range_meters":6800,"station_id":"ce4bh512rcd13ifvqe2g","pricing_plan_id":"cebpf4jnsgd1na2vs0mg"},{"bike_id":"5bc1309a-b3c5-4091-8cc5-90c20ae69363","system_id":"levelo_inurba_marseille","lat":43.28109,"lon":5.3783,"is_reserved":false,"is_disabled":false,"rental_uris":{"android":"levelo://app?vid=5bc1309a-b3c5-4091-8cc5-90c20ae69363","ios":"levelo://app?vid=5bc1309a-b3c5-4091-8cc5-90c20ae69363"},"vehicle_type_id":"4","last_reported":1742645767,"current_range_meters":6800,"station_id":"ce4bha12rcd13ifvqee0","pricing_plan_id":"cebpf4jnsgd1na2vs0mg"},{"bike_id":"52c16ac5-3447-4053-956c-78fc8bf0dc7c","system_id":"levelo_inurba_marseille","lat":43.32352,"lon":5.36755,"is_reserved":false,"is_disabled":false,"rental_uris":{"android":"levelo://app?vid=52c16ac5-3447-4053-956c-78fc8bf0dc7c","ios":"levelo://app?vid=52c16ac5-3447-4053-956c-78fc8bf0dc7c"},"vehicle_type_id":"4","last_reported":1742645767,"current_range_meters":7200,"station_id":"ce4bhsh2rcd13ifvqi2g","pricing_plan_id":"cebpf4jnsgd1na2vs0mg"},{"bike_id":"3e0a9022-5c7d-4c06-b7de-7f79ef61545a","system_id":"levelo_inurba_marseille","lat":43.25113,"lon":5.40322,"is_reserved":false,"is_disabled":false,"rental_uris":{"android":"levelo://app?vid=3e0a9022-5c7d-4c06-b7de-7f79ef61545a","ios":"levelo://app?vid=3e0a9022-5c7d-4c06-b7de-7f79ef61545a"},"vehicle_type_id":"4","last_reported":1742645767,"current_range_meters":7200,"station_id":"ce4bhlh2rcd13ifvqgig","pricing_plan_id":"cebpf4jnsgd1na2vs0mg"},{"bike_id":"c5fee7ce-e99b-41d7-bf02-104474486b07","system_id":"levelo_inurba_marseille","lat":43.23196,"lon":5.35546,"is_reserved":false,"is_disabled":false,"rental_uris":{"android":"levelo://app?vid=c5fee7ce-e99b-41d7-bf02-104474486b07","ios":"levelo://app?vid=c5fee7ce-e99b-41d7-bf02-104474486b07"},"vehicle_type_id":"4","last_reported":1742645767,"current_range_meters":7200,"station_id":"ce4bhu92rcd13ifvqi70","pricing_plan_id":"cebpf4jnsgd1na2vs0mg"},{"bike_id":"20e2be53-78ac-4b24-8dad-96b43d72add2","system_id":"levelo_inurba_marseille","lat":43.31077,"lon":5.38324,"is_reserved":false,"is_disabled":false,"rental_uris":{"android":"levelo://app?vid=20e2be53-78ac-4b24-8dad-96b43d72add2","ios":"levelo://app?vid=20e2be53-78ac-4b24-8dad-96b43d72add2"},"vehicle_type_id":"4","last_reported":1742645767,"current_range_meters":7200,"station_id":"ce4bgv92rcd13ifvqcr0","pricing_plan_id":"cebpf4jnsgd1na2vs0mg"},{"bike_id":"bf5d7bdb-65a8-4310-b955-6a76e2cbd7fe","system_id":"levelo_inurba_marseille","lat":43.33728,"lon":5.39176,"is_reserved":false,"is_disabled":false,"rental_uris":{"android":"levelo://app?vid=bf5d7bdb-65a8-4310-b955-6a76e2cbd7fe","ios":"levelo://app?vid=bf5d7bdb-65a8-4310-b955-6a76e2cbd7fe"},"vehicle_type_id":"4","last_reported":1742645767,"current_range_meters":7200,"station_id":"ce4bhr92rcd13ifvqhsg","pricing_plan_id":"cebpf4jnsgd1na2vs0mg"},{"bike_id":"9ea013c3-3314-45aa-90b1-cd20db66a6bf","system_id":"levelo_inurba_marseille","lat":43.26214,"lon":5.37423,"is_reserved":false,"is_disabled":false,"rental_uris":{"android":"levelo://app?vid=9ea013c3-3314-45aa-90b1-cd20db66a6bf","ios":"levelo://app?vid=9ea013c3-3314-45aa-90b1-cd20db66a6bf"},"vehicle_type_id":"4","last_reported":1742645767,"current_range_meters":7200,"station_id":"ce4bhgp2rcd13ifvqfc0","pricing_plan_id":"cebpf4jnsgd1na2vs0mg"},{"bike_id":"74d21d0d-dd47-4887-ba4c-c7bacc665565","system_id":"levelo_inurba_marseille","lat":43.2408,"lon":5.37746,"is_reserved":false,"is_disabled":false,"rental_uris":{"android":"levelo://app?vid=74d21d0d-dd47-4887-ba4c-c7bacc665565","ios":"levelo://app?vid=74d21d0d-dd47-4887-ba4c-c7bacc665565"},"vehicle_type_id":"4","last_reported":1742645767,"current_range_meters":7200,"station_id":"ce4bhnp2rcd13ifvqgvg","pricing_plan_id":"cebpf4jnsgd1na2vs0mg"},{"bike_id":"286e9973-6729-4290-80c2-c8aa8a90c265","system_id":"levelo_inurba_marseille","lat":43.295593,"lon":5.422963,"is_reserved":false,"is_disabled":false,"rental_uris":{"android":"levelo://app?vid=286e9973-6729-4290-80c2-c8aa8a90c265","ios":"levelo://app?vid=286e9973-6729-4290-80c2-c8aa8a90c265"},"vehicle_type_id":"4","last_reported":1742645767,"current_range_meters":8000,"station_id":"ce4bhph2rcd13ifvqhdg","pricing_plan_id":"cebpf4jnsgd1na2vs0mg"},{"bike_id":"9f1c3e5c-869d-4869-b7c6-0c926f2da6bf","system_id":"levelo_inurba_marseille","lat":43.28352,"lon":5.3979,"is_reserved":false,"is_disabled":false,"rental_uris":{"android":"levelo://app?vid=9f1c3e5c-869d-4869-b7c6-0c926f2da6bf","ios":"levelo://app?vid=9f1c3e5c-869d-4869-b7c6-0c926f2da6bf"},"vehicle_type_id":"4","last_reported":1742645767,"current_range_meters":8000,"station_id":"","pricing_plan_id":"cebpf4jnsgd1na2vs0mg"},{"bike_id":"9b80c4db-51e1-4e4e-8ecd-a558d3a24fd7","system_id":"levelo_inurba_marseille","lat":43.33172,"lon":5.38172,"is_reserved":false,"is_disabled":false,"rental_uris":{"android":"levelo://app?vid=9b80c4db-51e1-4e4e-8ecd-a558d3a24fd7","ios":"levelo://app?vid=9b80c4db-51e1-4e4e-8ecd-a558d3a24fd7"},"vehicle_type_id":"4","last_reported":1742645767,"current_range_meters":8000,"station_id":"","pricing_plan_id":"cebpf4jnsgd1na2vs0mg"},{"bike_id":"8ee2017b-4c97-4201-84a6-3692d8192331","system_id":"levelo_inurba_marseille","lat":43.27208,"lon":5.39176,"is_reserved":false,"is_disabled":false,"rental_uris":{"android":"levelo://app?vid=8ee2017b-4c97-4201-84a6-3692d8192331","ios":"levelo://app?vid=8ee2017b-4c97-4201-84a6-3692d8192331"},"vehicle_type_id":"4","last_reported":1742645767,"current_range_meters":8000,"station_id":"ce4bhhp2rcd13ifvqfm0","pricing_plan_id":"cebpf4jnsgd1na2vs0mg"},{"bike_id":"3ee69224-7c6a-448e-b5bc-935bb2df6bdf","system_id":"levelo_inurba_marseille","lat":43.28066,"lon":5.39673,"is_reserved":false,"is_disabled":false,"rental_uris":{"android":"levelo://app?vid=3ee69224-7c6a-448e-b5bc-935bb2df6bdf","ios":"levelo://app?vid=3ee69224-7c6a-448e-b5bc-935bb2df6bdf"},"vehicle_type_id":"4","last_reported":1742645767,"current_range_meters":8000,"station_id":"ce4bho12rcd13ifvqh2g","pricing_plan_id":"cebpf4jnsgd1na2vs0mg"},{"bike_id":"0faeda17-87f9-4308-b369-97acc6c5068b","system_id":"levelo_inurba_marseille","lat":43.24558,"lon":5.39509,"is_reserved":false,"is_disabled":false,"rental_uris":{"android":"levelo://app?vid=0faeda17-87f9-4308-b369-97acc6c5068b","ios":"levelo://app?vid=0faeda17-87f9-4308-b369-97acc6c5068b"},"vehicle_type_id":"4","last_reported":1742645767,"current_range_meters":8400,"station_id":"ce4bhlp2rcd13ifvqgjg","pricing_plan_id":"cebpf4jnsgd1na2vs0mg"},{"bike_id":"1ed82f81-642c-4543-ae73-0214d15cbcd3","system_id":"levelo_inurba_marseille","lat":43.30304,"lon":5.36869,"is_reserved":false,"is_disabled":false,"rental_uris":{"android":"levelo://app?vid=1ed82f81-642c-4543-ae73-0214d15cbcd3","ios":"levelo://app?vid=1ed82f81-642c-4543-ae73-0214d15cbcd3"},"vehicle_type_id":"4","last_reported":1742645767,"current_range_meters":8400,"station_id":"ce4bgqh2rcd13ifvqc5g","pricing_plan_id":"cebpf4jnsgd1na2vs0mg"},{"bike_id":"312ef421-78b3-4801-9408-63746d758ccd","system_id":"levelo_inurba_marseille","lat":43.24807,"lon":5.3745,"is_reserved":false,"is_disabled":false,"rental_uris":{"android":"levelo://app?vid=312ef421-78b3-4801-9408-63746d758ccd","ios":"levelo://app?vid=312ef421-78b3-4801-9408-63746d758ccd"},"vehicle_type_id":"4","last_reported":1742645767,"current_range_meters":8400,"station_id":"ce4bhgh2rcd13ifvqfb0","pricing_plan_id":"cebpf4jnsgd1na2vs0mg"},{"bike_id":"276613ec-3310-44d6-ae3f-44328dd4fd15","system_id":"levelo_inurba_marseille","lat":43.25831,"lon":5.39419,"is_reserved":false,"is_disabled":false,"rental_uris":{"android":"levelo://app?vid=276613ec-3310-44d6-ae3f-44328dd4fd15","ios":"levelo://app?vid=276613ec-3310-44d6-ae3f-44328dd4fd15"},"vehicle_type_id":"4","last_reported":1742645767,"current_range_meters":8400,"station_id":"ce4bhip2rcd13ifvqft0","pricing_plan_id":"cebpf4jnsgd1na2vs0mg"},{"bike_id":"93227163-7ec6-44a8-9470-7a4f46bc4ede","system_id":"levelo_inurba_marseille","lat":43.26062,"lon":5.39401,"is_reserved":false,"is_disabled":false,"rental_uris":{"android":"levelo://app?vid=93227163-7ec6-44a8-9470-7a4f46bc4ede","ios":"levelo://app?vid=93227163-7ec6-44a8-9470-7a4f46bc4ede"},"vehicle_type_id":"4","last_reported":1742645767,"current_range_meters":12400,"station_id":"ce4bhh92rcd13ifvqfj0","pricing_plan_id":"cebpf4jnsgd1na2vs0mg"},{"bike_id":"295b2b96-8a22-4b6f-a45b-df5a7ed58969","system_id":"levelo_inurba_marseille","lat":43.3372,"lon":5.39191,"is_reserved":false,"is_disabled":false,"rental_uris":{"android":"levelo://app?vid=295b2b96-8a22-4b6f-a45b-df5a7ed58969","ios":"levelo://app?vid=295b2b96-8a22-4b6f-a45b-df5a7ed58969"},"vehicle_type_id":"4","last_reported":1742645767,"current_range_meters":8800,"station_id":"ce4bhr92rcd13ifvqhsg","pricing_plan_id":"cebpf4jnsgd1na2vs0mg"},{"bike_id":"ed2c4253-1e38-41b4-80d5-b386b76b0d31","system_id":"levelo_inurba_marseille","lat":43.28701,"lon":5.374,"is_reserved":false,"is_disabled":false,"rental_uris":{"android":"levelo://app?vid=ed2c4253-1e38-41b4-80d5-b386b76b0d31","ios":"levelo://app?vid=ed2c4253-1e38-41b4-80d5-b386b76b0d31"},"vehicle_type_id":"4","last_reported":1742645767,"current_range_meters":13600,"station_id":"ce4bh3p2rcd13ifvqdq0","pricing_plan_id":"cebpf4jnsgd1na2vs0mg"},{"bike_id":"01d756d3-e4f6-4eb1-9b78-5903f0ae1c8e","system_id":"levelo_inurba_marseille","lat":43.30887,"lon":5.39651,"is_reserved":false,"is_disabled":false,"rental_uris":{"android":"levelo://app?vid=01d756d3-e4f6-4eb1-9b78-5903f0ae1c8e","ios":"levelo://app?vid=01d756d3-e4f6-4eb1-9b78-5903f0ae1c8e"},"vehicle_type_id":"4","last_reported":1742645767,"current_range_meters":9200,"station_id":"ce4bh012rcd13ifvqcv0","pricing_plan_id":"cebpf4jnsgd1na2vs0mg"},{"bike_id":"30f74d27-9970-4afa-b900-f9accdc2d04a","system_id":"levelo_inurba_marseille","lat":43.26233,"lon":5.40449,"is_reserved":false,"is_disabled":false,"rental_uris":{"android":"levelo://app?vid=30f74d27-9970-4afa-b900-f9accdc2d04a","ios":"levelo://app?vid=30f74d27-9970-4afa-b900-f9accdc2d04a"},"vehicle_type_id":"4","last_reported":1742645767,"current_range_meters":8800,"station_id":"ce4bhmh2rcd13ifvqgmg","pricing_plan_id":"cebpf4jnsgd1na2vs0mg"},{"bike_id":"65b642d2-4bbc-47bd-9c36-3f213e795fd7","system_id":"levelo_inurba_marseille","lat":43.25824,"lon":5.39434,"is_reserved":false,"is_disabled":false,"rental_uris":{"android":"levelo://app?vid=65b642d2-4bbc-47bd-9c36-3f213e795fd7","ios":"levelo://app?vid=65b642d2-4bbc-47bd-9c36-3f213e795fd7"},"vehicle_type_id":"4","last_reported":1742645767,"current_range_meters":8800,"station_id":"ce4bhip2rcd13ifvqft0","pricing_plan_id":"cebpf4jnsgd1na2vs0mg"},{"bike_id":"351f0c73-94fd-42e2-99ea-091e8e0db50f","system_id":"levelo_inurba_marseille","lat":43.26811,"lon":5.40263,"is_reserved":false,"is_disabled":false,"rental_uris":{"android":"levelo://app?vid=351f0c73-94fd-42e2-99ea-091e8e0db50f","ios":"levelo://app?vid=351f0c73-94fd-42e2-99ea-091e8e0db50f"},"vehicle_type_id":"4","last_reported":1742645767,"current_range_meters":9200,"station_id":"ce501612rcd8frsf0b60","pricing_plan_id":"cebpf4jnsgd1na2vs0mg"},{"bike_id":"0b78fbb1-d06b-49df-9def-1125903efed2","system_id":"levelo_inurba_marseille","lat":43.23069,"lon":5.35487,"is_reserved":false,"is_disabled":false,"rental_uris":{"android":"levelo://app?vid=0b78fbb1-d06b-49df-9def-1125903efed2","ios":"levelo://app?vid=0b78fbb1-d06b-49df-9def-1125903efed2"},"vehicle_type_id":"4","last_reported":1742645767,"current_range_meters":9200,"station_id":"cpo3342slgdg3j2ifvpg","pricing_plan_id":"cebpf4jnsgd1na2vs0mg"},{"bike_id":"480dd19f-0b15-4071-974c-10876fd5b12e","system_id":"levelo_inurba_marseille","lat":43.24387,"lon":5.37062,"is_reserved":false,"is_disabled":false,"rental_uris":{"android":"levelo://app?vid=480dd19f-0b15-4071-974c-10876fd5b12e","ios":"levelo://app?vid=480dd19f-0b15-4071-974c-10876fd5b12e"},"vehicle_type_id":"4","last_reported":1742645767,"current_range_meters":9200,"station_id":"ce4bhhh2rcd13ifvqfk0","pricing_plan_id":"cebpf4jnsgd1na2vs0mg"},{"bike_id":"7a80749b-56dc-4ab1-a2d7-268dfcb799e2","system_id":"levelo_inurba_marseille","lat":43.23964,"lon":5.36642,"is_reserved":false,"is_disabled":false,"rental_uris":{"android":"levelo://app?vid=7a80749b-56dc-4ab1-a2d7-268dfcb799e2","ios":"levelo://app?vid=7a80749b-56dc-4ab1-a2d7-268dfcb799e2"},"vehicle_type_id":"4","last_reported":1742645767,"current_range_meters":9200,"station_id":"ce4bhi12rcd13ifvqfp0","pricing_plan_id":"cebpf4jnsgd1na2vs0mg"},{"bike_id":"e1e493b8-6ddd-477f-a5c7-ce583728c84a","system_id":"levelo_inurba_marseille","lat":43.29028,"lon":5.38131,"is_reserved":false,"is_disabled":false,"rental_uris":{"android":"levelo://app?vid=e1e493b8-6ddd-477f-a5c7-ce583728c84a","ios":"levelo://app?vid=e1e493b8-6ddd-477f-a5c7-ce583728c84a"},"vehicle_type_id":"4","last_reported":1742645767,"current_range_meters":9200,"station_id":"ce4bh4p2rcd13ifvqe1g","pricing_plan_id":"cebpf4jnsgd1na2vs0mg"},{"bike_id":"0bc0a5d1-7ca8-4540-9246-9887e34ab0f8","system_id":"levelo_inurba_marseille","lat":43.28074,"lon":5.39651,"is_reserved":false,"is_disabled":false,"rental_uris":{"android":"levelo://app?vid=0bc0a5d1-7ca8-4540-9246-9887e34ab0f8","ios":"levelo://app?vid=0bc0a5d1-7ca8-4540-9246-9887e34ab0f8"},"vehicle_type_id":"4","last_reported":1742645767,"current_range_meters":9200,"station_id":"ce4bho12rcd13ifvqh2g","pricing_plan_id":"cebpf4jnsgd1na2vs0mg"},{"bike_id":"6adf915a-d45d-4683-9c37-9559e02cce22","system_id":"levelo_inurba_marseille","lat":43.31159,"lon":5.38717,"is_reserved":false,"is_disabled":false,"rental_uris":{"android":"levelo://app?vid=6adf915a-d45d-4683-9c37-9559e02cce22","ios":"levelo://app?vid=6adf915a-d45d-4683-9c37-9559e02cce22"},"vehicle_type_id":"4","last_reported":1742645767,"current_range_meters":9200,"station_id":"ce4bgv12rcd13ifvqcp0","pricing_plan_id":"cebpf4jnsgd1na2vs0mg"},{"bike_id":"b5fcb98a-c8d5-4f1a-a9b4-b3362af2a9c7","system_id":"levelo_inurba_marseille","lat":43.23029,"lon":5.35518,"is_reserved":false,"is_disabled":false,"rental_uris":{"android":"levelo://app?vid=b5fcb98a-c8d5-4f1a-a9b4-b3362af2a9c7","ios":"levelo://app?vid=b5fcb98a-c8d5-4f1a-a9b4-b3362af2a9c7"},"vehicle_type_id":"4","last_reported":1742645767,"current_range_meters":9200,"station_id":"cpo3342slgdg3j2ifvpg","pricing_plan_id":"cebpf4jnsgd1na2vs0mg"},{"bike_id":"4828cd9c-4e47-421d-8ea1-86a3b940f5a5","system_id":"levelo_inurba_marseille","lat":43.28357,"lon":5.38626,"is_reserved":false,"is_disabled":false,"rental_uris":{"android":"levelo://app?vid=4828cd9c-4e47-421d-8ea1-86a3b940f5a5","ios":"levelo://app?vid=4828cd9c-4e47-421d-8ea1-86a3b940f5a5"},"vehicle_type_id":"4","last_reported":1742645767,"current_range_meters":9200,"station_id":"ce4bh492rcd13ifvqdvg","pricing_plan_id":"cebpf4jnsgd1na2vs0mg"},{"bike_id":"395a6abc-4d8a-435b-8e3d-758afed4d7b6","system_id":"levelo_inurba_marseille","lat":43.25575,"lon":5.38238,"is_reserved":false,"is_disabled":false,"rental_uris":{"android":"levelo://app?vid=395a6abc-4d8a-435b-8e3d-758afed4d7b6","ios":"levelo://app?vid=395a6abc-4d8a-435b-8e3d-758afed4d7b6"},"vehicle_type_id":"4","last_reported":1742645767,"current_range_meters":9200,"station_id":"ce4bhih2rcd13ifvqfs0","pricing_plan_id":"cebpf4jnsgd1na2vs0mg"},{"bike_id":"b95dd8b3-8b42-4b01-a436-eb7561400e51","system_id":"levelo_inurba_marseille","lat":43.29561,"lon":5.37515,"is_reserved":false,"is_disabled":false,"rental_uris":{"android":"levelo://app?vid=b95dd8b3-8b42-4b01-a436-eb7561400e51","ios":"levelo://app?vid=b95dd8b3-8b42-4b01-a436-eb7561400e51"},"vehicle_type_id":"4","last_reported":1742645767,"current_range_meters":9200,"station_id":"ce4bgh92rcd13ifvqb50","pricing_plan_id":"cebpf4jnsgd1na2vs0mg"},{"bike_id":"ca160719-3b67-4bd3-a9a0-faca42192ac0","system_id":"levelo_inurba_marseille","lat":43.280615,"lon":5.378386,"is_reserved":false,"is_disabled":false,"rental_uris":{"android":"levelo://app?vid=ca160719-3b67-4bd3-a9a0-faca42192ac0","ios":"levelo://app?vid=ca160719-3b67-4bd3-a9a0-faca42192ac0"},"vehicle_type_id":"4","last_reported":1742645767,"current_range_meters":9600,"station_id":"ce4bh412rcd13ifvqds0","pricing_plan_id":"cebpf4jnsgd1na2vs0mg"},{"bike_id":"200b26b1-a8be-44fc-aed0-a02f7d88a7bb","system_id":"levelo_inurba_marseille","lat":43.28425,"lon":5.34974,"is_reserved":false,"is_disabled":false,"rental_uris":{"android":"levelo://app?vid=200b26b1-a8be-44fc-aed0-a02f7d88a7bb","ios":"levelo://app?vid=200b26b1-a8be-44fc-aed0-a02f7d88a7bb"},"vehicle_type_id":"4","last_reported":1742645767,"current_range_meters":9600,"station_id":"ce4bhbh2rcd13ifvqepg","pricing_plan_id":"cebpf4jnsgd1na2vs0mg"},{"bike_id":"7f396ae9-244b-4126-bc7a-2312f6e4d9ee","system_id":"levelo_inurba_marseille","lat":43.33745,"lon":5.39182,"is_reserved":false,"is_disabled":false,"rental_uris":{"android":"levelo://app?vid=7f396ae9-244b-4126-bc7a-2312f6e4d9ee","ios":"levelo://app?vid=7f396ae9-244b-4126-bc7a-2312f6e4d9ee"},"vehicle_type_id":"4","last_reported":1742645767,"current_range_meters":9600,"station_id":"ce4bhr92rcd13ifvqhsg","pricing_plan_id":"cebpf4jnsgd1na2vs0mg"},{"bike_id":"d99d1c75-952d-45c9-8de9-98b93d7ebe83","system_id":"levelo_inurba_marseille","lat":43.2693,"lon":5.40253,"is_reserved":false,"is_disabled":false,"rental_uris":{"android":"levelo://app?vid=d99d1c75-952d-45c9-8de9-98b93d7ebe83","ios":"levelo://app?vid=d99d1c75-952d-45c9-8de9-98b93d7ebe83"},"vehicle_type_id":"4","last_reported":1742645767,"current_range_meters":9600,"station_id":"cjm6bp8fraef2m0cb0m0","pricing_plan_id":"cebpf4jnsgd1na2vs0mg"},{"bike_id":"68b4e49b-4430-4de0-9154-10590826286e","system_id":"levelo_inurba_marseille","lat":43.29624,"lon":5.3716,"is_reserved":false,"is_disabled":false,"rental_uris":{"android":"levelo://app?vid=68b4e49b-4430-4de0-9154-10590826286e","ios":"levelo://app?vid=68b4e49b-4430-4de0-9154-10590826286e"},"vehicle_type_id":"4","last_reported":1742645767,"current_range_meters":9600,"station_id":"ce4bgnh2rcd13ifvqc0g","pricing_plan_id":"cebpf4jnsgd1na2vs0mg"},{"bike_id":"6bcea713-0496-4b4a-a79c-d2272e1dd341","system_id":"levelo_inurba_marseille","lat":43.25509,"lon":5.37657,"is_reserved":false,"is_disabled":false,"rental_uris":{"android":"levelo://app?vid=6bcea713-0496-4b4a-a79c-d2272e1dd341","ios":"levelo://app?vid=6bcea713-0496-4b4a-a79c-d2272e1dd341"},"vehicle_type_id":"4","last_reported":1742645767,"current_range_meters":9600,"station_id":"ce4bhh12rcd13ifvqff0","pricing_plan_id":"cebpf4jnsgd1na2vs0mg"},{"bike_id":"fe239f3d-5c83-42bd-8b99-e0b3f3784fb5","system_id":"levelo_inurba_marseille","lat":43.24636,"lon":5.38395,"is_reserved":false,"is_disabled":false,"rental_uris":{"android":"levelo://app?vid=fe239f3d-5c83-42bd-8b99-e0b3f3784fb5","ios":"levelo://app?vid=fe239f3d-5c83-42bd-8b99-e0b3f3784fb5"},"vehicle_type_id":"4","last_reported":1742645767,"current_range_meters":9600,"station_id":"","pricing_plan_id":"cebpf4jnsgd1na2vs0mg"},{"bike_id":"a0803fc7-7c01-4615-afb9-e1e35a6349e8","system_id":"levelo_inurba_marseille","lat":43.28142,"lon":5.42651,"is_reserved":false,"is_disabled":false,"rental_uris":{"android":"levelo://app?vid=a0803fc7-7c01-4615-afb9-e1e35a6349e8","ios":"levelo://app?vid=a0803fc7-7c01-4615-afb9-e1e35a6349e8"},"vehicle_type_id":"4","last_reported":1742645767,"current_range_meters":9600,"station_id":"ce4bhnh2rcd13ifvqgug","pricing_plan_id":"cebpf4jnsgd1na2vs0mg"},{"bike_id":"18bb1c0a-4884-4468-ac4d-faeeab24b3d9","system_id":"levelo_inurba_marseille","lat":43.25873,"lon":5.39904,"is_reserved":false,"is_disabled":false,"rental_uris":{"android":"levelo://app?vid=18bb1c0a-4884-4468-ac4d-faeeab24b3d9","ios":"levelo://app?vid=18bb1c0a-4884-4468-ac4d-faeeab24b3d9"},"vehicle_type_id":"4","last_reported":1742645767,"current_range_meters":10000,"station_id":"ce4bhl92rcd13ifvqghg","pricing_plan_id":"cebpf4jnsgd1na2vs0mg"},{"bike_id":"6303fd16-e919-43a3-b09d-f081f34784c7","system_id":"levelo_inurba_marseille","lat":43.3108,"lon":5.38333,"is_reserved":false,"is_disabled":false,"rental_uris":{"android":"levelo://app?vid=6303fd16-e919-43a3-b09d-f081f34784c7","ios":"levelo://app?vid=6303fd16-e919-43a3-b09d-f081f34784c7"},"vehicle_type_id":"4","last_reported":1742645767,"current_range_meters":10800,"station_id":"ce4bgv92rcd13ifvqcr0","pricing_plan_id":"cebpf4jnsgd1na2vs0mg"},{"bike_id":"d459651c-b15f-4ece-9ae9-49dce789e945","system_id":"levelo_inurba_marseille","lat":43.30536,"lon":5.36538,"is_reserved":false,"is_disabled":false,"rental_uris":{"android":"levelo://app?vid=d459651c-b15f-4ece-9ae9-49dce789e945","ios":"levelo://app?vid=d459651c-b15f-4ece-9ae9-49dce789e945"},"vehicle_type_id":"4","last_reported":1742645767,"current_range_meters":10800,"station_id":"ce4bgs12rcd13ifvqcag","pricing_plan_id":"cebpf4jnsgd1na2vs0mg"},{"bike_id":"1d0a467a-5b25-41bf-80b7-e9cf9250cf77","system_id":"levelo_inurba_marseille","lat":43.24804,"lon":5.37459,"is_reserved":false,"is_disabled":false,"rental_uris":{"android":"levelo://app?vid=1d0a467a-5b25-41bf-80b7-e9cf9250cf77","ios":"levelo://app?vid=1d0a467a-5b25-41bf-80b7-e9cf9250cf77"},"vehicle_type_id":"4","last_reported":1742645767,"current_range_meters":10800,"station_id":"ce4bhgh2rcd13ifvqfb0","pricing_plan_id":"cebpf4jnsgd1na2vs0mg"},{"bike_id":"ca6287c0-2188-44db-8118-0cb8e5e4966e","system_id":"levelo_inurba_marseille","lat":43.32658,"lon":5.4099,"is_reserved":false,"is_disabled":false,"rental_uris":{"android":"levelo://app?vid=ca6287c0-2188-44db-8118-0cb8e5e4966e","ios":"levelo://app?vid=ca6287c0-2188-44db-8118-0cb8e5e4966e"},"vehicle_type_id":"4","last_reported":1742645767,"current_range_meters":10800,"station_id":"ce4bhpp2rcd13ifvqhgg","pricing_plan_id":"cebpf4jnsgd1na2vs0mg"},{"bike_id":"c2bd0990-c319-423d-bef8-618efb21c443","system_id":"levelo_inurba_marseille","lat":43.29396,"lon":5.37828,"is_reserved":false,"is_disabled":false,"rental_uris":{"android":"levelo://app?vid=c2bd0990-c319-423d-bef8-618efb21c443","ios":"levelo://app?vid=c2bd0990-c319-423d-bef8-618efb21c443"},"vehicle_type_id":"4","last_reported":1742645767,"current_range_meters":14400,"station_id":"ce4bgjh2rcd13ifvqbf0","pricing_plan_id":"cebpf4jnsgd1na2vs0mg"},{"bike_id":"43b91ccb-d6bf-4914-9801-e755fbce4bd9","system_id":"levelo_inurba_marseille","lat":43.23963,"lon":5.36633,"is_reserved":false,"is_disabled":false,"rental_uris":{"android":"levelo://app?vid=43b91ccb-d6bf-4914-9801-e755fbce4bd9","ios":"levelo://app?vid=43b91ccb-d6bf-4914-9801-e755fbce4bd9"},"vehicle_type_id":"4","last_reported":1742645767,"current_range_meters":10800,"station_id":"ce4bhi12rcd13ifvqfp0","pricing_plan_id":"cebpf4jnsgd1na2vs0mg"},{"bike_id":"1df2e6f6-63d4-4f34-92e1-d1b0e12ddb5a","system_id":"levelo_inurba_marseille","lat":43.23192,"lon":5.39994,"is_reserved":false,"is_disabled":false,"rental_uris":{"android":"levelo://app?vid=1df2e6f6-63d4-4f34-92e1-d1b0e12ddb5a","ios":"levelo://app?vid=1df2e6f6-63d4-4f34-92e1-d1b0e12ddb5a"},"vehicle_type_id":"4","last_reported":1742645767,"current_range_meters":10800,"station_id":"ce4bhn12rcd13ifvqgqg","pricing_plan_id":"cebpf4jnsgd1na2vs0mg"},{"bike_id":"475122dc-1039-4828-b534-7b2fbdf79e20","system_id":"levelo_inurba_marseille","lat":43.23204,"lon":5.35558,"is_reserved":false,"is_disabled":false,"rental_uris":{"android":"levelo://app?vid=475122dc-1039-4828-b534-7b2fbdf79e20","ios":"levelo://app?vid=475122dc-1039-4828-b534-7b2fbdf79e20"},"vehicle_type_id":"4","last_reported":1742645767,"current_range_meters":10800,"station_id":"ce4bhu92rcd13ifvqi70","pricing_plan_id":"cebpf4jnsgd1na2vs0mg"},{"bike_id":"6a7e6ea3-0dea-4fb5-9495-8803ab0e1523","system_id":"levelo_inurba_marseille","lat":43.30476,"lon":5.37906,"is_reserved":false,"is_disabled":false,"rental_uris":{"android":"levelo://app?vid=6a7e6ea3-0dea-4fb5-9495-8803ab0e1523","ios":"levelo://app?vid=6a7e6ea3-0dea-4fb5-9495-8803ab0e1523"},"vehicle_type_id":"4","last_reported":1742645767,"current_range_meters":11200,"station_id":"ce4bgup2rcd13ifvqcn0","pricing_plan_id":"cebpf4jnsgd1na2vs0mg"},{"bike_id":"b2e9dee8-e85b-4097-bad4-e93b919991c2","system_id":"levelo_inurba_marseille","lat":43.26214,"lon":5.37431,"is_reserved":false,"is_disabled":false,"rental_uris":{"android":"levelo://app?vid=b2e9dee8-e85b-4097-bad4-e93b919991c2","ios":"levelo://app?vid=b2e9dee8-e85b-4097-bad4-e93b919991c2"},"vehicle_type_id":"4","last_reported":1742645767,"current_range_meters":11200,"station_id":"ce4bhgp2rcd13ifvqfc0","pricing_plan_id":"cebpf4jnsgd1na2vs0mg"},{"bike_id":"9683555e-fe04-4de7-b706-7a9b0019a6a7","system_id":"levelo_inurba_marseille","lat":43.33753,"lon":5.37495,"is_reserved":false,"is_disabled":true,"rental_uris":{"android":"levelo://app?vid=9683555e-fe04-4de7-b706-7a9b0019a6a7","ios":"levelo://app?vid=9683555e-fe04-4de7-b706-7a9b0019a6a7"},"vehicle_type_id":"4","last_reported":1742645767,"current_range_meters":11200,"station_id":"ce4bh2h2rcd13ifvqdh0","pricing_plan_id":"cebpf4jnsgd1na2vs0mg"},{"bike_id":"0d5825a3-8453-4fa6-a53d-7641d877f994","system_id":"levelo_inurba_marseille","lat":43.26235,"lon":5.421273,"is_reserved":false,"is_disabled":false,"rental_uris":{"android":"levelo://app?vid=0d5825a3-8453-4fa6-a53d-7641d877f994","ios":"levelo://app?vid=0d5825a3-8453-4fa6-a53d-7641d877f994"},"vehicle_type_id":"4","last_reported":1742645767,"current_range_meters":11200,"station_id":"","pricing_plan_id":"cebpf4jnsgd1na2vs0mg"},{"bike_id":"16784492-6bb0-4dfd-a37c-0b309868075c","system_id":"levelo_inurba_marseille","lat":43.30689,"lon":5.36594,"is_reserved":false,"is_disabled":false,"rental_uris":{"android":"levelo://app?vid=16784492-6bb0-4dfd-a37c-0b309868075c","ios":"levelo://app?vid=16784492-6bb0-4dfd-a37c-0b309868075c"},"vehicle_type_id":"4","last_reported":1742645767,"current_range_meters":11600,"station_id":"","pricing_plan_id":"cebpf4jnsgd1na2vs0mg"},{"bike_id":"563a6cea-ab4b-4323-b26c-9f9492ed80fe","system_id":"levelo_inurba_marseille","lat":43.30473,"lon":5.37916,"is_reserved":false,"is_disabled":false,"rental_uris":{"android":"levelo://app?vid=563a6cea-ab4b-4323-b26c-9f9492ed80fe","ios":"levelo://app?vid=563a6cea-ab4b-4323-b26c-9f9492ed80fe"},"vehicle_type_id":"4","last_reported":1742645767,"current_range_meters":11600,"station_id":"ce4bgup2rcd13ifvqcn0","pricing_plan_id":"cebpf4jnsgd1na2vs0mg"},{"bike_id":"8ad57dc7-558f-44bc-b6f6-17ff1de4d696","system_id":"levelo_inurba_marseille","lat":43.28681,"lon":5.38673,"is_reserved":false,"is_disabled":false,"rental_uris":{"android":"levelo://app?vid=8ad57dc7-558f-44bc-b6f6-17ff1de4d696","ios":"levelo://app?vid=8ad57dc7-558f-44bc-b6f6-17ff1de4d696"},"vehicle_type_id":"4","last_reported":1742645767,"current_range_meters":11200,"station_id":"ce4bh492rcd13ifvqdug","pricing_plan_id":"cebpf4jnsgd1na2vs0mg"},{"bike_id":"6ebfdf22-6e48-4a22-adee-697e692544cb","system_id":"levelo_inurba_marseille","lat":43.29749,"lon":5.37685,"is_reserved":false,"is_disabled":false,"rental_uris":{"android":"levelo://app?vid=6ebfdf22-6e48-4a22-adee-697e692544cb","ios":"levelo://app?vid=6ebfdf22-6e48-4a22-adee-697e692544cb"},"vehicle_type_id":"4","last_reported":1742645767,"current_range_meters":11600,"station_id":"ce4bgkh2rcd13ifvqbl0","pricing_plan_id":"cebpf4jnsgd1na2vs0mg"},{"bike_id":"a417998c-28c5-4a1c-b181-cafd2c1ed285","system_id":"levelo_inurba_marseille","lat":43.25505,"lon":5.37647,"is_reserved":false,"is_disabled":false,"rental_uris":{"android":"levelo://app?vid=a417998c-28c5-4a1c-b181-cafd2c1ed285","ios":"levelo://app?vid=a417998c-28c5-4a1c-b181-cafd2c1ed285"},"vehicle_type_id":"4","last_reported":1742645767,"current_range_meters":11600,"station_id":"ce4bhh12rcd13ifvqff0","pricing_plan_id":"cebpf4jnsgd1na2vs0mg"},{"bike_id":"6bcd08b5-1d47-48a9-b3dd-f59ccc50adac","system_id":"levelo_inurba_marseille","lat":43.24178,"lon":5.39731,"is_reserved":false,"is_disabled":false,"rental_uris":{"android":"levelo://app?vid=6bcd08b5-1d47-48a9-b3dd-f59ccc50adac","ios":"levelo://app?vid=6bcd08b5-1d47-48a9-b3dd-f59ccc50adac"},"vehicle_type_id":"4","last_reported":1742645767,"current_range_meters":11600,"station_id":"ce4bhn12rcd13ifvqgpg","pricing_plan_id":"cebpf4jnsgd1na2vs0mg"},{"bike_id":"fbb498fe-0420-4fc0-a001-6f20ac1d59dd","system_id":"levelo_inurba_marseille","lat":43.33624,"lon":5.41023,"is_reserved":false,"is_disabled":true,"rental_uris":{"android":"levelo://app?vid=fbb498fe-0420-4fc0-a001-6f20ac1d59dd","ios":"levelo://app?vid=fbb498fe-0420-4fc0-a001-6f20ac1d59dd"},"vehicle_type_id":"4","last_reported":1742645767,"current_range_meters":12000,"station_id":"ce4bhqh2rcd13ifvqhmg","pricing_plan_id":"cebpf4jnsgd1na2vs0mg"},{"bike_id":"3d42de10-9c89-4d20-b112-0cada49fb286","system_id":"levelo_inurba_marseille","lat":43.31685,"lon":5.40474,"is_reserved":false,"is_disabled":false,"rental_uris":{"android":"levelo://app?vid=3d42de10-9c89-4d20-b112-0cada49fb286","ios":"levelo://app?vid=3d42de10-9c89-4d20-b112-0cada49fb286"},"vehicle_type_id":"4","last_reported":1742645767,"current_range_meters":12000,"station_id":"ce4bh012rcd13ifvqd00","pricing_plan_id":"cebpf4jnsgd1na2vs0mg"},{"bike_id":"72503a27-a949-4a46-b139-c44d4f416a58","system_id":"levelo_inurba_marseille","lat":43.23188,"lon":5.35563,"is_reserved":false,"is_disabled":false,"rental_uris":{"android":"levelo://app?vid=72503a27-a949-4a46-b139-c44d4f416a58","ios":"levelo://app?vid=72503a27-a949-4a46-b139-c44d4f416a58"},"vehicle_type_id":"4","last_reported":1742645767,"current_range_meters":12000,"station_id":"ce4bhu92rcd13ifvqi70","pricing_plan_id":"cebpf4jnsgd1na2vs0mg"},{"bike_id":"8f2b6764-0dd4-4e04-b573-7757f4e6bc95","system_id":"levelo_inurba_marseille","lat":43.23153,"lon":5.437148,"is_reserved":false,"is_disabled":false,"rental_uris":{"android":"levelo://app?vid=8f2b6764-0dd4-4e04-b573-7757f4e6bc95","ios":"levelo://app?vid=8f2b6764-0dd4-4e04-b573-7757f4e6bc95"},"vehicle_type_id":"4","last_reported":1742645767,"current_range_meters":12000,"station_id":"ce4bhmp2rcd13ifvqgog","pricing_plan_id":"cebpf4jnsgd1na2vs0mg"},{"bike_id":"3f3f99da-6673-441e-a5b3-6857219a400e","system_id":"levelo_inurba_marseille","lat":43.25008,"lon":5.38915,"is_reserved":false,"is_disabled":false,"rental_uris":{"android":"levelo://app?vid=3f3f99da-6673-441e-a5b3-6857219a400e","ios":"levelo://app?vid=3f3f99da-6673-441e-a5b3-6857219a400e"},"vehicle_type_id":"4","last_reported":1742645767,"current_range_meters":12000,"station_id":"ce4bhgp2rcd13ifvqfd0","pricing_plan_id":"cebpf4jnsgd1na2vs0mg"},{"bike_id":"ecc6d605-1e1a-40db-872a-c1a0914ae566","system_id":"levelo_inurba_marseille","lat":43.284109,"lon":5.349794,"is_reserved":false,"is_disabled":false,"rental_uris":{"android":"levelo://app?vid=ecc6d605-1e1a-40db-872a-c1a0914ae566","ios":"levelo://app?vid=ecc6d605-1e1a-40db-872a-c1a0914ae566"},"vehicle_type_id":"4","last_reported":1742645767,"current_range_meters":12000,"station_id":"ce4bgi12rcd13ifvqb70","pricing_plan_id":"cebpf4jnsgd1na2vs0mg"},{"bike_id":"7e93f556-a5ba-4688-b8ad-c45bfeb378c4","system_id":"levelo_inurba_marseille","lat":43.31732,"lon":5.4369,"is_reserved":false,"is_disabled":false,"rental_uris":{"android":"levelo://app?vid=7e93f556-a5ba-4688-b8ad-c45bfeb378c4","ios":"levelo://app?vid=7e93f556-a5ba-4688-b8ad-c45bfeb378c4"},"vehicle_type_id":"4","last_reported":1742645767,"current_range_meters":12000,"station_id":"ce4bhp92rcd13ifvqhcg","pricing_plan_id":"cebpf4jnsgd1na2vs0mg"},{"bike_id":"daac8093-e59e-4d41-9c63-dabf92bc48fa","system_id":"levelo_inurba_marseille","lat":43.22781,"lon":5.35053,"is_reserved":false,"is_disabled":false,"rental_uris":{"android":"levelo://app?vid=daac8093-e59e-4d41-9c63-dabf92bc48fa","ios":"levelo://app?vid=daac8093-e59e-4d41-9c63-dabf92bc48fa"},"vehicle_type_id":"4","last_reported":1742645767,"current_range_meters":12400,"station_id":"","pricing_plan_id":"cebpf4jnsgd1na2vs0mg"},{"bike_id":"d16d5ae2-a108-44f8-a226-14fecf4f3137","system_id":"levelo_inurba_marseille","lat":43.27998,"lon":5.40006,"is_reserved":false,"is_disabled":false,"rental_uris":{"android":"levelo://app?vid=d16d5ae2-a108-44f8-a226-14fecf4f3137","ios":"levelo://app?vid=d16d5ae2-a108-44f8-a226-14fecf4f3137"},"vehicle_type_id":"4","last_reported":1742645767,"current_range_meters":12400,"station_id":"ce4bho92rcd13ifvqh4g","pricing_plan_id":"cebpf4jnsgd1na2vs0mg"},{"bike_id":"aedbb90f-fb9f-477e-89b6-82eaa913221f","system_id":"levelo_inurba_marseille","lat":43.25494,"lon":5.37652,"is_reserved":false,"is_disabled":false,"rental_uris":{"android":"levelo://app?vid=aedbb90f-fb9f-477e-89b6-82eaa913221f","ios":"levelo://app?vid=aedbb90f-fb9f-477e-89b6-82eaa913221f"},"vehicle_type_id":"4","last_reported":1742645767,"current_range_meters":12400,"station_id":"ce4bhh12rcd13ifvqff0","pricing_plan_id":"cebpf4jnsgd1na2vs0mg"},{"bike_id":"7c378b55-1960-4205-8ce8-c5c8280b34c6","system_id":"levelo_inurba_marseille","lat":43.29199,"lon":5.39334,"is_reserved":false,"is_disabled":false,"rental_uris":{"android":"levelo://app?vid=7c378b55-1960-4205-8ce8-c5c8280b34c6","ios":"levelo://app?vid=7c378b55-1960-4205-8ce8-c5c8280b34c6"},"vehicle_type_id":"4","last_reported":1742645767,"current_range_meters":12400,"station_id":"ce4bh192rcd13ifvqdd0","pricing_plan_id":"cebpf4jnsgd1na2vs0mg"},{"bike_id":"37c23edb-bd1c-4fc3-9c19-4cb171646bb3","system_id":"levelo_inurba_marseille","lat":43.27677,"lon":5.38886,"is_reserved":false,"is_disabled":false,"rental_uris":{"android":"levelo://app?vid=37c23edb-bd1c-4fc3-9c19-4cb171646bb3","ios":"levelo://app?vid=37c23edb-bd1c-4fc3-9c19-4cb171646bb3"},"vehicle_type_id":"4","last_reported":1742645767,"current_range_meters":12400,"station_id":"ce4bhi12rcd13ifvqfo0","pricing_plan_id":"cebpf4jnsgd1na2vs0mg"},{"bike_id":"95f2bc9a-b60c-4699-b873-416be36badfc","system_id":"levelo_inurba_marseille","lat":43.26202,"lon":5.37924,"is_reserved":false,"is_disabled":false,"rental_uris":{"android":"levelo://app?vid=95f2bc9a-b60c-4699-b873-416be36badfc","ios":"levelo://app?vid=95f2bc9a-b60c-4699-b873-416be36badfc"},"vehicle_type_id":"4","last_reported":1742645767,"current_range_meters":12800,"station_id":"ce4bhjp2rcd13ifvqg90","pricing_plan_id":"cebpf4jnsgd1na2vs0mg"},{"bike_id":"302da745-dc3e-489e-b2c8-445dcb3c38b1","system_id":"levelo_inurba_marseille","lat":43.23058,"lon":5.35488,"is_reserved":false,"is_disabled":false,"rental_uris":{"android":"levelo://app?vid=302da745-dc3e-489e-b2c8-445dcb3c38b1","ios":"levelo://app?vid=302da745-dc3e-489e-b2c8-445dcb3c38b1"},"vehicle_type_id":"4","last_reported":1742645767,"current_range_meters":12800,"station_id":"cpo3342slgdg3j2ifvpg","pricing_plan_id":"cebpf4jnsgd1na2vs0mg"},{"bike_id":"c83081a9-3ddb-45ea-8f87-f4db4072053e","system_id":"levelo_inurba_marseille","lat":43.282668,"lon":5.350558,"is_reserved":false,"is_disabled":false,"rental_uris":{"android":"levelo://app?vid=c83081a9-3ddb-45ea-8f87-f4db4072053e","ios":"levelo://app?vid=c83081a9-3ddb-45ea-8f87-f4db4072053e"},"vehicle_type_id":"4","last_reported":1742645767,"current_range_meters":12800,"station_id":"ce4bha12rcd13ifvqef0","pricing_plan_id":"cebpf4jnsgd1na2vs0mg"},{"bike_id":"bbffcdd3-8b6b-4135-8323-21f9438ee137","system_id":"levelo_inurba_marseille","lat":43.30552,"lon":5.38431,"is_reserved":false,"is_disabled":false,"rental_uris":{"android":"levelo://app?vid=bbffcdd3-8b6b-4135-8323-21f9438ee137","ios":"levelo://app?vid=bbffcdd3-8b6b-4135-8323-21f9438ee137"},"vehicle_type_id":"4","last_reported":1742645767,"current_range_meters":12800,"station_id":"ce4bgg92rcd13ifvqb30","pricing_plan_id":"cebpf4jnsgd1na2vs0mg"},{"bike_id":"7d9bf2d2-5153-499c-a1fb-dcb365a9e566","system_id":"levelo_inurba_marseille","lat":43.24185,"lon":5.39725,"is_reserved":false,"is_disabled":false,"rental_uris":{"android":"levelo://app?vid=7d9bf2d2-5153-499c-a1fb-dcb365a9e566","ios":"levelo://app?vid=7d9bf2d2-5153-499c-a1fb-dcb365a9e566"},"vehicle_type_id":"4","last_reported":1742645767,"current_range_meters":13600,"station_id":"ce4bhn12rcd13ifvqgpg","pricing_plan_id":"cebpf4jnsgd1na2vs0mg"},{"bike_id":"1d6421f0-872b-4a7a-85a2-89cc638471a8","system_id":"levelo_inurba_marseille","lat":43.23969,"lon":5.36633,"is_reserved":false,"is_disabled":false,"rental_uris":{"android":"levelo://app?vid=1d6421f0-872b-4a7a-85a2-89cc638471a8","ios":"levelo://app?vid=1d6421f0-872b-4a7a-85a2-89cc638471a8"},"vehicle_type_id":"4","last_reported":1742645767,"current_range_meters":13600,"station_id":"ce4bhi12rcd13ifvqfp0","pricing_plan_id":"cebpf4jnsgd1na2vs0mg"},{"bike_id":"2032e81a-8d24-4036-9cc6-bf67698b8322","system_id":"levelo_inurba_marseille","lat":43.24193,"lon":5.39741,"is_reserved":false,"is_disabled":false,"rental_uris":{"android":"levelo://app?vid=2032e81a-8d24-4036-9cc6-bf67698b8322","ios":"levelo://app?vid=2032e81a-8d24-4036-9cc6-bf67698b8322"},"vehicle_type_id":"4","last_reported":1742645767,"current_range_meters":13600,"station_id":"ce4bhn12rcd13ifvqgpg","pricing_plan_id":"cebpf4jnsgd1na2vs0mg"},{"bike_id":"199bae66-26c7-4da4-a10f-bb390e32da5f","system_id":"levelo_inurba_marseille","lat":43.28454,"lon":5.35891,"is_reserved":false,"is_disabled":false,"rental_uris":{"android":"levelo://app?vid=199bae66-26c7-4da4-a10f-bb390e32da5f","ios":"levelo://app?vid=199bae66-26c7-4da4-a10f-bb390e32da5f"},"vehicle_type_id":"4","last_reported":1742645767,"current_range_meters":14000,"station_id":"ce4bhah2rcd13ifvqei0","pricing_plan_id":"cebpf4jnsgd1na2vs0mg"},{"bike_id":"4ac0f88f-31fc-4647-acfa-a9d00e5c594b","system_id":"levelo_inurba_marseille","lat":43.29935,"lon":5.36536,"is_reserved":false,"is_disabled":false,"rental_uris":{"android":"levelo://app?vid=4ac0f88f-31fc-4647-acfa-a9d00e5c594b","ios":"levelo://app?vid=4ac0f88f-31fc-4647-acfa-a9d00e5c594b"},"vehicle_type_id":"4","last_reported":1742645767,"current_range_meters":14000,"station_id":"ce4bgm92rcd13ifvqbr0","pricing_plan_id":"cebpf4jnsgd1na2vs0mg"},{"bike_id":"59de377f-c54b-489f-b740-ed7b42d558ea","system_id":"levelo_inurba_marseille","lat":43.23969,"lon":5.36627,"is_reserved":false,"is_disabled":false,"rental_uris":{"android":"levelo://app?vid=59de377f-c54b-489f-b740-ed7b42d558ea","ios":"levelo://app?vid=59de377f-c54b-489f-b740-ed7b42d558ea"},"vehicle_type_id":"4","last_reported":1742645767,"current_range_meters":14000,"station_id":"ce4bhi12rcd13ifvqfp0","pricing_plan_id":"cebpf4jnsgd1na2vs0mg"},{"bike_id":"43255677-0085-4f6c-97b0-a451b74101d2","system_id":"levelo_inurba_marseille","lat":43.23968,"lon":5.36632,"is_reserved":false,"is_disabled":false,"rental_uris":{"android":"levelo://app?vid=43255677-0085-4f6c-97b0-a451b74101d2","ios":"levelo://app?vid=43255677-0085-4f6c-97b0-a451b74101d2"},"vehicle_type_id":"4","last_reported":1742645767,"current_range_meters":14000,"station_id":"ce4bhi12rcd13ifvqfp0","pricing_plan_id":"cebpf4jnsgd1na2vs0mg"},{"bike_id":"873b6d40-5f85-44de-84e8-923fdb216a0c","system_id":"levelo_inurba_marseille","lat":43.33025,"lon":5.39038,"is_reserved":false,"is_disabled":false,"rental_uris":{"android":"levelo://app?vid=873b6d40-5f85-44de-84e8-923fdb216a0c","ios":"levelo://app?vid=873b6d40-5f85-44de-84e8-923fdb216a0c"},"vehicle_type_id":"4","last_reported":1742645767,"current_range_meters":14000,"station_id":"ce4bhr92rcd13ifvqhrg","pricing_plan_id":"cebpf4jnsgd1na2vs0mg"},{"bike_id":"e4a459ab-ea48-4a6e-b84c-0ad38dfa683f","system_id":"levelo_inurba_marseille","lat":43.28412,"lon":5.37511,"is_reserved":false,"is_disabled":false,"rental_uris":{"android":"levelo://app?vid=e4a459ab-ea48-4a6e-b84c-0ad38dfa683f","ios":"levelo://app?vid=e4a459ab-ea48-4a6e-b84c-0ad38dfa683f"},"vehicle_type_id":"4","last_reported":1742645767,"current_range_meters":14000,"station_id":"ce4bh412rcd13ifvqds0","pricing_plan_id":"cebpf4jnsgd1na2vs0mg"},{"bike_id":"197aa03b-f9fe-47bd-8e8f-95fc973cbcec","system_id":"levelo_inurba_marseille","lat":43.2827,"lon":5.35072,"is_reserved":false,"is_disabled":false,"rental_uris":{"android":"levelo://app?vid=197aa03b-f9fe-47bd-8e8f-95fc973cbcec","ios":"levelo://app?vid=197aa03b-f9fe-47bd-8e8f-95fc973cbcec"},"vehicle_type_id":"4","last_reported":1742645767,"current_range_meters":14000,"station_id":"ce4bhbp2rcd13ifvqerg","pricing_plan_id":"cebpf4jnsgd1na2vs0mg"},{"bike_id":"9fda848b-01df-497a-86b6-0d2a13de9e0b","system_id":"levelo_inurba_marseille","lat":43.29372,"lon":5.37861,"is_reserved":false,"is_disabled":false,"rental_uris":{"android":"levelo://app?vid=9fda848b-01df-497a-86b6-0d2a13de9e0b","ios":"levelo://app?vid=9fda848b-01df-497a-86b6-0d2a13de9e0b"},"vehicle_type_id":"4","last_reported":1742645767,"current_range_meters":14400,"station_id":"ce4bgjh2rcd13ifvqbf0","pricing_plan_id":"cebpf4jnsgd1na2vs0mg"},{"bike_id":"041746e8-f612-4f02-ba2c-e784ef31f6c4","system_id":"levelo_inurba_marseille","lat":43.23159,"lon":5.43709,"is_reserved":false,"is_disabled":false,"rental_uris":{"android":"levelo://app?vid=041746e8-f612-4f02-ba2c-e784ef31f6c4","ios":"levelo://app?vid=041746e8-f612-4f02-ba2c-e784ef31f6c4"},"vehicle_type_id":"4","last_reported":1742645767,"current_range_meters":14400,"station_id":"ce4bhmp2rcd13ifvqgog","pricing_plan_id":"cebpf4jnsgd1na2vs0mg"},{"bike_id":"4fcd5aa8-47a6-47e0-acf8-4669a5d049c7","system_id":"levelo_inurba_marseille","lat":43.32356,"lon":5.389,"is_reserved":false,"is_disabled":false,"rental_uris":{"android":"levelo://app?vid=4fcd5aa8-47a6-47e0-acf8-4669a5d049c7","ios":"levelo://app?vid=4fcd5aa8-47a6-47e0-acf8-4669a5d049c7"},"vehicle_type_id":"4","last_reported":1742645767,"current_range_meters":14400,"station_id":"ce4bhqp2rcd13ifvqhog","pricing_plan_id":"cebpf4jnsgd1na2vs0mg"},{"bike_id":"1398bab9-310a-4d9f-b774-3cec44efaec1","system_id":"levelo_inurba_marseille","lat":43.27615,"lon":5.36122,"is_reserved":false,"is_disabled":false,"rental_uris":{"android":"levelo://app?vid=1398bab9-310a-4d9f-b774-3cec44efaec1","ios":"levelo://app?vid=1398bab9-310a-4d9f-b774-3cec44efaec1"},"vehicle_type_id":"4","last_reported":1742645767,"current_range_meters":14400,"station_id":"ce4bgj92rcd13ifvqbe0","pricing_plan_id":"cebpf4jnsgd1na2vs0mg"},{"bike_id":"d9d90e28-0cde-498e-9e49-e2278f18bc23","system_id":"levelo_inurba_marseille","lat":43.32378,"lon":5.38875,"is_reserved":false,"is_disabled":false,"rental_uris":{"android":"levelo://app?vid=d9d90e28-0cde-498e-9e49-e2278f18bc23","ios":"levelo://app?vid=d9d90e28-0cde-498e-9e49-e2278f18bc23"},"vehicle_type_id":"4","last_reported":1742645767,"current_range_meters":14400,"station_id":"ce4bhqp2rcd13ifvqhog","pricing_plan_id":"cebpf4jnsgd1na2vs0mg"},{"bike_id":"b757f5df-c902-43dd-8b0b-214a953b0b13","system_id":"levelo_inurba_marseille","lat":43.23131,"lon":5.43727,"is_reserved":false,"is_disabled":false,"rental_uris":{"android":"levelo://app?vid=b757f5df-c902-43dd-8b0b-214a953b0b13","ios":"levelo://app?vid=b757f5df-c902-43dd-8b0b-214a953b0b13"},"vehicle_type_id":"4","last_reported":1742645767,"current_range_meters":14800,"station_id":"ce4bhmp2rcd13ifvqgog","pricing_plan_id":"cebpf4jnsgd1na2vs0mg"},{"bike_id":"98280d10-dfa2-46aa-bfd6-811148ff8d67","system_id":"levelo_inurba_marseille","lat":43.29595,"lon":5.36728,"is_reserved":false,"is_disabled":false,"rental_uris":{"android":"levelo://app?vid=98280d10-dfa2-46aa-bfd6-811148ff8d67","ios":"levelo://app?vid=98280d10-dfa2-46aa-bfd6-811148ff8d67"},"vehicle_type_id":"4","last_reported":1742645767,"current_range_meters":14800,"station_id":"ce4bgph2rcd13ifvqc2g","pricing_plan_id":"cebpf4jnsgd1na2vs0mg"},{"bike_id":"ffd237a0-0c9d-4e82-a08f-4aded3e8eed4","system_id":"levelo_inurba_marseille","lat":43.23964,"lon":5.36632,"is_reserved":false,"is_disabled":false,"rental_uris":{"android":"levelo://app?vid=ffd237a0-0c9d-4e82-a08f-4aded3e8eed4","ios":"levelo://app?vid=ffd237a0-0c9d-4e82-a08f-4aded3e8eed4"},"vehicle_type_id":"4","last_reported":1742645767,"current_range_meters":14800,"station_id":"ce4bhi12rcd13ifvqfp0","pricing_plan_id":"cebpf4jnsgd1na2vs0mg"},{"bike_id":"ca972836-9511-48db-8b94-ea1611c643e8","system_id":"levelo_inurba_marseille","lat":43.295175,"lon":5.393994,"is_reserved":false,"is_disabled":false,"rental_uris":{"android":"levelo://app?vid=ca972836-9511-48db-8b94-ea1611c643e8","ios":"levelo://app?vid=ca972836-9511-48db-8b94-ea1611c643e8"},"vehicle_type_id":"4","last_reported":1742645767,"current_range_meters":15200,"station_id":"ce4bh692rcd13ifvqe90","pricing_plan_id":"cebpf4jnsgd1na2vs0mg"},{"bike_id":"05df6c4b-e026-4839-bc70-c00472d8343c","system_id":"levelo_inurba_marseille","lat":43.29708,"lon":5.36614,"is_reserved":false,"is_disabled":false,"rental_uris":{"android":"levelo://app?vid=05df6c4b-e026-4839-bc70-c00472d8343c","ios":"levelo://app?vid=05df6c4b-e026-4839-bc70-c00472d8343c"},"vehicle_type_id":"4","last_reported":1742645767,"current_range_meters":15200,"station_id":"ce4bgn12rcd13ifvqbt0","pricing_plan_id":"cebpf4jnsgd1na2vs0mg"},{"bike_id":"9f1aa6e3-12d9-4363-807d-3fbd3cb89d26","system_id":"levelo_inurba_marseille","lat":43.30468,"lon":5.37912,"is_reserved":false,"is_disabled":false,"rental_uris":{"android":"levelo://app?vid=9f1aa6e3-12d9-4363-807d-3fbd3cb89d26","ios":"levelo://app?vid=9f1aa6e3-12d9-4363-807d-3fbd3cb89d26"},"vehicle_type_id":"4","last_reported":1742645767,"current_range_meters":15200,"station_id":"ce4bgup2rcd13ifvqcn0","pricing_plan_id":"cebpf4jnsgd1na2vs0mg"},{"bike_id":"2e1ea977-bf25-4c3c-9f34-a629d442b847","system_id":"levelo_inurba_marseille","lat":43.22936,"lon":5.35381,"is_reserved":false,"is_disabled":false,"rental_uris":{"android":"levelo://app?vid=2e1ea977-bf25-4c3c-9f34-a629d442b847","ios":"levelo://app?vid=2e1ea977-bf25-4c3c-9f34-a629d442b847"},"vehicle_type_id":"4","last_reported":1742645767,"current_range_meters":15200,"station_id":"cpo3532slgdg3j2ikp40","pricing_plan_id":"cebpf4jnsgd1na2vs0mg"},{"bike_id":"d8878601-3ef9-4b69-ae9e-1dde88f059ac","system_id":"levelo_inurba_marseille","lat":43.24178,"lon":5.36375,"is_reserved":false,"is_disabled":false,"rental_uris":{"android":"levelo://app?vid=d8878601-3ef9-4b69-ae9e-1dde88f059ac","ios":"levelo://app?vid=d8878601-3ef9-4b69-ae9e-1dde88f059ac"},"vehicle_type_id":"4","last_reported":1742645767,"current_range_meters":16000,"station_id":"cpo36qri1sfpv3e86is0","pricing_plan_id":"cebpf4jnsgd1na2vs0mg"},{"bike_id":"9a655caf-0679-4a02-83e9-e1b6b1192f08","system_id":"levelo_inurba_marseille","lat":43.29881,"lon":5.38915,"is_reserved":false,"is_disabled":false,"rental_uris":{"android":"levelo://app?vid=9a655caf-0679-4a02-83e9-e1b6b1192f08","ios":"levelo://app?vid=9a655caf-0679-4a02-83e9-e1b6b1192f08"},"vehicle_type_id":"4","last_reported":1742645767,"current_range_meters":14800,"station_id":"ce4bh392rcd13ifvqdl0","pricing_plan_id":"cebpf4jnsgd1na2vs0mg"},{"bike_id":"c4e7f973-04a9-4efa-a2e5-0601718d8395","system_id":"levelo_inurba_marseille","lat":43.31684,"lon":5.40475,"is_reserved":false,"is_disabled":false,"rental_uris":{"android":"levelo://app?vid=c4e7f973-04a9-4efa-a2e5-0601718d8395","ios":"levelo://app?vid=c4e7f973-04a9-4efa-a2e5-0601718d8395"},"vehicle_type_id":"4","last_reported":1742645767,"current_range_meters":16000,"station_id":"ce4bh012rcd13ifvqd00","pricing_plan_id":"cebpf4jnsgd1na2vs0mg"},{"bike_id":"05196e82-2b3b-46d7-ab3e-37cd98e7884a","system_id":"levelo_inurba_marseille","lat":43.32653,"lon":5.41004,"is_reserved":false,"is_disabled":false,"rental_uris":{"android":"levelo://app?vid=05196e82-2b3b-46d7-ab3e-37cd98e7884a","ios":"levelo://app?vid=05196e82-2b3b-46d7-ab3e-37cd98e7884a"},"vehicle_type_id":"4","last_reported":1742645767,"current_range_meters":16000,"station_id":"ce4bhpp2rcd13ifvqhgg","pricing_plan_id":"cebpf4jnsgd1na2vs0mg"},{"bike_id":"4d2e5ee6-2856-447f-9b9e-a13ef21af2f4","system_id":"levelo_inurba_marseille","lat":43.28426,"lon":5.34985,"is_reserved":false,"is_disabled":false,"rental_uris":{"android":"levelo://app?vid=4d2e5ee6-2856-447f-9b9e-a13ef21af2f4","ios":"levelo://app?vid=4d2e5ee6-2856-447f-9b9e-a13ef21af2f4"},"vehicle_type_id":"4","last_reported":1742645767,"current_range_meters":16000,"station_id":"ce4bhbh2rcd13ifvqepg","pricing_plan_id":"cebpf4jnsgd1na2vs0mg"},{"bike_id":"751ff1ed-b498-4578-9bd4-943bf6c9d8eb","system_id":"levelo_inurba_marseille","lat":43.23189,"lon":5.35565,"is_reserved":false,"is_disabled":false,"rental_uris":{"android":"levelo://app?vid=751ff1ed-b498-4578-9bd4-943bf6c9d8eb","ios":"levelo://app?vid=751ff1ed-b498-4578-9bd4-943bf6c9d8eb"},"vehicle_type_id":"4","last_reported":1742645767,"current_range_meters":16000,"station_id":"ce4bhu92rcd13ifvqi70","pricing_plan_id":"cebpf4jnsgd1na2vs0mg"},{"bike_id":"b6aed811-12f4-4d20-abd1-73dc6cd5de0f","system_id":"levelo_inurba_marseille","lat":43.29274,"lon":5.36852,"is_reserved":false,"is_disabled":false,"rental_uris":{"android":"levelo://app?vid=b6aed811-12f4-4d20-abd1-73dc6cd5de0f","ios":"levelo://app?vid=b6aed811-12f4-4d20-abd1-73dc6cd5de0f"},"vehicle_type_id":"4","last_reported":1742645767,"current_range_meters":16000,"station_id":"ce4bhbp2rcd13ifvqesg","pricing_plan_id":"cebpf4jnsgd1na2vs0mg"},{"bike_id":"3f2cc47c-9819-46f0-b7be-a06e1c7f9558","system_id":"levelo_inurba_marseille","lat":43.31069,"lon":5.3835,"is_reserved":false,"is_disabled":false,"rental_uris":{"android":"levelo://app?vid=3f2cc47c-9819-46f0-b7be-a06e1c7f9558","ios":"levelo://app?vid=3f2cc47c-9819-46f0-b7be-a06e1c7f9558"},"vehicle_type_id":"4","last_reported":1742645767,"current_range_meters":16000,"station_id":"ce4bgv92rcd13ifvqcr0","pricing_plan_id":"cebpf4jnsgd1na2vs0mg"},{"bike_id":"a7c269ac-750b-4e61-a0a4-f774b818338f","system_id":"levelo_inurba_marseille","lat":43.2807,"lon":5.39653,"is_reserved":false,"is_disabled":false,"rental_uris":{"android":"levelo://app?vid=a7c269ac-750b-4e61-a0a4-f774b818338f","ios":"levelo://app?vid=a7c269ac-750b-4e61-a0a4-f774b818338f"},"vehicle_type_id":"4","last_reported":1742645767,"current_range_meters":16000,"station_id":"ce4bho12rcd13ifvqh2g","pricing_plan_id":"cebpf4jnsgd1na2vs0mg"},{"bike_id":"d954b141-3cee-4de0-9c29-d5babd11cd82","system_id":"levelo_inurba_marseille","lat":43.25084,"lon":5.39532,"is_reserved":false,"is_disabled":false,"rental_uris":{"android":"levelo://app?vid=d954b141-3cee-4de0-9c29-d5babd11cd82","ios":"levelo://app?vid=d954b141-3cee-4de0-9c29-d5babd11cd82"},"vehicle_type_id":"4","last_reported":1742645767,"current_range_meters":16000,"station_id":"ce4bhm12rcd13ifvqgkg","pricing_plan_id":"cebpf4jnsgd1na2vs0mg"},{"bike_id":"9a440784-3acb-44a5-89c3-b7489e2f527c","system_id":"levelo_inurba_marseille","lat":43.2501,"lon":5.38937,"is_reserved":false,"is_disabled":false,"rental_uris":{"android":"levelo://app?vid=9a440784-3acb-44a5-89c3-b7489e2f527c","ios":"levelo://app?vid=9a440784-3acb-44a5-89c3-b7489e2f527c"},"vehicle_type_id":"4","last_reported":1742645767,"current_range_meters":15200,"station_id":"ce4bhgp2rcd13ifvqfd0","pricing_plan_id":"cebpf4jnsgd1na2vs0mg"},{"bike_id":"833d2874-4367-49af-a5a1-895c844d3d41","system_id":"levelo_inurba_marseille","lat":43.29571,"lon":5.37519,"is_reserved":false,"is_disabled":false,"rental_uris":{"android":"levelo://app?vid=833d2874-4367-49af-a5a1-895c844d3d41","ios":"levelo://app?vid=833d2874-4367-49af-a5a1-895c844d3d41"},"vehicle_type_id":"4","last_reported":1742645767,"current_range_meters":16000,"station_id":"ce4bgh92rcd13ifvqb50","pricing_plan_id":"cebpf4jnsgd1na2vs0mg"},{"bike_id":"0af74a1a-d6e1-4579-b1c6-27467ba405fe","system_id":"levelo_inurba_marseille","lat":43.29904,"lon":5.39748,"is_reserved":false,"is_disabled":true,"rental_uris":{"android":"levelo://app?vid=0af74a1a-d6e1-4579-b1c6-27467ba405fe","ios":"levelo://app?vid=0af74a1a-d6e1-4579-b1c6-27467ba405fe"},"vehicle_type_id":"4","last_reported":1742645767,"current_range_meters":16400,"station_id":"ce4bh0h2rcd13ifvqd50","pricing_plan_id":"cebpf4jnsgd1na2vs0mg"},{"bike_id":"d60279c5-61cc-4ed7-b7a8-8046bd23cea1","system_id":"levelo_inurba_marseille","lat":43.30415,"lon":5.41291,"is_reserved":false,"is_disabled":false,"rental_uris":{"android":"levelo://app?vid=d60279c5-61cc-4ed7-b7a8-8046bd23cea1","ios":"levelo://app?vid=d60279c5-61cc-4ed7-b7a8-8046bd23cea1"},"vehicle_type_id":"4","last_reported":1742645767,"current_range_meters":16400,"station_id":"ce4bhop2rcd13ifvqh8g","pricing_plan_id":"cebpf4jnsgd1na2vs0mg"},{"bike_id":"52088e19-d68b-45c5-ba39-83046f2d47b2","system_id":"levelo_inurba_marseille","lat":43.23195,"lon":5.35555,"is_reserved":false,"is_disabled":false,"rental_uris":{"android":"levelo://app?vid=52088e19-d68b-45c5-ba39-83046f2d47b2","ios":"levelo://app?vid=52088e19-d68b-45c5-ba39-83046f2d47b2"},"vehicle_type_id":"4","last_reported":1742645767,"current_range_meters":16400,"station_id":"ce4bhu92rcd13ifvqi70","pricing_plan_id":"cebpf4jnsgd1na2vs0mg"},{"bike_id":"10e54a8c-9383-4c0f-82ce-63f5a7c4e7d3","system_id":"levelo_inurba_marseille","lat":43.2837,"lon":5.38635,"is_reserved":false,"is_disabled":false,"rental_uris":{"android":"levelo://app?vid=10e54a8c-9383-4c0f-82ce-63f5a7c4e7d3","ios":"levelo://app?vid=10e54a8c-9383-4c0f-82ce-63f5a7c4e7d3"},"vehicle_type_id":"4","last_reported":1742645767,"current_range_meters":16000,"station_id":"ce4bh492rcd13ifvqdvg","pricing_plan_id":"cebpf4jnsgd1na2vs0mg"},{"bike_id":"1be94785-3b05-4808-993c-14536def0b24","system_id":"levelo_inurba_marseille","lat":43.2397,"lon":5.36627,"is_reserved":false,"is_disabled":false,"rental_uris":{"android":"levelo://app?vid=1be94785-3b05-4808-993c-14536def0b24","ios":"levelo://app?vid=1be94785-3b05-4808-993c-14536def0b24"},"vehicle_type_id":"4","last_reported":1742645767,"current_range_meters":16400,"station_id":"ce4bhi12rcd13ifvqfp0","pricing_plan_id":"cebpf4jnsgd1na2vs0mg"},{"bike_id":"07541760-82c4-4d38-b58c-85ffff07e965","system_id":"levelo_inurba_marseille","lat":43.23971,"lon":5.36621,"is_reserved":false,"is_disabled":false,"rental_uris":{"android":"levelo://app?vid=07541760-82c4-4d38-b58c-85ffff07e965","ios":"levelo://app?vid=07541760-82c4-4d38-b58c-85ffff07e965"},"vehicle_type_id":"4","last_reported":1742645767,"current_range_meters":16400,"station_id":"ce4bhi12rcd13ifvqfp0","pricing_plan_id":"cebpf4jnsgd1na2vs0mg"},{"bike_id":"5d4cc92c-eafe-478c-8820-ef016b1e9d02","system_id":"levelo_inurba_marseille","lat":43.29895,"lon":5.43653,"is_reserved":false,"is_disabled":false,"rental_uris":{"android":"levelo://app?vid=5d4cc92c-eafe-478c-8820-ef016b1e9d02","ios":"levelo://app?vid=5d4cc92c-eafe-478c-8820-ef016b1e9d02"},"vehicle_type_id":"4","last_reported":1742645767,"current_range_meters":16400,"station_id":"ce4bhpp2rcd13ifvqhfg","pricing_plan_id":"cebpf4jnsgd1na2vs0mg"},{"bike_id":"4c406a29-ee9e-4446-b3db-6d7899ff79a2","system_id":"levelo_inurba_marseille","lat":43.2418,"lon":5.3638,"is_reserved":false,"is_disabled":false,"rental_uris":{"android":"levelo://app?vid=4c406a29-ee9e-4446-b3db-6d7899ff79a2","ios":"levelo://app?vid=4c406a29-ee9e-4446-b3db-6d7899ff79a2"},"vehicle_type_id":"4","last_reported":1742645767,"current_range_meters":16400,"station_id":"cpo36qri1sfpv3e86is0","pricing_plan_id":"cebpf4jnsgd1na2vs0mg"},{"bike_id":"cbb1f794-b38a-4f82-844a-5f17fc0e5d2e","system_id":"levelo_inurba_marseille","lat":43.28623,"lon":5.3511,"is_reserved":false,"is_disabled":false,"rental_uris":{"android":"levelo://app?vid=cbb1f794-b38a-4f82-844a-5f17fc0e5d2e","ios":"levelo://app?vid=cbb1f794-b38a-4f82-844a-5f17fc0e5d2e"},"vehicle_type_id":"4","last_reported":1742645767,"current_range_meters":16400,"station_id":"ce4bhch2rcd13ifvqeug","pricing_plan_id":"cebpf4jnsgd1na2vs0mg"},{"bike_id":"1fee47b5-fab4-4ec1-a11f-e919827cdddc","system_id":"levelo_inurba_marseille","lat":43.32361,"lon":5.36777,"is_reserved":false,"is_disabled":false,"rental_uris":{"android":"levelo://app?vid=1fee47b5-fab4-4ec1-a11f-e919827cdddc","ios":"levelo://app?vid=1fee47b5-fab4-4ec1-a11f-e919827cdddc"},"vehicle_type_id":"4","last_reported":1742645767,"current_range_meters":16400,"station_id":"ce4bhsh2rcd13ifvqi2g","pricing_plan_id":"cebpf4jnsgd1na2vs0mg"},{"bike_id":"901b3896-6700-40d6-becf-dbc328b081b7","system_id":"levelo_inurba_marseille","lat":43.24182,"lon":5.39723,"is_reserved":false,"is_disabled":false,"rental_uris":{"android":"levelo://app?vid=901b3896-6700-40d6-becf-dbc328b081b7","ios":"levelo://app?vid=901b3896-6700-40d6-becf-dbc328b081b7"},"vehicle_type_id":"4","last_reported":1742645767,"current_range_meters":16400,"station_id":"ce4bhn12rcd13ifvqgpg","pricing_plan_id":"cebpf4jnsgd1na2vs0mg"},{"bike_id":"7acd2d17-0b93-4578-b8b7-3ab0540e9541","system_id":"levelo_inurba_marseille","lat":43.28417,"lon":5.34986,"is_reserved":false,"is_disabled":false,"rental_uris":{"android":"levelo://app?vid=7acd2d17-0b93-4578-b8b7-3ab0540e9541","ios":"levelo://app?vid=7acd2d17-0b93-4578-b8b7-3ab0540e9541"},"vehicle_type_id":"4","last_reported":1742645767,"current_range_meters":16800,"station_id":"ce4bhbh2rcd13ifvqepg","pricing_plan_id":"cebpf4jnsgd1na2vs0mg"},{"bike_id":"0c64bf72-3971-48ac-8e36-a14365a17aa1","system_id":"levelo_inurba_marseille","lat":43.23062,"lon":5.35495,"is_reserved":false,"is_disabled":false,"rental_uris":{"android":"levelo://app?vid=0c64bf72-3971-48ac-8e36-a14365a17aa1","ios":"levelo://app?vid=0c64bf72-3971-48ac-8e36-a14365a17aa1"},"vehicle_type_id":"4","last_reported":1742645767,"current_range_meters":16800,"station_id":"cpo3342slgdg3j2ifvpg","pricing_plan_id":"cebpf4jnsgd1na2vs0mg"},{"bike_id":"10ed725e-c94a-40a8-85eb-1654ca510caf","system_id":"levelo_inurba_marseille","lat":43.27427,"lon":5.39416,"is_reserved":false,"is_disabled":false,"rental_uris":{"android":"levelo://app?vid=10ed725e-c94a-40a8-85eb-1654ca510caf","ios":"levelo://app?vid=10ed725e-c94a-40a8-85eb-1654ca510caf"},"vehicle_type_id":"4","last_reported":1742645767,"current_range_meters":16800,"station_id":"ce4bhdp2rcd13ifvqf20","pricing_plan_id":"cebpf4jnsgd1na2vs0mg"},{"bike_id":"59c2a742-4ef0-462a-ad11-4cfc56700ee0","system_id":"levelo_inurba_marseille","lat":43.31064,"lon":5.38361,"is_reserved":false,"is_disabled":false,"rental_uris":{"android":"levelo://app?vid=59c2a742-4ef0-462a-ad11-4cfc56700ee0","ios":"levelo://app?vid=59c2a742-4ef0-462a-ad11-4cfc56700ee0"},"vehicle_type_id":"4","last_reported":1742645767,"current_range_meters":16800,"station_id":"ce4bgv92rcd13ifvqcr0","pricing_plan_id":"cebpf4jnsgd1na2vs0mg"},{"bike_id":"45ecd364-66b9-420e-ba2e-73f5d61b1ecb","system_id":"levelo_inurba_marseille","lat":43.28138,"lon":5.37988,"is_reserved":false,"is_disabled":false,"rental_uris":{"android":"levelo://app?vid=45ecd364-66b9-420e-ba2e-73f5d61b1ecb","ios":"levelo://app?vid=45ecd364-66b9-420e-ba2e-73f5d61b1ecb"},"vehicle_type_id":"4","last_reported":1742645767,"current_range_meters":16800,"station_id":"","pricing_plan_id":"cebpf4jnsgd1na2vs0mg"},{"bike_id":"a3ac89ce-3fe3-47ef-ab8b-3f80e3ded549","system_id":"levelo_inurba_marseille","lat":43.28106,"lon":5.37837,"is_reserved":false,"is_disabled":false,"rental_uris":{"android":"levelo://app?vid=a3ac89ce-3fe3-47ef-ab8b-3f80e3ded549","ios":"levelo://app?vid=a3ac89ce-3fe3-47ef-ab8b-3f80e3ded549"},"vehicle_type_id":"4","last_reported":1742645767,"current_range_meters":16800,"station_id":"ce4bha12rcd13ifvqee0","pricing_plan_id":"cebpf4jnsgd1na2vs0mg"},{"bike_id":"1da18c4e-bb0c-47b1-9e4f-fb0ee339817c","system_id":"levelo_inurba_marseille","lat":43.23197,"lon":5.35514,"is_reserved":false,"is_disabled":false,"rental_uris":{"android":"levelo://app?vid=1da18c4e-bb0c-47b1-9e4f-fb0ee339817c","ios":"levelo://app?vid=1da18c4e-bb0c-47b1-9e4f-fb0ee339817c"},"vehicle_type_id":"4","last_reported":1742645767,"current_range_meters":16800,"station_id":"ce4bhu92rcd13ifvqi70","pricing_plan_id":"cebpf4jnsgd1na2vs0mg"},{"bike_id":"f5e67df2-634b-4b3a-b33a-d1730d5d5b54","system_id":"levelo_inurba_marseille","lat":43.33749,"lon":5.39151,"is_reserved":false,"is_disabled":false,"rental_uris":{"android":"levelo://app?vid=f5e67df2-634b-4b3a-b33a-d1730d5d5b54","ios":"levelo://app?vid=f5e67df2-634b-4b3a-b33a-d1730d5d5b54"},"vehicle_type_id":"4","last_reported":1742645767,"current_range_meters":16800,"station_id":"ce4bhr92rcd13ifvqhsg","pricing_plan_id":"cebpf4jnsgd1na2vs0mg"},{"bike_id":"e7506acf-bca4-4bf9-a68d-63317818d92c","system_id":"levelo_inurba_marseille","lat":43.23136,"lon":5.43725,"is_reserved":false,"is_disabled":false,"rental_uris":{"android":"levelo://app?vid=e7506acf-bca4-4bf9-a68d-63317818d92c","ios":"levelo://app?vid=e7506acf-bca4-4bf9-a68d-63317818d92c"},"vehicle_type_id":"4","last_reported":1742645767,"current_range_meters":16800,"station_id":"ce4bhmp2rcd13ifvqgog","pricing_plan_id":"cebpf4jnsgd1na2vs0mg"},{"bike_id":"f8ff41b7-94c3-4164-990c-0c31908da696","system_id":"levelo_inurba_marseille","lat":43.23054,"lon":5.3549,"is_reserved":false,"is_disabled":false,"rental_uris":{"android":"levelo://app?vid=f8ff41b7-94c3-4164-990c-0c31908da696","ios":"levelo://app?vid=f8ff41b7-94c3-4164-990c-0c31908da696"},"vehicle_type_id":"4","last_reported":1742645767,"current_range_meters":16800,"station_id":"cpo3342slgdg3j2ifvpg","pricing_plan_id":"cebpf4jnsgd1na2vs0mg"},{"bike_id":"07334325-d058-40d7-acda-a6b5ad24d0d6","system_id":"levelo_inurba_marseille","lat":43.255,"lon":5.37647,"is_reserved":false,"is_disabled":false,"rental_uris":{"android":"levelo://app?vid=07334325-d058-40d7-acda-a6b5ad24d0d6","ios":"levelo://app?vid=07334325-d058-40d7-acda-a6b5ad24d0d6"},"vehicle_type_id":"4","last_reported":1742645767,"current_range_meters":17200,"station_id":"ce4bhh12rcd13ifvqff0","pricing_plan_id":"cebpf4jnsgd1na2vs0mg"},{"bike_id":"0da5e071-c46d-4b25-b81b-1d72a28243a5","system_id":"levelo_inurba_marseille","lat":43.26564,"lon":5.37304,"is_reserved":false,"is_disabled":false,"rental_uris":{"android":"levelo://app?vid=0da5e071-c46d-4b25-b81b-1d72a28243a5","ios":"levelo://app?vid=0da5e071-c46d-4b25-b81b-1d72a28243a5"},"vehicle_type_id":"4","last_reported":1742645767,"current_range_meters":17200,"station_id":"ce4bhg12rcd13ifvqf70","pricing_plan_id":"cebpf4jnsgd1na2vs0mg"},{"bike_id":"cd897869-d51d-467c-9826-c044773d3f8c","system_id":"levelo_inurba_marseille","lat":43.24173,"lon":5.36387,"is_reserved":false,"is_disabled":false,"rental_uris":{"android":"levelo://app?vid=cd897869-d51d-467c-9826-c044773d3f8c","ios":"levelo://app?vid=cd897869-d51d-467c-9826-c044773d3f8c"},"vehicle_type_id":"4","last_reported":1742645767,"current_range_meters":17200,"station_id":"cpo36qri1sfpv3e86is0","pricing_plan_id":"cebpf4jnsgd1na2vs0mg"},{"bike_id":"f145f844-5ab2-4380-adbd-baab3fdeb2c9","system_id":"levelo_inurba_marseille","lat":43.27568,"lon":5.38413,"is_reserved":false,"is_disabled":false,"rental_uris":{"android":"levelo://app?vid=f145f844-5ab2-4380-adbd-baab3fdeb2c9","ios":"levelo://app?vid=f145f844-5ab2-4380-adbd-baab3fdeb2c9"},"vehicle_type_id":"4","last_reported":1742645767,"current_range_meters":17200,"station_id":"ce4bhh92rcd13ifvqfi0","pricing_plan_id":"cebpf4jnsgd1na2vs0mg"},{"bike_id":"0edca28e-bb2a-4eed-a9fd-458177a3a120","system_id":"levelo_inurba_marseille","lat":43.29568,"lon":5.37507,"is_reserved":false,"is_disabled":false,"rental_uris":{"android":"levelo://app?vid=0edca28e-bb2a-4eed-a9fd-458177a3a120","ios":"levelo://app?vid=0edca28e-bb2a-4eed-a9fd-458177a3a120"},"vehicle_type_id":"4","last_reported":1742645767,"current_range_meters":17200,"station_id":"ce4bgh92rcd13ifvqb50","pricing_plan_id":"cebpf4jnsgd1na2vs0mg"},{"bike_id":"ebf309c3-3630-490d-9a1e-a33fd3504bba","system_id":"levelo_inurba_marseille","lat":43.27312,"lon":5.39094,"is_reserved":false,"is_disabled":false,"rental_uris":{"android":"levelo://app?vid=ebf309c3-3630-490d-9a1e-a33fd3504bba","ios":"levelo://app?vid=ebf309c3-3630-490d-9a1e-a33fd3504bba"},"vehicle_type_id":"4","last_reported":1742645767,"current_range_meters":16800,"station_id":"ce4bhgp2rcd13ifvqfe0","pricing_plan_id":"cebpf4jnsgd1na2vs0mg"},{"bike_id":"f657da43-9a05-4822-9c77-ad8671579423","system_id":"levelo_inurba_marseille","lat":43.295677,"lon":5.399647,"is_reserved":false,"is_disabled":true,"rental_uris":{"android":"levelo://app?vid=f657da43-9a05-4822-9c77-ad8671579423","ios":"levelo://app?vid=f657da43-9a05-4822-9c77-ad8671579423"},"vehicle_type_id":"4","last_reported":1742645767,"current_range_meters":17200,"station_id":"ce4bh312rcd13ifvqdj0","pricing_plan_id":"cebpf4jnsgd1na2vs0mg"},{"bike_id":"e385b533-8d5e-4d2a-b163-e7dc5aa3deb3","system_id":"levelo_inurba_marseille","lat":43.30486,"lon":5.37922,"is_reserved":false,"is_disabled":false,"rental_uris":{"android":"levelo://app?vid=e385b533-8d5e-4d2a-b163-e7dc5aa3deb3","ios":"levelo://app?vid=e385b533-8d5e-4d2a-b163-e7dc5aa3deb3"},"vehicle_type_id":"4","last_reported":1742645767,"current_range_meters":17200,"station_id":"ce4bgup2rcd13ifvqcn0","pricing_plan_id":"cebpf4jnsgd1na2vs0mg"},{"bike_id":"e7f36315-33b7-4281-a35b-834987bb0230","system_id":"levelo_inurba_marseille","lat":43.29577,"lon":5.37498,"is_reserved":false,"is_disabled":false,"rental_uris":{"android":"levelo://app?vid=e7f36315-33b7-4281-a35b-834987bb0230","ios":"levelo://app?vid=e7f36315-33b7-4281-a35b-834987bb0230"},"vehicle_type_id":"4","last_reported":1742645767,"current_range_meters":17200,"station_id":"ce4bgh92rcd13ifvqb50","pricing_plan_id":"cebpf4jnsgd1na2vs0mg"},{"bike_id":"3db9849b-c9bc-4874-8d2d-254425bc663e","system_id":"levelo_inurba_marseille","lat":43.27816,"lon":5.40713,"is_reserved":false,"is_disabled":false,"rental_uris":{"android":"levelo://app?vid=3db9849b-c9bc-4874-8d2d-254425bc663e","ios":"levelo://app?vid=3db9849b-c9bc-4874-8d2d-254425bc663e"},"vehicle_type_id":"4","last_reported":1742645767,"current_range_meters":16800,"station_id":"ce4bhnh2rcd13ifvqgtg","pricing_plan_id":"cebpf4jnsgd1na2vs0mg"},{"bike_id":"dd4e22b4-bad9-4185-8b3b-fb2e9255c63c","system_id":"levelo_inurba_marseille","lat":43.29515,"lon":5.39397,"is_reserved":false,"is_disabled":false,"rental_uris":{"android":"levelo://app?vid=dd4e22b4-bad9-4185-8b3b-fb2e9255c63c","ios":"levelo://app?vid=dd4e22b4-bad9-4185-8b3b-fb2e9255c63c"},"vehicle_type_id":"4","last_reported":1742645767,"current_range_meters":17600,"station_id":"ce4bh292rcd13ifvqdf0","pricing_plan_id":"cebpf4jnsgd1na2vs0mg"},{"bike_id":"5f057e05-88ef-43f2-a315-beafe07070d0","system_id":"levelo_inurba_marseille","lat":43.23183,"lon":5.39991,"is_reserved":false,"is_disabled":false,"rental_uris":{"android":"levelo://app?vid=5f057e05-88ef-43f2-a315-beafe07070d0","ios":"levelo://app?vid=5f057e05-88ef-43f2-a315-beafe07070d0"},"vehicle_type_id":"4","last_reported":1742645767,"current_range_meters":17600,"station_id":"ce4bhn12rcd13ifvqgqg","pricing_plan_id":"cebpf4jnsgd1na2vs0mg"},{"bike_id":"773d2f60-56e6-4d28-a9c9-ad46d6a922fa","system_id":"levelo_inurba_marseille","lat":43.30469,"lon":5.37904,"is_reserved":false,"is_disabled":false,"rental_uris":{"android":"levelo://app?vid=773d2f60-56e6-4d28-a9c9-ad46d6a922fa","ios":"levelo://app?vid=773d2f60-56e6-4d28-a9c9-ad46d6a922fa"},"vehicle_type_id":"4","last_reported":1742645767,"current_range_meters":17600,"station_id":"ce4bgup2rcd13ifvqcn0","pricing_plan_id":"cebpf4jnsgd1na2vs0mg"},{"bike_id":"8bab06c6-a334-482f-a6ee-acc6db131e64","system_id":"levelo_inurba_marseille","lat":43.31493,"lon":5.37315,"is_reserved":false,"is_disabled":false,"rental_uris":{"android":"levelo://app?vid=8bab06c6-a334-482f-a6ee-acc6db131e64","ios":"levelo://app?vid=8bab06c6-a334-482f-a6ee-acc6db131e64"},"vehicle_type_id":"4","last_reported":1742645767,"current_range_meters":17600,"station_id":"ce4bgt12rcd13ifvqcd0","pricing_plan_id":"cebpf4jnsgd1na2vs0mg"},{"bike_id":"185fbe3b-beec-4e8d-a0fb-f3a643549f5b","system_id":"levelo_inurba_marseille","lat":43.31615,"lon":5.37167,"is_reserved":false,"is_disabled":false,"rental_uris":{"android":"levelo://app?vid=185fbe3b-beec-4e8d-a0fb-f3a643549f5b","ios":"levelo://app?vid=185fbe3b-beec-4e8d-a0fb-f3a643549f5b"},"vehicle_type_id":"4","last_reported":1742645767,"current_range_meters":17600,"station_id":"","pricing_plan_id":"cebpf4jnsgd1na2vs0mg"},{"bike_id":"2d7c815c-5902-4c78-a7d5-20ec5920b85f","system_id":"levelo_inurba_marseille","lat":43.27997,"lon":5.40022,"is_reserved":false,"is_disabled":false,"rental_uris":{"android":"levelo://app?vid=2d7c815c-5902-4c78-a7d5-20ec5920b85f","ios":"levelo://app?vid=2d7c815c-5902-4c78-a7d5-20ec5920b85f"},"vehicle_type_id":"4","last_reported":1742645767,"current_range_meters":17600,"station_id":"ce4bho92rcd13ifvqh4g","pricing_plan_id":"cebpf4jnsgd1na2vs0mg"},{"bike_id":"cc627dfb-5dc1-417c-aff1-2583204a6c15","system_id":"levelo_inurba_marseille","lat":43.23965,"lon":5.36632,"is_reserved":false,"is_disabled":false,"rental_uris":{"android":"levelo://app?vid=cc627dfb-5dc1-417c-aff1-2583204a6c15","ios":"levelo://app?vid=cc627dfb-5dc1-417c-aff1-2583204a6c15"},"vehicle_type_id":"4","last_reported":1742645767,"current_range_meters":17600,"station_id":"ce4bhi12rcd13ifvqfp0","pricing_plan_id":"cebpf4jnsgd1na2vs0mg"},{"bike_id":"8ac76298-3375-4b96-8a90-9315b1510fa4","system_id":"levelo_inurba_marseille","lat":43.27846,"lon":5.40718,"is_reserved":false,"is_disabled":true,"rental_uris":{"android":"levelo://app?vid=8ac76298-3375-4b96-8a90-9315b1510fa4","ios":"levelo://app?vid=8ac76298-3375-4b96-8a90-9315b1510fa4"},"vehicle_type_id":"4","last_reported":1742645767,"current_range_meters":17600,"station_id":"ce4bhnh2rcd13ifvqgtg","pricing_plan_id":"cebpf4jnsgd1na2vs0mg"},{"bike_id":"c700eee3-fdc2-4ac8-9026-8c342356f994","system_id":"levelo_inurba_marseille","lat":43.27574,"lon":5.38411,"is_reserved":false,"is_disabled":false,"rental_uris":{"android":"levelo://app?vid=c700eee3-fdc2-4ac8-9026-8c342356f994","ios":"levelo://app?vid=c700eee3-fdc2-4ac8-9026-8c342356f994"},"vehicle_type_id":"4","last_reported":1742645767,"current_range_meters":17600,"station_id":"ce4bhh92rcd13ifvqfi0","pricing_plan_id":"cebpf4jnsgd1na2vs0mg"},{"bike_id":"0b1dc631-c9e7-4faf-bb69-8f994665189e","system_id":"levelo_inurba_marseille","lat":43.2585,"lon":5.3942,"is_reserved":false,"is_disabled":false,"rental_uris":{"android":"levelo://app?vid=0b1dc631-c9e7-4faf-bb69-8f994665189e","ios":"levelo://app?vid=0b1dc631-c9e7-4faf-bb69-8f994665189e"},"vehicle_type_id":"4","last_reported":1742645767,"current_range_meters":17600,"station_id":"ce4bhip2rcd13ifvqft0","pricing_plan_id":"cebpf4jnsgd1na2vs0mg"},{"bike_id":"cb7c7ca2-01de-49dd-983f-c64a8c68b238","system_id":"levelo_inurba_marseille","lat":43.26222,"lon":5.37448,"is_reserved":false,"is_disabled":false,"rental_uris":{"android":"levelo://app?vid=cb7c7ca2-01de-49dd-983f-c64a8c68b238","ios":"levelo://app?vid=cb7c7ca2-01de-49dd-983f-c64a8c68b238"},"vehicle_type_id":"4","last_reported":1742645767,"current_range_meters":17600,"station_id":"ce4bhgp2rcd13ifvqfc0","pricing_plan_id":"cebpf4jnsgd1na2vs0mg"},{"bike_id":"086947d9-1406-4ff3-8ff7-66dc965df2cf","system_id":"levelo_inurba_marseille","lat":43.27619,"lon":5.36113,"is_reserved":false,"is_disabled":false,"rental_uris":{"android":"levelo://app?vid=086947d9-1406-4ff3-8ff7-66dc965df2cf","ios":"levelo://app?vid=086947d9-1406-4ff3-8ff7-66dc965df2cf"},"vehicle_type_id":"4","last_reported":1742645767,"current_range_meters":17600,"station_id":"ce4bgj92rcd13ifvqbe0","pricing_plan_id":"cebpf4jnsgd1na2vs0mg"},{"bike_id":"70dd5e63-c1af-4541-93fc-654ea63484a5","system_id":"levelo_inurba_marseille","lat":43.3107,"lon":5.38342,"is_reserved":false,"is_disabled":false,"rental_uris":{"android":"levelo://app?vid=70dd5e63-c1af-4541-93fc-654ea63484a5","ios":"levelo://app?vid=70dd5e63-c1af-4541-93fc-654ea63484a5"},"vehicle_type_id":"4","last_reported":1742645767,"current_range_meters":18000,"station_id":"ce4bgv92rcd13ifvqcr0","pricing_plan_id":"cebpf4jnsgd1na2vs0mg"},{"bike_id":"adbda35d-dcc5-406b-8378-7cdca769c4ce","system_id":"levelo_inurba_marseille","lat":43.29709,"lon":5.36603,"is_reserved":false,"is_disabled":false,"rental_uris":{"android":"levelo://app?vid=adbda35d-dcc5-406b-8378-7cdca769c4ce","ios":"levelo://app?vid=adbda35d-dcc5-406b-8378-7cdca769c4ce"},"vehicle_type_id":"4","last_reported":1742645767,"current_range_meters":18000,"station_id":"ce4bgn12rcd13ifvqbt0","pricing_plan_id":"cebpf4jnsgd1na2vs0mg"},{"bike_id":"3bfbd693-4245-4281-88bd-3df0f5f2b072","system_id":"levelo_inurba_marseille","lat":43.24167,"lon":5.364,"is_reserved":false,"is_disabled":false,"rental_uris":{"android":"levelo://app?vid=3bfbd693-4245-4281-88bd-3df0f5f2b072","ios":"levelo://app?vid=3bfbd693-4245-4281-88bd-3df0f5f2b072"},"vehicle_type_id":"4","last_reported":1742645767,"current_range_meters":18000,"station_id":"cpo36qri1sfpv3e86is0","pricing_plan_id":"cebpf4jnsgd1na2vs0mg"},{"bike_id":"0938b56b-1b86-4a75-89d8-7262543d0350","system_id":"levelo_inurba_marseille","lat":43.27915,"lon":5.39576,"is_reserved":false,"is_disabled":false,"rental_uris":{"android":"levelo://app?vid=0938b56b-1b86-4a75-89d8-7262543d0350","ios":"levelo://app?vid=0938b56b-1b86-4a75-89d8-7262543d0350"},"vehicle_type_id":"4","last_reported":1742645767,"current_range_meters":18000,"station_id":"ce4bhf92rcd13ifvqf40","pricing_plan_id":"cebpf4jnsgd1na2vs0mg"},{"bike_id":"3ad58ee9-ab1a-4ee1-8bdf-0f4cea436a0f","system_id":"levelo_inurba_marseille","lat":43.30544,"lon":5.36524,"is_reserved":false,"is_disabled":false,"rental_uris":{"android":"levelo://app?vid=3ad58ee9-ab1a-4ee1-8bdf-0f4cea436a0f","ios":"levelo://app?vid=3ad58ee9-ab1a-4ee1-8bdf-0f4cea436a0f"},"vehicle_type_id":"4","last_reported":1742645767,"current_range_meters":18000,"station_id":"ce4bgs12rcd13ifvqcag","pricing_plan_id":"cebpf4jnsgd1na2vs0mg"},{"bike_id":"d3ab18c3-d642-40d8-8c25-769a87a5e4e2","system_id":"levelo_inurba_marseille","lat":43.26805,"lon":5.40265,"is_reserved":false,"is_disabled":false,"rental_uris":{"android":"levelo://app?vid=d3ab18c3-d642-40d8-8c25-769a87a5e4e2","ios":"levelo://app?vid=d3ab18c3-d642-40d8-8c25-769a87a5e4e2"},"vehicle_type_id":"4","last_reported":1742645767,"current_range_meters":18000,"station_id":"ce501612rcd8frsf0b60","pricing_plan_id":"cebpf4jnsgd1na2vs0mg"},{"bike_id":"305f8757-7b7f-4f43-88fb-3591d7a02279","system_id":"levelo_inurba_marseille","lat":43.2804,"lon":5.36946,"is_reserved":false,"is_disabled":false,"rental_uris":{"android":"levelo://app?vid=305f8757-7b7f-4f43-88fb-3591d7a02279","ios":"levelo://app?vid=305f8757-7b7f-4f43-88fb-3591d7a02279"},"vehicle_type_id":"4","last_reported":1742645767,"current_range_meters":18800,"station_id":"ce4bha12rcd13ifvqef0","pricing_plan_id":"cebpf4jnsgd1na2vs0mg"},{"bike_id":"a44ebb61-60aa-4a5c-9013-d196de04b9b4","system_id":"levelo_inurba_marseille","lat":43.26062,"lon":5.39401,"is_reserved":false,"is_disabled":false,"rental_uris":{"android":"levelo://app?vid=a44ebb61-60aa-4a5c-9013-d196de04b9b4","ios":"levelo://app?vid=a44ebb61-60aa-4a5c-9013-d196de04b9b4"},"vehicle_type_id":"4","last_reported":1742645767,"current_range_meters":18800,"station_id":"ce4bhh92rcd13ifvqfj0","pricing_plan_id":"cebpf4jnsgd1na2vs0mg"},{"bike_id":"aaa776b0-76df-4f80-993e-5dceed798cf8","system_id":"levelo_inurba_marseille","lat":43.28602,"lon":5.35122,"is_reserved":false,"is_disabled":false,"rental_uris":{"android":"levelo://app?vid=aaa776b0-76df-4f80-993e-5dceed798cf8","ios":"levelo://app?vid=aaa776b0-76df-4f80-993e-5dceed798cf8"},"vehicle_type_id":"4","last_reported":1742645767,"current_range_meters":18800,"station_id":"ce4bhch2rcd13ifvqeug","pricing_plan_id":"cebpf4jnsgd1na2vs0mg"},{"bike_id":"362ce256-d873-44d5-8d0c-8eb3060da6b1","system_id":"levelo_inurba_marseille","lat":43.28148,"lon":5.42641,"is_reserved":false,"is_disabled":false,"rental_uris":{"android":"levelo://app?vid=362ce256-d873-44d5-8d0c-8eb3060da6b1","ios":"levelo://app?vid=362ce256-d873-44d5-8d0c-8eb3060da6b1"},"vehicle_type_id":"4","last_reported":1742645767,"current_range_meters":18800,"station_id":"ce4bhnh2rcd13ifvqgug","pricing_plan_id":"cebpf4jnsgd1na2vs0mg"},{"bike_id":"223ad680-50eb-457f-bceb-c10a87897d8b","system_id":"levelo_inurba_marseille","lat":43.28472,"lon":5.38415,"is_reserved":false,"is_disabled":false,"rental_uris":{"android":"levelo://app?vid=223ad680-50eb-457f-bceb-c10a87897d8b","ios":"levelo://app?vid=223ad680-50eb-457f-bceb-c10a87897d8b"},"vehicle_type_id":"4","last_reported":1742645767,"current_range_meters":18800,"station_id":"ce4bh512rcd13ifvqe3g","pricing_plan_id":"cebpf4jnsgd1na2vs0mg"},{"bike_id":"17238c44-02e8-4ba3-abe3-5ae6a9cab49f","system_id":"levelo_inurba_marseille","lat":43.31762,"lon":5.39021,"is_reserved":false,"is_disabled":true,"rental_uris":{"android":"levelo://app?vid=17238c44-02e8-4ba3-abe3-5ae6a9cab49f","ios":"levelo://app?vid=17238c44-02e8-4ba3-abe3-5ae6a9cab49f"},"vehicle_type_id":"4","last_reported":1742645767,"current_range_meters":18800,"station_id":"ce4bhqp2rcd13ifvqhng","pricing_plan_id":"cebpf4jnsgd1na2vs0mg"},{"bike_id":"a4add9e2-d261-45e7-9bba-b3f59e706120","system_id":"levelo_inurba_marseille","lat":43.28704,"lon":5.37381,"is_reserved":false,"is_disabled":false,"rental_uris":{"android":"levelo://app?vid=a4add9e2-d261-45e7-9bba-b3f59e706120","ios":"levelo://app?vid=a4add9e2-d261-45e7-9bba-b3f59e706120"},"vehicle_type_id":"4","last_reported":1742645767,"current_range_meters":18800,"station_id":"ce4bh3p2rcd13ifvqdq0","pricing_plan_id":"cebpf4jnsgd1na2vs0mg"},{"bike_id":"f5d6fb81-836a-4b9b-8af0-5df5c20249dd","system_id":"levelo_inurba_marseille","lat":43.26063,"lon":5.39398,"is_reserved":false,"is_disabled":false,"rental_uris":{"android":"levelo://app?vid=f5d6fb81-836a-4b9b-8af0-5df5c20249dd","ios":"levelo://app?vid=f5d6fb81-836a-4b9b-8af0-5df5c20249dd"},"vehicle_type_id":"4","last_reported":1742645767,"current_range_meters":18800,"station_id":"ce4bhh92rcd13ifvqfj0","pricing_plan_id":"cebpf4jnsgd1na2vs0mg"},{"bike_id":"deb6420d-b998-467f-b950-fb6c8a968356","system_id":"levelo_inurba_marseille","lat":43.31199,"lon":5.38723,"is_reserved":false,"is_disabled":false,"rental_uris":{"android":"levelo://app?vid=deb6420d-b998-467f-b950-fb6c8a968356","ios":"levelo://app?vid=deb6420d-b998-467f-b950-fb6c8a968356"},"vehicle_type_id":"4","last_reported":1742645767,"current_range_meters":18800,"station_id":"ce4bgv12rcd13ifvqcp0","pricing_plan_id":"cebpf4jnsgd1na2vs0mg"},{"bike_id":"80abfb19-6c65-4c22-8da9-c79ad40021d8","system_id":"levelo_inurba_marseille","lat":43.29717,"lon":5.36604,"is_reserved":false,"is_disabled":false,"rental_uris":{"android":"levelo://app?vid=80abfb19-6c65-4c22-8da9-c79ad40021d8","ios":"levelo://app?vid=80abfb19-6c65-4c22-8da9-c79ad40021d8"},"vehicle_type_id":"4","last_reported":1742645767,"current_range_meters":18800,"station_id":"ce4bgn12rcd13ifvqbt0","pricing_plan_id":"cebpf4jnsgd1na2vs0mg"},{"bike_id":"df739577-ee3a-4ebe-9bec-d2c6092ac0bc","system_id":"levelo_inurba_marseille","lat":43.24394,"lon":5.37062,"is_reserved":false,"is_disabled":false,"rental_uris":{"android":"levelo://app?vid=df739577-ee3a-4ebe-9bec-d2c6092ac0bc","ios":"levelo://app?vid=df739577-ee3a-4ebe-9bec-d2c6092ac0bc"},"vehicle_type_id":"4","last_reported":1742645767,"current_range_meters":19200,"station_id":"ce4bhhh2rcd13ifvqfk0","pricing_plan_id":"cebpf4jnsgd1na2vs0mg"},{"bike_id":"751e2d3b-8aab-4397-8ba8-2d379a5719f4","system_id":"levelo_inurba_marseille","lat":43.31686,"lon":5.40476,"is_reserved":false,"is_disabled":false,"rental_uris":{"android":"levelo://app?vid=751e2d3b-8aab-4397-8ba8-2d379a5719f4","ios":"levelo://app?vid=751e2d3b-8aab-4397-8ba8-2d379a5719f4"},"vehicle_type_id":"4","last_reported":1742645767,"current_range_meters":19200,"station_id":"ce4bh012rcd13ifvqd00","pricing_plan_id":"cebpf4jnsgd1na2vs0mg"},{"bike_id":"1db353d0-f4ca-4d02-82ee-68c1fd2d6d8d","system_id":"levelo_inurba_marseille","lat":43.28622,"lon":5.3511,"is_reserved":false,"is_disabled":false,"rental_uris":{"android":"levelo://app?vid=1db353d0-f4ca-4d02-82ee-68c1fd2d6d8d","ios":"levelo://app?vid=1db353d0-f4ca-4d02-82ee-68c1fd2d6d8d"},"vehicle_type_id":"4","last_reported":1742645767,"current_range_meters":19200,"station_id":"ce4bhch2rcd13ifvqeug","pricing_plan_id":"cebpf4jnsgd1na2vs0mg"},{"bike_id":"bc9448af-2e85-4c2c-ad1f-554495fd0029","system_id":"levelo_inurba_marseille","lat":43.30786,"lon":5.37652,"is_reserved":false,"is_disabled":false,"rental_uris":{"android":"levelo://app?vid=bc9448af-2e85-4c2c-ad1f-554495fd0029","ios":"levelo://app?vid=bc9448af-2e85-4c2c-ad1f-554495fd0029"},"vehicle_type_id":"4","last_reported":1742645767,"current_range_meters":18800,"station_id":"ce4bgv92rcd13ifvqcq0","pricing_plan_id":"cebpf4jnsgd1na2vs0mg"},{"bike_id":"acd44e3f-4e26-4a3e-8a93-6732a9c625ee","system_id":"levelo_inurba_marseille","lat":43.28429,"lon":5.35001,"is_reserved":false,"is_disabled":false,"rental_uris":{"android":"levelo://app?vid=acd44e3f-4e26-4a3e-8a93-6732a9c625ee","ios":"levelo://app?vid=acd44e3f-4e26-4a3e-8a93-6732a9c625ee"},"vehicle_type_id":"4","last_reported":1742645767,"current_range_meters":19200,"station_id":"ce4bhbh2rcd13ifvqepg","pricing_plan_id":"cebpf4jnsgd1na2vs0mg"},{"bike_id":"0fe230d4-ef3e-4c2b-b295-1d619e065139","system_id":"levelo_inurba_marseille","lat":43.24393,"lon":5.37058,"is_reserved":false,"is_disabled":false,"rental_uris":{"android":"levelo://app?vid=0fe230d4-ef3e-4c2b-b295-1d619e065139","ios":"levelo://app?vid=0fe230d4-ef3e-4c2b-b295-1d619e065139"},"vehicle_type_id":"4","last_reported":1742645767,"current_range_meters":19200,"station_id":"ce4bhhh2rcd13ifvqfk0","pricing_plan_id":"cebpf4jnsgd1na2vs0mg"},{"bike_id":"c84cccce-c355-4ca6-9a7e-b33bd04e6de5","system_id":"levelo_inurba_marseille","lat":43.257641,"lon":5.38257,"is_reserved":false,"is_disabled":false,"rental_uris":{"android":"levelo://app?vid=c84cccce-c355-4ca6-9a7e-b33bd04e6de5","ios":"levelo://app?vid=c84cccce-c355-4ca6-9a7e-b33bd04e6de5"},"vehicle_type_id":"4","last_reported":1742645767,"current_range_meters":19200,"station_id":"ce4bhjp2rcd13ifvqg90","pricing_plan_id":"cebpf4jnsgd1na2vs0mg"},{"bike_id":"fff77754-0714-462e-8101-a5110e958b2c","system_id":"levelo_inurba_marseille","lat":43.25009,"lon":5.38943,"is_reserved":false,"is_disabled":false,"rental_uris":{"android":"levelo://app?vid=fff77754-0714-462e-8101-a5110e958b2c","ios":"levelo://app?vid=fff77754-0714-462e-8101-a5110e958b2c"},"vehicle_type_id":"4","last_reported":1742645767,"current_range_meters":19200,"station_id":"ce4bhgp2rcd13ifvqfd0","pricing_plan_id":"cebpf4jnsgd1na2vs0mg"},{"bike_id":"c2e5df8a-7260-4d1e-af0e-93bfdf63b735","system_id":"levelo_inurba_marseille","lat":43.24179,"lon":5.39744,"is_reserved":false,"is_disabled":false,"rental_uris":{"android":"levelo://app?vid=c2e5df8a-7260-4d1e-af0e-93bfdf63b735","ios":"levelo://app?vid=c2e5df8a-7260-4d1e-af0e-93bfdf63b735"},"vehicle_type_id":"4","last_reported":1742645767,"current_range_meters":19200,"station_id":"ce4bhn12rcd13ifvqgpg","pricing_plan_id":"cebpf4jnsgd1na2vs0mg"},{"bike_id":"7beb2d8b-978a-4a85-9bde-78f5e1764a7e","system_id":"levelo_inurba_marseille","lat":43.27369,"lon":5.36253,"is_reserved":false,"is_disabled":false,"rental_uris":{"android":"levelo://app?vid=7beb2d8b-978a-4a85-9bde-78f5e1764a7e","ios":"levelo://app?vid=7beb2d8b-978a-4a85-9bde-78f5e1764a7e"},"vehicle_type_id":"4","last_reported":1742645767,"current_range_meters":18800,"station_id":"ce4bhbh2rcd13ifvqeo0","pricing_plan_id":"cebpf4jnsgd1na2vs0mg"},{"bike_id":"89c9a0c5-82a0-43ab-947b-e140002a0ed4","system_id":"levelo_inurba_marseille","lat":43.2902,"lon":5.38122,"is_reserved":false,"is_disabled":false,"rental_uris":{"android":"levelo://app?vid=89c9a0c5-82a0-43ab-947b-e140002a0ed4","ios":"levelo://app?vid=89c9a0c5-82a0-43ab-947b-e140002a0ed4"},"vehicle_type_id":"4","last_reported":1742645767,"current_range_meters":19600,"station_id":"ce4bh4p2rcd13ifvqe1g","pricing_plan_id":"cebpf4jnsgd1na2vs0mg"},{"bike_id":"c99f571d-8add-4e56-80ab-3766470c6d33","system_id":"levelo_inurba_marseille","lat":43.27878,"lon":5.37977,"is_reserved":false,"is_disabled":false,"rental_uris":{"android":"levelo://app?vid=c99f571d-8add-4e56-80ab-3766470c6d33","ios":"levelo://app?vid=c99f571d-8add-4e56-80ab-3766470c6d33"},"vehicle_type_id":"4","last_reported":1742645767,"current_range_meters":19600,"station_id":"ce4bhf92rcd13ifvqf50","pricing_plan_id":"cebpf4jnsgd1na2vs0mg"},{"bike_id":"9ce37ceb-b6da-4f3c-94c8-4673acda1701","system_id":"levelo_inurba_marseille","lat":43.303169,"lon":5.369042,"is_reserved":false,"is_disabled":false,"rental_uris":{"android":"levelo://app?vid=9ce37ceb-b6da-4f3c-94c8-4673acda1701","ios":"levelo://app?vid=9ce37ceb-b6da-4f3c-94c8-4673acda1701"},"vehicle_type_id":"4","last_reported":1742645767,"current_range_meters":19600,"station_id":"ce4bha12rcd13ifvqee0","pricing_plan_id":"cebpf4jnsgd1na2vs0mg"},