{"last_updated":1776813995,"ttl":60,"version":"2.2","data":{"bikes":[{"bike_id":"1f7a2d29-0ba7-4b8b-9cac-6ff894aac21f","system_id":"levelo_inurba_marseille","lat":43.32914,"lon":5.39055,"is_reserved":false,"is_disabled":false,"rental_uris":{"android":"levelo://app?vid=1f7a2d29-0ba7-4b8b-9cac-6ff894aac21f","ios":"levelo://app?vid=1f7a2d29-0ba7-4b8b-9cac-6ff894aac21f"},"vehicle_type_id":"4","last_reported":1776813996,"current_range_meters":2800,"station_id":"","pricing_plan_id":"cebpf4jnsgd1na2vs0mg"},{"bike_id":"f27eb424-5b95-4293-b6fc-67955ab5fbc1","system_id":"levelo_inurba_marseille","lat":43.31696,"lon":5.40418,"is_reserved":false,"is_disabled":false,"rental_uris":{"android":"levelo://app?vid=f27eb424-5b95-4293-b6fc-67955ab5fbc1","ios":"levelo://app?vid=f27eb424-5b95-4293-b6fc-67955ab5fbc1"},"vehicle_type_id":"4","last_reported":1776813996,"current_range_meters":2800,"station_id":"ce4bh012rcd13ifvqd00","pricing_plan_id":"cebpf4jnsgd1na2vs0mg"},{"bike_id":"72ce5c7b-f90a-4320-83e6-79770c82c65e","system_id":"levelo_inurba_marseille","lat":43.27394,"lon":5.38471,"is_reserved":false,"is_disabled":false,"rental_uris":{"android":"levelo://app?vid=72ce5c7b-f90a-4320-83e6-79770c82c65e","ios":"levelo://app?vid=72ce5c7b-f90a-4320-83e6-79770c82c65e"},"vehicle_type_id":"4","last_reported":1776813996,"current_range_meters":2800,"station_id":"","pricing_plan_id":"cebpf4jnsgd1na2vs0mg"},{"bike_id":"a75ead29-73c6-4ac5-affc-be0894b5c971","system_id":"levelo_inurba_marseille","lat":43.31578,"lon":5.38846,"is_reserved":false,"is_disabled":false,"rental_uris":{"android":"levelo://app?vid=a75ead29-73c6-4ac5-affc-be0894b5c971","ios":"levelo://app?vid=a75ead29-73c6-4ac5-affc-be0894b5c971"},"vehicle_type_id":"4","last_reported":1776813996,"current_range_meters":2800,"station_id":"","pricing_plan_id":"cebpf4jnsgd1na2vs0mg"},{"bike_id":"678be1e3-7bf2-4e61-8458-42d5abd6c5bd","system_id":"levelo_inurba_marseille","lat":43.33758,"lon":5.37483,"is_reserved":false,"is_disabled":false,"rental_uris":{"android":"levelo://app?vid=678be1e3-7bf2-4e61-8458-42d5abd6c5bd","ios":"levelo://app?vid=678be1e3-7bf2-4e61-8458-42d5abd6c5bd"},"vehicle_type_id":"4","last_reported":1776813996,"current_range_meters":3200,"station_id":"","pricing_plan_id":"cebpf4jnsgd1na2vs0mg"},{"bike_id":"dcd5e660-ed5f-40d3-b14d-73d697ebb6e8","system_id":"levelo_inurba_marseille","lat":43.21762,"lon":5.34568,"is_reserved":false,"is_disabled":false,"rental_uris":{"android":"levelo://app?vid=dcd5e660-ed5f-40d3-b14d-73d697ebb6e8","ios":"levelo://app?vid=dcd5e660-ed5f-40d3-b14d-73d697ebb6e8"},"vehicle_type_id":"4","last_reported":1776813996,"current_range_meters":3200,"station_id":"st_cvj6r9ubvosntc0bgbag","pricing_plan_id":"cebpf4jnsgd1na2vs0mg"},{"bike_id":"6cb77786-5dff-4b6b-b399-83a9c40b38d5","system_id":"levelo_inurba_marseille","lat":43.2119,"lon":5.35079,"is_reserved":false,"is_disabled":false,"rental_uris":{"android":"levelo://app?vid=6cb77786-5dff-4b6b-b399-83a9c40b38d5","ios":"levelo://app?vid=6cb77786-5dff-4b6b-b399-83a9c40b38d5"},"vehicle_type_id":"4","last_reported":1776813996,"current_range_meters":3200,"station_id":"st_cvj6sg6p6f1abm77japg","pricing_plan_id":"cebpf4jnsgd1na2vs0mg"},{"bike_id":"4a049369-7aae-4493-aa1e-991c52515875","system_id":"levelo_inurba_marseille","lat":43.29145,"lon":5.35761,"is_reserved":false,"is_disabled":true,"rental_uris":{"android":"levelo://app?vid=4a049369-7aae-4493-aa1e-991c52515875","ios":"levelo://app?vid=4a049369-7aae-4493-aa1e-991c52515875"},"vehicle_type_id":"4","last_reported":1776813996,"current_range_meters":3200,"station_id":"","pricing_plan_id":"cebpf4jnsgd1na2vs0mg"},{"bike_id":"e40613a8-ab78-4dc5-9ba0-76898374136e","system_id":"levelo_inurba_marseille","lat":43.28554,"lon":5.44082,"is_reserved":false,"is_disabled":false,"rental_uris":{"android":"levelo://app?vid=e40613a8-ab78-4dc5-9ba0-76898374136e","ios":"levelo://app?vid=e40613a8-ab78-4dc5-9ba0-76898374136e"},"vehicle_type_id":"4","last_reported":1776813996,"current_range_meters":3200,"station_id":"st_d3j3df2ikq2c7380ej80","pricing_plan_id":"cebpf4jnsgd1na2vs0mg"},{"bike_id":"22033817-0b57-4aac-b4c2-cb663c9a4002","system_id":"levelo_inurba_marseille","lat":43.31146,"lon":5.38971,"is_reserved":false,"is_disabled":false,"rental_uris":{"android":"levelo://app?vid=22033817-0b57-4aac-b4c2-cb663c9a4002","ios":"levelo://app?vid=22033817-0b57-4aac-b4c2-cb663c9a4002"},"vehicle_type_id":"4","last_reported":1776813996,"current_range_meters":3200,"station_id":"","pricing_plan_id":"cebpf4jnsgd1na2vs0mg"},{"bike_id":"21298c5a-eda3-4af3-a524-0558894f8b98","system_id":"levelo_inurba_marseille","lat":43.30347,"lon":5.47276,"is_reserved":false,"is_disabled":false,"rental_uris":{"android":"levelo://app?vid=21298c5a-eda3-4af3-a524-0558894f8b98","ios":"levelo://app?vid=21298c5a-eda3-4af3-a524-0558894f8b98"},"vehicle_type_id":"4","last_reported":1776813996,"current_range_meters":3200,"station_id":"","pricing_plan_id":"cebpf4jnsgd1na2vs0mg"},{"bike_id":"0fdc542d-acd2-4025-8d63-512d2f4432f7","system_id":"levelo_inurba_marseille","lat":43.292316,"lon":5.360695,"is_reserved":false,"is_disabled":false,"rental_uris":{"android":"levelo://app?vid=0fdc542d-acd2-4025-8d63-512d2f4432f7","ios":"levelo://app?vid=0fdc542d-acd2-4025-8d63-512d2f4432f7"},"vehicle_type_id":"4","last_reported":1776813996,"current_range_meters":3200,"station_id":"ce4bh192rcd13ifvqdd0","pricing_plan_id":"cebpf4jnsgd1na2vs0mg"},{"bike_id":"428a3e1f-0c14-4644-9951-f64ac1c47a29","system_id":"levelo_inurba_marseille","lat":43.33528,"lon":5.37423,"is_reserved":false,"is_disabled":false,"rental_uris":{"android":"levelo://app?vid=428a3e1f-0c14-4644-9951-f64ac1c47a29","ios":"levelo://app?vid=428a3e1f-0c14-4644-9951-f64ac1c47a29"},"vehicle_type_id":"4","last_reported":1776813996,"current_range_meters":3600,"station_id":"st_d46tts09ee8s73dlu43g","pricing_plan_id":"cebpf4jnsgd1na2vs0mg"},{"bike_id":"65c36df8-a7fe-4010-8370-f48b0c45f206","system_id":"levelo_inurba_marseille","lat":43.33532,"lon":5.37451,"is_reserved":false,"is_disabled":false,"rental_uris":{"android":"levelo://app?vid=65c36df8-a7fe-4010-8370-f48b0c45f206","ios":"levelo://app?vid=65c36df8-a7fe-4010-8370-f48b0c45f206"},"vehicle_type_id":"4","last_reported":1776813996,"current_range_meters":3600,"station_id":"st_d46tts09ee8s73dlu43g","pricing_plan_id":"cebpf4jnsgd1na2vs0mg"},{"bike_id":"f4d54e48-a770-41e1-9ee7-af76b97cdcc5","system_id":"levelo_inurba_marseille","lat":43.28535,"lon":5.44089,"is_reserved":false,"is_disabled":false,"rental_uris":{"android":"levelo://app?vid=f4d54e48-a770-41e1-9ee7-af76b97cdcc5","ios":"levelo://app?vid=f4d54e48-a770-41e1-9ee7-af76b97cdcc5"},"vehicle_type_id":"4","last_reported":1776813996,"current_range_meters":3600,"station_id":"st_d3j3df2ikq2c7380ej80","pricing_plan_id":"cebpf4jnsgd1na2vs0mg"},{"bike_id":"2b91d518-5095-4415-99e4-124095a25fff","system_id":"levelo_inurba_marseille","lat":43.33692,"lon":5.39839,"is_reserved":false,"is_disabled":false,"rental_uris":{"android":"levelo://app?vid=2b91d518-5095-4415-99e4-124095a25fff","ios":"levelo://app?vid=2b91d518-5095-4415-99e4-124095a25fff"},"vehicle_type_id":"4","last_reported":1776813996,"current_range_meters":3600,"station_id":"","pricing_plan_id":"cebpf4jnsgd1na2vs0mg"},{"bike_id":"067a21fc-f47e-4f83-8900-f3eab3d6e7cc","system_id":"levelo_inurba_marseille","lat":43.2992,"lon":5.36459,"is_reserved":false,"is_disabled":false,"rental_uris":{"android":"levelo://app?vid=067a21fc-f47e-4f83-8900-f3eab3d6e7cc","ios":"levelo://app?vid=067a21fc-f47e-4f83-8900-f3eab3d6e7cc"},"vehicle_type_id":"4","last_reported":1776813996,"current_range_meters":4000,"station_id":"","pricing_plan_id":"cebpf4jnsgd1na2vs0mg"},{"bike_id":"b785f7ea-cfcc-407f-b48a-6739a001a77c","system_id":"levelo_inurba_marseille","lat":43.33157,"lon":5.37676,"is_reserved":false,"is_disabled":false,"rental_uris":{"android":"levelo://app?vid=b785f7ea-cfcc-407f-b48a-6739a001a77c","ios":"levelo://app?vid=b785f7ea-cfcc-407f-b48a-6739a001a77c"},"vehicle_type_id":"4","last_reported":1776813996,"current_range_meters":4000,"station_id":"st_d46cu089ee8s73dldbu0","pricing_plan_id":"cebpf4jnsgd1na2vs0mg"},{"bike_id":"be5348a3-1499-4f44-9d7a-d050ef9268e8","system_id":"levelo_inurba_marseille","lat":43.32699,"lon":5.38328,"is_reserved":false,"is_disabled":false,"rental_uris":{"android":"levelo://app?vid=be5348a3-1499-4f44-9d7a-d050ef9268e8","ios":"levelo://app?vid=be5348a3-1499-4f44-9d7a-d050ef9268e8"},"vehicle_type_id":"4","last_reported":1776813996,"current_range_meters":4000,"station_id":"","pricing_plan_id":"cebpf4jnsgd1na2vs0mg"},{"bike_id":"f872630d-e23b-449e-bd2e-cb6a8a050a9a","system_id":"levelo_inurba_marseille","lat":43.25339,"lon":5.42174,"is_reserved":false,"is_disabled":false,"rental_uris":{"android":"levelo://app?vid=f872630d-e23b-449e-bd2e-cb6a8a050a9a","ios":"levelo://app?vid=f872630d-e23b-449e-bd2e-cb6a8a050a9a"},"vehicle_type_id":"4","last_reported":1776813996,"current_range_meters":4000,"station_id":"st_d2m65c5bi1j21697t3ng","pricing_plan_id":"cebpf4jnsgd1na2vs0mg"},{"bike_id":"032aadbc-bf18-4be0-887f-decf5b2cc280","system_id":"levelo_inurba_marseille","lat":43.31888,"lon":5.40723,"is_reserved":false,"is_disabled":false,"rental_uris":{"android":"levelo://app?vid=032aadbc-bf18-4be0-887f-decf5b2cc280","ios":"levelo://app?vid=032aadbc-bf18-4be0-887f-decf5b2cc280"},"vehicle_type_id":"4","last_reported":1776813996,"current_range_meters":4000,"station_id":"ce4bhq12rcd13ifvqhig","pricing_plan_id":"cebpf4jnsgd1na2vs0mg"},{"bike_id":"58ed09d9-0aa1-471f-818a-54c432b83970","system_id":"levelo_inurba_marseille","lat":43.26617,"lon":5.4275,"is_reserved":false,"is_disabled":false,"rental_uris":{"android":"levelo://app?vid=58ed09d9-0aa1-471f-818a-54c432b83970","ios":"levelo://app?vid=58ed09d9-0aa1-471f-818a-54c432b83970"},"vehicle_type_id":"4","last_reported":1776813996,"current_range_meters":4400,"station_id":"","pricing_plan_id":"cebpf4jnsgd1na2vs0mg"},{"bike_id":"e8eda1d3-f017-4539-a4c1-02e93e29d334","system_id":"levelo_inurba_marseille","lat":43.31362,"lon":5.38497,"is_reserved":false,"is_disabled":false,"rental_uris":{"android":"levelo://app?vid=e8eda1d3-f017-4539-a4c1-02e93e29d334","ios":"levelo://app?vid=e8eda1d3-f017-4539-a4c1-02e93e29d334"},"vehicle_type_id":"4","last_reported":1776813996,"current_range_meters":4400,"station_id":"ce4bgt92rcd13ifvqcf0","pricing_plan_id":"cebpf4jnsgd1na2vs0mg"},{"bike_id":"b1825e17-c86a-4867-83b0-b5fcfd88ca26","system_id":"levelo_inurba_marseille","lat":43.2923,"lon":5.38769,"is_reserved":false,"is_disabled":false,"rental_uris":{"android":"levelo://app?vid=b1825e17-c86a-4867-83b0-b5fcfd88ca26","ios":"levelo://app?vid=b1825e17-c86a-4867-83b0-b5fcfd88ca26"},"vehicle_type_id":"4","last_reported":1776813996,"current_range_meters":4400,"station_id":"","pricing_plan_id":"cebpf4jnsgd1na2vs0mg"},{"bike_id":"ae3cdbc1-046c-42e5-b909-29c9e0bcb254","system_id":"levelo_inurba_marseille","lat":43.33185,"lon":5.37695,"is_reserved":false,"is_disabled":false,"rental_uris":{"android":"levelo://app?vid=ae3cdbc1-046c-42e5-b909-29c9e0bcb254","ios":"levelo://app?vid=ae3cdbc1-046c-42e5-b909-29c9e0bcb254"},"vehicle_type_id":"4","last_reported":1776813996,"current_range_meters":4400,"station_id":"st_d46cu089ee8s73dldbu0","pricing_plan_id":"cebpf4jnsgd1na2vs0mg"},{"bike_id":"dbbb0ba6-af0f-46c7-a86f-0e7ce9281cf7","system_id":"levelo_inurba_marseille","lat":43.29603,"lon":5.38095,"is_reserved":false,"is_disabled":false,"rental_uris":{"android":"levelo://app?vid=dbbb0ba6-af0f-46c7-a86f-0e7ce9281cf7","ios":"levelo://app?vid=dbbb0ba6-af0f-46c7-a86f-0e7ce9281cf7"},"vehicle_type_id":"4","last_reported":1776813996,"current_range_meters":4400,"station_id":"ce4bgl12rcd13ifvqbo0","pricing_plan_id":"cebpf4jnsgd1na2vs0mg"},{"bike_id":"f0560ebd-54f4-470b-b211-8f235f923412","system_id":"levelo_inurba_marseille","lat":43.31332,"lon":5.37608,"is_reserved":false,"is_disabled":false,"rental_uris":{"android":"levelo://app?vid=f0560ebd-54f4-470b-b211-8f235f923412","ios":"levelo://app?vid=f0560ebd-54f4-470b-b211-8f235f923412"},"vehicle_type_id":"4","last_reported":1776813996,"current_range_meters":4400,"station_id":"","pricing_plan_id":"cebpf4jnsgd1na2vs0mg"},{"bike_id":"1325d540-99d8-4486-932d-37e447d355d8","system_id":"levelo_inurba_marseille","lat":43.29863,"lon":5.3973,"is_reserved":false,"is_disabled":false,"rental_uris":{"android":"levelo://app?vid=1325d540-99d8-4486-932d-37e447d355d8","ios":"levelo://app?vid=1325d540-99d8-4486-932d-37e447d355d8"},"vehicle_type_id":"4","last_reported":1776813996,"current_range_meters":4400,"station_id":"ce4bh0h2rcd13ifvqd50","pricing_plan_id":"cebpf4jnsgd1na2vs0mg"},{"bike_id":"55b9e363-aef1-4e55-a55c-7c19ee416703","system_id":"levelo_inurba_marseille","lat":43.3184,"lon":5.37255,"is_reserved":false,"is_disabled":false,"rental_uris":{"android":"levelo://app?vid=55b9e363-aef1-4e55-a55c-7c19ee416703","ios":"levelo://app?vid=55b9e363-aef1-4e55-a55c-7c19ee416703"},"vehicle_type_id":"4","last_reported":1776813996,"current_range_meters":4400,"station_id":"","pricing_plan_id":"cebpf4jnsgd1na2vs0mg"},{"bike_id":"377e474f-c237-483e-b0c8-ff00e3d0a440","system_id":"levelo_inurba_marseille","lat":43.2509,"lon":5.39509,"is_reserved":false,"is_disabled":false,"rental_uris":{"android":"levelo://app?vid=377e474f-c237-483e-b0c8-ff00e3d0a440","ios":"levelo://app?vid=377e474f-c237-483e-b0c8-ff00e3d0a440"},"vehicle_type_id":"4","last_reported":1776813996,"current_range_meters":4400,"station_id":"ce4bhm12rcd13ifvqgkg","pricing_plan_id":"cebpf4jnsgd1na2vs0mg"},{"bike_id":"b6ea9757-40df-4d92-a8a4-4308a8c78e73","system_id":"levelo_inurba_marseille","lat":43.31046,"lon":5.37187,"is_reserved":false,"is_disabled":false,"rental_uris":{"android":"levelo://app?vid=b6ea9757-40df-4d92-a8a4-4308a8c78e73","ios":"levelo://app?vid=b6ea9757-40df-4d92-a8a4-4308a8c78e73"},"vehicle_type_id":"4","last_reported":1776813996,"current_range_meters":4400,"station_id":"st_d4kl2rp97mjs73e7tdfg","pricing_plan_id":"cebpf4jnsgd1na2vs0mg"},{"bike_id":"6115ea93-f36b-4933-8d3b-76d3754fa534","system_id":"levelo_inurba_marseille","lat":43.2405,"lon":5.3775,"is_reserved":false,"is_disabled":false,"rental_uris":{"android":"levelo://app?vid=6115ea93-f36b-4933-8d3b-76d3754fa534","ios":"levelo://app?vid=6115ea93-f36b-4933-8d3b-76d3754fa534"},"vehicle_type_id":"4","last_reported":1776813996,"current_range_meters":4400,"station_id":"ce4bhnp2rcd13ifvqgvg","pricing_plan_id":"cebpf4jnsgd1na2vs0mg"},{"bike_id":"624daf69-f815-4f9b-8f7c-0a5468b5d0f6","system_id":"levelo_inurba_marseille","lat":43.26195,"lon":5.37046,"is_reserved":false,"is_disabled":false,"rental_uris":{"android":"levelo://app?vid=624daf69-f815-4f9b-8f7c-0a5468b5d0f6","ios":"levelo://app?vid=624daf69-f815-4f9b-8f7c-0a5468b5d0f6"},"vehicle_type_id":"4","last_reported":1776813996,"current_range_meters":4400,"station_id":"","pricing_plan_id":"cebpf4jnsgd1na2vs0mg"},{"bike_id":"9c0e0af9-1779-4487-ae26-d9494be59195","system_id":"levelo_inurba_marseille","lat":43.29237,"lon":5.39324,"is_reserved":false,"is_disabled":false,"rental_uris":{"android":"levelo://app?vid=9c0e0af9-1779-4487-ae26-d9494be59195","ios":"levelo://app?vid=9c0e0af9-1779-4487-ae26-d9494be59195"},"vehicle_type_id":"4","last_reported":1776813996,"current_range_meters":4400,"station_id":"ce4bh192rcd13ifvqdd0","pricing_plan_id":"cebpf4jnsgd1na2vs0mg"},{"bike_id":"eec1915e-afb0-4a5e-a107-fb49939b5a53","system_id":"levelo_inurba_marseille","lat":43.28707,"lon":5.39972,"is_reserved":false,"is_disabled":false,"rental_uris":{"android":"levelo://app?vid=eec1915e-afb0-4a5e-a107-fb49939b5a53","ios":"levelo://app?vid=eec1915e-afb0-4a5e-a107-fb49939b5a53"},"vehicle_type_id":"4","last_reported":1776813996,"current_range_meters":4400,"station_id":"ce4bho92rcd13ifvqh3g","pricing_plan_id":"cebpf4jnsgd1na2vs0mg"},{"bike_id":"94bcd8ff-4f41-4ea0-9b68-1003bcd9c86f","system_id":"levelo_inurba_marseille","lat":43.28459,"lon":5.35888,"is_reserved":false,"is_disabled":false,"rental_uris":{"android":"levelo://app?vid=94bcd8ff-4f41-4ea0-9b68-1003bcd9c86f","ios":"levelo://app?vid=94bcd8ff-4f41-4ea0-9b68-1003bcd9c86f"},"vehicle_type_id":"4","last_reported":1776813996,"current_range_meters":4800,"station_id":"ce4bhah2rcd13ifvqei0","pricing_plan_id":"cebpf4jnsgd1na2vs0mg"},{"bike_id":"8f50b2d6-251d-42ad-b342-f2749fed0e40","system_id":"levelo_inurba_marseille","lat":43.29291,"lon":5.40165,"is_reserved":false,"is_disabled":false,"rental_uris":{"android":"levelo://app?vid=8f50b2d6-251d-42ad-b342-f2749fed0e40","ios":"levelo://app?vid=8f50b2d6-251d-42ad-b342-f2749fed0e40"},"vehicle_type_id":"4","last_reported":1776813996,"current_range_meters":4800,"station_id":"ce4bh312rcd13ifvqdk0","pricing_plan_id":"cebpf4jnsgd1na2vs0mg"},{"bike_id":"38b58c0a-3886-4b2b-b837-f07808f89275","system_id":"levelo_inurba_marseille","lat":43.3065,"lon":5.40068,"is_reserved":false,"is_disabled":false,"rental_uris":{"android":"levelo://app?vid=38b58c0a-3886-4b2b-b837-f07808f89275","ios":"levelo://app?vid=38b58c0a-3886-4b2b-b837-f07808f89275"},"vehicle_type_id":"4","last_reported":1776813996,"current_range_meters":4800,"station_id":"ce4bh112rcd13ifvqda0","pricing_plan_id":"cebpf4jnsgd1na2vs0mg"},{"bike_id":"4ce41ab3-19d6-4e46-bfe8-cee9970f8b6a","system_id":"levelo_inurba_marseille","lat":43.30156,"lon":5.38078,"is_reserved":false,"is_disabled":false,"rental_uris":{"android":"levelo://app?vid=4ce41ab3-19d6-4e46-bfe8-cee9970f8b6a","ios":"levelo://app?vid=4ce41ab3-19d6-4e46-bfe8-cee9970f8b6a"},"vehicle_type_id":"4","last_reported":1776813996,"current_range_meters":4800,"station_id":"ce4bgjp2rcd13ifvqbh0","pricing_plan_id":"cebpf4jnsgd1na2vs0mg"},{"bike_id":"03c1e16b-acd1-4c4f-9624-4c7e99a2af0b","system_id":"levelo_inurba_marseille","lat":43.26056,"lon":5.39402,"is_reserved":false,"is_disabled":false,"rental_uris":{"android":"levelo://app?vid=03c1e16b-acd1-4c4f-9624-4c7e99a2af0b","ios":"levelo://app?vid=03c1e16b-acd1-4c4f-9624-4c7e99a2af0b"},"vehicle_type_id":"4","last_reported":1776813996,"current_range_meters":4800,"station_id":"ce4bhh92rcd13ifvqfj0","pricing_plan_id":"cebpf4jnsgd1na2vs0mg"},{"bike_id":"72cbc3d1-cb88-4c89-b50f-4d95e37ef423","system_id":"levelo_inurba_marseille","lat":43.284613,"lon":5.358814,"is_reserved":false,"is_disabled":false,"rental_uris":{"android":"levelo://app?vid=72cbc3d1-cb88-4c89-b50f-4d95e37ef423","ios":"levelo://app?vid=72cbc3d1-cb88-4c89-b50f-4d95e37ef423"},"vehicle_type_id":"4","last_reported":1776813996,"current_range_meters":4800,"station_id":"ce4bhah2rcd13ifvqei0","pricing_plan_id":"cebpf4jnsgd1na2vs0mg"},{"bike_id":"b37140c8-384f-44e2-8694-39dc2a8e307f","system_id":"levelo_inurba_marseille","lat":43.28435,"lon":5.39186,"is_reserved":false,"is_disabled":false,"rental_uris":{"android":"levelo://app?vid=b37140c8-384f-44e2-8694-39dc2a8e307f","ios":"levelo://app?vid=b37140c8-384f-44e2-8694-39dc2a8e307f"},"vehicle_type_id":"4","last_reported":1776813996,"current_range_meters":4800,"station_id":"ce4bhoh2rcd13ifvqh5g","pricing_plan_id":"cebpf4jnsgd1na2vs0mg"},{"bike_id":"c4e93ff0-02a4-4886-9bdc-0144cc9e6e06","system_id":"levelo_inurba_marseille","lat":43.30318,"lon":5.40418,"is_reserved":false,"is_disabled":false,"rental_uris":{"android":"levelo://app?vid=c4e93ff0-02a4-4886-9bdc-0144cc9e6e06","ios":"levelo://app?vid=c4e93ff0-02a4-4886-9bdc-0144cc9e6e06"},"vehicle_type_id":"4","last_reported":1776813996,"current_range_meters":4800,"station_id":"ce4bh012rcd13ifvqd10","pricing_plan_id":"cebpf4jnsgd1na2vs0mg"},{"bike_id":"00db9f9d-ec59-40e4-b9b3-0656fbc37813","system_id":"levelo_inurba_marseille","lat":43.231785,"lon":5.399832,"is_reserved":false,"is_disabled":false,"rental_uris":{"android":"levelo://app?vid=00db9f9d-ec59-40e4-b9b3-0656fbc37813","ios":"levelo://app?vid=00db9f9d-ec59-40e4-b9b3-0656fbc37813"},"vehicle_type_id":"4","last_reported":1776813996,"current_range_meters":4800,"station_id":"ce4bhn12rcd13ifvqgqg","pricing_plan_id":"cebpf4jnsgd1na2vs0mg"},{"bike_id":"ab1f99ae-4f83-4e47-8e84-c2cf195f4bb7","system_id":"levelo_inurba_marseille","lat":43.31181,"lon":5.38703,"is_reserved":false,"is_disabled":false,"rental_uris":{"android":"levelo://app?vid=ab1f99ae-4f83-4e47-8e84-c2cf195f4bb7","ios":"levelo://app?vid=ab1f99ae-4f83-4e47-8e84-c2cf195f4bb7"},"vehicle_type_id":"4","last_reported":1776813996,"current_range_meters":4800,"station_id":"ce4bgv12rcd13ifvqcp0","pricing_plan_id":"cebpf4jnsgd1na2vs0mg"},{"bike_id":"b3f369fb-312d-402c-bd33-b2318bd78450","system_id":"levelo_inurba_marseille","lat":43.26686,"lon":5.38282,"is_reserved":false,"is_disabled":false,"rental_uris":{"android":"levelo://app?vid=b3f369fb-312d-402c-bd33-b2318bd78450","ios":"levelo://app?vid=b3f369fb-312d-402c-bd33-b2318bd78450"},"vehicle_type_id":"4","last_reported":1776813996,"current_range_meters":4800,"station_id":"ce4bhg92rcd13ifvqf90","pricing_plan_id":"cebpf4jnsgd1na2vs0mg"},{"bike_id":"85d008d7-db23-4109-8c7e-d94d301d8f6b","system_id":"levelo_inurba_marseille","lat":43.26297,"lon":5.37362,"is_reserved":false,"is_disabled":false,"rental_uris":{"android":"levelo://app?vid=85d008d7-db23-4109-8c7e-d94d301d8f6b","ios":"levelo://app?vid=85d008d7-db23-4109-8c7e-d94d301d8f6b"},"vehicle_type_id":"4","last_reported":1776813996,"current_range_meters":4800,"station_id":"","pricing_plan_id":"cebpf4jnsgd1na2vs0mg"},{"bike_id":"09ea11d0-26bd-41be-9a4c-41f495e0bb06","system_id":"levelo_inurba_marseille","lat":43.30952,"lon":5.40155,"is_reserved":false,"is_disabled":false,"rental_uris":{"android":"levelo://app?vid=09ea11d0-26bd-41be-9a4c-41f495e0bb06","ios":"levelo://app?vid=09ea11d0-26bd-41be-9a4c-41f495e0bb06"},"vehicle_type_id":"4","last_reported":1776813996,"current_range_meters":4800,"station_id":"ce4bgvp2rcd13ifvqct0","pricing_plan_id":"cebpf4jnsgd1na2vs0mg"},{"bike_id":"2bf658ef-a912-4563-9f63-3110eb25e849","system_id":"levelo_inurba_marseille","lat":43.29727,"lon":5.35991,"is_reserved":false,"is_disabled":false,"rental_uris":{"android":"levelo://app?vid=2bf658ef-a912-4563-9f63-3110eb25e849","ios":"levelo://app?vid=2bf658ef-a912-4563-9f63-3110eb25e849"},"vehicle_type_id":"4","last_reported":1776813996,"current_range_meters":5600,"station_id":"","pricing_plan_id":"cebpf4jnsgd1na2vs0mg"},{"bike_id":"93ebf785-3499-42cb-9d8c-bfedd972e688","system_id":"levelo_inurba_marseille","lat":43.2958,"lon":5.39982,"is_reserved":false,"is_disabled":false,"rental_uris":{"android":"levelo://app?vid=93ebf785-3499-42cb-9d8c-bfedd972e688","ios":"levelo://app?vid=93ebf785-3499-42cb-9d8c-bfedd972e688"},"vehicle_type_id":"4","last_reported":1776813996,"current_range_meters":5600,"station_id":"ce4bh312rcd13ifvqdj0","pricing_plan_id":"cebpf4jnsgd1na2vs0mg"},{"bike_id":"bb1c4c2b-c3ea-448f-8049-8fa792f834ce","system_id":"levelo_inurba_marseille","lat":43.2495,"lon":5.40481,"is_reserved":false,"is_disabled":false,"rental_uris":{"android":"levelo://app?vid=bb1c4c2b-c3ea-448f-8049-8fa792f834ce","ios":"levelo://app?vid=bb1c4c2b-c3ea-448f-8049-8fa792f834ce"},"vehicle_type_id":"4","last_reported":1776813996,"current_range_meters":5600,"station_id":"st_d2ngiaodas8pm72gd1h0","pricing_plan_id":"cebpf4jnsgd1na2vs0mg"},{"bike_id":"f3864002-491b-4a0c-94b9-ab7ce7d992a5","system_id":"levelo_inurba_marseille","lat":43.30892,"lon":5.36752,"is_reserved":false,"is_disabled":false,"rental_uris":{"android":"levelo://app?vid=f3864002-491b-4a0c-94b9-ab7ce7d992a5","ios":"levelo://app?vid=f3864002-491b-4a0c-94b9-ab7ce7d992a5"},"vehicle_type_id":"4","last_reported":1776813996,"current_range_meters":5600,"station_id":"","pricing_plan_id":"cebpf4jnsgd1na2vs0mg"},{"bike_id":"2923d899-e487-4cd1-8eb4-a2f0428efa22","system_id":"levelo_inurba_marseille","lat":43.33147,"lon":5.37704,"is_reserved":false,"is_disabled":false,"rental_uris":{"android":"levelo://app?vid=2923d899-e487-4cd1-8eb4-a2f0428efa22","ios":"levelo://app?vid=2923d899-e487-4cd1-8eb4-a2f0428efa22"},"vehicle_type_id":"4","last_reported":1776813996,"current_range_meters":5600,"station_id":"st_d46cu089ee8s73dldbu0","pricing_plan_id":"cebpf4jnsgd1na2vs0mg"},{"bike_id":"c224c9cf-d497-4bf6-82cd-eee25423f927","system_id":"levelo_inurba_marseille","lat":43.29669,"lon":5.37266,"is_reserved":false,"is_disabled":true,"rental_uris":{"android":"levelo://app?vid=c224c9cf-d497-4bf6-82cd-eee25423f927","ios":"levelo://app?vid=c224c9cf-d497-4bf6-82cd-eee25423f927"},"vehicle_type_id":"4","last_reported":1776813996,"current_range_meters":5600,"station_id":"ce4bgk12rcd13ifvqbj0","pricing_plan_id":"cebpf4jnsgd1na2vs0mg"},{"bike_id":"4065c284-7b54-43b3-b479-8dd87706670a","system_id":"levelo_inurba_marseille","lat":43.31899,"lon":5.36799,"is_reserved":false,"is_disabled":false,"rental_uris":{"android":"levelo://app?vid=4065c284-7b54-43b3-b479-8dd87706670a","ios":"levelo://app?vid=4065c284-7b54-43b3-b479-8dd87706670a"},"vehicle_type_id":"4","last_reported":1776813996,"current_range_meters":6000,"station_id":"st_d6o2h0d0559c73evc1b0","pricing_plan_id":"cebpf4jnsgd1na2vs0mg"},{"bike_id":"38a0c1fe-c793-4677-abc9-44884653b8c5","system_id":"levelo_inurba_marseille","lat":43.29593,"lon":5.37776,"is_reserved":false,"is_disabled":false,"rental_uris":{"android":"levelo://app?vid=38a0c1fe-c793-4677-abc9-44884653b8c5","ios":"levelo://app?vid=38a0c1fe-c793-4677-abc9-44884653b8c5"},"vehicle_type_id":"4","last_reported":1776813996,"current_range_meters":6000,"station_id":"","pricing_plan_id":"cebpf4jnsgd1na2vs0mg"},{"bike_id":"83828cda-8c2b-4e2b-8717-590be713d75e","system_id":"levelo_inurba_marseille","lat":43.30235,"lon":5.39971,"is_reserved":false,"is_disabled":false,"rental_uris":{"android":"levelo://app?vid=83828cda-8c2b-4e2b-8717-590be713d75e","ios":"levelo://app?vid=83828cda-8c2b-4e2b-8717-590be713d75e"},"vehicle_type_id":"4","last_reported":1776813996,"current_range_meters":6000,"station_id":"ce4bgvh2rcd13ifvqcs0","pricing_plan_id":"cebpf4jnsgd1na2vs0mg"},{"bike_id":"1bcf353f-b495-4deb-9190-fb2399df9c0c","system_id":"levelo_inurba_marseille","lat":43.28457,"lon":5.35885,"is_reserved":false,"is_disabled":false,"rental_uris":{"android":"levelo://app?vid=1bcf353f-b495-4deb-9190-fb2399df9c0c","ios":"levelo://app?vid=1bcf353f-b495-4deb-9190-fb2399df9c0c"},"vehicle_type_id":"4","last_reported":1776813996,"current_range_meters":6000,"station_id":"ce4bhah2rcd13ifvqei0","pricing_plan_id":"cebpf4jnsgd1na2vs0mg"},{"bike_id":"39e8586f-e71e-475c-ab43-1aae034f493d","system_id":"levelo_inurba_marseille","lat":43.2923,"lon":5.39284,"is_reserved":false,"is_disabled":false,"rental_uris":{"android":"levelo://app?vid=39e8586f-e71e-475c-ab43-1aae034f493d","ios":"levelo://app?vid=39e8586f-e71e-475c-ab43-1aae034f493d"},"vehicle_type_id":"4","last_reported":1776813996,"current_range_meters":6000,"station_id":"ce4bh192rcd13ifvqdd0","pricing_plan_id":"cebpf4jnsgd1na2vs0mg"},{"bike_id":"7278eae4-9ede-4ee2-afa4-5aef54634e43","system_id":"levelo_inurba_marseille","lat":43.31436,"lon":5.38532,"is_reserved":false,"is_disabled":false,"rental_uris":{"android":"levelo://app?vid=7278eae4-9ede-4ee2-afa4-5aef54634e43","ios":"levelo://app?vid=7278eae4-9ede-4ee2-afa4-5aef54634e43"},"vehicle_type_id":"4","last_reported":1776813996,"current_range_meters":6000,"station_id":"","pricing_plan_id":"cebpf4jnsgd1na2vs0mg"},{"bike_id":"e9c1c731-1912-4153-abf3-120b800b8c67","system_id":"levelo_inurba_marseille","lat":43.27229,"lon":5.39171,"is_reserved":false,"is_disabled":true,"rental_uris":{"android":"levelo://app?vid=e9c1c731-1912-4153-abf3-120b800b8c67","ios":"levelo://app?vid=e9c1c731-1912-4153-abf3-120b800b8c67"},"vehicle_type_id":"4","last_reported":1776813996,"current_range_meters":6000,"station_id":"ce4bhhp2rcd13ifvqfm0","pricing_plan_id":"cebpf4jnsgd1na2vs0mg"},{"bike_id":"fec54d59-47d4-4ddb-8655-648e0f95cb70","system_id":"levelo_inurba_marseille","lat":43.23187,"lon":5.35565,"is_reserved":false,"is_disabled":false,"rental_uris":{"android":"levelo://app?vid=fec54d59-47d4-4ddb-8655-648e0f95cb70","ios":"levelo://app?vid=fec54d59-47d4-4ddb-8655-648e0f95cb70"},"vehicle_type_id":"4","last_reported":1776813996,"current_range_meters":6000,"station_id":"ce4bhu92rcd13ifvqi70","pricing_plan_id":"cebpf4jnsgd1na2vs0mg"},{"bike_id":"14290775-1809-431a-89de-994574cdc895","system_id":"levelo_inurba_marseille","lat":43.27574,"lon":5.38651,"is_reserved":false,"is_disabled":false,"rental_uris":{"android":"levelo://app?vid=14290775-1809-431a-89de-994574cdc895","ios":"levelo://app?vid=14290775-1809-431a-89de-994574cdc895"},"vehicle_type_id":"4","last_reported":1776813996,"current_range_meters":6000,"station_id":"","pricing_plan_id":"cebpf4jnsgd1na2vs0mg"},{"bike_id":"2224c961-bce6-4c33-966e-f3361d1b2ab2","system_id":"levelo_inurba_marseille","lat":43.27484,"lon":5.41573,"is_reserved":false,"is_disabled":false,"rental_uris":{"android":"levelo://app?vid=2224c961-bce6-4c33-966e-f3361d1b2ab2","ios":"levelo://app?vid=2224c961-bce6-4c33-966e-f3361d1b2ab2"},"vehicle_type_id":"4","last_reported":1776813996,"current_range_meters":6000,"station_id":"st_d6im8g6chgec73a5pndg","pricing_plan_id":"cebpf4jnsgd1na2vs0mg"},{"bike_id":"f9e36f38-ef4d-44c9-9f31-a0f8b13d14ba","system_id":"levelo_inurba_marseille","lat":43.33169,"lon":5.37654,"is_reserved":false,"is_disabled":false,"rental_uris":{"android":"levelo://app?vid=f9e36f38-ef4d-44c9-9f31-a0f8b13d14ba","ios":"levelo://app?vid=f9e36f38-ef4d-44c9-9f31-a0f8b13d14ba"},"vehicle_type_id":"4","last_reported":1776813996,"current_range_meters":6000,"station_id":"st_d46cu089ee8s73dldbu0","pricing_plan_id":"cebpf4jnsgd1na2vs0mg"},{"bike_id":"fa67c282-4320-4694-9944-d25f35222a9c","system_id":"levelo_inurba_marseille","lat":43.3088,"lon":5.37194,"is_reserved":false,"is_disabled":false,"rental_uris":{"android":"levelo://app?vid=fa67c282-4320-4694-9944-d25f35222a9c","ios":"levelo://app?vid=fa67c282-4320-4694-9944-d25f35222a9c"},"vehicle_type_id":"4","last_reported":1776813996,"current_range_meters":6400,"station_id":"ce4bguh2rcd13ifvqckg","pricing_plan_id":"cebpf4jnsgd1na2vs0mg"},{"bike_id":"1fd10be9-0a9a-46a4-9d74-69cc8527ad5b","system_id":"levelo_inurba_marseille","lat":43.2848,"lon":5.484,"is_reserved":false,"is_disabled":false,"rental_uris":{"android":"levelo://app?vid=1fd10be9-0a9a-46a4-9d74-69cc8527ad5b","ios":"levelo://app?vid=1fd10be9-0a9a-46a4-9d74-69cc8527ad5b"},"vehicle_type_id":"4","last_reported":1776813996,"current_range_meters":6400,"station_id":"","pricing_plan_id":"cebpf4jnsgd1na2vs0mg"},{"bike_id":"147ebe04-bf5f-4d97-a8ae-b04adf3d5699","system_id":"levelo_inurba_marseille","lat":43.29531,"lon":5.39022,"is_reserved":false,"is_disabled":false,"rental_uris":{"android":"levelo://app?vid=147ebe04-bf5f-4d97-a8ae-b04adf3d5699","ios":"levelo://app?vid=147ebe04-bf5f-4d97-a8ae-b04adf3d5699"},"vehicle_type_id":"4","last_reported":1776813996,"current_range_meters":6400,"station_id":"ce4bh3p2rcd13ifvqdp0","pricing_plan_id":"cebpf4jnsgd1na2vs0mg"},{"bike_id":"af8a1ef7-3bce-462c-8983-73c0060888a3","system_id":"levelo_inurba_marseille","lat":43.29052,"lon":5.38157,"is_reserved":false,"is_disabled":true,"rental_uris":{"android":"levelo://app?vid=af8a1ef7-3bce-462c-8983-73c0060888a3","ios":"levelo://app?vid=af8a1ef7-3bce-462c-8983-73c0060888a3"},"vehicle_type_id":"4","last_reported":1776813996,"current_range_meters":6400,"station_id":"","pricing_plan_id":"cebpf4jnsgd1na2vs0mg"},{"bike_id":"afe6c9ff-8c7f-40d2-96bc-86354113b443","system_id":"levelo_inurba_marseille","lat":43.28482,"lon":5.48392,"is_reserved":false,"is_disabled":false,"rental_uris":{"android":"levelo://app?vid=afe6c9ff-8c7f-40d2-96bc-86354113b443","ios":"levelo://app?vid=afe6c9ff-8c7f-40d2-96bc-86354113b443"},"vehicle_type_id":"4","last_reported":1776813996,"current_range_meters":6400,"station_id":"","pricing_plan_id":"cebpf4jnsgd1na2vs0mg"},{"bike_id":"edb5b9b4-45e1-4ea4-ad8f-fbd3920374e9","system_id":"levelo_inurba_marseille","lat":43.31173,"lon":5.38715,"is_reserved":false,"is_disabled":false,"rental_uris":{"android":"levelo://app?vid=edb5b9b4-45e1-4ea4-ad8f-fbd3920374e9","ios":"levelo://app?vid=edb5b9b4-45e1-4ea4-ad8f-fbd3920374e9"},"vehicle_type_id":"4","last_reported":1776813996,"current_range_meters":6400,"station_id":"ce4bgv12rcd13ifvqcp0","pricing_plan_id":"cebpf4jnsgd1na2vs0mg"},{"bike_id":"6e6319f8-011e-46ab-93f1-a9f257e71b2a","system_id":"levelo_inurba_marseille","lat":43.29685,"lon":5.36608,"is_reserved":false,"is_disabled":false,"rental_uris":{"android":"levelo://app?vid=6e6319f8-011e-46ab-93f1-a9f257e71b2a","ios":"levelo://app?vid=6e6319f8-011e-46ab-93f1-a9f257e71b2a"},"vehicle_type_id":"4","last_reported":1776813996,"current_range_meters":6400,"station_id":"ce4bgn12rcd13ifvqbt0","pricing_plan_id":"cebpf4jnsgd1na2vs0mg"},{"bike_id":"7dd35ff4-45e4-4dd9-8cfd-243db1db3d69","system_id":"levelo_inurba_marseille","lat":43.30131,"lon":5.43103,"is_reserved":false,"is_disabled":false,"rental_uris":{"android":"levelo://app?vid=7dd35ff4-45e4-4dd9-8cfd-243db1db3d69","ios":"levelo://app?vid=7dd35ff4-45e4-4dd9-8cfd-243db1db3d69"},"vehicle_type_id":"4","last_reported":1776813996,"current_range_meters":6400,"station_id":"","pricing_plan_id":"cebpf4jnsgd1na2vs0mg"},{"bike_id":"2d40a836-133e-4df4-8e94-64278280c4e2","system_id":"levelo_inurba_marseille","lat":43.28497,"lon":5.484,"is_reserved":false,"is_disabled":false,"rental_uris":{"android":"levelo://app?vid=2d40a836-133e-4df4-8e94-64278280c4e2","ios":"levelo://app?vid=2d40a836-133e-4df4-8e94-64278280c4e2"},"vehicle_type_id":"4","last_reported":1776813996,"current_range_meters":6400,"station_id":"","pricing_plan_id":"cebpf4jnsgd1na2vs0mg"},{"bike_id":"17a218ae-0cbc-4023-80f0-9ffddf1324e3","system_id":"levelo_inurba_marseille","lat":43.260356,"lon":5.397998,"is_reserved":false,"is_disabled":false,"rental_uris":{"android":"levelo://app?vid=17a218ae-0cbc-4023-80f0-9ffddf1324e3","ios":"levelo://app?vid=17a218ae-0cbc-4023-80f0-9ffddf1324e3"},"vehicle_type_id":"4","last_reported":1776813996,"current_range_meters":6800,"station_id":"","pricing_plan_id":"cebpf4jnsgd1na2vs0mg"},{"bike_id":"415e0658-223c-4fe0-abd1-f3287f2893c2","system_id":"levelo_inurba_marseille","lat":43.31913,"lon":5.36812,"is_reserved":false,"is_disabled":false,"rental_uris":{"android":"levelo://app?vid=415e0658-223c-4fe0-abd1-f3287f2893c2","ios":"levelo://app?vid=415e0658-223c-4fe0-abd1-f3287f2893c2"},"vehicle_type_id":"4","last_reported":1776813996,"current_range_meters":6800,"station_id":"st_d6o2h0d0559c73evc1b0","pricing_plan_id":"cebpf4jnsgd1na2vs0mg"},{"bike_id":"d420143e-37e9-4bbd-a3bb-322c4c4ad02e","system_id":"levelo_inurba_marseille","lat":43.2795,"lon":5.38705,"is_reserved":false,"is_disabled":false,"rental_uris":{"android":"levelo://app?vid=d420143e-37e9-4bbd-a3bb-322c4c4ad02e","ios":"levelo://app?vid=d420143e-37e9-4bbd-a3bb-322c4c4ad02e"},"vehicle_type_id":"4","last_reported":1776813996,"current_range_meters":6800,"station_id":"ce4bhg12rcd13ifvqf80","pricing_plan_id":"cebpf4jnsgd1na2vs0mg"},{"bike_id":"6d182afe-7360-4b76-8199-0f9294137e84","system_id":"levelo_inurba_marseille","lat":43.26026,"lon":5.37552,"is_reserved":false,"is_disabled":false,"rental_uris":{"android":"levelo://app?vid=6d182afe-7360-4b76-8199-0f9294137e84","ios":"levelo://app?vid=6d182afe-7360-4b76-8199-0f9294137e84"},"vehicle_type_id":"4","last_reported":1776813996,"current_range_meters":6800,"station_id":"ce4bhgh2rcd13ifvqfa0","pricing_plan_id":"cebpf4jnsgd1na2vs0mg"},{"bike_id":"357c8a3f-22a7-437b-9400-0efde2fb9a38","system_id":"levelo_inurba_marseille","lat":43.27071,"lon":5.42279,"is_reserved":false,"is_disabled":false,"rental_uris":{"android":"levelo://app?vid=357c8a3f-22a7-437b-9400-0efde2fb9a38","ios":"levelo://app?vid=357c8a3f-22a7-437b-9400-0efde2fb9a38"},"vehicle_type_id":"4","last_reported":1776813996,"current_range_meters":6800,"station_id":"ce4bhk92rcd13ifvqgb0","pricing_plan_id":"cebpf4jnsgd1na2vs0mg"},{"bike_id":"04d9f990-ead5-466c-adb0-472dbaea3d8d","system_id":"levelo_inurba_marseille","lat":43.2681,"lon":5.40257,"is_reserved":false,"is_disabled":false,"rental_uris":{"android":"levelo://app?vid=04d9f990-ead5-466c-adb0-472dbaea3d8d","ios":"levelo://app?vid=04d9f990-ead5-466c-adb0-472dbaea3d8d"},"vehicle_type_id":"4","last_reported":1776813996,"current_range_meters":6800,"station_id":"ce501612rcd8frsf0b60","pricing_plan_id":"cebpf4jnsgd1na2vs0mg"},{"bike_id":"753f20a4-e5da-4367-ad36-baf96fa2dcf5","system_id":"levelo_inurba_marseille","lat":43.29299,"lon":5.40139,"is_reserved":false,"is_disabled":false,"rental_uris":{"android":"levelo://app?vid=753f20a4-e5da-4367-ad36-baf96fa2dcf5","ios":"levelo://app?vid=753f20a4-e5da-4367-ad36-baf96fa2dcf5"},"vehicle_type_id":"4","last_reported":1776813996,"current_range_meters":6800,"station_id":"ce4bh312rcd13ifvqdk0","pricing_plan_id":"cebpf4jnsgd1na2vs0mg"},{"bike_id":"890dfd9a-7f58-4745-bac3-1643366dfead","system_id":"levelo_inurba_marseille","lat":43.33776,"lon":5.37484,"is_reserved":false,"is_disabled":false,"rental_uris":{"android":"levelo://app?vid=890dfd9a-7f58-4745-bac3-1643366dfead","ios":"levelo://app?vid=890dfd9a-7f58-4745-bac3-1643366dfead"},"vehicle_type_id":"4","last_reported":1776813996,"current_range_meters":6800,"station_id":"","pricing_plan_id":"cebpf4jnsgd1na2vs0mg"},{"bike_id":"0357d1c6-d080-4ed7-b154-319624c20433","system_id":"levelo_inurba_marseille","lat":43.23372,"lon":5.41232,"is_reserved":false,"is_disabled":false,"rental_uris":{"android":"levelo://app?vid=0357d1c6-d080-4ed7-b154-319624c20433","ios":"levelo://app?vid=0357d1c6-d080-4ed7-b154-319624c20433"},"vehicle_type_id":"4","last_reported":1776813996,"current_range_meters":6800,"station_id":"st_d75pvndhf9lc73cqq3eg","pricing_plan_id":"cebpf4jnsgd1na2vs0mg"},{"bike_id":"ec69f4d9-c069-420b-997b-fdd74d56d6db","system_id":"levelo_inurba_marseille","lat":43.24663,"lon":5.38162,"is_reserved":false,"is_disabled":false,"rental_uris":{"android":"levelo://app?vid=ec69f4d9-c069-420b-997b-fdd74d56d6db","ios":"levelo://app?vid=ec69f4d9-c069-420b-997b-fdd74d56d6db"},"vehicle_type_id":"4","last_reported":1776813996,"current_range_meters":6800,"station_id":"ce4bhih2rcd13ifvqfr0","pricing_plan_id":"cebpf4jnsgd1na2vs0mg"},{"bike_id":"ef91534f-0d0e-4809-9a35-4375555ab2b5","system_id":"levelo_inurba_marseille","lat":43.31893,"lon":5.36782,"is_reserved":false,"is_disabled":false,"rental_uris":{"android":"levelo://app?vid=ef91534f-0d0e-4809-9a35-4375555ab2b5","ios":"levelo://app?vid=ef91534f-0d0e-4809-9a35-4375555ab2b5"},"vehicle_type_id":"4","last_reported":1776813996,"current_range_meters":6800,"station_id":"st_d6o2h0d0559c73evc1b0","pricing_plan_id":"cebpf4jnsgd1na2vs0mg"},{"bike_id":"4dd90c3a-c53a-454b-ad3a-8e2561f63203","system_id":"levelo_inurba_marseille","lat":43.312301,"lon":5.36869,"is_reserved":false,"is_disabled":false,"rental_uris":{"android":"levelo://app?vid=4dd90c3a-c53a-454b-ad3a-8e2561f63203","ios":"levelo://app?vid=4dd90c3a-c53a-454b-ad3a-8e2561f63203"},"vehicle_type_id":"4","last_reported":1776813996,"current_range_meters":6800,"station_id":"","pricing_plan_id":"cebpf4jnsgd1na2vs0mg"},{"bike_id":"6941bf81-2b71-45da-86f8-ae002d5a69db","system_id":"levelo_inurba_marseille","lat":43.28037,"lon":5.36943,"is_reserved":false,"is_disabled":false,"rental_uris":{"android":"levelo://app?vid=6941bf81-2b71-45da-86f8-ae002d5a69db","ios":"levelo://app?vid=6941bf81-2b71-45da-86f8-ae002d5a69db"},"vehicle_type_id":"4","last_reported":1776813996,"current_range_meters":6800,"station_id":"ce4bha12rcd13ifvqef0","pricing_plan_id":"cebpf4jnsgd1na2vs0mg"},{"bike_id":"2bbcf379-6956-41a6-9579-19e440bc952d","system_id":"levelo_inurba_marseille","lat":43.28581,"lon":5.39462,"is_reserved":false,"is_disabled":false,"rental_uris":{"android":"levelo://app?vid=2bbcf379-6956-41a6-9579-19e440bc952d","ios":"levelo://app?vid=2bbcf379-6956-41a6-9579-19e440bc952d"},"vehicle_type_id":"4","last_reported":1776813996,"current_range_meters":6800,"station_id":"ce4bh292rcd13ifvqdg0","pricing_plan_id":"cebpf4jnsgd1na2vs0mg"},{"bike_id":"2372ff5c-b340-4c5f-8531-5cd2273c37fc","system_id":"levelo_inurba_marseille","lat":43.29877,"lon":5.38903,"is_reserved":false,"is_disabled":false,"rental_uris":{"android":"levelo://app?vid=2372ff5c-b340-4c5f-8531-5cd2273c37fc","ios":"levelo://app?vid=2372ff5c-b340-4c5f-8531-5cd2273c37fc"},"vehicle_type_id":"4","last_reported":1776813996,"current_range_meters":6800,"station_id":"ce4bh392rcd13ifvqdl0","pricing_plan_id":"cebpf4jnsgd1na2vs0mg"},{"bike_id":"3270381e-44e7-4481-9720-b4e778c7865c","system_id":"levelo_inurba_marseille","lat":43.30124,"lon":5.39863,"is_reserved":false,"is_disabled":false,"rental_uris":{"android":"levelo://app?vid=3270381e-44e7-4481-9720-b4e778c7865c","ios":"levelo://app?vid=3270381e-44e7-4481-9720-b4e778c7865c"},"vehicle_type_id":"4","last_reported":1776813996,"current_range_meters":7200,"station_id":"ce4bh0h2rcd13ifvqd40","pricing_plan_id":"cebpf4jnsgd1na2vs0mg"},{"bike_id":"909929ad-6150-4e90-9010-fc5021f6e58c","system_id":"levelo_inurba_marseille","lat":43.27219,"lon":5.40101,"is_reserved":false,"is_disabled":false,"rental_uris":{"android":"levelo://app?vid=909929ad-6150-4e90-9010-fc5021f6e58c","ios":"levelo://app?vid=909929ad-6150-4e90-9010-fc5021f6e58c"},"vehicle_type_id":"4","last_reported":1776813996,"current_range_meters":7200,"station_id":"","pricing_plan_id":"cebpf4jnsgd1na2vs0mg"},{"bike_id":"53398df8-835b-4ed2-bf08-039bd71fda25","system_id":"levelo_inurba_marseille","lat":43.25928,"lon":5.38592,"is_reserved":false,"is_disabled":false,"rental_uris":{"android":"levelo://app?vid=53398df8-835b-4ed2-bf08-039bd71fda25","ios":"levelo://app?vid=53398df8-835b-4ed2-bf08-039bd71fda25"},"vehicle_type_id":"4","last_reported":1776813996,"current_range_meters":7200,"station_id":"","pricing_plan_id":"cebpf4jnsgd1na2vs0mg"},{"bike_id":"37eae820-b39c-4a10-b9f1-bbf6af567e33","system_id":"levelo_inurba_marseille","lat":43.29605,"lon":5.37722,"is_reserved":false,"is_disabled":false,"rental_uris":{"android":"levelo://app?vid=37eae820-b39c-4a10-b9f1-bbf6af567e33","ios":"levelo://app?vid=37eae820-b39c-4a10-b9f1-bbf6af567e33"},"vehicle_type_id":"4","last_reported":1776813996,"current_range_meters":7200,"station_id":"ce4bgi92rcd13ifvqb90","pricing_plan_id":"cebpf4jnsgd1na2vs0mg"},{"bike_id":"80b30977-7cd8-481b-87a7-1d409052bbd7","system_id":"levelo_inurba_marseille","lat":43.30137,"lon":5.38777,"is_reserved":false,"is_disabled":false,"rental_uris":{"android":"levelo://app?vid=80b30977-7cd8-481b-87a7-1d409052bbd7","ios":"levelo://app?vid=80b30977-7cd8-481b-87a7-1d409052bbd7"},"vehicle_type_id":"4","last_reported":1776813996,"current_range_meters":7200,"station_id":"ce4bghh2rcd13ifvqb60","pricing_plan_id":"cebpf4jnsgd1na2vs0mg"},{"bike_id":"ae1a0ce0-3e2e-4cf2-b858-405a12aeabc1","system_id":"levelo_inurba_marseille","lat":43.27077,"lon":5.42277,"is_reserved":false,"is_disabled":false,"rental_uris":{"android":"levelo://app?vid=ae1a0ce0-3e2e-4cf2-b858-405a12aeabc1","ios":"levelo://app?vid=ae1a0ce0-3e2e-4cf2-b858-405a12aeabc1"},"vehicle_type_id":"4","last_reported":1776813996,"current_range_meters":7200,"station_id":"ce4bhk92rcd13ifvqgb0","pricing_plan_id":"cebpf4jnsgd1na2vs0mg"},{"bike_id":"fc65a632-bd3b-4cc7-8723-5cc6caf0ef89","system_id":"levelo_inurba_marseille","lat":43.29517,"lon":5.39397,"is_reserved":false,"is_disabled":false,"rental_uris":{"android":"levelo://app?vid=fc65a632-bd3b-4cc7-8723-5cc6caf0ef89","ios":"levelo://app?vid=fc65a632-bd3b-4cc7-8723-5cc6caf0ef89"},"vehicle_type_id":"4","last_reported":1776813996,"current_range_meters":7200,"station_id":"ce4bh292rcd13ifvqdf0","pricing_plan_id":"cebpf4jnsgd1na2vs0mg"},{"bike_id":"842d0df7-332d-4e0d-af29-a1003ef4505c","system_id":"levelo_inurba_marseille","lat":43.29247,"lon":5.40898,"is_reserved":false,"is_disabled":false,"rental_uris":{"android":"levelo://app?vid=842d0df7-332d-4e0d-af29-a1003ef4505c","ios":"levelo://app?vid=842d0df7-332d-4e0d-af29-a1003ef4505c"},"vehicle_type_id":"4","last_reported":1776813996,"current_range_meters":7200,"station_id":"ce4bh192rcd13ifvqdc0","pricing_plan_id":"cebpf4jnsgd1na2vs0mg"},{"bike_id":"c63c9c1d-45c3-4d97-81d2-c75f689c2a9d","system_id":"levelo_inurba_marseille","lat":43.28372,"lon":5.39284,"is_reserved":false,"is_disabled":false,"rental_uris":{"android":"levelo://app?vid=c63c9c1d-45c3-4d97-81d2-c75f689c2a9d","ios":"levelo://app?vid=c63c9c1d-45c3-4d97-81d2-c75f689c2a9d"},"vehicle_type_id":"4","last_reported":1776813996,"current_range_meters":7200,"station_id":"","pricing_plan_id":"cebpf4jnsgd1na2vs0mg"},{"bike_id":"e4ebda45-0b0a-4920-bff4-28d25977a7f8","system_id":"levelo_inurba_marseille","lat":43.29018,"lon":5.38107,"is_reserved":false,"is_disabled":false,"rental_uris":{"android":"levelo://app?vid=e4ebda45-0b0a-4920-bff4-28d25977a7f8","ios":"levelo://app?vid=e4ebda45-0b0a-4920-bff4-28d25977a7f8"},"vehicle_type_id":"4","last_reported":1776813996,"current_range_meters":7200,"station_id":"ce4bh4p2rcd13ifvqe1g","pricing_plan_id":"cebpf4jnsgd1na2vs0mg"},{"bike_id":"cd86d19f-356e-4a58-9894-0125ac786b5a","system_id":"levelo_inurba_marseille","lat":43.27843,"lon":5.39206,"is_reserved":false,"is_disabled":false,"rental_uris":{"android":"levelo://app?vid=cd86d19f-356e-4a58-9894-0125ac786b5a","ios":"levelo://app?vid=cd86d19f-356e-4a58-9894-0125ac786b5a"},"vehicle_type_id":"4","last_reported":1776813996,"current_range_meters":8000,"station_id":"ce4bhjp2rcd13ifvqga0","pricing_plan_id":"cebpf4jnsgd1na2vs0mg"},{"bike_id":"4437ceaf-8daf-49be-aedf-a33d965b7280","system_id":"levelo_inurba_marseille","lat":43.23381,"lon":5.41221,"is_reserved":false,"is_disabled":false,"rental_uris":{"android":"levelo://app?vid=4437ceaf-8daf-49be-aedf-a33d965b7280","ios":"levelo://app?vid=4437ceaf-8daf-49be-aedf-a33d965b7280"},"vehicle_type_id":"4","last_reported":1776813996,"current_range_meters":8000,"station_id":"st_d75pvndhf9lc73cqq3eg","pricing_plan_id":"cebpf4jnsgd1na2vs0mg"},{"bike_id":"ac881409-e7c1-4dc7-868f-5470aa726fd2","system_id":"levelo_inurba_marseille","lat":43.29815,"lon":5.44036,"is_reserved":false,"is_disabled":false,"rental_uris":{"android":"levelo://app?vid=ac881409-e7c1-4dc7-868f-5470aa726fd2","ios":"levelo://app?vid=ac881409-e7c1-4dc7-868f-5470aa726fd2"},"vehicle_type_id":"4","last_reported":1776813996,"current_range_meters":8000,"station_id":"st_d3jp68qikq2c7381ktn0","pricing_plan_id":"cebpf4jnsgd1na2vs0mg"},{"bike_id":"dc6bd17c-d37d-48d7-af1c-7f19d45f8111","system_id":"levelo_inurba_marseille","lat":43.27498,"lon":5.42457,"is_reserved":false,"is_disabled":false,"rental_uris":{"android":"levelo://app?vid=dc6bd17c-d37d-48d7-af1c-7f19d45f8111","ios":"levelo://app?vid=dc6bd17c-d37d-48d7-af1c-7f19d45f8111"},"vehicle_type_id":"4","last_reported":1776813996,"current_range_meters":8000,"station_id":"ce4bhn92rcd13ifvqgrg","pricing_plan_id":"cebpf4jnsgd1na2vs0mg"},{"bike_id":"0cf9c7d1-4ff6-4885-afdb-1945ed4e0993","system_id":"levelo_inurba_marseille","lat":43.29671,"lon":5.40586,"is_reserved":false,"is_disabled":true,"rental_uris":{"android":"levelo://app?vid=0cf9c7d1-4ff6-4885-afdb-1945ed4e0993","ios":"levelo://app?vid=0cf9c7d1-4ff6-4885-afdb-1945ed4e0993"},"vehicle_type_id":"4","last_reported":1776813996,"current_range_meters":8000,"station_id":"ce4bh0h2rcd13ifvqd60","pricing_plan_id":"cebpf4jnsgd1na2vs0mg"},{"bike_id":"350e7442-23d7-4e56-8901-abbc70fd101f","system_id":"levelo_inurba_marseille","lat":43.3116,"lon":5.38689,"is_reserved":false,"is_disabled":false,"rental_uris":{"android":"levelo://app?vid=350e7442-23d7-4e56-8901-abbc70fd101f","ios":"levelo://app?vid=350e7442-23d7-4e56-8901-abbc70fd101f"},"vehicle_type_id":"4","last_reported":1776813996,"current_range_meters":8000,"station_id":"ce4bgv12rcd13ifvqcp0","pricing_plan_id":"cebpf4jnsgd1na2vs0mg"},{"bike_id":"d9be86bb-6c4e-4c05-bc60-e02431cbb916","system_id":"levelo_inurba_marseille","lat":43.3191,"lon":5.3679,"is_reserved":false,"is_disabled":false,"rental_uris":{"android":"levelo://app?vid=d9be86bb-6c4e-4c05-bc60-e02431cbb916","ios":"levelo://app?vid=d9be86bb-6c4e-4c05-bc60-e02431cbb916"},"vehicle_type_id":"4","last_reported":1776813996,"current_range_meters":8000,"station_id":"st_d6o2h0d0559c73evc1b0","pricing_plan_id":"cebpf4jnsgd1na2vs0mg"},{"bike_id":"3448f0f4-d448-4b78-8559-0a980538ebbf","system_id":"levelo_inurba_marseille","lat":43.29509,"lon":5.43353,"is_reserved":false,"is_disabled":false,"rental_uris":{"android":"levelo://app?vid=3448f0f4-d448-4b78-8559-0a980538ebbf","ios":"levelo://app?vid=3448f0f4-d448-4b78-8559-0a980538ebbf"},"vehicle_type_id":"4","last_reported":1776813996,"current_range_meters":8000,"station_id":"st_d3j5ugp08ojc73fj9d10","pricing_plan_id":"cebpf4jnsgd1na2vs0mg"},{"bike_id":"a2e88054-dd45-471a-9705-a8a558e47e23","system_id":"levelo_inurba_marseille","lat":43.29285,"lon":5.37468,"is_reserved":false,"is_disabled":false,"rental_uris":{"android":"levelo://app?vid=a2e88054-dd45-471a-9705-a8a558e47e23","ios":"levelo://app?vid=a2e88054-dd45-471a-9705-a8a558e47e23"},"vehicle_type_id":"4","last_reported":1776813996,"current_range_meters":8000,"station_id":"ce4bgi12rcd13ifvqb70","pricing_plan_id":"cebpf4jnsgd1na2vs0mg"},{"bike_id":"d0a8881a-8c43-4555-8173-4d7ea35d93bd","system_id":"levelo_inurba_marseille","lat":43.29433,"lon":5.38654,"is_reserved":false,"is_disabled":false,"rental_uris":{"android":"levelo://app?vid=d0a8881a-8c43-4555-8173-4d7ea35d93bd","ios":"levelo://app?vid=d0a8881a-8c43-4555-8173-4d7ea35d93bd"},"vehicle_type_id":"4","last_reported":1776813996,"current_range_meters":8000,"station_id":"","pricing_plan_id":"cebpf4jnsgd1na2vs0mg"},{"bike_id":"5dca9a8e-83e7-4e4f-baef-b39340f4d785","system_id":"levelo_inurba_marseille","lat":43.2957,"lon":5.39968,"is_reserved":false,"is_disabled":true,"rental_uris":{"android":"levelo://app?vid=5dca9a8e-83e7-4e4f-baef-b39340f4d785","ios":"levelo://app?vid=5dca9a8e-83e7-4e4f-baef-b39340f4d785"},"vehicle_type_id":"4","last_reported":1776813996,"current_range_meters":8000,"station_id":"ce4bh312rcd13ifvqdj0","pricing_plan_id":"cebpf4jnsgd1na2vs0mg"},{"bike_id":"0a9b13b2-0c2f-4a3e-b569-3e3096b39a38","system_id":"levelo_inurba_marseille","lat":43.2808,"lon":5.39693,"is_reserved":false,"is_disabled":false,"rental_uris":{"android":"levelo://app?vid=0a9b13b2-0c2f-4a3e-b569-3e3096b39a38","ios":"levelo://app?vid=0a9b13b2-0c2f-4a3e-b569-3e3096b39a38"},"vehicle_type_id":"4","last_reported":1776813996,"current_range_meters":8000,"station_id":"ce4bho12rcd13ifvqh2g","pricing_plan_id":"cebpf4jnsgd1na2vs0mg"},{"bike_id":"259873a5-a1ea-41b3-8200-d0477284c8f2","system_id":"levelo_inurba_marseille","lat":43.28526,"lon":5.44095,"is_reserved":false,"is_disabled":false,"rental_uris":{"android":"levelo://app?vid=259873a5-a1ea-41b3-8200-d0477284c8f2","ios":"levelo://app?vid=259873a5-a1ea-41b3-8200-d0477284c8f2"},"vehicle_type_id":"4","last_reported":1776813996,"current_range_meters":8000,"station_id":"st_d3j3df2ikq2c7380ej80","pricing_plan_id":"cebpf4jnsgd1na2vs0mg"},{"bike_id":"92f0d726-8ad1-42c8-b7a0-ddde28d30f31","system_id":"levelo_inurba_marseille","lat":43.29526,"lon":5.38544,"is_reserved":false,"is_disabled":false,"rental_uris":{"android":"levelo://app?vid=92f0d726-8ad1-42c8-b7a0-ddde28d30f31","ios":"levelo://app?vid=92f0d726-8ad1-42c8-b7a0-ddde28d30f31"},"vehicle_type_id":"4","last_reported":1776813996,"current_range_meters":8000,"station_id":"ce4bgih2rcd13ifvqba0","pricing_plan_id":"cebpf4jnsgd1na2vs0mg"},{"bike_id":"39f98464-fffc-43ef-b935-0affcc53642d","system_id":"levelo_inurba_marseille","lat":43.27488,"lon":5.42468,"is_reserved":false,"is_disabled":false,"rental_uris":{"android":"levelo://app?vid=39f98464-fffc-43ef-b935-0affcc53642d","ios":"levelo://app?vid=39f98464-fffc-43ef-b935-0affcc53642d"},"vehicle_type_id":"4","last_reported":1776813996,"current_range_meters":8000,"station_id":"ce4bhn92rcd13ifvqgrg","pricing_plan_id":"cebpf4jnsgd1na2vs0mg"},{"bike_id":"0c54cefd-8dbc-46d8-a49d-66338750404d","system_id":"levelo_inurba_marseille","lat":43.29928,"lon":5.36548,"is_reserved":false,"is_disabled":false,"rental_uris":{"android":"levelo://app?vid=0c54cefd-8dbc-46d8-a49d-66338750404d","ios":"levelo://app?vid=0c54cefd-8dbc-46d8-a49d-66338750404d"},"vehicle_type_id":"4","last_reported":1776813996,"current_range_meters":8000,"station_id":"ce4bgm92rcd13ifvqbr0","pricing_plan_id":"cebpf4jnsgd1na2vs0mg"},{"bike_id":"a43319a1-e942-45fa-a9f9-6c4e37db171a","system_id":"levelo_inurba_marseille","lat":43.31173,"lon":5.387,"is_reserved":false,"is_disabled":false,"rental_uris":{"android":"levelo://app?vid=a43319a1-e942-45fa-a9f9-6c4e37db171a","ios":"levelo://app?vid=a43319a1-e942-45fa-a9f9-6c4e37db171a"},"vehicle_type_id":"4","last_reported":1776813996,"current_range_meters":8000,"station_id":"ce4bgv12rcd13ifvqcp0","pricing_plan_id":"cebpf4jnsgd1na2vs0mg"},{"bike_id":"22e0b1e6-3839-449a-b2f0-10eb440559bc","system_id":"levelo_inurba_marseille","lat":43.25136,"lon":5.39503,"is_reserved":false,"is_disabled":false,"rental_uris":{"android":"levelo://app?vid=22e0b1e6-3839-449a-b2f0-10eb440559bc","ios":"levelo://app?vid=22e0b1e6-3839-449a-b2f0-10eb440559bc"},"vehicle_type_id":"4","last_reported":1776813996,"current_range_meters":8400,"station_id":"ce4bhm12rcd13ifvqgkg","pricing_plan_id":"cebpf4jnsgd1na2vs0mg"},{"bike_id":"badf4622-8d39-4c6d-8e74-cdbf9e168f9d","system_id":"levelo_inurba_marseille","lat":43.25234,"lon":5.40409,"is_reserved":false,"is_disabled":false,"rental_uris":{"android":"levelo://app?vid=badf4622-8d39-4c6d-8e74-cdbf9e168f9d","ios":"levelo://app?vid=badf4622-8d39-4c6d-8e74-cdbf9e168f9d"},"vehicle_type_id":"4","last_reported":1776813996,"current_range_meters":8400,"station_id":"","pricing_plan_id":"cebpf4jnsgd1na2vs0mg"},{"bike_id":"ef4460cf-c33d-465d-8f99-319f3140e8d6","system_id":"levelo_inurba_marseille","lat":43.29482,"lon":5.39776,"is_reserved":false,"is_disabled":false,"rental_uris":{"android":"levelo://app?vid=ef4460cf-c33d-465d-8f99-319f3140e8d6","ios":"levelo://app?vid=ef4460cf-c33d-465d-8f99-319f3140e8d6"},"vehicle_type_id":"4","last_reported":1776813996,"current_range_meters":8400,"station_id":"","pricing_plan_id":"cebpf4jnsgd1na2vs0mg"},{"bike_id":"32023100-5ce8-4637-ad41-206e633c27ce","system_id":"levelo_inurba_marseille","lat":43.2481,"lon":5.37447,"is_reserved":false,"is_disabled":true,"rental_uris":{"android":"levelo://app?vid=32023100-5ce8-4637-ad41-206e633c27ce","ios":"levelo://app?vid=32023100-5ce8-4637-ad41-206e633c27ce"},"vehicle_type_id":"4","last_reported":1776813996,"current_range_meters":8400,"station_id":"ce4bhgh2rcd13ifvqfb0","pricing_plan_id":"cebpf4jnsgd1na2vs0mg"},{"bike_id":"be5c4907-57d0-4c67-8ff7-ac26938c6076","system_id":"levelo_inurba_marseille","lat":43.28274,"lon":5.40671,"is_reserved":false,"is_disabled":false,"rental_uris":{"android":"levelo://app?vid=be5c4907-57d0-4c67-8ff7-ac26938c6076","ios":"levelo://app?vid=be5c4907-57d0-4c67-8ff7-ac26938c6076"},"vehicle_type_id":"4","last_reported":1776813996,"current_range_meters":8400,"station_id":"","pricing_plan_id":"cebpf4jnsgd1na2vs0mg"},{"bike_id":"156a9278-c7f8-442d-9b54-2a52d275e0c5","system_id":"levelo_inurba_marseille","lat":43.28614,"lon":5.35098,"is_reserved":false,"is_disabled":true,"rental_uris":{"android":"levelo://app?vid=156a9278-c7f8-442d-9b54-2a52d275e0c5","ios":"levelo://app?vid=156a9278-c7f8-442d-9b54-2a52d275e0c5"},"vehicle_type_id":"4","last_reported":1776813996,"current_range_meters":8400,"station_id":"ce4bhch2rcd13ifvqeug","pricing_plan_id":"cebpf4jnsgd1na2vs0mg"},{"bike_id":"fc83597b-c92a-4d6b-9ec3-85cccb5b70a7","system_id":"levelo_inurba_marseille","lat":43.31953,"lon":5.36774,"is_reserved":false,"is_disabled":false,"rental_uris":{"android":"levelo://app?vid=fc83597b-c92a-4d6b-9ec3-85cccb5b70a7","ios":"levelo://app?vid=fc83597b-c92a-4d6b-9ec3-85cccb5b70a7"},"vehicle_type_id":"4","last_reported":1776813996,"current_range_meters":8400,"station_id":"","pricing_plan_id":"cebpf4jnsgd1na2vs0mg"},{"bike_id":"9b5f530a-feb3-40f8-b325-17ef686ceeee","system_id":"levelo_inurba_marseille","lat":43.29063,"lon":5.3844,"is_reserved":false,"is_disabled":false,"rental_uris":{"android":"levelo://app?vid=9b5f530a-feb3-40f8-b325-17ef686ceeee","ios":"levelo://app?vid=9b5f530a-feb3-40f8-b325-17ef686ceeee"},"vehicle_type_id":"4","last_reported":1776813996,"current_range_meters":8400,"station_id":"","pricing_plan_id":"cebpf4jnsgd1na2vs0mg"},{"bike_id":"4349ecc0-b116-48ad-9356-9a10b2689549","system_id":"levelo_inurba_marseille","lat":43.303,"lon":5.36879,"is_reserved":false,"is_disabled":false,"rental_uris":{"android":"levelo://app?vid=4349ecc0-b116-48ad-9356-9a10b2689549","ios":"levelo://app?vid=4349ecc0-b116-48ad-9356-9a10b2689549"},"vehicle_type_id":"4","last_reported":1776813996,"current_range_meters":8400,"station_id":"ce4bgqh2rcd13ifvqc5g","pricing_plan_id":"cebpf4jnsgd1na2vs0mg"},{"bike_id":"e49b8b33-40d0-498a-a2cb-9e719b491918","system_id":"levelo_inurba_marseille","lat":43.25128,"lon":5.4033,"is_reserved":false,"is_disabled":false,"rental_uris":{"android":"levelo://app?vid=e49b8b33-40d0-498a-a2cb-9e719b491918","ios":"levelo://app?vid=e49b8b33-40d0-498a-a2cb-9e719b491918"},"vehicle_type_id":"4","last_reported":1776813996,"current_range_meters":8400,"station_id":"ce4bhlh2rcd13ifvqgig","pricing_plan_id":"cebpf4jnsgd1na2vs0mg"},{"bike_id":"efafe04d-4c99-4008-b213-fd769bff4eb0","system_id":"levelo_inurba_marseille","lat":43.29516,"lon":5.39376,"is_reserved":false,"is_disabled":true,"rental_uris":{"android":"levelo://app?vid=efafe04d-4c99-4008-b213-fd769bff4eb0","ios":"levelo://app?vid=efafe04d-4c99-4008-b213-fd769bff4eb0"},"vehicle_type_id":"4","last_reported":1776813996,"current_range_meters":8400,"station_id":"ce4bh292rcd13ifvqdf0","pricing_plan_id":"cebpf4jnsgd1na2vs0mg"},{"bike_id":"8194a0ff-2824-43c5-8a22-527fdaa0a136","system_id":"levelo_inurba_marseille","lat":43.27354,"lon":5.40877,"is_reserved":false,"is_disabled":false,"rental_uris":{"android":"levelo://app?vid=8194a0ff-2824-43c5-8a22-527fdaa0a136","ios":"levelo://app?vid=8194a0ff-2824-43c5-8a22-527fdaa0a136"},"vehicle_type_id":"4","last_reported":1776813996,"current_range_meters":8400,"station_id":"","pricing_plan_id":"cebpf4jnsgd1na2vs0mg"},{"bike_id":"12b4bdaa-6921-458a-af74-ed171711d26a","system_id":"levelo_inurba_marseille","lat":43.29883,"lon":5.38884,"is_reserved":false,"is_disabled":false,"rental_uris":{"android":"levelo://app?vid=12b4bdaa-6921-458a-af74-ed171711d26a","ios":"levelo://app?vid=12b4bdaa-6921-458a-af74-ed171711d26a"},"vehicle_type_id":"4","last_reported":1776813996,"current_range_meters":8400,"station_id":"ce4bh392rcd13ifvqdl0","pricing_plan_id":"cebpf4jnsgd1na2vs0mg"},{"bike_id":"fcc994e7-3639-4a8d-8be7-47264161377b","system_id":"levelo_inurba_marseille","lat":43.30926,"lon":5.40148,"is_reserved":false,"is_disabled":false,"rental_uris":{"android":"levelo://app?vid=fcc994e7-3639-4a8d-8be7-47264161377b","ios":"levelo://app?vid=fcc994e7-3639-4a8d-8be7-47264161377b"},"vehicle_type_id":"4","last_reported":1776813996,"current_range_meters":8400,"station_id":"ce4bgvp2rcd13ifvqct0","pricing_plan_id":"cebpf4jnsgd1na2vs0mg"},{"bike_id":"7c62e7a6-5547-419c-8c21-e776bc3eb973","system_id":"levelo_inurba_marseille","lat":43.30879,"lon":5.39644,"is_reserved":false,"is_disabled":false,"rental_uris":{"android":"levelo://app?vid=7c62e7a6-5547-419c-8c21-e776bc3eb973","ios":"levelo://app?vid=7c62e7a6-5547-419c-8c21-e776bc3eb973"},"vehicle_type_id":"4","last_reported":1776813996,"current_range_meters":8400,"station_id":"ce4bh012rcd13ifvqcv0","pricing_plan_id":"cebpf4jnsgd1na2vs0mg"},{"bike_id":"beafb519-18ba-43f5-901e-4d2a35f80af8","system_id":"levelo_inurba_marseille","lat":43.24385,"lon":5.37069,"is_reserved":false,"is_disabled":false,"rental_uris":{"android":"levelo://app?vid=beafb519-18ba-43f5-901e-4d2a35f80af8","ios":"levelo://app?vid=beafb519-18ba-43f5-901e-4d2a35f80af8"},"vehicle_type_id":"4","last_reported":1776813996,"current_range_meters":8400,"station_id":"ce4bhhh2rcd13ifvqfk0","pricing_plan_id":"cebpf4jnsgd1na2vs0mg"},{"bike_id":"6a37b8f2-598c-4865-986b-c1637c9a4546","system_id":"levelo_inurba_marseille","lat":43.23887,"lon":5.37467,"is_reserved":false,"is_disabled":false,"rental_uris":{"android":"levelo://app?vid=6a37b8f2-598c-4865-986b-c1637c9a4546","ios":"levelo://app?vid=6a37b8f2-598c-4865-986b-c1637c9a4546"},"vehicle_type_id":"4","last_reported":1776813996,"current_range_meters":8400,"station_id":"st_d6sm7csbq4hs73f8fpjg","pricing_plan_id":"cebpf4jnsgd1na2vs0mg"},{"bike_id":"468b098b-8742-43b6-94e4-77df021ec20c","system_id":"levelo_inurba_marseille","lat":43.30733,"lon":5.42445,"is_reserved":false,"is_disabled":false,"rental_uris":{"android":"levelo://app?vid=468b098b-8742-43b6-94e4-77df021ec20c","ios":"levelo://app?vid=468b098b-8742-43b6-94e4-77df021ec20c"},"vehicle_type_id":"4","last_reported":1776813996,"current_range_meters":8400,"station_id":"st_cvj6ca6bvosntc0bfgr0","pricing_plan_id":"cebpf4jnsgd1na2vs0mg"},{"bike_id":"a5932d33-7fe4-4ab5-ab73-558a4a420627","system_id":"levelo_inurba_marseille","lat":43.2444,"lon":5.40046,"is_reserved":false,"is_disabled":false,"rental_uris":{"android":"levelo://app?vid=a5932d33-7fe4-4ab5-ab73-558a4a420627","ios":"levelo://app?vid=a5932d33-7fe4-4ab5-ab73-558a4a420627"},"vehicle_type_id":"4","last_reported":1776813996,"current_range_meters":8400,"station_id":"","pricing_plan_id":"cebpf4jnsgd1na2vs0mg"},{"bike_id":"8039cb9a-48d0-4777-8a7e-f7f4b18a83eb","system_id":"levelo_inurba_marseille","lat":43.28856,"lon":5.42514,"is_reserved":false,"is_disabled":false,"rental_uris":{"android":"levelo://app?vid=8039cb9a-48d0-4777-8a7e-f7f4b18a83eb","ios":"levelo://app?vid=8039cb9a-48d0-4777-8a7e-f7f4b18a83eb"},"vehicle_type_id":"4","last_reported":1776813996,"current_range_meters":8400,"station_id":"st_d3b462108ojc7389ooeg","pricing_plan_id":"cebpf4jnsgd1na2vs0mg"},{"bike_id":"3fab059d-18a7-482e-8115-cee8992a6a7a","system_id":"levelo_inurba_marseille","lat":43.27948,"lon":5.41043,"is_reserved":false,"is_disabled":false,"rental_uris":{"android":"levelo://app?vid=3fab059d-18a7-482e-8115-cee8992a6a7a","ios":"levelo://app?vid=3fab059d-18a7-482e-8115-cee8992a6a7a"},"vehicle_type_id":"4","last_reported":1776813996,"current_range_meters":8800,"station_id":"ce4bhnp2rcd13ifvqh0g","pricing_plan_id":"cebpf4jnsgd1na2vs0mg"},{"bike_id":"3eca5f59-69c9-4a41-a15b-bed0e57d2eac","system_id":"levelo_inurba_marseille","lat":43.29564,"lon":5.37515,"is_reserved":false,"is_disabled":false,"rental_uris":{"android":"levelo://app?vid=3eca5f59-69c9-4a41-a15b-bed0e57d2eac","ios":"levelo://app?vid=3eca5f59-69c9-4a41-a15b-bed0e57d2eac"},"vehicle_type_id":"4","last_reported":1776813996,"current_range_meters":8800,"station_id":"ce4bgh92rcd13ifvqb50","pricing_plan_id":"cebpf4jnsgd1na2vs0mg"},{"bike_id":"c76a8ee2-b262-4df4-8067-76b5c4dda45d","system_id":"levelo_inurba_marseille","lat":43.29034,"lon":5.38621,"is_reserved":false,"is_disabled":false,"rental_uris":{"android":"levelo://app?vid=c76a8ee2-b262-4df4-8067-76b5c4dda45d","ios":"levelo://app?vid=c76a8ee2-b262-4df4-8067-76b5c4dda45d"},"vehicle_type_id":"4","last_reported":1776813996,"current_range_meters":8800,"station_id":"ce4bh4p2rcd13ifvqe0g","pricing_plan_id":"cebpf4jnsgd1na2vs0mg"},{"bike_id":"04257b95-4499-46e1-a4e3-88ab526291ba","system_id":"levelo_inurba_marseille","lat":43.28488,"lon":5.48392,"is_reserved":false,"is_disabled":false,"rental_uris":{"android":"levelo://app?vid=04257b95-4499-46e1-a4e3-88ab526291ba","ios":"levelo://app?vid=04257b95-4499-46e1-a4e3-88ab526291ba"},"vehicle_type_id":"4","last_reported":1776813996,"current_range_meters":8800,"station_id":"","pricing_plan_id":"cebpf4jnsgd1na2vs0mg"},{"bike_id":"42bc5912-9f51-49f0-a597-ebcfd7df5cbb","system_id":"levelo_inurba_marseille","lat":43.297,"lon":5.36604,"is_reserved":false,"is_disabled":true,"rental_uris":{"android":"levelo://app?vid=42bc5912-9f51-49f0-a597-ebcfd7df5cbb","ios":"levelo://app?vid=42bc5912-9f51-49f0-a597-ebcfd7df5cbb"},"vehicle_type_id":"4","last_reported":1776813996,"current_range_meters":8800,"station_id":"ce4bgn12rcd13ifvqbt0","pricing_plan_id":"cebpf4jnsgd1na2vs0mg"},{"bike_id":"2e91429e-26d4-4cb4-b1d3-cd915485ff5f","system_id":"levelo_inurba_marseille","lat":43.31118,"lon":5.37759,"is_reserved":false,"is_disabled":false,"rental_uris":{"android":"levelo://app?vid=2e91429e-26d4-4cb4-b1d3-cd915485ff5f","ios":"levelo://app?vid=2e91429e-26d4-4cb4-b1d3-cd915485ff5f"},"vehicle_type_id":"4","last_reported":1776813996,"current_range_meters":8800,"station_id":"ce4bgt92rcd13ifvqcg0","pricing_plan_id":"cebpf4jnsgd1na2vs0mg"},{"bike_id":"58bc8154-b89a-4219-b226-40008af909ad","system_id":"levelo_inurba_marseille","lat":43.28709,"lon":5.37378,"is_reserved":false,"is_disabled":false,"rental_uris":{"android":"levelo://app?vid=58bc8154-b89a-4219-b226-40008af909ad","ios":"levelo://app?vid=58bc8154-b89a-4219-b226-40008af909ad"},"vehicle_type_id":"4","last_reported":1776813996,"current_range_meters":8800,"station_id":"ce4bh3p2rcd13ifvqdq0","pricing_plan_id":"cebpf4jnsgd1na2vs0mg"},{"bike_id":"2df0fb90-969f-4545-a2d3-6d2113ccf8ec","system_id":"levelo_inurba_marseille","lat":43.29542,"lon":5.3851,"is_reserved":false,"is_disabled":false,"rental_uris":{"android":"levelo://app?vid=2df0fb90-969f-4545-a2d3-6d2113ccf8ec","ios":"levelo://app?vid=2df0fb90-969f-4545-a2d3-6d2113ccf8ec"},"vehicle_type_id":"4","last_reported":1776813996,"current_range_meters":8800,"station_id":"ce4bgih2rcd13ifvqba0","pricing_plan_id":"cebpf4jnsgd1na2vs0mg"},{"bike_id":"53ac9b94-d2b8-401a-8133-9009372f217e","system_id":"levelo_inurba_marseille","lat":43.28545,"lon":5.48485,"is_reserved":false,"is_disabled":false,"rental_uris":{"android":"levelo://app?vid=53ac9b94-d2b8-401a-8133-9009372f217e","ios":"levelo://app?vid=53ac9b94-d2b8-401a-8133-9009372f217e"},"vehicle_type_id":"4","last_reported":1776813996,"current_range_meters":8800,"station_id":"","pricing_plan_id":"cebpf4jnsgd1na2vs0mg"},{"bike_id":"51e7d8cf-63e3-43c5-b2d1-971f18e79ea6","system_id":"levelo_inurba_marseille","lat":43.30928,"lon":5.40171,"is_reserved":false,"is_disabled":false,"rental_uris":{"android":"levelo://app?vid=51e7d8cf-63e3-43c5-b2d1-971f18e79ea6","ios":"levelo://app?vid=51e7d8cf-63e3-43c5-b2d1-971f18e79ea6"},"vehicle_type_id":"4","last_reported":1776813996,"current_range_meters":8800,"station_id":"ce4bgvp2rcd13ifvqct0","pricing_plan_id":"cebpf4jnsgd1na2vs0mg"},{"bike_id":"727fa24e-903e-4a09-916f-420b7a301e67","system_id":"levelo_inurba_marseille","lat":43.29287,"lon":5.40107,"is_reserved":false,"is_disabled":false,"rental_uris":{"android":"levelo://app?vid=727fa24e-903e-4a09-916f-420b7a301e67","ios":"levelo://app?vid=727fa24e-903e-4a09-916f-420b7a301e67"},"vehicle_type_id":"4","last_reported":1776813996,"current_range_meters":8800,"station_id":"ce4bh312rcd13ifvqdk0","pricing_plan_id":"cebpf4jnsgd1na2vs0mg"},{"bike_id":"d516b241-18a7-43d9-9154-21f273af7ca2","system_id":"levelo_inurba_marseille","lat":43.2916,"lon":5.38867,"is_reserved":false,"is_disabled":false,"rental_uris":{"android":"levelo://app?vid=d516b241-18a7-43d9-9154-21f273af7ca2","ios":"levelo://app?vid=d516b241-18a7-43d9-9154-21f273af7ca2"},"vehicle_type_id":"4","last_reported":1776813996,"current_range_meters":8800,"station_id":"","pricing_plan_id":"cebpf4jnsgd1na2vs0mg"},{"bike_id":"fc182d5e-a901-481f-9982-3c345938d4dd","system_id":"levelo_inurba_marseille","lat":43.3009,"lon":5.39082,"is_reserved":false,"is_disabled":false,"rental_uris":{"android":"levelo://app?vid=fc182d5e-a901-481f-9982-3c345938d4dd","ios":"levelo://app?vid=fc182d5e-a901-481f-9982-3c345938d4dd"},"vehicle_type_id":"4","last_reported":1776813996,"current_range_meters":8800,"station_id":"ce4bh192rcd13ifvqdb0","pricing_plan_id":"cebpf4jnsgd1na2vs0mg"},{"bike_id":"fb237ca1-9b68-4100-be5d-75add270cbb1","system_id":"levelo_inurba_marseille","lat":43.28417,"lon":5.37504,"is_reserved":false,"is_disabled":false,"rental_uris":{"android":"levelo://app?vid=fb237ca1-9b68-4100-be5d-75add270cbb1","ios":"levelo://app?vid=fb237ca1-9b68-4100-be5d-75add270cbb1"},"vehicle_type_id":"4","last_reported":1776813996,"current_range_meters":8800,"station_id":"ce4bh412rcd13ifvqds0","pricing_plan_id":"cebpf4jnsgd1na2vs0mg"},{"bike_id":"059b4ad8-665d-46df-9a3f-e9b9a20a1c99","system_id":"levelo_inurba_marseille","lat":43.33543,"lon":5.37474,"is_reserved":false,"is_disabled":false,"rental_uris":{"android":"levelo://app?vid=059b4ad8-665d-46df-9a3f-e9b9a20a1c99","ios":"levelo://app?vid=059b4ad8-665d-46df-9a3f-e9b9a20a1c99"},"vehicle_type_id":"4","last_reported":1776813996,"current_range_meters":8800,"station_id":"st_d46tts09ee8s73dlu43g","pricing_plan_id":"cebpf4jnsgd1na2vs0mg"},{"bike_id":"fd8c8cd3-3e30-4b4e-982b-7ed39ab96d6c","system_id":"levelo_inurba_marseille","lat":43.30816,"lon":5.38152,"is_reserved":false,"is_disabled":false,"rental_uris":{"android":"levelo://app?vid=fd8c8cd3-3e30-4b4e-982b-7ed39ab96d6c","ios":"levelo://app?vid=fd8c8cd3-3e30-4b4e-982b-7ed39ab96d6c"},"vehicle_type_id":"4","last_reported":1776813996,"current_range_meters":8800,"station_id":"ce4bgt12rcd13ifvqce0","pricing_plan_id":"cebpf4jnsgd1na2vs0mg"},{"bike_id":"1c4db81e-e54e-450a-b910-a202dc639503","system_id":"levelo_inurba_marseille","lat":43.2847,"lon":5.48371,"is_reserved":false,"is_disabled":false,"rental_uris":{"android":"levelo://app?vid=1c4db81e-e54e-450a-b910-a202dc639503","ios":"levelo://app?vid=1c4db81e-e54e-450a-b910-a202dc639503"},"vehicle_type_id":"4","last_reported":1776813996,"current_range_meters":9200,"station_id":"","pricing_plan_id":"cebpf4jnsgd1na2vs0mg"},{"bike_id":"54158463-085c-499f-9d12-01f94070f32c","system_id":"levelo_inurba_marseille","lat":43.23796,"lon":5.36627,"is_reserved":false,"is_disabled":false,"rental_uris":{"android":"levelo://app?vid=54158463-085c-499f-9d12-01f94070f32c","ios":"levelo://app?vid=54158463-085c-499f-9d12-01f94070f32c"},"vehicle_type_id":"4","last_reported":1776813996,"current_range_meters":9200,"station_id":"st_d3nk18o9ro0c73en2l3g","pricing_plan_id":"cebpf4jnsgd1na2vs0mg"},{"bike_id":"896611a9-601b-4f73-887f-331242128bea","system_id":"levelo_inurba_marseille","lat":43.32645,"lon":5.40986,"is_reserved":false,"is_disabled":false,"rental_uris":{"android":"levelo://app?vid=896611a9-601b-4f73-887f-331242128bea","ios":"levelo://app?vid=896611a9-601b-4f73-887f-331242128bea"},"vehicle_type_id":"4","last_reported":1776813996,"current_range_meters":9200,"station_id":"ce4bhpp2rcd13ifvqhgg","pricing_plan_id":"cebpf4jnsgd1na2vs0mg"},{"bike_id":"e7843205-c962-4195-9224-39a246007b21","system_id":"levelo_inurba_marseille","lat":43.29533,"lon":5.39046,"is_reserved":false,"is_disabled":false,"rental_uris":{"android":"levelo://app?vid=e7843205-c962-4195-9224-39a246007b21","ios":"levelo://app?vid=e7843205-c962-4195-9224-39a246007b21"},"vehicle_type_id":"4","last_reported":1776813996,"current_range_meters":9200,"station_id":"ce4bh3p2rcd13ifvqdp0","pricing_plan_id":"cebpf4jnsgd1na2vs0mg"},{"bike_id":"ab441cdc-9cd1-4c8e-b69e-34bb46fece34","system_id":"levelo_inurba_marseille","lat":43.29391,"lon":5.363,"is_reserved":false,"is_disabled":false,"rental_uris":{"android":"levelo://app?vid=ab441cdc-9cd1-4c8e-b69e-34bb46fece34","ios":"levelo://app?vid=ab441cdc-9cd1-4c8e-b69e-34bb46fece34"},"vehicle_type_id":"4","last_reported":1776813996,"current_range_meters":9200,"station_id":"","pricing_plan_id":"cebpf4jnsgd1na2vs0mg"},{"bike_id":"9fb54bca-ba88-4da0-9bed-a5b2efdfb47c","system_id":"levelo_inurba_marseille","lat":43.30314,"lon":5.36895,"is_reserved":false,"is_disabled":false,"rental_uris":{"android":"levelo://app?vid=9fb54bca-ba88-4da0-9bed-a5b2efdfb47c","ios":"levelo://app?vid=9fb54bca-ba88-4da0-9bed-a5b2efdfb47c"},"vehicle_type_id":"4","last_reported":1776813996,"current_range_meters":9200,"station_id":"ce4bgqh2rcd13ifvqc5g","pricing_plan_id":"cebpf4jnsgd1na2vs0mg"},{"bike_id":"c7ff1d8c-9f80-4101-92ef-2f0b68fb525f","system_id":"levelo_inurba_marseille","lat":43.27591,"lon":5.39526,"is_reserved":false,"is_disabled":false,"rental_uris":{"android":"levelo://app?vid=c7ff1d8c-9f80-4101-92ef-2f0b68fb525f","ios":"levelo://app?vid=c7ff1d8c-9f80-4101-92ef-2f0b68fb525f"},"vehicle_type_id":"4","last_reported":1776813996,"current_range_meters":9200,"station_id":"","pricing_plan_id":"cebpf4jnsgd1na2vs0mg"},{"bike_id":"d1fda486-70ba-4609-b998-7713b50defe1","system_id":"levelo_inurba_marseille","lat":43.27062,"lon":5.40056,"is_reserved":false,"is_disabled":false,"rental_uris":{"android":"levelo://app?vid=d1fda486-70ba-4609-b998-7713b50defe1","ios":"levelo://app?vid=d1fda486-70ba-4609-b998-7713b50defe1"},"vehicle_type_id":"4","last_reported":1776813996,"current_range_meters":9200,"station_id":"","pricing_plan_id":"cebpf4jnsgd1na2vs0mg"},{"bike_id":"ea54b7f9-00c6-43b1-9a5a-534a8cb9648e","system_id":"levelo_inurba_marseille","lat":43.29818,"lon":5.3855,"is_reserved":false,"is_disabled":false,"rental_uris":{"android":"levelo://app?vid=ea54b7f9-00c6-43b1-9a5a-534a8cb9648e","ios":"levelo://app?vid=ea54b7f9-00c6-43b1-9a5a-534a8cb9648e"},"vehicle_type_id":"4","last_reported":1776813996,"current_range_meters":9200,"station_id":"","pricing_plan_id":"cebpf4jnsgd1na2vs0mg"},{"bike_id":"a94d236d-eba8-4733-81ef-6d7a05120d94","system_id":"levelo_inurba_marseille","lat":43.24862,"lon":5.3943,"is_reserved":false,"is_disabled":false,"rental_uris":{"android":"levelo://app?vid=a94d236d-eba8-4733-81ef-6d7a05120d94","ios":"levelo://app?vid=a94d236d-eba8-4733-81ef-6d7a05120d94"},"vehicle_type_id":"4","last_reported":1776813996,"current_range_meters":9200,"station_id":"","pricing_plan_id":"cebpf4jnsgd1na2vs0mg"},{"bike_id":"6874c5fe-11c8-4f0f-9d37-efccbe068543","system_id":"levelo_inurba_marseille","lat":43.23905,"lon":5.37467,"is_reserved":false,"is_disabled":false,"rental_uris":{"android":"levelo://app?vid=6874c5fe-11c8-4f0f-9d37-efccbe068543","ios":"levelo://app?vid=6874c5fe-11c8-4f0f-9d37-efccbe068543"},"vehicle_type_id":"4","last_reported":1776813996,"current_range_meters":9200,"station_id":"st_d6sm7csbq4hs73f8fpjg","pricing_plan_id":"cebpf4jnsgd1na2vs0mg"},{"bike_id":"97640678-22eb-456e-8a6b-8940edbd10ca","system_id":"levelo_inurba_marseille","lat":43.23914,"lon":5.41479,"is_reserved":false,"is_disabled":false,"rental_uris":{"android":"levelo://app?vid=97640678-22eb-456e-8a6b-8940edbd10ca","ios":"levelo://app?vid=97640678-22eb-456e-8a6b-8940edbd10ca"},"vehicle_type_id":"4","last_reported":1776813996,"current_range_meters":9200,"station_id":"","pricing_plan_id":"cebpf4jnsgd1na2vs0mg"},{"bike_id":"6a6c0723-51ae-47f3-8bd8-0ea5c1d2e394","system_id":"levelo_inurba_marseille","lat":43.29518,"lon":5.3905,"is_reserved":false,"is_disabled":false,"rental_uris":{"android":"levelo://app?vid=6a6c0723-51ae-47f3-8bd8-0ea5c1d2e394","ios":"levelo://app?vid=6a6c0723-51ae-47f3-8bd8-0ea5c1d2e394"},"vehicle_type_id":"4","last_reported":1776813996,"current_range_meters":9200,"station_id":"ce4bh3p2rcd13ifvqdp0","pricing_plan_id":"cebpf4jnsgd1na2vs0mg"},{"bike_id":"82bcc0e6-14a4-4c90-93f5-0c68b5821945","system_id":"levelo_inurba_marseille","lat":43.28622,"lon":5.39873,"is_reserved":false,"is_disabled":true,"rental_uris":{"android":"levelo://app?vid=82bcc0e6-14a4-4c90-93f5-0c68b5821945","ios":"levelo://app?vid=82bcc0e6-14a4-4c90-93f5-0c68b5821945"},"vehicle_type_id":"4","last_reported":1776813996,"current_range_meters":9200,"station_id":"st_d4a7ka997mjs738ck50g","pricing_plan_id":"cebpf4jnsgd1na2vs0mg"},{"bike_id":"e78c04eb-42fe-48ff-b4a7-8a50b3005232","system_id":"levelo_inurba_marseille","lat":43.27836,"lon":5.40696,"is_reserved":false,"is_disabled":false,"rental_uris":{"android":"levelo://app?vid=e78c04eb-42fe-48ff-b4a7-8a50b3005232","ios":"levelo://app?vid=e78c04eb-42fe-48ff-b4a7-8a50b3005232"},"vehicle_type_id":"4","last_reported":1776813996,"current_range_meters":9200,"station_id":"ce4bhnh2rcd13ifvqgtg","pricing_plan_id":"cebpf4jnsgd1na2vs0mg"},{"bike_id":"cfcc8dcf-6816-46a1-945d-fdf5ccf50752","system_id":"levelo_inurba_marseille","lat":43.30935,"lon":5.41197,"is_reserved":false,"is_disabled":false,"rental_uris":{"android":"levelo://app?vid=cfcc8dcf-6816-46a1-945d-fdf5ccf50752","ios":"levelo://app?vid=cfcc8dcf-6816-46a1-945d-fdf5ccf50752"},"vehicle_type_id":"4","last_reported":1776813996,"current_range_meters":9200,"station_id":"","pricing_plan_id":"cebpf4jnsgd1na2vs0mg"},{"bike_id":"b3cde51e-91c1-4469-8977-7010b31344cf","system_id":"levelo_inurba_marseille","lat":43.29573,"lon":5.39941,"is_reserved":false,"is_disabled":false,"rental_uris":{"android":"levelo://app?vid=b3cde51e-91c1-4469-8977-7010b31344cf","ios":"levelo://app?vid=b3cde51e-91c1-4469-8977-7010b31344cf"},"vehicle_type_id":"4","last_reported":1776813996,"current_range_meters":9200,"station_id":"ce4bh312rcd13ifvqdj0","pricing_plan_id":"cebpf4jnsgd1na2vs0mg"},{"bike_id":"dd8d4df4-895e-4db8-b1cd-223e7e4d3814","system_id":"levelo_inurba_marseille","lat":43.31161,"lon":5.387,"is_reserved":false,"is_disabled":false,"rental_uris":{"android":"levelo://app?vid=dd8d4df4-895e-4db8-b1cd-223e7e4d3814","ios":"levelo://app?vid=dd8d4df4-895e-4db8-b1cd-223e7e4d3814"},"vehicle_type_id":"4","last_reported":1776813996,"current_range_meters":9200,"station_id":"ce4bgv12rcd13ifvqcp0","pricing_plan_id":"cebpf4jnsgd1na2vs0mg"},{"bike_id":"305e1809-8fdd-4298-af7d-437eb4120cdd","system_id":"levelo_inurba_marseille","lat":43.28582,"lon":5.38129,"is_reserved":false,"is_disabled":false,"rental_uris":{"android":"levelo://app?vid=305e1809-8fdd-4298-af7d-437eb4120cdd","ios":"levelo://app?vid=305e1809-8fdd-4298-af7d-437eb4120cdd"},"vehicle_type_id":"4","last_reported":1776813996,"current_range_meters":9200,"station_id":"","pricing_plan_id":"cebpf4jnsgd1na2vs0mg"},{"bike_id":"80575779-c242-42a2-b57f-fe16e1520a85","system_id":"levelo_inurba_marseille","lat":43.28681,"lon":5.38656,"is_reserved":false,"is_disabled":false,"rental_uris":{"android":"levelo://app?vid=80575779-c242-42a2-b57f-fe16e1520a85","ios":"levelo://app?vid=80575779-c242-42a2-b57f-fe16e1520a85"},"vehicle_type_id":"4","last_reported":1776813996,"current_range_meters":9200,"station_id":"ce4bh492rcd13ifvqdug","pricing_plan_id":"cebpf4jnsgd1na2vs0mg"},{"bike_id":"f8886bac-06e6-4f4e-b567-d0f4cd2b25d3","system_id":"levelo_inurba_marseille","lat":43.27487,"lon":5.42427,"is_reserved":false,"is_disabled":false,"rental_uris":{"android":"levelo://app?vid=f8886bac-06e6-4f4e-b567-d0f4cd2b25d3","ios":"levelo://app?vid=f8886bac-06e6-4f4e-b567-d0f4cd2b25d3"},"vehicle_type_id":"4","last_reported":1776813996,"current_range_meters":9600,"station_id":"ce4bhn92rcd13ifvqgrg","pricing_plan_id":"cebpf4jnsgd1na2vs0mg"},{"bike_id":"73d436be-8bb5-400c-b5b8-edfd7e8d5913","system_id":"levelo_inurba_marseille","lat":43.337444,"lon":5.374475,"is_reserved":false,"is_disabled":false,"rental_uris":{"android":"levelo://app?vid=73d436be-8bb5-400c-b5b8-edfd7e8d5913","ios":"levelo://app?vid=73d436be-8bb5-400c-b5b8-edfd7e8d5913"},"vehicle_type_id":"4","last_reported":1776813996,"current_range_meters":9600,"station_id":"ce4bhgp2rcd13ifvqfc0","pricing_plan_id":"cebpf4jnsgd1na2vs0mg"},{"bike_id":"804f369f-bd6d-4c62-a22b-a4a90eae1ff8","system_id":"levelo_inurba_marseille","lat":43.30801,"lon":5.38145,"is_reserved":false,"is_disabled":false,"rental_uris":{"android":"levelo://app?vid=804f369f-bd6d-4c62-a22b-a4a90eae1ff8","ios":"levelo://app?vid=804f369f-bd6d-4c62-a22b-a4a90eae1ff8"},"vehicle_type_id":"4","last_reported":1776813996,"current_range_meters":9600,"station_id":"ce4bgt12rcd13ifvqce0","pricing_plan_id":"cebpf4jnsgd1na2vs0mg"},{"bike_id":"12d1ddb5-1e2c-4b2d-a0d4-dafdec917212","system_id":"levelo_inurba_marseille","lat":43.28492,"lon":5.48379,"is_reserved":false,"is_disabled":false,"rental_uris":{"android":"levelo://app?vid=12d1ddb5-1e2c-4b2d-a0d4-dafdec917212","ios":"levelo://app?vid=12d1ddb5-1e2c-4b2d-a0d4-dafdec917212"},"vehicle_type_id":"4","last_reported":1776813996,"current_range_meters":9600,"station_id":"","pricing_plan_id":"cebpf4jnsgd1na2vs0mg"},{"bike_id":"b4644b0f-1073-4b3a-a19f-7c587ea906f1","system_id":"levelo_inurba_marseille","lat":43.28698,"lon":5.37402,"is_reserved":false,"is_disabled":false,"rental_uris":{"android":"levelo://app?vid=b4644b0f-1073-4b3a-a19f-7c587ea906f1","ios":"levelo://app?vid=b4644b0f-1073-4b3a-a19f-7c587ea906f1"},"vehicle_type_id":"4","last_reported":1776813996,"current_range_meters":9600,"station_id":"ce4bh3p2rcd13ifvqdq0","pricing_plan_id":"cebpf4jnsgd1na2vs0mg"},{"bike_id":"a17e2b65-add5-4ec0-a652-45d70ab63712","system_id":"levelo_inurba_marseille","lat":43.28608,"lon":5.39875,"is_reserved":false,"is_disabled":false,"rental_uris":{"android":"levelo://app?vid=a17e2b65-add5-4ec0-a652-45d70ab63712","ios":"levelo://app?vid=a17e2b65-add5-4ec0-a652-45d70ab63712"},"vehicle_type_id":"4","last_reported":1776813996,"current_range_meters":9600,"station_id":"st_d4a7ka997mjs738ck50g","pricing_plan_id":"cebpf4jnsgd1na2vs0mg"},{"bike_id":"1fb68eb0-8a8e-46ce-a138-293826eb1114","system_id":"levelo_inurba_marseille","lat":43.29874,"lon":5.38894,"is_reserved":false,"is_disabled":false,"rental_uris":{"android":"levelo://app?vid=1fb68eb0-8a8e-46ce-a138-293826eb1114","ios":"levelo://app?vid=1fb68eb0-8a8e-46ce-a138-293826eb1114"},"vehicle_type_id":"4","last_reported":1776813996,"current_range_meters":9600,"station_id":"ce4bh392rcd13ifvqdl0","pricing_plan_id":"cebpf4jnsgd1na2vs0mg"},{"bike_id":"de8b4211-b96a-446f-90e6-60ae6acf48a7","system_id":"levelo_inurba_marseille","lat":43.2953,"lon":5.37488,"is_reserved":false,"is_disabled":false,"rental_uris":{"android":"levelo://app?vid=de8b4211-b96a-446f-90e6-60ae6acf48a7","ios":"levelo://app?vid=de8b4211-b96a-446f-90e6-60ae6acf48a7"},"vehicle_type_id":"4","last_reported":1776813996,"current_range_meters":9600,"station_id":"ce4bgkp2rcd13ifvqbmg","pricing_plan_id":"cebpf4jnsgd1na2vs0mg"},{"bike_id":"8d0db610-e479-4646-b75a-5fd3835c7f9b","system_id":"levelo_inurba_marseille","lat":43.2407,"lon":5.37715,"is_reserved":false,"is_disabled":false,"rental_uris":{"android":"levelo://app?vid=8d0db610-e479-4646-b75a-5fd3835c7f9b","ios":"levelo://app?vid=8d0db610-e479-4646-b75a-5fd3835c7f9b"},"vehicle_type_id":"4","last_reported":1776813996,"current_range_meters":9600,"station_id":"ce4bhnp2rcd13ifvqgvg","pricing_plan_id":"cebpf4jnsgd1na2vs0mg"},{"bike_id":"17e1d2dd-6a7e-425b-8849-e1db61c1e522","system_id":"levelo_inurba_marseille","lat":43.30139,"lon":5.39865,"is_reserved":false,"is_disabled":false,"rental_uris":{"android":"levelo://app?vid=17e1d2dd-6a7e-425b-8849-e1db61c1e522","ios":"levelo://app?vid=17e1d2dd-6a7e-425b-8849-e1db61c1e522"},"vehicle_type_id":"4","last_reported":1776813996,"current_range_meters":9600,"station_id":"ce4bh0h2rcd13ifvqd40","pricing_plan_id":"cebpf4jnsgd1na2vs0mg"},{"bike_id":"00189a0e-8bac-4d11-85b6-2438ebff76d6","system_id":"levelo_inurba_marseille","lat":43.29427,"lon":5.38408,"is_reserved":false,"is_disabled":false,"rental_uris":{"android":"levelo://app?vid=00189a0e-8bac-4d11-85b6-2438ebff76d6","ios":"levelo://app?vid=00189a0e-8bac-4d11-85b6-2438ebff76d6"},"vehicle_type_id":"4","last_reported":1776813996,"current_range_meters":9600,"station_id":"","pricing_plan_id":"cebpf4jnsgd1na2vs0mg"},{"bike_id":"51583a7b-99cf-4cfd-9e91-7d5213681ad9","system_id":"levelo_inurba_marseille","lat":43.27365,"lon":5.36245,"is_reserved":false,"is_disabled":false,"rental_uris":{"android":"levelo://app?vid=51583a7b-99cf-4cfd-9e91-7d5213681ad9","ios":"levelo://app?vid=51583a7b-99cf-4cfd-9e91-7d5213681ad9"},"vehicle_type_id":"4","last_reported":1776813996,"current_range_meters":9600,"station_id":"ce4bhbh2rcd13ifvqeo0","pricing_plan_id":"cebpf4jnsgd1na2vs0mg"},{"bike_id":"2ac15ea7-1904-4a69-9f5e-f4cb7754354f","system_id":"levelo_inurba_marseille","lat":43.24074,"lon":5.37742,"is_reserved":false,"is_disabled":false,"rental_uris":{"android":"levelo://app?vid=2ac15ea7-1904-4a69-9f5e-f4cb7754354f","ios":"levelo://app?vid=2ac15ea7-1904-4a69-9f5e-f4cb7754354f"},"vehicle_type_id":"4","last_reported":1776813996,"current_range_meters":9600,"station_id":"ce4bhnp2rcd13ifvqgvg","pricing_plan_id":"cebpf4jnsgd1na2vs0mg"},{"bike_id":"15cb8c60-d64e-4c9d-844a-c9a0db8ed60b","system_id":"levelo_inurba_marseille","lat":43.29037,"lon":5.39982,"is_reserved":false,"is_disabled":false,"rental_uris":{"android":"levelo://app?vid=15cb8c60-d64e-4c9d-844a-c9a0db8ed60b","ios":"levelo://app?vid=15cb8c60-d64e-4c9d-844a-c9a0db8ed60b"},"vehicle_type_id":"4","last_reported":1776813996,"current_range_meters":9600,"station_id":"ce4bh392rcd13ifvqdm0","pricing_plan_id":"cebpf4jnsgd1na2vs0mg"},{"bike_id":"abaea4b7-03dc-4096-8d8a-e98114f13e15","system_id":"levelo_inurba_marseille","lat":43.31354,"lon":5.39734,"is_reserved":false,"is_disabled":false,"rental_uris":{"android":"levelo://app?vid=abaea4b7-03dc-4096-8d8a-e98114f13e15","ios":"levelo://app?vid=abaea4b7-03dc-4096-8d8a-e98114f13e15"},"vehicle_type_id":"4","last_reported":1776813996,"current_range_meters":9600,"station_id":"ce4bgvp2rcd13ifvqcu0","pricing_plan_id":"cebpf4jnsgd1na2vs0mg"},{"bike_id":"45d73cc1-e584-4b56-969f-ee1b4cccafcf","system_id":"levelo_inurba_marseille","lat":43.28714,"lon":5.37927,"is_reserved":false,"is_disabled":false,"rental_uris":{"android":"levelo://app?vid=45d73cc1-e584-4b56-969f-ee1b4cccafcf","ios":"levelo://app?vid=45d73cc1-e584-4b56-969f-ee1b4cccafcf"},"vehicle_type_id":"4","last_reported":1776813996,"current_range_meters":9600,"station_id":"ce4bh9p2rcd13ifvqec0","pricing_plan_id":"cebpf4jnsgd1na2vs0mg"},{"bike_id":"61b3aea9-0113-4ac0-b8e1-3dc8d194446c","system_id":"levelo_inurba_marseille","lat":43.30137,"lon":5.43113,"is_reserved":false,"is_disabled":true,"rental_uris":{"android":"levelo://app?vid=61b3aea9-0113-4ac0-b8e1-3dc8d194446c","ios":"levelo://app?vid=61b3aea9-0113-4ac0-b8e1-3dc8d194446c"},"vehicle_type_id":"4","last_reported":1776813996,"current_range_meters":9600,"station_id":"st_d3js3co5814s73ftftug","pricing_plan_id":"cebpf4jnsgd1na2vs0mg"},{"bike_id":"bbd14b3e-d541-4989-9575-2ab20aec177e","system_id":"levelo_inurba_marseille","lat":43.29596,"lon":5.39991,"is_reserved":false,"is_disabled":false,"rental_uris":{"android":"levelo://app?vid=bbd14b3e-d541-4989-9575-2ab20aec177e","ios":"levelo://app?vid=bbd14b3e-d541-4989-9575-2ab20aec177e"},"vehicle_type_id":"4","last_reported":1776813996,"current_range_meters":10000,"station_id":"ce4bh312rcd13ifvqdj0","pricing_plan_id":"cebpf4jnsgd1na2vs0mg"},{"bike_id":"75400a98-acf8-4b08-98c2-025c3347576a","system_id":"levelo_inurba_marseille","lat":43.29432,"lon":5.38641,"is_reserved":false,"is_disabled":false,"rental_uris":{"android":"levelo://app?vid=75400a98-acf8-4b08-98c2-025c3347576a","ios":"levelo://app?vid=75400a98-acf8-4b08-98c2-025c3347576a"},"vehicle_type_id":"4","last_reported":1776813996,"current_range_meters":10000,"station_id":"","pricing_plan_id":"cebpf4jnsgd1na2vs0mg"},{"bike_id":"1a223201-502c-4ebf-b329-9a8b77fd9946","system_id":"levelo_inurba_marseille","lat":43.27937,"lon":5.41036,"is_reserved":false,"is_disabled":false,"rental_uris":{"android":"levelo://app?vid=1a223201-502c-4ebf-b329-9a8b77fd9946","ios":"levelo://app?vid=1a223201-502c-4ebf-b329-9a8b77fd9946"},"vehicle_type_id":"4","last_reported":1776813996,"current_range_meters":10000,"station_id":"ce4bhnp2rcd13ifvqh0g","pricing_plan_id":"cebpf4jnsgd1na2vs0mg"},{"bike_id":"749fd065-9373-4de0-9bcc-225669d1d344","system_id":"levelo_inurba_marseille","lat":43.28659,"lon":5.38677,"is_reserved":false,"is_disabled":false,"rental_uris":{"android":"levelo://app?vid=749fd065-9373-4de0-9bcc-225669d1d344","ios":"levelo://app?vid=749fd065-9373-4de0-9bcc-225669d1d344"},"vehicle_type_id":"4","last_reported":1776813996,"current_range_meters":10000,"station_id":"ce4bh492rcd13ifvqdug","pricing_plan_id":"cebpf4jnsgd1na2vs0mg"},{"bike_id":"ead43bb9-0c84-4d4f-999a-008e04f1ef77","system_id":"levelo_inurba_marseille","lat":43.28101,"lon":5.37823,"is_reserved":false,"is_disabled":false,"rental_uris":{"android":"levelo://app?vid=ead43bb9-0c84-4d4f-999a-008e04f1ef77","ios":"levelo://app?vid=ead43bb9-0c84-4d4f-999a-008e04f1ef77"},"vehicle_type_id":"4","last_reported":1776813996,"current_range_meters":10000,"station_id":"ce4bha12rcd13ifvqee0","pricing_plan_id":"cebpf4jnsgd1na2vs0mg"},{"bike_id":"0ae342eb-a682-4024-97ab-997c93fd978f","system_id":"levelo_inurba_marseille","lat":43.33786,"lon":5.37473,"is_reserved":false,"is_disabled":false,"rental_uris":{"android":"levelo://app?vid=0ae342eb-a682-4024-97ab-997c93fd978f","ios":"levelo://app?vid=0ae342eb-a682-4024-97ab-997c93fd978f"},"vehicle_type_id":"4","last_reported":1776813996,"current_range_meters":10000,"station_id":"","pricing_plan_id":"cebpf4jnsgd1na2vs0mg"},{"bike_id":"a8a860b7-710d-483f-b2ec-9ac43647519f","system_id":"levelo_inurba_marseille","lat":43.29195,"lon":5.39334,"is_reserved":false,"is_disabled":false,"rental_uris":{"android":"levelo://app?vid=a8a860b7-710d-483f-b2ec-9ac43647519f","ios":"levelo://app?vid=a8a860b7-710d-483f-b2ec-9ac43647519f"},"vehicle_type_id":"4","last_reported":1776813996,"current_range_meters":10000,"station_id":"ce4bh192rcd13ifvqdd0","pricing_plan_id":"cebpf4jnsgd1na2vs0mg"},{"bike_id":"226ece2b-87fc-494b-b9b1-29d4f3a23456","system_id":"levelo_inurba_marseille","lat":43.28331,"lon":5.42626,"is_reserved":false,"is_disabled":false,"rental_uris":{"android":"levelo://app?vid=226ece2b-87fc-494b-b9b1-29d4f3a23456","ios":"levelo://app?vid=226ece2b-87fc-494b-b9b1-29d4f3a23456"},"vehicle_type_id":"4","last_reported":1776813996,"current_range_meters":10000,"station_id":"","pricing_plan_id":"cebpf4jnsgd1na2vs0mg"},{"bike_id":"e6d61a2a-62de-433d-87c6-231ac124e529","system_id":"levelo_inurba_marseille","lat":43.27934,"lon":5.41046,"is_reserved":false,"is_disabled":false,"rental_uris":{"android":"levelo://app?vid=e6d61a2a-62de-433d-87c6-231ac124e529","ios":"levelo://app?vid=e6d61a2a-62de-433d-87c6-231ac124e529"},"vehicle_type_id":"4","last_reported":1776813996,"current_range_meters":10000,"station_id":"ce4bhnp2rcd13ifvqh0g","pricing_plan_id":"cebpf4jnsgd1na2vs0mg"},{"bike_id":"f8d46f57-68ae-42a5-9479-ae67d8834276","system_id":"levelo_inurba_marseille","lat":43.29957,"lon":5.37039,"is_reserved":false,"is_disabled":false,"rental_uris":{"android":"levelo://app?vid=f8d46f57-68ae-42a5-9479-ae67d8834276","ios":"levelo://app?vid=f8d46f57-68ae-42a5-9479-ae67d8834276"},"vehicle_type_id":"4","last_reported":1776813996,"current_range_meters":10000,"station_id":"","pricing_plan_id":"cebpf4jnsgd1na2vs0mg"},{"bike_id":"2ff273f4-4a39-408d-a8b4-03c55318b1d8","system_id":"levelo_inurba_marseille","lat":43.31334,"lon":5.39701,"is_reserved":false,"is_disabled":false,"rental_uris":{"android":"levelo://app?vid=2ff273f4-4a39-408d-a8b4-03c55318b1d8","ios":"levelo://app?vid=2ff273f4-4a39-408d-a8b4-03c55318b1d8"},"vehicle_type_id":"4","last_reported":1776813996,"current_range_meters":10000,"station_id":"ce4bgvp2rcd13ifvqcu0","pricing_plan_id":"cebpf4jnsgd1na2vs0mg"},{"bike_id":"2ff3c302-b36c-4dfc-9991-f756408678e7","system_id":"levelo_inurba_marseille","lat":43.24077,"lon":5.37739,"is_reserved":false,"is_disabled":false,"rental_uris":{"android":"levelo://app?vid=2ff3c302-b36c-4dfc-9991-f756408678e7","ios":"levelo://app?vid=2ff3c302-b36c-4dfc-9991-f756408678e7"},"vehicle_type_id":"4","last_reported":1776813996,"current_range_meters":10000,"station_id":"ce4bhnp2rcd13ifvqgvg","pricing_plan_id":"cebpf4jnsgd1na2vs0mg"},{"bike_id":"e10250f5-d5c8-49a8-8044-1905ebcab35b","system_id":"levelo_inurba_marseille","lat":43.28939,"lon":5.366,"is_reserved":false,"is_disabled":false,"rental_uris":{"android":"levelo://app?vid=e10250f5-d5c8-49a8-8044-1905ebcab35b","ios":"levelo://app?vid=e10250f5-d5c8-49a8-8044-1905ebcab35b"},"vehicle_type_id":"4","last_reported":1776813996,"current_range_meters":10000,"station_id":"ce4bhap2rcd13ifvqek0","pricing_plan_id":"cebpf4jnsgd1na2vs0mg"},{"bike_id":"8ddc03f1-8176-41d9-8d8a-426d966b9048","system_id":"levelo_inurba_marseille","lat":43.28847,"lon":5.39306,"is_reserved":false,"is_disabled":false,"rental_uris":{"android":"levelo://app?vid=8ddc03f1-8176-41d9-8d8a-426d966b9048","ios":"levelo://app?vid=8ddc03f1-8176-41d9-8d8a-426d966b9048"},"vehicle_type_id":"4","last_reported":1776813996,"current_range_meters":10000,"station_id":"ce4bh2p2rcd13ifvqdi0","pricing_plan_id":"cebpf4jnsgd1na2vs0mg"},{"bike_id":"ca93aefe-600b-4043-b58d-c63df0f755ac","system_id":"levelo_inurba_marseille","lat":43.27816,"lon":5.40709,"is_reserved":false,"is_disabled":false,"rental_uris":{"android":"levelo://app?vid=ca93aefe-600b-4043-b58d-c63df0f755ac","ios":"levelo://app?vid=ca93aefe-600b-4043-b58d-c63df0f755ac"},"vehicle_type_id":"4","last_reported":1776813996,"current_range_meters":10000,"station_id":"ce4bhnh2rcd13ifvqgtg","pricing_plan_id":"cebpf4jnsgd1na2vs0mg"},{"bike_id":"6ee75b1e-3389-452c-805f-052a7231f6b2","system_id":"levelo_inurba_marseille","lat":43.28854,"lon":5.42506,"is_reserved":false,"is_disabled":false,"rental_uris":{"android":"levelo://app?vid=6ee75b1e-3389-452c-805f-052a7231f6b2","ios":"levelo://app?vid=6ee75b1e-3389-452c-805f-052a7231f6b2"},"vehicle_type_id":"4","last_reported":1776813996,"current_range_meters":10800,"station_id":"st_d3b462108ojc7389ooeg","pricing_plan_id":"cebpf4jnsgd1na2vs0mg"},{"bike_id":"56005969-516b-45e9-94ab-45386423ddc0","system_id":"levelo_inurba_marseille","lat":43.29537,"lon":5.3904,"is_reserved":false,"is_disabled":false,"rental_uris":{"android":"levelo://app?vid=56005969-516b-45e9-94ab-45386423ddc0","ios":"levelo://app?vid=56005969-516b-45e9-94ab-45386423ddc0"},"vehicle_type_id":"4","last_reported":1776813996,"current_range_meters":10800,"station_id":"ce4bh3p2rcd13ifvqdp0","pricing_plan_id":"cebpf4jnsgd1na2vs0mg"},{"bike_id":"09012acd-7e2a-4e46-b00e-3df38d87fafc","system_id":"levelo_inurba_marseille","lat":43.24871,"lon":5.40649,"is_reserved":false,"is_disabled":false,"rental_uris":{"android":"levelo://app?vid=09012acd-7e2a-4e46-b00e-3df38d87fafc","ios":"levelo://app?vid=09012acd-7e2a-4e46-b00e-3df38d87fafc"},"vehicle_type_id":"4","last_reported":1776813996,"current_range_meters":10800,"station_id":"","pricing_plan_id":"cebpf4jnsgd1na2vs0mg"},{"bike_id":"f073afee-cba8-40f3-8cbe-a4d3aba602f4","system_id":"levelo_inurba_marseille","lat":43.28279,"lon":5.35051,"is_reserved":false,"is_disabled":true,"rental_uris":{"android":"levelo://app?vid=f073afee-cba8-40f3-8cbe-a4d3aba602f4","ios":"levelo://app?vid=f073afee-cba8-40f3-8cbe-a4d3aba602f4"},"vehicle_type_id":"4","last_reported":1776813996,"current_range_meters":10800,"station_id":"ce4bhbp2rcd13ifvqerg","pricing_plan_id":"cebpf4jnsgd1na2vs0mg"},{"bike_id":"16f7fe35-694a-4eb9-9cc6-4679694d07e2","system_id":"levelo_inurba_marseille","lat":43.31249,"lon":5.37903,"is_reserved":false,"is_disabled":false,"rental_uris":{"android":"levelo://app?vid=16f7fe35-694a-4eb9-9cc6-4679694d07e2","ios":"levelo://app?vid=16f7fe35-694a-4eb9-9cc6-4679694d07e2"},"vehicle_type_id":"4","last_reported":1776813996,"current_range_meters":10800,"station_id":"","pricing_plan_id":"cebpf4jnsgd1na2vs0mg"},{"bike_id":"32fd39c8-747f-4e51-ab12-cdc3c3974430","system_id":"levelo_inurba_marseille","lat":43.27919,"lon":5.39567,"is_reserved":false,"is_disabled":false,"rental_uris":{"android":"levelo://app?vid=32fd39c8-747f-4e51-ab12-cdc3c3974430","ios":"levelo://app?vid=32fd39c8-747f-4e51-ab12-cdc3c3974430"},"vehicle_type_id":"4","last_reported":1776813996,"current_range_meters":10800,"station_id":"ce4bhf92rcd13ifvqf40","pricing_plan_id":"cebpf4jnsgd1na2vs0mg"},{"bike_id":"6fdaa5ee-d3a7-40da-ac34-7525c9f17159","system_id":"levelo_inurba_marseille","lat":43.28079,"lon":5.39671,"is_reserved":false,"is_disabled":false,"rental_uris":{"android":"levelo://app?vid=6fdaa5ee-d3a7-40da-ac34-7525c9f17159","ios":"levelo://app?vid=6fdaa5ee-d3a7-40da-ac34-7525c9f17159"},"vehicle_type_id":"4","last_reported":1776813996,"current_range_meters":10800,"station_id":"ce4bho12rcd13ifvqh2g","pricing_plan_id":"cebpf4jnsgd1na2vs0mg"},{"bike_id":"1c21b5e4-18ba-4d77-b990-0019b8294ddb","system_id":"levelo_inurba_marseille","lat":43.26548,"lon":5.39661,"is_reserved":false,"is_disabled":false,"rental_uris":{"android":"levelo://app?vid=1c21b5e4-18ba-4d77-b990-0019b8294ddb","ios":"levelo://app?vid=1c21b5e4-18ba-4d77-b990-0019b8294ddb"},"vehicle_type_id":"4","last_reported":1776813996,"current_range_meters":10800,"station_id":"","pricing_plan_id":"cebpf4jnsgd1na2vs0mg"},{"bike_id":"6b23908a-27fc-400a-b1b6-9daa8d6ab014","system_id":"levelo_inurba_marseille","lat":43.33707,"lon":5.39819,"is_reserved":false,"is_disabled":false,"rental_uris":{"android":"levelo://app?vid=6b23908a-27fc-400a-b1b6-9daa8d6ab014","ios":"levelo://app?vid=6b23908a-27fc-400a-b1b6-9daa8d6ab014"},"vehicle_type_id":"4","last_reported":1776813996,"current_range_meters":10800,"station_id":"","pricing_plan_id":"cebpf4jnsgd1na2vs0mg"},{"bike_id":"7af19307-88ba-4f26-8f95-a2adf190dff7","system_id":"levelo_inurba_marseille","lat":43.30432,"lon":5.40119,"is_reserved":false,"is_disabled":false,"rental_uris":{"android":"levelo://app?vid=7af19307-88ba-4f26-8f95-a2adf190dff7","ios":"levelo://app?vid=7af19307-88ba-4f26-8f95-a2adf190dff7"},"vehicle_type_id":"4","last_reported":1776813996,"current_range_meters":10800,"station_id":"","pricing_plan_id":"cebpf4jnsgd1na2vs0mg"},{"bike_id":"399d7476-1eef-4c82-bbe4-4bc1e6acf66b","system_id":"levelo_inurba_marseille","lat":43.29885,"lon":5.38915,"is_reserved":false,"is_disabled":false,"rental_uris":{"android":"levelo://app?vid=399d7476-1eef-4c82-bbe4-4bc1e6acf66b","ios":"levelo://app?vid=399d7476-1eef-4c82-bbe4-4bc1e6acf66b"},"vehicle_type_id":"4","last_reported":1776813996,"current_range_meters":10800,"station_id":"ce4bh392rcd13ifvqdl0","pricing_plan_id":"cebpf4jnsgd1na2vs0mg"},{"bike_id":"50d76166-577c-497b-b415-86f2a10acc71","system_id":"levelo_inurba_marseille","lat":43.2904,"lon":5.39946,"is_reserved":false,"is_disabled":false,"rental_uris":{"android":"levelo://app?vid=50d76166-577c-497b-b415-86f2a10acc71","ios":"levelo://app?vid=50d76166-577c-497b-b415-86f2a10acc71"},"vehicle_type_id":"4","last_reported":1776813996,"current_range_meters":10800,"station_id":"ce4bh392rcd13ifvqdm0","pricing_plan_id":"cebpf4jnsgd1na2vs0mg"},{"bike_id":"7c2d4cbd-4710-4158-8d5e-3ef9174bf26f","system_id":"levelo_inurba_marseille","lat":43.28136,"lon":5.42304,"is_reserved":false,"is_disabled":true,"rental_uris":{"android":"levelo://app?vid=7c2d4cbd-4710-4158-8d5e-3ef9174bf26f","ios":"levelo://app?vid=7c2d4cbd-4710-4158-8d5e-3ef9174bf26f"},"vehicle_type_id":"4","last_reported":1776813996,"current_range_meters":10800,"station_id":"","pricing_plan_id":"cebpf4jnsgd1na2vs0mg"},{"bike_id":"25931435-472d-4946-9b9a-fc67e50f018d","system_id":"levelo_inurba_marseille","lat":43.2303,"lon":5.44483,"is_reserved":false,"is_disabled":false,"rental_uris":{"android":"levelo://app?vid=25931435-472d-4946-9b9a-fc67e50f018d","ios":"levelo://app?vid=25931435-472d-4946-9b9a-fc67e50f018d"},"vehicle_type_id":"4","last_reported":1776813996,"current_range_meters":10800,"station_id":"","pricing_plan_id":"cebpf4jnsgd1na2vs0mg"},{"bike_id":"caf23837-f4d1-404d-babe-930229a0234b","system_id":"levelo_inurba_marseille","lat":43.29525,"lon":5.38535,"is_reserved":false,"is_disabled":false,"rental_uris":{"android":"levelo://app?vid=caf23837-f4d1-404d-babe-930229a0234b","ios":"levelo://app?vid=caf23837-f4d1-404d-babe-930229a0234b"},"vehicle_type_id":"4","last_reported":1776813996,"current_range_meters":10800,"station_id":"ce4bgih2rcd13ifvqba0","pricing_plan_id":"cebpf4jnsgd1na2vs0mg"},{"bike_id":"69c3fb01-2ae4-4d0b-86dc-5366fcc8dfd5","system_id":"levelo_inurba_marseille","lat":43.26204,"lon":5.37481,"is_reserved":false,"is_disabled":false,"rental_uris":{"android":"levelo://app?vid=69c3fb01-2ae4-4d0b-86dc-5366fcc8dfd5","ios":"levelo://app?vid=69c3fb01-2ae4-4d0b-86dc-5366fcc8dfd5"},"vehicle_type_id":"4","last_reported":1776813996,"current_range_meters":11200,"station_id":"ce4bhgp2rcd13ifvqfc0","pricing_plan_id":"cebpf4jnsgd1na2vs0mg"},{"bike_id":"6f061c2d-e294-44c5-a556-1fdc3d57ab50","system_id":"levelo_inurba_marseille","lat":43.31668,"lon":5.40469,"is_reserved":false,"is_disabled":false,"rental_uris":{"android":"levelo://app?vid=6f061c2d-e294-44c5-a556-1fdc3d57ab50","ios":"levelo://app?vid=6f061c2d-e294-44c5-a556-1fdc3d57ab50"},"vehicle_type_id":"4","last_reported":1776813996,"current_range_meters":11200,"station_id":"ce4bh012rcd13ifvqd00","pricing_plan_id":"cebpf4jnsgd1na2vs0mg"},{"bike_id":"3f50794c-c430-4b89-94ad-5c0aa9eea65c","system_id":"levelo_inurba_marseille","lat":43.27811,"lon":5.40731,"is_reserved":false,"is_disabled":true,"rental_uris":{"android":"levelo://app?vid=3f50794c-c430-4b89-94ad-5c0aa9eea65c","ios":"levelo://app?vid=3f50794c-c430-4b89-94ad-5c0aa9eea65c"},