{"last_updated":1753191119,"ttl":60,"version":"2.2","data":{"bikes":[{"bike_id":"204f2d8f-1166-4a03-ae0d-3300757245a1","system_id":"levelo_inurba_marseille","lat":43.28667,"lon":5.38665,"is_reserved":false,"is_disabled":true,"rental_uris":{"android":"levelo://app?vid=204f2d8f-1166-4a03-ae0d-3300757245a1","ios":"levelo://app?vid=204f2d8f-1166-4a03-ae0d-3300757245a1"},"vehicle_type_id":"4","last_reported":1753191120,"current_range_meters":2800,"station_id":"ce4bh492rcd13ifvqdug","pricing_plan_id":"cebpf4jnsgd1na2vs0mg"},{"bike_id":"5d912c0a-b390-474c-a176-21ce79a555df","system_id":"levelo_inurba_marseille","lat":43.325427,"lon":5.414244,"is_reserved":false,"is_disabled":false,"rental_uris":{"android":"levelo://app?vid=5d912c0a-b390-474c-a176-21ce79a555df","ios":"levelo://app?vid=5d912c0a-b390-474c-a176-21ce79a555df"},"vehicle_type_id":"4","last_reported":1753191120,"current_range_meters":2800,"station_id":"ce4bhq12rcd13ifvqhhg","pricing_plan_id":"cebpf4jnsgd1na2vs0mg"},{"bike_id":"2d14f003-b7aa-43d4-a9fc-63b26b2cedf9","system_id":"levelo_inurba_marseille","lat":43.29497,"lon":5.38183,"is_reserved":false,"is_disabled":false,"rental_uris":{"android":"levelo://app?vid=2d14f003-b7aa-43d4-a9fc-63b26b2cedf9","ios":"levelo://app?vid=2d14f003-b7aa-43d4-a9fc-63b26b2cedf9"},"vehicle_type_id":"4","last_reported":1753191120,"current_range_meters":3200,"station_id":"","pricing_plan_id":"cebpf4jnsgd1na2vs0mg"},{"bike_id":"0ae1790c-0bcf-4de5-9ee3-ba1736a2aade","system_id":"levelo_inurba_marseille","lat":43.30191,"lon":5.36638,"is_reserved":false,"is_disabled":false,"rental_uris":{"android":"levelo://app?vid=0ae1790c-0bcf-4de5-9ee3-ba1736a2aade","ios":"levelo://app?vid=0ae1790c-0bcf-4de5-9ee3-ba1736a2aade"},"vehicle_type_id":"4","last_reported":1753191120,"current_range_meters":3600,"station_id":"ce4bgrh2rcd13ifvqc8g","pricing_plan_id":"cebpf4jnsgd1na2vs0mg"},{"bike_id":"b9e0a374-8267-4872-bde6-cca5d6cb6a59","system_id":"levelo_inurba_marseille","lat":43.27894,"lon":5.39541,"is_reserved":false,"is_disabled":false,"rental_uris":{"android":"levelo://app?vid=b9e0a374-8267-4872-bde6-cca5d6cb6a59","ios":"levelo://app?vid=b9e0a374-8267-4872-bde6-cca5d6cb6a59"},"vehicle_type_id":"4","last_reported":1753191120,"current_range_meters":4000,"station_id":"ce4bhf92rcd13ifvqf40","pricing_plan_id":"cebpf4jnsgd1na2vs0mg"},{"bike_id":"e6e780c5-7d0f-48d5-8489-21f23fd407d9","system_id":"levelo_inurba_marseille","lat":43.28273,"lon":5.35078,"is_reserved":false,"is_disabled":false,"rental_uris":{"android":"levelo://app?vid=e6e780c5-7d0f-48d5-8489-21f23fd407d9","ios":"levelo://app?vid=e6e780c5-7d0f-48d5-8489-21f23fd407d9"},"vehicle_type_id":"4","last_reported":1753191120,"current_range_meters":4000,"station_id":"ce4bhbp2rcd13ifvqerg","pricing_plan_id":"cebpf4jnsgd1na2vs0mg"},{"bike_id":"b2139df1-329e-4f13-8bfa-f8bb2628a9c5","system_id":"levelo_inurba_marseille","lat":43.30559,"lon":5.36554,"is_reserved":false,"is_disabled":false,"rental_uris":{"android":"levelo://app?vid=b2139df1-329e-4f13-8bfa-f8bb2628a9c5","ios":"levelo://app?vid=b2139df1-329e-4f13-8bfa-f8bb2628a9c5"},"vehicle_type_id":"4","last_reported":1753191120,"current_range_meters":4000,"station_id":"ce4bgs12rcd13ifvqcag","pricing_plan_id":"cebpf4jnsgd1na2vs0mg"},{"bike_id":"ea06b397-ee01-475e-9f34-8fccd6129e23","system_id":"levelo_inurba_marseille","lat":43.32478,"lon":5.36568,"is_reserved":false,"is_disabled":false,"rental_uris":{"android":"levelo://app?vid=ea06b397-ee01-475e-9f34-8fccd6129e23","ios":"levelo://app?vid=ea06b397-ee01-475e-9f34-8fccd6129e23"},"vehicle_type_id":"4","last_reported":1753191120,"current_range_meters":4400,"station_id":"ce4bhs12rcd13ifvqhvg","pricing_plan_id":"cebpf4jnsgd1na2vs0mg"},{"bike_id":"f4ac9e74-1f07-4e4c-a794-15e2c3ac20c4","system_id":"levelo_inurba_marseille","lat":43.29004,"lon":5.35611,"is_reserved":false,"is_disabled":false,"rental_uris":{"android":"levelo://app?vid=f4ac9e74-1f07-4e4c-a794-15e2c3ac20c4","ios":"levelo://app?vid=f4ac9e74-1f07-4e4c-a794-15e2c3ac20c4"},"vehicle_type_id":"4","last_reported":1753191120,"current_range_meters":4400,"station_id":"ce4bhb92rcd13ifvqen0","pricing_plan_id":"cebpf4jnsgd1na2vs0mg"},{"bike_id":"b28cde98-05d6-4149-94a0-06892de39085","system_id":"levelo_inurba_marseille","lat":43.24384,"lon":5.37061,"is_reserved":false,"is_disabled":false,"rental_uris":{"android":"levelo://app?vid=b28cde98-05d6-4149-94a0-06892de39085","ios":"levelo://app?vid=b28cde98-05d6-4149-94a0-06892de39085"},"vehicle_type_id":"4","last_reported":1753191120,"current_range_meters":4800,"station_id":"ce4bhhh2rcd13ifvqfk0","pricing_plan_id":"cebpf4jnsgd1na2vs0mg"},{"bike_id":"cc0c6ea3-51ce-4bc9-88a6-97875c14bc4a","system_id":"levelo_inurba_marseille","lat":43.27317,"lon":5.39094,"is_reserved":false,"is_disabled":false,"rental_uris":{"android":"levelo://app?vid=cc0c6ea3-51ce-4bc9-88a6-97875c14bc4a","ios":"levelo://app?vid=cc0c6ea3-51ce-4bc9-88a6-97875c14bc4a"},"vehicle_type_id":"4","last_reported":1753191120,"current_range_meters":4800,"station_id":"ce4bhgp2rcd13ifvqfe0","pricing_plan_id":"cebpf4jnsgd1na2vs0mg"},{"bike_id":"40ab6640-1384-4179-a033-47aa3b2e08ae","system_id":"levelo_inurba_marseille","lat":43.22931,"lon":5.35376,"is_reserved":false,"is_disabled":false,"rental_uris":{"android":"levelo://app?vid=40ab6640-1384-4179-a033-47aa3b2e08ae","ios":"levelo://app?vid=40ab6640-1384-4179-a033-47aa3b2e08ae"},"vehicle_type_id":"4","last_reported":1753191120,"current_range_meters":5600,"station_id":"cpo3532slgdg3j2ikp40","pricing_plan_id":"cebpf4jnsgd1na2vs0mg"},{"bike_id":"db5e97ae-5240-4ee3-b4a0-c34410eb11e1","system_id":"levelo_inurba_marseille","lat":43.28422,"lon":5.34982,"is_reserved":false,"is_disabled":false,"rental_uris":{"android":"levelo://app?vid=db5e97ae-5240-4ee3-b4a0-c34410eb11e1","ios":"levelo://app?vid=db5e97ae-5240-4ee3-b4a0-c34410eb11e1"},"vehicle_type_id":"4","last_reported":1753191120,"current_range_meters":5600,"station_id":"ce4bhbh2rcd13ifvqepg","pricing_plan_id":"cebpf4jnsgd1na2vs0mg"},{"bike_id":"c992cf84-43bb-4b6b-be22-8a31e438131c","system_id":"levelo_inurba_marseille","lat":43.29928,"lon":5.37474,"is_reserved":false,"is_disabled":false,"rental_uris":{"android":"levelo://app?vid=c992cf84-43bb-4b6b-be22-8a31e438131c","ios":"levelo://app?vid=c992cf84-43bb-4b6b-be22-8a31e438131c"},"vehicle_type_id":"4","last_reported":1753191120,"current_range_meters":5600,"station_id":"ce4bgjh2rcd13ifvqbg0","pricing_plan_id":"cebpf4jnsgd1na2vs0mg"},{"bike_id":"7f4c4775-f5ca-42dc-8077-3fdb7b4ed832","system_id":"levelo_inurba_marseille","lat":43.28078,"lon":5.39656,"is_reserved":false,"is_disabled":false,"rental_uris":{"android":"levelo://app?vid=7f4c4775-f5ca-42dc-8077-3fdb7b4ed832","ios":"levelo://app?vid=7f4c4775-f5ca-42dc-8077-3fdb7b4ed832"},"vehicle_type_id":"4","last_reported":1753191120,"current_range_meters":5600,"station_id":"ce4bho12rcd13ifvqh2g","pricing_plan_id":"cebpf4jnsgd1na2vs0mg"},{"bike_id":"01a5bb85-57db-487c-a0cf-495072e15836","system_id":"levelo_inurba_marseille","lat":43.27803,"lon":5.35505,"is_reserved":false,"is_disabled":false,"rental_uris":{"android":"levelo://app?vid=01a5bb85-57db-487c-a0cf-495072e15836","ios":"levelo://app?vid=01a5bb85-57db-487c-a0cf-495072e15836"},"vehicle_type_id":"4","last_reported":1753191120,"current_range_meters":6400,"station_id":"","pricing_plan_id":"cebpf4jnsgd1na2vs0mg"},{"bike_id":"8f563301-fabb-4933-a4f7-3348a3b2d6eb","system_id":"levelo_inurba_marseille","lat":43.29896,"lon":5.38894,"is_reserved":false,"is_disabled":false,"rental_uris":{"android":"levelo://app?vid=8f563301-fabb-4933-a4f7-3348a3b2d6eb","ios":"levelo://app?vid=8f563301-fabb-4933-a4f7-3348a3b2d6eb"},"vehicle_type_id":"4","last_reported":1753191120,"current_range_meters":6400,"station_id":"ce4bh392rcd13ifvqdl0","pricing_plan_id":"cebpf4jnsgd1na2vs0mg"},{"bike_id":"31aad2e1-7f75-4c37-aeca-52c27cb5c570","system_id":"levelo_inurba_marseille","lat":43.29005,"lon":5.3561,"is_reserved":false,"is_disabled":false,"rental_uris":{"android":"levelo://app?vid=31aad2e1-7f75-4c37-aeca-52c27cb5c570","ios":"levelo://app?vid=31aad2e1-7f75-4c37-aeca-52c27cb5c570"},"vehicle_type_id":"4","last_reported":1753191120,"current_range_meters":6400,"station_id":"ce4bhb92rcd13ifvqen0","pricing_plan_id":"cebpf4jnsgd1na2vs0mg"},{"bike_id":"156fada3-8f50-42c4-b98a-697c8a665587","system_id":"levelo_inurba_marseille","lat":43.30306,"lon":5.39216,"is_reserved":false,"is_disabled":false,"rental_uris":{"android":"levelo://app?vid=156fada3-8f50-42c4-b98a-697c8a665587","ios":"levelo://app?vid=156fada3-8f50-42c4-b98a-697c8a665587"},"vehicle_type_id":"4","last_reported":1753191120,"current_range_meters":6400,"station_id":"ce4bgkh2rcd13ifvqbk0","pricing_plan_id":"cebpf4jnsgd1na2vs0mg"},{"bike_id":"5c7f1d67-8c51-478a-9b07-33a8b867e766","system_id":"levelo_inurba_marseille","lat":43.29278,"lon":5.36848,"is_reserved":false,"is_disabled":false,"rental_uris":{"android":"levelo://app?vid=5c7f1d67-8c51-478a-9b07-33a8b867e766","ios":"levelo://app?vid=5c7f1d67-8c51-478a-9b07-33a8b867e766"},"vehicle_type_id":"4","last_reported":1753191120,"current_range_meters":6800,"station_id":"ce4bhbp2rcd13ifvqesg","pricing_plan_id":"cebpf4jnsgd1na2vs0mg"},{"bike_id":"62f65094-199b-42be-9049-433514eb6ea3","system_id":"levelo_inurba_marseille","lat":43.298706,"lon":5.397715,"is_reserved":false,"is_disabled":false,"rental_uris":{"android":"levelo://app?vid=62f65094-199b-42be-9049-433514eb6ea3","ios":"levelo://app?vid=62f65094-199b-42be-9049-433514eb6ea3"},"vehicle_type_id":"4","last_reported":1753191120,"current_range_meters":7200,"station_id":"ce4bh0h2rcd13ifvqd50","pricing_plan_id":"cebpf4jnsgd1na2vs0mg"},{"bike_id":"6ee53aba-c2b9-484d-a273-1d33bfa53908","system_id":"levelo_inurba_marseille","lat":43.24169,"lon":5.36392,"is_reserved":false,"is_disabled":false,"rental_uris":{"android":"levelo://app?vid=6ee53aba-c2b9-484d-a273-1d33bfa53908","ios":"levelo://app?vid=6ee53aba-c2b9-484d-a273-1d33bfa53908"},"vehicle_type_id":"4","last_reported":1753191120,"current_range_meters":7200,"station_id":"cpo36qri1sfpv3e86is0","pricing_plan_id":"cebpf4jnsgd1na2vs0mg"},{"bike_id":"44d9072b-c09e-4820-a1c3-8417b7e1074f","system_id":"levelo_inurba_marseille","lat":43.31352,"lon":5.36721,"is_reserved":false,"is_disabled":false,"rental_uris":{"android":"levelo://app?vid=44d9072b-c09e-4820-a1c3-8417b7e1074f","ios":"levelo://app?vid=44d9072b-c09e-4820-a1c3-8417b7e1074f"},"vehicle_type_id":"4","last_reported":1753191120,"current_range_meters":8000,"station_id":"ce4bgr92rcd13ifvqc6g","pricing_plan_id":"cebpf4jnsgd1na2vs0mg"},{"bike_id":"f86a0b86-dc62-40b5-b913-638cffe31bda","system_id":"levelo_inurba_marseille","lat":43.27566,"lon":5.38415,"is_reserved":false,"is_disabled":false,"rental_uris":{"android":"levelo://app?vid=f86a0b86-dc62-40b5-b913-638cffe31bda","ios":"levelo://app?vid=f86a0b86-dc62-40b5-b913-638cffe31bda"},"vehicle_type_id":"4","last_reported":1753191120,"current_range_meters":8000,"station_id":"ce4bhh92rcd13ifvqfi0","pricing_plan_id":"cebpf4jnsgd1na2vs0mg"},{"bike_id":"5e053b41-f6f9-44b0-89e5-409a84d58a0e","system_id":"levelo_inurba_marseille","lat":43.30889,"lon":5.39654,"is_reserved":false,"is_disabled":false,"rental_uris":{"android":"levelo://app?vid=5e053b41-f6f9-44b0-89e5-409a84d58a0e","ios":"levelo://app?vid=5e053b41-f6f9-44b0-89e5-409a84d58a0e"},"vehicle_type_id":"4","last_reported":1753191120,"current_range_meters":8000,"station_id":"ce4bh012rcd13ifvqcv0","pricing_plan_id":"cebpf4jnsgd1na2vs0mg"},{"bike_id":"ce527fb8-fb7c-4fda-b938-997103013bb4","system_id":"levelo_inurba_marseille","lat":43.28445,"lon":5.39211,"is_reserved":false,"is_disabled":false,"rental_uris":{"android":"levelo://app?vid=ce527fb8-fb7c-4fda-b938-997103013bb4","ios":"levelo://app?vid=ce527fb8-fb7c-4fda-b938-997103013bb4"},"vehicle_type_id":"4","last_reported":1753191120,"current_range_meters":8400,"station_id":"ce4bhoh2rcd13ifvqh5g","pricing_plan_id":"cebpf4jnsgd1na2vs0mg"},{"bike_id":"9e7340c7-b615-449a-9624-1c51507c1782","system_id":"levelo_inurba_marseille","lat":43.31712,"lon":5.43703,"is_reserved":false,"is_disabled":false,"rental_uris":{"android":"levelo://app?vid=9e7340c7-b615-449a-9624-1c51507c1782","ios":"levelo://app?vid=9e7340c7-b615-449a-9624-1c51507c1782"},"vehicle_type_id":"4","last_reported":1753191120,"current_range_meters":8400,"station_id":"ce4bhp92rcd13ifvqhcg","pricing_plan_id":"cebpf4jnsgd1na2vs0mg"},{"bike_id":"d220a544-aabc-4664-8a36-ccde4b4356ec","system_id":"levelo_inurba_marseille","lat":43.30896,"lon":5.39698,"is_reserved":false,"is_disabled":false,"rental_uris":{"android":"levelo://app?vid=d220a544-aabc-4664-8a36-ccde4b4356ec","ios":"levelo://app?vid=d220a544-aabc-4664-8a36-ccde4b4356ec"},"vehicle_type_id":"4","last_reported":1753191120,"current_range_meters":8400,"station_id":"ce4bh012rcd13ifvqcv0","pricing_plan_id":"cebpf4jnsgd1na2vs0mg"},{"bike_id":"68420be3-8432-4c62-b406-d0e2bffb228c","system_id":"levelo_inurba_marseille","lat":43.2439,"lon":5.37063,"is_reserved":false,"is_disabled":false,"rental_uris":{"android":"levelo://app?vid=68420be3-8432-4c62-b406-d0e2bffb228c","ios":"levelo://app?vid=68420be3-8432-4c62-b406-d0e2bffb228c"},"vehicle_type_id":"4","last_reported":1753191120,"current_range_meters":8800,"station_id":"ce4bhhh2rcd13ifvqfk0","pricing_plan_id":"cebpf4jnsgd1na2vs0mg"},{"bike_id":"de85b0e9-dc2e-4921-9c63-ae6905002744","system_id":"levelo_inurba_marseille","lat":43.30599,"lon":5.37223,"is_reserved":false,"is_disabled":false,"rental_uris":{"android":"levelo://app?vid=de85b0e9-dc2e-4921-9c63-ae6905002744","ios":"levelo://app?vid=de85b0e9-dc2e-4921-9c63-ae6905002744"},"vehicle_type_id":"4","last_reported":1753191120,"current_range_meters":8800,"station_id":"ce4bgqh2rcd13ifvqc4g","pricing_plan_id":"cebpf4jnsgd1na2vs0mg"},{"bike_id":"4c768557-8dc7-4752-b71e-bbd0e28698a8","system_id":"levelo_inurba_marseille","lat":43.29425,"lon":5.43226,"is_reserved":false,"is_disabled":false,"rental_uris":{"android":"levelo://app?vid=4c768557-8dc7-4752-b71e-bbd0e28698a8","ios":"levelo://app?vid=4c768557-8dc7-4752-b71e-bbd0e28698a8"},"vehicle_type_id":"4","last_reported":1753191120,"current_range_meters":8800,"station_id":"","pricing_plan_id":"cebpf4jnsgd1na2vs0mg"},{"bike_id":"b3040dad-29a1-4e2f-9174-11c500ccc5bb","system_id":"levelo_inurba_marseille","lat":43.29001,"lon":5.35614,"is_reserved":false,"is_disabled":false,"rental_uris":{"android":"levelo://app?vid=b3040dad-29a1-4e2f-9174-11c500ccc5bb","ios":"levelo://app?vid=b3040dad-29a1-4e2f-9174-11c500ccc5bb"},"vehicle_type_id":"4","last_reported":1753191120,"current_range_meters":8800,"station_id":"ce4bhb92rcd13ifvqen0","pricing_plan_id":"cebpf4jnsgd1na2vs0mg"},{"bike_id":"42413a25-16d1-4419-b44a-45580e0c6ac6","system_id":"levelo_inurba_marseille","lat":43.282171,"lon":5.395775,"is_reserved":false,"is_disabled":false,"rental_uris":{"android":"levelo://app?vid=42413a25-16d1-4419-b44a-45580e0c6ac6","ios":"levelo://app?vid=42413a25-16d1-4419-b44a-45580e0c6ac6"},"vehicle_type_id":"4","last_reported":1753191120,"current_range_meters":9200,"station_id":"","pricing_plan_id":"cebpf4jnsgd1na2vs0mg"},{"bike_id":"88c0ed9e-7133-4f62-aa03-4407e3183933","system_id":"levelo_inurba_marseille","lat":43.313498,"lon":5.367146,"is_reserved":false,"is_disabled":false,"rental_uris":{"android":"levelo://app?vid=88c0ed9e-7133-4f62-aa03-4407e3183933","ios":"levelo://app?vid=88c0ed9e-7133-4f62-aa03-4407e3183933"},"vehicle_type_id":"4","last_reported":1753191120,"current_range_meters":9200,"station_id":"","pricing_plan_id":"cebpf4jnsgd1na2vs0mg"},{"bike_id":"eaed48ae-69b6-4560-90ca-ccb9f7c216bf","system_id":"levelo_inurba_marseille","lat":43.32,"lon":5.38164,"is_reserved":false,"is_disabled":false,"rental_uris":{"android":"levelo://app?vid=eaed48ae-69b6-4560-90ca-ccb9f7c216bf","ios":"levelo://app?vid=eaed48ae-69b6-4560-90ca-ccb9f7c216bf"},"vehicle_type_id":"4","last_reported":1753191120,"current_range_meters":9200,"station_id":"ce4bhr12rcd13ifvqhpg","pricing_plan_id":"cebpf4jnsgd1na2vs0mg"},{"bike_id":"39772d83-ed7f-4238-befb-f48acb41a4e1","system_id":"levelo_inurba_marseille","lat":43.22814,"lon":5.3498,"is_reserved":false,"is_disabled":false,"rental_uris":{"android":"levelo://app?vid=39772d83-ed7f-4238-befb-f48acb41a4e1","ios":"levelo://app?vid=39772d83-ed7f-4238-befb-f48acb41a4e1"},"vehicle_type_id":"4","last_reported":1753191120,"current_range_meters":9200,"station_id":"","pricing_plan_id":"cebpf4jnsgd1na2vs0mg"},{"bike_id":"7c469e45-a214-4120-a722-305fe7d28e0b","system_id":"levelo_inurba_marseille","lat":43.27614,"lon":5.36094,"is_reserved":false,"is_disabled":false,"rental_uris":{"android":"levelo://app?vid=7c469e45-a214-4120-a722-305fe7d28e0b","ios":"levelo://app?vid=7c469e45-a214-4120-a722-305fe7d28e0b"},"vehicle_type_id":"4","last_reported":1753191120,"current_range_meters":9200,"station_id":"ce4bgj92rcd13ifvqbe0","pricing_plan_id":"cebpf4jnsgd1na2vs0mg"},{"bike_id":"6f0bcb77-dee8-40ab-812c-ed403c52a0df","system_id":"levelo_inurba_marseille","lat":43.317002,"lon":5.376701,"is_reserved":false,"is_disabled":false,"rental_uris":{"android":"levelo://app?vid=6f0bcb77-dee8-40ab-812c-ed403c52a0df","ios":"levelo://app?vid=6f0bcb77-dee8-40ab-812c-ed403c52a0df"},"vehicle_type_id":"4","last_reported":1753191120,"current_range_meters":9200,"station_id":"","pricing_plan_id":"cebpf4jnsgd1na2vs0mg"},{"bike_id":"3c3e19b6-8d7f-4830-88d3-aca5ef5249db","system_id":"levelo_inurba_marseille","lat":43.304598,"lon":5.379015,"is_reserved":false,"is_disabled":false,"rental_uris":{"android":"levelo://app?vid=3c3e19b6-8d7f-4830-88d3-aca5ef5249db","ios":"levelo://app?vid=3c3e19b6-8d7f-4830-88d3-aca5ef5249db"},"vehicle_type_id":"4","last_reported":1753191120,"current_range_meters":9600,"station_id":"ce4bgup2rcd13ifvqcn0","pricing_plan_id":"cebpf4jnsgd1na2vs0mg"},{"bike_id":"3b7181ea-5d3a-45c5-b42b-53c72962b3ee","system_id":"levelo_inurba_marseille","lat":43.22328,"lon":5.34626,"is_reserved":false,"is_disabled":false,"rental_uris":{"android":"levelo://app?vid=3b7181ea-5d3a-45c5-b42b-53c72962b3ee","ios":"levelo://app?vid=3b7181ea-5d3a-45c5-b42b-53c72962b3ee"},"vehicle_type_id":"4","last_reported":1753191120,"current_range_meters":9600,"station_id":"","pricing_plan_id":"cebpf4jnsgd1na2vs0mg"},{"bike_id":"e7a5c1dc-7add-4603-a72a-798e1db3b678","system_id":"levelo_inurba_marseille","lat":43.29259,"lon":5.36853,"is_reserved":false,"is_disabled":false,"rental_uris":{"android":"levelo://app?vid=e7a5c1dc-7add-4603-a72a-798e1db3b678","ios":"levelo://app?vid=e7a5c1dc-7add-4603-a72a-798e1db3b678"},"vehicle_type_id":"4","last_reported":1753191120,"current_range_meters":9600,"station_id":"ce4bhbp2rcd13ifvqesg","pricing_plan_id":"cebpf4jnsgd1na2vs0mg"},{"bike_id":"d1399059-8327-4906-a867-5818e474d4a5","system_id":"levelo_inurba_marseille","lat":43.310833,"lon":5.424303,"is_reserved":false,"is_disabled":false,"rental_uris":{"android":"levelo://app?vid=d1399059-8327-4906-a867-5818e474d4a5","ios":"levelo://app?vid=d1399059-8327-4906-a867-5818e474d4a5"},"vehicle_type_id":"4","last_reported":1753191120,"current_range_meters":10000,"station_id":"ce4bhp92rcd13ifvqhag","pricing_plan_id":"cebpf4jnsgd1na2vs0mg"},{"bike_id":"296caa36-be7d-4a88-8722-32ab0fe9e09a","system_id":"levelo_inurba_marseille","lat":43.32091,"lon":5.3678,"is_reserved":false,"is_disabled":false,"rental_uris":{"android":"levelo://app?vid=296caa36-be7d-4a88-8722-32ab0fe9e09a","ios":"levelo://app?vid=296caa36-be7d-4a88-8722-32ab0fe9e09a"},"vehicle_type_id":"4","last_reported":1753191120,"current_range_meters":10000,"station_id":"ce4bhrh2rcd13ifvqhug","pricing_plan_id":"cebpf4jnsgd1na2vs0mg"},{"bike_id":"f472691a-32b8-4483-9aff-f663202749fa","system_id":"levelo_inurba_marseille","lat":43.2928,"lon":5.36851,"is_reserved":false,"is_disabled":false,"rental_uris":{"android":"levelo://app?vid=f472691a-32b8-4483-9aff-f663202749fa","ios":"levelo://app?vid=f472691a-32b8-4483-9aff-f663202749fa"},"vehicle_type_id":"4","last_reported":1753191120,"current_range_meters":10000,"station_id":"ce4bhbp2rcd13ifvqesg","pricing_plan_id":"cebpf4jnsgd1na2vs0mg"},{"bike_id":"2791a1cf-f8f1-4674-9084-f245d5cf3114","system_id":"levelo_inurba_marseille","lat":43.28417,"lon":5.34986,"is_reserved":false,"is_disabled":false,"rental_uris":{"android":"levelo://app?vid=2791a1cf-f8f1-4674-9084-f245d5cf3114","ios":"levelo://app?vid=2791a1cf-f8f1-4674-9084-f245d5cf3114"},"vehicle_type_id":"4","last_reported":1753191120,"current_range_meters":10000,"station_id":"ce4bhbh2rcd13ifvqepg","pricing_plan_id":"cebpf4jnsgd1na2vs0mg"},{"bike_id":"d85ec1a9-8ce8-4582-866f-e81b8010795f","system_id":"levelo_inurba_marseille","lat":43.28279,"lon":5.35072,"is_reserved":false,"is_disabled":false,"rental_uris":{"android":"levelo://app?vid=d85ec1a9-8ce8-4582-866f-e81b8010795f","ios":"levelo://app?vid=d85ec1a9-8ce8-4582-866f-e81b8010795f"},"vehicle_type_id":"4","last_reported":1753191120,"current_range_meters":10000,"station_id":"ce4bhbp2rcd13ifvqerg","pricing_plan_id":"cebpf4jnsgd1na2vs0mg"},{"bike_id":"58827868-0166-4a71-9ee1-4905fa9336c9","system_id":"levelo_inurba_marseille","lat":43.225099,"lon":5.347786,"is_reserved":false,"is_disabled":false,"rental_uris":{"android":"levelo://app?vid=58827868-0166-4a71-9ee1-4905fa9336c9","ios":"levelo://app?vid=58827868-0166-4a71-9ee1-4905fa9336c9"},"vehicle_type_id":"4","last_reported":1753191120,"current_range_meters":10000,"station_id":"st_cvj5dfep6f1abm77gieg","pricing_plan_id":"cebpf4jnsgd1na2vs0mg"},{"bike_id":"9a7e3be2-a85c-41ba-8c0c-c12fe6a652ba","system_id":"levelo_inurba_marseille","lat":43.22506,"lon":5.3478,"is_reserved":false,"is_disabled":false,"rental_uris":{"android":"levelo://app?vid=9a7e3be2-a85c-41ba-8c0c-c12fe6a652ba","ios":"levelo://app?vid=9a7e3be2-a85c-41ba-8c0c-c12fe6a652ba"},"vehicle_type_id":"4","last_reported":1753191120,"current_range_meters":10000,"station_id":"st_cvj5dfep6f1abm77gieg","pricing_plan_id":"cebpf4jnsgd1na2vs0mg"},{"bike_id":"4ee76a7b-1bb4-47c3-9188-2891fd5e9f45","system_id":"levelo_inurba_marseille","lat":43.28273,"lon":5.35086,"is_reserved":false,"is_disabled":false,"rental_uris":{"android":"levelo://app?vid=4ee76a7b-1bb4-47c3-9188-2891fd5e9f45","ios":"levelo://app?vid=4ee76a7b-1bb4-47c3-9188-2891fd5e9f45"},"vehicle_type_id":"4","last_reported":1753191120,"current_range_meters":10800,"station_id":"ce4bhbp2rcd13ifvqerg","pricing_plan_id":"cebpf4jnsgd1na2vs0mg"},{"bike_id":"9ce9f89e-58e6-4693-8497-fd5a6afacd2f","system_id":"levelo_inurba_marseille","lat":43.320994,"lon":5.367853,"is_reserved":false,"is_disabled":false,"rental_uris":{"android":"levelo://app?vid=9ce9f89e-58e6-4693-8497-fd5a6afacd2f","ios":"levelo://app?vid=9ce9f89e-58e6-4693-8497-fd5a6afacd2f"},"vehicle_type_id":"4","last_reported":1753191120,"current_range_meters":10800,"station_id":"ce4bhrh2rcd13ifvqhug","pricing_plan_id":"cebpf4jnsgd1na2vs0mg"},{"bike_id":"02f62ba6-cb19-48be-956f-a91e18589f34","system_id":"levelo_inurba_marseille","lat":43.28272,"lon":5.35055,"is_reserved":false,"is_disabled":false,"rental_uris":{"android":"levelo://app?vid=02f62ba6-cb19-48be-956f-a91e18589f34","ios":"levelo://app?vid=02f62ba6-cb19-48be-956f-a91e18589f34"},"vehicle_type_id":"4","last_reported":1753191120,"current_range_meters":10800,"station_id":"ce4bhbp2rcd13ifvqerg","pricing_plan_id":"cebpf4jnsgd1na2vs0mg"},{"bike_id":"d4d22902-4583-4bef-9a4a-659036f51357","system_id":"levelo_inurba_marseille","lat":43.27373,"lon":5.36257,"is_reserved":false,"is_disabled":false,"rental_uris":{"android":"levelo://app?vid=d4d22902-4583-4bef-9a4a-659036f51357","ios":"levelo://app?vid=d4d22902-4583-4bef-9a4a-659036f51357"},"vehicle_type_id":"4","last_reported":1753191120,"current_range_meters":11200,"station_id":"ce4bhbh2rcd13ifvqeo0","pricing_plan_id":"cebpf4jnsgd1na2vs0mg"},{"bike_id":"aae1560a-1001-4332-bd57-c3f17d1965e7","system_id":"levelo_inurba_marseille","lat":43.325319,"lon":5.414784,"is_reserved":false,"is_disabled":false,"rental_uris":{"android":"levelo://app?vid=aae1560a-1001-4332-bd57-c3f17d1965e7","ios":"levelo://app?vid=aae1560a-1001-4332-bd57-c3f17d1965e7"},"vehicle_type_id":"4","last_reported":1753191120,"current_range_meters":11200,"station_id":"ce4bhq12rcd13ifvqhhg","pricing_plan_id":"cebpf4jnsgd1na2vs0mg"},{"bike_id":"b830a5eb-b881-487a-97ca-19d0a20c2347","system_id":"levelo_inurba_marseille","lat":43.30426,"lon":5.39748,"is_reserved":false,"is_disabled":false,"rental_uris":{"android":"levelo://app?vid=b830a5eb-b881-487a-97ca-19d0a20c2347","ios":"levelo://app?vid=b830a5eb-b881-487a-97ca-19d0a20c2347"},"vehicle_type_id":"4","last_reported":1753191120,"current_range_meters":11200,"station_id":"ce4bh092rcd13ifvqd20","pricing_plan_id":"cebpf4jnsgd1na2vs0mg"},{"bike_id":"20a281eb-353f-4ce3-be36-127a9ce94c34","system_id":"levelo_inurba_marseille","lat":43.24803,"lon":5.37456,"is_reserved":false,"is_disabled":false,"rental_uris":{"android":"levelo://app?vid=20a281eb-353f-4ce3-be36-127a9ce94c34","ios":"levelo://app?vid=20a281eb-353f-4ce3-be36-127a9ce94c34"},"vehicle_type_id":"4","last_reported":1753191120,"current_range_meters":11600,"station_id":"ce4bhgh2rcd13ifvqfb0","pricing_plan_id":"cebpf4jnsgd1na2vs0mg"},{"bike_id":"ba251ace-0ca9-40ca-b2a8-1f86d1a9e39f","system_id":"levelo_inurba_marseille","lat":43.312239,"lon":5.368478,"is_reserved":false,"is_disabled":false,"rental_uris":{"android":"levelo://app?vid=ba251ace-0ca9-40ca-b2a8-1f86d1a9e39f","ios":"levelo://app?vid=ba251ace-0ca9-40ca-b2a8-1f86d1a9e39f"},"vehicle_type_id":"4","last_reported":1753191120,"current_range_meters":11600,"station_id":"ce4bgl92rcd13ifvqbq0","pricing_plan_id":"cebpf4jnsgd1na2vs0mg"},{"bike_id":"28b66856-4d46-4138-a0aa-93e9a2240b74","system_id":"levelo_inurba_marseille","lat":43.30618,"lon":5.37224,"is_reserved":false,"is_disabled":false,"rental_uris":{"android":"levelo://app?vid=28b66856-4d46-4138-a0aa-93e9a2240b74","ios":"levelo://app?vid=28b66856-4d46-4138-a0aa-93e9a2240b74"},"vehicle_type_id":"4","last_reported":1753191120,"current_range_meters":11600,"station_id":"ce4bgqh2rcd13ifvqc4g","pricing_plan_id":"cebpf4jnsgd1na2vs0mg"},{"bike_id":"c59ac752-9749-4e9f-b724-17efbf989e93","system_id":"levelo_inurba_marseille","lat":43.2706,"lon":5.40251,"is_reserved":false,"is_disabled":false,"rental_uris":{"android":"levelo://app?vid=c59ac752-9749-4e9f-b724-17efbf989e93","ios":"levelo://app?vid=c59ac752-9749-4e9f-b724-17efbf989e93"},"vehicle_type_id":"4","last_reported":1753191120,"current_range_meters":12000,"station_id":"ce4bhk92rcd13ifvqgc0","pricing_plan_id":"cebpf4jnsgd1na2vs0mg"},{"bike_id":"46cc9286-29a9-4fbc-b731-0c34ef4004d2","system_id":"levelo_inurba_marseille","lat":43.30565,"lon":5.36538,"is_reserved":false,"is_disabled":false,"rental_uris":{"android":"levelo://app?vid=46cc9286-29a9-4fbc-b731-0c34ef4004d2","ios":"levelo://app?vid=46cc9286-29a9-4fbc-b731-0c34ef4004d2"},"vehicle_type_id":"4","last_reported":1753191120,"current_range_meters":12000,"station_id":"ce4bgs12rcd13ifvqcag","pricing_plan_id":"cebpf4jnsgd1na2vs0mg"},{"bike_id":"f41a6702-9c5d-4b62-ae96-bffdd40a7624","system_id":"levelo_inurba_marseille","lat":43.302155,"lon":5.394581,"is_reserved":false,"is_disabled":false,"rental_uris":{"android":"levelo://app?vid=f41a6702-9c5d-4b62-ae96-bffdd40a7624","ios":"levelo://app?vid=f41a6702-9c5d-4b62-ae96-bffdd40a7624"},"vehicle_type_id":"4","last_reported":1753191120,"current_range_meters":12000,"station_id":"","pricing_plan_id":"cebpf4jnsgd1na2vs0mg"},{"bike_id":"9048f95a-03a3-48f5-8421-df7685f0f6b4","system_id":"levelo_inurba_marseille","lat":43.323586,"lon":5.367581,"is_reserved":false,"is_disabled":false,"rental_uris":{"android":"levelo://app?vid=9048f95a-03a3-48f5-8421-df7685f0f6b4","ios":"levelo://app?vid=9048f95a-03a3-48f5-8421-df7685f0f6b4"},"vehicle_type_id":"4","last_reported":1753191120,"current_range_meters":12000,"station_id":"ce4bhsh2rcd13ifvqi2g","pricing_plan_id":"cebpf4jnsgd1na2vs0mg"},{"bike_id":"06410ab7-646b-4a92-8c67-9be9379422d4","system_id":"levelo_inurba_marseille","lat":43.330208,"lon":5.412957,"is_reserved":false,"is_disabled":false,"rental_uris":{"android":"levelo://app?vid=06410ab7-646b-4a92-8c67-9be9379422d4","ios":"levelo://app?vid=06410ab7-646b-4a92-8c67-9be9379422d4"},"vehicle_type_id":"4","last_reported":1753191120,"current_range_meters":12400,"station_id":"","pricing_plan_id":"cebpf4jnsgd1na2vs0mg"},{"bike_id":"a2a0b313-63ab-429b-a23c-3815c9a3e5c1","system_id":"levelo_inurba_marseille","lat":43.28416,"lon":5.34999,"is_reserved":false,"is_disabled":false,"rental_uris":{"android":"levelo://app?vid=a2a0b313-63ab-429b-a23c-3815c9a3e5c1","ios":"levelo://app?vid=a2a0b313-63ab-429b-a23c-3815c9a3e5c1"},"vehicle_type_id":"4","last_reported":1753191120,"current_range_meters":12400,"station_id":"ce4bhbh2rcd13ifvqepg","pricing_plan_id":"cebpf4jnsgd1na2vs0mg"},{"bike_id":"93a8b295-0442-42cd-9a09-5ad251943cf6","system_id":"levelo_inurba_marseille","lat":43.28409,"lon":5.34995,"is_reserved":false,"is_disabled":false,"rental_uris":{"android":"levelo://app?vid=93a8b295-0442-42cd-9a09-5ad251943cf6","ios":"levelo://app?vid=93a8b295-0442-42cd-9a09-5ad251943cf6"},"vehicle_type_id":"4","last_reported":1753191120,"current_range_meters":12400,"station_id":"ce4bhbh2rcd13ifvqepg","pricing_plan_id":"cebpf4jnsgd1na2vs0mg"},{"bike_id":"db93b86e-5824-4487-8e0a-fa0152613a1c","system_id":"levelo_inurba_marseille","lat":43.28933,"lon":5.36645,"is_reserved":false,"is_disabled":false,"rental_uris":{"android":"levelo://app?vid=db93b86e-5824-4487-8e0a-fa0152613a1c","ios":"levelo://app?vid=db93b86e-5824-4487-8e0a-fa0152613a1c"},"vehicle_type_id":"4","last_reported":1753191120,"current_range_meters":12400,"station_id":"ce4bhap2rcd13ifvqek0","pricing_plan_id":"cebpf4jnsgd1na2vs0mg"},{"bike_id":"14bfe123-f8e8-44fc-bbe3-440808c69a8b","system_id":"levelo_inurba_marseille","lat":43.28404,"lon":5.34992,"is_reserved":false,"is_disabled":false,"rental_uris":{"android":"levelo://app?vid=14bfe123-f8e8-44fc-bbe3-440808c69a8b","ios":"levelo://app?vid=14bfe123-f8e8-44fc-bbe3-440808c69a8b"},"vehicle_type_id":"4","last_reported":1753191120,"current_range_meters":12400,"station_id":"ce4bhbh2rcd13ifvqepg","pricing_plan_id":"cebpf4jnsgd1na2vs0mg"},{"bike_id":"4949ff53-3e16-4494-93b5-6a2170915647","system_id":"levelo_inurba_marseille","lat":43.25881,"lon":5.39894,"is_reserved":false,"is_disabled":false,"rental_uris":{"android":"levelo://app?vid=4949ff53-3e16-4494-93b5-6a2170915647","ios":"levelo://app?vid=4949ff53-3e16-4494-93b5-6a2170915647"},"vehicle_type_id":"4","last_reported":1753191120,"current_range_meters":12400,"station_id":"ce4bhl92rcd13ifvqghg","pricing_plan_id":"cebpf4jnsgd1na2vs0mg"},{"bike_id":"5102b53d-eb14-482c-a2a9-8d0173681b87","system_id":"levelo_inurba_marseille","lat":43.31383,"lon":5.36654,"is_reserved":false,"is_disabled":false,"rental_uris":{"android":"levelo://app?vid=5102b53d-eb14-482c-a2a9-8d0173681b87","ios":"levelo://app?vid=5102b53d-eb14-482c-a2a9-8d0173681b87"},"vehicle_type_id":"4","last_reported":1753191120,"current_range_meters":12400,"station_id":"","pricing_plan_id":"cebpf4jnsgd1na2vs0mg"},{"bike_id":"a5f1f0d6-c678-45f4-9b29-96eaa29a3e36","system_id":"levelo_inurba_marseille","lat":43.25133,"lon":5.373421,"is_reserved":false,"is_disabled":false,"rental_uris":{"android":"levelo://app?vid=a5f1f0d6-c678-45f4-9b29-96eaa29a3e36","ios":"levelo://app?vid=a5f1f0d6-c678-45f4-9b29-96eaa29a3e36"},"vehicle_type_id":"4","last_reported":1753191120,"current_range_meters":12400,"station_id":"","pricing_plan_id":"cebpf4jnsgd1na2vs0mg"},{"bike_id":"b2cde23e-f061-454e-9280-8b07da9edd7e","system_id":"levelo_inurba_marseille","lat":43.240692,"lon":5.377619,"is_reserved":false,"is_disabled":false,"rental_uris":{"android":"levelo://app?vid=b2cde23e-f061-454e-9280-8b07da9edd7e","ios":"levelo://app?vid=b2cde23e-f061-454e-9280-8b07da9edd7e"},"vehicle_type_id":"4","last_reported":1753191120,"current_range_meters":12800,"station_id":"ce4bhnp2rcd13ifvqgvg","pricing_plan_id":"cebpf4jnsgd1na2vs0mg"},{"bike_id":"620c46be-8bb1-4f4e-b721-0dd1ded513b0","system_id":"levelo_inurba_marseille","lat":43.284863,"lon":5.385659,"is_reserved":false,"is_disabled":false,"rental_uris":{"android":"levelo://app?vid=620c46be-8bb1-4f4e-b721-0dd1ded513b0","ios":"levelo://app?vid=620c46be-8bb1-4f4e-b721-0dd1ded513b0"},"vehicle_type_id":"4","last_reported":1753191120,"current_range_meters":12800,"station_id":"ce4bh8p2rcd13ifvqeb0","pricing_plan_id":"cebpf4jnsgd1na2vs0mg"},{"bike_id":"47f8f673-30a6-404a-b883-29c8dd09c50c","system_id":"levelo_inurba_marseille","lat":43.25128,"lon":5.40325,"is_reserved":false,"is_disabled":false,"rental_uris":{"android":"levelo://app?vid=47f8f673-30a6-404a-b883-29c8dd09c50c","ios":"levelo://app?vid=47f8f673-30a6-404a-b883-29c8dd09c50c"},"vehicle_type_id":"4","last_reported":1753191120,"current_range_meters":12800,"station_id":"ce4bhlh2rcd13ifvqgig","pricing_plan_id":"cebpf4jnsgd1na2vs0mg"},{"bike_id":"6dbca348-e5a0-4fa6-8e5c-0a90816db2e4","system_id":"levelo_inurba_marseille","lat":43.29914,"lon":5.43639,"is_reserved":false,"is_disabled":false,"rental_uris":{"android":"levelo://app?vid=6dbca348-e5a0-4fa6-8e5c-0a90816db2e4","ios":"levelo://app?vid=6dbca348-e5a0-4fa6-8e5c-0a90816db2e4"},"vehicle_type_id":"4","last_reported":1753191120,"current_range_meters":13600,"station_id":"ce4bhpp2rcd13ifvqhfg","pricing_plan_id":"cebpf4jnsgd1na2vs0mg"},{"bike_id":"0082530e-bede-4c25-a59b-99f14518d4f6","system_id":"levelo_inurba_marseille","lat":43.32375,"lon":5.36743,"is_reserved":false,"is_disabled":false,"rental_uris":{"android":"levelo://app?vid=0082530e-bede-4c25-a59b-99f14518d4f6","ios":"levelo://app?vid=0082530e-bede-4c25-a59b-99f14518d4f6"},"vehicle_type_id":"4","last_reported":1753191120,"current_range_meters":13600,"station_id":"ce4bhsh2rcd13ifvqi2g","pricing_plan_id":"cebpf4jnsgd1na2vs0mg"},{"bike_id":"365bc9b2-68bd-4764-ad7a-4ff9aa780715","system_id":"levelo_inurba_marseille","lat":43.29889,"lon":5.43665,"is_reserved":false,"is_disabled":false,"rental_uris":{"android":"levelo://app?vid=365bc9b2-68bd-4764-ad7a-4ff9aa780715","ios":"levelo://app?vid=365bc9b2-68bd-4764-ad7a-4ff9aa780715"},"vehicle_type_id":"4","last_reported":1753191120,"current_range_meters":13600,"station_id":"ce4bhpp2rcd13ifvqhfg","pricing_plan_id":"cebpf4jnsgd1na2vs0mg"},{"bike_id":"25e30967-ff13-4305-9c1e-539092e264ff","system_id":"levelo_inurba_marseille","lat":43.259386,"lon":5.409051,"is_reserved":false,"is_disabled":false,"rental_uris":{"android":"levelo://app?vid=25e30967-ff13-4305-9c1e-539092e264ff","ios":"levelo://app?vid=25e30967-ff13-4305-9c1e-539092e264ff"},"vehicle_type_id":"4","last_reported":1753191120,"current_range_meters":13600,"station_id":"ce4bhm92rcd13ifvqglg","pricing_plan_id":"cebpf4jnsgd1na2vs0mg"},{"bike_id":"5427bc50-9bc6-4820-8452-54f06645fb7f","system_id":"levelo_inurba_marseille","lat":43.32654,"lon":5.40992,"is_reserved":false,"is_disabled":false,"rental_uris":{"android":"levelo://app?vid=5427bc50-9bc6-4820-8452-54f06645fb7f","ios":"levelo://app?vid=5427bc50-9bc6-4820-8452-54f06645fb7f"},"vehicle_type_id":"4","last_reported":1753191120,"current_range_meters":13600,"station_id":"ce4bhpp2rcd13ifvqhgg","pricing_plan_id":"cebpf4jnsgd1na2vs0mg"},{"bike_id":"79b507a4-6b69-4862-bc07-d60efb691c7d","system_id":"levelo_inurba_marseille","lat":43.28485,"lon":5.38536,"is_reserved":false,"is_disabled":false,"rental_uris":{"android":"levelo://app?vid=79b507a4-6b69-4862-bc07-d60efb691c7d","ios":"levelo://app?vid=79b507a4-6b69-4862-bc07-d60efb691c7d"},"vehicle_type_id":"4","last_reported":1753191120,"current_range_meters":14000,"station_id":"","pricing_plan_id":"cebpf4jnsgd1na2vs0mg"},{"bike_id":"27380598-6f6f-4cb5-9814-6b46f87e461a","system_id":"levelo_inurba_marseille","lat":43.29006,"lon":5.35607,"is_reserved":false,"is_disabled":false,"rental_uris":{"android":"levelo://app?vid=27380598-6f6f-4cb5-9814-6b46f87e461a","ios":"levelo://app?vid=27380598-6f6f-4cb5-9814-6b46f87e461a"},"vehicle_type_id":"4","last_reported":1753191120,"current_range_meters":14000,"station_id":"ce4bhb92rcd13ifvqen0","pricing_plan_id":"cebpf4jnsgd1na2vs0mg"},{"bike_id":"b5ca43cc-68aa-4d29-ab30-7fb355ca9098","system_id":"levelo_inurba_marseille","lat":43.23141,"lon":5.43701,"is_reserved":false,"is_disabled":false,"rental_uris":{"android":"levelo://app?vid=b5ca43cc-68aa-4d29-ab30-7fb355ca9098","ios":"levelo://app?vid=b5ca43cc-68aa-4d29-ab30-7fb355ca9098"},"vehicle_type_id":"4","last_reported":1753191120,"current_range_meters":14000,"station_id":"ce4bhmp2rcd13ifvqgog","pricing_plan_id":"cebpf4jnsgd1na2vs0mg"},{"bike_id":"28b86a55-f288-47a2-9ab7-42b4f8c3b8d4","system_id":"levelo_inurba_marseille","lat":43.28869,"lon":5.35831,"is_reserved":false,"is_disabled":false,"rental_uris":{"android":"levelo://app?vid=28b86a55-f288-47a2-9ab7-42b4f8c3b8d4","ios":"levelo://app?vid=28b86a55-f288-47a2-9ab7-42b4f8c3b8d4"},"vehicle_type_id":"4","last_reported":1753191120,"current_range_meters":14000,"station_id":"ce4bhb12rcd13ifvqem0","pricing_plan_id":"cebpf4jnsgd1na2vs0mg"},{"bike_id":"f588891a-6f46-4753-93f1-e799d114473b","system_id":"levelo_inurba_marseille","lat":43.30591,"lon":5.39357,"is_reserved":false,"is_disabled":false,"rental_uris":{"android":"levelo://app?vid=f588891a-6f46-4753-93f1-e799d114473b","ios":"levelo://app?vid=f588891a-6f46-4753-93f1-e799d114473b"},"vehicle_type_id":"4","last_reported":1753191120,"current_range_meters":14000,"station_id":"ce4bh0p2rcd13ifvqd80","pricing_plan_id":"cebpf4jnsgd1na2vs0mg"},{"bike_id":"b6be1cf5-f436-4fde-9967-1f5823d5479b","system_id":"levelo_inurba_marseille","lat":43.29886,"lon":5.38905,"is_reserved":false,"is_disabled":false,"rental_uris":{"android":"levelo://app?vid=b6be1cf5-f436-4fde-9967-1f5823d5479b","ios":"levelo://app?vid=b6be1cf5-f436-4fde-9967-1f5823d5479b"},"vehicle_type_id":"4","last_reported":1753191120,"current_range_meters":14400,"station_id":"ce4bh392rcd13ifvqdl0","pricing_plan_id":"cebpf4jnsgd1na2vs0mg"},{"bike_id":"72024e02-0ccc-45ec-87c8-bfd123ae2fcf","system_id":"levelo_inurba_marseille","lat":43.30384,"lon":5.42495,"is_reserved":false,"is_disabled":false,"rental_uris":{"android":"levelo://app?vid=72024e02-0ccc-45ec-87c8-bfd123ae2fcf","ios":"levelo://app?vid=72024e02-0ccc-45ec-87c8-bfd123ae2fcf"},"vehicle_type_id":"4","last_reported":1753191120,"current_range_meters":14400,"station_id":"ce4bhoh2rcd13ifvqh6g","pricing_plan_id":"cebpf4jnsgd1na2vs0mg"},{"bike_id":"2dd67ace-8ba9-4ae7-a8b2-e8c55257e73d","system_id":"levelo_inurba_marseille","lat":43.28615,"lon":5.35103,"is_reserved":false,"is_disabled":false,"rental_uris":{"android":"levelo://app?vid=2dd67ace-8ba9-4ae7-a8b2-e8c55257e73d","ios":"levelo://app?vid=2dd67ace-8ba9-4ae7-a8b2-e8c55257e73d"},"vehicle_type_id":"4","last_reported":1753191120,"current_range_meters":14400,"station_id":"ce4bhch2rcd13ifvqeug","pricing_plan_id":"cebpf4jnsgd1na2vs0mg"},{"bike_id":"c954f396-c5db-4057-8556-fd70200895a1","system_id":"levelo_inurba_marseille","lat":43.28076,"lon":5.39659,"is_reserved":false,"is_disabled":false,"rental_uris":{"android":"levelo://app?vid=c954f396-c5db-4057-8556-fd70200895a1","ios":"levelo://app?vid=c954f396-c5db-4057-8556-fd70200895a1"},"vehicle_type_id":"4","last_reported":1753191120,"current_range_meters":14400,"station_id":"ce4bho12rcd13ifvqh2g","pricing_plan_id":"cebpf4jnsgd1na2vs0mg"},{"bike_id":"dfc6d5e1-bac4-4a65-92bc-bc7a564f943a","system_id":"levelo_inurba_marseille","lat":43.26196,"lon":5.37939,"is_reserved":false,"is_disabled":false,"rental_uris":{"android":"levelo://app?vid=dfc6d5e1-bac4-4a65-92bc-bc7a564f943a","ios":"levelo://app?vid=dfc6d5e1-bac4-4a65-92bc-bc7a564f943a"},"vehicle_type_id":"4","last_reported":1753191120,"current_range_meters":14800,"station_id":"ce4bhjp2rcd13ifvqg90","pricing_plan_id":"cebpf4jnsgd1na2vs0mg"},{"bike_id":"5a9b88a4-6932-4f53-9bd5-17558967cec2","system_id":"levelo_inurba_marseille","lat":43.30894,"lon":5.37196,"is_reserved":false,"is_disabled":false,"rental_uris":{"android":"levelo://app?vid=5a9b88a4-6932-4f53-9bd5-17558967cec2","ios":"levelo://app?vid=5a9b88a4-6932-4f53-9bd5-17558967cec2"},"vehicle_type_id":"4","last_reported":1753191120,"current_range_meters":14800,"station_id":"ce4bguh2rcd13ifvqckg","pricing_plan_id":"cebpf4jnsgd1na2vs0mg"},{"bike_id":"5e5a0020-05bb-485f-a93a-d11ccf22fe69","system_id":"levelo_inurba_marseille","lat":43.31244,"lon":5.369,"is_reserved":false,"is_disabled":false,"rental_uris":{"android":"levelo://app?vid=5e5a0020-05bb-485f-a93a-d11ccf22fe69","ios":"levelo://app?vid=5e5a0020-05bb-485f-a93a-d11ccf22fe69"},"vehicle_type_id":"4","last_reported":1753191120,"current_range_meters":14800,"station_id":"ce4bgl92rcd13ifvqbq0","pricing_plan_id":"cebpf4jnsgd1na2vs0mg"},{"bike_id":"89e5300e-f524-48d1-8669-762241baab60","system_id":"levelo_inurba_marseille","lat":43.22922,"lon":5.35381,"is_reserved":false,"is_disabled":false,"rental_uris":{"android":"levelo://app?vid=89e5300e-f524-48d1-8669-762241baab60","ios":"levelo://app?vid=89e5300e-f524-48d1-8669-762241baab60"},"vehicle_type_id":"4","last_reported":1753191120,"current_range_meters":14800,"station_id":"cpo3532slgdg3j2ikp40","pricing_plan_id":"cebpf4jnsgd1na2vs0mg"},{"bike_id":"4e2097e0-10df-4fe1-ab4a-c953d33631f5","system_id":"levelo_inurba_marseille","lat":43.28876,"lon":5.35825,"is_reserved":false,"is_disabled":false,"rental_uris":{"android":"levelo://app?vid=4e2097e0-10df-4fe1-ab4a-c953d33631f5","ios":"levelo://app?vid=4e2097e0-10df-4fe1-ab4a-c953d33631f5"},"vehicle_type_id":"4","last_reported":1753191120,"current_range_meters":14400,"station_id":"ce4bhb12rcd13ifvqem0","pricing_plan_id":"cebpf4jnsgd1na2vs0mg"},{"bike_id":"c9dbd36b-479c-4a5c-b200-3aa7673340d9","system_id":"levelo_inurba_marseille","lat":43.241448,"lon":5.363743,"is_reserved":false,"is_disabled":false,"rental_uris":{"android":"levelo://app?vid=c9dbd36b-479c-4a5c-b200-3aa7673340d9","ios":"levelo://app?vid=c9dbd36b-479c-4a5c-b200-3aa7673340d9"},"vehicle_type_id":"4","last_reported":1753191120,"current_range_meters":14800,"station_id":"","pricing_plan_id":"cebpf4jnsgd1na2vs0mg"},{"bike_id":"0aa7173d-c657-40f4-bb35-f961ab674bca","system_id":"levelo_inurba_marseille","lat":43.28616,"lon":5.35097,"is_reserved":false,"is_disabled":false,"rental_uris":{"android":"levelo://app?vid=0aa7173d-c657-40f4-bb35-f961ab674bca","ios":"levelo://app?vid=0aa7173d-c657-40f4-bb35-f961ab674bca"},"vehicle_type_id":"4","last_reported":1753191120,"current_range_meters":14800,"station_id":"ce4bhch2rcd13ifvqeug","pricing_plan_id":"cebpf4jnsgd1na2vs0mg"},{"bike_id":"92477954-49fa-4214-903e-2c03e94ffcfe","system_id":"levelo_inurba_marseille","lat":43.284849,"lon":5.385637,"is_reserved":false,"is_disabled":false,"rental_uris":{"android":"levelo://app?vid=92477954-49fa-4214-903e-2c03e94ffcfe","ios":"levelo://app?vid=92477954-49fa-4214-903e-2c03e94ffcfe"},"vehicle_type_id":"4","last_reported":1753191120,"current_range_meters":14800,"station_id":"ce4bh8p2rcd13ifvqeb0","pricing_plan_id":"cebpf4jnsgd1na2vs0mg"},{"bike_id":"75d2775f-85ea-4951-84a9-64340f773b9e","system_id":"levelo_inurba_marseille","lat":43.33028,"lon":5.39049,"is_reserved":false,"is_disabled":false,"rental_uris":{"android":"levelo://app?vid=75d2775f-85ea-4951-84a9-64340f773b9e","ios":"levelo://app?vid=75d2775f-85ea-4951-84a9-64340f773b9e"},"vehicle_type_id":"4","last_reported":1753191120,"current_range_meters":14800,"station_id":"ce4bhr92rcd13ifvqhrg","pricing_plan_id":"cebpf4jnsgd1na2vs0mg"},{"bike_id":"05d42747-d0a7-485b-804a-c208d042127e","system_id":"levelo_inurba_marseille","lat":43.24168,"lon":5.36395,"is_reserved":false,"is_disabled":false,"rental_uris":{"android":"levelo://app?vid=05d42747-d0a7-485b-804a-c208d042127e","ios":"levelo://app?vid=05d42747-d0a7-485b-804a-c208d042127e"},"vehicle_type_id":"4","last_reported":1753191120,"current_range_meters":14800,"station_id":"cpo36qri1sfpv3e86is0","pricing_plan_id":"cebpf4jnsgd1na2vs0mg"},{"bike_id":"a884821b-64f5-4cba-a429-6365233476ce","system_id":"levelo_inurba_marseille","lat":43.27054,"lon":5.40262,"is_reserved":false,"is_disabled":false,"rental_uris":{"android":"levelo://app?vid=a884821b-64f5-4cba-a429-6365233476ce","ios":"levelo://app?vid=a884821b-64f5-4cba-a429-6365233476ce"},"vehicle_type_id":"4","last_reported":1753191120,"current_range_meters":15200,"station_id":"ce4bhk92rcd13ifvqgc0","pricing_plan_id":"cebpf4jnsgd1na2vs0mg"},{"bike_id":"82b8a8fd-f0d7-402a-9b9b-454d7e91bac8","system_id":"levelo_inurba_marseille","lat":43.24168,"lon":5.36393,"is_reserved":false,"is_disabled":false,"rental_uris":{"android":"levelo://app?vid=82b8a8fd-f0d7-402a-9b9b-454d7e91bac8","ios":"levelo://app?vid=82b8a8fd-f0d7-402a-9b9b-454d7e91bac8"},"vehicle_type_id":"4","last_reported":1753191120,"current_range_meters":15200,"station_id":"cpo36qri1sfpv3e86is0","pricing_plan_id":"cebpf4jnsgd1na2vs0mg"},{"bike_id":"d048391f-4ae3-4d6d-bf2b-eef57347304e","system_id":"levelo_inurba_marseille","lat":43.26556,"lon":5.37284,"is_reserved":false,"is_disabled":false,"rental_uris":{"android":"levelo://app?vid=d048391f-4ae3-4d6d-bf2b-eef57347304e","ios":"levelo://app?vid=d048391f-4ae3-4d6d-bf2b-eef57347304e"},"vehicle_type_id":"4","last_reported":1753191120,"current_range_meters":15200,"station_id":"ce4bhg12rcd13ifvqf70","pricing_plan_id":"cebpf4jnsgd1na2vs0mg"},{"bike_id":"13e8d40a-1535-45e1-919d-9be64f10ad03","system_id":"levelo_inurba_marseille","lat":43.30579,"lon":5.36483,"is_reserved":false,"is_disabled":false,"rental_uris":{"android":"levelo://app?vid=13e8d40a-1535-45e1-919d-9be64f10ad03","ios":"levelo://app?vid=13e8d40a-1535-45e1-919d-9be64f10ad03"},"vehicle_type_id":"4","last_reported":1753191120,"current_range_meters":15200,"station_id":"ce4bgs12rcd13ifvqcag","pricing_plan_id":"cebpf4jnsgd1na2vs0mg"},{"bike_id":"73995655-1f23-4957-a22a-bb9b7000d3a3","system_id":"levelo_inurba_marseille","lat":43.250089,"lon":5.389127,"is_reserved":false,"is_disabled":false,"rental_uris":{"android":"levelo://app?vid=73995655-1f23-4957-a22a-bb9b7000d3a3","ios":"levelo://app?vid=73995655-1f23-4957-a22a-bb9b7000d3a3"},"vehicle_type_id":"4","last_reported":1753191120,"current_range_meters":15200,"station_id":"ce4bhgp2rcd13ifvqfd0","pricing_plan_id":"cebpf4jnsgd1na2vs0mg"},{"bike_id":"8d94eef5-2d53-4ad6-8ea2-8df03626493e","system_id":"levelo_inurba_marseille","lat":43.246659,"lon":5.385631,"is_reserved":false,"is_disabled":false,"rental_uris":{"android":"levelo://app?vid=8d94eef5-2d53-4ad6-8ea2-8df03626493e","ios":"levelo://app?vid=8d94eef5-2d53-4ad6-8ea2-8df03626493e"},"vehicle_type_id":"4","last_reported":1753191120,"current_range_meters":15200,"station_id":"ce4bhnp2rcd13ifvqgvg","pricing_plan_id":"cebpf4jnsgd1na2vs0mg"},{"bike_id":"60b2b841-3d78-4696-84c4-d674f3a969f3","system_id":"levelo_inurba_marseille","lat":43.29058,"lon":5.3717,"is_reserved":false,"is_disabled":false,"rental_uris":{"android":"levelo://app?vid=60b2b841-3d78-4696-84c4-d674f3a969f3","ios":"levelo://app?vid=60b2b841-3d78-4696-84c4-d674f3a969f3"},"vehicle_type_id":"4","last_reported":1753191120,"current_range_meters":15200,"station_id":"ce4bgh92rcd13ifvqb40","pricing_plan_id":"cebpf4jnsgd1na2vs0mg"},{"bike_id":"b0eb9043-cafa-47b9-a1d1-b613981a5fac","system_id":"levelo_inurba_marseille","lat":43.265533,"lon":5.372868,"is_reserved":false,"is_disabled":false,"rental_uris":{"android":"levelo://app?vid=b0eb9043-cafa-47b9-a1d1-b613981a5fac","ios":"levelo://app?vid=b0eb9043-cafa-47b9-a1d1-b613981a5fac"},"vehicle_type_id":"4","last_reported":1753191120,"current_range_meters":15200,"station_id":"ce4bhg12rcd13ifvqf70","pricing_plan_id":"cebpf4jnsgd1na2vs0mg"},{"bike_id":"9e35f87b-92fc-4ad1-8892-b7e25a0e8789","system_id":"levelo_inurba_marseille","lat":43.2582,"lon":5.39438,"is_reserved":false,"is_disabled":false,"rental_uris":{"android":"levelo://app?vid=9e35f87b-92fc-4ad1-8892-b7e25a0e8789","ios":"levelo://app?vid=9e35f87b-92fc-4ad1-8892-b7e25a0e8789"},"vehicle_type_id":"4","last_reported":1753191120,"current_range_meters":15200,"station_id":"ce4bhih2rcd13ifvqfr0","pricing_plan_id":"cebpf4jnsgd1na2vs0mg"},{"bike_id":"ca1e2c60-ee09-48ee-83dc-ce1101a429f7","system_id":"levelo_inurba_marseille","lat":43.27219,"lon":5.39174,"is_reserved":false,"is_disabled":false,"rental_uris":{"android":"levelo://app?vid=ca1e2c60-ee09-48ee-83dc-ce1101a429f7","ios":"levelo://app?vid=ca1e2c60-ee09-48ee-83dc-ce1101a429f7"},"vehicle_type_id":"4","last_reported":1753191120,"current_range_meters":16000,"station_id":"ce4bhhp2rcd13ifvqfm0","pricing_plan_id":"cebpf4jnsgd1na2vs0mg"},{"bike_id":"50d328c3-4551-41c9-a5e3-a71b2ef6df96","system_id":"levelo_inurba_marseille","lat":43.30537,"lon":5.36691,"is_reserved":false,"is_disabled":false,"rental_uris":{"android":"levelo://app?vid=50d328c3-4551-41c9-a5e3-a71b2ef6df96","ios":"levelo://app?vid=50d328c3-4551-41c9-a5e3-a71b2ef6df96"},"vehicle_type_id":"4","last_reported":1753191120,"current_range_meters":16000,"station_id":"ce4bgrp2rcd13ifvqc9g","pricing_plan_id":"cebpf4jnsgd1na2vs0mg"},{"bike_id":"dd9c47c4-605c-49c3-b7d1-07a74a962c0e","system_id":"levelo_inurba_marseille","lat":43.30892,"lon":5.37189,"is_reserved":false,"is_disabled":false,"rental_uris":{"android":"levelo://app?vid=dd9c47c4-605c-49c3-b7d1-07a74a962c0e","ios":"levelo://app?vid=dd9c47c4-605c-49c3-b7d1-07a74a962c0e"},"vehicle_type_id":"4","last_reported":1753191120,"current_range_meters":16000,"station_id":"ce4bguh2rcd13ifvqckg","pricing_plan_id":"cebpf4jnsgd1na2vs0mg"},{"bike_id":"2dc67426-c266-4362-827e-923864a51b3a","system_id":"levelo_inurba_marseille","lat":43.28947,"lon":5.36639,"is_reserved":false,"is_disabled":false,"rental_uris":{"android":"levelo://app?vid=2dc67426-c266-4362-827e-923864a51b3a","ios":"levelo://app?vid=2dc67426-c266-4362-827e-923864a51b3a"},"vehicle_type_id":"4","last_reported":1753191120,"current_range_meters":16000,"station_id":"","pricing_plan_id":"cebpf4jnsgd1na2vs0mg"},{"bike_id":"3cd09fc8-9554-4236-8496-0931a7be09d1","system_id":"levelo_inurba_marseille","lat":43.21207,"lon":5.35043,"is_reserved":false,"is_disabled":false,"rental_uris":{"android":"levelo://app?vid=3cd09fc8-9554-4236-8496-0931a7be09d1","ios":"levelo://app?vid=3cd09fc8-9554-4236-8496-0931a7be09d1"},"vehicle_type_id":"4","last_reported":1753191120,"current_range_meters":16000,"station_id":"st_cvj6sg6p6f1abm77japg","pricing_plan_id":"cebpf4jnsgd1na2vs0mg"},{"bike_id":"60818ab5-26a8-4de3-b4a6-8b859e975d6d","system_id":"levelo_inurba_marseille","lat":43.25937,"lon":5.40903,"is_reserved":false,"is_disabled":false,"rental_uris":{"android":"levelo://app?vid=60818ab5-26a8-4de3-b4a6-8b859e975d6d","ios":"levelo://app?vid=60818ab5-26a8-4de3-b4a6-8b859e975d6d"},"vehicle_type_id":"4","last_reported":1753191120,"current_range_meters":16000,"station_id":"ce4bhm92rcd13ifvqglg","pricing_plan_id":"cebpf4jnsgd1na2vs0mg"},{"bike_id":"23cd0a03-0a6a-466f-af9f-f265056bce3e","system_id":"levelo_inurba_marseille","lat":43.29592,"lon":5.36724,"is_reserved":false,"is_disabled":false,"rental_uris":{"android":"levelo://app?vid=23cd0a03-0a6a-466f-af9f-f265056bce3e","ios":"levelo://app?vid=23cd0a03-0a6a-466f-af9f-f265056bce3e"},"vehicle_type_id":"4","last_reported":1753191120,"current_range_meters":16000,"station_id":"ce4bgph2rcd13ifvqc2g","pricing_plan_id":"cebpf4jnsgd1na2vs0mg"},{"bike_id":"85b65ca0-7365-40fb-8905-5a0638bc8593","system_id":"levelo_inurba_marseille","lat":43.22917,"lon":5.35378,"is_reserved":false,"is_disabled":false,"rental_uris":{"android":"levelo://app?vid=85b65ca0-7365-40fb-8905-5a0638bc8593","ios":"levelo://app?vid=85b65ca0-7365-40fb-8905-5a0638bc8593"},"vehicle_type_id":"4","last_reported":1753191120,"current_range_meters":16000,"station_id":"cpo3532slgdg3j2ikp40","pricing_plan_id":"cebpf4jnsgd1na2vs0mg"},{"bike_id":"3c21b9e1-b296-4844-a6d5-b8d19c7f36c9","system_id":"levelo_inurba_marseille","lat":43.29161,"lon":5.38434,"is_reserved":false,"is_disabled":false,"rental_uris":{"android":"levelo://app?vid=3c21b9e1-b296-4844-a6d5-b8d19c7f36c9","ios":"levelo://app?vid=3c21b9e1-b296-4844-a6d5-b8d19c7f36c9"},"vehicle_type_id":"4","last_reported":1753191120,"current_range_meters":16000,"station_id":"","pricing_plan_id":"cebpf4jnsgd1na2vs0mg"},{"bike_id":"5cf63172-e303-40a1-850f-3d733a82964e","system_id":"levelo_inurba_marseille","lat":43.30174,"lon":5.38059,"is_reserved":false,"is_disabled":false,"rental_uris":{"android":"levelo://app?vid=5cf63172-e303-40a1-850f-3d733a82964e","ios":"levelo://app?vid=5cf63172-e303-40a1-850f-3d733a82964e"},"vehicle_type_id":"4","last_reported":1753191120,"current_range_meters":16000,"station_id":"ce4bgjp2rcd13ifvqbh0","pricing_plan_id":"cebpf4jnsgd1na2vs0mg"},{"bike_id":"de705abb-e301-4599-9f31-cc935b3b1a5f","system_id":"levelo_inurba_marseille","lat":43.21198,"lon":5.35062,"is_reserved":false,"is_disabled":false,"rental_uris":{"android":"levelo://app?vid=de705abb-e301-4599-9f31-cc935b3b1a5f","ios":"levelo://app?vid=de705abb-e301-4599-9f31-cc935b3b1a5f"},"vehicle_type_id":"4","last_reported":1753191120,"current_range_meters":16000,"station_id":"st_cvj6sg6p6f1abm77japg","pricing_plan_id":"cebpf4jnsgd1na2vs0mg"},{"bike_id":"1e6792f6-e23b-4a70-9f0d-cfc180638578","system_id":"levelo_inurba_marseille","lat":43.27413,"lon":5.39416,"is_reserved":false,"is_disabled":false,"rental_uris":{"android":"levelo://app?vid=1e6792f6-e23b-4a70-9f0d-cfc180638578","ios":"levelo://app?vid=1e6792f6-e23b-4a70-9f0d-cfc180638578"},"vehicle_type_id":"4","last_reported":1753191120,"current_range_meters":16000,"station_id":"ce4bhgp2rcd13ifvqfe0","pricing_plan_id":"cebpf4jnsgd1na2vs0mg"},{"bike_id":"38fc8df3-fe60-493e-a9c4-e49429113c89","system_id":"levelo_inurba_marseille","lat":43.21188,"lon":5.35051,"is_reserved":false,"is_disabled":false,"rental_uris":{"android":"levelo://app?vid=38fc8df3-fe60-493e-a9c4-e49429113c89","ios":"levelo://app?vid=38fc8df3-fe60-493e-a9c4-e49429113c89"},"vehicle_type_id":"4","last_reported":1753191120,"current_range_meters":16000,"station_id":"st_cvj6sg6p6f1abm77japg","pricing_plan_id":"cebpf4jnsgd1na2vs0mg"},{"bike_id":"56d29d7b-0840-4d8c-8300-f08d40064ddb","system_id":"levelo_inurba_marseille","lat":43.224972,"lon":5.347916,"is_reserved":false,"is_disabled":false,"rental_uris":{"android":"levelo://app?vid=56d29d7b-0840-4d8c-8300-f08d40064ddb","ios":"levelo://app?vid=56d29d7b-0840-4d8c-8300-f08d40064ddb"},"vehicle_type_id":"4","last_reported":1753191120,"current_range_meters":16000,"station_id":"","pricing_plan_id":"cebpf4jnsgd1na2vs0mg"},{"bike_id":"2c1da84b-9e1f-4b0d-9079-5ae01b550c24","system_id":"levelo_inurba_marseille","lat":43.2622,"lon":5.37447,"is_reserved":false,"is_disabled":false,"rental_uris":{"android":"levelo://app?vid=2c1da84b-9e1f-4b0d-9079-5ae01b550c24","ios":"levelo://app?vid=2c1da84b-9e1f-4b0d-9079-5ae01b550c24"},"vehicle_type_id":"4","last_reported":1753191120,"current_range_meters":16400,"station_id":"ce4bhgp2rcd13ifvqfc0","pricing_plan_id":"cebpf4jnsgd1na2vs0mg"},{"bike_id":"7c39614c-0828-4a05-91b3-1b50fb6f5196","system_id":"levelo_inurba_marseille","lat":43.30953,"lon":5.39034,"is_reserved":false,"is_disabled":false,"rental_uris":{"android":"levelo://app?vid=7c39614c-0828-4a05-91b3-1b50fb6f5196","ios":"levelo://app?vid=7c39614c-0828-4a05-91b3-1b50fb6f5196"},"vehicle_type_id":"4","last_reported":1753191120,"current_range_meters":16400,"station_id":"ce4bgup2rcd13ifvqco0","pricing_plan_id":"cebpf4jnsgd1na2vs0mg"},{"bike_id":"e98317a9-59d1-4035-a22a-3f15a041ffdf","system_id":"levelo_inurba_marseille","lat":43.24624,"lon":5.38159,"is_reserved":false,"is_disabled":false,"rental_uris":{"android":"levelo://app?vid=e98317a9-59d1-4035-a22a-3f15a041ffdf","ios":"levelo://app?vid=e98317a9-59d1-4035-a22a-3f15a041ffdf"},"vehicle_type_id":"4","last_reported":1753191120,"current_range_meters":16400,"station_id":"ce4bhih2rcd13ifvqfr0","pricing_plan_id":"cebpf4jnsgd1na2vs0mg"},{"bike_id":"f7d24d79-fb73-44fe-a579-eccbe39a5e1e","system_id":"levelo_inurba_marseille","lat":43.24168,"lon":5.36401,"is_reserved":false,"is_disabled":false,"rental_uris":{"android":"levelo://app?vid=f7d24d79-fb73-44fe-a579-eccbe39a5e1e","ios":"levelo://app?vid=f7d24d79-fb73-44fe-a579-eccbe39a5e1e"},"vehicle_type_id":"4","last_reported":1753191120,"current_range_meters":16400,"station_id":"cpo36qri1sfpv3e86is0","pricing_plan_id":"cebpf4jnsgd1na2vs0mg"},{"bike_id":"de3675fa-c77f-4be3-9586-a3073bd197c1","system_id":"levelo_inurba_marseille","lat":43.24997,"lon":5.38915,"is_reserved":false,"is_disabled":false,"rental_uris":{"android":"levelo://app?vid=de3675fa-c77f-4be3-9586-a3073bd197c1","ios":"levelo://app?vid=de3675fa-c77f-4be3-9586-a3073bd197c1"},"vehicle_type_id":"4","last_reported":1753191120,"current_range_meters":16400,"station_id":"ce4bhgp2rcd13ifvqfd0","pricing_plan_id":"cebpf4jnsgd1na2vs0mg"},{"bike_id":"37bf841d-6f8a-41b6-b2e8-9633047be831","system_id":"levelo_inurba_marseille","lat":43.29619,"lon":5.37153,"is_reserved":false,"is_disabled":false,"rental_uris":{"android":"levelo://app?vid=37bf841d-6f8a-41b6-b2e8-9633047be831","ios":"levelo://app?vid=37bf841d-6f8a-41b6-b2e8-9633047be831"},"vehicle_type_id":"4","last_reported":1753191120,"current_range_meters":16400,"station_id":"ce4bgnh2rcd13ifvqc0g","pricing_plan_id":"cebpf4jnsgd1na2vs0mg"},{"bike_id":"b07be36a-faff-41ef-b483-e9222c75464b","system_id":"levelo_inurba_marseille","lat":43.27376,"lon":5.36259,"is_reserved":false,"is_disabled":false,"rental_uris":{"android":"levelo://app?vid=b07be36a-faff-41ef-b483-e9222c75464b","ios":"levelo://app?vid=b07be36a-faff-41ef-b483-e9222c75464b"},"vehicle_type_id":"4","last_reported":1753191120,"current_range_meters":16400,"station_id":"ce4bhbh2rcd13ifvqeo0","pricing_plan_id":"cebpf4jnsgd1na2vs0mg"},{"bike_id":"ac63215f-15fa-413a-bc87-6588c99d9e37","system_id":"levelo_inurba_marseille","lat":43.25493,"lon":5.37668,"is_reserved":false,"is_disabled":false,"rental_uris":{"android":"levelo://app?vid=ac63215f-15fa-413a-bc87-6588c99d9e37","ios":"levelo://app?vid=ac63215f-15fa-413a-bc87-6588c99d9e37"},"vehicle_type_id":"4","last_reported":1753191120,"current_range_meters":16400,"station_id":"ce4bhh12rcd13ifvqff0","pricing_plan_id":"cebpf4jnsgd1na2vs0mg"},{"bike_id":"21cde49a-9e00-4572-81bc-3d691f3c97fa","system_id":"levelo_inurba_marseille","lat":43.25927,"lon":5.40909,"is_reserved":false,"is_disabled":false,"rental_uris":{"android":"levelo://app?vid=21cde49a-9e00-4572-81bc-3d691f3c97fa","ios":"levelo://app?vid=21cde49a-9e00-4572-81bc-3d691f3c97fa"},"vehicle_type_id":"4","last_reported":1753191120,"current_range_meters":16400,"station_id":"ce4bhm92rcd13ifvqglg","pricing_plan_id":"cebpf4jnsgd1na2vs0mg"},{"bike_id":"d8df4252-508a-4243-b57c-236c2bc6958f","system_id":"levelo_inurba_marseille","lat":43.30216,"lon":5.39461,"is_reserved":false,"is_disabled":false,"rental_uris":{"android":"levelo://app?vid=d8df4252-508a-4243-b57c-236c2bc6958f","ios":"levelo://app?vid=d8df4252-508a-4243-b57c-236c2bc6958f"},"vehicle_type_id":"4","last_reported":1753191120,"current_range_meters":16400,"station_id":"ce4bh0p2rcd13ifvqd70","pricing_plan_id":"cebpf4jnsgd1na2vs0mg"},{"bike_id":"9b588286-6435-4c69-8e0c-33192cc3fcbf","system_id":"levelo_inurba_marseille","lat":43.29035,"lon":5.37557,"is_reserved":false,"is_disabled":true,"rental_uris":{"android":"levelo://app?vid=9b588286-6435-4c69-8e0c-33192cc3fcbf","ios":"levelo://app?vid=9b588286-6435-4c69-8e0c-33192cc3fcbf"},"vehicle_type_id":"4","last_reported":1753191120,"current_range_meters":16400,"station_id":"ce4bh692rcd13ifvqe90","pricing_plan_id":"cebpf4jnsgd1na2vs0mg"},{"bike_id":"c774f4c2-bc5f-4cf6-9563-a432097878f3","system_id":"levelo_inurba_marseille","lat":43.29205,"lon":5.35799,"is_reserved":false,"is_disabled":false,"rental_uris":{"android":"levelo://app?vid=c774f4c2-bc5f-4cf6-9563-a432097878f3","ios":"levelo://app?vid=c774f4c2-bc5f-4cf6-9563-a432097878f3"},"vehicle_type_id":"4","last_reported":1753191120,"current_range_meters":16400,"station_id":"ce4bhb12rcd13ifvqel0","pricing_plan_id":"cebpf4jnsgd1na2vs0mg"},{"bike_id":"e44893bb-5cdf-4921-b4e8-39ee578180a1","system_id":"levelo_inurba_marseille","lat":43.24069,"lon":5.37796,"is_reserved":false,"is_disabled":false,"rental_uris":{"android":"levelo://app?vid=e44893bb-5cdf-4921-b4e8-39ee578180a1","ios":"levelo://app?vid=e44893bb-5cdf-4921-b4e8-39ee578180a1"},"vehicle_type_id":"4","last_reported":1753191120,"current_range_meters":16400,"station_id":"ce4bhnp2rcd13ifvqgvg","pricing_plan_id":"cebpf4jnsgd1na2vs0mg"},{"bike_id":"d3eea4a0-76ba-4059-ba6b-c1ecd6270925","system_id":"levelo_inurba_marseille","lat":43.21198,"lon":5.35075,"is_reserved":false,"is_disabled":false,"rental_uris":{"android":"levelo://app?vid=d3eea4a0-76ba-4059-ba6b-c1ecd6270925","ios":"levelo://app?vid=d3eea4a0-76ba-4059-ba6b-c1ecd6270925"},"vehicle_type_id":"4","last_reported":1753191120,"current_range_meters":16800,"station_id":"st_cvj6sg6p6f1abm77japg","pricing_plan_id":"cebpf4jnsgd1na2vs0mg"},{"bike_id":"857bb120-c9e4-4f1b-8121-53704ad4e184","system_id":"levelo_inurba_marseille","lat":43.28943,"lon":5.36637,"is_reserved":false,"is_disabled":false,"rental_uris":{"android":"levelo://app?vid=857bb120-c9e4-4f1b-8121-53704ad4e184","ios":"levelo://app?vid=857bb120-c9e4-4f1b-8121-53704ad4e184"},"vehicle_type_id":"4","last_reported":1753191120,"current_range_meters":16800,"station_id":"ce4bhap2rcd13ifvqek0","pricing_plan_id":"cebpf4jnsgd1na2vs0mg"},{"bike_id":"6a354c9f-e5b1-4629-a81b-736eb34d194c","system_id":"levelo_inurba_marseille","lat":43.2511,"lon":5.4032,"is_reserved":false,"is_disabled":false,"rental_uris":{"android":"levelo://app?vid=6a354c9f-e5b1-4629-a81b-736eb34d194c","ios":"levelo://app?vid=6a354c9f-e5b1-4629-a81b-736eb34d194c"},"vehicle_type_id":"4","last_reported":1753191120,"current_range_meters":16800,"station_id":"ce4bhlh2rcd13ifvqgig","pricing_plan_id":"cebpf4jnsgd1na2vs0mg"},{"bike_id":"87a25bf9-60ea-48cf-a8dd-7937449bef54","system_id":"levelo_inurba_marseille","lat":43.230619,"lon":5.354921,"is_reserved":false,"is_disabled":false,"rental_uris":{"android":"levelo://app?vid=87a25bf9-60ea-48cf-a8dd-7937449bef54","ios":"levelo://app?vid=87a25bf9-60ea-48cf-a8dd-7937449bef54"},"vehicle_type_id":"4","last_reported":1753191120,"current_range_meters":16800,"station_id":"cpo3342slgdg3j2ifvpg","pricing_plan_id":"cebpf4jnsgd1na2vs0mg"},{"bike_id":"1d46de9d-1074-4bbb-ba0d-38867406f627","system_id":"levelo_inurba_marseille","lat":43.2122,"lon":5.35058,"is_reserved":false,"is_disabled":false,"rental_uris":{"android":"levelo://app?vid=1d46de9d-1074-4bbb-ba0d-38867406f627","ios":"levelo://app?vid=1d46de9d-1074-4bbb-ba0d-38867406f627"},"vehicle_type_id":"4","last_reported":1753191120,"current_range_meters":16800,"station_id":"st_cvj6sg6p6f1abm77japg","pricing_plan_id":"cebpf4jnsgd1na2vs0mg"},{"bike_id":"c8e04536-2288-4abf-87fa-9f009f88ed20","system_id":"levelo_inurba_marseille","lat":43.26232,"lon":5.40451,"is_reserved":false,"is_disabled":false,"rental_uris":{"android":"levelo://app?vid=c8e04536-2288-4abf-87fa-9f009f88ed20","ios":"levelo://app?vid=c8e04536-2288-4abf-87fa-9f009f88ed20"},"vehicle_type_id":"4","last_reported":1753191120,"current_range_meters":16800,"station_id":"ce4bhmh2rcd13ifvqgmg","pricing_plan_id":"cebpf4jnsgd1na2vs0mg"},{"bike_id":"4be8ab13-53fe-4991-84b7-8c8e15d8b8c8","system_id":"levelo_inurba_marseille","lat":43.28412,"lon":5.34991,"is_reserved":false,"is_disabled":false,"rental_uris":{"android":"levelo://app?vid=4be8ab13-53fe-4991-84b7-8c8e15d8b8c8","ios":"levelo://app?vid=4be8ab13-53fe-4991-84b7-8c8e15d8b8c8"},"vehicle_type_id":"4","last_reported":1753191120,"current_range_meters":16800,"station_id":"ce4bhbh2rcd13ifvqepg","pricing_plan_id":"cebpf4jnsgd1na2vs0mg"},{"bike_id":"ff29be83-1c77-42fe-b4f8-7a72f17c6d3f","system_id":"levelo_inurba_marseille","lat":43.28411,"lon":5.34993,"is_reserved":false,"is_disabled":false,"rental_uris":{"android":"levelo://app?vid=ff29be83-1c77-42fe-b4f8-7a72f17c6d3f","ios":"levelo://app?vid=ff29be83-1c77-42fe-b4f8-7a72f17c6d3f"},"vehicle_type_id":"4","last_reported":1753191120,"current_range_meters":16800,"station_id":"ce4bhbh2rcd13ifvqepg","pricing_plan_id":"cebpf4jnsgd1na2vs0mg"},{"bike_id":"fe50cf1d-fc61-4e48-98f2-ea42037cc2b3","system_id":"levelo_inurba_marseille","lat":43.21745,"lon":5.34606,"is_reserved":false,"is_disabled":false,"rental_uris":{"android":"levelo://app?vid=fe50cf1d-fc61-4e48-98f2-ea42037cc2b3","ios":"levelo://app?vid=fe50cf1d-fc61-4e48-98f2-ea42037cc2b3"},"vehicle_type_id":"4","last_reported":1753191120,"current_range_meters":16800,"station_id":"st_cvj6r9ubvosntc0bgbag","pricing_plan_id":"cebpf4jnsgd1na2vs0mg"},{"bike_id":"cc1f39de-d652-4096-bfae-3b48643d524d","system_id":"levelo_inurba_marseille","lat":43.25018,"lon":5.38901,"is_reserved":false,"is_disabled":false,"rental_uris":{"android":"levelo://app?vid=cc1f39de-d652-4096-bfae-3b48643d524d","ios":"levelo://app?vid=cc1f39de-d652-4096-bfae-3b48643d524d"},"vehicle_type_id":"4","last_reported":1753191120,"current_range_meters":17200,"station_id":"ce4bhgp2rcd13ifvqfd0","pricing_plan_id":"cebpf4jnsgd1na2vs0mg"},{"bike_id":"194e348e-1696-4be5-b40d-bcccaabbbbd9","system_id":"levelo_inurba_marseille","lat":43.28273,"lon":5.35079,"is_reserved":false,"is_disabled":false,"rental_uris":{"android":"levelo://app?vid=194e348e-1696-4be5-b40d-bcccaabbbbd9","ios":"levelo://app?vid=194e348e-1696-4be5-b40d-bcccaabbbbd9"},"vehicle_type_id":"4","last_reported":1753191120,"current_range_meters":17200,"station_id":"ce4bhbp2rcd13ifvqerg","pricing_plan_id":"cebpf4jnsgd1na2vs0mg"},{"bike_id":"ee5b3c26-9f03-4693-8484-d66daff728e8","system_id":"levelo_inurba_marseille","lat":43.323566,"lon":5.367581,"is_reserved":false,"is_disabled":false,"rental_uris":{"android":"levelo://app?vid=ee5b3c26-9f03-4693-8484-d66daff728e8","ios":"levelo://app?vid=ee5b3c26-9f03-4693-8484-d66daff728e8"},"vehicle_type_id":"4","last_reported":1753191120,"current_range_meters":17200,"station_id":"ce4bhsh2rcd13ifvqi2g","pricing_plan_id":"cebpf4jnsgd1na2vs0mg"},{"bike_id":"2a83acc1-56d2-45cb-92af-0b7521755432","system_id":"levelo_inurba_marseille","lat":43.31356,"lon":5.36662,"is_reserved":false,"is_disabled":false,"rental_uris":{"android":"levelo://app?vid=2a83acc1-56d2-45cb-92af-0b7521755432","ios":"levelo://app?vid=2a83acc1-56d2-45cb-92af-0b7521755432"},"vehicle_type_id":"4","last_reported":1753191120,"current_range_meters":17200,"station_id":"ce4bgr92rcd13ifvqc6g","pricing_plan_id":"cebpf4jnsgd1na2vs0mg"},{"bike_id":"cc926983-7496-48df-9677-b8723ddc96b9","system_id":"levelo_inurba_marseille","lat":43.2293,"lon":5.35353,"is_reserved":false,"is_disabled":false,"rental_uris":{"android":"levelo://app?vid=cc926983-7496-48df-9677-b8723ddc96b9","ios":"levelo://app?vid=cc926983-7496-48df-9677-b8723ddc96b9"},"vehicle_type_id":"4","last_reported":1753191120,"current_range_meters":17600,"station_id":"cpo3532slgdg3j2ikp40","pricing_plan_id":"cebpf4jnsgd1na2vs0mg"},{"bike_id":"9a143ed1-a3c7-421c-a22c-84e79d27e230","system_id":"levelo_inurba_marseille","lat":43.284215,"lon":5.349997,"is_reserved":false,"is_disabled":true,"rental_uris":{"android":"levelo://app?vid=9a143ed1-a3c7-421c-a22c-84e79d27e230","ios":"levelo://app?vid=9a143ed1-a3c7-421c-a22c-84e79d27e230"},"vehicle_type_id":"4","last_reported":1753191120,"current_range_meters":17600,"station_id":"ce4bhbh2rcd13ifvqepg","pricing_plan_id":"cebpf4jnsgd1na2vs0mg"},{"bike_id":"fe07410f-2ac3-4d42-a644-c798c7a25a84","system_id":"levelo_inurba_marseille","lat":43.26571,"lon":5.372879,"is_reserved":false,"is_disabled":false,"rental_uris":{"android":"levelo://app?vid=fe07410f-2ac3-4d42-a644-c798c7a25a84","ios":"levelo://app?vid=fe07410f-2ac3-4d42-a644-c798c7a25a84"},"vehicle_type_id":"4","last_reported":1753191120,"current_range_meters":17600,"station_id":"","pricing_plan_id":"cebpf4jnsgd1na2vs0mg"},{"bike_id":"2ca1d58d-92de-4eb7-bc19-cd38787d68cb","system_id":"levelo_inurba_marseille","lat":43.217445,"lon":5.34603,"is_reserved":false,"is_disabled":false,"rental_uris":{"android":"levelo://app?vid=2ca1d58d-92de-4eb7-bc19-cd38787d68cb","ios":"levelo://app?vid=2ca1d58d-92de-4eb7-bc19-cd38787d68cb"},"vehicle_type_id":"4","last_reported":1753191120,"current_range_meters":17600,"station_id":"st_cvj6r9ubvosntc0bgbag","pricing_plan_id":"cebpf4jnsgd1na2vs0mg"},{"bike_id":"d3d68f74-114e-4f92-8884-79ab8d5968f1","system_id":"levelo_inurba_marseille","lat":43.292288,"lon":5.36071,"is_reserved":false,"is_disabled":false,"rental_uris":{"android":"levelo://app?vid=d3d68f74-114e-4f92-8884-79ab8d5968f1","ios":"levelo://app?vid=d3d68f74-114e-4f92-8884-79ab8d5968f1"},"vehicle_type_id":"4","last_reported":1753191120,"current_range_meters":17600,"station_id":"ce4bhbh2rcd13ifvqeqg","pricing_plan_id":"cebpf4jnsgd1na2vs0mg"},{"bike_id":"6093672b-1e9a-4299-b920-36e4f293a348","system_id":"levelo_inurba_marseille","lat":43.22919,"lon":5.35375,"is_reserved":false,"is_disabled":false,"rental_uris":{"android":"levelo://app?vid=6093672b-1e9a-4299-b920-36e4f293a348","ios":"levelo://app?vid=6093672b-1e9a-4299-b920-36e4f293a348"},"vehicle_type_id":"4","last_reported":1753191120,"current_range_meters":18000,"station_id":"cpo3532slgdg3j2ikp40","pricing_plan_id":"cebpf4jnsgd1na2vs0mg"},{"bike_id":"cd9eb096-c603-46ff-8db8-2b9c13e3da44","system_id":"levelo_inurba_marseille","lat":43.270686,"lon":5.363418,"is_reserved":false,"is_disabled":false,"rental_uris":{"android":"levelo://app?vid=cd9eb096-c603-46ff-8db8-2b9c13e3da44","ios":"levelo://app?vid=cd9eb096-c603-46ff-8db8-2b9c13e3da44"},"vehicle_type_id":"4","last_reported":1753191120,"current_range_meters":18000,"station_id":"ce4bhgp2rcd13ifvqfd0","pricing_plan_id":"cebpf4jnsgd1na2vs0mg"},{"bike_id":"1a2751da-031a-4246-8d2c-dd848ee0e802","system_id":"levelo_inurba_marseille","lat":43.29526,"lon":5.385436,"is_reserved":false,"is_disabled":true,"rental_uris":{"android":"levelo://app?vid=1a2751da-031a-4246-8d2c-dd848ee0e802","ios":"levelo://app?vid=1a2751da-031a-4246-8d2c-dd848ee0e802"},"vehicle_type_id":"4","last_reported":1753191120,"current_range_meters":18000,"station_id":"ce4bgih2rcd13ifvqba0","pricing_plan_id":"cebpf4jnsgd1na2vs0mg"},{"bike_id":"fb81ee79-6688-4d05-be53-1ac881d0c7b8","system_id":"levelo_inurba_marseille","lat":43.23195,"lon":5.35548,"is_reserved":false,"is_disabled":false,"rental_uris":{"android":"levelo://app?vid=fb81ee79-6688-4d05-be53-1ac881d0c7b8","ios":"levelo://app?vid=fb81ee79-6688-4d05-be53-1ac881d0c7b8"},"vehicle_type_id":"4","last_reported":1753191120,"current_range_meters":18000,"station_id":"ce4bhu92rcd13ifvqi70","pricing_plan_id":"cebpf4jnsgd1na2vs0mg"},{"bike_id":"bb74e696-d878-4d41-b7f0-3b9df9bd212d","system_id":"levelo_inurba_marseille","lat":43.25006,"lon":5.38908,"is_reserved":false,"is_disabled":false,"rental_uris":{"android":"levelo://app?vid=bb74e696-d878-4d41-b7f0-3b9df9bd212d","ios":"levelo://app?vid=bb74e696-d878-4d41-b7f0-3b9df9bd212d"},"vehicle_type_id":"4","last_reported":1753191120,"current_range_meters":18000,"station_id":"ce4bhgp2rcd13ifvqfd0","pricing_plan_id":"cebpf4jnsgd1na2vs0mg"},{"bike_id":"79bd0318-e52e-4e79-a02d-b3331843d9c0","system_id":"levelo_inurba_marseille","lat":43.27568,"lon":5.384264,"is_reserved":false,"is_disabled":false,"rental_uris":{"android":"levelo://app?vid=79bd0318-e52e-4e79-a02d-b3331843d9c0","ios":"levelo://app?vid=79bd0318-e52e-4e79-a02d-b3331843d9c0"},"vehicle_type_id":"4","last_reported":1753191120,"current_range_meters":18000,"station_id":"","pricing_plan_id":"cebpf4jnsgd1na2vs0mg"},{"bike_id":"a0765c12-be85-441a-a302-b93ec3874b42","system_id":"levelo_inurba_marseille","lat":43.28106,"lon":5.37831,"is_reserved":false,"is_disabled":false,"rental_uris":{"android":"levelo://app?vid=a0765c12-be85-441a-a302-b93ec3874b42","ios":"levelo://app?vid=a0765c12-be85-441a-a302-b93ec3874b42"},"vehicle_type_id":"4","last_reported":1753191120,"current_range_meters":18000,"station_id":"ce4bha12rcd13ifvqee0","pricing_plan_id":"cebpf4jnsgd1na2vs0mg"},{"bike_id":"ac185759-c261-4718-bdc4-b3b390f0c20f","system_id":"levelo_inurba_marseille","lat":43.24183,"lon":5.39742,"is_reserved":false,"is_disabled":false,"rental_uris":{"android":"levelo://app?vid=ac185759-c261-4718-bdc4-b3b390f0c20f","ios":"levelo://app?vid=ac185759-c261-4718-bdc4-b3b390f0c20f"},"vehicle_type_id":"4","last_reported":1753191120,"current_range_meters":18000,"station_id":"ce4bhn12rcd13ifvqgpg","pricing_plan_id":"cebpf4jnsgd1na2vs0mg"},{"bike_id":"a87328a1-9225-4419-b45d-c275e4739a6a","system_id":"levelo_inurba_marseille","lat":43.21182,"lon":5.35067,"is_reserved":false,"is_disabled":false,"rental_uris":{"android":"levelo://app?vid=a87328a1-9225-4419-b45d-c275e4739a6a","ios":"levelo://app?vid=a87328a1-9225-4419-b45d-c275e4739a6a"},"vehicle_type_id":"4","last_reported":1753191120,"current_range_meters":18000,"station_id":"st_cvj6sg6p6f1abm77japg","pricing_plan_id":"cebpf4jnsgd1na2vs0mg"},{"bike_id":"97b76cd8-e4ae-4906-b020-93fa58af7b80","system_id":"levelo_inurba_marseille","lat":43.29567,"lon":5.36742,"is_reserved":false,"is_disabled":false,"rental_uris":{"android":"levelo://app?vid=97b76cd8-e4ae-4906-b020-93fa58af7b80","ios":"levelo://app?vid=97b76cd8-e4ae-4906-b020-93fa58af7b80"},"vehicle_type_id":"4","last_reported":1753191120,"current_range_meters":18800,"station_id":"ce4bgph2rcd13ifvqc2g","pricing_plan_id":"cebpf4jnsgd1na2vs0mg"},{"bike_id":"177aa1e7-e7c1-4e92-bc28-5c7f8fd3ca86","system_id":"levelo_inurba_marseille","lat":43.21194,"lon":5.35071,"is_reserved":false,"is_disabled":false,"rental_uris":{"android":"levelo://app?vid=177aa1e7-e7c1-4e92-bc28-5c7f8fd3ca86","ios":"levelo://app?vid=177aa1e7-e7c1-4e92-bc28-5c7f8fd3ca86"},"vehicle_type_id":"4","last_reported":1753191120,"current_range_meters":18800,"station_id":"st_cvj6sg6p6f1abm77japg","pricing_plan_id":"cebpf4jnsgd1na2vs0mg"},{"bike_id":"d509b331-e799-4503-90e7-40b1e687c26f","system_id":"levelo_inurba_marseille","lat":43.28606,"lon":5.3707,"is_reserved":false,"is_disabled":true,"rental_uris":{"android":"levelo://app?vid=d509b331-e799-4503-90e7-40b1e687c26f","ios":"levelo://app?vid=d509b331-e799-4503-90e7-40b1e687c26f"},"vehicle_type_id":"4","last_reported":1753191120,"current_range_meters":18800,"station_id":"ce4bht12rcd13ifvqi60","pricing_plan_id":"cebpf4jnsgd1na2vs0mg"},{"bike_id":"b25ad7ed-75d0-4efb-a270-0d4f9e7b754f","system_id":"levelo_inurba_marseille","lat":43.337444,"lon":5.374475,"is_reserved":false,"is_disabled":false,"rental_uris":{"android":"levelo://app?vid=b25ad7ed-75d0-4efb-a270-0d4f9e7b754f","ios":"levelo://app?vid=b25ad7ed-75d0-4efb-a270-0d4f9e7b754f"},"vehicle_type_id":"4","last_reported":1753191120,"current_range_meters":18800,"station_id":"","pricing_plan_id":"cebpf4jnsgd1na2vs0mg"},{"bike_id":"6e1be7e4-42cb-4ecf-8bd0-ff9e66bd3f7b","system_id":"levelo_inurba_marseille","lat":43.3031,"lon":5.36904,"is_reserved":false,"is_disabled":false,"rental_uris":{"android":"levelo://app?vid=6e1be7e4-42cb-4ecf-8bd0-ff9e66bd3f7b","ios":"levelo://app?vid=6e1be7e4-42cb-4ecf-8bd0-ff9e66bd3f7b"},"vehicle_type_id":"4","last_reported":1753191120,"current_range_meters":18800,"station_id":"ce4bgqh2rcd13ifvqc5g","pricing_plan_id":"cebpf4jnsgd1na2vs0mg"},{"bike_id":"0328809f-87e4-43d4-9881-2db7d232e7fc","system_id":"levelo_inurba_marseille","lat":43.28938,"lon":5.36637,"is_reserved":false,"is_disabled":false,"rental_uris":{"android":"levelo://app?vid=0328809f-87e4-43d4-9881-2db7d232e7fc","ios":"levelo://app?vid=0328809f-87e4-43d4-9881-2db7d232e7fc"},"vehicle_type_id":"4","last_reported":1753191120,"current_range_meters":18800,"station_id":"ce4bhap2rcd13ifvqek0","pricing_plan_id":"cebpf4jnsgd1na2vs0mg"},{"bike_id":"eb9ca644-aee8-47bb-a8ed-053332a8d838","system_id":"levelo_inurba_marseille","lat":43.26567,"lon":5.37293,"is_reserved":false,"is_disabled":false,"rental_uris":{"android":"levelo://app?vid=eb9ca644-aee8-47bb-a8ed-053332a8d838","ios":"levelo://app?vid=eb9ca644-aee8-47bb-a8ed-053332a8d838"},"vehicle_type_id":"4","last_reported":1753191120,"current_range_meters":19200,"station_id":"ce4bhg12rcd13ifvqf70","pricing_plan_id":"cebpf4jnsgd1na2vs0mg"},{"bike_id":"c6e26e57-de9b-4f2f-b033-fc07ce861c11","system_id":"levelo_inurba_marseille","lat":43.28488,"lon":5.38565,"is_reserved":false,"is_disabled":false,"rental_uris":{"android":"levelo://app?vid=c6e26e57-de9b-4f2f-b033-fc07ce861c11","ios":"levelo://app?vid=c6e26e57-de9b-4f2f-b033-fc07ce861c11"},"vehicle_type_id":"4","last_reported":1753191120,"current_range_meters":19200,"station_id":"ce4bh8p2rcd13ifvqeb0","pricing_plan_id":"cebpf4jnsgd1na2vs0mg"},{"bike_id":"81a0e363-545d-4507-a000-bd020cdf6486","system_id":"levelo_inurba_marseille","lat":43.24652,"lon":5.38893,"is_reserved":false,"is_disabled":false,"rental_uris":{"android":"levelo://app?vid=81a0e363-545d-4507-a000-bd020cdf6486","ios":"levelo://app?vid=81a0e363-545d-4507-a000-bd020cdf6486"},"vehicle_type_id":"4","last_reported":1753191120,"current_range_meters":19200,"station_id":"ce4bhg12rcd13ifvqf60","pricing_plan_id":"cebpf4jnsgd1na2vs0mg"},{"bike_id":"e4d981c9-a560-4a33-afeb-1406adebb057","system_id":"levelo_inurba_marseille","lat":43.2659,"lon":5.39016,"is_reserved":false,"is_disabled":false,"rental_uris":{"android":"levelo://app?vid=e4d981c9-a560-4a33-afeb-1406adebb057","ios":"levelo://app?vid=e4d981c9-a560-4a33-afeb-1406adebb057"},"vehicle_type_id":"4","last_reported":1753191120,"current_range_meters":19200,"station_id":"ce4bhe12rcd13ifvqf30","pricing_plan_id":"cebpf4jnsgd1na2vs0mg"},{"bike_id":"248219e7-14bb-4f0e-9e02-0501bea0b7b4","system_id":"levelo_inurba_marseille","lat":43.24169,"lon":5.36402,"is_reserved":false,"is_disabled":false,"rental_uris":{"android":"levelo://app?vid=248219e7-14bb-4f0e-9e02-0501bea0b7b4","ios":"levelo://app?vid=248219e7-14bb-4f0e-9e02-0501bea0b7b4"},"vehicle_type_id":"4","last_reported":1753191120,"current_range_meters":19200,"station_id":"cpo36qri1sfpv3e86is0","pricing_plan_id":"cebpf4jnsgd1na2vs0mg"},{"bike_id":"df1abf48-7452-4644-804a-d51ca4f8f139","system_id":"levelo_inurba_marseille","lat":43.217463,"lon":5.346056,"is_reserved":false,"is_disabled":false,"rental_uris":{"android":"levelo://app?vid=df1abf48-7452-4644-804a-d51ca4f8f139","ios":"levelo://app?vid=df1abf48-7452-4644-804a-d51ca4f8f139"},"vehicle_type_id":"4","last_reported":1753191120,"current_range_meters":19200,"station_id":"","pricing_plan_id":"cebpf4jnsgd1na2vs0mg"},{"bike_id":"e3a9e6d1-788b-4774-babe-289560a0bee7","system_id":"levelo_inurba_marseille","lat":43.2998,"lon":5.37418,"is_reserved":false,"is_disabled":false,"rental_uris":{"android":"levelo://app?vid=e3a9e6d1-788b-4774-babe-289560a0bee7","ios":"levelo://app?vid=e3a9e6d1-788b-4774-babe-289560a0bee7"},"vehicle_type_id":"4","last_reported":1753191120,"current_range_meters":19200,"station_id":"","pricing_plan_id":"cebpf4jnsgd1na2vs0mg"},{"bike_id":"2926e178-6436-4ad4-a9a0-63631e890abe","system_id":"levelo_inurba_marseille","lat":43.21807,"lon":5.34604,"is_reserved":false,"is_disabled":false,"rental_uris":{"android":"levelo://app?vid=2926e178-6436-4ad4-a9a0-63631e890abe","ios":"levelo://app?vid=2926e178-6436-4ad4-a9a0-63631e890abe"},"vehicle_type_id":"4","last_reported":1753191120,"current_range_meters":19200,"station_id":"st_cvj6r9ubvosntc0bgbag","pricing_plan_id":"cebpf4jnsgd1na2vs0mg"},{"bike_id":"27f56e9e-851a-4ca4-b8c3-433f9c254ace","system_id":"levelo_inurba_marseille","lat":43.29262,"lon":5.37621,"is_reserved":false,"is_disabled":false,"rental_uris":{"android":"levelo://app?vid=27f56e9e-851a-4ca4-b8c3-433f9c254ace","ios":"levelo://app?vid=27f56e9e-851a-4ca4-b8c3-433f9c254ace"},"vehicle_type_id":"4","last_reported":1753191120,"current_range_meters":19200,"station_id":"ce4bgi12rcd13ifvqb80","pricing_plan_id":"cebpf4jnsgd1na2vs0mg"},{"bike_id":"3f486dec-f17e-4a3a-8404-dce448eaaa26","system_id":"levelo_inurba_marseille","lat":43.32104,"lon":5.367733,"is_reserved":false,"is_disabled":false,"rental_uris":{"android":"levelo://app?vid=3f486dec-f17e-4a3a-8404-dce448eaaa26","ios":"levelo://app?vid=3f486dec-f17e-4a3a-8404-dce448eaaa26"},"vehicle_type_id":"4","last_reported":1753191120,"current_range_meters":19200,"station_id":"ce4bhrh2rcd13ifvqhug","pricing_plan_id":"cebpf4jnsgd1na2vs0mg"},{"bike_id":"93aed92c-845e-4801-a5c6-08e7a5b90d9a","system_id":"levelo_inurba_marseille","lat":43.2316,"lon":5.43684,"is_reserved":false,"is_disabled":false,"rental_uris":{"android":"levelo://app?vid=93aed92c-845e-4801-a5c6-08e7a5b90d9a","ios":"levelo://app?vid=93aed92c-845e-4801-a5c6-08e7a5b90d9a"},"vehicle_type_id":"4","last_reported":1753191120,"current_range_meters":19200,"station_id":"ce4bhmp2rcd13ifvqgog","pricing_plan_id":"cebpf4jnsgd1na2vs0mg"},{"bike_id":"7b58fc65-06b6-4ade-a6b7-d7a8f2c0f7b3","system_id":"levelo_inurba_marseille","lat":43.25765,"lon":5.411,"is_reserved":false,"is_disabled":false,"rental_uris":{"android":"levelo://app?vid=7b58fc65-06b6-4ade-a6b7-d7a8f2c0f7b3","ios":"levelo://app?vid=7b58fc65-06b6-4ade-a6b7-d7a8f2c0f7b3"},"vehicle_type_id":"4","last_reported":1753191120,"current_range_meters":19600,"station_id":"","pricing_plan_id":"cebpf4jnsgd1na2vs0mg"},{"bike_id":"b304cf20-8bfb-49c6-a586-601ec14197ae","system_id":"levelo_inurba_marseille","lat":43.30549,"lon":5.36674,"is_reserved":false,"is_disabled":false,"rental_uris":{"android":"levelo://app?vid=b304cf20-8bfb-49c6-a586-601ec14197ae","ios":"levelo://app?vid=b304cf20-8bfb-49c6-a586-601ec14197ae"},"vehicle_type_id":"4","last_reported":1753191120,"current_range_meters":19600,"station_id":"ce4bgrp2rcd13ifvqc9g","pricing_plan_id":"cebpf4jnsgd1na2vs0mg"},{"bike_id":"35724039-7f87-4c8b-9981-9137ab21326b","system_id":"levelo_inurba_marseille","lat":43.270616,"lon":5.402594,"is_reserved":false,"is_disabled":false,"rental_uris":{"android":"levelo://app?vid=35724039-7f87-4c8b-9981-9137ab21326b","ios":"levelo://app?vid=35724039-7f87-4c8b-9981-9137ab21326b"},"vehicle_type_id":"4","last_reported":1753191120,"current_range_meters":19600,"station_id":"ce4bhk92rcd13ifvqgc0","pricing_plan_id":"cebpf4jnsgd1na2vs0mg"},{"bike_id":"4f1dd806-4cc0-4731-a103-d84b6076bb8f","system_id":"levelo_inurba_marseille","lat":43.25574,"lon":5.38238,"is_reserved":false,"is_disabled":true,"rental_uris":{"android":"levelo://app?vid=4f1dd806-4cc0-4731-a103-d84b6076bb8f","ios":"levelo://app?vid=4f1dd806-4cc0-4731-a103-d84b6076bb8f"},"vehicle_type_id":"4","last_reported":1753191120,"current_range_meters":19600,"station_id":"ce4bhih2rcd13ifvqfs0","pricing_plan_id":"cebpf4jnsgd1na2vs0mg"},{"bike_id":"87efb87e-9c1b-48bc-9816-65bf93d44e2c","system_id":"levelo_inurba_marseille","lat":43.276176,"lon":5.361005,"is_reserved":false,"is_disabled":false,"rental_uris":{"android":"levelo://app?vid=87efb87e-9c1b-48bc-9816-65bf93d44e2c","ios":"levelo://app?vid=87efb87e-9c1b-48bc-9816-65bf93d44e2c"},"vehicle_type_id":"4","last_reported":1753191120,"current_range_meters":19600,"station_id":"","pricing_plan_id":"cebpf4jnsgd1na2vs0mg"},{"bike_id":"f66855e1-18fe-470f-8fec-4e5be71eaad5","system_id":"levelo_inurba_marseille","lat":43.25895,"lon":5.40901,"is_reserved":false,"is_disabled":false,"rental_uris":{"android":"levelo://app?vid=f66855e1-18fe-470f-8fec-4e5be71eaad5","ios":"levelo://app?vid=f66855e1-18fe-470f-8fec-4e5be71eaad5"},"vehicle_type_id":"4","last_reported":1753191120,"current_range_meters":19600,"station_id":"ce4bhm92rcd13ifvqglg","pricing_plan_id":"cebpf4jnsgd1na2vs0mg"},{"bike_id":"23c29e00-ece7-4cf5-8159-4b8848728223","system_id":"levelo_inurba_marseille","lat":43.28395,"lon":5.35011,"is_reserved":false,"is_disabled":false,"rental_uris":{"android":"levelo://app?vid=23c29e00-ece7-4cf5-8159-4b8848728223","ios":"levelo://app?vid=23c29e00-ece7-4cf5-8159-4b8848728223"},"vehicle_type_id":"4","last_reported":1753191120,"current_range_meters":19600,"station_id":"ce4bhbh2rcd13ifvqepg","pricing_plan_id":"cebpf4jnsgd1na2vs0mg"},{"bike_id":"06101cf9-8ecc-4c54-9850-330545d2ec08","system_id":"levelo_inurba_marseille","lat":43.30796,"lon":5.379577,"is_reserved":false,"is_disabled":false,"rental_uris":{"android":"levelo://app?vid=06101cf9-8ecc-4c54-9850-330545d2ec08","ios":"levelo://app?vid=06101cf9-8ecc-4c54-9850-330545d2ec08"},"vehicle_type_id":"4","last_reported":1753191120,"current_range_meters":19600,"station_id":"","pricing_plan_id":"cebpf4jnsgd1na2vs0mg"},{"bike_id":"1037e2b0-5159-4ab5-8ab8-3ca01c76ac4b","system_id":"levelo_inurba_marseille","lat":43.2171,"lon":5.3464,"is_reserved":false,"is_disabled":false,"rental_uris":{"android":"levelo://app?vid=1037e2b0-5159-4ab5-8ab8-3ca01c76ac4b","ios":"levelo://app?vid=1037e2b0-5159-4ab5-8ab8-3ca01c76ac4b"},"vehicle_type_id":"4","last_reported":1753191120,"current_range_meters":19600,"station_id":"st_cvj6r9ubvosntc0bgbag","pricing_plan_id":"cebpf4jnsgd1na2vs0mg"},{"bike_id":"4fd2ce6e-422e-48af-9a87-09d327424c2e","system_id":"levelo_inurba_marseille","lat":43.2761,"lon":5.36102,"is_reserved":false,"is_disabled":false,"rental_uris":{"android":"levelo://app?vid=4fd2ce6e-422e-48af-9a87-09d327424c2e","ios":"levelo://app?vid=4fd2ce6e-422e-48af-9a87-09d327424c2e"},"vehicle_type_id":"4","last_reported":1753191120,"current_range_meters":19600,"station_id":"ce4bgj92rcd13ifvqbe0","pricing_plan_id":"cebpf4jnsgd1na2vs0mg"},{"bike_id":"9bb5d30e-7a3b-416b-8265-fcc7d15a3375","system_id":"levelo_inurba_marseille","lat":43.28426,"lon":5.34998,"is_reserved":false,"is_disabled":false,"rental_uris":{"android":"levelo://app?vid=9bb5d30e-7a3b-416b-8265-fcc7d15a3375","ios":"levelo://app?vid=9bb5d30e-7a3b-416b-8265-fcc7d15a3375"},"vehicle_type_id":"4","last_reported":1753191120,"current_range_meters":19600,"station_id":"ce4bhbh2rcd13ifvqepg","pricing_plan_id":"cebpf4jnsgd1na2vs0mg"},{"bike_id":"8639fd84-c349-4ade-9679-6910fe2cbb0b","system_id":"levelo_inurba_marseille","lat":43.21736,"lon":5.346,"is_reserved":false,"is_disabled":false,"rental_uris":{"android":"levelo://app?vid=8639fd84-c349-4ade-9679-6910fe2cbb0b","ios":"levelo://app?vid=8639fd84-c349-4ade-9679-6910fe2cbb0b"},"vehicle_type_id":"4","last_reported":1753191120,"current_range_meters":19600,"station_id":"st_cvj6r9ubvosntc0bgbag","pricing_plan_id":"cebpf4jnsgd1na2vs0mg"},{"bike_id":"0a7e2862-d8ec-4c77-89d9-cfcdd51f8d75","system_id":"levelo_inurba_marseille","lat":43.31843,"lon":5.36806,"is_reserved":false,"is_disabled":false,"rental_uris":{"android":"levelo://app?vid=0a7e2862-d8ec-4c77-89d9-cfcdd51f8d75","ios":"levelo://app?vid=0a7e2862-d8ec-4c77-89d9-cfcdd51f8d75"},"vehicle_type_id":"4","last_reported":1753191120,"current_range_meters":19600,"station_id":"","pricing_plan_id":"cebpf4jnsgd1na2vs0mg"},{"bike_id":"a3f4ea86-f042-44ca-8ee5-ba45d4f6e22f","system_id":"levelo_inurba_marseille","lat":43.28642,"lon":5.35109,"is_reserved":false,"is_disabled":false,"rental_uris":{"android":"levelo://app?vid=a3f4ea86-f042-44ca-8ee5-ba45d4f6e22f","ios":"levelo://app?vid=a3f4ea86-f042-44ca-8ee5-ba45d4f6e22f"},"vehicle_type_id":"4","last_reported":1753191120,"current_range_meters":20000,"station_id":"ce4bhch2rcd13ifvqeug","pricing_plan_id":"cebpf4jnsgd1na2vs0mg"},{"bike_id":"4b7b5be6-0a5b-41a1-8516-a13df95ad868","system_id":"levelo_inurba_marseille","lat":43.33749,"lon":5.37447,"is_reserved":false,"is_disabled":false,"rental_uris":{"android":"levelo://app?vid=4b7b5be6-0a5b-41a1-8516-a13df95ad868","ios":"levelo://app?vid=4b7b5be6-0a5b-41a1-8516-a13df95ad868"},"vehicle_type_id":"4","last_reported":1753191120,"current_range_meters":20000,"station_id":"","pricing_plan_id":"cebpf4jnsgd1na2vs0mg"},{"bike_id":"36329976-ead1-480c-9dc6-f7148a3f9d3a","system_id":"levelo_inurba_marseille","lat":43.3051,"lon":5.3673,"is_reserved":false,"is_disabled":false,"rental_uris":{"android":"levelo://app?vid=36329976-ead1-480c-9dc6-f7148a3f9d3a","ios":"levelo://app?vid=36329976-ead1-480c-9dc6-f7148a3f9d3a"},"vehicle_type_id":"4","last_reported":1753191120,"current_range_meters":20000,"station_id":"ce4bgrp2rcd13ifvqc9g","pricing_plan_id":"cebpf4jnsgd1na2vs0mg"},{"bike_id":"2a1f2403-152b-47d3-8001-ec26c6a37468","system_id":"levelo_inurba_marseille","lat":43.23127,"lon":5.43696,"is_reserved":false,"is_disabled":false,"rental_uris":{"android":"levelo://app?vid=2a1f2403-152b-47d3-8001-ec26c6a37468","ios":"levelo://app?vid=2a1f2403-152b-47d3-8001-ec26c6a37468"},"vehicle_type_id":"4","last_reported":1753191120,"current_range_meters":20000,"station_id":"ce4bhmp2rcd13ifvqgog","pricing_plan_id":"cebpf4jnsgd1na2vs0mg"},{"bike_id":"9b3bc160-f51b-4823-99cc-fac83e31e09e","system_id":"levelo_inurba_marseille","lat":43.32121,"lon":5.36772,"is_reserved":false,"is_disabled":false,"rental_uris":{"android":"levelo://app?vid=9b3bc160-f51b-4823-99cc-fac83e31e09e","ios":"levelo://app?vid=9b3bc160-f51b-4823-99cc-fac83e31e09e"},"vehicle_type_id":"4","last_reported":1753191120,"current_range_meters":20000,"station_id":"ce4bhrh2rcd13ifvqhug","pricing_plan_id":"cebpf4jnsgd1na2vs0mg"},{"bike_id":"87c9dd7a-9164-42e7-90fd-acbb0843047e","system_id":"levelo_inurba_marseille","lat":43.25941,"lon":5.40888,"is_reserved":false,"is_disabled":false,"rental_uris":{"android":"levelo://app?vid=87c9dd7a-9164-42e7-90fd-acbb0843047e","ios":"levelo://app?vid=87c9dd7a-9164-42e7-90fd-acbb0843047e"},"vehicle_type_id":"4","last_reported":1753191120,"current_range_meters":20000,"station_id":"ce4bhm92rcd13ifvqglg","pricing_plan_id":"cebpf4jnsgd1na2vs0mg"},{"bike_id":"957634bc-79de-4b4c-b452-d0169c4affe9","system_id":"levelo_inurba_marseille","lat":43.32363,"lon":5.36771,"is_reserved":false,"is_disabled":false,"rental_uris":{"android":"levelo://app?vid=957634bc-79de-4b4c-b452-d0169c4affe9","ios":"levelo://app?vid=957634bc-79de-4b4c-b452-d0169c4affe9"},"vehicle_type_id":"4","last_reported":1753191120,"current_range_meters":20000,"station_id":"ce4bhsh2rcd13ifvqi2g","pricing_plan_id":"cebpf4jnsgd1na2vs0mg"},{"bike_id":"66468342-0f85-4683-89d8-35e4f3844c4a","system_id":"levelo_inurba_marseille","lat":43.305437,"lon":5.367028,"is_reserved":false,"is_disabled":false,"rental_uris":{"android":"levelo://app?vid=66468342-0f85-4683-89d8-35e4f3844c4a","ios":"levelo://app?vid=66468342-0f85-4683-89d8-35e4f3844c4a"},"vehicle_type_id":"4","last_reported":1753191120,"current_range_meters":20000,"station_id":"ce4bgrp2rcd13ifvqc9g","pricing_plan_id":"cebpf4jnsgd1na2vs0mg"},{"bike_id":"b8bfa5de-b4d6-4d38-8e40-510ea441fe00","system_id":"levelo_inurba_marseille","lat":43.28412,"lon":5.34994,"is_reserved":false,"is_disabled":false,"rental_uris":{"android":"levelo://app?vid=b8bfa5de-b4d6-4d38-8e40-510ea441fe00","ios":"levelo://app?vid=b8bfa5de-b4d6-4d38-8e40-510ea441fe00"},"vehicle_type_id":"4","last_reported":1753191120,"current_range_meters":20000,"station_id":"ce4bhbh2rcd13ifvqepg","pricing_plan_id":"cebpf4jnsgd1na2vs0mg"},{"bike_id":"bfa5cd92-f491-45a0-95fe-6103d1bc2ff3","system_id":"levelo_inurba_marseille","lat":43.2842,"lon":5.35,"is_reserved":false,"is_disabled":false,"rental_uris":{"android":"levelo://app?vid=bfa5cd92-f491-45a0-95fe-6103d1bc2ff3","ios":"levelo://app?vid=bfa5cd92-f491-45a0-95fe-6103d1bc2ff3"},"vehicle_type_id":"4","last_reported":1753191120,"current_range_meters":20400,"station_id":"ce4bhbh2rcd13ifvqepg","pricing_plan_id":"cebpf4jnsgd1na2vs0mg"},{"bike_id":"d1e6770c-ae9e-43b2-a19b-ad6fb804b44b","system_id":"levelo_inurba_marseille","lat":43.288239,"lon":5.352426,"is_reserved":false,"is_disabled":false,"rental_uris":{"android":"levelo://app?vid=d1e6770c-ae9e-43b2-a19b-ad6fb804b44b","ios":"levelo://app?vid=d1e6770c-ae9e-43b2-a19b-ad6fb804b44b"},"vehicle_type_id":"4","last_reported":1753191120,"current_range_meters":20400,"station_id":"ce4bhb12rcd13ifvqel0","pricing_plan_id":"cebpf4jnsgd1na2vs0mg"},{"bike_id":"f7245ae4-7e18-4bd2-94cd-54836d83f19c","system_id":"levelo_inurba_marseille","lat":43.29201,"lon":5.39318,"is_reserved":false,"is_disabled":false,"rental_uris":{"android":"levelo://app?vid=f7245ae4-7e18-4bd2-94cd-54836d83f19c","ios":"levelo://app?vid=f7245ae4-7e18-4bd2-94cd-54836d83f19c"},"vehicle_type_id":"4","last_reported":1753191120,"current_range_meters":20400,"station_id":"ce4bh192rcd13ifvqdd0","pricing_plan_id":"cebpf4jnsgd1na2vs0mg"},{"bike_id":"8ebb18e8-0410-49b5-bcce-3f247d7bd09f","system_id":"levelo_inurba_marseille","lat":43.25463,"lon":5.37658,"is_reserved":false,"is_disabled":false,"rental_uris":{"android":"levelo://app?vid=8ebb18e8-0410-49b5-bcce-3f247d7bd09f","ios":"levelo://app?vid=8ebb18e8-0410-49b5-bcce-3f247d7bd09f"},"vehicle_type_id":"4","last_reported":1753191120,"current_range_meters":20400,"station_id":"ce4bhh12rcd13ifvqff0","pricing_plan_id":"cebpf4jnsgd1na2vs0mg"},{"bike_id":"5e02988e-7d55-4766-a24e-5a79183357cb","system_id":"levelo_inurba_marseille","lat":43.21211,"lon":5.35069,"is_reserved":false,"is_disabled":false,"rental_uris":{"android":"levelo://app?vid=5e02988e-7d55-4766-a24e-5a79183357cb","ios":"levelo://app?vid=5e02988e-7d55-4766-a24e-5a79183357cb"},"vehicle_type_id":"4","last_reported":1753191120,"current_range_meters":20400,"station_id":"st_cvj6sg6p6f1abm77japg","pricing_plan_id":"cebpf4jnsgd1na2vs0mg"},{"bike_id":"c891f995-ba77-4d86-b222-6b4141193933","system_id":"levelo_inurba_marseille","lat":43.33581,"lon":5.3987,"is_reserved":false,"is_disabled":false,"rental_uris":{"android":"levelo://app?vid=c891f995-ba77-4d86-b222-6b4141193933","ios":"levelo://app?vid=c891f995-ba77-4d86-b222-6b4141193933"},"vehicle_type_id":"4","last_reported":1753191120,"current_range_meters":20400,"station_id":"","pricing_plan_id":"cebpf4jnsgd1na2vs0mg"},{"bike_id":"7e87ea03-26ce-453a-9a2f-9d6a548a3aba","system_id":"levelo_inurba_marseille","lat":43.30528,"lon":5.36682,"is_reserved":false,"is_disabled":false,"rental_uris":{"android":"levelo://app?vid=7e87ea03-26ce-453a-9a2f-9d6a548a3aba","ios":"levelo://app?vid=7e87ea03-26ce-453a-9a2f-9d6a548a3aba"},"vehicle_type_id":"4","last_reported":1753191120,"current_range_meters":20400,"station_id":"ce4bgrp2rcd13ifvqc9g","pricing_plan_id":"cebpf4jnsgd1na2vs0mg"},{"bike_id":"cffcc51c-152a-47c2-8e33-82c26e2349c9","system_id":"levelo_inurba_marseille","lat":43.30526,"lon":5.36718,"is_reserved":false,"is_disabled":false,"rental_uris":{"android":"levelo://app?vid=cffcc51c-152a-47c2-8e33-82c26e2349c9","ios":"levelo://app?vid=cffcc51c-152a-47c2-8e33-82c26e2349c9"},"vehicle_type_id":"4","last_reported":1753191120,"current_range_meters":20400,"station_id":"ce4bgrp2rcd13ifvqc9g","pricing_plan_id":"cebpf4jnsgd1na2vs0mg"},{"bike_id":"044db2a8-ac5e-4564-afbc-5957e31c3201","system_id":"levelo_inurba_marseille","lat":43.31069,"lon":5.38352,"is_reserved":false,"is_disabled":false,"rental_uris":{"android":"levelo://app?vid=044db2a8-ac5e-4564-afbc-5957e31c3201","ios":"levelo://app?vid=044db2a8-ac5e-4564-afbc-5957e31c3201"},"vehicle_type_id":"4","last_reported":1753191120,"current_range_meters":20400,"station_id":"ce4bgv92rcd13ifvqcr0","pricing_plan_id":"cebpf4jnsgd1na2vs0mg"},{"bike_id":"ca5d7126-7cda-40b6-b165-1a295411436c","system_id":"levelo_inurba_marseille","lat":43.28878,"lon":5.35825,"is_reserved":false,"is_disabled":false,"rental_uris":{"android":"levelo://app?vid=ca5d7126-7cda-40b6-b165-1a295411436c","ios":"levelo://app?vid=ca5d7126-7cda-40b6-b165-1a295411436c"},"vehicle_type_id":"4","last_reported":1753191120,"current_range_meters":20400,"station_id":"ce4bhb12rcd13ifvqem0","pricing_plan_id":"cebpf4jnsgd1na2vs0mg"},{"bike_id":"6bb1f31c-9335-4f39-9585-31374a4775f9","system_id":"levelo_inurba_marseille","lat":43.3255,"lon":5.3791,"is_reserved":false,"is_disabled":false,"rental_uris":{"android":"levelo://app?vid=6bb1f31c-9335-4f39-9585-31374a4775f9","ios":"levelo://app?vid=6bb1f31c-9335-4f39-9585-31374a4775f9"},"vehicle_type_id":"4","last_reported":1753191120,"current_range_meters":20400,"station_id":"","pricing_plan_id":"cebpf4jnsgd1na2vs0mg"},{"bike_id":"07cd3b40-9b6a-4683-825a-af334b92d91c","system_id":"levelo_inurba_marseille","lat":43.30886,"lon":5.39648,"is_reserved":false,"is_disabled":false,"rental_uris":{"android":"levelo://app?vid=07cd3b40-9b6a-4683-825a-af334b92d91c","ios":"levelo://app?vid=07cd3b40-9b6a-4683-825a-af334b92d91c"},"vehicle_type_id":"4","last_reported":1753191120,"current_range_meters":20000,"station_id":"ce4bh012rcd13ifvqcv0","pricing_plan_id":"cebpf4jnsgd1na2vs0mg"},{"bike_id":"e4182196-e252-4e25-966f-ca82789e0ac3","system_id":"levelo_inurba_marseille","lat":43.27067,"lon":5.40276,"is_reserved":false,"is_disabled":false,"rental_uris":{"android":"levelo://app?vid=e4182196-e252-4e25-966f-ca82789e0ac3","ios":"levelo://app?vid=e4182196-e252-4e25-966f-ca82789e0ac3"},"vehicle_type_id":"4","last_reported":1753191120,"current_range_meters":20400,"station_id":"ce4bhk92rcd13ifvqgc0","pricing_plan_id":"cebpf4jnsgd1na2vs0mg"},{"bike_id":"a0de01aa-cd68-4a4d-8bab-65fa167b8610","system_id":"levelo_inurba_marseille","lat":43.23192,"lon":5.35564,"is_reserved":false,"is_disabled":false,"rental_uris":{"android":"levelo://app?vid=a0de01aa-cd68-4a4d-8bab-65fa167b8610","ios":"levelo://app?vid=a0de01aa-cd68-4a4d-8bab-65fa167b8610"},"vehicle_type_id":"4","last_reported":1753191120,"current_range_meters":20400,"station_id":"ce4bhu92rcd13ifvqi70","pricing_plan_id":"cebpf4jnsgd1na2vs0mg"},{"bike_id":"b270637b-2eb6-49a1-8c47-775176ae915c","system_id":"levelo_inurba_marseille","lat":43.284817,"lon":5.385711,"is_reserved":false,"is_disabled":false,"rental_uris":{"android":"levelo://app?vid=b270637b-2eb6-49a1-8c47-775176ae915c","ios":"levelo://app?vid=b270637b-2eb6-49a1-8c47-775176ae915c"},"vehicle_type_id":"4","last_reported":1753191120,"current_range_meters":20400,"station_id":"ce4bh8p2rcd13ifvqeb0","pricing_plan_id":"cebpf4jnsgd1na2vs0mg"},{"bike_id":"95bac329-5ce8-4d46-a789-29c92578e8e8","system_id":"levelo_inurba_marseille","lat":43.25499,"lon":5.37654,"is_reserved":false,"is_disabled":false,"rental_uris":{"android":"levelo://app?vid=95bac329-5ce8-4d46-a789-29c92578e8e8","ios":"levelo://app?vid=95bac329-5ce8-4d46-a789-29c92578e8e8"},"vehicle_type_id":"4","last_reported":1753191120,"current_range_meters":20400,"station_id":"ce4bhh12rcd13ifvqff0","pricing_plan_id":"cebpf4jnsgd1na2vs0mg"},{"bike_id":"5fccbd02-94a4-4d68-9ef9-b10db6e4d248","system_id":"levelo_inurba_marseille","lat":43.212016,"lon":5.350869,"is_reserved":false,"is_disabled":false,"rental_uris":{"android":"levelo://app?vid=5fccbd02-94a4-4d68-9ef9-b10db6e4d248","ios":"levelo://app?vid=5fccbd02-94a4-4d68-9ef9-b10db6e4d248"},"vehicle_type_id":"4","last_reported":1753191120,"current_range_meters":20400,"station_id":"st_cvj6sg6p6f1abm77japg","pricing_plan_id":"cebpf4jnsgd1na2vs0mg"},{"bike_id":"36f2232a-7e33-4b83-b371-e432834d1f61","system_id":"levelo_inurba_marseille","lat":43.25695,"lon":5.41115,"is_reserved":false,"is_disabled":false,"rental_uris":{"android":"levelo://app?vid=36f2232a-7e33-4b83-b371-e432834d1f61","ios":"levelo://app?vid=36f2232a-7e33-4b83-b371-e432834d1f61"},"vehicle_type_id":"4","last_reported":1753191120,"current_range_meters":20400,"station_id":"ce4bhkp2rcd13ifvqgd0","pricing_plan_id":"cebpf4jnsgd1na2vs0mg"},{"bike_id":"4f4d2c97-613c-4453-b9b5-2d9a5b09a687","system_id":"levelo_inurba_marseille","lat":43.23185,"lon":5.35576,"is_reserved":false,"is_disabled":false,"rental_uris":{"android":"levelo://app?vid=4f4d2c97-613c-4453-b9b5-2d9a5b09a687","ios":"levelo://app?vid=4f4d2c97-613c-4453-b9b5-2d9a5b09a687"},"vehicle_type_id":"4","last_reported":1753191120,"current_range_meters":20800,"station_id":"ce4bhu92rcd13ifvqi70","pricing_plan_id":"cebpf4jnsgd1na2vs0mg"},{"bike_id":"5d7a1bf0-f9a4-4530-b329-0364cd8dc2df","system_id":"levelo_inurba_marseille","lat":43.32373,"lon":5.3888,"is_reserved":false,"is_disabled":false,"rental_uris":{"android":"levelo://app?vid=5d7a1bf0-f9a4-4530-b329-0364cd8dc2df","ios":"levelo://app?vid=5d7a1bf0-f9a4-4530-b329-0364cd8dc2df"},"vehicle_type_id":"4","last_reported":1753191120,"current_range_meters":20800,"station_id":"ce4bhqp2rcd13ifvqhog","pricing_plan_id":"cebpf4jnsgd1na2vs0mg"},{"bike_id":"ec6ea80c-5222-4033-ae54-b25fd0d9a2b0","system_id":"levelo_inurba_marseille","lat":43.28628,"lon":5.35092,"is_reserved":false,"is_disabled":false,"rental_uris":{"android":"levelo://app?vid=ec6ea80c-5222-4033-ae54-b25fd0d9a2b0","ios":"levelo://app?vid=ec6ea80c-5222-4033-ae54-b25fd0d9a2b0"},"vehicle_type_id":"4","last_reported":1753191120,"current_range_meters":20800,"station_id":"ce4bhch2rcd13ifvqeug","pricing_plan_id":"cebpf4jnsgd1na2vs0mg"},{"bike_id":"301f416c-33dd-4a56-bed5-5f2f088f4922","system_id":"levelo_inurba_marseille","lat":43.29935,"lon":5.36551,"is_reserved":false,"is_disabled":false,"rental_uris":{"android":"levelo://app?vid=301f416c-33dd-4a56-bed5-5f2f088f4922","ios":"levelo://app?vid=301f416c-33dd-4a56-bed5-5f2f088f4922"},