{"last_updated":1730045424,"ttl":60,"version":"2.2","data":{"bikes":[{"bike_id":"46ca7a5a-b63f-4a23-af18-d368d3c3861e","system_id":"levelo_inurba_marseille","lat":43.27323,"lon":5.39092,"is_reserved":false,"is_disabled":false,"rental_uris":{"android":"levelo://app?vid=46ca7a5a-b63f-4a23-af18-d368d3c3861e","ios":"levelo://app?vid=46ca7a5a-b63f-4a23-af18-d368d3c3861e"},"vehicle_type_id":"4","last_reported":1730045424,"current_range_meters":32000,"station_id":"ce4bhgp2rcd13ifvqfe0","pricing_plan_id":"cebpf4jnsgd1na2vs0mg"},{"bike_id":"afcafc6c-ecc3-4f5c-a312-79b6f9633782","system_id":"levelo_inurba_marseille","lat":43.28403,"lon":5.34999,"is_reserved":false,"is_disabled":false,"rental_uris":{"android":"levelo://app?vid=afcafc6c-ecc3-4f5c-a312-79b6f9633782","ios":"levelo://app?vid=afcafc6c-ecc3-4f5c-a312-79b6f9633782"},"vehicle_type_id":"4","last_reported":1730045424,"current_range_meters":38800,"station_id":"ce4bhbh2rcd13ifvqepg","pricing_plan_id":"cebpf4jnsgd1na2vs0mg"},{"bike_id":"69f4165a-13a2-4bd8-b4d6-abfa25614867","system_id":"levelo_inurba_marseille","lat":43.26805,"lon":5.40265,"is_reserved":false,"is_disabled":false,"rental_uris":{"android":"levelo://app?vid=69f4165a-13a2-4bd8-b4d6-abfa25614867","ios":"levelo://app?vid=69f4165a-13a2-4bd8-b4d6-abfa25614867"},"vehicle_type_id":"4","last_reported":1730045424,"current_range_meters":38800,"station_id":"ce501612rcd8frsf0b60","pricing_plan_id":"cebpf4jnsgd1na2vs0mg"},{"bike_id":"8e0c5cf9-a77b-40ee-8745-00f993dbebeb","system_id":"levelo_inurba_marseille","lat":43.30327,"lon":5.40443,"is_reserved":false,"is_disabled":false,"rental_uris":{"android":"levelo://app?vid=8e0c5cf9-a77b-40ee-8745-00f993dbebeb","ios":"levelo://app?vid=8e0c5cf9-a77b-40ee-8745-00f993dbebeb"},"vehicle_type_id":"4","last_reported":1730045424,"current_range_meters":20800,"station_id":"ce4bh012rcd13ifvqd10","pricing_plan_id":"cebpf4jnsgd1na2vs0mg"},{"bike_id":"556647e4-9c26-4576-bd8c-415461ddabd4","system_id":"levelo_inurba_marseille","lat":43.2757,"lon":5.38431,"is_reserved":false,"is_disabled":false,"rental_uris":{"android":"levelo://app?vid=556647e4-9c26-4576-bd8c-415461ddabd4","ios":"levelo://app?vid=556647e4-9c26-4576-bd8c-415461ddabd4"},"vehicle_type_id":"4","last_reported":1730045424,"current_range_meters":38800,"station_id":"ce4bhh92rcd13ifvqfi0","pricing_plan_id":"cebpf4jnsgd1na2vs0mg"},{"bike_id":"48660d12-eacc-4f93-a06c-04c2aa9e37e4","system_id":"levelo_inurba_marseille","lat":43.26802,"lon":5.40264,"is_reserved":false,"is_disabled":false,"rental_uris":{"android":"levelo://app?vid=48660d12-eacc-4f93-a06c-04c2aa9e37e4","ios":"levelo://app?vid=48660d12-eacc-4f93-a06c-04c2aa9e37e4"},"vehicle_type_id":"4","last_reported":1730045424,"current_range_meters":17600,"station_id":"ce501612rcd8frsf0b60","pricing_plan_id":"cebpf4jnsgd1na2vs0mg"},{"bike_id":"2622bdca-73de-40d8-9ec8-d0c3d6520862","system_id":"levelo_inurba_marseille","lat":43.28471,"lon":5.38429,"is_reserved":false,"is_disabled":false,"rental_uris":{"android":"levelo://app?vid=2622bdca-73de-40d8-9ec8-d0c3d6520862","ios":"levelo://app?vid=2622bdca-73de-40d8-9ec8-d0c3d6520862"},"vehicle_type_id":"4","last_reported":1730045424,"current_range_meters":23200,"station_id":"ce4bh512rcd13ifvqe3g","pricing_plan_id":"cebpf4jnsgd1na2vs0mg"},{"bike_id":"f3d5c86c-ab11-4ca3-aa72-c97ea732ed17","system_id":"levelo_inurba_marseille","lat":43.27318,"lon":5.39105,"is_reserved":false,"is_disabled":false,"rental_uris":{"android":"levelo://app?vid=f3d5c86c-ab11-4ca3-aa72-c97ea732ed17","ios":"levelo://app?vid=f3d5c86c-ab11-4ca3-aa72-c97ea732ed17"},"vehicle_type_id":"4","last_reported":1730045424,"current_range_meters":28800,"station_id":"ce4bhgp2rcd13ifvqfe0","pricing_plan_id":"cebpf4jnsgd1na2vs0mg"},{"bike_id":"d387965c-6c49-4063-b359-3fa700e6bf68","system_id":"levelo_inurba_marseille","lat":43.26559,"lon":5.37288,"is_reserved":false,"is_disabled":false,"rental_uris":{"android":"levelo://app?vid=d387965c-6c49-4063-b359-3fa700e6bf68","ios":"levelo://app?vid=d387965c-6c49-4063-b359-3fa700e6bf68"},"vehicle_type_id":"4","last_reported":1730045424,"current_range_meters":22800,"station_id":"ce4bhg12rcd13ifvqf70","pricing_plan_id":"cebpf4jnsgd1na2vs0mg"},{"bike_id":"20f92aeb-c52c-4d5a-bc3f-684369c288eb","system_id":"levelo_inurba_marseille","lat":43.32286,"lon":5.38285,"is_reserved":false,"is_disabled":false,"rental_uris":{"android":"levelo://app?vid=20f92aeb-c52c-4d5a-bc3f-684369c288eb","ios":"levelo://app?vid=20f92aeb-c52c-4d5a-bc3f-684369c288eb"},"vehicle_type_id":"4","last_reported":1730045424,"current_range_meters":4400,"station_id":"ce4bhr12rcd13ifvqhqg","pricing_plan_id":"cebpf4jnsgd1na2vs0mg"},{"bike_id":"a6a6acc1-47b3-4ee8-bf7e-4183faf35eaa","system_id":"levelo_inurba_marseille","lat":43.28155,"lon":5.42638,"is_reserved":false,"is_disabled":false,"rental_uris":{"android":"levelo://app?vid=a6a6acc1-47b3-4ee8-bf7e-4183faf35eaa","ios":"levelo://app?vid=a6a6acc1-47b3-4ee8-bf7e-4183faf35eaa"},"vehicle_type_id":"4","last_reported":1730045424,"current_range_meters":4800,"station_id":"ce4bhnh2rcd13ifvqgug","pricing_plan_id":"cebpf4jnsgd1na2vs0mg"},{"bike_id":"96e8a04e-eaaa-4c54-b7b2-d27222ec8868","system_id":"levelo_inurba_marseille","lat":43.25006,"lon":5.38916,"is_reserved":false,"is_disabled":false,"rental_uris":{"android":"levelo://app?vid=96e8a04e-eaaa-4c54-b7b2-d27222ec8868","ios":"levelo://app?vid=96e8a04e-eaaa-4c54-b7b2-d27222ec8868"},"vehicle_type_id":"4","last_reported":1730045424,"current_range_meters":8800,"station_id":"ce4bhgp2rcd13ifvqfd0","pricing_plan_id":"cebpf4jnsgd1na2vs0mg"},{"bike_id":"d901d4c8-5277-43e4-be05-a3fbc1657e97","system_id":"levelo_inurba_marseille","lat":43.32662,"lon":5.40992,"is_reserved":false,"is_disabled":false,"rental_uris":{"android":"levelo://app?vid=d901d4c8-5277-43e4-be05-a3fbc1657e97","ios":"levelo://app?vid=d901d4c8-5277-43e4-be05-a3fbc1657e97"},"vehicle_type_id":"4","last_reported":1730045424,"current_range_meters":38800,"station_id":"ce4bhpp2rcd13ifvqhgg","pricing_plan_id":"cebpf4jnsgd1na2vs0mg"},{"bike_id":"7310f942-0d93-4b41-a667-c5fdd0d381ea","system_id":"levelo_inurba_marseille","lat":43.26567,"lon":5.39047,"is_reserved":false,"is_disabled":false,"rental_uris":{"android":"levelo://app?vid=7310f942-0d93-4b41-a667-c5fdd0d381ea","ios":"levelo://app?vid=7310f942-0d93-4b41-a667-c5fdd0d381ea"},"vehicle_type_id":"4","last_reported":1730045424,"current_range_meters":36400,"station_id":"ce4bhe12rcd13ifvqf30","pricing_plan_id":"cebpf4jnsgd1na2vs0mg"},{"bike_id":"3d60fe70-8150-4473-8d8a-936d46c6e3b6","system_id":"levelo_inurba_marseille","lat":43.29196,"lon":5.35812,"is_reserved":false,"is_disabled":false,"rental_uris":{"android":"levelo://app?vid=3d60fe70-8150-4473-8d8a-936d46c6e3b6","ios":"levelo://app?vid=3d60fe70-8150-4473-8d8a-936d46c6e3b6"},"vehicle_type_id":"4","last_reported":1730045424,"current_range_meters":23200,"station_id":"ce4bhb12rcd13ifvqel0","pricing_plan_id":"cebpf4jnsgd1na2vs0mg"},{"bike_id":"009de328-30af-40f5-9321-9f454cfbcb35","system_id":"levelo_inurba_marseille","lat":43.28652,"lon":5.3995,"is_reserved":false,"is_disabled":false,"rental_uris":{"android":"levelo://app?vid=009de328-30af-40f5-9321-9f454cfbcb35","ios":"levelo://app?vid=009de328-30af-40f5-9321-9f454cfbcb35"},"vehicle_type_id":"4","last_reported":1730045424,"current_range_meters":27200,"station_id":"","pricing_plan_id":"cebpf4jnsgd1na2vs0mg"},{"bike_id":"336aa9ef-ddda-4b9d-97f0-097a574c9eb7","system_id":"levelo_inurba_marseille","lat":43.31498,"lon":5.37317,"is_reserved":false,"is_disabled":false,"rental_uris":{"android":"levelo://app?vid=336aa9ef-ddda-4b9d-97f0-097a574c9eb7","ios":"levelo://app?vid=336aa9ef-ddda-4b9d-97f0-097a574c9eb7"},"vehicle_type_id":"4","last_reported":1730045424,"current_range_meters":38800,"station_id":"ce4bgt12rcd13ifvqcd0","pricing_plan_id":"cebpf4jnsgd1na2vs0mg"},{"bike_id":"96ba11a5-8e78-4cf2-b4d5-72883c317661","system_id":"levelo_inurba_marseille","lat":43.30598,"lon":5.39372,"is_reserved":false,"is_disabled":false,"rental_uris":{"android":"levelo://app?vid=96ba11a5-8e78-4cf2-b4d5-72883c317661","ios":"levelo://app?vid=96ba11a5-8e78-4cf2-b4d5-72883c317661"},"vehicle_type_id":"4","last_reported":1730045424,"current_range_meters":36800,"station_id":"ce4bh0p2rcd13ifvqd80","pricing_plan_id":"cebpf4jnsgd1na2vs0mg"},{"bike_id":"0c5cd99c-9f06-4e90-a5fc-6ff2c5bc4703","system_id":"levelo_inurba_marseille","lat":43.26938,"lon":5.38912,"is_reserved":false,"is_disabled":false,"rental_uris":{"android":"levelo://app?vid=0c5cd99c-9f06-4e90-a5fc-6ff2c5bc4703","ios":"levelo://app?vid=0c5cd99c-9f06-4e90-a5fc-6ff2c5bc4703"},"vehicle_type_id":"4","last_reported":1730045424,"current_range_meters":36800,"station_id":"ce4bhhh2rcd13ifvqfl0","pricing_plan_id":"cebpf4jnsgd1na2vs0mg"},{"bike_id":"c4ca335a-e6d1-40b5-8b65-a45ca3aa325a","system_id":"levelo_inurba_marseille","lat":43.28854,"lon":5.35848,"is_reserved":false,"is_disabled":false,"rental_uris":{"android":"levelo://app?vid=c4ca335a-e6d1-40b5-8b65-a45ca3aa325a","ios":"levelo://app?vid=c4ca335a-e6d1-40b5-8b65-a45ca3aa325a"},"vehicle_type_id":"4","last_reported":1730045424,"current_range_meters":20800,"station_id":"ce4bhb12rcd13ifvqem0","pricing_plan_id":"cebpf4jnsgd1na2vs0mg"},{"bike_id":"1063b881-c059-4bfc-a401-5c6f06e3b4bc","system_id":"levelo_inurba_marseille","lat":43.27619,"lon":5.36125,"is_reserved":false,"is_disabled":false,"rental_uris":{"android":"levelo://app?vid=1063b881-c059-4bfc-a401-5c6f06e3b4bc","ios":"levelo://app?vid=1063b881-c059-4bfc-a401-5c6f06e3b4bc"},"vehicle_type_id":"4","last_reported":1730045424,"current_range_meters":11600,"station_id":"ce4bgj92rcd13ifvqbe0","pricing_plan_id":"cebpf4jnsgd1na2vs0mg"},{"bike_id":"ff081f0c-ea21-431a-8d61-ad48db65fd3a","system_id":"levelo_inurba_marseille","lat":43.30353,"lon":5.41885,"is_reserved":false,"is_disabled":false,"rental_uris":{"android":"levelo://app?vid=ff081f0c-ea21-431a-8d61-ad48db65fd3a","ios":"levelo://app?vid=ff081f0c-ea21-431a-8d61-ad48db65fd3a"},"vehicle_type_id":"4","last_reported":1730045424,"current_range_meters":28400,"station_id":"ce4bhop2rcd13ifvqh7g","pricing_plan_id":"cebpf4jnsgd1na2vs0mg"},{"bike_id":"8ed0e600-52f7-4841-aa09-f2be0f0fd557","system_id":"levelo_inurba_marseille","lat":43.26824,"lon":5.40283,"is_reserved":false,"is_disabled":false,"rental_uris":{"android":"levelo://app?vid=8ed0e600-52f7-4841-aa09-f2be0f0fd557","ios":"levelo://app?vid=8ed0e600-52f7-4841-aa09-f2be0f0fd557"},"vehicle_type_id":"4","last_reported":1730045424,"current_range_meters":38800,"station_id":"ce501612rcd8frsf0b60","pricing_plan_id":"cebpf4jnsgd1na2vs0mg"},{"bike_id":"e7a39374-01bb-46ae-a0b2-6cf5091f2094","system_id":"levelo_inurba_marseille","lat":43.24163,"lon":5.36394,"is_reserved":false,"is_disabled":false,"rental_uris":{"android":"levelo://app?vid=e7a39374-01bb-46ae-a0b2-6cf5091f2094","ios":"levelo://app?vid=e7a39374-01bb-46ae-a0b2-6cf5091f2094"},"vehicle_type_id":"4","last_reported":1730045424,"current_range_meters":32800,"station_id":"cpo36qri1sfpv3e86is0","pricing_plan_id":"cebpf4jnsgd1na2vs0mg"},{"bike_id":"0ef6f9be-dfab-4924-9d00-5b42496aca9f","system_id":"levelo_inurba_marseille","lat":43.28608,"lon":5.35104,"is_reserved":false,"is_disabled":false,"rental_uris":{"android":"levelo://app?vid=0ef6f9be-dfab-4924-9d00-5b42496aca9f","ios":"levelo://app?vid=0ef6f9be-dfab-4924-9d00-5b42496aca9f"},"vehicle_type_id":"4","last_reported":1730045424,"current_range_meters":8400,"station_id":"ce4bhch2rcd13ifvqeug","pricing_plan_id":"cebpf4jnsgd1na2vs0mg"},{"bike_id":"1f4d93ba-c0f6-4f10-8ed7-ffd573942afb","system_id":"levelo_inurba_marseille","lat":43.29789,"lon":5.38116,"is_reserved":false,"is_disabled":false,"rental_uris":{"android":"levelo://app?vid=1f4d93ba-c0f6-4f10-8ed7-ffd573942afb","ios":"levelo://app?vid=1f4d93ba-c0f6-4f10-8ed7-ffd573942afb"},"vehicle_type_id":"4","last_reported":1730045424,"current_range_meters":38800,"station_id":"ce4bgip2rcd13ifvqbb0","pricing_plan_id":"cebpf4jnsgd1na2vs0mg"},{"bike_id":"27f39214-437b-402f-ba70-e8fd46f4e41b","system_id":"levelo_inurba_marseille","lat":43.284846,"lon":5.369329,"is_reserved":false,"is_disabled":false,"rental_uris":{"android":"levelo://app?vid=27f39214-437b-402f-ba70-e8fd46f4e41b","ios":"levelo://app?vid=27f39214-437b-402f-ba70-e8fd46f4e41b"},"vehicle_type_id":"4","last_reported":1730045424,"current_range_meters":18000,"station_id":"","pricing_plan_id":"cebpf4jnsgd1na2vs0mg"},{"bike_id":"5ed72901-e44e-460e-9669-5f1f8a6d2f53","system_id":"levelo_inurba_marseille","lat":43.28655,"lon":5.44477,"is_reserved":false,"is_disabled":false,"rental_uris":{"android":"levelo://app?vid=5ed72901-e44e-460e-9669-5f1f8a6d2f53","ios":"levelo://app?vid=5ed72901-e44e-460e-9669-5f1f8a6d2f53"},"vehicle_type_id":"4","last_reported":1730045424,"current_range_meters":9200,"station_id":"","pricing_plan_id":"cebpf4jnsgd1na2vs0mg"},{"bike_id":"7180d3b6-bb63-416e-b6ce-90f31d3e002c","system_id":"levelo_inurba_marseille","lat":43.29622,"lon":5.37731,"is_reserved":false,"is_disabled":false,"rental_uris":{"android":"levelo://app?vid=7180d3b6-bb63-416e-b6ce-90f31d3e002c","ios":"levelo://app?vid=7180d3b6-bb63-416e-b6ce-90f31d3e002c"},"vehicle_type_id":"4","last_reported":1730045424,"current_range_meters":1600,"station_id":"ce4bgi92rcd13ifvqb90","pricing_plan_id":"cebpf4jnsgd1na2vs0mg"},{"bike_id":"e7360508-6978-487a-a79b-5e2dad5d0ea3","system_id":"levelo_inurba_marseille","lat":43.22932,"lon":5.35374,"is_reserved":false,"is_disabled":false,"rental_uris":{"android":"levelo://app?vid=e7360508-6978-487a-a79b-5e2dad5d0ea3","ios":"levelo://app?vid=e7360508-6978-487a-a79b-5e2dad5d0ea3"},"vehicle_type_id":"4","last_reported":1730045424,"current_range_meters":24400,"station_id":"cpo3532slgdg3j2ikp40","pricing_plan_id":"cebpf4jnsgd1na2vs0mg"},{"bike_id":"72fff3d2-f3e9-45aa-ae6a-0949dc559f0e","system_id":"levelo_inurba_marseille","lat":43.27055,"lon":5.40261,"is_reserved":false,"is_disabled":false,"rental_uris":{"android":"levelo://app?vid=72fff3d2-f3e9-45aa-ae6a-0949dc559f0e","ios":"levelo://app?vid=72fff3d2-f3e9-45aa-ae6a-0949dc559f0e"},"vehicle_type_id":"4","last_reported":1730045424,"current_range_meters":32400,"station_id":"ce4bhk92rcd13ifvqgc0","pricing_plan_id":"cebpf4jnsgd1na2vs0mg"},{"bike_id":"278f4ec4-b66c-48fa-a81f-709bcb4a0ccd","system_id":"levelo_inurba_marseille","lat":43.29507,"lon":5.37527,"is_reserved":false,"is_disabled":false,"rental_uris":{"android":"levelo://app?vid=278f4ec4-b66c-48fa-a81f-709bcb4a0ccd","ios":"levelo://app?vid=278f4ec4-b66c-48fa-a81f-709bcb4a0ccd"},"vehicle_type_id":"4","last_reported":1730045424,"current_range_meters":13600,"station_id":"ce4bgkp2rcd13ifvqbmg","pricing_plan_id":"cebpf4jnsgd1na2vs0mg"},{"bike_id":"191b6ae2-258e-40f4-8563-e23c8a4d716e","system_id":"levelo_inurba_marseille","lat":43.25496,"lon":5.37653,"is_reserved":false,"is_disabled":false,"rental_uris":{"android":"levelo://app?vid=191b6ae2-258e-40f4-8563-e23c8a4d716e","ios":"levelo://app?vid=191b6ae2-258e-40f4-8563-e23c8a4d716e"},"vehicle_type_id":"4","last_reported":1730045424,"current_range_meters":10800,"station_id":"ce4bhh12rcd13ifvqff0","pricing_plan_id":"cebpf4jnsgd1na2vs0mg"},{"bike_id":"1779666c-9856-4c9d-bd5e-43f98345a53e","system_id":"levelo_inurba_marseille","lat":43.29615,"lon":5.37702,"is_reserved":false,"is_disabled":false,"rental_uris":{"android":"levelo://app?vid=1779666c-9856-4c9d-bd5e-43f98345a53e","ios":"levelo://app?vid=1779666c-9856-4c9d-bd5e-43f98345a53e"},"vehicle_type_id":"4","last_reported":1730045424,"current_range_meters":23200,"station_id":"ce4bgi92rcd13ifvqb90","pricing_plan_id":"cebpf4jnsgd1na2vs0mg"},{"bike_id":"afb2bf35-8b5e-4247-805a-fe0c1b6fb966","system_id":"levelo_inurba_marseille","lat":43.26943,"lon":5.40249,"is_reserved":false,"is_disabled":false,"rental_uris":{"android":"levelo://app?vid=afb2bf35-8b5e-4247-805a-fe0c1b6fb966","ios":"levelo://app?vid=afb2bf35-8b5e-4247-805a-fe0c1b6fb966"},"vehicle_type_id":"4","last_reported":1730045424,"current_range_meters":8000,"station_id":"cjm6bp8fraef2m0cb0m0","pricing_plan_id":"cebpf4jnsgd1na2vs0mg"},{"bike_id":"34c0b19e-e327-425b-bf09-25bec92dd9c4","system_id":"levelo_inurba_marseille","lat":43.29331,"lon":5.45472,"is_reserved":false,"is_disabled":false,"rental_uris":{"android":"levelo://app?vid=34c0b19e-e327-425b-bf09-25bec92dd9c4","ios":"levelo://app?vid=34c0b19e-e327-425b-bf09-25bec92dd9c4"},"vehicle_type_id":"4","last_reported":1730045424,"current_range_meters":3200,"station_id":"","pricing_plan_id":"cebpf4jnsgd1na2vs0mg"},{"bike_id":"f2ff8a81-9e19-49f6-8092-173e8fe59ec8","system_id":"levelo_inurba_marseille","lat":43.25942,"lon":5.40905,"is_reserved":false,"is_disabled":false,"rental_uris":{"android":"levelo://app?vid=f2ff8a81-9e19-49f6-8092-173e8fe59ec8","ios":"levelo://app?vid=f2ff8a81-9e19-49f6-8092-173e8fe59ec8"},"vehicle_type_id":"4","last_reported":1730045424,"current_range_meters":38800,"station_id":"ce4bhm92rcd13ifvqglg","pricing_plan_id":"cebpf4jnsgd1na2vs0mg"},{"bike_id":"cb6250a0-3aef-47d8-a63c-f56247e3098d","system_id":"levelo_inurba_marseille","lat":43.27149,"lon":5.40446,"is_reserved":false,"is_disabled":false,"rental_uris":{"android":"levelo://app?vid=cb6250a0-3aef-47d8-a63c-f56247e3098d","ios":"levelo://app?vid=cb6250a0-3aef-47d8-a63c-f56247e3098d"},"vehicle_type_id":"4","last_reported":1730045424,"current_range_meters":6400,"station_id":"","pricing_plan_id":"cebpf4jnsgd1na2vs0mg"},{"bike_id":"e16ba0fb-c8f9-4074-a1c8-ad626ad5602f","system_id":"levelo_inurba_marseille","lat":43.26952,"lon":5.40254,"is_reserved":false,"is_disabled":false,"rental_uris":{"android":"levelo://app?vid=e16ba0fb-c8f9-4074-a1c8-ad626ad5602f","ios":"levelo://app?vid=e16ba0fb-c8f9-4074-a1c8-ad626ad5602f"},"vehicle_type_id":"4","last_reported":1730045424,"current_range_meters":38000,"station_id":"cjm6bp8fraef2m0cb0m0","pricing_plan_id":"cebpf4jnsgd1na2vs0mg"},{"bike_id":"6875a1a6-32b9-4783-93f5-84a3a0c85f67","system_id":"levelo_inurba_marseille","lat":43.23069,"lon":5.35489,"is_reserved":false,"is_disabled":false,"rental_uris":{"android":"levelo://app?vid=6875a1a6-32b9-4783-93f5-84a3a0c85f67","ios":"levelo://app?vid=6875a1a6-32b9-4783-93f5-84a3a0c85f67"},"vehicle_type_id":"4","last_reported":1730045424,"current_range_meters":25200,"station_id":"cpo3342slgdg3j2ifvpg","pricing_plan_id":"cebpf4jnsgd1na2vs0mg"},{"bike_id":"afe4dfc8-9581-4151-b71b-ec2d0e3c582a","system_id":"levelo_inurba_marseille","lat":43.28699,"lon":5.37397,"is_reserved":false,"is_disabled":false,"rental_uris":{"android":"levelo://app?vid=afe4dfc8-9581-4151-b71b-ec2d0e3c582a","ios":"levelo://app?vid=afe4dfc8-9581-4151-b71b-ec2d0e3c582a"},"vehicle_type_id":"4","last_reported":1730045424,"current_range_meters":17600,"station_id":"ce4bh3p2rcd13ifvqdq0","pricing_plan_id":"cebpf4jnsgd1na2vs0mg"},{"bike_id":"d9e8db2e-ebd5-4620-8ffa-d1e84638a538","system_id":"levelo_inurba_marseille","lat":43.31081,"lon":5.42433,"is_reserved":false,"is_disabled":false,"rental_uris":{"android":"levelo://app?vid=d9e8db2e-ebd5-4620-8ffa-d1e84638a538","ios":"levelo://app?vid=d9e8db2e-ebd5-4620-8ffa-d1e84638a538"},"vehicle_type_id":"4","last_reported":1730045424,"current_range_meters":30000,"station_id":"ce4bhp92rcd13ifvqhag","pricing_plan_id":"cebpf4jnsgd1na2vs0mg"},{"bike_id":"08a7c25f-ac45-482b-b967-04413e27d1cd","system_id":"levelo_inurba_marseille","lat":43.29299,"lon":5.37422,"is_reserved":false,"is_disabled":false,"rental_uris":{"android":"levelo://app?vid=08a7c25f-ac45-482b-b967-04413e27d1cd","ios":"levelo://app?vid=08a7c25f-ac45-482b-b967-04413e27d1cd"},"vehicle_type_id":"4","last_reported":1730045424,"current_range_meters":38800,"station_id":"ce4bgi12rcd13ifvqb70","pricing_plan_id":"cebpf4jnsgd1na2vs0mg"},{"bike_id":"d464c49d-bc40-4fe1-bdbe-eb5c2433c7e8","system_id":"levelo_inurba_marseille","lat":43.27317,"lon":5.39081,"is_reserved":false,"is_disabled":false,"rental_uris":{"android":"levelo://app?vid=d464c49d-bc40-4fe1-bdbe-eb5c2433c7e8","ios":"levelo://app?vid=d464c49d-bc40-4fe1-bdbe-eb5c2433c7e8"},"vehicle_type_id":"4","last_reported":1730045424,"current_range_meters":38400,"station_id":"ce4bhgp2rcd13ifvqfe0","pricing_plan_id":"cebpf4jnsgd1na2vs0mg"},{"bike_id":"272108ab-c66d-4277-b942-346fbf20d819","system_id":"levelo_inurba_marseille","lat":43.30355,"lon":5.41876,"is_reserved":false,"is_disabled":false,"rental_uris":{"android":"levelo://app?vid=272108ab-c66d-4277-b942-346fbf20d819","ios":"levelo://app?vid=272108ab-c66d-4277-b942-346fbf20d819"},"vehicle_type_id":"4","last_reported":1730045424,"current_range_meters":7200,"station_id":"ce4bhop2rcd13ifvqh7g","pricing_plan_id":"cebpf4jnsgd1na2vs0mg"},{"bike_id":"8fbb3d87-cdca-4c4a-859f-e70dea3485a5","system_id":"levelo_inurba_marseille","lat":43.27493,"lon":5.42457,"is_reserved":false,"is_disabled":false,"rental_uris":{"android":"levelo://app?vid=8fbb3d87-cdca-4c4a-859f-e70dea3485a5","ios":"levelo://app?vid=8fbb3d87-cdca-4c4a-859f-e70dea3485a5"},"vehicle_type_id":"4","last_reported":1730045424,"current_range_meters":32400,"station_id":"ce4bhn92rcd13ifvqgrg","pricing_plan_id":"cebpf4jnsgd1na2vs0mg"},{"bike_id":"8d199790-c671-45b8-9d65-7eee40531948","system_id":"levelo_inurba_marseille","lat":43.3112,"lon":5.3776,"is_reserved":false,"is_disabled":false,"rental_uris":{"android":"levelo://app?vid=8d199790-c671-45b8-9d65-7eee40531948","ios":"levelo://app?vid=8d199790-c671-45b8-9d65-7eee40531948"},"vehicle_type_id":"4","last_reported":1730045424,"current_range_meters":25600,"station_id":"ce4bgt92rcd13ifvqcg0","pricing_plan_id":"cebpf4jnsgd1na2vs0mg"},{"bike_id":"f88ae010-8297-4a37-bc9c-849ec6d013b7","system_id":"levelo_inurba_marseille","lat":43.255,"lon":5.3765,"is_reserved":false,"is_disabled":false,"rental_uris":{"android":"levelo://app?vid=f88ae010-8297-4a37-bc9c-849ec6d013b7","ios":"levelo://app?vid=f88ae010-8297-4a37-bc9c-849ec6d013b7"},"vehicle_type_id":"4","last_reported":1730045424,"current_range_meters":2800,"station_id":"ce4bhh12rcd13ifvqff0","pricing_plan_id":"cebpf4jnsgd1na2vs0mg"},{"bike_id":"17e22301-02cb-4e82-9beb-8646192a13b6","system_id":"levelo_inurba_marseille","lat":43.31068,"lon":5.38355,"is_reserved":false,"is_disabled":false,"rental_uris":{"android":"levelo://app?vid=17e22301-02cb-4e82-9beb-8646192a13b6","ios":"levelo://app?vid=17e22301-02cb-4e82-9beb-8646192a13b6"},"vehicle_type_id":"4","last_reported":1730045424,"current_range_meters":9200,"station_id":"ce4bgv92rcd13ifvqcr0","pricing_plan_id":"cebpf4jnsgd1na2vs0mg"},{"bike_id":"aff15b89-3d55-4512-ac59-79b8390e5060","system_id":"levelo_inurba_marseille","lat":43.26945,"lon":5.40249,"is_reserved":false,"is_disabled":false,"rental_uris":{"android":"levelo://app?vid=aff15b89-3d55-4512-ac59-79b8390e5060","ios":"levelo://app?vid=aff15b89-3d55-4512-ac59-79b8390e5060"},"vehicle_type_id":"4","last_reported":1730045424,"current_range_meters":26800,"station_id":"cjm6bp8fraef2m0cb0m0","pricing_plan_id":"cebpf4jnsgd1na2vs0mg"},{"bike_id":"909cc7ab-dc1b-4b0c-8abf-b5f23982b30a","system_id":"levelo_inurba_marseille","lat":43.29267,"lon":5.40893,"is_reserved":false,"is_disabled":false,"rental_uris":{"android":"levelo://app?vid=909cc7ab-dc1b-4b0c-8abf-b5f23982b30a","ios":"levelo://app?vid=909cc7ab-dc1b-4b0c-8abf-b5f23982b30a"},"vehicle_type_id":"4","last_reported":1730045424,"current_range_meters":19600,"station_id":"ce4bh192rcd13ifvqdc0","pricing_plan_id":"cebpf4jnsgd1na2vs0mg"},{"bike_id":"cae5512b-eeb1-4b21-8d8f-d8841b2677f3","system_id":"levelo_inurba_marseille","lat":43.24175,"lon":5.39733,"is_reserved":false,"is_disabled":false,"rental_uris":{"android":"levelo://app?vid=cae5512b-eeb1-4b21-8d8f-d8841b2677f3","ios":"levelo://app?vid=cae5512b-eeb1-4b21-8d8f-d8841b2677f3"},"vehicle_type_id":"4","last_reported":1730045424,"current_range_meters":19600,"station_id":"ce4bhn12rcd13ifvqgpg","pricing_plan_id":"cebpf4jnsgd1na2vs0mg"},{"bike_id":"fdade4bb-a31e-4b56-86b9-3182f5f91ac8","system_id":"levelo_inurba_marseille","lat":43.28698,"lon":5.40001,"is_reserved":false,"is_disabled":false,"rental_uris":{"android":"levelo://app?vid=fdade4bb-a31e-4b56-86b9-3182f5f91ac8","ios":"levelo://app?vid=fdade4bb-a31e-4b56-86b9-3182f5f91ac8"},"vehicle_type_id":"4","last_reported":1730045424,"current_range_meters":4000,"station_id":"ce4bho92rcd13ifvqh3g","pricing_plan_id":"cebpf4jnsgd1na2vs0mg"},{"bike_id":"cd8988cf-34e0-4cd8-92c1-67d3cd8c964e","system_id":"levelo_inurba_marseille","lat":43.23959,"lon":5.3663,"is_reserved":false,"is_disabled":false,"rental_uris":{"android":"levelo://app?vid=cd8988cf-34e0-4cd8-92c1-67d3cd8c964e","ios":"levelo://app?vid=cd8988cf-34e0-4cd8-92c1-67d3cd8c964e"},"vehicle_type_id":"4","last_reported":1730045424,"current_range_meters":16000,"station_id":"ce4bhi12rcd13ifvqfp0","pricing_plan_id":"cebpf4jnsgd1na2vs0mg"},{"bike_id":"813d3152-baed-44e2-85a7-1e5e0721fb6d","system_id":"levelo_inurba_marseille","lat":43.27992,"lon":5.40032,"is_reserved":false,"is_disabled":false,"rental_uris":{"android":"levelo://app?vid=813d3152-baed-44e2-85a7-1e5e0721fb6d","ios":"levelo://app?vid=813d3152-baed-44e2-85a7-1e5e0721fb6d"},"vehicle_type_id":"4","last_reported":1730045424,"current_range_meters":18000,"station_id":"ce4bho92rcd13ifvqh4g","pricing_plan_id":"cebpf4jnsgd1na2vs0mg"},{"bike_id":"96a21034-9256-47f1-8198-ab8e6f7cdcf0","system_id":"levelo_inurba_marseille","lat":43.29981,"lon":5.37173,"is_reserved":false,"is_disabled":false,"rental_uris":{"android":"levelo://app?vid=96a21034-9256-47f1-8198-ab8e6f7cdcf0","ios":"levelo://app?vid=96a21034-9256-47f1-8198-ab8e6f7cdcf0"},"vehicle_type_id":"4","last_reported":1730045424,"current_range_meters":28000,"station_id":"ce4bgr92rcd13ifvqc7g","pricing_plan_id":"cebpf4jnsgd1na2vs0mg"},{"bike_id":"e973a40c-94a4-413a-b6c3-8453ceec1212","system_id":"levelo_inurba_marseille","lat":43.28415,"lon":5.3499,"is_reserved":false,"is_disabled":false,"rental_uris":{"android":"levelo://app?vid=e973a40c-94a4-413a-b6c3-8453ceec1212","ios":"levelo://app?vid=e973a40c-94a4-413a-b6c3-8453ceec1212"},"vehicle_type_id":"4","last_reported":1730045424,"current_range_meters":38800,"station_id":"ce4bhbh2rcd13ifvqepg","pricing_plan_id":"cebpf4jnsgd1na2vs0mg"},{"bike_id":"40a40f80-b3c7-4ba9-aa35-c2cf127ce759","system_id":"levelo_inurba_marseille","lat":43.299221,"lon":5.374624,"is_reserved":false,"is_disabled":false,"rental_uris":{"android":"levelo://app?vid=40a40f80-b3c7-4ba9-aa35-c2cf127ce759","ios":"levelo://app?vid=40a40f80-b3c7-4ba9-aa35-c2cf127ce759"},"vehicle_type_id":"4","last_reported":1730045424,"current_range_meters":7200,"station_id":"ce4bgjh2rcd13ifvqbg0","pricing_plan_id":"cebpf4jnsgd1na2vs0mg"},{"bike_id":"9488ca84-aa5e-4311-bde9-38d634703444","system_id":"levelo_inurba_marseille","lat":43.32477,"lon":5.36572,"is_reserved":false,"is_disabled":false,"rental_uris":{"android":"levelo://app?vid=9488ca84-aa5e-4311-bde9-38d634703444","ios":"levelo://app?vid=9488ca84-aa5e-4311-bde9-38d634703444"},"vehicle_type_id":"4","last_reported":1730045424,"current_range_meters":38000,"station_id":"ce4bhs12rcd13ifvqhvg","pricing_plan_id":"cebpf4jnsgd1na2vs0mg"},{"bike_id":"44c6b0f2-eef2-44fa-9bc7-d9f396ab67e8","system_id":"levelo_inurba_marseille","lat":43.2762,"lon":5.36109,"is_reserved":false,"is_disabled":false,"rental_uris":{"android":"levelo://app?vid=44c6b0f2-eef2-44fa-9bc7-d9f396ab67e8","ios":"levelo://app?vid=44c6b0f2-eef2-44fa-9bc7-d9f396ab67e8"},"vehicle_type_id":"4","last_reported":1730045424,"current_range_meters":29600,"station_id":"ce4bgj92rcd13ifvqbe0","pricing_plan_id":"cebpf4jnsgd1na2vs0mg"},{"bike_id":"fb654306-f13f-40e0-864e-dffb55ff8898","system_id":"levelo_inurba_marseille","lat":43.294189,"lon":5.386311,"is_reserved":false,"is_disabled":false,"rental_uris":{"android":"levelo://app?vid=fb654306-f13f-40e0-864e-dffb55ff8898","ios":"levelo://app?vid=fb654306-f13f-40e0-864e-dffb55ff8898"},"vehicle_type_id":"4","last_reported":1730045424,"current_range_meters":18800,"station_id":"ce4bho12rcd13ifvqh2g","pricing_plan_id":"cebpf4jnsgd1na2vs0mg"},{"bike_id":"dc320861-1d19-4790-acf0-cda515a968be","system_id":"levelo_inurba_marseille","lat":43.28266,"lon":5.35076,"is_reserved":false,"is_disabled":false,"rental_uris":{"android":"levelo://app?vid=dc320861-1d19-4790-acf0-cda515a968be","ios":"levelo://app?vid=dc320861-1d19-4790-acf0-cda515a968be"},"vehicle_type_id":"4","last_reported":1730045424,"current_range_meters":10000,"station_id":"ce4bhbp2rcd13ifvqerg","pricing_plan_id":"cebpf4jnsgd1na2vs0mg"},{"bike_id":"57fbbf80-dade-49f9-87da-3b362876c584","system_id":"levelo_inurba_marseille","lat":43.2969,"lon":5.37706,"is_reserved":false,"is_disabled":false,"rental_uris":{"android":"levelo://app?vid=57fbbf80-dade-49f9-87da-3b362876c584","ios":"levelo://app?vid=57fbbf80-dade-49f9-87da-3b362876c584"},"vehicle_type_id":"4","last_reported":1730045424,"current_range_meters":34800,"station_id":"ce4bgkh2rcd13ifvqbl0","pricing_plan_id":"cebpf4jnsgd1na2vs0mg"},{"bike_id":"601916c5-3274-4e01-863c-d96df39ce3b1","system_id":"levelo_inurba_marseille","lat":43.26562,"lon":5.39028,"is_reserved":false,"is_disabled":false,"rental_uris":{"android":"levelo://app?vid=601916c5-3274-4e01-863c-d96df39ce3b1","ios":"levelo://app?vid=601916c5-3274-4e01-863c-d96df39ce3b1"},"vehicle_type_id":"4","last_reported":1730045424,"current_range_meters":36400,"station_id":"ce4bhe12rcd13ifvqf30","pricing_plan_id":"cebpf4jnsgd1na2vs0mg"},{"bike_id":"c3e26a17-822d-42a0-b023-b46afd3f2d9b","system_id":"levelo_inurba_marseille","lat":43.31481,"lon":5.37302,"is_reserved":false,"is_disabled":false,"rental_uris":{"android":"levelo://app?vid=c3e26a17-822d-42a0-b023-b46afd3f2d9b","ios":"levelo://app?vid=c3e26a17-822d-42a0-b023-b46afd3f2d9b"},"vehicle_type_id":"4","last_reported":1730045424,"current_range_meters":32400,"station_id":"ce4bgt12rcd13ifvqcd0","pricing_plan_id":"cebpf4jnsgd1na2vs0mg"},{"bike_id":"11560c22-a804-42ca-8a27-1f13fc9958d9","system_id":"levelo_inurba_marseille","lat":43.23149,"lon":5.43728,"is_reserved":false,"is_disabled":false,"rental_uris":{"android":"levelo://app?vid=11560c22-a804-42ca-8a27-1f13fc9958d9","ios":"levelo://app?vid=11560c22-a804-42ca-8a27-1f13fc9958d9"},"vehicle_type_id":"4","last_reported":1730045424,"current_range_meters":38800,"station_id":"ce4bhmp2rcd13ifvqgog","pricing_plan_id":"cebpf4jnsgd1na2vs0mg"},{"bike_id":"1fafbe93-2ba4-4077-bfcf-7b3992b30a25","system_id":"levelo_inurba_marseille","lat":43.29552,"lon":5.42283,"is_reserved":false,"is_disabled":false,"rental_uris":{"android":"levelo://app?vid=1fafbe93-2ba4-4077-bfcf-7b3992b30a25","ios":"levelo://app?vid=1fafbe93-2ba4-4077-bfcf-7b3992b30a25"},"vehicle_type_id":"4","last_reported":1730045424,"current_range_meters":38800,"station_id":"ce4bhph2rcd13ifvqhdg","pricing_plan_id":"cebpf4jnsgd1na2vs0mg"},{"bike_id":"22ec0ce8-1477-4f5a-89ed-8ecb85facd8a","system_id":"levelo_inurba_marseille","lat":43.28098,"lon":5.37858,"is_reserved":false,"is_disabled":false,"rental_uris":{"android":"levelo://app?vid=22ec0ce8-1477-4f5a-89ed-8ecb85facd8a","ios":"levelo://app?vid=22ec0ce8-1477-4f5a-89ed-8ecb85facd8a"},"vehicle_type_id":"4","last_reported":1730045424,"current_range_meters":38000,"station_id":"ce4bha12rcd13ifvqee0","pricing_plan_id":"cebpf4jnsgd1na2vs0mg"},{"bike_id":"6a98d306-cc03-49b8-981d-14ed77e1e7db","system_id":"levelo_inurba_marseille","lat":43.28397,"lon":5.3753,"is_reserved":false,"is_disabled":false,"rental_uris":{"android":"levelo://app?vid=6a98d306-cc03-49b8-981d-14ed77e1e7db","ios":"levelo://app?vid=6a98d306-cc03-49b8-981d-14ed77e1e7db"},"vehicle_type_id":"4","last_reported":1730045424,"current_range_meters":27200,"station_id":"ce4bh412rcd13ifvqds0","pricing_plan_id":"cebpf4jnsgd1na2vs0mg"},{"bike_id":"ed9ce993-f44c-4d1a-b142-a638af71de88","system_id":"levelo_inurba_marseille","lat":43.29796,"lon":5.40407,"is_reserved":false,"is_disabled":false,"rental_uris":{"android":"levelo://app?vid=ed9ce993-f44c-4d1a-b142-a638af71de88","ios":"levelo://app?vid=ed9ce993-f44c-4d1a-b142-a638af71de88"},"vehicle_type_id":"4","last_reported":1730045424,"current_range_meters":38800,"station_id":"ce4bh112rcd13ifvqd90","pricing_plan_id":"cebpf4jnsgd1na2vs0mg"},{"bike_id":"ebb720f4-54ef-454a-8398-41f2bd5df1f9","system_id":"levelo_inurba_marseille","lat":43.2903,"lon":5.37561,"is_reserved":false,"is_disabled":false,"rental_uris":{"android":"levelo://app?vid=ebb720f4-54ef-454a-8398-41f2bd5df1f9","ios":"levelo://app?vid=ebb720f4-54ef-454a-8398-41f2bd5df1f9"},"vehicle_type_id":"4","last_reported":1730045424,"current_range_meters":24000,"station_id":"ce4bh692rcd13ifvqe90","pricing_plan_id":"cebpf4jnsgd1na2vs0mg"},{"bike_id":"807a03f8-8c74-416b-9223-20a167d459ca","system_id":"levelo_inurba_marseille","lat":43.29665,"lon":5.40195,"is_reserved":false,"is_disabled":false,"rental_uris":{"android":"levelo://app?vid=807a03f8-8c74-416b-9223-20a167d459ca","ios":"levelo://app?vid=807a03f8-8c74-416b-9223-20a167d459ca"},"vehicle_type_id":"4","last_reported":1730045424,"current_range_meters":13600,"station_id":"","pricing_plan_id":"cebpf4jnsgd1na2vs0mg"},{"bike_id":"2490af73-dfae-4a01-bb59-07c572b47b0c","system_id":"levelo_inurba_marseille","lat":43.3136,"lon":5.38498,"is_reserved":false,"is_disabled":false,"rental_uris":{"android":"levelo://app?vid=2490af73-dfae-4a01-bb59-07c572b47b0c","ios":"levelo://app?vid=2490af73-dfae-4a01-bb59-07c572b47b0c"},"vehicle_type_id":"4","last_reported":1730045424,"current_range_meters":20800,"station_id":"ce4bgt92rcd13ifvqcf0","pricing_plan_id":"cebpf4jnsgd1na2vs0mg"},{"bike_id":"e113f747-4daa-44f7-a218-9e030daa2565","system_id":"levelo_inurba_marseille","lat":43.32105,"lon":5.36773,"is_reserved":false,"is_disabled":false,"rental_uris":{"android":"levelo://app?vid=e113f747-4daa-44f7-a218-9e030daa2565","ios":"levelo://app?vid=e113f747-4daa-44f7-a218-9e030daa2565"},"vehicle_type_id":"4","last_reported":1730045424,"current_range_meters":25600,"station_id":"ce4bhrh2rcd13ifvqhug","pricing_plan_id":"cebpf4jnsgd1na2vs0mg"},{"bike_id":"9fd56fad-5f3d-42b4-b491-7b57b76bc0cf","system_id":"levelo_inurba_marseille","lat":43.27823,"lon":5.40725,"is_reserved":false,"is_disabled":false,"rental_uris":{"android":"levelo://app?vid=9fd56fad-5f3d-42b4-b491-7b57b76bc0cf","ios":"levelo://app?vid=9fd56fad-5f3d-42b4-b491-7b57b76bc0cf"},"vehicle_type_id":"4","last_reported":1730045424,"current_range_meters":22400,"station_id":"ce4bhnh2rcd13ifvqgtg","pricing_plan_id":"cebpf4jnsgd1na2vs0mg"},{"bike_id":"5da5d5b0-a9ee-4d82-af02-4ed8d7237418","system_id":"levelo_inurba_marseille","lat":43.313563,"lon":5.384847,"is_reserved":false,"is_disabled":false,"rental_uris":{"android":"levelo://app?vid=5da5d5b0-a9ee-4d82-af02-4ed8d7237418","ios":"levelo://app?vid=5da5d5b0-a9ee-4d82-af02-4ed8d7237418"},"vehicle_type_id":"4","last_reported":1730045424,"current_range_meters":38800,"station_id":"ce4bgt92rcd13ifvqcf0","pricing_plan_id":"cebpf4jnsgd1na2vs0mg"},{"bike_id":"844b4563-2cc6-4208-a598-7f35c77d1618","system_id":"levelo_inurba_marseille","lat":43.27053,"lon":5.40266,"is_reserved":false,"is_disabled":false,"rental_uris":{"android":"levelo://app?vid=844b4563-2cc6-4208-a598-7f35c77d1618","ios":"levelo://app?vid=844b4563-2cc6-4208-a598-7f35c77d1618"},"vehicle_type_id":"4","last_reported":1730045424,"current_range_meters":3600,"station_id":"ce4bhk92rcd13ifvqgc0","pricing_plan_id":"cebpf4jnsgd1na2vs0mg"},{"bike_id":"8f7598b6-5b51-490b-b360-57ebb98d1331","system_id":"levelo_inurba_marseille","lat":43.29406,"lon":5.41137,"is_reserved":false,"is_disabled":false,"rental_uris":{"android":"levelo://app?vid=8f7598b6-5b51-490b-b360-57ebb98d1331","ios":"levelo://app?vid=8f7598b6-5b51-490b-b360-57ebb98d1331"},"vehicle_type_id":"4","last_reported":1730045424,"current_range_meters":17200,"station_id":"","pricing_plan_id":"cebpf4jnsgd1na2vs0mg"},{"bike_id":"1e89e11a-d877-42e6-9f9a-8f93d3303580","system_id":"levelo_inurba_marseille","lat":43.26562,"lon":5.39033,"is_reserved":false,"is_disabled":false,"rental_uris":{"android":"levelo://app?vid=1e89e11a-d877-42e6-9f9a-8f93d3303580","ios":"levelo://app?vid=1e89e11a-d877-42e6-9f9a-8f93d3303580"},"vehicle_type_id":"4","last_reported":1730045424,"current_range_meters":4400,"station_id":"ce4bhe12rcd13ifvqf30","pricing_plan_id":"cebpf4jnsgd1na2vs0mg"},{"bike_id":"72567f51-b474-410c-9610-67afd5d54111","system_id":"levelo_inurba_marseille","lat":43.304159,"lon":5.412808,"is_reserved":false,"is_disabled":false,"rental_uris":{"android":"levelo://app?vid=72567f51-b474-410c-9610-67afd5d54111","ios":"levelo://app?vid=72567f51-b474-410c-9610-67afd5d54111"},"vehicle_type_id":"4","last_reported":1730045424,"current_range_meters":24800,"station_id":"ce4bhop2rcd13ifvqh8g","pricing_plan_id":"cebpf4jnsgd1na2vs0mg"},{"bike_id":"eb28a744-be4c-4d52-97a9-e29435699453","system_id":"levelo_inurba_marseille","lat":43.29517,"lon":5.39404,"is_reserved":false,"is_disabled":false,"rental_uris":{"android":"levelo://app?vid=eb28a744-be4c-4d52-97a9-e29435699453","ios":"levelo://app?vid=eb28a744-be4c-4d52-97a9-e29435699453"},"vehicle_type_id":"4","last_reported":1730045424,"current_range_meters":16800,"station_id":"ce4bh292rcd13ifvqdf0","pricing_plan_id":"cebpf4jnsgd1na2vs0mg"},{"bike_id":"d7ff7165-6d5c-4f76-865c-b2ea1a2a3c7a","system_id":"levelo_inurba_marseille","lat":43.27496,"lon":5.42449,"is_reserved":false,"is_disabled":false,"rental_uris":{"android":"levelo://app?vid=d7ff7165-6d5c-4f76-865c-b2ea1a2a3c7a","ios":"levelo://app?vid=d7ff7165-6d5c-4f76-865c-b2ea1a2a3c7a"},"vehicle_type_id":"4","last_reported":1730045424,"current_range_meters":38800,"station_id":"ce4bhn92rcd13ifvqgrg","pricing_plan_id":"cebpf4jnsgd1na2vs0mg"},{"bike_id":"1d85667c-c893-4e85-996d-9590bbcf58b0","system_id":"levelo_inurba_marseille","lat":43.24997,"lon":5.38935,"is_reserved":false,"is_disabled":false,"rental_uris":{"android":"levelo://app?vid=1d85667c-c893-4e85-996d-9590bbcf58b0","ios":"levelo://app?vid=1d85667c-c893-4e85-996d-9590bbcf58b0"},"vehicle_type_id":"4","last_reported":1730045424,"current_range_meters":12000,"station_id":"ce4bhgp2rcd13ifvqfd0","pricing_plan_id":"cebpf4jnsgd1na2vs0mg"},{"bike_id":"e37e91b2-792d-49e5-8fcd-c7d6f0f491f7","system_id":"levelo_inurba_marseille","lat":43.23151,"lon":5.43722,"is_reserved":false,"is_disabled":false,"rental_uris":{"android":"levelo://app?vid=e37e91b2-792d-49e5-8fcd-c7d6f0f491f7","ios":"levelo://app?vid=e37e91b2-792d-49e5-8fcd-c7d6f0f491f7"},"vehicle_type_id":"4","last_reported":1730045424,"current_range_meters":38800,"station_id":"ce4bhmp2rcd13ifvqgog","pricing_plan_id":"cebpf4jnsgd1na2vs0mg"},{"bike_id":"02efff61-5b53-42f0-8deb-59befd730dce","system_id":"levelo_inurba_marseille","lat":43.29895,"lon":5.43671,"is_reserved":false,"is_disabled":false,"rental_uris":{"android":"levelo://app?vid=02efff61-5b53-42f0-8deb-59befd730dce","ios":"levelo://app?vid=02efff61-5b53-42f0-8deb-59befd730dce"},"vehicle_type_id":"4","last_reported":1730045424,"current_range_meters":33200,"station_id":"ce4bhpp2rcd13ifvqhfg","pricing_plan_id":"cebpf4jnsgd1na2vs0mg"},{"bike_id":"5712be42-8303-4929-b2c4-d825966a1ae1","system_id":"levelo_inurba_marseille","lat":43.28003,"lon":5.40025,"is_reserved":false,"is_disabled":false,"rental_uris":{"android":"levelo://app?vid=5712be42-8303-4929-b2c4-d825966a1ae1","ios":"levelo://app?vid=5712be42-8303-4929-b2c4-d825966a1ae1"},"vehicle_type_id":"4","last_reported":1730045424,"current_range_meters":32400,"station_id":"ce4bho92rcd13ifvqh4g","pricing_plan_id":"cebpf4jnsgd1na2vs0mg"},{"bike_id":"e428d3c5-6f65-434b-97e2-25862e8a030a","system_id":"levelo_inurba_marseille","lat":43.29685,"lon":5.37706,"is_reserved":false,"is_disabled":false,"rental_uris":{"android":"levelo://app?vid=e428d3c5-6f65-434b-97e2-25862e8a030a","ios":"levelo://app?vid=e428d3c5-6f65-434b-97e2-25862e8a030a"},"vehicle_type_id":"4","last_reported":1730045424,"current_range_meters":12800,"station_id":"ce4bgkh2rcd13ifvqbl0","pricing_plan_id":"cebpf4jnsgd1na2vs0mg"},{"bike_id":"53c980a6-9e68-431e-a568-50671a1924ac","system_id":"levelo_inurba_marseille","lat":43.27831,"lon":5.39214,"is_reserved":false,"is_disabled":false,"rental_uris":{"android":"levelo://app?vid=53c980a6-9e68-431e-a568-50671a1924ac","ios":"levelo://app?vid=53c980a6-9e68-431e-a568-50671a1924ac"},"vehicle_type_id":"4","last_reported":1730045424,"current_range_meters":14400,"station_id":"ce4bhjp2rcd13ifvqga0","pricing_plan_id":"cebpf4jnsgd1na2vs0mg"},{"bike_id":"43cb6264-0d10-4168-8397-1cf9967a9e72","system_id":"levelo_inurba_marseille","lat":43.2953,"lon":5.394,"is_reserved":false,"is_disabled":false,"rental_uris":{"android":"levelo://app?vid=43cb6264-0d10-4168-8397-1cf9967a9e72","ios":"levelo://app?vid=43cb6264-0d10-4168-8397-1cf9967a9e72"},"vehicle_type_id":"4","last_reported":1730045424,"current_range_meters":24000,"station_id":"ce4bh292rcd13ifvqdf0","pricing_plan_id":"cebpf4jnsgd1na2vs0mg"},{"bike_id":"263f93c9-144a-4508-b60e-cbaf71ba2571","system_id":"levelo_inurba_marseille","lat":43.24192,"lon":5.39728,"is_reserved":false,"is_disabled":false,"rental_uris":{"android":"levelo://app?vid=263f93c9-144a-4508-b60e-cbaf71ba2571","ios":"levelo://app?vid=263f93c9-144a-4508-b60e-cbaf71ba2571"},"vehicle_type_id":"4","last_reported":1730045424,"current_range_meters":36800,"station_id":"ce4bhn12rcd13ifvqgpg","pricing_plan_id":"cebpf4jnsgd1na2vs0mg"},{"bike_id":"6bfb5719-3b43-4cba-b289-81bc66dde240","system_id":"levelo_inurba_marseille","lat":43.29226,"lon":5.36051,"is_reserved":false,"is_disabled":false,"rental_uris":{"android":"levelo://app?vid=6bfb5719-3b43-4cba-b289-81bc66dde240","ios":"levelo://app?vid=6bfb5719-3b43-4cba-b289-81bc66dde240"},"vehicle_type_id":"4","last_reported":1730045424,"current_range_meters":25200,"station_id":"ce4bhbh2rcd13ifvqeqg","pricing_plan_id":"cebpf4jnsgd1na2vs0mg"},{"bike_id":"4d49d52d-785d-411e-b344-5872062c1849","system_id":"levelo_inurba_marseille","lat":43.23054,"lon":5.35491,"is_reserved":false,"is_disabled":false,"rental_uris":{"android":"levelo://app?vid=4d49d52d-785d-411e-b344-5872062c1849","ios":"levelo://app?vid=4d49d52d-785d-411e-b344-5872062c1849"},"vehicle_type_id":"4","last_reported":1730045424,"current_range_meters":6800,"station_id":"cpo3342slgdg3j2ifvpg","pricing_plan_id":"cebpf4jnsgd1na2vs0mg"},{"bike_id":"039f8873-53e1-45fb-b8c9-a3799bec9def","system_id":"levelo_inurba_marseille","lat":43.29102,"lon":5.35564,"is_reserved":false,"is_disabled":false,"rental_uris":{"android":"levelo://app?vid=039f8873-53e1-45fb-b8c9-a3799bec9def","ios":"levelo://app?vid=039f8873-53e1-45fb-b8c9-a3799bec9def"},"vehicle_type_id":"4","last_reported":1730045424,"current_range_meters":25600,"station_id":"ce4bgkh2rcd13ifvqbl0","pricing_plan_id":"cebpf4jnsgd1na2vs0mg"},{"bike_id":"6bbb6a64-9d49-43d5-a30c-ac9a90372cf0","system_id":"levelo_inurba_marseille","lat":43.287501,"lon":5.389012,"is_reserved":false,"is_disabled":false,"rental_uris":{"android":"levelo://app?vid=6bbb6a64-9d49-43d5-a30c-ac9a90372cf0","ios":"levelo://app?vid=6bbb6a64-9d49-43d5-a30c-ac9a90372cf0"},"vehicle_type_id":"4","last_reported":1730045424,"current_range_meters":9600,"station_id":"ce4bgv12rcd13ifvqcp0","pricing_plan_id":"cebpf4jnsgd1na2vs0mg"},{"bike_id":"66573150-901d-4315-999f-1bdf296e6efc","system_id":"levelo_inurba_marseille","lat":43.28848,"lon":5.35855,"is_reserved":false,"is_disabled":false,"rental_uris":{"android":"levelo://app?vid=66573150-901d-4315-999f-1bdf296e6efc","ios":"levelo://app?vid=66573150-901d-4315-999f-1bdf296e6efc"},"vehicle_type_id":"4","last_reported":1730045424,"current_range_meters":38800,"station_id":"ce4bhb12rcd13ifvqem0","pricing_plan_id":"cebpf4jnsgd1na2vs0mg"},{"bike_id":"4472382d-8a57-4ac4-bfcb-df87b63c6775","system_id":"levelo_inurba_marseille","lat":43.29274,"lon":5.38423,"is_reserved":false,"is_disabled":false,"rental_uris":{"android":"levelo://app?vid=4472382d-8a57-4ac4-bfcb-df87b63c6775","ios":"levelo://app?vid=4472382d-8a57-4ac4-bfcb-df87b63c6775"},"vehicle_type_id":"4","last_reported":1730045424,"current_range_meters":38800,"station_id":"ce4bh692rcd13ifvqea0","pricing_plan_id":"cebpf4jnsgd1na2vs0mg"},{"bike_id":"48353595-6d69-4320-8652-568b04db3dbc","system_id":"levelo_inurba_marseille","lat":43.26951,"lon":5.38628,"is_reserved":false,"is_disabled":false,"rental_uris":{"android":"levelo://app?vid=48353595-6d69-4320-8652-568b04db3dbc","ios":"levelo://app?vid=48353595-6d69-4320-8652-568b04db3dbc"},"vehicle_type_id":"4","last_reported":1730045424,"current_range_meters":36400,"station_id":"ce4bhh92rcd13ifvqfh0","pricing_plan_id":"cebpf4jnsgd1na2vs0mg"},{"bike_id":"bd6773ee-4705-48d9-a9d1-99ca21a560be","system_id":"levelo_inurba_marseille","lat":43.26558,"lon":5.37285,"is_reserved":false,"is_disabled":false,"rental_uris":{"android":"levelo://app?vid=bd6773ee-4705-48d9-a9d1-99ca21a560be","ios":"levelo://app?vid=bd6773ee-4705-48d9-a9d1-99ca21a560be"},"vehicle_type_id":"4","last_reported":1730045424,"current_range_meters":26000,"station_id":"ce4bhg12rcd13ifvqf70","pricing_plan_id":"cebpf4jnsgd1na2vs0mg"},{"bike_id":"aa0499ad-4a8f-40b0-9752-c56681c8a993","system_id":"levelo_inurba_marseille","lat":43.29901,"lon":5.38158,"is_reserved":false,"is_disabled":false,"rental_uris":{"android":"levelo://app?vid=aa0499ad-4a8f-40b0-9752-c56681c8a993","ios":"levelo://app?vid=aa0499ad-4a8f-40b0-9752-c56681c8a993"},"vehicle_type_id":"4","last_reported":1730045424,"current_range_meters":36800,"station_id":"ce4bgj12rcd13ifvqbc0","pricing_plan_id":"cebpf4jnsgd1na2vs0mg"},{"bike_id":"4f6270f6-b26e-4856-b1d4-7ef839463114","system_id":"levelo_inurba_marseille","lat":43.27049,"lon":5.40261,"is_reserved":false,"is_disabled":false,"rental_uris":{"android":"levelo://app?vid=4f6270f6-b26e-4856-b1d4-7ef839463114","ios":"levelo://app?vid=4f6270f6-b26e-4856-b1d4-7ef839463114"},"vehicle_type_id":"4","last_reported":1730045424,"current_range_meters":21600,"station_id":"ce4bhk92rcd13ifvqgc0","pricing_plan_id":"cebpf4jnsgd1na2vs0mg"},{"bike_id":"8d1224ea-8c67-414f-8e8e-8dff85dd0343","system_id":"levelo_inurba_marseille","lat":43.25006,"lon":5.38933,"is_reserved":false,"is_disabled":false,"rental_uris":{"android":"levelo://app?vid=8d1224ea-8c67-414f-8e8e-8dff85dd0343","ios":"levelo://app?vid=8d1224ea-8c67-414f-8e8e-8dff85dd0343"},"vehicle_type_id":"4","last_reported":1730045424,"current_range_meters":36400,"station_id":"ce4bhgp2rcd13ifvqfd0","pricing_plan_id":"cebpf4jnsgd1na2vs0mg"},{"bike_id":"9befed88-9f8c-464c-b07b-093bd97066bb","system_id":"levelo_inurba_marseille","lat":43.29805,"lon":5.37136,"is_reserved":false,"is_disabled":false,"rental_uris":{"android":"levelo://app?vid=9befed88-9f8c-464c-b07b-093bd97066bb","ios":"levelo://app?vid=9befed88-9f8c-464c-b07b-093bd97066bb"},"vehicle_type_id":"4","last_reported":1730045424,"current_range_meters":19200,"station_id":"","pricing_plan_id":"cebpf4jnsgd1na2vs0mg"},{"bike_id":"f37e3b02-a49c-4c4e-b112-f9c8c24edf90","system_id":"levelo_inurba_marseille","lat":43.2319,"lon":5.35552,"is_reserved":false,"is_disabled":false,"rental_uris":{"android":"levelo://app?vid=f37e3b02-a49c-4c4e-b112-f9c8c24edf90","ios":"levelo://app?vid=f37e3b02-a49c-4c4e-b112-f9c8c24edf90"},"vehicle_type_id":"4","last_reported":1730045424,"current_range_meters":16000,"station_id":"ce4bhu92rcd13ifvqi70","pricing_plan_id":"cebpf4jnsgd1na2vs0mg"},{"bike_id":"4ca037d6-794c-46ba-a405-483bad2ae744","system_id":"levelo_inurba_marseille","lat":43.29798,"lon":5.3809,"is_reserved":false,"is_disabled":false,"rental_uris":{"android":"levelo://app?vid=4ca037d6-794c-46ba-a405-483bad2ae744","ios":"levelo://app?vid=4ca037d6-794c-46ba-a405-483bad2ae744"},"vehicle_type_id":"4","last_reported":1730045424,"current_range_meters":34000,"station_id":"ce4bgip2rcd13ifvqbb0","pricing_plan_id":"cebpf4jnsgd1na2vs0mg"},{"bike_id":"d53bb40c-6b84-4897-a38b-f271fef5d229","system_id":"levelo_inurba_marseille","lat":43.26557,"lon":5.37288,"is_reserved":false,"is_disabled":false,"rental_uris":{"android":"levelo://app?vid=d53bb40c-6b84-4897-a38b-f271fef5d229","ios":"levelo://app?vid=d53bb40c-6b84-4897-a38b-f271fef5d229"},"vehicle_type_id":"4","last_reported":1730045424,"current_range_meters":8000,"station_id":"ce4bhg12rcd13ifvqf70","pricing_plan_id":"cebpf4jnsgd1na2vs0mg"},{"bike_id":"0809aade-8bf4-44e3-925e-77042000651f","system_id":"levelo_inurba_marseille","lat":43.29582,"lon":5.36742,"is_reserved":false,"is_disabled":false,"rental_uris":{"android":"levelo://app?vid=0809aade-8bf4-44e3-925e-77042000651f","ios":"levelo://app?vid=0809aade-8bf4-44e3-925e-77042000651f"},"vehicle_type_id":"4","last_reported":1730045424,"current_range_meters":23200,"station_id":"ce4bgph2rcd13ifvqc2g","pricing_plan_id":"cebpf4jnsgd1na2vs0mg"},{"bike_id":"5c8d47df-cace-44d5-9922-d4ea86fc841f","system_id":"levelo_inurba_marseille","lat":43.23971,"lon":5.36599,"is_reserved":false,"is_disabled":false,"rental_uris":{"android":"levelo://app?vid=5c8d47df-cace-44d5-9922-d4ea86fc841f","ios":"levelo://app?vid=5c8d47df-cace-44d5-9922-d4ea86fc841f"},"vehicle_type_id":"4","last_reported":1730045424,"current_range_meters":37600,"station_id":"ce4bhi12rcd13ifvqfp0","pricing_plan_id":"cebpf4jnsgd1na2vs0mg"},{"bike_id":"872bf1d7-f852-4002-8545-4ba28e44ca4c","system_id":"levelo_inurba_marseille","lat":43.27494,"lon":5.42454,"is_reserved":false,"is_disabled":false,"rental_uris":{"android":"levelo://app?vid=872bf1d7-f852-4002-8545-4ba28e44ca4c","ios":"levelo://app?vid=872bf1d7-f852-4002-8545-4ba28e44ca4c"},"vehicle_type_id":"4","last_reported":1730045424,"current_range_meters":24000,"station_id":"ce4bhn92rcd13ifvqgrg","pricing_plan_id":"cebpf4jnsgd1na2vs0mg"},{"bike_id":"23bcef4d-26e3-4bd6-a5f1-5aad6a37d291","system_id":"levelo_inurba_marseille","lat":43.29538,"lon":5.37503,"is_reserved":false,"is_disabled":false,"rental_uris":{"android":"levelo://app?vid=23bcef4d-26e3-4bd6-a5f1-5aad6a37d291","ios":"levelo://app?vid=23bcef4d-26e3-4bd6-a5f1-5aad6a37d291"},"vehicle_type_id":"4","last_reported":1730045424,"current_range_meters":24400,"station_id":"ce4bgkp2rcd13ifvqbmg","pricing_plan_id":"cebpf4jnsgd1na2vs0mg"},{"bike_id":"7c415667-afd5-4e51-88b5-a0f16e35d58c","system_id":"levelo_inurba_marseille","lat":43.27497,"lon":5.42459,"is_reserved":false,"is_disabled":false,"rental_uris":{"android":"levelo://app?vid=7c415667-afd5-4e51-88b5-a0f16e35d58c","ios":"levelo://app?vid=7c415667-afd5-4e51-88b5-a0f16e35d58c"},"vehicle_type_id":"4","last_reported":1730045424,"current_range_meters":26800,"station_id":"ce4bhn92rcd13ifvqgrg","pricing_plan_id":"cebpf4jnsgd1na2vs0mg"},{"bike_id":"02dd86e6-7dd6-453c-8e9f-fc233789c88e","system_id":"levelo_inurba_marseille","lat":43.3017,"lon":5.36622,"is_reserved":false,"is_disabled":false,"rental_uris":{"android":"levelo://app?vid=02dd86e6-7dd6-453c-8e9f-fc233789c88e","ios":"levelo://app?vid=02dd86e6-7dd6-453c-8e9f-fc233789c88e"},"vehicle_type_id":"4","last_reported":1730045424,"current_range_meters":6800,"station_id":"ce4bgrh2rcd13ifvqc8g","pricing_plan_id":"cebpf4jnsgd1na2vs0mg"},{"bike_id":"e39645c5-87ac-4e87-90ca-e4c6f3ff67ce","system_id":"levelo_inurba_marseille","lat":43.29938,"lon":5.36561,"is_reserved":false,"is_disabled":false,"rental_uris":{"android":"levelo://app?vid=e39645c5-87ac-4e87-90ca-e4c6f3ff67ce","ios":"levelo://app?vid=e39645c5-87ac-4e87-90ca-e4c6f3ff67ce"},"vehicle_type_id":"4","last_reported":1730045424,"current_range_meters":35600,"station_id":"ce4bgm92rcd13ifvqbr0","pricing_plan_id":"cebpf4jnsgd1na2vs0mg"},{"bike_id":"f5507884-e4ff-419a-87c4-1ca9c2a40c07","system_id":"levelo_inurba_marseille","lat":43.29049,"lon":5.38172,"is_reserved":false,"is_disabled":false,"rental_uris":{"android":"levelo://app?vid=f5507884-e4ff-419a-87c4-1ca9c2a40c07","ios":"levelo://app?vid=f5507884-e4ff-419a-87c4-1ca9c2a40c07"},"vehicle_type_id":"4","last_reported":1730045424,"current_range_meters":14400,"station_id":"ce4bh4p2rcd13ifvqe1g","pricing_plan_id":"cebpf4jnsgd1na2vs0mg"},{"bike_id":"9dd14206-49a5-48d0-a5b6-7920d3ed74f5","system_id":"levelo_inurba_marseille","lat":43.29008,"lon":5.38149,"is_reserved":false,"is_disabled":false,"rental_uris":{"android":"levelo://app?vid=9dd14206-49a5-48d0-a5b6-7920d3ed74f5","ios":"levelo://app?vid=9dd14206-49a5-48d0-a5b6-7920d3ed74f5"},"vehicle_type_id":"4","last_reported":1730045424,"current_range_meters":36800,"station_id":"ce4bh4p2rcd13ifvqe1g","pricing_plan_id":"cebpf4jnsgd1na2vs0mg"},{"bike_id":"70ef1d30-3989-47f1-a56f-dfe0f32825ab","system_id":"levelo_inurba_marseille","lat":43.2695,"lon":5.38645,"is_reserved":false,"is_disabled":false,"rental_uris":{"android":"levelo://app?vid=70ef1d30-3989-47f1-a56f-dfe0f32825ab","ios":"levelo://app?vid=70ef1d30-3989-47f1-a56f-dfe0f32825ab"},"vehicle_type_id":"4","last_reported":1730045424,"current_range_meters":30800,"station_id":"ce4bhh92rcd13ifvqfh0","pricing_plan_id":"cebpf4jnsgd1na2vs0mg"},{"bike_id":"fb6406fe-b3b9-4a3a-be7f-7d740a6da98d","system_id":"levelo_inurba_marseille","lat":43.2919,"lon":5.35792,"is_reserved":false,"is_disabled":false,"rental_uris":{"android":"levelo://app?vid=fb6406fe-b3b9-4a3a-be7f-7d740a6da98d","ios":"levelo://app?vid=fb6406fe-b3b9-4a3a-be7f-7d740a6da98d"},"vehicle_type_id":"4","last_reported":1730045424,"current_range_meters":4800,"station_id":"ce4bhb12rcd13ifvqel0","pricing_plan_id":"cebpf4jnsgd1na2vs0mg"},{"bike_id":"3d729504-3198-4bd2-a0c7-ff4fc02f56e0","system_id":"levelo_inurba_marseille","lat":43.31654,"lon":5.37438,"is_reserved":false,"is_disabled":false,"rental_uris":{"android":"levelo://app?vid=3d729504-3198-4bd2-a0c7-ff4fc02f56e0","ios":"levelo://app?vid=3d729504-3198-4bd2-a0c7-ff4fc02f56e0"},"vehicle_type_id":"4","last_reported":1730045424,"current_range_meters":16800,"station_id":"ce4bgt12rcd13ifvqcd0","pricing_plan_id":"cebpf4jnsgd1na2vs0mg"},{"bike_id":"abef9701-b3c1-4827-b55d-ec11773ffea5","system_id":"levelo_inurba_marseille","lat":43.23061,"lon":5.35491,"is_reserved":false,"is_disabled":false,"rental_uris":{"android":"levelo://app?vid=abef9701-b3c1-4827-b55d-ec11773ffea5","ios":"levelo://app?vid=abef9701-b3c1-4827-b55d-ec11773ffea5"},"vehicle_type_id":"4","last_reported":1730045424,"current_range_meters":2000,"station_id":"cpo3342slgdg3j2ifvpg","pricing_plan_id":"cebpf4jnsgd1na2vs0mg"},{"bike_id":"4b67d1a7-36fe-46e2-9587-4c2263c5184a","system_id":"levelo_inurba_marseille","lat":43.29855,"lon":5.36275,"is_reserved":false,"is_disabled":false,"rental_uris":{"android":"levelo://app?vid=4b67d1a7-36fe-46e2-9587-4c2263c5184a","ios":"levelo://app?vid=4b67d1a7-36fe-46e2-9587-4c2263c5184a"},"vehicle_type_id":"4","last_reported":1730045424,"current_range_meters":35200,"station_id":"ce4bgpp2rcd13ifvqc3g","pricing_plan_id":"cebpf4jnsgd1na2vs0mg"},{"bike_id":"e7cfc922-9776-4f39-8441-e5b913446422","system_id":"levelo_inurba_marseille","lat":43.30147,"lon":5.37405,"is_reserved":false,"is_disabled":false,"rental_uris":{"android":"levelo://app?vid=e7cfc922-9776-4f39-8441-e5b913446422","ios":"levelo://app?vid=e7cfc922-9776-4f39-8441-e5b913446422"},"vehicle_type_id":"4","last_reported":1730045424,"current_range_meters":38800,"station_id":"ce4bgs92rcd13ifvqcc0","pricing_plan_id":"cebpf4jnsgd1na2vs0mg"},{"bike_id":"e9418555-5c14-4625-927b-efe1faa2aa34","system_id":"levelo_inurba_marseille","lat":43.27994,"lon":5.4002,"is_reserved":false,"is_disabled":false,"rental_uris":{"android":"levelo://app?vid=e9418555-5c14-4625-927b-efe1faa2aa34","ios":"levelo://app?vid=e9418555-5c14-4625-927b-efe1faa2aa34"},"vehicle_type_id":"4","last_reported":1730045424,"current_range_meters":38400,"station_id":"ce4bho92rcd13ifvqh4g","pricing_plan_id":"cebpf4jnsgd1na2vs0mg"},{"bike_id":"f168cb05-8a64-489b-9e34-6ccace94d9a0","system_id":"levelo_inurba_marseille","lat":43.24997,"lon":5.38933,"is_reserved":false,"is_disabled":false,"rental_uris":{"android":"levelo://app?vid=f168cb05-8a64-489b-9e34-6ccace94d9a0","ios":"levelo://app?vid=f168cb05-8a64-489b-9e34-6ccace94d9a0"},"vehicle_type_id":"4","last_reported":1730045424,"current_range_meters":22400,"station_id":"ce4bhgp2rcd13ifvqfd0","pricing_plan_id":"cebpf4jnsgd1na2vs0mg"},{"bike_id":"00fe9e8f-b248-472d-90c8-9f2ec8a461b3","system_id":"levelo_inurba_marseille","lat":43.29309,"lon":5.37174,"is_reserved":false,"is_disabled":false,"rental_uris":{"android":"levelo://app?vid=00fe9e8f-b248-472d-90c8-9f2ec8a461b3","ios":"levelo://app?vid=00fe9e8f-b248-472d-90c8-9f2ec8a461b3"},"vehicle_type_id":"4","last_reported":1730045424,"current_range_meters":30000,"station_id":"ce4bgh92rcd13ifvqb40","pricing_plan_id":"cebpf4jnsgd1na2vs0mg"},{"bike_id":"109ddf13-d75b-4d2a-b2a4-78e9fff708b4","system_id":"levelo_inurba_marseille","lat":43.30587,"lon":5.39349,"is_reserved":false,"is_disabled":false,"rental_uris":{"android":"levelo://app?vid=109ddf13-d75b-4d2a-b2a4-78e9fff708b4","ios":"levelo://app?vid=109ddf13-d75b-4d2a-b2a4-78e9fff708b4"},"vehicle_type_id":"4","last_reported":1730045424,"current_range_meters":4800,"station_id":"ce4bh0p2rcd13ifvqd80","pricing_plan_id":"cebpf4jnsgd1na2vs0mg"},{"bike_id":"adc5b073-ad6a-44a1-9316-8a5743452c35","system_id":"levelo_inurba_marseille","lat":43.29874,"lon":5.39724,"is_reserved":false,"is_disabled":false,"rental_uris":{"android":"levelo://app?vid=adc5b073-ad6a-44a1-9316-8a5743452c35","ios":"levelo://app?vid=adc5b073-ad6a-44a1-9316-8a5743452c35"},"vehicle_type_id":"4","last_reported":1730045424,"current_range_meters":8800,"station_id":"ce4bh0h2rcd13ifvqd50","pricing_plan_id":"cebpf4jnsgd1na2vs0mg"},{"bike_id":"b8d999f4-b9d9-4927-a0aa-1a2e31ee3ae9","system_id":"levelo_inurba_marseille","lat":43.30356,"lon":5.41882,"is_reserved":false,"is_disabled":false,"rental_uris":{"android":"levelo://app?vid=b8d999f4-b9d9-4927-a0aa-1a2e31ee3ae9","ios":"levelo://app?vid=b8d999f4-b9d9-4927-a0aa-1a2e31ee3ae9"},"vehicle_type_id":"4","last_reported":1730045424,"current_range_meters":40000,"station_id":"ce4bhop2rcd13ifvqh7g","pricing_plan_id":"cebpf4jnsgd1na2vs0mg"},{"bike_id":"b201b8c1-b0e9-499d-984f-3c39ebec1b9d","system_id":"levelo_inurba_marseille","lat":43.2396,"lon":5.36628,"is_reserved":false,"is_disabled":false,"rental_uris":{"android":"levelo://app?vid=b201b8c1-b0e9-499d-984f-3c39ebec1b9d","ios":"levelo://app?vid=b201b8c1-b0e9-499d-984f-3c39ebec1b9d"},"vehicle_type_id":"4","last_reported":1730045424,"current_range_meters":6000,"station_id":"ce4bhi12rcd13ifvqfp0","pricing_plan_id":"cebpf4jnsgd1na2vs0mg"},{"bike_id":"76588601-f0de-444c-8708-6d6ae74a37db","system_id":"levelo_inurba_marseille","lat":43.23963,"lon":5.36647,"is_reserved":false,"is_disabled":false,"rental_uris":{"android":"levelo://app?vid=76588601-f0de-444c-8708-6d6ae74a37db","ios":"levelo://app?vid=76588601-f0de-444c-8708-6d6ae74a37db"},"vehicle_type_id":"4","last_reported":1730045424,"current_range_meters":38800,"station_id":"ce4bhi12rcd13ifvqfp0","pricing_plan_id":"cebpf4jnsgd1na2vs0mg"},{"bike_id":"7cdd88d2-5824-40fa-8faf-90ef733261c2","system_id":"levelo_inurba_marseille","lat":43.23964,"lon":5.36633,"is_reserved":false,"is_disabled":false,"rental_uris":{"android":"levelo://app?vid=7cdd88d2-5824-40fa-8faf-90ef733261c2","ios":"levelo://app?vid=7cdd88d2-5824-40fa-8faf-90ef733261c2"},"vehicle_type_id":"4","last_reported":1730045424,"current_range_meters":16000,"station_id":"ce4bhi12rcd13ifvqfp0","pricing_plan_id":"cebpf4jnsgd1na2vs0mg"},{"bike_id":"25824153-b4b3-483b-b4a4-390dc16890cc","system_id":"levelo_inurba_marseille","lat":43.27997,"lon":5.40007,"is_reserved":false,"is_disabled":false,"rental_uris":{"android":"levelo://app?vid=25824153-b4b3-483b-b4a4-390dc16890cc","ios":"levelo://app?vid=25824153-b4b3-483b-b4a4-390dc16890cc"},"vehicle_type_id":"4","last_reported":1730045424,"current_range_meters":36800,"station_id":"ce4bho92rcd13ifvqh4g","pricing_plan_id":"cebpf4jnsgd1na2vs0mg"},{"bike_id":"d93f5d66-5801-405e-8177-d8044aa5543d","system_id":"levelo_inurba_marseille","lat":43.28158,"lon":5.42642,"is_reserved":false,"is_disabled":false,"rental_uris":{"android":"levelo://app?vid=d93f5d66-5801-405e-8177-d8044aa5543d","ios":"levelo://app?vid=d93f5d66-5801-405e-8177-d8044aa5543d"},"vehicle_type_id":"4","last_reported":1730045424,"current_range_meters":6000,"station_id":"ce4bhnh2rcd13ifvqgug","pricing_plan_id":"cebpf4jnsgd1na2vs0mg"},{"bike_id":"8a7ea3b3-7c19-4f13-a31a-07202c98e2c3","system_id":"levelo_inurba_marseille","lat":43.324831,"lon":5.365596,"is_reserved":false,"is_disabled":false,"rental_uris":{"android":"levelo://app?vid=8a7ea3b3-7c19-4f13-a31a-07202c98e2c3","ios":"levelo://app?vid=8a7ea3b3-7c19-4f13-a31a-07202c98e2c3"},"vehicle_type_id":"4","last_reported":1730045424,"current_range_meters":20400,"station_id":"ce4bhs12rcd13ifvqhvg","pricing_plan_id":"cebpf4jnsgd1na2vs0mg"},{"bike_id":"72ccf0e8-e5f1-47b6-bf3c-74fcfeb87b9b","system_id":"levelo_inurba_marseille","lat":43.28459,"lon":5.35902,"is_reserved":false,"is_disabled":false,"rental_uris":{"android":"levelo://app?vid=72ccf0e8-e5f1-47b6-bf3c-74fcfeb87b9b","ios":"levelo://app?vid=72ccf0e8-e5f1-47b6-bf3c-74fcfeb87b9b"},"vehicle_type_id":"4","last_reported":1730045424,"current_range_meters":18800,"station_id":"ce4bhah2rcd13ifvqei0","pricing_plan_id":"cebpf4jnsgd1na2vs0mg"},{"bike_id":"d251bf19-1981-46ed-abf2-f380c237b64c","system_id":"levelo_inurba_marseille","lat":43.27554,"lon":5.38435,"is_reserved":false,"is_disabled":false,"rental_uris":{"android":"levelo://app?vid=d251bf19-1981-46ed-abf2-f380c237b64c","ios":"levelo://app?vid=d251bf19-1981-46ed-abf2-f380c237b64c"},"vehicle_type_id":"4","last_reported":1730045424,"current_range_meters":10000,"station_id":"ce4bhh92rcd13ifvqfi0","pricing_plan_id":"cebpf4jnsgd1na2vs0mg"},{"bike_id":"1a504bb3-387b-4e83-ae89-5c5ddfebd1d6","system_id":"levelo_inurba_marseille","lat":43.26934,"lon":5.38922,"is_reserved":false,"is_disabled":false,"rental_uris":{"android":"levelo://app?vid=1a504bb3-387b-4e83-ae89-5c5ddfebd1d6","ios":"levelo://app?vid=1a504bb3-387b-4e83-ae89-5c5ddfebd1d6"},"vehicle_type_id":"4","last_reported":1730045424,"current_range_meters":39200,"station_id":"ce4bhhh2rcd13ifvqfl0","pricing_plan_id":"cebpf4jnsgd1na2vs0mg"},{"bike_id":"d434865b-33ba-4930-8154-7a77f6e2c440","system_id":"levelo_inurba_marseille","lat":43.28408,"lon":5.34999,"is_reserved":false,"is_disabled":false,"rental_uris":{"android":"levelo://app?vid=d434865b-33ba-4930-8154-7a77f6e2c440","ios":"levelo://app?vid=d434865b-33ba-4930-8154-7a77f6e2c440"},"vehicle_type_id":"4","last_reported":1730045424,"current_range_meters":38000,"station_id":"ce4bhbh2rcd13ifvqepg","pricing_plan_id":"cebpf4jnsgd1na2vs0mg"},{"bike_id":"6a1480b1-c02c-4e9a-9870-2f43997e28ba","system_id":"levelo_inurba_marseille","lat":43.27809,"lon":5.40719,"is_reserved":false,"is_disabled":false,"rental_uris":{"android":"levelo://app?vid=6a1480b1-c02c-4e9a-9870-2f43997e28ba","ios":"levelo://app?vid=6a1480b1-c02c-4e9a-9870-2f43997e28ba"},"vehicle_type_id":"4","last_reported":1730045424,"current_range_meters":25600,"station_id":"ce4bhnh2rcd13ifvqgtg","pricing_plan_id":"cebpf4jnsgd1na2vs0mg"},{"bike_id":"90326538-3425-40ee-b0fb-cf6c32f15af4","system_id":"levelo_inurba_marseille","lat":43.27314,"lon":5.39072,"is_reserved":false,"is_disabled":false,"rental_uris":{"android":"levelo://app?vid=90326538-3425-40ee-b0fb-cf6c32f15af4","ios":"levelo://app?vid=90326538-3425-40ee-b0fb-cf6c32f15af4"},"vehicle_type_id":"4","last_reported":1730045424,"current_range_meters":27600,"station_id":"ce4bhgp2rcd13ifvqfe0","pricing_plan_id":"cebpf4jnsgd1na2vs0mg"},{"bike_id":"3d700e3f-487d-447b-b321-fa48c827b98e","system_id":"levelo_inurba_marseille","lat":43.2814,"lon":5.36912,"is_reserved":false,"is_disabled":false,"rental_uris":{"android":"levelo://app?vid=3d700e3f-487d-447b-b321-fa48c827b98e","ios":"levelo://app?vid=3d700e3f-487d-447b-b321-fa48c827b98e"},"vehicle_type_id":"4","last_reported":1730045424,"current_range_meters":12400,"station_id":"ce4bha12rcd13ifvqef0","pricing_plan_id":"cebpf4jnsgd1na2vs0mg"},{"bike_id":"e18f765e-ef97-4eb7-a448-a07633187eb9","system_id":"levelo_inurba_marseille","lat":43.28492,"lon":5.38542,"is_reserved":false,"is_disabled":false,"rental_uris":{"android":"levelo://app?vid=e18f765e-ef97-4eb7-a448-a07633187eb9","ios":"levelo://app?vid=e18f765e-ef97-4eb7-a448-a07633187eb9"},"vehicle_type_id":"4","last_reported":1730045424,"current_range_meters":26000,"station_id":"ce4bh8p2rcd13ifvqeb0","pricing_plan_id":"cebpf4jnsgd1na2vs0mg"},{"bike_id":"6e45bd55-8d3d-47a0-ae26-852c24ebcb13","system_id":"levelo_inurba_marseille","lat":43.2781,"lon":5.40704,"is_reserved":false,"is_disabled":false,"rental_uris":{"android":"levelo://app?vid=6e45bd55-8d3d-47a0-ae26-852c24ebcb13","ios":"levelo://app?vid=6e45bd55-8d3d-47a0-ae26-852c24ebcb13"},"vehicle_type_id":"4","last_reported":1730045424,"current_range_meters":39200,"station_id":"ce4bhnh2rcd13ifvqgtg","pricing_plan_id":"cebpf4jnsgd1na2vs0mg"},{"bike_id":"b3f5104c-3e1d-403c-88a6-4772b31b51c7","system_id":"levelo_inurba_marseille","lat":43.29262,"lon":5.40901,"is_reserved":false,"is_disabled":false,"rental_uris":{"android":"levelo://app?vid=b3f5104c-3e1d-403c-88a6-4772b31b51c7","ios":"levelo://app?vid=b3f5104c-3e1d-403c-88a6-4772b31b51c7"},"vehicle_type_id":"4","last_reported":1730045424,"current_range_meters":10800,"station_id":"ce4bh192rcd13ifvqdc0","pricing_plan_id":"cebpf4jnsgd1na2vs0mg"},{"bike_id":"e89316dc-a19a-469f-a9cd-dc00b495757e","system_id":"levelo_inurba_marseille","lat":43.27428,"lon":5.40667,"is_reserved":false,"is_disabled":false,"rental_uris":{"android":"levelo://app?vid=e89316dc-a19a-469f-a9cd-dc00b495757e","ios":"levelo://app?vid=e89316dc-a19a-469f-a9cd-dc00b495757e"},"vehicle_type_id":"4","last_reported":1730045424,"current_range_meters":9200,"station_id":"","pricing_plan_id":"cebpf4jnsgd1na2vs0mg"},{"bike_id":"2b16b8f9-dacd-4cde-a05b-da667fe0717f","system_id":"levelo_inurba_marseille","lat":43.30892,"lon":5.37208,"is_reserved":false,"is_disabled":false,"rental_uris":{"android":"levelo://app?vid=2b16b8f9-dacd-4cde-a05b-da667fe0717f","ios":"levelo://app?vid=2b16b8f9-dacd-4cde-a05b-da667fe0717f"},"vehicle_type_id":"4","last_reported":1730045424,"current_range_meters":11600,"station_id":"ce4bguh2rcd13ifvqckg","pricing_plan_id":"cebpf4jnsgd1na2vs0mg"},{"bike_id":"44ecac53-e2d5-4730-96e0-ba76290d5a54","system_id":"levelo_inurba_marseille","lat":43.2694,"lon":5.40261,"is_reserved":false,"is_disabled":false,"rental_uris":{"android":"levelo://app?vid=44ecac53-e2d5-4730-96e0-ba76290d5a54","ios":"levelo://app?vid=44ecac53-e2d5-4730-96e0-ba76290d5a54"},"vehicle_type_id":"4","last_reported":1730045424,"current_range_meters":26800,"station_id":"cjm6bp8fraef2m0cb0m0","pricing_plan_id":"cebpf4jnsgd1na2vs0mg"},{"bike_id":"511424f7-b95d-4a54-b4ee-a3dc3e62a2de","system_id":"levelo_inurba_marseille","lat":43.29229,"lon":5.3608,"is_reserved":false,"is_disabled":false,"rental_uris":{"android":"levelo://app?vid=511424f7-b95d-4a54-b4ee-a3dc3e62a2de","ios":"levelo://app?vid=511424f7-b95d-4a54-b4ee-a3dc3e62a2de"},"vehicle_type_id":"4","last_reported":1730045424,"current_range_meters":17600,"station_id":"ce4bhbh2rcd13ifvqeqg","pricing_plan_id":"cebpf4jnsgd1na2vs0mg"},{"bike_id":"81e500be-3ff6-45b1-af40-237783c8efb0","system_id":"levelo_inurba_marseille","lat":43.27811,"lon":5.40739,"is_reserved":false,"is_disabled":false,"rental_uris":{"android":"levelo://app?vid=81e500be-3ff6-45b1-af40-237783c8efb0","ios":"levelo://app?vid=81e500be-3ff6-45b1-af40-237783c8efb0"},"vehicle_type_id":"4","last_reported":1730045424,"current_range_meters":15200,"station_id":"ce4bhnh2rcd13ifvqgtg","pricing_plan_id":"cebpf4jnsgd1na2vs0mg"},{"bike_id":"fa30867d-31fd-449d-bf86-f380d61b29ca","system_id":"levelo_inurba_marseille","lat":43.28428,"lon":5.35005,"is_reserved":false,"is_disabled":false,"rental_uris":{"android":"levelo://app?vid=fa30867d-31fd-449d-bf86-f380d61b29ca","ios":"levelo://app?vid=fa30867d-31fd-449d-bf86-f380d61b29ca"},"vehicle_type_id":"4","last_reported":1730045424,"current_range_meters":30400,"station_id":"ce4bhbh2rcd13ifvqepg","pricing_plan_id":"cebpf4jnsgd1na2vs0mg"},{"bike_id":"8c84fd38-39ac-41de-bc58-8d0982a1cd5b","system_id":"levelo_inurba_marseille","lat":43.29803,"lon":5.3808,"is_reserved":false,"is_disabled":false,"rental_uris":{"android":"levelo://app?vid=8c84fd38-39ac-41de-bc58-8d0982a1cd5b","ios":"levelo://app?vid=8c84fd38-39ac-41de-bc58-8d0982a1cd5b"},"vehicle_type_id":"4","last_reported":1730045424,"current_range_meters":38400,"station_id":"ce4bgip2rcd13ifvqbb0","pricing_plan_id":"cebpf4jnsgd1na2vs0mg"},{"bike_id":"58a895e6-06d1-40be-ad3b-97fcfbcf9628","system_id":"levelo_inurba_marseille","lat":43.30542,"lon":5.36555,"is_reserved":false,"is_disabled":false,"rental_uris":{"android":"levelo://app?vid=58a895e6-06d1-40be-ad3b-97fcfbcf9628","ios":"levelo://app?vid=58a895e6-06d1-40be-ad3b-97fcfbcf9628"},"vehicle_type_id":"4","last_reported":1730045424,"current_range_meters":25200,"station_id":"ce4bgs12rcd13ifvqcag","pricing_plan_id":"cebpf4jnsgd1na2vs0mg"},{"bike_id":"0d4893e8-524d-4ce6-ab3b-0b321c471026","system_id":"levelo_inurba_marseille","lat":43.3019,"lon":5.36607,"is_reserved":false,"is_disabled":false,"rental_uris":{"android":"levelo://app?vid=0d4893e8-524d-4ce6-ab3b-0b321c471026","ios":"levelo://app?vid=0d4893e8-524d-4ce6-ab3b-0b321c471026"},"vehicle_type_id":"4","last_reported":1730045424,"current_range_meters":27600,"station_id":"ce4bgrh2rcd13ifvqc8g","pricing_plan_id":"cebpf4jnsgd1na2vs0mg"},{"bike_id":"eaa10926-e420-4537-8553-c621710fb322","system_id":"levelo_inurba_marseille","lat":43.25725,"lon":5.4111,"is_reserved":false,"is_disabled":false,"rental_uris":{"android":"levelo://app?vid=eaa10926-e420-4537-8553-c621710fb322","ios":"levelo://app?vid=eaa10926-e420-4537-8553-c621710fb322"},"vehicle_type_id":"4","last_reported":1730045424,"current_range_meters":16400,"station_id":"ce4bhkp2rcd13ifvqgd0","pricing_plan_id":"cebpf4jnsgd1na2vs0mg"},{"bike_id":"668e37ff-9773-49ef-8c28-b7f01ff309ef","system_id":"levelo_inurba_marseille","lat":43.26206,"lon":5.37935,"is_reserved":false,"is_disabled":false,"rental_uris":{"android":"levelo://app?vid=668e37ff-9773-49ef-8c28-b7f01ff309ef","ios":"levelo://app?vid=668e37ff-9773-49ef-8c28-b7f01ff309ef"},"vehicle_type_id":"4","last_reported":1730045424,"current_range_meters":38800,"station_id":"ce4bhjp2rcd13ifvqg90","pricing_plan_id":"cebpf4jnsgd1na2vs0mg"},{"bike_id":"4f40e012-ea5b-4575-9527-1f943967bef1","system_id":"levelo_inurba_marseille","lat":43.23963,"lon":5.3664,"is_reserved":false,"is_disabled":false,"rental_uris":{"android":"levelo://app?vid=4f40e012-ea5b-4575-9527-1f943967bef1","ios":"levelo://app?vid=4f40e012-ea5b-4575-9527-1f943967bef1"},"vehicle_type_id":"4","last_reported":1730045424,"current_range_meters":9600,"station_id":"ce4bhi12rcd13ifvqfp0","pricing_plan_id":"cebpf4jnsgd1na2vs0mg"},{"bike_id":"4d18fdf7-40fd-43b3-89ca-7d0f38bd83c5","system_id":"levelo_inurba_marseille","lat":43.32481,"lon":5.36565,"is_reserved":false,"is_disabled":false,"rental_uris":{"android":"levelo://app?vid=4d18fdf7-40fd-43b3-89ca-7d0f38bd83c5","ios":"levelo://app?vid=4d18fdf7-40fd-43b3-89ca-7d0f38bd83c5"},"vehicle_type_id":"4","last_reported":1730045424,"current_range_meters":21600,"station_id":"ce4bhs12rcd13ifvqhvg","pricing_plan_id":"cebpf4jnsgd1na2vs0mg"},{"bike_id":"57a8ed2a-39e3-4a9e-832c-32be2dd212d7","system_id":"levelo_inurba_marseille","lat":43.29543,"lon":5.39399,"is_reserved":false,"is_disabled":false,"rental_uris":{"android":"levelo://app?vid=57a8ed2a-39e3-4a9e-832c-32be2dd212d7","ios":"levelo://app?vid=57a8ed2a-39e3-4a9e-832c-32be2dd212d7"},"vehicle_type_id":"4","last_reported":1730045424,"current_range_meters":38800,"station_id":"ce4bh292rcd13ifvqdf0","pricing_plan_id":"cebpf4jnsgd1na2vs0mg"},{"bike_id":"6b10aa57-a20f-4a52-8be5-7f69bd4f0e4a","system_id":"levelo_inurba_marseille","lat":43.24648,"lon":5.38887,"is_reserved":false,"is_disabled":false,"rental_uris":{"android":"levelo://app?vid=6b10aa57-a20f-4a52-8be5-7f69bd4f0e4a","ios":"levelo://app?vid=6b10aa57-a20f-4a52-8be5-7f69bd4f0e4a"},"vehicle_type_id":"4","last_reported":1730045424,"current_range_meters":36000,"station_id":"ce4bhg12rcd13ifvqf60","pricing_plan_id":"cebpf4jnsgd1na2vs0mg"},{"bike_id":"80caf1dc-60b8-4243-a328-32725dc8c733","system_id":"levelo_inurba_marseille","lat":43.29221,"lon":5.36072,"is_reserved":false,"is_disabled":false,"rental_uris":{"android":"levelo://app?vid=80caf1dc-60b8-4243-a328-32725dc8c733","ios":"levelo://app?vid=80caf1dc-60b8-4243-a328-32725dc8c733"},"vehicle_type_id":"4","last_reported":1730045424,"current_range_meters":7200,"station_id":"ce4bhbh2rcd13ifvqeqg","pricing_plan_id":"cebpf4jnsgd1na2vs0mg"},{"bike_id":"a64c9bae-96b6-4749-b19c-ac41d1700858","system_id":"levelo_inurba_marseille","lat":43.27491,"lon":5.42473,"is_reserved":false,"is_disabled":false,"rental_uris":{"android":"levelo://app?vid=a64c9bae-96b6-4749-b19c-ac41d1700858","ios":"levelo://app?vid=a64c9bae-96b6-4749-b19c-ac41d1700858"},"vehicle_type_id":"4","last_reported":1730045424,"current_range_meters":28800,"station_id":"ce4bhn92rcd13ifvqgrg","pricing_plan_id":"cebpf4jnsgd1na2vs0mg"},{"bike_id":"0aee69c0-7b50-45b9-85eb-80ac89ba2fff","system_id":"levelo_inurba_marseille","lat":43.32476,"lon":5.36563,"is_reserved":false,"is_disabled":false,"rental_uris":{"android":"levelo://app?vid=0aee69c0-7b50-45b9-85eb-80ac89ba2fff","ios":"levelo://app?vid=0aee69c0-7b50-45b9-85eb-80ac89ba2fff"},"vehicle_type_id":"4","last_reported":1730045424,"current_range_meters":6400,"station_id":"ce4bhs12rcd13ifvqhvg","pricing_plan_id":"cebpf4jnsgd1na2vs0mg"},{"bike_id":"a637ddb5-b9e8-4510-912c-1884ad257272","system_id":"levelo_inurba_marseille","lat":43.26804,"lon":5.40276,"is_reserved":false,"is_disabled":false,"rental_uris":{"android":"levelo://app?vid=a637ddb5-b9e8-4510-912c-1884ad257272","ios":"levelo://app?vid=a637ddb5-b9e8-4510-912c-1884ad257272"},"vehicle_type_id":"4","last_reported":1730045424,"current_range_meters":33200,"station_id":"ce501612rcd8frsf0b60","pricing_plan_id":"cebpf4jnsgd1na2vs0mg"},{"bike_id":"4926bb76-6d65-470b-97fc-e8787e3ae917","system_id":"levelo_inurba_marseille","lat":43.297211,"lon":5.376966,"is_reserved":false,"is_disabled":false,"rental_uris":{"android":"levelo://app?vid=4926bb76-6d65-470b-97fc-e8787e3ae917","ios":"levelo://app?vid=4926bb76-6d65-470b-97fc-e8787e3ae917"},"vehicle_type_id":"4","last_reported":1730045424,"current_range_meters":26000,"station_id":"ce4bgkh2rcd13ifvqbl0","pricing_plan_id":"cebpf4jnsgd1na2vs0mg"},{"bike_id":"972a4e70-6e48-4020-a433-365c78e826ca","system_id":"levelo_inurba_marseille","lat":43.24809,"lon":5.37463,"is_reserved":false,"is_disabled":false,"rental_uris":{"android":"levelo://app?vid=972a4e70-6e48-4020-a433-365c78e826ca","ios":"levelo://app?vid=972a4e70-6e48-4020-a433-365c78e826ca"},"vehicle_type_id":"4","last_reported":1730045424,"current_range_meters":24800,"station_id":"ce4bhgh2rcd13ifvqfb0","pricing_plan_id":"cebpf4jnsgd1na2vs0mg"},{"bike_id":"e02923e5-788c-4451-91c9-bae8c32734ac","system_id":"levelo_inurba_marseille","lat":43.27809,"lon":5.40722,"is_reserved":false,"is_disabled":false,"rental_uris":{"android":"levelo://app?vid=e02923e5-788c-4451-91c9-bae8c32734ac","ios":"levelo://app?vid=e02923e5-788c-4451-91c9-bae8c32734ac"},"vehicle_type_id":"4","last_reported":1730045424,"current_range_meters":38000,"station_id":"ce4bhnh2rcd13ifvqgtg","pricing_plan_id":"cebpf4jnsgd1na2vs0mg"},{"bike_id":"726c41b7-0612-492f-8ed2-37123ff1474f","system_id":"levelo_inurba_marseille","lat":43.31071,"lon":5.40095,"is_reserved":false,"is_disabled":false,"rental_uris":{"android":"levelo://app?vid=726c41b7-0612-492f-8ed2-37123ff1474f","ios":"levelo://app?vid=726c41b7-0612-492f-8ed2-37123ff1474f"},"vehicle_type_id":"4","last_reported":1730045424,"current_range_meters":10000,"station_id":"","pricing_plan_id":"cebpf4jnsgd1na2vs0mg"},{"bike_id":"f09f150c-7d4b-4172-a278-2ab103d68e33","system_id":"levelo_inurba_marseille","lat":43.307853,"lon":5.376587,"is_reserved":false,"is_disabled":false,"rental_uris":{"android":"levelo://app?vid=f09f150c-7d4b-4172-a278-2ab103d68e33","ios":"levelo://app?vid=f09f150c-7d4b-4172-a278-2ab103d68e33"},"vehicle_type_id":"4","last_reported":1730045424,"current_range_meters":12400,"station_id":"ce4bgv92rcd13ifvqcq0","pricing_plan_id":"cebpf4jnsgd1na2vs0mg"},{"bike_id":"443a238e-a1de-4cad-a80d-31976f984647","system_id":"levelo_inurba_marseille","lat":43.29807,"lon":5.40412,"is_reserved":false,"is_disabled":false,"rental_uris":{"android":"levelo://app?vid=443a238e-a1de-4cad-a80d-31976f984647","ios":"levelo://app?vid=443a238e-a1de-4cad-a80d-31976f984647"},"vehicle_type_id":"4","last_reported":1730045424,"current_range_meters":28800,"station_id":"ce4bh112rcd13ifvqd90","pricing_plan_id":"cebpf4jnsgd1na2vs0mg"},{"bike_id":"5f309689-e017-4833-b270-af2713a13570","system_id":"levelo_inurba_marseille","lat":43.28299,"lon":5.35059,"is_reserved":false,"is_disabled":false,"rental_uris":{"android":"levelo://app?vid=5f309689-e017-4833-b270-af2713a13570","ios":"levelo://app?vid=5f309689-e017-4833-b270-af2713a13570"},"vehicle_type_id":"4","last_reported":1730045424,"current_range_meters":36800,"station_id":"ce4bhbp2rcd13ifvqerg","pricing_plan_id":"cebpf4jnsgd1na2vs0mg"},{"bike_id":"e255a10d-9d36-4272-a63f-86a4ea3292d5","system_id":"levelo_inurba_marseille","lat":43.22921,"lon":5.35372,"is_reserved":false,"is_disabled":false,"rental_uris":{"android":"levelo://app?vid=e255a10d-9d36-4272-a63f-86a4ea3292d5","ios":"levelo://app?vid=e255a10d-9d36-4272-a63f-86a4ea3292d5"},"vehicle_type_id":"4","last_reported":1730045424,"current_range_meters":10800,"station_id":"cpo3532slgdg3j2ikp40","pricing_plan_id":"cebpf4jnsgd1na2vs0mg"},{"bike_id":"69360061-d681-40f6-8c5c-a1f6b88b8f44","system_id":"levelo_inurba_marseille","lat":43.26938,"lon":5.38911,"is_reserved":false,"is_disabled":false,"rental_uris":{"android":"levelo://app?vid=69360061-d681-40f6-8c5c-a1f6b88b8f44","ios":"levelo://app?vid=69360061-d681-40f6-8c5c-a1f6b88b8f44"},"vehicle_type_id":"4","last_reported":1730045424,"current_range_meters":8000,"station_id":"ce4bhhh2rcd13ifvqfl0","pricing_plan_id":"cebpf4jnsgd1na2vs0mg"},{"bike_id":"660f154c-b03a-48be-a4f0-092308e8d237","system_id":"levelo_inurba_marseille","lat":43.2893,"lon":5.38391,"is_reserved":false,"is_disabled":false,"rental_uris":{"android":"levelo://app?vid=660f154c-b03a-48be-a4f0-092308e8d237","ios":"levelo://app?vid=660f154c-b03a-48be-a4f0-092308e8d237"},"vehicle_type_id":"4","last_reported":1730045424,"current_range_meters":24400,"station_id":"ce4bh612rcd13ifvqe6g","pricing_plan_id":"cebpf4jnsgd1na2vs0mg"},{"bike_id":"5ae86afc-df22-4887-b264-4a50bd169bc9","system_id":"levelo_inurba_marseille","lat":43.2816,"lon":5.4264,"is_reserved":false,"is_disabled":false,"rental_uris":{"android":"levelo://app?vid=5ae86afc-df22-4887-b264-4a50bd169bc9","ios":"levelo://app?vid=5ae86afc-df22-4887-b264-4a50bd169bc9"},"vehicle_type_id":"4","last_reported":1730045424,"current_range_meters":28000,"station_id":"ce4bhnh2rcd13ifvqgug","pricing_plan_id":"cebpf4jnsgd1na2vs0mg"},{"bike_id":"5022d6c9-53fc-48e3-9820-02eb9ca596a9","system_id":"levelo_inurba_marseille","lat":43.30137,"lon":5.37426,"is_reserved":false,"is_disabled":false,"rental_uris":{"android":"levelo://app?vid=5022d6c9-53fc-48e3-9820-02eb9ca596a9","ios":"levelo://app?vid=5022d6c9-53fc-48e3-9820-02eb9ca596a9"},"vehicle_type_id":"4","last_reported":1730045424,"current_range_meters":38800,"station_id":"ce4bgs92rcd13ifvqcc0","pricing_plan_id":"cebpf4jnsgd1na2vs0mg"},{"bike_id":"ff76ee2d-da55-42b0-8708-64bb63b212c1","system_id":"levelo_inurba_marseille","lat":43.27999,"lon":5.40009,"is_reserved":false,"is_disabled":false,"rental_uris":{"android":"levelo://app?vid=ff76ee2d-da55-42b0-8708-64bb63b212c1","ios":"levelo://app?vid=ff76ee2d-da55-42b0-8708-64bb63b212c1"},"vehicle_type_id":"4","last_reported":1730045424,"current_range_meters":8000,"station_id":"ce4bho92rcd13ifvqh4g","pricing_plan_id":"cebpf4jnsgd1na2vs0mg"},{"bike_id":"e70fbbca-b79f-4f72-8830-98329f285ff3","system_id":"levelo_inurba_marseille","lat":43.292,"lon":5.35779,"is_reserved":false,"is_disabled":false,"rental_uris":{"android":"levelo://app?vid=e70fbbca-b79f-4f72-8830-98329f285ff3","ios":"levelo://app?vid=e70fbbca-b79f-4f72-8830-98329f285ff3"},"vehicle_type_id":"4","last_reported":1730045424,"current_range_meters":17200,"station_id":"ce4bh692rcd13ifvqe90","pricing_plan_id":"cebpf4jnsgd1na2vs0mg"},{"bike_id":"13d0d843-77d7-462d-87b4-44a56e4e6f32","system_id":"levelo_inurba_marseille","lat":43.22934,"lon":5.3538,"is_reserved":false,"is_disabled":false,"rental_uris":{"android":"levelo://app?vid=13d0d843-77d7-462d-87b4-44a56e4e6f32","ios":"levelo://app?vid=13d0d843-77d7-462d-87b4-44a56e4e6f32"},"vehicle_type_id":"4","last_reported":1730045424,"current_range_meters":18800,"station_id":"cpo3532slgdg3j2ikp40","pricing_plan_id":"cebpf4jnsgd1na2vs0mg"},{"bike_id":"2ed4c7b9-575d-4593-9464-d064b5790f5d","system_id":"levelo_inurba_marseille","lat":43.24179,"lon":5.3973,"is_reserved":false,"is_disabled":false,"rental_uris":{"android":"levelo://app?vid=2ed4c7b9-575d-4593-9464-d064b5790f5d","ios":"levelo://app?vid=2ed4c7b9-575d-4593-9464-d064b5790f5d"},"vehicle_type_id":"4","last_reported":1730045424,"current_range_meters":30800,"station_id":"ce4bhn12rcd13ifvqgpg","pricing_plan_id":"cebpf4jnsgd1na2vs0mg"},{"bike_id":"872650fa-4d90-4da1-b4f2-93b1dc9c998a","system_id":"levelo_inurba_marseille","lat":43.27789,"lon":5.37493,"is_reserved":false,"is_disabled":false,"rental_uris":{"android":"levelo://app?vid=872650fa-4d90-4da1-b4f2-93b1dc9c998a","ios":"levelo://app?vid=872650fa-4d90-4da1-b4f2-93b1dc9c998a"},"vehicle_type_id":"4","last_reported":1730045424,"current_range_meters":28400,"station_id":"ce4bhah2rcd13ifvqei0","pricing_plan_id":"cebpf4jnsgd1na2vs0mg"},{"bike_id":"e49103e6-4dc1-498f-8c5c-9341215d0efa","system_id":"levelo_inurba_marseille","lat":43.26936,"lon":5.38922,"is_reserved":false,"is_disabled":false,"rental_uris":{"android":"levelo://app?vid=e49103e6-4dc1-498f-8c5c-9341215d0efa","ios":"levelo://app?vid=e49103e6-4dc1-498f-8c5c-9341215d0efa"},"vehicle_type_id":"4","last_reported":1730045424,"current_range_meters":19200,"station_id":"ce4bhhh2rcd13ifvqfl0","pricing_plan_id":"cebpf4jnsgd1na2vs0mg"},{"bike_id":"8857b64b-d22c-4616-9a88-662d4d97cb82","system_id":"levelo_inurba_marseille","lat":43.27497,"lon":5.42457,"is_reserved":false,"is_disabled":false,"rental_uris":{"android":"levelo://app?vid=8857b64b-d22c-4616-9a88-662d4d97cb82","ios":"levelo://app?vid=8857b64b-d22c-4616-9a88-662d4d97cb82"},"vehicle_type_id":"4","last_reported":1730045424,"current_range_meters":10000,"station_id":"ce4bhn92rcd13ifvqgrg","pricing_plan_id":"cebpf4jnsgd1na2vs0mg"},{"bike_id":"142e8b45-9834-4fba-95db-bfeab4ba01ef","system_id":"levelo_inurba_marseille","lat":43.28494,"lon":5.3855,"is_reserved":false,"is_disabled":false,"rental_uris":{"android":"levelo://app?vid=142e8b45-9834-4fba-95db-bfeab4ba01ef","ios":"levelo://app?vid=142e8b45-9834-4fba-95db-bfeab4ba01ef"},"vehicle_type_id":"4","last_reported":1730045424,"current_range_meters":29600,"station_id":"ce4bh8p2rcd13ifvqeb0","pricing_plan_id":"cebpf4jnsgd1na2vs0mg"},{"bike_id":"862fdacf-87d7-412d-81f1-442cccf63e1f","system_id":"levelo_inurba_marseille","lat":43.30269,"lon":5.37713,"is_reserved":false,"is_disabled":false,"rental_uris":{"android":"levelo://app?vid=862fdacf-87d7-412d-81f1-442cccf63e1f","ios":"levelo://app?vid=862fdacf-87d7-412d-81f1-442cccf63e1f"},"vehicle_type_id":"4","last_reported":1730045424,"current_range_meters":22400,"station_id":"ce4bguh2rcd13ifvqcj0","pricing_plan_id":"cebpf4jnsgd1na2vs0mg"},{"bike_id":"57340b07-1e76-48cb-8873-d17edef6fb07","system_id":"levelo_inurba_marseille","lat":43.28107,"lon":5.37838,"is_reserved":false,"is_disabled":false,"rental_uris":{"android":"levelo://app?vid=57340b07-1e76-48cb-8873-d17edef6fb07","ios":"levelo://app?vid=57340b07-1e76-48cb-8873-d17edef6fb07"},"vehicle_type_id":"4","last_reported":1730045424,"current_range_meters":38800,"station_id":"ce4bha12rcd13ifvqee0","pricing_plan_id":"cebpf4jnsgd1na2vs0mg"},{"bike_id":"2a7f395c-ea1e-4965-9d1b-6c8bd103e7e7","system_id":"levelo_inurba_marseille","lat":43.29042,"lon":5.37568,"is_reserved":false,"is_disabled":false,"rental_uris":{"android":"levelo://app?vid=2a7f395c-ea1e-4965-9d1b-6c8bd103e7e7","ios":"levelo://app?vid=2a7f395c-ea1e-4965-9d1b-6c8bd103e7e7"},"vehicle_type_id":"4","last_reported":1730045424,"current_range_meters":37600,"station_id":"ce4bh692rcd13ifvqe90","pricing_plan_id":"cebpf4jnsgd1na2vs0mg"},{"bike_id":"1038e9a3-c91c-4116-bb97-2e59525110fc","system_id":"levelo_inurba_marseille","lat":43.24802,"lon":5.37456,"is_reserved":false,"is_disabled":false,"rental_uris":{"android":"levelo://app?vid=1038e9a3-c91c-4116-bb97-2e59525110fc","ios":"levelo://app?vid=1038e9a3-c91c-4116-bb97-2e59525110fc"},"vehicle_type_id":"4","last_reported":1730045424,"current_range_meters":38800,"station_id":"ce4bhgh2rcd13ifvqfb0","pricing_plan_id":"cebpf4jnsgd1na2vs0mg"},{"bike_id":"48a8ae28-e2b2-43bc-b740-0203248c229b","system_id":"levelo_inurba_marseille","lat":43.24179,"lon":5.39733,"is_reserved":false,"is_disabled":false,"rental_uris":{"android":"levelo://app?vid=48a8ae28-e2b2-43bc-b740-0203248c229b","ios":"levelo://app?vid=48a8ae28-e2b2-43bc-b740-0203248c229b"},"vehicle_type_id":"4","last_reported":1730045424,"current_range_meters":37600,"station_id":"ce4bhn12rcd13ifvqgpg","pricing_plan_id":"cebpf4jnsgd1na2vs0mg"},{"bike_id":"79da11a0-1d4e-4e71-ab4a-bebbf1a0c14f","system_id":"levelo_inurba_marseille","lat":43.3129,"lon":5.38276,"is_reserved":false,"is_disabled":false,"rental_uris":{"android":"levelo://app?vid=79da11a0-1d4e-4e71-ab4a-bebbf1a0c14f","ios":"levelo://app?vid=79da11a0-1d4e-4e71-ab4a-bebbf1a0c14f"},"vehicle_type_id":"4","last_reported":1730045424,"current_range_meters":38800,"station_id":"","pricing_plan_id":"cebpf4jnsgd1na2vs0mg"},{"bike_id":"944684f9-5f0a-41d6-ae5e-84963fd60497","system_id":"levelo_inurba_marseille","lat":43.3043,"lon":5.38891,"is_reserved":false,"is_disabled":false,"rental_uris":{"android":"levelo://app?vid=944684f9-5f0a-41d6-ae5e-84963fd60497","ios":"levelo://app?vid=944684f9-5f0a-41d6-ae5e-84963fd60497"},"vehicle_type_id":"4","last_reported":1730045424,"current_range_meters":9200,"station_id":"ce4bgk12rcd13ifvqbi0","pricing_plan_id":"cebpf4jnsgd1na2vs0mg"},{"bike_id":"72cfe058-b978-43f6-b365-15ab467e8c6a","system_id":"levelo_inurba_marseille","lat":43.2958,"lon":5.37523,"is_reserved":false,"is_disabled":false,"rental_uris":{"android":"levelo://app?vid=72cfe058-b978-43f6-b365-15ab467e8c6a","ios":"levelo://app?vid=72cfe058-b978-43f6-b365-15ab467e8c6a"},"vehicle_type_id":"4","last_reported":1730045424,"current_range_meters":39200,"station_id":"","pricing_plan_id":"cebpf4jnsgd1na2vs0mg"},{"bike_id":"8b06a255-a4bd-4f52-bd4b-206351d5e983","system_id":"levelo_inurba_marseille","lat":43.28934,"lon":5.38381,"is_reserved":false,"is_disabled":false,"rental_uris":{"android":"levelo://app?vid=8b06a255-a4bd-4f52-bd4b-206351d5e983","ios":"levelo://app?vid=8b06a255-a4bd-4f52-bd4b-206351d5e983"},"vehicle_type_id":"4","last_reported":1730045424,"current_range_meters":12400,"station_id":"ce4bh612rcd13ifvqe6g","pricing_plan_id":"cebpf4jnsgd1na2vs0mg"},{"bike_id":"a11daa0e-09df-49d7-90c7-48cf77cfdfbf","system_id":"levelo_inurba_marseille","lat":43.26568,"lon":5.39032,"is_reserved":false,"is_disabled":false,"rental_uris":{"android":"levelo://app?vid=a11daa0e-09df-49d7-90c7-48cf77cfdfbf","ios":"levelo://app?vid=a11daa0e-09df-49d7-90c7-48cf77cfdfbf"},"vehicle_type_id":"4","last_reported":1730045424,"current_range_meters":37600,"station_id":"ce4bhe12rcd13ifvqf30","pricing_plan_id":"cebpf4jnsgd1na2vs0mg"},{"bike_id":"e9fdb513-f417-42c5-953a-a44140c0ab7a","system_id":"levelo_inurba_marseille","lat":43.27816,"lon":5.4071,"is_reserved":false,"is_disabled":false,"rental_uris":{"android":"levelo://app?vid=e9fdb513-f417-42c5-953a-a44140c0ab7a","ios":"levelo://app?vid=e9fdb513-f417-42c5-953a-a44140c0ab7a"},"vehicle_type_id":"4","last_reported":1730045424,"current_range_meters":36800,"station_id":"ce4bhnh2rcd13ifvqgtg","pricing_plan_id":"cebpf4jnsgd1na2vs0mg"},{"bike_id":"c563616b-215c-448d-9720-82136470233a","system_id":"levelo_inurba_marseille","lat":43.31229,"lon":5.36871,"is_reserved":false,"is_disabled":false,"rental_uris":{"android":"levelo://app?vid=c563616b-215c-448d-9720-82136470233a","ios":"levelo://app?vid=c563616b-215c-448d-9720-82136470233a"},"vehicle_type_id":"4","last_reported":1730045424,"current_range_meters":38800,"station_id":"ce4bgl92rcd13ifvqbq0","pricing_plan_id":"cebpf4jnsgd1na2vs0mg"},{"bike_id":"d22b15a5-02d8-4897-a426-f64247bea35c","system_id":"levelo_inurba_marseille","lat":43.2454,"lon":5.39536,"is_reserved":false,"is_disabled":false,"rental_uris":{"android":"levelo://app?vid=d22b15a5-02d8-4897-a426-f64247bea35c","ios":"levelo://app?vid=d22b15a5-02d8-4897-a426-f64247bea35c"},"vehicle_type_id":"4","last_reported":1730045424,"current_range_meters":36800,"station_id":"ce4bhlp2rcd13ifvqgjg","pricing_plan_id":"cebpf4jnsgd1na2vs0mg"},{"bike_id":"3c447e9e-f665-4c94-b4f7-b1a1adbf746d","system_id":"levelo_inurba_marseille","lat":43.24736,"lon":5.38024,"is_reserved":false,"is_disabled":false,"rental_uris":{"android":"levelo://app?vid=3c447e9e-f665-4c94-b4f7-b1a1adbf746d","ios":"levelo://app?vid=3c447e9e-f665-4c94-b4f7-b1a1adbf746d"},"vehicle_type_id":"4","last_reported":1730045424,"current_range_meters":7200,"station_id":"","pricing_plan_id":"cebpf4jnsgd1na2vs0mg"},{"bike_id":"e43482ed-8e76-4b5c-a5ac-c2fcf3df8f29","system_id":"levelo_inurba_marseille","lat":43.31483,"lon":5.37307,"is_reserved":false,"is_disabled":false,"rental_uris":{"android":"levelo://app?vid=e43482ed-8e76-4b5c-a5ac-c2fcf3df8f29","ios":"levelo://app?vid=e43482ed-8e76-4b5c-a5ac-c2fcf3df8f29"},"vehicle_type_id":"4","last_reported":1730045424,"current_range_meters":38000,"station_id":"ce4bgt12rcd13ifvqcd0","pricing_plan_id":"cebpf4jnsgd1na2vs0mg"},{"bike_id":"3e44edad-b3c8-404a-a775-1a0743c67861","system_id":"levelo_inurba_marseille","lat":43.32596,"lon":5.39231,"is_reserved":false,"is_disabled":false,"rental_uris":{"android":"levelo://app?vid=3e44edad-b3c8-404a-a775-1a0743c67861","ios":"levelo://app?vid=3e44edad-b3c8-404a-a775-1a0743c67861"},"vehicle_type_id":"4","last_reported":1730045424,"current_range_meters":33200,"station_id":"ce4bhr92rcd13ifvqhrg","pricing_plan_id":"cebpf4jnsgd1na2vs0mg"},{"bike_id":"843ac47f-7b7f-4e58-b80e-6f37abb752f3","system_id":"levelo_inurba_marseille","lat":43.30098,"lon":5.39078,"is_reserved":false,"is_disabled":false,"rental_uris":{"android":"levelo://app?vid=843ac47f-7b7f-4e58-b80e-6f37abb752f3","ios":"levelo://app?vid=843ac47f-7b7f-4e58-b80e-6f37abb752f3"},"vehicle_type_id":"4","last_reported":1730045424,"current_range_meters":23200,"station_id":"ce4bh192rcd13ifvqdb0","pricing_plan_id":"cebpf4jnsgd1na2vs0mg"},{"bike_id":"fe6308eb-81cc-488b-9c28-8eaa1c10ba16","system_id":"levelo_inurba_marseille","lat":43.27909,"lon":5.38016,"is_reserved":false,"is_disabled":false,"rental_uris":{"android":"levelo://app?vid=fe6308eb-81cc-488b-9c28-8eaa1c10ba16","ios":"levelo://app?vid=fe6308eb-81cc-488b-9c28-8eaa1c10ba16"},"vehicle_type_id":"4","last_reported":1730045424,"current_range_meters":11600,"station_id":"ce4bhf92rcd13ifvqf50","pricing_plan_id":"cebpf4jnsgd1na2vs0mg"},{"bike_id":"0af363ef-6d1c-440f-b993-a1cf8f7e8aef","system_id":"levelo_inurba_marseille","lat":43.29589,"lon":5.3675,"is_reserved":false,"is_disabled":false,"rental_uris":{"android":"levelo://app?vid=0af363ef-6d1c-440f-b993-a1cf8f7e8aef","ios":"levelo://app?vid=0af363ef-6d1c-440f-b993-a1cf8f7e8aef"},"vehicle_type_id":"4","last_reported":1730045424,"current_range_meters":38800,"station_id":"ce4bgph2rcd13ifvqc2g","pricing_plan_id":"cebpf4jnsgd1na2vs0mg"},{"bike_id":"cfdfd6c3-62c5-466a-95a1-ce12a9a963ab","system_id":"levelo_inurba_marseille","lat":43.2886,"lon":5.3933,"is_reserved":false,"is_disabled":false,"rental_uris":{"android":"levelo://app?vid=cfdfd6c3-62c5-466a-95a1-ce12a9a963ab","ios":"levelo://app?vid=cfdfd6c3-62c5-466a-95a1-ce12a9a963ab"},"vehicle_type_id":"4","last_reported":1730045424,"current_range_meters":38800,"station_id":"ce4bh2p2rcd13ifvqdi0","pricing_plan_id":"cebpf4jnsgd1na2vs0mg"},{"bike_id":"c505d207-5467-49bf-b1a5-4fc57d09adc4","system_id":"levelo_inurba_marseille","lat":43.23197,"lon":5.35568,"is_reserved":false,"is_disabled":false,"rental_uris":{"android":"levelo://app?vid=c505d207-5467-49bf-b1a5-4fc57d09adc4","ios":"levelo://app?vid=c505d207-5467-49bf-b1a5-4fc57d09adc4"},"vehicle_type_id":"4","last_reported":1730045424,"current_range_meters":38800,"station_id":"ce4bhu92rcd13ifvqi70","pricing_plan_id":"cebpf4jnsgd1na2vs0mg"},{"bike_id":"8fd174d4-65c7-4a4e-8833-e33b1c869618","system_id":"levelo_inurba_marseille","lat":43.23965,"lon":5.36631,"is_reserved":false,"is_disabled":false,"rental_uris":{"android":"levelo://app?vid=8fd174d4-65c7-4a4e-8833-e33b1c869618","ios":"levelo://app?vid=8fd174d4-65c7-4a4e-8833-e33b1c869618"},"vehicle_type_id":"4","last_reported":1730045424,"current_range_meters":19600,"station_id":"ce4bhi12rcd13ifvqfp0","pricing_plan_id":"cebpf4jnsgd1na2vs0mg"},{"bike_id":"3ddb3653-a6d0-4568-bded-f3cc78699042","system_id":"levelo_inurba_marseille","lat":43.25938,"lon":5.40902,"is_reserved":false,"is_disabled":false,"rental_uris":{"android":"levelo://app?vid=3ddb3653-a6d0-4568-bded-f3cc78699042","ios":"levelo://app?vid=3ddb3653-a6d0-4568-bded-f3cc78699042"},"vehicle_type_id":"4","last_reported":1730045424,"current_range_meters":38800,"station_id":"ce4bhm92rcd13ifvqglg","pricing_plan_id":"cebpf4jnsgd1na2vs0mg"},{"bike_id":"ddc73c40-5fda-4166-9894-2c12bc47834c","system_id":"levelo_inurba_marseille","lat":43.32363,"lon":5.389657,"is_reserved":false,"is_disabled":false,"rental_uris":{"android":"levelo://app?vid=ddc73c40-5fda-4166-9894-2c12bc47834c","ios":"levelo://app?vid=ddc73c40-5fda-4166-9894-2c12bc47834c"},"vehicle_type_id":"4","last_reported":1730045424,"current_range_meters":26000,"station_id":"","pricing_plan_id":"cebpf4jnsgd1na2vs0mg"},{"bike_id":"0d6b873d-e923-49a0-9239-f4225fc66f41","system_id":"levelo_inurba_marseille","lat":43.31496,"lon":5.3732,"is_reserved":false,"is_disabled":false,"rental_uris":{"android":"levelo://app?vid=0d6b873d-e923-49a0-9239-f4225fc66f41","ios":"levelo://app?vid=0d6b873d-e923-49a0-9239-f4225fc66f41"},"vehicle_type_id":"4","last_reported":1730045424,"current_range_meters":25600,"station_id":"ce4bgt12rcd13ifvqcd0","pricing_plan_id":"cebpf4jnsgd1na2vs0mg"},{"bike_id":"8ff96732-0d7d-4054-8617-9724fbf5b102","system_id":"levelo_inurba_marseille","lat":43.28446,"lon":5.38442,"is_reserved":false,"is_disabled":false,"rental_uris":{"android":"levelo://app?vid=8ff96732-0d7d-4054-8617-9724fbf5b102","ios":"levelo://app?vid=8ff96732-0d7d-4054-8617-9724fbf5b102"},"vehicle_type_id":"4","last_reported":1730045424,"current_range_meters":2000,"station_id":"ce4bh512rcd13ifvqe3g","pricing_plan_id":"cebpf4jnsgd1na2vs0mg"},{"bike_id":"053e0ede-21d9-4b38-bf08-5704ea134c7f","system_id":"levelo_inurba_marseille","lat":43.28152,"lon":5.42648,"is_reserved":false,"is_disabled":false,"rental_uris":{"android":"levelo://app?vid=053e0ede-21d9-4b38-bf08-5704ea134c7f","ios":"levelo://app?vid=053e0ede-21d9-4b38-bf08-5704ea134c7f"},"vehicle_type_id":"4","last_reported":1730045424,"current_range_meters":8000,"station_id":"ce4bhnh2rcd13ifvqgug","pricing_plan_id":"cebpf4jnsgd1na2vs0mg"},{"bike_id":"5f70fb09-4af1-4bef-b5eb-c91e1e9699d3","system_id":"levelo_inurba_marseille","lat":43.29194,"lon":5.35799,"is_reserved":false,"is_disabled":false,"rental_uris":{"android":"levelo://app?vid=5f70fb09-4af1-4bef-b5eb-c91e1e9699d3","ios":"levelo://app?vid=5f70fb09-4af1-4bef-b5eb-c91e1e9699d3"},"vehicle_type_id":"4","last_reported":1730045424,"current_range_meters":4800,"station_id":"ce4bhb12rcd13ifvqel0","pricing_plan_id":"cebpf4jnsgd1na2vs0mg"},{"bike_id":"fd0f7cc6-0b22-4640-8013-42d5234a6b87","system_id":"levelo_inurba_marseille","lat":43.29408,"lon":5.43071,"is_reserved":false,"is_disabled":false,"rental_uris":{"android":"levelo://app?vid=fd0f7cc6-0b22-4640-8013-42d5234a6b87","ios":"levelo://app?vid=fd0f7cc6-0b22-4640-8013-42d5234a6b87"},"vehicle_type_id":"4","last_reported":1730045424,"current_range_meters":24000,"station_id":"ce4bh192rcd13ifvqdc0","pricing_plan_id":"cebpf4jnsgd1na2vs0mg"},{"bike_id":"f9e77992-807e-49b0-8273-b164e77c8d9c","system_id":"levelo_inurba_marseille","lat":43.31994,"lon":5.3817,"is_reserved":false,"is_disabled":false,"rental_uris":{"android":"levelo://app?vid=f9e77992-807e-49b0-8273-b164e77c8d9c","ios":"levelo://app?vid=f9e77992-807e-49b0-8273-b164e77c8d9c"},"vehicle_type_id":"4","last_reported":1730045424,"current_range_meters":20000,"station_id":"ce4bhr12rcd13ifvqhpg","pricing_plan_id":"cebpf4jnsgd1na2vs0mg"},{"bike_id":"e09f8030-be69-46c6-84b0-e8b01e6c089a","system_id":"levelo_inurba_marseille","lat":43.22935,"lon":5.3538,"is_reserved":false,"is_disabled":false,"rental_uris":{"android":"levelo://app?vid=e09f8030-be69-46c6-84b0-e8b01e6c089a","ios":"levelo://app?vid=e09f8030-be69-46c6-84b0-e8b01e6c089a"},"vehicle_type_id":"4","last_reported":1730045424,"current_range_meters":36800,"station_id":"cpo3532slgdg3j2ikp40","pricing_plan_id":"cebpf4jnsgd1na2vs0mg"},{"bike_id":"26ae6576-b49b-4a09-a9b1-35b30fa80c37","system_id":"levelo_inurba_marseille","lat":43.25001,"lon":5.3893,"is_reserved":false,"is_disabled":false,"rental_uris":{"android":"levelo://app?vid=26ae6576-b49b-4a09-a9b1-35b30fa80c37","ios":"levelo://app?vid=26ae6576-b49b-4a09-a9b1-35b30fa80c37"},"vehicle_type_id":"4","last_reported":1730045424,"current_range_meters":3200,"station_id":"ce4bhgp2rcd13ifvqfd0","pricing_plan_id":"cebpf4jnsgd1na2vs0mg"},{"bike_id":"6d5310bf-af36-459e-880a-a1d693d3ba92","system_id":"levelo_inurba_marseille","lat":43.24651,"lon":5.38896,"is_reserved":false,"is_disabled":false,"rental_uris":{"android":"levelo://app?vid=6d5310bf-af36-459e-880a-a1d693d3ba92","ios":"levelo://app?vid=6d5310bf-af36-459e-880a-a1d693d3ba92"},"vehicle_type_id":"4","last_reported":1730045424,"current_range_meters":8800,"station_id":"ce4bhg12rcd13ifvqf60","pricing_plan_id":"cebpf4jnsgd1na2vs0mg"},{"bike_id":"bd01fc2c-e4bb-4bcd-ab86-b7f17dff2d14","system_id":"levelo_inurba_marseille","lat":43.31081,"lon":5.4244,"is_reserved":false,"is_disabled":false,"rental_uris":{"android":"levelo://app?vid=bd01fc2c-e4bb-4bcd-ab86-b7f17dff2d14","ios":"levelo://app?vid=bd01fc2c-e4bb-4bcd-ab86-b7f17dff2d14"},"vehicle_type_id":"4","last_reported":1730045424,"current_range_meters":39200,"station_id":"ce4bhp92rcd13ifvqhag","pricing_plan_id":"cebpf4jnsgd1na2vs0mg"},{"bike_id":"da3e38ca-ea18-4642-b0bf-686ae3123dd7","system_id":"levelo_inurba_marseille","lat":43.27563,"lon":5.38432,"is_reserved":false,"is_disabled":false,"rental_uris":{"android":"levelo://app?vid=da3e38ca-ea18-4642-b0bf-686ae3123dd7","ios":"levelo://app?vid=da3e38ca-ea18-4642-b0bf-686ae3123dd7"},"vehicle_type_id":"4","last_reported":1730045424,"current_range_meters":36800,"station_id":"ce4bhh92rcd13ifvqfi0","pricing_plan_id":"cebpf4jnsgd1na2vs0mg"},{"bike_id":"aace9f84-e0d1-4cca-a773-b33c8e89d5ff","system_id":"levelo_inurba_marseille","lat":43.24387,"lon":5.37055,"is_reserved":false,"is_disabled":false,"rental_uris":{"android":"levelo://app?vid=aace9f84-e0d1-4cca-a773-b33c8e89d5ff","ios":"levelo://app?vid=aace9f84-e0d1-4cca-a773-b33c8e89d5ff"},"vehicle_type_id":"4","last_reported":1730045424,"current_range_meters":37600,"station_id":"ce4bhgp2rcd13ifvqfe0","pricing_plan_id":"cebpf4jnsgd1na2vs0mg"},{"bike_id":"95bd7f59-c60e-46ed-8a9a-6b885717dfc4","system_id":"levelo_inurba_marseille","lat":43.29732,"lon":5.37688,"is_reserved":false,"is_disabled":false,"rental_uris":{"android":"levelo://app?vid=95bd7f59-c60e-46ed-8a9a-6b885717dfc4","ios":"levelo://app?vid=95bd7f59-c60e-46ed-8a9a-6b885717dfc4"},"vehicle_type_id":"4","last_reported":1730045424,"current_range_meters":37600,"station_id":"ce4bgkh2rcd13ifvqbl0","pricing_plan_id":"cebpf4jnsgd1na2vs0mg"},{"bike_id":"266575d8-09f9-4cd7-833a-204d10e502df","system_id":"levelo_inurba_marseille","lat":43.32104,"lon":5.3677,"is_reserved":false,"is_disabled":false,"rental_uris":{"android":"levelo://app?vid=266575d8-09f9-4cd7-833a-204d10e502df","ios":"levelo://app?vid=266575d8-09f9-4cd7-833a-204d10e502df"},"vehicle_type_id":"4","last_reported":1730045424,"current_range_meters":34800,"station_id":"ce4bhrh2rcd13ifvqhug","pricing_plan_id":"cebpf4jnsgd1na2vs0mg"},