{"last_updated":1724512078,"ttl":30,"version":"2.2","data":{"bikes":[{"bike_id":"6ea37880-72a2-42b6-864e-493dea8ef56a","system_id":"levelo_inurba_marseille","lat":43.312239,"lon":5.368562,"is_reserved":false,"is_disabled":false,"rental_uris":{"android":"levelo://app?vid=6ea37880-72a2-42b6-864e-493dea8ef56a","ios":"levelo://app?vid=6ea37880-72a2-42b6-864e-493dea8ef56a"},"vehicle_type_id":"4","last_reported":1724512078,"current_range_meters":6400,"station_id":"ce4bgl92rcd13ifvqbq0","pricing_plan_id":"cebpf4jnsgd1na2vs0mg"},{"bike_id":"a11f325d-4e86-4b4c-8e40-52010e311b8b","system_id":"levelo_inurba_marseille","lat":43.312239,"lon":5.368562,"is_reserved":false,"is_disabled":false,"rental_uris":{"android":"levelo://app?vid=a11f325d-4e86-4b4c-8e40-52010e311b8b","ios":"levelo://app?vid=a11f325d-4e86-4b4c-8e40-52010e311b8b"},"vehicle_type_id":"4","last_reported":1724512078,"current_range_meters":12800,"station_id":"ce4bgl92rcd13ifvqbq0","pricing_plan_id":"cebpf4jnsgd1na2vs0mg"},{"bike_id":"61224b43-bffb-4cfc-af45-a7bc4e157dff","system_id":"levelo_inurba_marseille","lat":43.312239,"lon":5.368562,"is_reserved":false,"is_disabled":false,"rental_uris":{"android":"levelo://app?vid=61224b43-bffb-4cfc-af45-a7bc4e157dff","ios":"levelo://app?vid=61224b43-bffb-4cfc-af45-a7bc4e157dff"},"vehicle_type_id":"4","last_reported":1724512078,"current_range_meters":24400,"station_id":"ce4bgl92rcd13ifvqbq0","pricing_plan_id":"cebpf4jnsgd1na2vs0mg"},{"bike_id":"0c72db77-31e3-473f-8b60-6e706f380ce0","system_id":"levelo_inurba_marseille","lat":43.312045,"lon":5.368788,"is_reserved":false,"is_disabled":false,"rental_uris":{"android":"levelo://app?vid=0c72db77-31e3-473f-8b60-6e706f380ce0","ios":"levelo://app?vid=0c72db77-31e3-473f-8b60-6e706f380ce0"},"vehicle_type_id":"4","last_reported":1724512078,"current_range_meters":21200,"station_id":"ce4bgl92rcd13ifvqbq0","pricing_plan_id":"cebpf4jnsgd1na2vs0mg"},{"bike_id":"7efda9b0-f295-4c73-b648-dc61d45dbe3d","system_id":"levelo_inurba_marseille","lat":43.309076,"lon":5.368465,"is_reserved":false,"is_disabled":false,"rental_uris":{"android":"levelo://app?vid=7efda9b0-f295-4c73-b648-dc61d45dbe3d","ios":"levelo://app?vid=7efda9b0-f295-4c73-b648-dc61d45dbe3d"},"vehicle_type_id":"4","last_reported":1724512078,"current_range_meters":23600,"station_id":"ce4bgn92rcd13ifvqbvg","pricing_plan_id":"cebpf4jnsgd1na2vs0mg"},{"bike_id":"084065ed-a0ab-43de-b890-a49519ea1ade","system_id":"levelo_inurba_marseille","lat":43.309076,"lon":5.368465,"is_reserved":false,"is_disabled":false,"rental_uris":{"android":"levelo://app?vid=084065ed-a0ab-43de-b890-a49519ea1ade","ios":"levelo://app?vid=084065ed-a0ab-43de-b890-a49519ea1ade"},"vehicle_type_id":"4","last_reported":1724512078,"current_range_meters":5200,"station_id":"ce4bgn92rcd13ifvqbvg","pricing_plan_id":"cebpf4jnsgd1na2vs0mg"},{"bike_id":"40086799-26c3-4a3a-9a26-297daf2622cd","system_id":"levelo_inurba_marseille","lat":43.305714,"lon":5.365633,"is_reserved":false,"is_disabled":false,"rental_uris":{"android":"levelo://app?vid=40086799-26c3-4a3a-9a26-297daf2622cd","ios":"levelo://app?vid=40086799-26c3-4a3a-9a26-297daf2622cd"},"vehicle_type_id":"4","last_reported":1724512078,"current_range_meters":30800,"station_id":"ce4bgs12rcd13ifvqcag","pricing_plan_id":"cebpf4jnsgd1na2vs0mg"},{"bike_id":"0dc96505-d2c7-46fb-bac2-009aa03ce93c","system_id":"levelo_inurba_marseille","lat":43.305706,"lon":5.365654,"is_reserved":false,"is_disabled":false,"rental_uris":{"android":"levelo://app?vid=0dc96505-d2c7-46fb-bac2-009aa03ce93c","ios":"levelo://app?vid=0dc96505-d2c7-46fb-bac2-009aa03ce93c"},"vehicle_type_id":"4","last_reported":1724512078,"current_range_meters":26800,"station_id":"ce4bgs12rcd13ifvqcag","pricing_plan_id":"cebpf4jnsgd1na2vs0mg"},{"bike_id":"036a7d1b-02c0-4100-b9d1-8a2ea9baefd2","system_id":"levelo_inurba_marseille","lat":43.305706,"lon":5.365654,"is_reserved":false,"is_disabled":false,"rental_uris":{"android":"levelo://app?vid=036a7d1b-02c0-4100-b9d1-8a2ea9baefd2","ios":"levelo://app?vid=036a7d1b-02c0-4100-b9d1-8a2ea9baefd2"},"vehicle_type_id":"4","last_reported":1724512078,"current_range_meters":400,"station_id":"ce4bgs12rcd13ifvqcag","pricing_plan_id":"cebpf4jnsgd1na2vs0mg"},{"bike_id":"d65a3a20-a55a-4005-8d0c-6fe91d89c9b0","system_id":"levelo_inurba_marseille","lat":43.305989,"lon":5.37225,"is_reserved":false,"is_disabled":false,"rental_uris":{"android":"levelo://app?vid=d65a3a20-a55a-4005-8d0c-6fe91d89c9b0","ios":"levelo://app?vid=d65a3a20-a55a-4005-8d0c-6fe91d89c9b0"},"vehicle_type_id":"4","last_reported":1724512078,"current_range_meters":6000,"station_id":"ce4bgqh2rcd13ifvqc4g","pricing_plan_id":"cebpf4jnsgd1na2vs0mg"},{"bike_id":"badf1197-712b-45b7-b6e3-ba3fa9d69fb3","system_id":"levelo_inurba_marseille","lat":43.305989,"lon":5.37225,"is_reserved":false,"is_disabled":false,"rental_uris":{"android":"levelo://app?vid=badf1197-712b-45b7-b6e3-ba3fa9d69fb3","ios":"levelo://app?vid=badf1197-712b-45b7-b6e3-ba3fa9d69fb3"},"vehicle_type_id":"4","last_reported":1724512078,"current_range_meters":24000,"station_id":"ce4bgqh2rcd13ifvqc4g","pricing_plan_id":"cebpf4jnsgd1na2vs0mg"},{"bike_id":"c3b2f73c-b416-41f9-9c9f-f945382f8281","system_id":"levelo_inurba_marseille","lat":43.307945,"lon":5.376487,"is_reserved":false,"is_disabled":false,"rental_uris":{"android":"levelo://app?vid=c3b2f73c-b416-41f9-9c9f-f945382f8281","ios":"levelo://app?vid=c3b2f73c-b416-41f9-9c9f-f945382f8281"},"vehicle_type_id":"4","last_reported":1724512078,"current_range_meters":17200,"station_id":"ce4bgv92rcd13ifvqcq0","pricing_plan_id":"cebpf4jnsgd1na2vs0mg"},{"bike_id":"d65148f2-4eb2-4e9c-bde4-84d7ae9a3bc9","system_id":"levelo_inurba_marseille","lat":43.307945,"lon":5.376487,"is_reserved":false,"is_disabled":false,"rental_uris":{"android":"levelo://app?vid=d65148f2-4eb2-4e9c-bde4-84d7ae9a3bc9","ios":"levelo://app?vid=d65148f2-4eb2-4e9c-bde4-84d7ae9a3bc9"},"vehicle_type_id":"4","last_reported":1724512078,"current_range_meters":24800,"station_id":"ce4bgv92rcd13ifvqcq0","pricing_plan_id":"cebpf4jnsgd1na2vs0mg"},{"bike_id":"c060344c-9677-4a48-9306-5498a96e5dd4","system_id":"levelo_inurba_marseille","lat":43.307945,"lon":5.376487,"is_reserved":false,"is_disabled":false,"rental_uris":{"android":"levelo://app?vid=c060344c-9677-4a48-9306-5498a96e5dd4","ios":"levelo://app?vid=c060344c-9677-4a48-9306-5498a96e5dd4"},"vehicle_type_id":"4","last_reported":1724512078,"current_range_meters":8400,"station_id":"ce4bgv92rcd13ifvqcq0","pricing_plan_id":"cebpf4jnsgd1na2vs0mg"},{"bike_id":"ed587f3a-6682-4fac-a137-61f637abdb0c","system_id":"levelo_inurba_marseille","lat":43.307945,"lon":5.376487,"is_reserved":false,"is_disabled":false,"rental_uris":{"android":"levelo://app?vid=ed587f3a-6682-4fac-a137-61f637abdb0c","ios":"levelo://app?vid=ed587f3a-6682-4fac-a137-61f637abdb0c"},"vehicle_type_id":"4","last_reported":1724512078,"current_range_meters":31600,"station_id":"ce4bgv92rcd13ifvqcq0","pricing_plan_id":"cebpf4jnsgd1na2vs0mg"},{"bike_id":"8bed429a-313e-45cb-b652-ff64c56862c9","system_id":"levelo_inurba_marseille","lat":43.307945,"lon":5.376487,"is_reserved":false,"is_disabled":false,"rental_uris":{"android":"levelo://app?vid=8bed429a-313e-45cb-b652-ff64c56862c9","ios":"levelo://app?vid=8bed429a-313e-45cb-b652-ff64c56862c9"},"vehicle_type_id":"4","last_reported":1724512078,"current_range_meters":26000,"station_id":"ce4bgv92rcd13ifvqcq0","pricing_plan_id":"cebpf4jnsgd1na2vs0mg"},{"bike_id":"85b9f635-a4d7-4a57-b8ad-8295357afc05","system_id":"levelo_inurba_marseille","lat":43.307945,"lon":5.376487,"is_reserved":false,"is_disabled":false,"rental_uris":{"android":"levelo://app?vid=85b9f635-a4d7-4a57-b8ad-8295357afc05","ios":"levelo://app?vid=85b9f635-a4d7-4a57-b8ad-8295357afc05"},"vehicle_type_id":"4","last_reported":1724512078,"current_range_meters":14800,"station_id":"ce4bgv92rcd13ifvqcq0","pricing_plan_id":"cebpf4jnsgd1na2vs0mg"},{"bike_id":"0877c215-f4f6-416a-a0cc-31b58dc03a70","system_id":"levelo_inurba_marseille","lat":43.317075,"lon":5.377367,"is_reserved":false,"is_disabled":false,"rental_uris":{"android":"levelo://app?vid=0877c215-f4f6-416a-a0cc-31b58dc03a70","ios":"levelo://app?vid=0877c215-f4f6-416a-a0cc-31b58dc03a70"},"vehicle_type_id":"4","last_reported":1724512078,"current_range_meters":6800,"station_id":"ce4bgth2rcd13ifvqch0","pricing_plan_id":"cebpf4jnsgd1na2vs0mg"},{"bike_id":"67f1d87e-e768-49fa-b302-664b4cc40f1a","system_id":"levelo_inurba_marseille","lat":43.30528,"lon":5.37534,"is_reserved":false,"is_disabled":false,"rental_uris":{"android":"levelo://app?vid=67f1d87e-e768-49fa-b302-664b4cc40f1a","ios":"levelo://app?vid=67f1d87e-e768-49fa-b302-664b4cc40f1a"},"vehicle_type_id":"4","last_reported":1724512078,"current_range_meters":13200,"station_id":"","pricing_plan_id":"cebpf4jnsgd1na2vs0mg"},{"bike_id":"c1ecd319-90d8-4b76-bab5-b5a410c13fe7","system_id":"levelo_inurba_marseille","lat":43.302991,"lon":5.369119,"is_reserved":false,"is_disabled":false,"rental_uris":{"android":"levelo://app?vid=c1ecd319-90d8-4b76-bab5-b5a410c13fe7","ios":"levelo://app?vid=c1ecd319-90d8-4b76-bab5-b5a410c13fe7"},"vehicle_type_id":"4","last_reported":1724512078,"current_range_meters":31200,"station_id":"ce4bgqh2rcd13ifvqc5g","pricing_plan_id":"cebpf4jnsgd1na2vs0mg"},{"bike_id":"2c57e77f-26af-42a7-8e00-5edb64c24c31","system_id":"levelo_inurba_marseille","lat":43.315289,"lon":5.380349,"is_reserved":false,"is_disabled":false,"rental_uris":{"android":"levelo://app?vid=2c57e77f-26af-42a7-8e00-5edb64c24c31","ios":"levelo://app?vid=2c57e77f-26af-42a7-8e00-5edb64c24c31"},"vehicle_type_id":"4","last_reported":1724512078,"current_range_meters":26800,"station_id":"ce4bhsp2rcd13ifvqi50","pricing_plan_id":"cebpf4jnsgd1na2vs0mg"},{"bike_id":"f8a6dbbf-6bb5-4296-b367-3854ef2711fa","system_id":"levelo_inurba_marseille","lat":43.301939,"lon":5.366286,"is_reserved":false,"is_disabled":false,"rental_uris":{"android":"levelo://app?vid=f8a6dbbf-6bb5-4296-b367-3854ef2711fa","ios":"levelo://app?vid=f8a6dbbf-6bb5-4296-b367-3854ef2711fa"},"vehicle_type_id":"4","last_reported":1724512078,"current_range_meters":4400,"station_id":"ce4bgrh2rcd13ifvqc8g","pricing_plan_id":"cebpf4jnsgd1na2vs0mg"},{"bike_id":"4e070ed4-d9e2-4f2f-8a18-44f3dd7a78f9","system_id":"levelo_inurba_marseille","lat":43.30192,"lon":5.36616,"is_reserved":false,"is_disabled":false,"rental_uris":{"android":"levelo://app?vid=4e070ed4-d9e2-4f2f-8a18-44f3dd7a78f9","ios":"levelo://app?vid=4e070ed4-d9e2-4f2f-8a18-44f3dd7a78f9"},"vehicle_type_id":"4","last_reported":1724512078,"current_range_meters":22000,"station_id":"ce4bgrh2rcd13ifvqc8g","pricing_plan_id":"cebpf4jnsgd1na2vs0mg"},{"bike_id":"326ec30c-a98d-42f6-b935-55534505781b","system_id":"levelo_inurba_marseille","lat":43.301939,"lon":5.366286,"is_reserved":false,"is_disabled":false,"rental_uris":{"android":"levelo://app?vid=326ec30c-a98d-42f6-b935-55534505781b","ios":"levelo://app?vid=326ec30c-a98d-42f6-b935-55534505781b"},"vehicle_type_id":"4","last_reported":1724512078,"current_range_meters":15200,"station_id":"ce4bgrh2rcd13ifvqc8g","pricing_plan_id":"cebpf4jnsgd1na2vs0mg"},{"bike_id":"f6da76f2-980e-438d-99d7-763b5eb9ca46","system_id":"levelo_inurba_marseille","lat":43.301939,"lon":5.366286,"is_reserved":false,"is_disabled":false,"rental_uris":{"android":"levelo://app?vid=f6da76f2-980e-438d-99d7-763b5eb9ca46","ios":"levelo://app?vid=f6da76f2-980e-438d-99d7-763b5eb9ca46"},"vehicle_type_id":"4","last_reported":1724512078,"current_range_meters":28400,"station_id":"ce4bgrh2rcd13ifvqc8g","pricing_plan_id":"cebpf4jnsgd1na2vs0mg"},{"bike_id":"a6a2160c-fa12-4632-908a-a89239f2b8e4","system_id":"levelo_inurba_marseille","lat":43.301939,"lon":5.366286,"is_reserved":false,"is_disabled":false,"rental_uris":{"android":"levelo://app?vid=a6a2160c-fa12-4632-908a-a89239f2b8e4","ios":"levelo://app?vid=a6a2160c-fa12-4632-908a-a89239f2b8e4"},"vehicle_type_id":"4","last_reported":1724512078,"current_range_meters":25600,"station_id":"ce4bgrh2rcd13ifvqc8g","pricing_plan_id":"cebpf4jnsgd1na2vs0mg"},{"bike_id":"8352df6c-369f-4cf3-81e3-528e6a1612ec","system_id":"levelo_inurba_marseille","lat":43.301939,"lon":5.366286,"is_reserved":false,"is_disabled":false,"rental_uris":{"android":"levelo://app?vid=8352df6c-369f-4cf3-81e3-528e6a1612ec","ios":"levelo://app?vid=8352df6c-369f-4cf3-81e3-528e6a1612ec"},"vehicle_type_id":"4","last_reported":1724512078,"current_range_meters":22000,"station_id":"ce4bgrh2rcd13ifvqc8g","pricing_plan_id":"cebpf4jnsgd1na2vs0mg"},{"bike_id":"f5f4b7c7-74dd-497b-8c92-9d4429b1ff26","system_id":"levelo_inurba_marseille","lat":43.308012,"lon":5.381511,"is_reserved":false,"is_disabled":false,"rental_uris":{"android":"levelo://app?vid=f5f4b7c7-74dd-497b-8c92-9d4429b1ff26","ios":"levelo://app?vid=f5f4b7c7-74dd-497b-8c92-9d4429b1ff26"},"vehicle_type_id":"4","last_reported":1724512078,"current_range_meters":1600,"station_id":"ce4bgt12rcd13ifvqce0","pricing_plan_id":"cebpf4jnsgd1na2vs0mg"},{"bike_id":"499f1b10-0e02-4ec9-8fbe-f04552d144a9","system_id":"levelo_inurba_marseille","lat":43.304606,"lon":5.379026,"is_reserved":false,"is_disabled":false,"rental_uris":{"android":"levelo://app?vid=499f1b10-0e02-4ec9-8fbe-f04552d144a9","ios":"levelo://app?vid=499f1b10-0e02-4ec9-8fbe-f04552d144a9"},"vehicle_type_id":"4","last_reported":1724512078,"current_range_meters":18800,"station_id":"ce4bgup2rcd13ifvqcn0","pricing_plan_id":"cebpf4jnsgd1na2vs0mg"},{"bike_id":"5bbae6e7-eaa8-42b0-a357-b47c1ba59dfc","system_id":"levelo_inurba_marseille","lat":43.304606,"lon":5.379026,"is_reserved":false,"is_disabled":false,"rental_uris":{"android":"levelo://app?vid=5bbae6e7-eaa8-42b0-a357-b47c1ba59dfc","ios":"levelo://app?vid=5bbae6e7-eaa8-42b0-a357-b47c1ba59dfc"},"vehicle_type_id":"4","last_reported":1724512078,"current_range_meters":31200,"station_id":"ce4bgup2rcd13ifvqcn0","pricing_plan_id":"cebpf4jnsgd1na2vs0mg"},{"bike_id":"cd323318-efa8-4d63-8786-6689380ba86e","system_id":"levelo_inurba_marseille","lat":43.304606,"lon":5.379026,"is_reserved":false,"is_disabled":false,"rental_uris":{"android":"levelo://app?vid=cd323318-efa8-4d63-8786-6689380ba86e","ios":"levelo://app?vid=cd323318-efa8-4d63-8786-6689380ba86e"},"vehicle_type_id":"4","last_reported":1724512078,"current_range_meters":25200,"station_id":"ce4bgup2rcd13ifvqcn0","pricing_plan_id":"cebpf4jnsgd1na2vs0mg"},{"bike_id":"ae95873f-f14f-4d35-b942-fa940c80daab","system_id":"levelo_inurba_marseille","lat":43.324771,"lon":5.36557,"is_reserved":false,"is_disabled":false,"rental_uris":{"android":"levelo://app?vid=ae95873f-f14f-4d35-b942-fa940c80daab","ios":"levelo://app?vid=ae95873f-f14f-4d35-b942-fa940c80daab"},"vehicle_type_id":"4","last_reported":1724512078,"current_range_meters":13200,"station_id":"ce4bhs12rcd13ifvqhvg","pricing_plan_id":"cebpf4jnsgd1na2vs0mg"},{"bike_id":"f3d10da4-792d-407e-8f39-ded0192ec08a","system_id":"levelo_inurba_marseille","lat":43.324771,"lon":5.36557,"is_reserved":false,"is_disabled":false,"rental_uris":{"android":"levelo://app?vid=f3d10da4-792d-407e-8f39-ded0192ec08a","ios":"levelo://app?vid=f3d10da4-792d-407e-8f39-ded0192ec08a"},"vehicle_type_id":"4","last_reported":1724512078,"current_range_meters":8000,"station_id":"ce4bhs12rcd13ifvqhvg","pricing_plan_id":"cebpf4jnsgd1na2vs0mg"},{"bike_id":"4cc2080c-2720-43e9-a55a-8550022b2885","system_id":"levelo_inurba_marseille","lat":43.324771,"lon":5.36557,"is_reserved":false,"is_disabled":false,"rental_uris":{"android":"levelo://app?vid=4cc2080c-2720-43e9-a55a-8550022b2885","ios":"levelo://app?vid=4cc2080c-2720-43e9-a55a-8550022b2885"},"vehicle_type_id":"4","last_reported":1724512078,"current_range_meters":10400,"station_id":"ce4bhs12rcd13ifvqhvg","pricing_plan_id":"cebpf4jnsgd1na2vs0mg"},{"bike_id":"b881d883-c285-4ac4-800d-862bf32755b1","system_id":"levelo_inurba_marseille","lat":43.324771,"lon":5.36557,"is_reserved":false,"is_disabled":false,"rental_uris":{"android":"levelo://app?vid=b881d883-c285-4ac4-800d-862bf32755b1","ios":"levelo://app?vid=b881d883-c285-4ac4-800d-862bf32755b1"},"vehicle_type_id":"4","last_reported":1724512078,"current_range_meters":28800,"station_id":"ce4bhs12rcd13ifvqhvg","pricing_plan_id":"cebpf4jnsgd1na2vs0mg"},{"bike_id":"99e5e427-5a35-4ea2-97a7-7f522a761281","system_id":"levelo_inurba_marseille","lat":43.324771,"lon":5.36557,"is_reserved":false,"is_disabled":false,"rental_uris":{"android":"levelo://app?vid=99e5e427-5a35-4ea2-97a7-7f522a761281","ios":"levelo://app?vid=99e5e427-5a35-4ea2-97a7-7f522a761281"},"vehicle_type_id":"4","last_reported":1724512078,"current_range_meters":16800,"station_id":"ce4bhs12rcd13ifvqhvg","pricing_plan_id":"cebpf4jnsgd1na2vs0mg"},{"bike_id":"37987f2b-3750-406b-8bf4-fbef977d64db","system_id":"levelo_inurba_marseille","lat":43.32485,"lon":5.36554,"is_reserved":false,"is_disabled":false,"rental_uris":{"android":"levelo://app?vid=37987f2b-3750-406b-8bf4-fbef977d64db","ios":"levelo://app?vid=37987f2b-3750-406b-8bf4-fbef977d64db"},"vehicle_type_id":"4","last_reported":1724512078,"current_range_meters":0,"station_id":"ce4bhs12rcd13ifvqhvg","pricing_plan_id":"cebpf4jnsgd1na2vs0mg"},{"bike_id":"4b068ad2-1221-4476-9487-2b7eb5619d8a","system_id":"levelo_inurba_marseille","lat":43.31366,"lon":5.38364,"is_reserved":false,"is_disabled":false,"rental_uris":{"android":"levelo://app?vid=4b068ad2-1221-4476-9487-2b7eb5619d8a","ios":"levelo://app?vid=4b068ad2-1221-4476-9487-2b7eb5619d8a"},"vehicle_type_id":"4","last_reported":1724512078,"current_range_meters":4800,"station_id":"","pricing_plan_id":"cebpf4jnsgd1na2vs0mg"},{"bike_id":"a6e731c1-436a-41b5-8346-ecb6bb653b15","system_id":"levelo_inurba_marseille","lat":43.302784,"lon":5.377158,"is_reserved":false,"is_disabled":false,"rental_uris":{"android":"levelo://app?vid=a6e731c1-436a-41b5-8346-ecb6bb653b15","ios":"levelo://app?vid=a6e731c1-436a-41b5-8346-ecb6bb653b15"},"vehicle_type_id":"4","last_reported":1724512078,"current_range_meters":31200,"station_id":"ce4bguh2rcd13ifvqcj0","pricing_plan_id":"cebpf4jnsgd1na2vs0mg"},{"bike_id":"ce77e28b-418d-44c0-8553-531c6c74d72d","system_id":"levelo_inurba_marseille","lat":43.30143,"lon":5.37413,"is_reserved":false,"is_disabled":false,"rental_uris":{"android":"levelo://app?vid=ce77e28b-418d-44c0-8553-531c6c74d72d","ios":"levelo://app?vid=ce77e28b-418d-44c0-8553-531c6c74d72d"},"vehicle_type_id":"4","last_reported":1724512078,"current_range_meters":25200,"station_id":"ce4bgs92rcd13ifvqcc0","pricing_plan_id":"cebpf4jnsgd1na2vs0mg"},{"bike_id":"e389477a-f0dc-46f8-a23f-92a4f3e5cc35","system_id":"levelo_inurba_marseille","lat":43.301429,"lon":5.37413,"is_reserved":false,"is_disabled":false,"rental_uris":{"android":"levelo://app?vid=e389477a-f0dc-46f8-a23f-92a4f3e5cc35","ios":"levelo://app?vid=e389477a-f0dc-46f8-a23f-92a4f3e5cc35"},"vehicle_type_id":"4","last_reported":1724512078,"current_range_meters":30400,"station_id":"ce4bgs92rcd13ifvqcc0","pricing_plan_id":"cebpf4jnsgd1na2vs0mg"},{"bike_id":"980cba5b-76c2-4ab9-b507-2acd5bf0f0ea","system_id":"levelo_inurba_marseille","lat":43.30142,"lon":5.37419,"is_reserved":false,"is_disabled":false,"rental_uris":{"android":"levelo://app?vid=980cba5b-76c2-4ab9-b507-2acd5bf0f0ea","ios":"levelo://app?vid=980cba5b-76c2-4ab9-b507-2acd5bf0f0ea"},"vehicle_type_id":"4","last_reported":1724512078,"current_range_meters":11200,"station_id":"ce4bgs92rcd13ifvqcc0","pricing_plan_id":"cebpf4jnsgd1na2vs0mg"},{"bike_id":"9227d0a0-1207-454e-aa5f-737a09f255a4","system_id":"levelo_inurba_marseille","lat":43.301429,"lon":5.37413,"is_reserved":false,"is_disabled":false,"rental_uris":{"android":"levelo://app?vid=9227d0a0-1207-454e-aa5f-737a09f255a4","ios":"levelo://app?vid=9227d0a0-1207-454e-aa5f-737a09f255a4"},"vehicle_type_id":"4","last_reported":1724512078,"current_range_meters":6800,"station_id":"ce4bgs92rcd13ifvqcc0","pricing_plan_id":"cebpf4jnsgd1na2vs0mg"},{"bike_id":"670ca874-6737-48ed-af10-4eeee0b62226","system_id":"levelo_inurba_marseille","lat":43.30142,"lon":5.37422,"is_reserved":false,"is_disabled":false,"rental_uris":{"android":"levelo://app?vid=670ca874-6737-48ed-af10-4eeee0b62226","ios":"levelo://app?vid=670ca874-6737-48ed-af10-4eeee0b62226"},"vehicle_type_id":"4","last_reported":1724512078,"current_range_meters":29200,"station_id":"ce4bgs92rcd13ifvqcc0","pricing_plan_id":"cebpf4jnsgd1na2vs0mg"},{"bike_id":"26cc948b-928e-4ea9-a633-21d5698c98d7","system_id":"levelo_inurba_marseille","lat":43.301429,"lon":5.37413,"is_reserved":false,"is_disabled":false,"rental_uris":{"android":"levelo://app?vid=26cc948b-928e-4ea9-a633-21d5698c98d7","ios":"levelo://app?vid=26cc948b-928e-4ea9-a633-21d5698c98d7"},"vehicle_type_id":"4","last_reported":1724512078,"current_range_meters":21600,"station_id":"ce4bgs92rcd13ifvqcc0","pricing_plan_id":"cebpf4jnsgd1na2vs0mg"},{"bike_id":"576b1d8d-3014-4215-8fd0-1165fdd8865e","system_id":"levelo_inurba_marseille","lat":43.301429,"lon":5.37413,"is_reserved":false,"is_disabled":false,"rental_uris":{"android":"levelo://app?vid=576b1d8d-3014-4215-8fd0-1165fdd8865e","ios":"levelo://app?vid=576b1d8d-3014-4215-8fd0-1165fdd8865e"},"vehicle_type_id":"4","last_reported":1724512078,"current_range_meters":20800,"station_id":"ce4bgs92rcd13ifvqcc0","pricing_plan_id":"cebpf4jnsgd1na2vs0mg"},{"bike_id":"515ac7ae-fbed-49cb-82f4-5638b62e3bdb","system_id":"levelo_inurba_marseille","lat":43.30143,"lon":5.37413,"is_reserved":false,"is_disabled":false,"rental_uris":{"android":"levelo://app?vid=515ac7ae-fbed-49cb-82f4-5638b62e3bdb","ios":"levelo://app?vid=515ac7ae-fbed-49cb-82f4-5638b62e3bdb"},"vehicle_type_id":"4","last_reported":1724512078,"current_range_meters":31200,"station_id":"ce4bgs92rcd13ifvqcc0","pricing_plan_id":"cebpf4jnsgd1na2vs0mg"},{"bike_id":"eb607a4e-79b7-4a3e-83a4-6f7c0c3ca248","system_id":"levelo_inurba_marseille","lat":43.319935,"lon":5.381699,"is_reserved":false,"is_disabled":false,"rental_uris":{"android":"levelo://app?vid=eb607a4e-79b7-4a3e-83a4-6f7c0c3ca248","ios":"levelo://app?vid=eb607a4e-79b7-4a3e-83a4-6f7c0c3ca248"},"vehicle_type_id":"4","last_reported":1724512078,"current_range_meters":30800,"station_id":"ce4bhr12rcd13ifvqhpg","pricing_plan_id":"cebpf4jnsgd1na2vs0mg"},{"bike_id":"1d3588c0-8377-45fc-bb78-3df1afbd47e9","system_id":"levelo_inurba_marseille","lat":43.313571,"lon":5.384829,"is_reserved":false,"is_disabled":false,"rental_uris":{"android":"levelo://app?vid=1d3588c0-8377-45fc-bb78-3df1afbd47e9","ios":"levelo://app?vid=1d3588c0-8377-45fc-bb78-3df1afbd47e9"},"vehicle_type_id":"4","last_reported":1724512078,"current_range_meters":14400,"station_id":"ce4bgt92rcd13ifvqcf0","pricing_plan_id":"cebpf4jnsgd1na2vs0mg"},{"bike_id":"c88f3bbc-87a3-49e5-ba2e-4d86f8efeb9c","system_id":"levelo_inurba_marseille","lat":43.299222,"lon":5.365554,"is_reserved":false,"is_disabled":false,"rental_uris":{"android":"levelo://app?vid=c88f3bbc-87a3-49e5-ba2e-4d86f8efeb9c","ios":"levelo://app?vid=c88f3bbc-87a3-49e5-ba2e-4d86f8efeb9c"},"vehicle_type_id":"4","last_reported":1724512078,"current_range_meters":6800,"station_id":"ce4bgm92rcd13ifvqbr0","pricing_plan_id":"cebpf4jnsgd1na2vs0mg"},{"bike_id":"68fdfbed-c46a-4158-8133-b7e387e3fcd0","system_id":"levelo_inurba_marseille","lat":43.299803,"lon":5.371663,"is_reserved":false,"is_disabled":false,"rental_uris":{"android":"levelo://app?vid=68fdfbed-c46a-4158-8133-b7e387e3fcd0","ios":"levelo://app?vid=68fdfbed-c46a-4158-8133-b7e387e3fcd0"},"vehicle_type_id":"4","last_reported":1724512078,"current_range_meters":19600,"station_id":"ce4bgr92rcd13ifvqc7g","pricing_plan_id":"cebpf4jnsgd1na2vs0mg"},{"bike_id":"3533052b-0a44-4a00-a4e2-adc0d047781c","system_id":"levelo_inurba_marseille","lat":43.299724,"lon":5.371829,"is_reserved":false,"is_disabled":false,"rental_uris":{"android":"levelo://app?vid=3533052b-0a44-4a00-a4e2-adc0d047781c","ios":"levelo://app?vid=3533052b-0a44-4a00-a4e2-adc0d047781c"},"vehicle_type_id":"4","last_reported":1724512078,"current_range_meters":28400,"station_id":"ce4bgr92rcd13ifvqc7g","pricing_plan_id":"cebpf4jnsgd1na2vs0mg"},{"bike_id":"99b957fe-b6fc-4071-8083-6eee0cb7b77a","system_id":"levelo_inurba_marseille","lat":43.299222,"lon":5.365554,"is_reserved":false,"is_disabled":false,"rental_uris":{"android":"levelo://app?vid=99b957fe-b6fc-4071-8083-6eee0cb7b77a","ios":"levelo://app?vid=99b957fe-b6fc-4071-8083-6eee0cb7b77a"},"vehicle_type_id":"4","last_reported":1724512078,"current_range_meters":400,"station_id":"ce4bgm92rcd13ifvqbr0","pricing_plan_id":"cebpf4jnsgd1na2vs0mg"},{"bike_id":"6cc456cf-dcbe-4e0b-ac20-2d7483f1b8f1","system_id":"levelo_inurba_marseille","lat":43.299222,"lon":5.365554,"is_reserved":false,"is_disabled":false,"rental_uris":{"android":"levelo://app?vid=6cc456cf-dcbe-4e0b-ac20-2d7483f1b8f1","ios":"levelo://app?vid=6cc456cf-dcbe-4e0b-ac20-2d7483f1b8f1"},"vehicle_type_id":"4","last_reported":1724512078,"current_range_meters":13200,"station_id":"ce4bgm92rcd13ifvqbr0","pricing_plan_id":"cebpf4jnsgd1na2vs0mg"},{"bike_id":"19e14428-5d4f-4674-8396-5d2f28f0470e","system_id":"levelo_inurba_marseille","lat":43.29861,"lon":5.36286,"is_reserved":false,"is_disabled":false,"rental_uris":{"android":"levelo://app?vid=19e14428-5d4f-4674-8396-5d2f28f0470e","ios":"levelo://app?vid=19e14428-5d4f-4674-8396-5d2f28f0470e"},"vehicle_type_id":"4","last_reported":1724512078,"current_range_meters":6400,"station_id":"ce4bgpp2rcd13ifvqc3g","pricing_plan_id":"cebpf4jnsgd1na2vs0mg"},{"bike_id":"a800e9ee-323b-4c4b-a4e8-2e83b5dffc0b","system_id":"levelo_inurba_marseille","lat":43.29854,"lon":5.36285,"is_reserved":false,"is_disabled":false,"rental_uris":{"android":"levelo://app?vid=a800e9ee-323b-4c4b-a4e8-2e83b5dffc0b","ios":"levelo://app?vid=a800e9ee-323b-4c4b-a4e8-2e83b5dffc0b"},"vehicle_type_id":"4","last_reported":1724512078,"current_range_meters":28800,"station_id":"ce4bgpp2rcd13ifvqc3g","pricing_plan_id":"cebpf4jnsgd1na2vs0mg"},{"bike_id":"936f077c-3577-4ae9-bcd2-2fa7f3ba8832","system_id":"levelo_inurba_marseille","lat":43.29851,"lon":5.36289,"is_reserved":false,"is_disabled":false,"rental_uris":{"android":"levelo://app?vid=936f077c-3577-4ae9-bcd2-2fa7f3ba8832","ios":"levelo://app?vid=936f077c-3577-4ae9-bcd2-2fa7f3ba8832"},"vehicle_type_id":"4","last_reported":1724512078,"current_range_meters":30000,"station_id":"ce4bgpp2rcd13ifvqc3g","pricing_plan_id":"cebpf4jnsgd1na2vs0mg"},{"bike_id":"d40be6d4-00b0-4f80-b930-0cd231b7f43f","system_id":"levelo_inurba_marseille","lat":43.29851,"lon":5.36283,"is_reserved":false,"is_disabled":false,"rental_uris":{"android":"levelo://app?vid=d40be6d4-00b0-4f80-b930-0cd231b7f43f","ios":"levelo://app?vid=d40be6d4-00b0-4f80-b930-0cd231b7f43f"},"vehicle_type_id":"4","last_reported":1724512078,"current_range_meters":31200,"station_id":"ce4bgpp2rcd13ifvqc3g","pricing_plan_id":"cebpf4jnsgd1na2vs0mg"},{"bike_id":"754871f1-419b-47d6-b371-d2c9a8e42260","system_id":"levelo_inurba_marseille","lat":43.298433,"lon":5.362774,"is_reserved":false,"is_disabled":false,"rental_uris":{"android":"levelo://app?vid=754871f1-419b-47d6-b371-d2c9a8e42260","ios":"levelo://app?vid=754871f1-419b-47d6-b371-d2c9a8e42260"},"vehicle_type_id":"4","last_reported":1724512078,"current_range_meters":23600,"station_id":"ce4bgpp2rcd13ifvqc3g","pricing_plan_id":"cebpf4jnsgd1na2vs0mg"},{"bike_id":"5e9a1b06-ee8d-4570-9ceb-1b8fd7882990","system_id":"levelo_inurba_marseille","lat":43.29851,"lon":5.36272,"is_reserved":false,"is_disabled":false,"rental_uris":{"android":"levelo://app?vid=5e9a1b06-ee8d-4570-9ceb-1b8fd7882990","ios":"levelo://app?vid=5e9a1b06-ee8d-4570-9ceb-1b8fd7882990"},"vehicle_type_id":"4","last_reported":1724512078,"current_range_meters":31200,"station_id":"ce4bgpp2rcd13ifvqc3g","pricing_plan_id":"cebpf4jnsgd1na2vs0mg"},{"bike_id":"cca6275b-8213-4f39-b38e-538f65891115","system_id":"levelo_inurba_marseille","lat":43.298433,"lon":5.362774,"is_reserved":false,"is_disabled":false,"rental_uris":{"android":"levelo://app?vid=cca6275b-8213-4f39-b38e-538f65891115","ios":"levelo://app?vid=cca6275b-8213-4f39-b38e-538f65891115"},"vehicle_type_id":"4","last_reported":1724512078,"current_range_meters":26800,"station_id":"ce4bgpp2rcd13ifvqc3g","pricing_plan_id":"cebpf4jnsgd1na2vs0mg"},{"bike_id":"37b83890-de12-4dce-8fe5-d0cb9740da1b","system_id":"levelo_inurba_marseille","lat":43.29848,"lon":5.36286,"is_reserved":false,"is_disabled":false,"rental_uris":{"android":"levelo://app?vid=37b83890-de12-4dce-8fe5-d0cb9740da1b","ios":"levelo://app?vid=37b83890-de12-4dce-8fe5-d0cb9740da1b"},"vehicle_type_id":"4","last_reported":1724512078,"current_range_meters":19600,"station_id":"ce4bgpp2rcd13ifvqc3g","pricing_plan_id":"cebpf4jnsgd1na2vs0mg"},{"bike_id":"a4529eb2-1ca5-4324-9865-9d86eeef5339","system_id":"levelo_inurba_marseille","lat":43.298433,"lon":5.362774,"is_reserved":false,"is_disabled":false,"rental_uris":{"android":"levelo://app?vid=a4529eb2-1ca5-4324-9865-9d86eeef5339","ios":"levelo://app?vid=a4529eb2-1ca5-4324-9865-9d86eeef5339"},"vehicle_type_id":"4","last_reported":1724512078,"current_range_meters":21600,"station_id":"ce4bgpp2rcd13ifvqc3g","pricing_plan_id":"cebpf4jnsgd1na2vs0mg"},{"bike_id":"64a54529-176c-4fa5-ac8e-6a3f2f3f9e0c","system_id":"levelo_inurba_marseille","lat":43.298433,"lon":5.362774,"is_reserved":false,"is_disabled":false,"rental_uris":{"android":"levelo://app?vid=64a54529-176c-4fa5-ac8e-6a3f2f3f9e0c","ios":"levelo://app?vid=64a54529-176c-4fa5-ac8e-6a3f2f3f9e0c"},"vehicle_type_id":"4","last_reported":1724512078,"current_range_meters":27600,"station_id":"ce4bgpp2rcd13ifvqc3g","pricing_plan_id":"cebpf4jnsgd1na2vs0mg"},{"bike_id":"9d6ee737-581e-4164-bb0c-58ee958d8352","system_id":"levelo_inurba_marseille","lat":43.298433,"lon":5.362774,"is_reserved":false,"is_disabled":false,"rental_uris":{"android":"levelo://app?vid=9d6ee737-581e-4164-bb0c-58ee958d8352","ios":"levelo://app?vid=9d6ee737-581e-4164-bb0c-58ee958d8352"},"vehicle_type_id":"4","last_reported":1724512078,"current_range_meters":28000,"station_id":"ce4bgpp2rcd13ifvqc3g","pricing_plan_id":"cebpf4jnsgd1na2vs0mg"},{"bike_id":"b5071d2f-56ff-4d82-9a61-8ea50e4235f0","system_id":"levelo_inurba_marseille","lat":43.298433,"lon":5.362774,"is_reserved":false,"is_disabled":false,"rental_uris":{"android":"levelo://app?vid=b5071d2f-56ff-4d82-9a61-8ea50e4235f0","ios":"levelo://app?vid=b5071d2f-56ff-4d82-9a61-8ea50e4235f0"},"vehicle_type_id":"4","last_reported":1724512078,"current_range_meters":31200,"station_id":"ce4bgpp2rcd13ifvqc3g","pricing_plan_id":"cebpf4jnsgd1na2vs0mg"},{"bike_id":"0756245d-9bdc-40c2-a08c-6907067de268","system_id":"levelo_inurba_marseille","lat":43.29842,"lon":5.36271,"is_reserved":false,"is_disabled":false,"rental_uris":{"android":"levelo://app?vid=0756245d-9bdc-40c2-a08c-6907067de268","ios":"levelo://app?vid=0756245d-9bdc-40c2-a08c-6907067de268"},"vehicle_type_id":"4","last_reported":1724512078,"current_range_meters":31200,"station_id":"ce4bgpp2rcd13ifvqc3g","pricing_plan_id":"cebpf4jnsgd1na2vs0mg"},{"bike_id":"39ffa87e-59e7-489c-8f18-597adaf2654d","system_id":"levelo_inurba_marseille","lat":43.299243,"lon":5.374807,"is_reserved":false,"is_disabled":false,"rental_uris":{"android":"levelo://app?vid=39ffa87e-59e7-489c-8f18-597adaf2654d","ios":"levelo://app?vid=39ffa87e-59e7-489c-8f18-597adaf2654d"},"vehicle_type_id":"4","last_reported":1724512078,"current_range_meters":23600,"station_id":"ce4bgjh2rcd13ifvqbg0","pricing_plan_id":"cebpf4jnsgd1na2vs0mg"},{"bike_id":"b405446f-7849-4887-b163-97242269dfc5","system_id":"levelo_inurba_marseille","lat":43.299243,"lon":5.37481,"is_reserved":false,"is_disabled":false,"rental_uris":{"android":"levelo://app?vid=b405446f-7849-4887-b163-97242269dfc5","ios":"levelo://app?vid=b405446f-7849-4887-b163-97242269dfc5"},"vehicle_type_id":"4","last_reported":1724512078,"current_range_meters":3600,"station_id":"ce4bgjh2rcd13ifvqbg0","pricing_plan_id":"cebpf4jnsgd1na2vs0mg"},{"bike_id":"08248dbf-c095-4c5d-881d-d0b12dc32884","system_id":"levelo_inurba_marseille","lat":43.311722,"lon":5.387247,"is_reserved":false,"is_disabled":false,"rental_uris":{"android":"levelo://app?vid=08248dbf-c095-4c5d-881d-d0b12dc32884","ios":"levelo://app?vid=08248dbf-c095-4c5d-881d-d0b12dc32884"},"vehicle_type_id":"4","last_reported":1724512078,"current_range_meters":12800,"station_id":"ce4bgv12rcd13ifvqcp0","pricing_plan_id":"cebpf4jnsgd1na2vs0mg"},{"bike_id":"f8794ec0-3de7-4032-a1c3-7030926f090b","system_id":"levelo_inurba_marseille","lat":43.311722,"lon":5.387247,"is_reserved":false,"is_disabled":false,"rental_uris":{"android":"levelo://app?vid=f8794ec0-3de7-4032-a1c3-7030926f090b","ios":"levelo://app?vid=f8794ec0-3de7-4032-a1c3-7030926f090b"},"vehicle_type_id":"4","last_reported":1724512078,"current_range_meters":24000,"station_id":"ce4bgv12rcd13ifvqcp0","pricing_plan_id":"cebpf4jnsgd1na2vs0mg"},{"bike_id":"cf6383b6-bf69-4db4-9a53-b5d283807fb1","system_id":"levelo_inurba_marseille","lat":43.301417,"lon":5.3809,"is_reserved":false,"is_disabled":false,"rental_uris":{"android":"levelo://app?vid=cf6383b6-bf69-4db4-9a53-b5d283807fb1","ios":"levelo://app?vid=cf6383b6-bf69-4db4-9a53-b5d283807fb1"},"vehicle_type_id":"4","last_reported":1724512078,"current_range_meters":13200,"station_id":"ce4bgjp2rcd13ifvqbh0","pricing_plan_id":"cebpf4jnsgd1na2vs0mg"},{"bike_id":"214376e6-67f3-4071-9560-1ca3f0bfd6ec","system_id":"levelo_inurba_marseille","lat":43.30146,"lon":5.38074,"is_reserved":false,"is_disabled":false,"rental_uris":{"android":"levelo://app?vid=214376e6-67f3-4071-9560-1ca3f0bfd6ec","ios":"levelo://app?vid=214376e6-67f3-4071-9560-1ca3f0bfd6ec"},"vehicle_type_id":"4","last_reported":1724512078,"current_range_meters":7600,"station_id":"ce4bgjp2rcd13ifvqbh0","pricing_plan_id":"cebpf4jnsgd1na2vs0mg"},{"bike_id":"83556079-8e17-4bd5-b14c-cd9a83ca9f65","system_id":"levelo_inurba_marseille","lat":43.301417,"lon":5.3809,"is_reserved":false,"is_disabled":false,"rental_uris":{"android":"levelo://app?vid=83556079-8e17-4bd5-b14c-cd9a83ca9f65","ios":"levelo://app?vid=83556079-8e17-4bd5-b14c-cd9a83ca9f65"},"vehicle_type_id":"4","last_reported":1724512078,"current_range_meters":17200,"station_id":"ce4bgjp2rcd13ifvqbh0","pricing_plan_id":"cebpf4jnsgd1na2vs0mg"},{"bike_id":"758238ef-79fe-4dd6-b4fd-f5c2f9cb6869","system_id":"levelo_inurba_marseille","lat":43.301417,"lon":5.3809,"is_reserved":false,"is_disabled":false,"rental_uris":{"android":"levelo://app?vid=758238ef-79fe-4dd6-b4fd-f5c2f9cb6869","ios":"levelo://app?vid=758238ef-79fe-4dd6-b4fd-f5c2f9cb6869"},"vehicle_type_id":"4","last_reported":1724512078,"current_range_meters":21200,"station_id":"ce4bgjp2rcd13ifvqbh0","pricing_plan_id":"cebpf4jnsgd1na2vs0mg"},{"bike_id":"728d826a-c6bc-4490-92ac-9bf9f68b6f6e","system_id":"levelo_inurba_marseille","lat":43.301417,"lon":5.3809,"is_reserved":false,"is_disabled":false,"rental_uris":{"android":"levelo://app?vid=728d826a-c6bc-4490-92ac-9bf9f68b6f6e","ios":"levelo://app?vid=728d826a-c6bc-4490-92ac-9bf9f68b6f6e"},"vehicle_type_id":"4","last_reported":1724512078,"current_range_meters":20800,"station_id":"ce4bgjp2rcd13ifvqbh0","pricing_plan_id":"cebpf4jnsgd1na2vs0mg"},{"bike_id":"43637faa-bc57-4af9-9031-ccf7137dafc6","system_id":"levelo_inurba_marseille","lat":43.322913,"lon":5.382574,"is_reserved":false,"is_disabled":false,"rental_uris":{"android":"levelo://app?vid=43637faa-bc57-4af9-9031-ccf7137dafc6","ios":"levelo://app?vid=43637faa-bc57-4af9-9031-ccf7137dafc6"},"vehicle_type_id":"4","last_reported":1724512078,"current_range_meters":23200,"station_id":"ce4bhr12rcd13ifvqhqg","pricing_plan_id":"cebpf4jnsgd1na2vs0mg"},{"bike_id":"03c09c79-b029-4978-a79b-7e064eefc860","system_id":"levelo_inurba_marseille","lat":43.29765,"lon":5.37077,"is_reserved":false,"is_disabled":false,"rental_uris":{"android":"levelo://app?vid=03c09c79-b029-4978-a79b-7e064eefc860","ios":"levelo://app?vid=03c09c79-b029-4978-a79b-7e064eefc860"},"vehicle_type_id":"4","last_reported":1724512078,"current_range_meters":31200,"station_id":"ce4bgop2rcd13ifvqc1g","pricing_plan_id":"cebpf4jnsgd1na2vs0mg"},{"bike_id":"de600dbb-22dd-495d-9f1b-90bf89d79f26","system_id":"levelo_inurba_marseille","lat":43.297163,"lon":5.365866,"is_reserved":false,"is_disabled":false,"rental_uris":{"android":"levelo://app?vid=de600dbb-22dd-495d-9f1b-90bf89d79f26","ios":"levelo://app?vid=de600dbb-22dd-495d-9f1b-90bf89d79f26"},"vehicle_type_id":"4","last_reported":1724512078,"current_range_meters":8400,"station_id":"ce4bgn12rcd13ifvqbt0","pricing_plan_id":"cebpf4jnsgd1na2vs0mg"},{"bike_id":"7375ae80-d6ae-467a-b29b-f5fa8f85e66d","system_id":"levelo_inurba_marseille","lat":43.297163,"lon":5.365866,"is_reserved":false,"is_disabled":false,"rental_uris":{"android":"levelo://app?vid=7375ae80-d6ae-467a-b29b-f5fa8f85e66d","ios":"levelo://app?vid=7375ae80-d6ae-467a-b29b-f5fa8f85e66d"},"vehicle_type_id":"4","last_reported":1724512078,"current_range_meters":6000,"station_id":"ce4bgn12rcd13ifvqbt0","pricing_plan_id":"cebpf4jnsgd1na2vs0mg"},{"bike_id":"d87776ef-8591-4a84-bf4b-149141edba63","system_id":"levelo_inurba_marseille","lat":43.297163,"lon":5.365866,"is_reserved":false,"is_disabled":false,"rental_uris":{"android":"levelo://app?vid=d87776ef-8591-4a84-bf4b-149141edba63","ios":"levelo://app?vid=d87776ef-8591-4a84-bf4b-149141edba63"},"vehicle_type_id":"4","last_reported":1724512078,"current_range_meters":0,"station_id":"ce4bgn12rcd13ifvqbt0","pricing_plan_id":"cebpf4jnsgd1na2vs0mg"},{"bike_id":"235fddea-dc97-481b-84fb-45f13d4ced2c","system_id":"levelo_inurba_marseille","lat":43.297163,"lon":5.365866,"is_reserved":false,"is_disabled":false,"rental_uris":{"android":"levelo://app?vid=235fddea-dc97-481b-84fb-45f13d4ced2c","ios":"levelo://app?vid=235fddea-dc97-481b-84fb-45f13d4ced2c"},"vehicle_type_id":"4","last_reported":1724512078,"current_range_meters":4000,"station_id":"ce4bgn12rcd13ifvqbt0","pricing_plan_id":"cebpf4jnsgd1na2vs0mg"},{"bike_id":"0acd4022-7381-4ace-a2b4-409ee4d98f2a","system_id":"levelo_inurba_marseille","lat":43.292749,"lon":5.368402,"is_reserved":false,"is_disabled":false,"rental_uris":{"android":"levelo://app?vid=0acd4022-7381-4ace-a2b4-409ee4d98f2a","ios":"levelo://app?vid=0acd4022-7381-4ace-a2b4-409ee4d98f2a"},"vehicle_type_id":"4","last_reported":1724512078,"current_range_meters":16000,"station_id":"ce4bhbp2rcd13ifvqesg","pricing_plan_id":"cebpf4jnsgd1na2vs0mg"},{"bike_id":"4232986f-8213-4cbe-b32f-d38f2ac8b0c1","system_id":"levelo_inurba_marseille","lat":43.29573,"lon":5.367355,"is_reserved":false,"is_disabled":false,"rental_uris":{"android":"levelo://app?vid=4232986f-8213-4cbe-b32f-d38f2ac8b0c1","ios":"levelo://app?vid=4232986f-8213-4cbe-b32f-d38f2ac8b0c1"},"vehicle_type_id":"4","last_reported":1724512078,"current_range_meters":0,"station_id":"ce4bgph2rcd13ifvqc2g","pricing_plan_id":"cebpf4jnsgd1na2vs0mg"},{"bike_id":"4ecc939b-72a7-40c3-8e20-6bffdb27d08a","system_id":"levelo_inurba_marseille","lat":43.29588,"lon":5.36747,"is_reserved":false,"is_disabled":false,"rental_uris":{"android":"levelo://app?vid=4ecc939b-72a7-40c3-8e20-6bffdb27d08a","ios":"levelo://app?vid=4ecc939b-72a7-40c3-8e20-6bffdb27d08a"},"vehicle_type_id":"4","last_reported":1724512078,"current_range_meters":0,"station_id":"ce4bgph2rcd13ifvqc2g","pricing_plan_id":"cebpf4jnsgd1na2vs0mg"},{"bike_id":"0f80e4a7-dd24-4bcb-898e-d82ea20cfec9","system_id":"levelo_inurba_marseille","lat":43.2963,"lon":5.36031,"is_reserved":false,"is_disabled":false,"rental_uris":{"android":"levelo://app?vid=0f80e4a7-dd24-4bcb-898e-d82ea20cfec9","ios":"levelo://app?vid=0f80e4a7-dd24-4bcb-898e-d82ea20cfec9"},"vehicle_type_id":"4","last_reported":1724512078,"current_range_meters":3600,"station_id":"","pricing_plan_id":"cebpf4jnsgd1na2vs0mg"},{"bike_id":"b1df9cdf-46f9-4d72-a6cb-afab7f165c94","system_id":"levelo_inurba_marseille","lat":43.296921,"lon":5.376579,"is_reserved":false,"is_disabled":false,"rental_uris":{"android":"levelo://app?vid=b1df9cdf-46f9-4d72-a6cb-afab7f165c94","ios":"levelo://app?vid=b1df9cdf-46f9-4d72-a6cb-afab7f165c94"},"vehicle_type_id":"4","last_reported":1724512078,"current_range_meters":0,"station_id":"ce4bgkh2rcd13ifvqbl0","pricing_plan_id":"cebpf4jnsgd1na2vs0mg"},{"bike_id":"9ae1b0f7-3f2a-48a1-b48f-78654dfaa4a1","system_id":"levelo_inurba_marseille","lat":43.299028,"lon":5.381509,"is_reserved":false,"is_disabled":false,"rental_uris":{"android":"levelo://app?vid=9ae1b0f7-3f2a-48a1-b48f-78654dfaa4a1","ios":"levelo://app?vid=9ae1b0f7-3f2a-48a1-b48f-78654dfaa4a1"},"vehicle_type_id":"4","last_reported":1724512078,"current_range_meters":18000,"station_id":"ce4bgj12rcd13ifvqbc0","pricing_plan_id":"cebpf4jnsgd1na2vs0mg"},{"bike_id":"f19a8e1e-ea93-41d6-9d06-9ce397245e44","system_id":"levelo_inurba_marseille","lat":43.309589,"lon":5.390258,"is_reserved":false,"is_disabled":false,"rental_uris":{"android":"levelo://app?vid=f19a8e1e-ea93-41d6-9d06-9ce397245e44","ios":"levelo://app?vid=f19a8e1e-ea93-41d6-9d06-9ce397245e44"},"vehicle_type_id":"4","last_reported":1724512078,"current_range_meters":14000,"station_id":"ce4bgup2rcd13ifvqco0","pricing_plan_id":"cebpf4jnsgd1na2vs0mg"},{"bike_id":"76fd183a-bc03-4880-9390-c21c3868c1d9","system_id":"levelo_inurba_marseille","lat":43.309589,"lon":5.390258,"is_reserved":false,"is_disabled":false,"rental_uris":{"android":"levelo://app?vid=76fd183a-bc03-4880-9390-c21c3868c1d9","ios":"levelo://app?vid=76fd183a-bc03-4880-9390-c21c3868c1d9"},"vehicle_type_id":"4","last_reported":1724512078,"current_range_meters":1200,"station_id":"ce4bgup2rcd13ifvqco0","pricing_plan_id":"cebpf4jnsgd1na2vs0mg"},{"bike_id":"2a303717-00d8-4a6b-90ba-18fa7389f078","system_id":"levelo_inurba_marseille","lat":43.296263,"lon":5.377094,"is_reserved":false,"is_disabled":false,"rental_uris":{"android":"levelo://app?vid=2a303717-00d8-4a6b-90ba-18fa7389f078","ios":"levelo://app?vid=2a303717-00d8-4a6b-90ba-18fa7389f078"},"vehicle_type_id":"4","last_reported":1724512078,"current_range_meters":28000,"station_id":"ce4bgi92rcd13ifvqb90","pricing_plan_id":"cebpf4jnsgd1na2vs0mg"},{"bike_id":"df022895-836a-4573-b361-de18f763e174","system_id":"levelo_inurba_marseille","lat":43.299707,"lon":5.384859,"is_reserved":false,"is_disabled":false,"rental_uris":{"android":"levelo://app?vid=df022895-836a-4573-b361-de18f763e174","ios":"levelo://app?vid=df022895-836a-4573-b361-de18f763e174"},"vehicle_type_id":"4","last_reported":1724512078,"current_range_meters":25600,"station_id":"ce4bgj92rcd13ifvqbd0","pricing_plan_id":"cebpf4jnsgd1na2vs0mg"},{"bike_id":"9c6b328e-e783-4464-9df9-bb1e18b45e22","system_id":"levelo_inurba_marseille","lat":43.299707,"lon":5.384859,"is_reserved":false,"is_disabled":false,"rental_uris":{"android":"levelo://app?vid=9c6b328e-e783-4464-9df9-bb1e18b45e22","ios":"levelo://app?vid=9c6b328e-e783-4464-9df9-bb1e18b45e22"},"vehicle_type_id":"4","last_reported":1724512078,"current_range_meters":27200,"station_id":"ce4bgj92rcd13ifvqbd0","pricing_plan_id":"cebpf4jnsgd1na2vs0mg"},{"bike_id":"fa1c3244-2994-4cbe-b56b-535c0e393204","system_id":"levelo_inurba_marseille","lat":43.295279,"lon":5.375048,"is_reserved":false,"is_disabled":false,"rental_uris":{"android":"levelo://app?vid=fa1c3244-2994-4cbe-b56b-535c0e393204","ios":"levelo://app?vid=fa1c3244-2994-4cbe-b56b-535c0e393204"},"vehicle_type_id":"4","last_reported":1724512078,"current_range_meters":24400,"station_id":"ce4bgkp2rcd13ifvqbmg","pricing_plan_id":"cebpf4jnsgd1na2vs0mg"},{"bike_id":"a0054294-6fbe-4f0a-a4d3-35acd7cab139","system_id":"levelo_inurba_marseille","lat":43.301396,"lon":5.387812,"is_reserved":false,"is_disabled":false,"rental_uris":{"android":"levelo://app?vid=a0054294-6fbe-4f0a-a4d3-35acd7cab139","ios":"levelo://app?vid=a0054294-6fbe-4f0a-a4d3-35acd7cab139"},"vehicle_type_id":"4","last_reported":1724512078,"current_range_meters":0,"station_id":"ce4bghh2rcd13ifvqb60","pricing_plan_id":"cebpf4jnsgd1na2vs0mg"},{"bike_id":"4c600173-7b6b-41a9-b1d9-b6e5328faa0d","system_id":"levelo_inurba_marseille","lat":43.32367,"lon":5.388836,"is_reserved":false,"is_disabled":false,"rental_uris":{"android":"levelo://app?vid=4c600173-7b6b-41a9-b1d9-b6e5328faa0d","ios":"levelo://app?vid=4c600173-7b6b-41a9-b1d9-b6e5328faa0d"},"vehicle_type_id":"4","last_reported":1724512078,"current_range_meters":0,"station_id":"ce4bhqp2rcd13ifvqhog","pricing_plan_id":"cebpf4jnsgd1na2vs0mg"},{"bike_id":"bb990e76-78b5-4457-850e-a60e8e70029c","system_id":"levelo_inurba_marseille","lat":43.293259,"lon":5.371586,"is_reserved":false,"is_disabled":false,"rental_uris":{"android":"levelo://app?vid=bb990e76-78b5-4457-850e-a60e8e70029c","ios":"levelo://app?vid=bb990e76-78b5-4457-850e-a60e8e70029c"},"vehicle_type_id":"4","last_reported":1724512078,"current_range_meters":17600,"station_id":"ce4bgh92rcd13ifvqb40","pricing_plan_id":"cebpf4jnsgd1na2vs0mg"},{"bike_id":"f75aeacf-d4dd-4e1b-ae13-56c43594c35c","system_id":"levelo_inurba_marseille","lat":43.29602,"lon":5.381084,"is_reserved":false,"is_disabled":false,"rental_uris":{"android":"levelo://app?vid=f75aeacf-d4dd-4e1b-ae13-56c43594c35c","ios":"levelo://app?vid=f75aeacf-d4dd-4e1b-ae13-56c43594c35c"},"vehicle_type_id":"4","last_reported":1724512078,"current_range_meters":31200,"station_id":"ce4bgl12rcd13ifvqbo0","pricing_plan_id":"cebpf4jnsgd1na2vs0mg"},{"bike_id":"da12ad33-4373-412e-9334-18da2005395f","system_id":"levelo_inurba_marseille","lat":43.29601,"lon":5.381084,"is_reserved":false,"is_disabled":false,"rental_uris":{"android":"levelo://app?vid=da12ad33-4373-412e-9334-18da2005395f","ios":"levelo://app?vid=da12ad33-4373-412e-9334-18da2005395f"},"vehicle_type_id":"4","last_reported":1724512078,"current_range_meters":31200,"station_id":"ce4bgl12rcd13ifvqbo0","pricing_plan_id":"cebpf4jnsgd1na2vs0mg"},{"bike_id":"959cc655-9160-4425-9d50-82d4a9ac2bc6","system_id":"levelo_inurba_marseille","lat":43.293259,"lon":5.371586,"is_reserved":false,"is_disabled":false,"rental_uris":{"android":"levelo://app?vid=959cc655-9160-4425-9d50-82d4a9ac2bc6","ios":"levelo://app?vid=959cc655-9160-4425-9d50-82d4a9ac2bc6"},"vehicle_type_id":"4","last_reported":1724512078,"current_range_meters":22800,"station_id":"ce4bgh92rcd13ifvqb40","pricing_plan_id":"cebpf4jnsgd1na2vs0mg"},{"bike_id":"3c85fd64-a2e7-476c-bd8d-a92e39426956","system_id":"levelo_inurba_marseille","lat":43.293259,"lon":5.371586,"is_reserved":false,"is_disabled":false,"rental_uris":{"android":"levelo://app?vid=3c85fd64-a2e7-476c-bd8d-a92e39426956","ios":"levelo://app?vid=3c85fd64-a2e7-476c-bd8d-a92e39426956"},"vehicle_type_id":"4","last_reported":1724512078,"current_range_meters":3200,"station_id":"ce4bgh92rcd13ifvqb40","pricing_plan_id":"cebpf4jnsgd1na2vs0mg"},{"bike_id":"b2046714-1899-4967-a65b-4bccb90e8b59","system_id":"levelo_inurba_marseille","lat":43.292749,"lon":5.368402,"is_reserved":false,"is_disabled":false,"rental_uris":{"android":"levelo://app?vid=b2046714-1899-4967-a65b-4bccb90e8b59","ios":"levelo://app?vid=b2046714-1899-4967-a65b-4bccb90e8b59"},"vehicle_type_id":"4","last_reported":1724512078,"current_range_meters":12400,"station_id":"ce4bhbp2rcd13ifvqesg","pricing_plan_id":"cebpf4jnsgd1na2vs0mg"},{"bike_id":"1fc57469-d695-4b0d-8cf2-3bfdb6ba63db","system_id":"levelo_inurba_marseille","lat":43.292749,"lon":5.368402,"is_reserved":false,"is_disabled":false,"rental_uris":{"android":"levelo://app?vid=1fc57469-d695-4b0d-8cf2-3bfdb6ba63db","ios":"levelo://app?vid=1fc57469-d695-4b0d-8cf2-3bfdb6ba63db"},"vehicle_type_id":"4","last_reported":1724512078,"current_range_meters":1600,"station_id":"ce4bhbp2rcd13ifvqesg","pricing_plan_id":"cebpf4jnsgd1na2vs0mg"},{"bike_id":"9443b8fd-4b69-4a60-8fc1-fb46ae5ba0ab","system_id":"levelo_inurba_marseille","lat":43.292749,"lon":5.368398,"is_reserved":false,"is_disabled":false,"rental_uris":{"android":"levelo://app?vid=9443b8fd-4b69-4a60-8fc1-fb46ae5ba0ab","ios":"levelo://app?vid=9443b8fd-4b69-4a60-8fc1-fb46ae5ba0ab"},"vehicle_type_id":"4","last_reported":1724512078,"current_range_meters":29200,"station_id":"ce4bhbp2rcd13ifvqesg","pricing_plan_id":"cebpf4jnsgd1na2vs0mg"},{"bike_id":"afe86537-6ec2-489f-9a06-f19f85918398","system_id":"levelo_inurba_marseille","lat":43.305994,"lon":5.393687,"is_reserved":false,"is_disabled":false,"rental_uris":{"android":"levelo://app?vid=afe86537-6ec2-489f-9a06-f19f85918398","ios":"levelo://app?vid=afe86537-6ec2-489f-9a06-f19f85918398"},"vehicle_type_id":"4","last_reported":1724512078,"current_range_meters":2000,"station_id":"ce4bh0p2rcd13ifvqd80","pricing_plan_id":"cebpf4jnsgd1na2vs0mg"},{"bike_id":"3f4b9008-a2d1-4838-8f17-2458761d65cc","system_id":"levelo_inurba_marseille","lat":43.29293,"lon":5.37455,"is_reserved":false,"is_disabled":false,"rental_uris":{"android":"levelo://app?vid=3f4b9008-a2d1-4838-8f17-2458761d65cc","ios":"levelo://app?vid=3f4b9008-a2d1-4838-8f17-2458761d65cc"},"vehicle_type_id":"4","last_reported":1724512078,"current_range_meters":30400,"station_id":"ce4bgi12rcd13ifvqb70","pricing_plan_id":"cebpf4jnsgd1na2vs0mg"},{"bike_id":"005560f9-7efa-452e-8803-215c978c518c","system_id":"levelo_inurba_marseille","lat":43.303002,"lon":5.392142,"is_reserved":false,"is_disabled":false,"rental_uris":{"android":"levelo://app?vid=005560f9-7efa-452e-8803-215c978c518c","ios":"levelo://app?vid=005560f9-7efa-452e-8803-215c978c518c"},"vehicle_type_id":"4","last_reported":1724512078,"current_range_meters":25600,"station_id":"ce4bgkh2rcd13ifvqbk0","pricing_plan_id":"cebpf4jnsgd1na2vs0mg"},{"bike_id":"34cdd5e1-6a5f-49d4-a8d3-42d30e264101","system_id":"levelo_inurba_marseille","lat":43.2936,"lon":5.37835,"is_reserved":false,"is_disabled":false,"rental_uris":{"android":"levelo://app?vid=34cdd5e1-6a5f-49d4-a8d3-42d30e264101","ios":"levelo://app?vid=34cdd5e1-6a5f-49d4-a8d3-42d30e264101"},"vehicle_type_id":"4","last_reported":1724512078,"current_range_meters":13600,"station_id":"ce4bgjh2rcd13ifvqbf0","pricing_plan_id":"cebpf4jnsgd1na2vs0mg"},{"bike_id":"51d0ac5c-ff27-4c49-b23e-32538365509b","system_id":"levelo_inurba_marseille","lat":43.2936,"lon":5.37835,"is_reserved":false,"is_disabled":false,"rental_uris":{"android":"levelo://app?vid=51d0ac5c-ff27-4c49-b23e-32538365509b","ios":"levelo://app?vid=51d0ac5c-ff27-4c49-b23e-32538365509b"},"vehicle_type_id":"4","last_reported":1724512078,"current_range_meters":21200,"station_id":"ce4bgjh2rcd13ifvqbf0","pricing_plan_id":"cebpf4jnsgd1na2vs0mg"},{"bike_id":"e6995a37-2341-4e02-a694-a98d7b28cc04","system_id":"levelo_inurba_marseille","lat":43.29372,"lon":5.37855,"is_reserved":false,"is_disabled":false,"rental_uris":{"android":"levelo://app?vid=e6995a37-2341-4e02-a694-a98d7b28cc04","ios":"levelo://app?vid=e6995a37-2341-4e02-a694-a98d7b28cc04"},"vehicle_type_id":"4","last_reported":1724512078,"current_range_meters":26800,"station_id":"ce4bgjh2rcd13ifvqbf0","pricing_plan_id":"cebpf4jnsgd1na2vs0mg"},{"bike_id":"ce2c9a9c-94f8-410e-a6ff-d562f5cfd8d4","system_id":"levelo_inurba_marseille","lat":43.2936,"lon":5.37835,"is_reserved":false,"is_disabled":false,"rental_uris":{"android":"levelo://app?vid=ce2c9a9c-94f8-410e-a6ff-d562f5cfd8d4","ios":"levelo://app?vid=ce2c9a9c-94f8-410e-a6ff-d562f5cfd8d4"},"vehicle_type_id":"4","last_reported":1724512078,"current_range_meters":11600,"station_id":"ce4bgjh2rcd13ifvqbf0","pricing_plan_id":"cebpf4jnsgd1na2vs0mg"},{"bike_id":"0b9bbaa6-bb87-4640-8a0f-c9821574537f","system_id":"levelo_inurba_marseille","lat":43.292311,"lon":5.360731,"is_reserved":false,"is_disabled":false,"rental_uris":{"android":"levelo://app?vid=0b9bbaa6-bb87-4640-8a0f-c9821574537f","ios":"levelo://app?vid=0b9bbaa6-bb87-4640-8a0f-c9821574537f"},"vehicle_type_id":"4","last_reported":1724512078,"current_range_meters":5200,"station_id":"ce4bhbh2rcd13ifvqeqg","pricing_plan_id":"cebpf4jnsgd1na2vs0mg"},{"bike_id":"16efb021-d71e-416c-9d62-b436ed1230e4","system_id":"levelo_inurba_marseille","lat":43.292311,"lon":5.360731,"is_reserved":false,"is_disabled":false,"rental_uris":{"android":"levelo://app?vid=16efb021-d71e-416c-9d62-b436ed1230e4","ios":"levelo://app?vid=16efb021-d71e-416c-9d62-b436ed1230e4"},"vehicle_type_id":"4","last_reported":1724512078,"current_range_meters":19600,"station_id":"ce4bhbh2rcd13ifvqeqg","pricing_plan_id":"cebpf4jnsgd1na2vs0mg"},{"bike_id":"ebaba694-8704-4f12-8d8f-92610861afbe","system_id":"levelo_inurba_marseille","lat":43.292311,"lon":5.360731,"is_reserved":false,"is_disabled":false,"rental_uris":{"android":"levelo://app?vid=ebaba694-8704-4f12-8d8f-92610861afbe","ios":"levelo://app?vid=ebaba694-8704-4f12-8d8f-92610861afbe"},"vehicle_type_id":"4","last_reported":1724512078,"current_range_meters":20800,"station_id":"ce4bhbh2rcd13ifvqeqg","pricing_plan_id":"cebpf4jnsgd1na2vs0mg"},{"bike_id":"fb65a390-753a-4f66-97ce-a4cd94a4c980","system_id":"levelo_inurba_marseille","lat":43.292311,"lon":5.360731,"is_reserved":false,"is_disabled":false,"rental_uris":{"android":"levelo://app?vid=fb65a390-753a-4f66-97ce-a4cd94a4c980","ios":"levelo://app?vid=fb65a390-753a-4f66-97ce-a4cd94a4c980"},"vehicle_type_id":"4","last_reported":1724512078,"current_range_meters":13600,"station_id":"ce4bhbh2rcd13ifvqeqg","pricing_plan_id":"cebpf4jnsgd1na2vs0mg"},{"bike_id":"8c6f218a-ff27-4443-9316-c662483caa76","system_id":"levelo_inurba_marseille","lat":43.30085,"lon":5.390856,"is_reserved":false,"is_disabled":false,"rental_uris":{"android":"levelo://app?vid=8c6f218a-ff27-4443-9316-c662483caa76","ios":"levelo://app?vid=8c6f218a-ff27-4443-9316-c662483caa76"},"vehicle_type_id":"4","last_reported":1724512078,"current_range_meters":0,"station_id":"ce4bh192rcd13ifvqdb0","pricing_plan_id":"cebpf4jnsgd1na2vs0mg"},{"bike_id":"f0e51bbd-4d53-46c4-a399-41739f206ada","system_id":"levelo_inurba_marseille","lat":43.292311,"lon":5.360731,"is_reserved":false,"is_disabled":false,"rental_uris":{"android":"levelo://app?vid=f0e51bbd-4d53-46c4-a399-41739f206ada","ios":"levelo://app?vid=f0e51bbd-4d53-46c4-a399-41739f206ada"},"vehicle_type_id":"4","last_reported":1724512078,"current_range_meters":14400,"station_id":"ce4bhbh2rcd13ifvqeqg","pricing_plan_id":"cebpf4jnsgd1na2vs0mg"},{"bike_id":"15e35baa-ca31-4b35-97bd-1c1eac013c6c","system_id":"levelo_inurba_marseille","lat":43.292311,"lon":5.360731,"is_reserved":false,"is_disabled":false,"rental_uris":{"android":"levelo://app?vid=15e35baa-ca31-4b35-97bd-1c1eac013c6c","ios":"levelo://app?vid=15e35baa-ca31-4b35-97bd-1c1eac013c6c"},"vehicle_type_id":"4","last_reported":1724512078,"current_range_meters":23600,"station_id":"ce4bhbh2rcd13ifvqeqg","pricing_plan_id":"cebpf4jnsgd1na2vs0mg"},{"bike_id":"494af154-e7f9-455d-8899-4d35f1840e20","system_id":"levelo_inurba_marseille","lat":43.292311,"lon":5.360731,"is_reserved":false,"is_disabled":false,"rental_uris":{"android":"levelo://app?vid=494af154-e7f9-455d-8899-4d35f1840e20","ios":"levelo://app?vid=494af154-e7f9-455d-8899-4d35f1840e20"},"vehicle_type_id":"4","last_reported":1724512078,"current_range_meters":0,"station_id":"ce4bhbh2rcd13ifvqeqg","pricing_plan_id":"cebpf4jnsgd1na2vs0mg"},{"bike_id":"b0769f0c-6802-4525-9ccf-2b1b261ca58b","system_id":"levelo_inurba_marseille","lat":43.292311,"lon":5.360731,"is_reserved":false,"is_disabled":false,"rental_uris":{"android":"levelo://app?vid=b0769f0c-6802-4525-9ccf-2b1b261ca58b","ios":"levelo://app?vid=b0769f0c-6802-4525-9ccf-2b1b261ca58b"},"vehicle_type_id":"4","last_reported":1724512078,"current_range_meters":31200,"station_id":"ce4bhbh2rcd13ifvqeqg","pricing_plan_id":"cebpf4jnsgd1na2vs0mg"},{"bike_id":"e9919a79-8041-4346-9b42-59dc322dd97f","system_id":"levelo_inurba_marseille","lat":43.292311,"lon":5.360731,"is_reserved":false,"is_disabled":false,"rental_uris":{"android":"levelo://app?vid=e9919a79-8041-4346-9b42-59dc322dd97f","ios":"levelo://app?vid=e9919a79-8041-4346-9b42-59dc322dd97f"},"vehicle_type_id":"4","last_reported":1724512078,"current_range_meters":21600,"station_id":"ce4bhbh2rcd13ifvqeqg","pricing_plan_id":"cebpf4jnsgd1na2vs0mg"},{"bike_id":"12846181-8b02-41d7-934e-70e3cc9b012d","system_id":"levelo_inurba_marseille","lat":43.293387,"lon":5.378429,"is_reserved":false,"is_disabled":false,"rental_uris":{"android":"levelo://app?vid=12846181-8b02-41d7-934e-70e3cc9b012d","ios":"levelo://app?vid=12846181-8b02-41d7-934e-70e3cc9b012d"},"vehicle_type_id":"4","last_reported":1724512078,"current_range_meters":22400,"station_id":"","pricing_plan_id":"cebpf4jnsgd1na2vs0mg"},{"bike_id":"b20c7712-b1b8-4f3b-bd9b-c568718eb72e","system_id":"levelo_inurba_marseille","lat":43.292311,"lon":5.360731,"is_reserved":false,"is_disabled":false,"rental_uris":{"android":"levelo://app?vid=b20c7712-b1b8-4f3b-bd9b-c568718eb72e","ios":"levelo://app?vid=b20c7712-b1b8-4f3b-bd9b-c568718eb72e"},"vehicle_type_id":"4","last_reported":1724512078,"current_range_meters":28000,"station_id":"ce4bhbh2rcd13ifvqeqg","pricing_plan_id":"cebpf4jnsgd1na2vs0mg"},{"bike_id":"ce49daa7-87e4-4749-85e7-6dab91519271","system_id":"levelo_inurba_marseille","lat":43.292311,"lon":5.360731,"is_reserved":false,"is_disabled":false,"rental_uris":{"android":"levelo://app?vid=ce49daa7-87e4-4749-85e7-6dab91519271","ios":"levelo://app?vid=ce49daa7-87e4-4749-85e7-6dab91519271"},"vehicle_type_id":"4","last_reported":1724512078,"current_range_meters":26000,"station_id":"ce4bhbh2rcd13ifvqeqg","pricing_plan_id":"cebpf4jnsgd1na2vs0mg"},{"bike_id":"03f4f993-f0c1-4617-983b-d60707a21110","system_id":"levelo_inurba_marseille","lat":43.291675,"lon":5.371583,"is_reserved":false,"is_disabled":false,"rental_uris":{"android":"levelo://app?vid=03f4f993-f0c1-4617-983b-d60707a21110","ios":"levelo://app?vid=03f4f993-f0c1-4617-983b-d60707a21110"},"vehicle_type_id":"4","last_reported":1724512078,"current_range_meters":0,"station_id":"ce4bha92rcd13ifvqeh0","pricing_plan_id":"cebpf4jnsgd1na2vs0mg"},{"bike_id":"2c1e18b2-9dfc-449e-b318-60599fec20b2","system_id":"levelo_inurba_marseille","lat":43.292045,"lon":5.357959,"is_reserved":false,"is_disabled":false,"rental_uris":{"android":"levelo://app?vid=2c1e18b2-9dfc-449e-b318-60599fec20b2","ios":"levelo://app?vid=2c1e18b2-9dfc-449e-b318-60599fec20b2"},"vehicle_type_id":"4","last_reported":1724512078,"current_range_meters":0,"station_id":"","pricing_plan_id":"cebpf4jnsgd1na2vs0mg"},{"bike_id":"435ec530-89f9-476b-85e5-b374d1cff0b0","system_id":"levelo_inurba_marseille","lat":43.309038,"lon":5.396546,"is_reserved":false,"is_disabled":false,"rental_uris":{"android":"levelo://app?vid=435ec530-89f9-476b-85e5-b374d1cff0b0","ios":"levelo://app?vid=435ec530-89f9-476b-85e5-b374d1cff0b0"},"vehicle_type_id":"4","last_reported":1724512078,"current_range_meters":7600,"station_id":"ce4bh012rcd13ifvqcv0","pricing_plan_id":"cebpf4jnsgd1na2vs0mg"},{"bike_id":"403296dd-bdb4-40a9-babe-fcafc1f8527f","system_id":"levelo_inurba_marseille","lat":43.30872,"lon":5.39632,"is_reserved":false,"is_disabled":false,"rental_uris":{"android":"levelo://app?vid=403296dd-bdb4-40a9-babe-fcafc1f8527f","ios":"levelo://app?vid=403296dd-bdb4-40a9-babe-fcafc1f8527f"},"vehicle_type_id":"4","last_reported":1724512078,"current_range_meters":6000,"station_id":"ce4bh012rcd13ifvqcv0","pricing_plan_id":"cebpf4jnsgd1na2vs0mg"},{"bike_id":"ff262e28-f510-4d21-8a37-4e8767e4b3f6","system_id":"levelo_inurba_marseille","lat":43.30889,"lon":5.39641,"is_reserved":false,"is_disabled":false,"rental_uris":{"android":"levelo://app?vid=ff262e28-f510-4d21-8a37-4e8767e4b3f6","ios":"levelo://app?vid=ff262e28-f510-4d21-8a37-4e8767e4b3f6"},"vehicle_type_id":"4","last_reported":1724512078,"current_range_meters":0,"station_id":"ce4bh012rcd13ifvqcv0","pricing_plan_id":"cebpf4jnsgd1na2vs0mg"},{"bike_id":"a42419c7-0eab-4982-9db5-dad54b18f1ff","system_id":"levelo_inurba_marseille","lat":43.30892,"lon":5.396418,"is_reserved":false,"is_disabled":false,"rental_uris":{"android":"levelo://app?vid=a42419c7-0eab-4982-9db5-dad54b18f1ff","ios":"levelo://app?vid=a42419c7-0eab-4982-9db5-dad54b18f1ff"},"vehicle_type_id":"4","last_reported":1724512078,"current_range_meters":19600,"station_id":"ce4bh012rcd13ifvqcv0","pricing_plan_id":"cebpf4jnsgd1na2vs0mg"},{"bike_id":"52fee803-692d-4234-a3cc-9dec9f963d64","system_id":"levelo_inurba_marseille","lat":43.309047,"lon":5.396551,"is_reserved":false,"is_disabled":false,"rental_uris":{"android":"levelo://app?vid=52fee803-692d-4234-a3cc-9dec9f963d64","ios":"levelo://app?vid=52fee803-692d-4234-a3cc-9dec9f963d64"},"vehicle_type_id":"4","last_reported":1724512078,"current_range_meters":29600,"station_id":"ce4bh012rcd13ifvqcv0","pricing_plan_id":"cebpf4jnsgd1na2vs0mg"},{"bike_id":"3f5679ef-c4d2-4e0f-a238-f2c19cdd9031","system_id":"levelo_inurba_marseille","lat":43.313291,"lon":5.396838,"is_reserved":false,"is_disabled":false,"rental_uris":{"android":"levelo://app?vid=3f5679ef-c4d2-4e0f-a238-f2c19cdd9031","ios":"levelo://app?vid=3f5679ef-c4d2-4e0f-a238-f2c19cdd9031"},"vehicle_type_id":"4","last_reported":1724512078,"current_range_meters":2800,"station_id":"ce4bgvp2rcd13ifvqcu0","pricing_plan_id":"cebpf4jnsgd1na2vs0mg"},{"bike_id":"099e0bf7-6ff2-4ce8-923f-e8f753b7aa58","system_id":"levelo_inurba_marseille","lat":43.292005,"lon":5.357875,"is_reserved":false,"is_disabled":false,"rental_uris":{"android":"levelo://app?vid=099e0bf7-6ff2-4ce8-923f-e8f753b7aa58","ios":"levelo://app?vid=099e0bf7-6ff2-4ce8-923f-e8f753b7aa58"},"vehicle_type_id":"4","last_reported":1724512078,"current_range_meters":27600,"station_id":"ce4bhb12rcd13ifvqel0","pricing_plan_id":"cebpf4jnsgd1na2vs0mg"},{"bike_id":"63f632b7-5c3a-49a7-b9dc-30dea4ff0cf8","system_id":"levelo_inurba_marseille","lat":43.2919,"lon":5.357947,"is_reserved":false,"is_disabled":false,"rental_uris":{"android":"levelo://app?vid=63f632b7-5c3a-49a7-b9dc-30dea4ff0cf8","ios":"levelo://app?vid=63f632b7-5c3a-49a7-b9dc-30dea4ff0cf8"},"vehicle_type_id":"4","last_reported":1724512078,"current_range_meters":1200,"station_id":"ce4bhb12rcd13ifvqel0","pricing_plan_id":"cebpf4jnsgd1na2vs0mg"},{"bike_id":"aa1a102c-4171-4c31-9c63-db1d79a61dde","system_id":"levelo_inurba_marseille","lat":43.29186,"lon":5.35794,"is_reserved":false,"is_disabled":false,"rental_uris":{"android":"levelo://app?vid=aa1a102c-4171-4c31-9c63-db1d79a61dde","ios":"levelo://app?vid=aa1a102c-4171-4c31-9c63-db1d79a61dde"},"vehicle_type_id":"4","last_reported":1724512078,"current_range_meters":30800,"station_id":"ce4bhb12rcd13ifvqel0","pricing_plan_id":"cebpf4jnsgd1na2vs0mg"},{"bike_id":"01af7f47-cd22-4964-9bb1-151400c6d420","system_id":"levelo_inurba_marseille","lat":43.29529,"lon":5.385581,"is_reserved":false,"is_disabled":false,"rental_uris":{"android":"levelo://app?vid=01af7f47-cd22-4964-9bb1-151400c6d420","ios":"levelo://app?vid=01af7f47-cd22-4964-9bb1-151400c6d420"},"vehicle_type_id":"4","last_reported":1724512078,"current_range_meters":10800,"station_id":"ce4bgih2rcd13ifvqba0","pricing_plan_id":"cebpf4jnsgd1na2vs0mg"},{"bike_id":"f1050197-cbb7-42e9-970e-1acf0e161bbf","system_id":"levelo_inurba_marseille","lat":43.29529,"lon":5.385581,"is_reserved":false,"is_disabled":false,"rental_uris":{"android":"levelo://app?vid=f1050197-cbb7-42e9-970e-1acf0e161bbf","ios":"levelo://app?vid=f1050197-cbb7-42e9-970e-1acf0e161bbf"},"vehicle_type_id":"4","last_reported":1724512078,"current_range_meters":3200,"station_id":"ce4bgih2rcd13ifvqba0","pricing_plan_id":"cebpf4jnsgd1na2vs0mg"},{"bike_id":"0e0e4104-006b-4d05-ba4f-155726901952","system_id":"levelo_inurba_marseille","lat":43.290779,"lon":5.371482,"is_reserved":false,"is_disabled":false,"rental_uris":{"android":"levelo://app?vid=0e0e4104-006b-4d05-ba4f-155726901952","ios":"levelo://app?vid=0e0e4104-006b-4d05-ba4f-155726901952"},"vehicle_type_id":"4","last_reported":1724512078,"current_range_meters":10800,"station_id":"ce4bh5p2rcd13ifvqe4g","pricing_plan_id":"cebpf4jnsgd1na2vs0mg"},{"bike_id":"77ba4754-8d9f-4d00-8501-ffeb97fdebd8","system_id":"levelo_inurba_marseille","lat":43.290692,"lon":5.371638,"is_reserved":false,"is_disabled":false,"rental_uris":{"android":"levelo://app?vid=77ba4754-8d9f-4d00-8501-ffeb97fdebd8","ios":"levelo://app?vid=77ba4754-8d9f-4d00-8501-ffeb97fdebd8"},"vehicle_type_id":"4","last_reported":1724512078,"current_range_meters":0,"station_id":"ce4bh5p2rcd13ifvqe4g","pricing_plan_id":"cebpf4jnsgd1na2vs0mg"},{"bike_id":"bb70e9b4-f26f-458e-8d01-a1160b8b7149","system_id":"levelo_inurba_marseille","lat":43.290779,"lon":5.371482,"is_reserved":false,"is_disabled":false,"rental_uris":{"android":"levelo://app?vid=bb70e9b4-f26f-458e-8d01-a1160b8b7149","ios":"levelo://app?vid=bb70e9b4-f26f-458e-8d01-a1160b8b7149"},"vehicle_type_id":"4","last_reported":1724512078,"current_range_meters":0,"station_id":"ce4bh5p2rcd13ifvqe4g","pricing_plan_id":"cebpf4jnsgd1na2vs0mg"},{"bike_id":"0251c342-d95a-49cd-900e-e5671a65315e","system_id":"levelo_inurba_marseille","lat":43.31128,"lon":5.398129,"is_reserved":false,"is_disabled":false,"rental_uris":{"android":"levelo://app?vid=0251c342-d95a-49cd-900e-e5671a65315e","ios":"levelo://app?vid=0251c342-d95a-49cd-900e-e5671a65315e"},"vehicle_type_id":"4","last_reported":1724512078,"current_range_meters":17600,"station_id":"","pricing_plan_id":"cebpf4jnsgd1na2vs0mg"},{"bike_id":"d283fa1a-41c5-4530-b690-4c4b6c015f08","system_id":"levelo_inurba_marseille","lat":43.302008,"lon":5.394694,"is_reserved":false,"is_disabled":false,"rental_uris":{"android":"levelo://app?vid=d283fa1a-41c5-4530-b690-4c4b6c015f08","ios":"levelo://app?vid=d283fa1a-41c5-4530-b690-4c4b6c015f08"},"vehicle_type_id":"4","last_reported":1724512078,"current_range_meters":6800,"station_id":"ce4bh0p2rcd13ifvqd70","pricing_plan_id":"cebpf4jnsgd1na2vs0mg"},{"bike_id":"ed76bcd0-9e9d-4c9d-b91a-a58d0f968f54","system_id":"levelo_inurba_marseille","lat":43.290631,"lon":5.359244,"is_reserved":false,"is_disabled":false,"rental_uris":{"android":"levelo://app?vid=ed76bcd0-9e9d-4c9d-b91a-a58d0f968f54","ios":"levelo://app?vid=ed76bcd0-9e9d-4c9d-b91a-a58d0f968f54"},"vehicle_type_id":"4","last_reported":1724512078,"current_range_meters":10000,"station_id":"ce4bha92rcd13ifvqeg0","pricing_plan_id":"cebpf4jnsgd1na2vs0mg"},{"bike_id":"6c6cac68-678b-4b22-8c23-7443db743584","system_id":"levelo_inurba_marseille","lat":43.290624,"lon":5.359245,"is_reserved":false,"is_disabled":false,"rental_uris":{"android":"levelo://app?vid=6c6cac68-678b-4b22-8c23-7443db743584","ios":"levelo://app?vid=6c6cac68-678b-4b22-8c23-7443db743584"},"vehicle_type_id":"4","last_reported":1724512078,"current_range_meters":12400,"station_id":"ce4bha92rcd13ifvqeg0","pricing_plan_id":"cebpf4jnsgd1na2vs0mg"},{"bike_id":"7c56328e-b437-4779-bdf8-82317e12b050","system_id":"levelo_inurba_marseille","lat":43.29046,"lon":5.3592,"is_reserved":false,"is_disabled":false,"rental_uris":{"android":"levelo://app?vid=7c56328e-b437-4779-bdf8-82317e12b050","ios":"levelo://app?vid=7c56328e-b437-4779-bdf8-82317e12b050"},"vehicle_type_id":"4","last_reported":1724512078,"current_range_meters":21600,"station_id":"ce4bha92rcd13ifvqeg0","pricing_plan_id":"cebpf4jnsgd1na2vs0mg"},{"bike_id":"c3c46595-0de1-4ffa-ae9a-43e4c97b9d9b","system_id":"levelo_inurba_marseille","lat":43.290624,"lon":5.359245,"is_reserved":false,"is_disabled":false,"rental_uris":{"android":"levelo://app?vid=c3c46595-0de1-4ffa-ae9a-43e4c97b9d9b","ios":"levelo://app?vid=c3c46595-0de1-4ffa-ae9a-43e4c97b9d9b"},"vehicle_type_id":"4","last_reported":1724512078,"current_range_meters":16400,"station_id":"ce4bha92rcd13ifvqeg0","pricing_plan_id":"cebpf4jnsgd1na2vs0mg"},{"bike_id":"2a6d441c-89ea-4200-9455-1a5467884fbc","system_id":"levelo_inurba_marseille","lat":43.290631,"lon":5.359244,"is_reserved":false,"is_disabled":false,"rental_uris":{"android":"levelo://app?vid=2a6d441c-89ea-4200-9455-1a5467884fbc","ios":"levelo://app?vid=2a6d441c-89ea-4200-9455-1a5467884fbc"},"vehicle_type_id":"4","last_reported":1724512078,"current_range_meters":18000,"station_id":"ce4bha92rcd13ifvqeg0","pricing_plan_id":"cebpf4jnsgd1na2vs0mg"},{"bike_id":"896e001e-778b-4f43-ab53-1e04a0058e79","system_id":"levelo_inurba_marseille","lat":43.290631,"lon":5.359244,"is_reserved":false,"is_disabled":false,"rental_uris":{"android":"levelo://app?vid=896e001e-778b-4f43-ab53-1e04a0058e79","ios":"levelo://app?vid=896e001e-778b-4f43-ab53-1e04a0058e79"},"vehicle_type_id":"4","last_reported":1724512078,"current_range_meters":5600,"station_id":"ce4bha92rcd13ifvqeg0","pricing_plan_id":"cebpf4jnsgd1na2vs0mg"},{"bike_id":"99355ae1-a3e0-4efc-ab54-ff689ea5ff05","system_id":"levelo_inurba_marseille","lat":43.290624,"lon":5.359245,"is_reserved":false,"is_disabled":false,"rental_uris":{"android":"levelo://app?vid=99355ae1-a3e0-4efc-ab54-ff689ea5ff05","ios":"levelo://app?vid=99355ae1-a3e0-4efc-ab54-ff689ea5ff05"},"vehicle_type_id":"4","last_reported":1724512078,"current_range_meters":8000,"station_id":"ce4bha92rcd13ifvqeg0","pricing_plan_id":"cebpf4jnsgd1na2vs0mg"},{"bike_id":"85f609ef-bd31-48ab-9ca8-a29ddeacf876","system_id":"levelo_inurba_marseille","lat":43.290631,"lon":5.359244,"is_reserved":false,"is_disabled":false,"rental_uris":{"android":"levelo://app?vid=85f609ef-bd31-48ab-9ca8-a29ddeacf876","ios":"levelo://app?vid=85f609ef-bd31-48ab-9ca8-a29ddeacf876"},"vehicle_type_id":"4","last_reported":1724512078,"current_range_meters":31600,"station_id":"ce4bha92rcd13ifvqeg0","pricing_plan_id":"cebpf4jnsgd1na2vs0mg"},{"bike_id":"f5a8d40a-10bf-4a51-8c6b-f110d471305f","system_id":"levelo_inurba_marseille","lat":43.290624,"lon":5.359245,"is_reserved":false,"is_disabled":false,"rental_uris":{"android":"levelo://app?vid=f5a8d40a-10bf-4a51-8c6b-f110d471305f","ios":"levelo://app?vid=f5a8d40a-10bf-4a51-8c6b-f110d471305f"},"vehicle_type_id":"4","last_reported":1724512078,"current_range_meters":16800,"station_id":"ce4bha92rcd13ifvqeg0","pricing_plan_id":"cebpf4jnsgd1na2vs0mg"},{"bike_id":"fac262e1-08db-4592-be9b-9d04be61cf39","system_id":"levelo_inurba_marseille","lat":43.290631,"lon":5.359244,"is_reserved":false,"is_disabled":false,"rental_uris":{"android":"levelo://app?vid=fac262e1-08db-4592-be9b-9d04be61cf39","ios":"levelo://app?vid=fac262e1-08db-4592-be9b-9d04be61cf39"},"vehicle_type_id":"4","last_reported":1724512078,"current_range_meters":16000,"station_id":"ce4bha92rcd13ifvqeg0","pricing_plan_id":"cebpf4jnsgd1na2vs0mg"},{"bike_id":"9d6f69fd-2de7-4e81-8ee2-2910922392f8","system_id":"levelo_inurba_marseille","lat":43.290624,"lon":5.359245,"is_reserved":false,"is_disabled":false,"rental_uris":{"android":"levelo://app?vid=9d6f69fd-2de7-4e81-8ee2-2910922392f8","ios":"levelo://app?vid=9d6f69fd-2de7-4e81-8ee2-2910922392f8"},"vehicle_type_id":"4","last_reported":1724512078,"current_range_meters":4000,"station_id":"ce4bha92rcd13ifvqeg0","pricing_plan_id":"cebpf4jnsgd1na2vs0mg"},{"bike_id":"c7f56be3-4e7a-40eb-a333-eb4040416ce2","system_id":"levelo_inurba_marseille","lat":43.290624,"lon":5.359245,"is_reserved":false,"is_disabled":false,"rental_uris":{"android":"levelo://app?vid=c7f56be3-4e7a-40eb-a333-eb4040416ce2","ios":"levelo://app?vid=c7f56be3-4e7a-40eb-a333-eb4040416ce2"},"vehicle_type_id":"4","last_reported":1724512078,"current_range_meters":31200,"station_id":"ce4bha92rcd13ifvqeg0","pricing_plan_id":"cebpf4jnsgd1na2vs0mg"},{"bike_id":"9b038d9e-5e44-45b3-99ee-8e72e8a81c3f","system_id":"levelo_inurba_marseille","lat":43.294153,"lon":5.386305,"is_reserved":false,"is_disabled":false,"rental_uris":{"android":"levelo://app?vid=9b038d9e-5e44-45b3-99ee-8e72e8a81c3f","ios":"levelo://app?vid=9b038d9e-5e44-45b3-99ee-8e72e8a81c3f"},"vehicle_type_id":"4","last_reported":1724512078,"current_range_meters":17200,"station_id":"ce4bh2h2rcd13ifvqdh0","pricing_plan_id":"cebpf4jnsgd1na2vs0mg"},{"bike_id":"7f33b765-5a6d-42f9-8576-38ad4691c70a","system_id":"levelo_inurba_marseille","lat":43.290631,"lon":5.359244,"is_reserved":false,"is_disabled":false,"rental_uris":{"android":"levelo://app?vid=7f33b765-5a6d-42f9-8576-38ad4691c70a","ios":"levelo://app?vid=7f33b765-5a6d-42f9-8576-38ad4691c70a"},"vehicle_type_id":"4","last_reported":1724512078,"current_range_meters":25200,"station_id":"ce4bha92rcd13ifvqeg0","pricing_plan_id":"cebpf4jnsgd1na2vs0mg"},{"bike_id":"2feba047-82ce-4493-afab-285c2a8562d0","system_id":"levelo_inurba_marseille","lat":43.294162,"lon":5.386292,"is_reserved":false,"is_disabled":false,"rental_uris":{"android":"levelo://app?vid=2feba047-82ce-4493-afab-285c2a8562d0","ios":"levelo://app?vid=2feba047-82ce-4493-afab-285c2a8562d0"},"vehicle_type_id":"4","last_reported":1724512078,"current_range_meters":7200,"station_id":"ce4bh2h2rcd13ifvqdh0","pricing_plan_id":"cebpf4jnsgd1na2vs0mg"},{"bike_id":"f1655e05-2793-4a62-89e0-9e90ae21d47e","system_id":"levelo_inurba_marseille","lat":43.294162,"lon":5.386292,"is_reserved":false,"is_disabled":false,"rental_uris":{"android":"levelo://app?vid=f1655e05-2793-4a62-89e0-9e90ae21d47e","ios":"levelo://app?vid=f1655e05-2793-4a62-89e0-9e90ae21d47e"},"vehicle_type_id":"4","last_reported":1724512078,"current_range_meters":0,"station_id":"ce4bh2h2rcd13ifvqdh0","pricing_plan_id":"cebpf4jnsgd1na2vs0mg"},{"bike_id":"1212bfe2-a7ee-4926-938f-76d847183330","system_id":"levelo_inurba_marseille","lat":43.289184,"lon":5.366408,"is_reserved":false,"is_disabled":false,"rental_uris":{"android":"levelo://app?vid=1212bfe2-a7ee-4926-938f-76d847183330","ios":"levelo://app?vid=1212bfe2-a7ee-4926-938f-76d847183330"},"vehicle_type_id":"4","last_reported":1724512078,"current_range_meters":9200,"station_id":"ce4bhap2rcd13ifvqek0","pricing_plan_id":"cebpf4jnsgd1na2vs0mg"},{"bike_id":"aaafa1ad-f108-4068-b327-6a61e7fd522b","system_id":"levelo_inurba_marseille","lat":43.28942,"lon":5.36637,"is_reserved":false,"is_disabled":false,"rental_uris":{"android":"levelo://app?vid=aaafa1ad-f108-4068-b327-6a61e7fd522b","ios":"levelo://app?vid=aaafa1ad-f108-4068-b327-6a61e7fd522b"},"vehicle_type_id":"4","last_reported":1724512078,"current_range_meters":24400,"station_id":"ce4bhap2rcd13ifvqek0","pricing_plan_id":"cebpf4jnsgd1na2vs0mg"},{"bike_id":"b2f591c0-8553-402d-a51d-9d3bb4c46316","system_id":"levelo_inurba_marseille","lat":43.2894,"lon":5.36642,"is_reserved":false,"is_disabled":false,"rental_uris":{"android":"levelo://app?vid=b2f591c0-8553-402d-a51d-9d3bb4c46316","ios":"levelo://app?vid=b2f591c0-8553-402d-a51d-9d3bb4c46316"},"vehicle_type_id":"4","last_reported":1724512078,"current_range_meters":24400,"station_id":"ce4bhap2rcd13ifvqek0","pricing_plan_id":"cebpf4jnsgd1na2vs0mg"},{"bike_id":"e5b66dec-e262-4f08-82ea-a74635ca7087","system_id":"levelo_inurba_marseille","lat":43.28938,"lon":5.36641,"is_reserved":false,"is_disabled":false,"rental_uris":{"android":"levelo://app?vid=e5b66dec-e262-4f08-82ea-a74635ca7087","ios":"levelo://app?vid=e5b66dec-e262-4f08-82ea-a74635ca7087"},"vehicle_type_id":"4","last_reported":1724512078,"current_range_meters":20400,"station_id":"ce4bhap2rcd13ifvqek0","pricing_plan_id":"cebpf4jnsgd1na2vs0mg"},{"bike_id":"7938ff1f-0161-447a-aa23-452671e3542d","system_id":"levelo_inurba_marseille","lat":43.304274,"lon":5.397513,"is_reserved":false,"is_disabled":false,"rental_uris":{"android":"levelo://app?vid=7938ff1f-0161-447a-aa23-452671e3542d","ios":"levelo://app?vid=7938ff1f-0161-447a-aa23-452671e3542d"},"vehicle_type_id":"4","last_reported":1724512078,"current_range_meters":29200,"station_id":"ce4bh092rcd13ifvqd20","pricing_plan_id":"cebpf4jnsgd1na2vs0mg"},{"bike_id":"ac92aa7e-56d5-4583-87c7-821ed855afc2","system_id":"levelo_inurba_marseille","lat":43.292642,"lon":5.384254,"is_reserved":false,"is_disabled":false,"rental_uris":{"android":"levelo://app?vid=ac92aa7e-56d5-4583-87c7-821ed855afc2","ios":"levelo://app?vid=ac92aa7e-56d5-4583-87c7-821ed855afc2"},"vehicle_type_id":"4","last_reported":1724512078,"current_range_meters":400,"station_id":"ce4bh692rcd13ifvqea0","pricing_plan_id":"cebpf4jnsgd1na2vs0mg"},{"bike_id":"cc08704a-71b3-4573-b60f-f91ee043f367","system_id":"levelo_inurba_marseille","lat":43.29263,"lon":5.3845,"is_reserved":false,"is_disabled":false,"rental_uris":{"android":"levelo://app?vid=cc08704a-71b3-4573-b60f-f91ee043f367","ios":"levelo://app?vid=cc08704a-71b3-4573-b60f-f91ee043f367"},"vehicle_type_id":"4","last_reported":1724512078,"current_range_meters":0,"station_id":"ce4bh692rcd13ifvqea0","pricing_plan_id":"cebpf4jnsgd1na2vs0mg"},{"bike_id":"6aa4e4ee-2072-4c39-8618-63a9c600680e","system_id":"levelo_inurba_marseille","lat":43.29006,"lon":5.3562,"is_reserved":false,"is_disabled":false,"rental_uris":{"android":"levelo://app?vid=6aa4e4ee-2072-4c39-8618-63a9c600680e","ios":"levelo://app?vid=6aa4e4ee-2072-4c39-8618-63a9c600680e"},"vehicle_type_id":"4","last_reported":1724512078,"current_range_meters":22000,"station_id":"ce4bhb92rcd13ifvqen0","pricing_plan_id":"cebpf4jnsgd1na2vs0mg"},{"bike_id":"5af74b7d-b582-4e44-a82e-cf38b25ba5c1","system_id":"levelo_inurba_marseille","lat":43.290104,"lon":5.356111,"is_reserved":false,"is_disabled":false,"rental_uris":{"android":"levelo://app?vid=5af74b7d-b582-4e44-a82e-cf38b25ba5c1","ios":"levelo://app?vid=5af74b7d-b582-4e44-a82e-cf38b25ba5c1"},"vehicle_type_id":"4","last_reported":1724512078,"current_range_meters":6800,"station_id":"ce4bhb92rcd13ifvqen0","pricing_plan_id":"cebpf4jnsgd1na2vs0mg"},{"bike_id":"94c8019c-2f1d-4912-9de7-a84bd8c87712","system_id":"levelo_inurba_marseille","lat":43.29007,"lon":5.35607,"is_reserved":false,"is_disabled":false,"rental_uris":{"android":"levelo://app?vid=94c8019c-2f1d-4912-9de7-a84bd8c87712","ios":"levelo://app?vid=94c8019c-2f1d-4912-9de7-a84bd8c87712"},"vehicle_type_id":"4","last_reported":1724512078,"current_range_meters":29600,"station_id":"ce4bhb92rcd13ifvqen0","pricing_plan_id":"cebpf4jnsgd1na2vs0mg"},{"bike_id":"56450ee8-3f8b-4a6c-940b-e5c2d3fbec61","system_id":"levelo_inurba_marseille","lat":43.290033,"lon":5.356167,"is_reserved":false,"is_disabled":false,"rental_uris":{"android":"levelo://app?vid=56450ee8-3f8b-4a6c-940b-e5c2d3fbec61","ios":"levelo://app?vid=56450ee8-3f8b-4a6c-940b-e5c2d3fbec61"},"vehicle_type_id":"4","last_reported":1724512078,"current_range_meters":31200,"station_id":"ce4bhb92rcd13ifvqen0","pricing_plan_id":"cebpf4jnsgd1na2vs0mg"},{"bike_id":"b71fbc15-e59e-43e0-ae68-3b0dc39e2963","system_id":"levelo_inurba_marseille","lat":43.290103,"lon":5.356114,"is_reserved":false,"is_disabled":false,"rental_uris":{"android":"levelo://app?vid=b71fbc15-e59e-43e0-ae68-3b0dc39e2963","ios":"levelo://app?vid=b71fbc15-e59e-43e0-ae68-3b0dc39e2963"},"vehicle_type_id":"4","last_reported":1724512078,"current_range_meters":19200,"station_id":"ce4bhb92rcd13ifvqen0","pricing_plan_id":"cebpf4jnsgd1na2vs0mg"},{"bike_id":"ba26b18e-b995-43dc-b8c5-7e977b625f83","system_id":"levelo_inurba_marseille","lat":43.290104,"lon":5.356111,"is_reserved":false,"is_disabled":false,"rental_uris":{"android":"levelo://app?vid=ba26b18e-b995-43dc-b8c5-7e977b625f83","ios":"levelo://app?vid=ba26b18e-b995-43dc-b8c5-7e977b625f83"},"vehicle_type_id":"4","last_reported":1724512078,"current_range_meters":25600,"station_id":"ce4bhb92rcd13ifvqen0","pricing_plan_id":"cebpf4jnsgd1na2vs0mg"},{"bike_id":"3c83ee7c-52af-4be6-aac1-6f0b132cf46d","system_id":"levelo_inurba_marseille","lat":43.290104,"lon":5.356111,"is_reserved":false,"is_disabled":false,"rental_uris":{"android":"levelo://app?vid=3c83ee7c-52af-4be6-aac1-6f0b132cf46d","ios":"levelo://app?vid=3c83ee7c-52af-4be6-aac1-6f0b132cf46d"},"vehicle_type_id":"4","last_reported":1724512078,"current_range_meters":16800,"station_id":"ce4bhb92rcd13ifvqen0","pricing_plan_id":"cebpf4jnsgd1na2vs0mg"},{"bike_id":"6e517f4d-a091-40ff-a3df-4553009d95d3","system_id":"levelo_inurba_marseille","lat":43.290995,"lon":5.381361,"is_reserved":false,"is_disabled":false,"rental_uris":{"android":"levelo://app?vid=6e517f4d-a091-40ff-a3df-4553009d95d3","ios":"levelo://app?vid=6e517f4d-a091-40ff-a3df-4553009d95d3"},"vehicle_type_id":"4","last_reported":1724512078,"current_range_meters":0,"station_id":"ce4bh512rcd13ifvqe2g","pricing_plan_id":"cebpf4jnsgd1na2vs0mg"},{"bike_id":"088d257d-f279-4723-9f55-3bf643a230dd","system_id":"levelo_inurba_marseille","lat":43.290995,"lon":5.381361,"is_reserved":false,"is_disabled":false,"rental_uris":{"android":"levelo://app?vid=088d257d-f279-4723-9f55-3bf643a230dd","ios":"levelo://app?vid=088d257d-f279-4723-9f55-3bf643a230dd"},"vehicle_type_id":"4","last_reported":1724512078,"current_range_meters":13200,"station_id":"ce4bh512rcd13ifvqe2g","pricing_plan_id":"cebpf4jnsgd1na2vs0mg"},{"bike_id":"cbad5ebc-2519-4be8-9dc7-bfc4b3fdefe7","system_id":"levelo_inurba_marseille","lat":43.297807,"lon":5.393533,"is_reserved":false,"is_disabled":false,"rental_uris":{"android":"levelo://app?vid=cbad5ebc-2519-4be8-9dc7-bfc4b3fdefe7","ios":"levelo://app?vid=cbad5ebc-2519-4be8-9dc7-bfc4b3fdefe7"},"vehicle_type_id":"4","last_reported":1724512078,"current_range_meters":14000,"station_id":"chh1huq6cuj3fo74tm60","pricing_plan_id":"cebpf4jnsgd1na2vs0mg"},{"bike_id":"72889a8e-cf27-4d36-a862-916e3f07aa70","system_id":"levelo_inurba_marseille","lat":43.28856,"lon":5.358371,"is_reserved":false,"is_disabled":false,"rental_uris":{"android":"levelo://app?vid=72889a8e-cf27-4d36-a862-916e3f07aa70","ios":"levelo://app?vid=72889a8e-cf27-4d36-a862-916e3f07aa70"},"vehicle_type_id":"4","last_reported":1724512078,"current_range_meters":8800,"station_id":"ce4bhb12rcd13ifvqem0","pricing_plan_id":"cebpf4jnsgd1na2vs0mg"},{"bike_id":"7de307cf-a195-4ae5-8acf-c0203469878d","system_id":"levelo_inurba_marseille","lat":43.28852,"lon":5.35847,"is_reserved":false,"is_disabled":false,"rental_uris":{"android":"levelo://app?vid=7de307cf-a195-4ae5-8acf-c0203469878d","ios":"levelo://app?vid=7de307cf-a195-4ae5-8acf-c0203469878d"},"vehicle_type_id":"4","last_reported":1724512078,"current_range_meters":0,"station_id":"ce4bhb12rcd13ifvqem0","pricing_plan_id":"cebpf4jnsgd1na2vs0mg"},{"bike_id":"135837c8-4c85-46d4-a337-531a2f918049","system_id":"levelo_inurba_marseille","lat":43.286591,"lon":5.363346,"is_reserved":false,"is_disabled":false,"rental_uris":{"android":"levelo://app?vid=135837c8-4c85-46d4-a337-531a2f918049","ios":"levelo://app?vid=135837c8-4c85-46d4-a337-531a2f918049"},"vehicle_type_id":"4","last_reported":1724512078,"current_range_meters":27200,"station_id":"ce4bhah2rcd13ifvqej0","pricing_plan_id":"cebpf4jnsgd1na2vs0mg"},{"bike_id":"f761bdbb-2023-4943-be92-974f1cbfa5d1","system_id":"levelo_inurba_marseille","lat":43.312609,"lon":5.401662,"is_reserved":false,"is_disabled":false,"rental_uris":{"android":"levelo://app?vid=f761bdbb-2023-4943-be92-974f1cbfa5d1","ios":"levelo://app?vid=f761bdbb-2023-4943-be92-974f1cbfa5d1"},"vehicle_type_id":"4","last_reported":1724512078,"current_range_meters":26400,"station_id":"ce4bh092rcd13ifvqd30","pricing_plan_id":"cebpf4jnsgd1na2vs0mg"},{"bike_id":"c594b3e3-1ba6-43b9-a1c1-be8533666e55","system_id":"levelo_inurba_marseille","lat":43.33746,"lon":5.37435,"is_reserved":false,"is_disabled":false,"rental_uris":{"android":"levelo://app?vid=c594b3e3-1ba6-43b9-a1c1-be8533666e55","ios":"levelo://app?vid=c594b3e3-1ba6-43b9-a1c1-be8533666e55"},"vehicle_type_id":"4","last_reported":1724512078,"current_range_meters":26800,"station_id":"","pricing_plan_id":"cebpf4jnsgd1na2vs0mg"},{"bike_id":"ee8baab1-f681-4139-a738-aea3d4e5b458","system_id":"levelo_inurba_marseille","lat":43.33753,"lon":5.37455,"is_reserved":false,"is_disabled":false,"rental_uris":{"android":"levelo://app?vid=ee8baab1-f681-4139-a738-aea3d4e5b458","ios":"levelo://app?vid=ee8baab1-f681-4139-a738-aea3d4e5b458"},"vehicle_type_id":"4","last_reported":1724512078,"current_range_meters":29200,"station_id":"","pricing_plan_id":"cebpf4jnsgd1na2vs0mg"},{"bike_id":"761c2366-958b-4374-a6b6-04bce8bdd2d7","system_id":"levelo_inurba_marseille","lat":43.33757,"lon":5.37443,"is_reserved":false,"is_disabled":false,"rental_uris":{"android":"levelo://app?vid=761c2366-958b-4374-a6b6-04bce8bdd2d7","ios":"levelo://app?vid=761c2366-958b-4374-a6b6-04bce8bdd2d7"},"vehicle_type_id":"4","last_reported":1724512078,"current_range_meters":30400,"station_id":"","pricing_plan_id":"cebpf4jnsgd1na2vs0mg"},{"bike_id":"cdc35d34-57e9-43e1-ac36-c0218dd5a9e1","system_id":"levelo_inurba_marseille","lat":43.337509,"lon":5.374824,"is_reserved":false,"is_disabled":false,"rental_uris":{"android":"levelo://app?vid=cdc35d34-57e9-43e1-ac36-c0218dd5a9e1","ios":"levelo://app?vid=cdc35d34-57e9-43e1-ac36-c0218dd5a9e1"},"vehicle_type_id":"4","last_reported":1724512078,"current_range_meters":18000,"station_id":"","pricing_plan_id":"cebpf4jnsgd1na2vs0mg"},{"bike_id":"db399c75-49ad-4419-a288-38737e32025d","system_id":"levelo_inurba_marseille","lat":43.337552,"lon":5.374572,"is_reserved":false,"is_disabled":false,"rental_uris":{"android":"levelo://app?vid=db399c75-49ad-4419-a288-38737e32025d","ios":"levelo://app?vid=db399c75-49ad-4419-a288-38737e32025d"},"vehicle_type_id":"4","last_reported":1724512078,"current_range_meters":28400,"station_id":"","pricing_plan_id":"cebpf4jnsgd1na2vs0mg"},{"bike_id":"a6de0161-1a37-4484-af54-217f3b7611b4","system_id":"levelo_inurba_marseille","lat":43.3375,"lon":5.37493,"is_reserved":false,"is_disabled":false,"rental_uris":{"android":"levelo://app?vid=a6de0161-1a37-4484-af54-217f3b7611b4","ios":"levelo://app?vid=a6de0161-1a37-4484-af54-217f3b7611b4"},"vehicle_type_id":"4","last_reported":1724512078,"current_range_meters":31200,"station_id":"","pricing_plan_id":"cebpf4jnsgd1na2vs0mg"},{"bike_id":"e358a63e-204b-4bf9-a280-6d0c0f57da63","system_id":"levelo_inurba_marseille","lat":43.337621,"lon":5.374623,"is_reserved":false,"is_disabled":false,"rental_uris":{"android":"levelo://app?vid=e358a63e-204b-4bf9-a280-6d0c0f57da63","ios":"levelo://app?vid=e358a63e-204b-4bf9-a280-6d0c0f57da63"},"vehicle_type_id":"4","last_reported":1724512078,"current_range_meters":0,"station_id":"","pricing_plan_id":"cebpf4jnsgd1na2vs0mg"},{"bike_id":"1b635017-1f6d-4ccf-887c-5535d999fc49","system_id":"levelo_inurba_marseille","lat":43.33768,"lon":5.37436,"is_reserved":false,"is_disabled":false,"rental_uris":{"android":"levelo://app?vid=1b635017-1f6d-4ccf-887c-5535d999fc49","ios":"levelo://app?vid=1b635017-1f6d-4ccf-887c-5535d999fc49"},"vehicle_type_id":"4","last_reported":1724512078,"current_range_meters":14400,"station_id":"","pricing_plan_id":"cebpf4jnsgd1na2vs0mg"},{"bike_id":"caa375de-4d46-4161-a2ec-31c5ef3056b7","system_id":"levelo_inurba_marseille","lat":43.28727,"lon":5.36078,"is_reserved":false,"is_disabled":false,"rental_uris":{"android":"levelo://app?vid=caa375de-4d46-4161-a2ec-31c5ef3056b7","ios":"levelo://app?vid=caa375de-4d46-4161-a2ec-31c5ef3056b7"},"vehicle_type_id":"4","last_reported":1724512078,"current_range_meters":16800,"station_id":"cki0cbj6b192h4jlfktg","pricing_plan_id":"cebpf4jnsgd1na2vs0mg"},{"bike_id":"9f65d9b1-8a63-4530-9ab9-1c3225d80409","system_id":"levelo_inurba_marseille","lat":43.28727,"lon":5.36078,"is_reserved":false,"is_disabled":false,"rental_uris":{"android":"levelo://app?vid=9f65d9b1-8a63-4530-9ab9-1c3225d80409","ios":"levelo://app?vid=9f65d9b1-8a63-4530-9ab9-1c3225d80409"},"vehicle_type_id":"4","last_reported":1724512078,"current_range_meters":20800,"station_id":"cki0cbj6b192h4jlfktg","pricing_plan_id":"cebpf4jnsgd1na2vs0mg"},{"bike_id":"b94cfe9c-21b4-46c8-ba03-2d10fa2cca1f","system_id":"levelo_inurba_marseille","lat":43.28727,"lon":5.36078,"is_reserved":false,"is_disabled":false,"rental_uris":{"android":"levelo://app?vid=b94cfe9c-21b4-46c8-ba03-2d10fa2cca1f","ios":"levelo://app?vid=b94cfe9c-21b4-46c8-ba03-2d10fa2cca1f"},"vehicle_type_id":"4","last_reported":1724512078,"current_range_meters":11600,"station_id":"cki0cbj6b192h4jlfktg","pricing_plan_id":"cebpf4jnsgd1na2vs0mg"},{"bike_id":"9dcbaa86-064a-47cf-b56d-06e4d82c36b7","system_id":"levelo_inurba_marseille","lat":43.28722,"lon":5.36083,"is_reserved":false,"is_disabled":false,"rental_uris":{"android":"levelo://app?vid=9dcbaa86-064a-47cf-b56d-06e4d82c36b7","ios":"levelo://app?vid=9dcbaa86-064a-47cf-b56d-06e4d82c36b7"},"vehicle_type_id":"4","last_reported":1724512078,"current_range_meters":400,"station_id":"cki0cbj6b192h4jlfktg","pricing_plan_id":"cebpf4jnsgd1na2vs0mg"},{"bike_id":"6705794a-2210-446f-9aa7-e51ffb28f9d6","system_id":"levelo_inurba_marseille","lat":43.2872,"lon":5.37385,"is_reserved":false,"is_disabled":false,"rental_uris":{"android":"levelo://app?vid=6705794a-2210-446f-9aa7-e51ffb28f9d6","ios":"levelo://app?vid=6705794a-2210-446f-9aa7-e51ffb28f9d6"},"vehicle_type_id":"4","last_reported":1724512078,"current_range_meters":0,"station_id":"ce4bh3p2rcd13ifvqdq0","pricing_plan_id":"cebpf4jnsgd1na2vs0mg"},{"bike_id":"196b6b18-7b81-47ab-a050-2ddfa5a414de","system_id":"levelo_inurba_marseille","lat":43.298681,"lon":5.397225,"is_reserved":false,"is_disabled":false,"rental_uris":{"android":"levelo://app?vid=196b6b18-7b81-47ab-a050-2ddfa5a414de","ios":"levelo://app?vid=196b6b18-7b81-47ab-a050-2ddfa5a414de"},"vehicle_type_id":"4","last_reported":1724512078,"current_range_meters":0,"station_id":"ce4bh0h2rcd13ifvqd50","pricing_plan_id":"cebpf4jnsgd1na2vs0mg"},{"bike_id":"8cb6cec1-d434-4822-9f83-4e1a1e3cd5f0","system_id":"levelo_inurba_marseille","lat":43.286593,"lon":5.363346,"is_reserved":false,"is_disabled":false,"rental_uris":{"android":"levelo://app?vid=8cb6cec1-d434-4822-9f83-4e1a1e3cd5f0","ios":"levelo://app?vid=8cb6cec1-d434-4822-9f83-4e1a1e3cd5f0"},"vehicle_type_id":"4","last_reported":1724512078,"current_range_meters":14800,"station_id":"ce4bhah2rcd13ifvqej0","pricing_plan_id":"cebpf4jnsgd1na2vs0mg"},{"bike_id":"2b237e3c-237d-4ff1-8ab0-3647986cc806","system_id":"levelo_inurba_marseille","lat":43.298681,"lon":5.397225,"is_reserved":false,"is_disabled":false,"rental_uris":{"android":"levelo://app?vid=2b237e3c-237d-4ff1-8ab0-3647986cc806","ios":"levelo://app?vid=2b237e3c-237d-4ff1-8ab0-3647986cc806"},"vehicle_type_id":"4","last_reported":1724512078,"current_range_meters":2000,"station_id":"ce4bh0h2rcd13ifvqd50","pricing_plan_id":"cebpf4jnsgd1na2vs0mg"},{"bike_id":"b7a168b0-87b0-4dc2-af16-8a0de4ed6388","system_id":"levelo_inurba_marseille","lat":43.286593,"lon":5.363346,"is_reserved":false,"is_disabled":false,"rental_uris":{"android":"levelo://app?vid=b7a168b0-87b0-4dc2-af16-8a0de4ed6388","ios":"levelo://app?vid=b7a168b0-87b0-4dc2-af16-8a0de4ed6388"},"vehicle_type_id":"4","last_reported":1724512078,"current_range_meters":31200,"station_id":"ce4bhah2rcd13ifvqej0","pricing_plan_id":"cebpf4jnsgd1na2vs0mg"},{"bike_id":"ac026e7e-3a12-44d6-a3b1-aaedfb38a197","system_id":"levelo_inurba_marseille","lat":43.28654,"lon":5.36348,"is_reserved":false,"is_disabled":false,"rental_uris":{"android":"levelo://app?vid=ac026e7e-3a12-44d6-a3b1-aaedfb38a197","ios":"levelo://app?vid=ac026e7e-3a12-44d6-a3b1-aaedfb38a197"},"vehicle_type_id":"4","last_reported":1724512078,"current_range_meters":23600,"station_id":"ce4bhah2rcd13ifvqej0","pricing_plan_id":"cebpf4jnsgd1na2vs0mg"},{"bike_id":"c9df41a1-5815-4ef8-bf03-b135f0dd36cd","system_id":"levelo_inurba_marseille","lat":43.302759,"lon":5.400793,"is_reserved":false,"is_disabled":false,"rental_uris":{"android":"levelo://app?vid=c9df41a1-5815-4ef8-bf03-b135f0dd36cd","ios":"levelo://app?vid=c9df41a1-5815-4ef8-bf03-b135f0dd36cd"},"vehicle_type_id":"4","last_reported":1724512078,"current_range_meters":30000,"station_id":"ce4bgvh2rcd13ifvqcs0","pricing_plan_id":"cebpf4jnsgd1na2vs0mg"},{"bike_id":"dd1de289-324a-4a5e-806b-175690e165c2","system_id":"levelo_inurba_marseille","lat":43.302759,"lon":5.400793,"is_reserved":false,"is_disabled":false,"rental_uris":{"android":"levelo://app?vid=dd1de289-324a-4a5e-806b-175690e165c2","ios":"levelo://app?vid=dd1de289-324a-4a5e-806b-175690e165c2"},"vehicle_type_id":"4","last_reported":1724512078,"current_range_meters":0,"station_id":"ce4bgvh2rcd13ifvqcs0","pricing_plan_id":"cebpf4jnsgd1na2vs0mg"},{"bike_id":"d6562ee5-33e3-451e-8122-c1a8059080da","system_id":"levelo_inurba_marseille","lat":43.302759,"lon":5.400793,"is_reserved":false,"is_disabled":false,"rental_uris":{"android":"levelo://app?vid=d6562ee5-33e3-451e-8122-c1a8059080da","ios":"levelo://app?vid=d6562ee5-33e3-451e-8122-c1a8059080da"},"vehicle_type_id":"4","last_reported":1724512078,"current_range_meters":13200,"station_id":"ce4bgvh2rcd13ifvqcs0","pricing_plan_id":"cebpf4jnsgd1na2vs0mg"},{"bike_id":"c0dab3bc-abde-4a5c-98d8-ee103740323f","system_id":"levelo_inurba_marseille","lat":43.302759,"lon":5.400793,"is_reserved":false,"is_disabled":false,"rental_uris":{"android":"levelo://app?vid=c0dab3bc-abde-4a5c-98d8-ee103740323f","ios":"levelo://app?vid=c0dab3bc-abde-4a5c-98d8-ee103740323f"},"vehicle_type_id":"4","last_reported":1724512078,"current_range_meters":400,"station_id":"ce4bgvh2rcd13ifvqcs0","pricing_plan_id":"cebpf4jnsgd1na2vs0mg"},{"bike_id":"ed33f8c6-3248-45ab-927b-b6c1b51677a7","system_id":"levelo_inurba_marseille","lat":43.286039,"lon":5.370679,"is_reserved":false,"is_disabled":false,"rental_uris":{"android":"levelo://app?vid=ed33f8c6-3248-45ab-927b-b6c1b51677a7","ios":"levelo://app?vid=ed33f8c6-3248-45ab-927b-b6c1b51677a7"},"vehicle_type_id":"4","last_reported":1724512078,"current_range_meters":15200,"station_id":"ce4bht12rcd13ifvqi60","pricing_plan_id":"cebpf4jnsgd1na2vs0mg"},{"bike_id":"15df5a96-bde0-49a6-bb5a-b1ff55eb1108","system_id":"levelo_inurba_marseille","lat":43.286039,"lon":5.370679,"is_reserved":false,"is_disabled":false,"rental_uris":{"android":"levelo://app?vid=15df5a96-bde0-49a6-bb5a-b1ff55eb1108","ios":"levelo://app?vid=15df5a96-bde0-49a6-bb5a-b1ff55eb1108"},"vehicle_type_id":"4","last_reported":1724512078,"current_range_meters":24000,"station_id":"ce4bht12rcd13ifvqi60","pricing_plan_id":"cebpf4jnsgd1na2vs0mg"},{"bike_id":"15bf7e3e-a9aa-46ae-8e3c-1629dbe54dd4","system_id":"levelo_inurba_marseille","lat":43.286039,"lon":5.370679,"is_reserved":false,"is_disabled":false,"rental_uris":{"android":"levelo://app?vid=15bf7e3e-a9aa-46ae-8e3c-1629dbe54dd4","ios":"levelo://app?vid=15bf7e3e-a9aa-46ae-8e3c-1629dbe54dd4"},"vehicle_type_id":"4","last_reported":1724512078,"current_range_meters":10400,"station_id":"ce4bht12rcd13ifvqi60","pricing_plan_id":"cebpf4jnsgd1na2vs0mg"},{"bike_id":"660e2987-4339-4e15-a6a3-5cfd2f3ed48b","system_id":"levelo_inurba_marseille","lat":43.286123,"lon":5.37067,"is_reserved":false,"is_disabled":false,"rental_uris":{"android":"levelo://app?vid=660e2987-4339-4e15-a6a3-5cfd2f3ed48b","ios":"levelo://app?vid=660e2987-4339-4e15-a6a3-5cfd2f3ed48b"},"vehicle_type_id":"4","last_reported":1724512078,"current_range_meters":2000,"station_id":"","pricing_plan_id":"cebpf4jnsgd1na2vs0mg"},{"bike_id":"e118c3b4-470e-45ff-8568-5d32fa240b0f","system_id":"levelo_inurba_marseille","lat":43.2861,"lon":5.3706,"is_reserved":false,"is_disabled":false,"rental_uris":{"android":"levelo://app?vid=e118c3b4-470e-45ff-8568-5d32fa240b0f","ios":"levelo://app?vid=e118c3b4-470e-45ff-8568-5d32fa240b0f"},"vehicle_type_id":"4","last_reported":1724512078,"current_range_meters":28400,"station_id":"","pricing_plan_id":"cebpf4jnsgd1na2vs0mg"},{"bike_id":"91777c55-8078-477d-abac-a746ee6d4289","system_id":"levelo_inurba_marseille","lat":43.286096,"lon":5.370656,"is_reserved":false,"is_disabled":false,"rental_uris":{"android":"levelo://app?vid=91777c55-8078-477d-abac-a746ee6d4289","ios":"levelo://app?vid=91777c55-8078-477d-abac-a746ee6d4289"},"vehicle_type_id":"4","last_reported":1724512078,"current_range_meters":31200,"station_id":"ce4bht12rcd13ifvqi60","pricing_plan_id":"cebpf4jnsgd1na2vs0mg"},{"bike_id":"bf3bf10e-a01c-42b0-bbfe-95481dcf3354","system_id":"levelo_inurba_marseille","lat":43.28608,"lon":5.37063,"is_reserved":false,"is_disabled":false,"rental_uris":{"android":"levelo://app?vid=bf3bf10e-a01c-42b0-bbfe-95481dcf3354","ios":"levelo://app?vid=bf3bf10e-a01c-42b0-bbfe-95481dcf3354"},"vehicle_type_id":"4","last_reported":1724512078,"current_range_meters":0,"station_id":"","pricing_plan_id":"cebpf4jnsgd1na2vs0mg"},{"bike_id":"26d62115-58e6-4c0d-8f1c-9330fbac5be2","system_id":"levelo_inurba_marseille","lat":43.286039,"lon":5.370679,"is_reserved":false,"is_disabled":false,"rental_uris":{"android":"levelo://app?vid=26d62115-58e6-4c0d-8f1c-9330fbac5be2","ios":"levelo://app?vid=26d62115-58e6-4c0d-8f1c-9330fbac5be2"},"vehicle_type_id":"4","last_reported":1724512078,"current_range_meters":10400,"station_id":"ce4bht12rcd13ifvqi60","pricing_plan_id":"cebpf4jnsgd1na2vs0mg"},{"bike_id":"7587b9a0-7ef1-45bc-82b8-8c0c7e9a8c03","system_id":"levelo_inurba_marseille","lat":43.286039,"lon":5.370679,"is_reserved":false,"is_disabled":false,"rental_uris":{"android":"levelo://app?vid=7587b9a0-7ef1-45bc-82b8-8c0c7e9a8c03","ios":"levelo://app?vid=7587b9a0-7ef1-45bc-82b8-8c0c7e9a8c03"},"vehicle_type_id":"4","last_reported":1724512078,"current_range_meters":15200,"station_id":"ce4bht12rcd13ifvqi60","pricing_plan_id":"cebpf4jnsgd1na2vs0mg"},{"bike_id":"0d8459d7-532c-408d-b3c0-06de216e34da","system_id":"levelo_inurba_marseille","lat":43.286048,"lon":5.370684,"is_reserved":false,"is_disabled":false,"rental_uris":{"android":"levelo://app?vid=0d8459d7-532c-408d-b3c0-06de216e34da","ios":"levelo://app?vid=0d8459d7-532c-408d-b3c0-06de216e34da"},"vehicle_type_id":"4","last_reported":1724512078,"current_range_meters":30400,"station_id":"ce4bht12rcd13ifvqi60","pricing_plan_id":"cebpf4jnsgd1na2vs0mg"},{"bike_id":"37c20f54-ff89-4650-b58f-c3b8744d92c8","system_id":"levelo_inurba_marseille","lat":43.316821,"lon":5.404737,"is_reserved":false,"is_disabled":false,"rental_uris":{"android":"levelo://app?vid=37c20f54-ff89-4650-b58f-c3b8744d92c8","ios":"levelo://app?vid=37c20f54-ff89-4650-b58f-c3b8744d92c8"},"vehicle_type_id":"4","last_reported":1724512078,"current_range_meters":11200,"station_id":"ce4bh012rcd13ifvqd00","pricing_plan_id":"cebpf4jnsgd1na2vs0mg"},{"bike_id":"d667b457-a5f8-48c5-af8c-e136166e45d6","system_id":"levelo_inurba_marseille","lat":43.286262,"lon":5.379043,"is_reserved":false,"is_disabled":false,"rental_uris":{"android":"levelo://app?vid=d667b457-a5f8-48c5-af8c-e136166e45d6","ios":"levelo://app?vid=d667b457-a5f8-48c5-af8c-e136166e45d6"},"vehicle_type_id":"4","last_reported":1724512078,"current_range_meters":0,"station_id":"","pricing_plan_id":"cebpf4jnsgd1na2vs0mg"},{"bike_id":"3954646d-b9c2-45b4-8050-2546d80f55e4","system_id":"levelo_inurba_marseille","lat":43.291994,"lon":5.392907,"is_reserved":false,"is_disabled":false,"rental_uris":{"android":"levelo://app?vid=3954646d-b9c2-45b4-8050-2546d80f55e4","ios":"levelo://app?vid=3954646d-b9c2-45b4-8050-2546d80f55e4"},"vehicle_type_id":"4","last_reported":1724512078,"current_range_meters":7200,"station_id":"ce4bh192rcd13ifvqdd0","pricing_plan_id":"cebpf4jnsgd1na2vs0mg"},{"bike_id":"ce2024ab-dea8-45f6-908b-bd645e46a1b6","system_id":"levelo_inurba_marseille","lat":43.32447,"lon":5.40282,"is_reserved":false,"is_disabled":false,"rental_uris":{"android":"levelo://app?vid=ce2024ab-dea8-45f6-908b-bd645e46a1b6","ios":"levelo://app?vid=ce2024ab-dea8-45f6-908b-bd645e46a1b6"},"vehicle_type_id":"4","last_reported":1724512078,"current_range_meters":9600,"station_id":"","pricing_plan_id":"cebpf4jnsgd1na2vs0mg"},{"bike_id":"688c1d70-8e2a-41fe-a77b-7fc3f4d7ea37","system_id":"levelo_inurba_marseille","lat":43.284538,"lon":5.358657,"is_reserved":false,"is_disabled":false,"rental_uris":{"android":"levelo://app?vid=688c1d70-8e2a-41fe-a77b-7fc3f4d7ea37","ios":"levelo://app?vid=688c1d70-8e2a-41fe-a77b-7fc3f4d7ea37"},"vehicle_type_id":"4","last_reported":1724512078,"current_range_meters":800,"station_id":"ce4bhah2rcd13ifvqei0","pricing_plan_id":"cebpf4jnsgd1na2vs0mg"},{"bike_id":"c08b2c48-a425-4020-a014-b74ff84cfabb","system_id":"levelo_inurba_marseille","lat":43.294467,"lon":5.397527,"is_reserved":false,"is_disabled":false,"rental_uris":{"android":"levelo://app?vid=c08b2c48-a425-4020-a014-b74ff84cfabb","ios":"levelo://app?vid=c08b2c48-a425-4020-a014-b74ff84cfabb"},"vehicle_type_id":"4","last_reported":1724512078,"current_range_meters":0,"station_id":"ce4bh3h2rcd13ifvqdo0","pricing_plan_id":"cebpf4jnsgd1na2vs0mg"},{"bike_id":"f12ac7a6-6efa-43e3-8415-81ec8435740b","system_id":"levelo_inurba_marseille","lat":43.28622,"lon":5.35111,"is_reserved":false,"is_disabled":false,"rental_uris":{"android":"levelo://app?vid=f12ac7a6-6efa-43e3-8415-81ec8435740b","ios":"levelo://app?vid=f12ac7a6-6efa-43e3-8415-81ec8435740b"},"vehicle_type_id":"4","last_reported":1724512078,"current_range_meters":15600,"station_id":"ce4bhch2rcd13ifvqeug","pricing_plan_id":"cebpf4jnsgd1na2vs0mg"},{"bike_id":"834c64a4-03b8-4671-9dc3-5403edaae31f","system_id":"levelo_inurba_marseille","lat":43.28624,"lon":5.35103,"is_reserved":false,"is_disabled":false,"rental_uris":{"android":"levelo://app?vid=834c64a4-03b8-4671-9dc3-5403edaae31f","ios":"levelo://app?vid=834c64a4-03b8-4671-9dc3-5403edaae31f"},"vehicle_type_id":"4","last_reported":1724512078,"current_range_meters":0,"station_id":"ce4bhch2rcd13ifvqeug","pricing_plan_id":"cebpf4jnsgd1na2vs0mg"},