{"last_updated":1773819893,"ttl":60,"version":"2.2","data":{"bikes":[{"bike_id":"55ad6576-3c79-4a6b-881b-323a7e8b70a1","system_id":"levelo_inurba_marseille","lat":43.25002,"lon":5.38942,"is_reserved":false,"is_disabled":false,"rental_uris":{"android":"levelo://app?vid=55ad6576-3c79-4a6b-881b-323a7e8b70a1","ios":"levelo://app?vid=55ad6576-3c79-4a6b-881b-323a7e8b70a1"},"vehicle_type_id":"4","last_reported":1773819893,"current_range_meters":2800,"station_id":"ce4bhgp2rcd13ifvqfd0","pricing_plan_id":"cebpf4jnsgd1na2vs0mg"},{"bike_id":"a9ab5a39-2731-4734-97ce-71106411e1b9","system_id":"levelo_inurba_marseille","lat":43.2175,"lon":5.34612,"is_reserved":false,"is_disabled":false,"rental_uris":{"android":"levelo://app?vid=a9ab5a39-2731-4734-97ce-71106411e1b9","ios":"levelo://app?vid=a9ab5a39-2731-4734-97ce-71106411e1b9"},"vehicle_type_id":"4","last_reported":1773819893,"current_range_meters":2800,"station_id":"st_cvj6r9ubvosntc0bgbag","pricing_plan_id":"cebpf4jnsgd1na2vs0mg"},{"bike_id":"fcc16676-bdcc-453d-943e-a6082336e83f","system_id":"levelo_inurba_marseille","lat":43.29817,"lon":5.44051,"is_reserved":false,"is_disabled":false,"rental_uris":{"android":"levelo://app?vid=fcc16676-bdcc-453d-943e-a6082336e83f","ios":"levelo://app?vid=fcc16676-bdcc-453d-943e-a6082336e83f"},"vehicle_type_id":"4","last_reported":1773819893,"current_range_meters":2800,"station_id":"st_d3jp68qikq2c7381ktn0","pricing_plan_id":"cebpf4jnsgd1na2vs0mg"},{"bike_id":"28934219-7bc1-494b-8007-d3749b5ec108","system_id":"levelo_inurba_marseille","lat":43.2594,"lon":5.40903,"is_reserved":false,"is_disabled":false,"rental_uris":{"android":"levelo://app?vid=28934219-7bc1-494b-8007-d3749b5ec108","ios":"levelo://app?vid=28934219-7bc1-494b-8007-d3749b5ec108"},"vehicle_type_id":"4","last_reported":1773819893,"current_range_meters":2800,"station_id":"ce4bhm92rcd13ifvqglg","pricing_plan_id":"cebpf4jnsgd1na2vs0mg"},{"bike_id":"7bc46801-ee22-47bb-8d21-639468d92887","system_id":"levelo_inurba_marseille","lat":43.29978,"lon":5.37178,"is_reserved":false,"is_disabled":false,"rental_uris":{"android":"levelo://app?vid=7bc46801-ee22-47bb-8d21-639468d92887","ios":"levelo://app?vid=7bc46801-ee22-47bb-8d21-639468d92887"},"vehicle_type_id":"4","last_reported":1773819893,"current_range_meters":2800,"station_id":"ce4bgr92rcd13ifvqc7g","pricing_plan_id":"cebpf4jnsgd1na2vs0mg"},{"bike_id":"c4f5bd64-acf0-4c53-bb26-d0a50c0ac597","system_id":"levelo_inurba_marseille","lat":43.26556,"lon":5.39015,"is_reserved":false,"is_disabled":false,"rental_uris":{"android":"levelo://app?vid=c4f5bd64-acf0-4c53-bb26-d0a50c0ac597","ios":"levelo://app?vid=c4f5bd64-acf0-4c53-bb26-d0a50c0ac597"},"vehicle_type_id":"4","last_reported":1773819893,"current_range_meters":2800,"station_id":"ce4bhe12rcd13ifvqf30","pricing_plan_id":"cebpf4jnsgd1na2vs0mg"},{"bike_id":"2a394174-fa6b-4212-913a-1ddaad9b7087","system_id":"levelo_inurba_marseille","lat":43.22933,"lon":5.35391,"is_reserved":false,"is_disabled":false,"rental_uris":{"android":"levelo://app?vid=2a394174-fa6b-4212-913a-1ddaad9b7087","ios":"levelo://app?vid=2a394174-fa6b-4212-913a-1ddaad9b7087"},"vehicle_type_id":"4","last_reported":1773819893,"current_range_meters":2800,"station_id":"cpo3532slgdg3j2ikp40","pricing_plan_id":"cebpf4jnsgd1na2vs0mg"},{"bike_id":"ca2786e6-5157-4ab3-8916-81d583d6acde","system_id":"levelo_inurba_marseille","lat":43.22925,"lon":5.35376,"is_reserved":false,"is_disabled":false,"rental_uris":{"android":"levelo://app?vid=ca2786e6-5157-4ab3-8916-81d583d6acde","ios":"levelo://app?vid=ca2786e6-5157-4ab3-8916-81d583d6acde"},"vehicle_type_id":"4","last_reported":1773819893,"current_range_meters":2800,"station_id":"cpo3532slgdg3j2ikp40","pricing_plan_id":"cebpf4jnsgd1na2vs0mg"},{"bike_id":"fc47abe7-cfea-4603-9b16-e89f62a15b75","system_id":"levelo_inurba_marseille","lat":43.29981,"lon":5.38491,"is_reserved":false,"is_disabled":true,"rental_uris":{"android":"levelo://app?vid=fc47abe7-cfea-4603-9b16-e89f62a15b75","ios":"levelo://app?vid=fc47abe7-cfea-4603-9b16-e89f62a15b75"},"vehicle_type_id":"4","last_reported":1773819893,"current_range_meters":2800,"station_id":"ce4bgj92rcd13ifvqbd0","pricing_plan_id":"cebpf4jnsgd1na2vs0mg"},{"bike_id":"c120406e-119d-4789-8519-a9cd3f8a0c7b","system_id":"levelo_inurba_marseille","lat":43.33522,"lon":5.37458,"is_reserved":false,"is_disabled":false,"rental_uris":{"android":"levelo://app?vid=c120406e-119d-4789-8519-a9cd3f8a0c7b","ios":"levelo://app?vid=c120406e-119d-4789-8519-a9cd3f8a0c7b"},"vehicle_type_id":"4","last_reported":1773819893,"current_range_meters":2800,"station_id":"st_d46tts09ee8s73dlu43g","pricing_plan_id":"cebpf4jnsgd1na2vs0mg"},{"bike_id":"88858f89-fe21-45f8-acbb-9ce67472ddb3","system_id":"levelo_inurba_marseille","lat":43.22922,"lon":5.35382,"is_reserved":false,"is_disabled":false,"rental_uris":{"android":"levelo://app?vid=88858f89-fe21-45f8-acbb-9ce67472ddb3","ios":"levelo://app?vid=88858f89-fe21-45f8-acbb-9ce67472ddb3"},"vehicle_type_id":"4","last_reported":1773819893,"current_range_meters":2800,"station_id":"cpo3532slgdg3j2ikp40","pricing_plan_id":"cebpf4jnsgd1na2vs0mg"},{"bike_id":"cbf10dd5-f3ee-4aba-8893-58e4518801fe","system_id":"levelo_inurba_marseille","lat":43.24176,"lon":5.39731,"is_reserved":false,"is_disabled":false,"rental_uris":{"android":"levelo://app?vid=cbf10dd5-f3ee-4aba-8893-58e4518801fe","ios":"levelo://app?vid=cbf10dd5-f3ee-4aba-8893-58e4518801fe"},"vehicle_type_id":"4","last_reported":1773819893,"current_range_meters":2800,"station_id":"ce4bhn12rcd13ifvqgpg","pricing_plan_id":"cebpf4jnsgd1na2vs0mg"},{"bike_id":"37d13860-33c3-48dd-b873-910a656e350a","system_id":"levelo_inurba_marseille","lat":43.29028,"lon":5.39987,"is_reserved":false,"is_disabled":false,"rental_uris":{"android":"levelo://app?vid=37d13860-33c3-48dd-b873-910a656e350a","ios":"levelo://app?vid=37d13860-33c3-48dd-b873-910a656e350a"},"vehicle_type_id":"4","last_reported":1773819893,"current_range_meters":2800,"station_id":"ce4bh392rcd13ifvqdm0","pricing_plan_id":"cebpf4jnsgd1na2vs0mg"},{"bike_id":"feaf2e83-6bc7-46d3-b8dc-e52b9fc8cf3e","system_id":"levelo_inurba_marseille","lat":43.22566,"lon":5.41633,"is_reserved":false,"is_disabled":false,"rental_uris":{"android":"levelo://app?vid=feaf2e83-6bc7-46d3-b8dc-e52b9fc8cf3e","ios":"levelo://app?vid=feaf2e83-6bc7-46d3-b8dc-e52b9fc8cf3e"},"vehicle_type_id":"4","last_reported":1773819893,"current_range_meters":3200,"station_id":"st_d2o4gvlbi1j2169b742g","pricing_plan_id":"cebpf4jnsgd1na2vs0mg"},{"bike_id":"4a95c3e2-5aff-401c-af86-52c63c43625a","system_id":"levelo_inurba_marseille","lat":43.30254,"lon":5.37743,"is_reserved":false,"is_disabled":false,"rental_uris":{"android":"levelo://app?vid=4a95c3e2-5aff-401c-af86-52c63c43625a","ios":"levelo://app?vid=4a95c3e2-5aff-401c-af86-52c63c43625a"},"vehicle_type_id":"4","last_reported":1773819893,"current_range_meters":3200,"station_id":"ce4bguh2rcd13ifvqcj0","pricing_plan_id":"cebpf4jnsgd1na2vs0mg"},{"bike_id":"3aa3d11b-ad41-4898-aa7f-dcaaf47f06cb","system_id":"levelo_inurba_marseille","lat":43.33539,"lon":5.37466,"is_reserved":false,"is_disabled":false,"rental_uris":{"android":"levelo://app?vid=3aa3d11b-ad41-4898-aa7f-dcaaf47f06cb","ios":"levelo://app?vid=3aa3d11b-ad41-4898-aa7f-dcaaf47f06cb"},"vehicle_type_id":"4","last_reported":1773819893,"current_range_meters":3200,"station_id":"st_d46tts09ee8s73dlu43g","pricing_plan_id":"cebpf4jnsgd1na2vs0mg"},{"bike_id":"ac015cc3-7382-4e36-a9a8-834e6733b119","system_id":"levelo_inurba_marseille","lat":43.2798,"lon":5.38739,"is_reserved":false,"is_disabled":false,"rental_uris":{"android":"levelo://app?vid=ac015cc3-7382-4e36-a9a8-834e6733b119","ios":"levelo://app?vid=ac015cc3-7382-4e36-a9a8-834e6733b119"},"vehicle_type_id":"4","last_reported":1773819893,"current_range_meters":3200,"station_id":"ce4bhg12rcd13ifvqf80","pricing_plan_id":"cebpf4jnsgd1na2vs0mg"},{"bike_id":"45aec3b6-b392-45c1-bf58-4a07617ebcd9","system_id":"levelo_inurba_marseille","lat":43.29746,"lon":5.37703,"is_reserved":false,"is_disabled":false,"rental_uris":{"android":"levelo://app?vid=45aec3b6-b392-45c1-bf58-4a07617ebcd9","ios":"levelo://app?vid=45aec3b6-b392-45c1-bf58-4a07617ebcd9"},"vehicle_type_id":"4","last_reported":1773819893,"current_range_meters":3200,"station_id":"ce4bgkh2rcd13ifvqbl0","pricing_plan_id":"cebpf4jnsgd1na2vs0mg"},{"bike_id":"2b8231af-d922-4cb6-92c7-ed7c1fa13ac1","system_id":"levelo_inurba_marseille","lat":43.29311,"lon":5.37478,"is_reserved":false,"is_disabled":false,"rental_uris":{"android":"levelo://app?vid=2b8231af-d922-4cb6-92c7-ed7c1fa13ac1","ios":"levelo://app?vid=2b8231af-d922-4cb6-92c7-ed7c1fa13ac1"},"vehicle_type_id":"4","last_reported":1773819893,"current_range_meters":3200,"station_id":"ce4bgi12rcd13ifvqb70","pricing_plan_id":"cebpf4jnsgd1na2vs0mg"},{"bike_id":"f00fcd39-d458-47f2-97b4-5462c5c8dab5","system_id":"levelo_inurba_marseille","lat":43.25522,"lon":5.37677,"is_reserved":false,"is_disabled":false,"rental_uris":{"android":"levelo://app?vid=f00fcd39-d458-47f2-97b4-5462c5c8dab5","ios":"levelo://app?vid=f00fcd39-d458-47f2-97b4-5462c5c8dab5"},"vehicle_type_id":"4","last_reported":1773819893,"current_range_meters":3200,"station_id":"ce4bhh12rcd13ifvqff0","pricing_plan_id":"cebpf4jnsgd1na2vs0mg"},{"bike_id":"d6f4fcc9-529e-44c9-8ab1-66a46ec0a2d7","system_id":"levelo_inurba_marseille","lat":43.29658,"lon":5.37461,"is_reserved":false,"is_disabled":false,"rental_uris":{"android":"levelo://app?vid=d6f4fcc9-529e-44c9-8ab1-66a46ec0a2d7","ios":"levelo://app?vid=d6f4fcc9-529e-44c9-8ab1-66a46ec0a2d7"},"vehicle_type_id":"4","last_reported":1773819893,"current_range_meters":3200,"station_id":"","pricing_plan_id":"cebpf4jnsgd1na2vs0mg"},{"bike_id":"9c91de6b-ceab-4b94-8724-4bcd5c7e2248","system_id":"levelo_inurba_marseille","lat":43.2668,"lon":5.38275,"is_reserved":false,"is_disabled":false,"rental_uris":{"android":"levelo://app?vid=9c91de6b-ceab-4b94-8724-4bcd5c7e2248","ios":"levelo://app?vid=9c91de6b-ceab-4b94-8724-4bcd5c7e2248"},"vehicle_type_id":"4","last_reported":1773819893,"current_range_meters":3200,"station_id":"ce4bhg92rcd13ifvqf90","pricing_plan_id":"cebpf4jnsgd1na2vs0mg"},{"bike_id":"6f918d79-3ced-49e2-b053-7727488f8bd7","system_id":"levelo_inurba_marseille","lat":43.299773,"lon":5.371378,"is_reserved":false,"is_disabled":false,"rental_uris":{"android":"levelo://app?vid=6f918d79-3ced-49e2-b053-7727488f8bd7","ios":"levelo://app?vid=6f918d79-3ced-49e2-b053-7727488f8bd7"},"vehicle_type_id":"4","last_reported":1773819893,"current_range_meters":3200,"station_id":"ce4bgrp2rcd13ifvqc9g","pricing_plan_id":"cebpf4jnsgd1na2vs0mg"},{"bike_id":"b629acf9-0c07-4fb6-abfc-b78fcc2931be","system_id":"levelo_inurba_marseille","lat":43.30921,"lon":5.37252,"is_reserved":false,"is_disabled":false,"rental_uris":{"android":"levelo://app?vid=b629acf9-0c07-4fb6-abfc-b78fcc2931be","ios":"levelo://app?vid=b629acf9-0c07-4fb6-abfc-b78fcc2931be"},"vehicle_type_id":"4","last_reported":1773819893,"current_range_meters":3200,"station_id":"ce4bguh2rcd13ifvqckg","pricing_plan_id":"cebpf4jnsgd1na2vs0mg"},{"bike_id":"c0e0478c-7917-40f4-99e1-749ab27647b9","system_id":"levelo_inurba_marseille","lat":43.28839,"lon":5.35849,"is_reserved":false,"is_disabled":false,"rental_uris":{"android":"levelo://app?vid=c0e0478c-7917-40f4-99e1-749ab27647b9","ios":"levelo://app?vid=c0e0478c-7917-40f4-99e1-749ab27647b9"},"vehicle_type_id":"4","last_reported":1773819893,"current_range_meters":3200,"station_id":"ce4bhb12rcd13ifvqem0","pricing_plan_id":"cebpf4jnsgd1na2vs0mg"},{"bike_id":"b3e3399c-3837-42b8-afac-39674642005e","system_id":"levelo_inurba_marseille","lat":43.29711,"lon":5.42753,"is_reserved":false,"is_disabled":false,"rental_uris":{"android":"levelo://app?vid=b3e3399c-3837-42b8-afac-39674642005e","ios":"levelo://app?vid=b3e3399c-3837-42b8-afac-39674642005e"},"vehicle_type_id":"4","last_reported":1773819893,"current_range_meters":3200,"station_id":"","pricing_plan_id":"cebpf4jnsgd1na2vs0mg"},{"bike_id":"9103fec1-e43a-42ff-bbf8-eafda28c2fb8","system_id":"levelo_inurba_marseille","lat":43.30536,"lon":5.36556,"is_reserved":false,"is_disabled":false,"rental_uris":{"android":"levelo://app?vid=9103fec1-e43a-42ff-bbf8-eafda28c2fb8","ios":"levelo://app?vid=9103fec1-e43a-42ff-bbf8-eafda28c2fb8"},"vehicle_type_id":"4","last_reported":1773819893,"current_range_meters":3200,"station_id":"ce4bgs12rcd13ifvqcag","pricing_plan_id":"cebpf4jnsgd1na2vs0mg"},{"bike_id":"e4b515b3-5a64-4f24-8a63-3407e3500a15","system_id":"levelo_inurba_marseille","lat":43.24312,"lon":5.40234,"is_reserved":false,"is_disabled":false,"rental_uris":{"android":"levelo://app?vid=e4b515b3-5a64-4f24-8a63-3407e3500a15","ios":"levelo://app?vid=e4b515b3-5a64-4f24-8a63-3407e3500a15"},"vehicle_type_id":"4","last_reported":1773819893,"current_range_meters":3200,"station_id":"","pricing_plan_id":"cebpf4jnsgd1na2vs0mg"},{"bike_id":"ebd201db-6b0d-4b0b-afef-9306224c354d","system_id":"levelo_inurba_marseille","lat":43.29536,"lon":5.39025,"is_reserved":false,"is_disabled":true,"rental_uris":{"android":"levelo://app?vid=ebd201db-6b0d-4b0b-afef-9306224c354d","ios":"levelo://app?vid=ebd201db-6b0d-4b0b-afef-9306224c354d"},"vehicle_type_id":"4","last_reported":1773819893,"current_range_meters":3200,"station_id":"ce4bh3p2rcd13ifvqdp0","pricing_plan_id":"cebpf4jnsgd1na2vs0mg"},{"bike_id":"f6c860f4-9c2e-4a13-b509-50fb1709859b","system_id":"levelo_inurba_marseille","lat":43.21189,"lon":5.3507,"is_reserved":false,"is_disabled":false,"rental_uris":{"android":"levelo://app?vid=f6c860f4-9c2e-4a13-b509-50fb1709859b","ios":"levelo://app?vid=f6c860f4-9c2e-4a13-b509-50fb1709859b"},"vehicle_type_id":"4","last_reported":1773819893,"current_range_meters":3600,"station_id":"st_cvj6sg6p6f1abm77japg","pricing_plan_id":"cebpf4jnsgd1na2vs0mg"},{"bike_id":"02069907-22a3-4b54-8d6a-4533b0f28256","system_id":"levelo_inurba_marseille","lat":43.3057,"lon":5.37211,"is_reserved":false,"is_disabled":false,"rental_uris":{"android":"levelo://app?vid=02069907-22a3-4b54-8d6a-4533b0f28256","ios":"levelo://app?vid=02069907-22a3-4b54-8d6a-4533b0f28256"},"vehicle_type_id":"4","last_reported":1773819893,"current_range_meters":3600,"station_id":"ce4bgqh2rcd13ifvqc4g","pricing_plan_id":"cebpf4jnsgd1na2vs0mg"},{"bike_id":"4eeecf6d-6108-42a0-b77f-fc0c0b55b73c","system_id":"levelo_inurba_marseille","lat":43.29901,"lon":5.37476,"is_reserved":false,"is_disabled":true,"rental_uris":{"android":"levelo://app?vid=4eeecf6d-6108-42a0-b77f-fc0c0b55b73c","ios":"levelo://app?vid=4eeecf6d-6108-42a0-b77f-fc0c0b55b73c"},"vehicle_type_id":"4","last_reported":1773819893,"current_range_meters":3600,"station_id":"ce4bgjh2rcd13ifvqbg0","pricing_plan_id":"cebpf4jnsgd1na2vs0mg"},{"bike_id":"ebcb1f5f-4010-4b5b-89fc-61cd7dddc439","system_id":"levelo_inurba_marseille","lat":43.28359,"lon":5.38668,"is_reserved":false,"is_disabled":false,"rental_uris":{"android":"levelo://app?vid=ebcb1f5f-4010-4b5b-89fc-61cd7dddc439","ios":"levelo://app?vid=ebcb1f5f-4010-4b5b-89fc-61cd7dddc439"},"vehicle_type_id":"4","last_reported":1773819893,"current_range_meters":3600,"station_id":"ce4bh492rcd13ifvqdvg","pricing_plan_id":"cebpf4jnsgd1na2vs0mg"},{"bike_id":"d44e10fb-6d97-4c2b-8ab3-e3d4038e2dcf","system_id":"levelo_inurba_marseille","lat":43.31346,"lon":5.36761,"is_reserved":false,"is_disabled":false,"rental_uris":{"android":"levelo://app?vid=d44e10fb-6d97-4c2b-8ab3-e3d4038e2dcf","ios":"levelo://app?vid=d44e10fb-6d97-4c2b-8ab3-e3d4038e2dcf"},"vehicle_type_id":"4","last_reported":1773819893,"current_range_meters":3600,"station_id":"ce4bgr92rcd13ifvqc6g","pricing_plan_id":"cebpf4jnsgd1na2vs0mg"},{"bike_id":"01a3571c-e8a5-4291-abe2-290bb44b75ab","system_id":"levelo_inurba_marseille","lat":43.29666,"lon":5.38707,"is_reserved":false,"is_disabled":false,"rental_uris":{"android":"levelo://app?vid=01a3571c-e8a5-4291-abe2-290bb44b75ab","ios":"levelo://app?vid=01a3571c-e8a5-4291-abe2-290bb44b75ab"},"vehicle_type_id":"4","last_reported":1773819893,"current_range_meters":3600,"station_id":"","pricing_plan_id":"cebpf4jnsgd1na2vs0mg"},{"bike_id":"656f7f1c-73b7-415a-88df-0e80616a0a57","system_id":"levelo_inurba_marseille","lat":43.24992,"lon":5.38943,"is_reserved":false,"is_disabled":false,"rental_uris":{"android":"levelo://app?vid=656f7f1c-73b7-415a-88df-0e80616a0a57","ios":"levelo://app?vid=656f7f1c-73b7-415a-88df-0e80616a0a57"},"vehicle_type_id":"4","last_reported":1773819893,"current_range_meters":3600,"station_id":"ce4bhgp2rcd13ifvqfd0","pricing_plan_id":"cebpf4jnsgd1na2vs0mg"},{"bike_id":"9581202a-9f0b-4e3d-8ba8-487d1612fe8d","system_id":"levelo_inurba_marseille","lat":43.29896,"lon":5.37991,"is_reserved":false,"is_disabled":false,"rental_uris":{"android":"levelo://app?vid=9581202a-9f0b-4e3d-8ba8-487d1612fe8d","ios":"levelo://app?vid=9581202a-9f0b-4e3d-8ba8-487d1612fe8d"},"vehicle_type_id":"4","last_reported":1773819893,"current_range_meters":3600,"station_id":"","pricing_plan_id":"cebpf4jnsgd1na2vs0mg"},{"bike_id":"f9fcd0e4-64a8-49e7-b1c7-7c4d0ac98b5d","system_id":"levelo_inurba_marseille","lat":43.31468,"lon":5.37307,"is_reserved":false,"is_disabled":false,"rental_uris":{"android":"levelo://app?vid=f9fcd0e4-64a8-49e7-b1c7-7c4d0ac98b5d","ios":"levelo://app?vid=f9fcd0e4-64a8-49e7-b1c7-7c4d0ac98b5d"},"vehicle_type_id":"4","last_reported":1773819893,"current_range_meters":3600,"station_id":"ce4bgt12rcd13ifvqcd0","pricing_plan_id":"cebpf4jnsgd1na2vs0mg"},{"bike_id":"8d968b57-b5cf-4819-a855-725c0c9cac91","system_id":"levelo_inurba_marseille","lat":43.31276,"lon":5.40174,"is_reserved":false,"is_disabled":false,"rental_uris":{"android":"levelo://app?vid=8d968b57-b5cf-4819-a855-725c0c9cac91","ios":"levelo://app?vid=8d968b57-b5cf-4819-a855-725c0c9cac91"},"vehicle_type_id":"4","last_reported":1773819893,"current_range_meters":3600,"station_id":"ce4bh092rcd13ifvqd30","pricing_plan_id":"cebpf4jnsgd1na2vs0mg"},{"bike_id":"2381d14c-a4ee-4448-b62d-b403be278ce2","system_id":"levelo_inurba_marseille","lat":43.30545,"lon":5.36704,"is_reserved":false,"is_disabled":false,"rental_uris":{"android":"levelo://app?vid=2381d14c-a4ee-4448-b62d-b403be278ce2","ios":"levelo://app?vid=2381d14c-a4ee-4448-b62d-b403be278ce2"},"vehicle_type_id":"4","last_reported":1773819893,"current_range_meters":3600,"station_id":"ce4bgrp2rcd13ifvqc9g","pricing_plan_id":"cebpf4jnsgd1na2vs0mg"},{"bike_id":"ca1098bb-4959-490f-a0a6-00ab4315880d","system_id":"levelo_inurba_marseille","lat":43.30248,"lon":5.40079,"is_reserved":false,"is_disabled":false,"rental_uris":{"android":"levelo://app?vid=ca1098bb-4959-490f-a0a6-00ab4315880d","ios":"levelo://app?vid=ca1098bb-4959-490f-a0a6-00ab4315880d"},"vehicle_type_id":"4","last_reported":1773819893,"current_range_meters":3600,"station_id":"ce4bgvh2rcd13ifvqcs0","pricing_plan_id":"cebpf4jnsgd1na2vs0mg"},{"bike_id":"4edc1e69-f919-4c2f-a6b8-66257e87a54f","system_id":"levelo_inurba_marseille","lat":43.28474,"lon":5.48399,"is_reserved":false,"is_disabled":false,"rental_uris":{"android":"levelo://app?vid=4edc1e69-f919-4c2f-a6b8-66257e87a54f","ios":"levelo://app?vid=4edc1e69-f919-4c2f-a6b8-66257e87a54f"},"vehicle_type_id":"4","last_reported":1773819893,"current_range_meters":3600,"station_id":"","pricing_plan_id":"cebpf4jnsgd1na2vs0mg"},{"bike_id":"cbd9339d-6b5d-45fe-8986-e925f0446131","system_id":"levelo_inurba_marseille","lat":43.26552,"lon":5.373,"is_reserved":false,"is_disabled":false,"rental_uris":{"android":"levelo://app?vid=cbd9339d-6b5d-45fe-8986-e925f0446131","ios":"levelo://app?vid=cbd9339d-6b5d-45fe-8986-e925f0446131"},"vehicle_type_id":"4","last_reported":1773819893,"current_range_meters":4000,"station_id":"ce4bhg12rcd13ifvqf70","pricing_plan_id":"cebpf4jnsgd1na2vs0mg"},{"bike_id":"57f59ea7-9661-484b-ab62-8930e39b76a3","system_id":"levelo_inurba_marseille","lat":43.23787,"lon":5.36634,"is_reserved":false,"is_disabled":false,"rental_uris":{"android":"levelo://app?vid=57f59ea7-9661-484b-ab62-8930e39b76a3","ios":"levelo://app?vid=57f59ea7-9661-484b-ab62-8930e39b76a3"},"vehicle_type_id":"4","last_reported":1773819893,"current_range_meters":4000,"station_id":"st_d3nk18o9ro0c73en2l3g","pricing_plan_id":"cebpf4jnsgd1na2vs0mg"},{"bike_id":"7a73b128-6eb2-47bb-8ea6-432d8e929d53","system_id":"levelo_inurba_marseille","lat":43.29964,"lon":5.41323,"is_reserved":false,"is_disabled":false,"rental_uris":{"android":"levelo://app?vid=7a73b128-6eb2-47bb-8ea6-432d8e929d53","ios":"levelo://app?vid=7a73b128-6eb2-47bb-8ea6-432d8e929d53"},"vehicle_type_id":"4","last_reported":1773819893,"current_range_meters":4000,"station_id":"ce4bhp12rcd13ifvqh9g","pricing_plan_id":"cebpf4jnsgd1na2vs0mg"},{"bike_id":"8afa82e0-443b-485e-812c-b0c0213ccf6b","system_id":"levelo_inurba_marseille","lat":43.29724,"lon":5.37693,"is_reserved":false,"is_disabled":true,"rental_uris":{"android":"levelo://app?vid=8afa82e0-443b-485e-812c-b0c0213ccf6b","ios":"levelo://app?vid=8afa82e0-443b-485e-812c-b0c0213ccf6b"},"vehicle_type_id":"4","last_reported":1773819893,"current_range_meters":4000,"station_id":"ce4bgkh2rcd13ifvqbl0","pricing_plan_id":"cebpf4jnsgd1na2vs0mg"},{"bike_id":"e3903187-46ad-47f1-91c6-98d42f719495","system_id":"levelo_inurba_marseille","lat":43.27508,"lon":5.42453,"is_reserved":false,"is_disabled":false,"rental_uris":{"android":"levelo://app?vid=e3903187-46ad-47f1-91c6-98d42f719495","ios":"levelo://app?vid=e3903187-46ad-47f1-91c6-98d42f719495"},"vehicle_type_id":"4","last_reported":1773819893,"current_range_meters":4000,"station_id":"","pricing_plan_id":"cebpf4jnsgd1na2vs0mg"},{"bike_id":"58df6535-2746-4ca5-8ec4-a2736cc7519f","system_id":"levelo_inurba_marseille","lat":43.21185,"lon":5.3508,"is_reserved":false,"is_disabled":false,"rental_uris":{"android":"levelo://app?vid=58df6535-2746-4ca5-8ec4-a2736cc7519f","ios":"levelo://app?vid=58df6535-2746-4ca5-8ec4-a2736cc7519f"},"vehicle_type_id":"4","last_reported":1773819893,"current_range_meters":4000,"station_id":"st_cvj6sg6p6f1abm77japg","pricing_plan_id":"cebpf4jnsgd1na2vs0mg"},{"bike_id":"0d33946c-dda7-4b3f-9757-2c7ef637d9ab","system_id":"levelo_inurba_marseille","lat":43.29261,"lon":5.40917,"is_reserved":false,"is_disabled":true,"rental_uris":{"android":"levelo://app?vid=0d33946c-dda7-4b3f-9757-2c7ef637d9ab","ios":"levelo://app?vid=0d33946c-dda7-4b3f-9757-2c7ef637d9ab"},"vehicle_type_id":"4","last_reported":1773819893,"current_range_meters":4000,"station_id":"ce4bh192rcd13ifvqdc0","pricing_plan_id":"cebpf4jnsgd1na2vs0mg"},{"bike_id":"0edc70b6-d69b-4a82-b984-b6dcbfbcb380","system_id":"levelo_inurba_marseille","lat":43.32928,"lon":5.37534,"is_reserved":false,"is_disabled":false,"rental_uris":{"android":"levelo://app?vid=0edc70b6-d69b-4a82-b984-b6dcbfbcb380","ios":"levelo://app?vid=0edc70b6-d69b-4a82-b984-b6dcbfbcb380"},"vehicle_type_id":"4","last_reported":1773819893,"current_range_meters":4000,"station_id":"","pricing_plan_id":"cebpf4jnsgd1na2vs0mg"},{"bike_id":"a0c5c5f8-8fc8-49f2-af86-114516413325","system_id":"levelo_inurba_marseille","lat":43.32065,"lon":5.368,"is_reserved":false,"is_disabled":false,"rental_uris":{"android":"levelo://app?vid=a0c5c5f8-8fc8-49f2-af86-114516413325","ios":"levelo://app?vid=a0c5c5f8-8fc8-49f2-af86-114516413325"},"vehicle_type_id":"4","last_reported":1773819893,"current_range_meters":4000,"station_id":"ce4bhrh2rcd13ifvqhug","pricing_plan_id":"cebpf4jnsgd1na2vs0mg"},{"bike_id":"678b6c9c-a116-4af5-b89b-a22995431517","system_id":"levelo_inurba_marseille","lat":43.25587,"lon":5.38235,"is_reserved":false,"is_disabled":false,"rental_uris":{"android":"levelo://app?vid=678b6c9c-a116-4af5-b89b-a22995431517","ios":"levelo://app?vid=678b6c9c-a116-4af5-b89b-a22995431517"},"vehicle_type_id":"4","last_reported":1773819893,"current_range_meters":4000,"station_id":"ce4bhih2rcd13ifvqfs0","pricing_plan_id":"cebpf4jnsgd1na2vs0mg"},{"bike_id":"89c12727-cb87-457a-b0d4-ab6af51e6231","system_id":"levelo_inurba_marseille","lat":43.27678,"lon":5.38918,"is_reserved":false,"is_disabled":false,"rental_uris":{"android":"levelo://app?vid=89c12727-cb87-457a-b0d4-ab6af51e6231","ios":"levelo://app?vid=89c12727-cb87-457a-b0d4-ab6af51e6231"},"vehicle_type_id":"4","last_reported":1773819893,"current_range_meters":4400,"station_id":"ce4bhi12rcd13ifvqfo0","pricing_plan_id":"cebpf4jnsgd1na2vs0mg"},{"bike_id":"1c30f3b3-9020-4525-95d9-80b9cfccfbcc","system_id":"levelo_inurba_marseille","lat":43.31048,"lon":5.37189,"is_reserved":false,"is_disabled":false,"rental_uris":{"android":"levelo://app?vid=1c30f3b3-9020-4525-95d9-80b9cfccfbcc","ios":"levelo://app?vid=1c30f3b3-9020-4525-95d9-80b9cfccfbcc"},"vehicle_type_id":"4","last_reported":1773819893,"current_range_meters":4400,"station_id":"st_d4kl2rp97mjs73e7tdfg","pricing_plan_id":"cebpf4jnsgd1na2vs0mg"},{"bike_id":"842a1dc3-a662-44aa-821a-15a772efb683","system_id":"levelo_inurba_marseille","lat":43.31131,"lon":5.37132,"is_reserved":false,"is_disabled":false,"rental_uris":{"android":"levelo://app?vid=842a1dc3-a662-44aa-821a-15a772efb683","ios":"levelo://app?vid=842a1dc3-a662-44aa-821a-15a772efb683"},"vehicle_type_id":"4","last_reported":1773819893,"current_range_meters":4400,"station_id":"","pricing_plan_id":"cebpf4jnsgd1na2vs0mg"},{"bike_id":"1d851264-6ba3-48c2-86f6-b84e8d5a0c62","system_id":"levelo_inurba_marseille","lat":43.29201,"lon":5.358,"is_reserved":false,"is_disabled":true,"rental_uris":{"android":"levelo://app?vid=1d851264-6ba3-48c2-86f6-b84e8d5a0c62","ios":"levelo://app?vid=1d851264-6ba3-48c2-86f6-b84e8d5a0c62"},"vehicle_type_id":"4","last_reported":1773819893,"current_range_meters":4400,"station_id":"ce4bhb12rcd13ifvqel0","pricing_plan_id":"cebpf4jnsgd1na2vs0mg"},{"bike_id":"ee11935a-9d5c-45dc-a215-9a7cd788c0db","system_id":"levelo_inurba_marseille","lat":43.28391,"lon":5.38116,"is_reserved":false,"is_disabled":false,"rental_uris":{"android":"levelo://app?vid=ee11935a-9d5c-45dc-a215-9a7cd788c0db","ios":"levelo://app?vid=ee11935a-9d5c-45dc-a215-9a7cd788c0db"},"vehicle_type_id":"4","last_reported":1773819893,"current_range_meters":4400,"station_id":"ce4bh412rcd13ifvqdr0","pricing_plan_id":"cebpf4jnsgd1na2vs0mg"},{"bike_id":"53336338-5141-44ec-bb59-6df2460b79a8","system_id":"levelo_inurba_marseille","lat":43.30222,"lon":5.39436,"is_reserved":false,"is_disabled":true,"rental_uris":{"android":"levelo://app?vid=53336338-5141-44ec-bb59-6df2460b79a8","ios":"levelo://app?vid=53336338-5141-44ec-bb59-6df2460b79a8"},"vehicle_type_id":"4","last_reported":1773819893,"current_range_meters":4400,"station_id":"ce4bh0p2rcd13ifvqd70","pricing_plan_id":"cebpf4jnsgd1na2vs0mg"},{"bike_id":"524a8e11-a53e-4d28-9889-bf717f24f2f8","system_id":"levelo_inurba_marseille","lat":43.30888,"lon":5.3687,"is_reserved":false,"is_disabled":false,"rental_uris":{"android":"levelo://app?vid=524a8e11-a53e-4d28-9889-bf717f24f2f8","ios":"levelo://app?vid=524a8e11-a53e-4d28-9889-bf717f24f2f8"},"vehicle_type_id":"4","last_reported":1773819893,"current_range_meters":4400,"station_id":"ce4bgn92rcd13ifvqbvg","pricing_plan_id":"cebpf4jnsgd1na2vs0mg"},{"bike_id":"4af15d60-b5e6-4a55-9404-2793b6d7cc47","system_id":"levelo_inurba_marseille","lat":43.24644,"lon":5.43161,"is_reserved":false,"is_disabled":false,"rental_uris":{"android":"levelo://app?vid=4af15d60-b5e6-4a55-9404-2793b6d7cc47","ios":"levelo://app?vid=4af15d60-b5e6-4a55-9404-2793b6d7cc47"},"vehicle_type_id":"4","last_reported":1773819893,"current_range_meters":4400,"station_id":"","pricing_plan_id":"cebpf4jnsgd1na2vs0mg"},{"bike_id":"4e4ba8f7-60dc-4959-9a01-6da668abb084","system_id":"levelo_inurba_marseille","lat":43.2119,"lon":5.35079,"is_reserved":false,"is_disabled":false,"rental_uris":{"android":"levelo://app?vid=4e4ba8f7-60dc-4959-9a01-6da668abb084","ios":"levelo://app?vid=4e4ba8f7-60dc-4959-9a01-6da668abb084"},"vehicle_type_id":"4","last_reported":1773819893,"current_range_meters":4400,"station_id":"st_cvj6sg6p6f1abm77japg","pricing_plan_id":"cebpf4jnsgd1na2vs0mg"},{"bike_id":"56e68bb0-9b77-4db4-a369-96106c9eab13","system_id":"levelo_inurba_marseille","lat":43.24025,"lon":5.37768,"is_reserved":false,"is_disabled":false,"rental_uris":{"android":"levelo://app?vid=56e68bb0-9b77-4db4-a369-96106c9eab13","ios":"levelo://app?vid=56e68bb0-9b77-4db4-a369-96106c9eab13"},"vehicle_type_id":"4","last_reported":1773819893,"current_range_meters":4400,"station_id":"ce4bhnp2rcd13ifvqgvg","pricing_plan_id":"cebpf4jnsgd1na2vs0mg"},{"bike_id":"7bd419bf-7063-4648-840f-e4e63ac8cb30","system_id":"levelo_inurba_marseille","lat":43.27994,"lon":5.40014,"is_reserved":false,"is_disabled":true,"rental_uris":{"android":"levelo://app?vid=7bd419bf-7063-4648-840f-e4e63ac8cb30","ios":"levelo://app?vid=7bd419bf-7063-4648-840f-e4e63ac8cb30"},"vehicle_type_id":"4","last_reported":1773819893,"current_range_meters":4800,"station_id":"ce4bho92rcd13ifvqh4g","pricing_plan_id":"cebpf4jnsgd1na2vs0mg"},{"bike_id":"cfb2e14b-73a8-4466-83b0-51755dfd9dbb","system_id":"levelo_inurba_marseille","lat":43.23194,"lon":5.39969,"is_reserved":false,"is_disabled":true,"rental_uris":{"android":"levelo://app?vid=cfb2e14b-73a8-4466-83b0-51755dfd9dbb","ios":"levelo://app?vid=cfb2e14b-73a8-4466-83b0-51755dfd9dbb"},"vehicle_type_id":"4","last_reported":1773819893,"current_range_meters":4800,"station_id":"ce4bhn12rcd13ifvqgqg","pricing_plan_id":"cebpf4jnsgd1na2vs0mg"},{"bike_id":"2134a193-4b3a-4038-a280-1a0ba6458570","system_id":"levelo_inurba_marseille","lat":43.29806,"lon":5.42127,"is_reserved":false,"is_disabled":false,"rental_uris":{"android":"levelo://app?vid=2134a193-4b3a-4038-a280-1a0ba6458570","ios":"levelo://app?vid=2134a193-4b3a-4038-a280-1a0ba6458570"},"vehicle_type_id":"4","last_reported":1773819893,"current_range_meters":4800,"station_id":"","pricing_plan_id":"cebpf4jnsgd1na2vs0mg"},{"bike_id":"292abd82-4146-466f-9e34-79bd05209e5a","system_id":"levelo_inurba_marseille","lat":43.29949,"lon":5.38521,"is_reserved":false,"is_disabled":false,"rental_uris":{"android":"levelo://app?vid=292abd82-4146-466f-9e34-79bd05209e5a","ios":"levelo://app?vid=292abd82-4146-466f-9e34-79bd05209e5a"},"vehicle_type_id":"4","last_reported":1773819893,"current_range_meters":4800,"station_id":"ce4bgj92rcd13ifvqbd0","pricing_plan_id":"cebpf4jnsgd1na2vs0mg"},{"bike_id":"ab2125f0-f477-425b-9c9a-e4231f7f002b","system_id":"levelo_inurba_marseille","lat":43.21735,"lon":5.34607,"is_reserved":false,"is_disabled":true,"rental_uris":{"android":"levelo://app?vid=ab2125f0-f477-425b-9c9a-e4231f7f002b","ios":"levelo://app?vid=ab2125f0-f477-425b-9c9a-e4231f7f002b"},"vehicle_type_id":"4","last_reported":1773819893,"current_range_meters":4800,"station_id":"st_cvj6r9ubvosntc0bgbag","pricing_plan_id":"cebpf4jnsgd1na2vs0mg"},{"bike_id":"a1cfb408-da52-4413-a934-9b5c4a9189a4","system_id":"levelo_inurba_marseille","lat":43.29584,"lon":5.37524,"is_reserved":false,"is_disabled":false,"rental_uris":{"android":"levelo://app?vid=a1cfb408-da52-4413-a934-9b5c4a9189a4","ios":"levelo://app?vid=a1cfb408-da52-4413-a934-9b5c4a9189a4"},"vehicle_type_id":"4","last_reported":1773819893,"current_range_meters":4800,"station_id":"ce4bgh92rcd13ifvqb50","pricing_plan_id":"cebpf4jnsgd1na2vs0mg"},{"bike_id":"a4456d89-d17c-400e-b5f6-bacb94ff5823","system_id":"levelo_inurba_marseille","lat":43.28152,"lon":5.42633,"is_reserved":false,"is_disabled":false,"rental_uris":{"android":"levelo://app?vid=a4456d89-d17c-400e-b5f6-bacb94ff5823","ios":"levelo://app?vid=a4456d89-d17c-400e-b5f6-bacb94ff5823"},"vehicle_type_id":"4","last_reported":1773819893,"current_range_meters":5600,"station_id":"ce4bhnh2rcd13ifvqgug","pricing_plan_id":"cebpf4jnsgd1na2vs0mg"},{"bike_id":"0b4f2083-08f5-4948-8cc8-8bf28f499d5c","system_id":"levelo_inurba_marseille","lat":43.31083,"lon":5.37773,"is_reserved":false,"is_disabled":false,"rental_uris":{"android":"levelo://app?vid=0b4f2083-08f5-4948-8cc8-8bf28f499d5c","ios":"levelo://app?vid=0b4f2083-08f5-4948-8cc8-8bf28f499d5c"},"vehicle_type_id":"4","last_reported":1773819893,"current_range_meters":5600,"station_id":"ce4bgt92rcd13ifvqcg0","pricing_plan_id":"cebpf4jnsgd1na2vs0mg"},{"bike_id":"8f96089d-eeea-417a-b8cb-43fd48816f86","system_id":"levelo_inurba_marseille","lat":43.302728,"lon":5.390397,"is_reserved":false,"is_disabled":false,"rental_uris":{"android":"levelo://app?vid=8f96089d-eeea-417a-b8cb-43fd48816f86","ios":"levelo://app?vid=8f96089d-eeea-417a-b8cb-43fd48816f86"},"vehicle_type_id":"4","last_reported":1773819893,"current_range_meters":5600,"station_id":"ce4bgkh2rcd13ifvqbk0","pricing_plan_id":"cebpf4jnsgd1na2vs0mg"},{"bike_id":"16018c06-6f6d-4841-966f-a5b99688cd23","system_id":"levelo_inurba_marseille","lat":43.30184,"lon":5.38072,"is_reserved":false,"is_disabled":false,"rental_uris":{"android":"levelo://app?vid=16018c06-6f6d-4841-966f-a5b99688cd23","ios":"levelo://app?vid=16018c06-6f6d-4841-966f-a5b99688cd23"},"vehicle_type_id":"4","last_reported":1773819893,"current_range_meters":5600,"station_id":"ce4bgjp2rcd13ifvqbh0","pricing_plan_id":"cebpf4jnsgd1na2vs0mg"},{"bike_id":"458f604b-e062-47bf-ac14-a001a31d10d8","system_id":"levelo_inurba_marseille","lat":43.28477,"lon":5.48391,"is_reserved":false,"is_disabled":false,"rental_uris":{"android":"levelo://app?vid=458f604b-e062-47bf-ac14-a001a31d10d8","ios":"levelo://app?vid=458f604b-e062-47bf-ac14-a001a31d10d8"},"vehicle_type_id":"4","last_reported":1773819893,"current_range_meters":5600,"station_id":"","pricing_plan_id":"cebpf4jnsgd1na2vs0mg"},{"bike_id":"f7e79517-161a-451a-8a95-bb710b1b4d21","system_id":"levelo_inurba_marseille","lat":43.296,"lon":5.36765,"is_reserved":false,"is_disabled":true,"rental_uris":{"android":"levelo://app?vid=f7e79517-161a-451a-8a95-bb710b1b4d21","ios":"levelo://app?vid=f7e79517-161a-451a-8a95-bb710b1b4d21"},"vehicle_type_id":"4","last_reported":1773819893,"current_range_meters":5600,"station_id":"ce4bgph2rcd13ifvqc2g","pricing_plan_id":"cebpf4jnsgd1na2vs0mg"},{"bike_id":"b5b8b144-cfaf-4287-9933-5469d18ff1ca","system_id":"levelo_inurba_marseille","lat":43.28719,"lon":5.37947,"is_reserved":false,"is_disabled":true,"rental_uris":{"android":"levelo://app?vid=b5b8b144-cfaf-4287-9933-5469d18ff1ca","ios":"levelo://app?vid=b5b8b144-cfaf-4287-9933-5469d18ff1ca"},"vehicle_type_id":"4","last_reported":1773819893,"current_range_meters":5600,"station_id":"ce4bh9p2rcd13ifvqec0","pricing_plan_id":"cebpf4jnsgd1na2vs0mg"},{"bike_id":"83dfe6d5-7b4e-4962-9169-24132413c1be","system_id":"levelo_inurba_marseille","lat":43.31718,"lon":5.42408,"is_reserved":false,"is_disabled":false,"rental_uris":{"android":"levelo://app?vid=83dfe6d5-7b4e-4962-9169-24132413c1be","ios":"levelo://app?vid=83dfe6d5-7b4e-4962-9169-24132413c1be"},"vehicle_type_id":"4","last_reported":1773819893,"current_range_meters":5600,"station_id":"ce4bhp92rcd13ifvqhbg","pricing_plan_id":"cebpf4jnsgd1na2vs0mg"},{"bike_id":"bf249f81-2ef0-45f9-a595-8436dd14fe0c","system_id":"levelo_inurba_marseille","lat":43.32171,"lon":5.367,"is_reserved":false,"is_disabled":true,"rental_uris":{"android":"levelo://app?vid=bf249f81-2ef0-45f9-a595-8436dd14fe0c","ios":"levelo://app?vid=bf249f81-2ef0-45f9-a595-8436dd14fe0c"},"vehicle_type_id":"4","last_reported":1773819893,"current_range_meters":5600,"station_id":"","pricing_plan_id":"cebpf4jnsgd1na2vs0mg"},{"bike_id":"73d6ac76-85e0-49b7-934a-5ac6787a0825","system_id":"levelo_inurba_marseille","lat":43.24019,"lon":5.37767,"is_reserved":false,"is_disabled":false,"rental_uris":{"android":"levelo://app?vid=73d6ac76-85e0-49b7-934a-5ac6787a0825","ios":"levelo://app?vid=73d6ac76-85e0-49b7-934a-5ac6787a0825"},"vehicle_type_id":"4","last_reported":1773819893,"current_range_meters":5600,"station_id":"ce4bhnp2rcd13ifvqgvg","pricing_plan_id":"cebpf4jnsgd1na2vs0mg"},{"bike_id":"b30537fa-8b8a-4f5d-a586-0d954daace58","system_id":"levelo_inurba_marseille","lat":43.3361,"lon":5.41038,"is_reserved":false,"is_disabled":false,"rental_uris":{"android":"levelo://app?vid=b30537fa-8b8a-4f5d-a586-0d954daace58","ios":"levelo://app?vid=b30537fa-8b8a-4f5d-a586-0d954daace58"},"vehicle_type_id":"4","last_reported":1773819893,"current_range_meters":5600,"station_id":"ce4bhqh2rcd13ifvqhmg","pricing_plan_id":"cebpf4jnsgd1na2vs0mg"},{"bike_id":"c2c7c530-5d90-493e-bc68-4654d00e1dc7","system_id":"levelo_inurba_marseille","lat":43.252,"lon":5.40618,"is_reserved":false,"is_disabled":false,"rental_uris":{"android":"levelo://app?vid=c2c7c530-5d90-493e-bc68-4654d00e1dc7","ios":"levelo://app?vid=c2c7c530-5d90-493e-bc68-4654d00e1dc7"},"vehicle_type_id":"4","last_reported":1773819893,"current_range_meters":5600,"station_id":"","pricing_plan_id":"cebpf4jnsgd1na2vs0mg"},{"bike_id":"077ada9a-522a-41df-ad39-ea1bc4f99858","system_id":"levelo_inurba_marseille","lat":43.23151,"lon":5.43715,"is_reserved":false,"is_disabled":false,"rental_uris":{"android":"levelo://app?vid=077ada9a-522a-41df-ad39-ea1bc4f99858","ios":"levelo://app?vid=077ada9a-522a-41df-ad39-ea1bc4f99858"},"vehicle_type_id":"4","last_reported":1773819893,"current_range_meters":6000,"station_id":"ce4bhmp2rcd13ifvqgog","pricing_plan_id":"cebpf4jnsgd1na2vs0mg"},{"bike_id":"7e372e61-a4a4-4320-b78e-0115edf72ed5","system_id":"levelo_inurba_marseille","lat":43.24186,"lon":5.36383,"is_reserved":false,"is_disabled":true,"rental_uris":{"android":"levelo://app?vid=7e372e61-a4a4-4320-b78e-0115edf72ed5","ios":"levelo://app?vid=7e372e61-a4a4-4320-b78e-0115edf72ed5"},"vehicle_type_id":"4","last_reported":1773819893,"current_range_meters":6000,"station_id":"cpo36qri1sfpv3e86is0","pricing_plan_id":"cebpf4jnsgd1na2vs0mg"},{"bike_id":"b273c7e7-c4fe-47a1-9ebd-69d87a83eebf","system_id":"levelo_inurba_marseille","lat":43.313362,"lon":5.367122,"is_reserved":false,"is_disabled":false,"rental_uris":{"android":"levelo://app?vid=b273c7e7-c4fe-47a1-9ebd-69d87a83eebf","ios":"levelo://app?vid=b273c7e7-c4fe-47a1-9ebd-69d87a83eebf"},"vehicle_type_id":"4","last_reported":1773819893,"current_range_meters":6000,"station_id":"ce4bgr92rcd13ifvqc6g","pricing_plan_id":"cebpf4jnsgd1na2vs0mg"},{"bike_id":"d1d58ffe-2b74-486b-89f8-33ac7a985d1b","system_id":"levelo_inurba_marseille","lat":43.25922,"lon":5.40897,"is_reserved":false,"is_disabled":false,"rental_uris":{"android":"levelo://app?vid=d1d58ffe-2b74-486b-89f8-33ac7a985d1b","ios":"levelo://app?vid=d1d58ffe-2b74-486b-89f8-33ac7a985d1b"},"vehicle_type_id":"4","last_reported":1773819893,"current_range_meters":6000,"station_id":"ce4bhm92rcd13ifvqglg","pricing_plan_id":"cebpf4jnsgd1na2vs0mg"},{"bike_id":"f6b870be-9d2a-4c98-b70b-215674098ee6","system_id":"levelo_inurba_marseille","lat":43.29571,"lon":5.37516,"is_reserved":false,"is_disabled":true,"rental_uris":{"android":"levelo://app?vid=f6b870be-9d2a-4c98-b70b-215674098ee6","ios":"levelo://app?vid=f6b870be-9d2a-4c98-b70b-215674098ee6"},"vehicle_type_id":"4","last_reported":1773819893,"current_range_meters":6000,"station_id":"ce4bgh92rcd13ifvqb50","pricing_plan_id":"cebpf4jnsgd1na2vs0mg"},{"bike_id":"64e4942c-04ec-475a-8745-de522dcf5faa","system_id":"levelo_inurba_marseille","lat":43.22932,"lon":5.35382,"is_reserved":false,"is_disabled":false,"rental_uris":{"android":"levelo://app?vid=64e4942c-04ec-475a-8745-de522dcf5faa","ios":"levelo://app?vid=64e4942c-04ec-475a-8745-de522dcf5faa"},"vehicle_type_id":"4","last_reported":1773819893,"current_range_meters":6000,"station_id":"cpo3532slgdg3j2ikp40","pricing_plan_id":"cebpf4jnsgd1na2vs0mg"},{"bike_id":"96dac97a-0c76-4079-a74f-d3b50e0ff04c","system_id":"levelo_inurba_marseille","lat":43.21198,"lon":5.35076,"is_reserved":false,"is_disabled":false,"rental_uris":{"android":"levelo://app?vid=96dac97a-0c76-4079-a74f-d3b50e0ff04c","ios":"levelo://app?vid=96dac97a-0c76-4079-a74f-d3b50e0ff04c"},"vehicle_type_id":"4","last_reported":1773819893,"current_range_meters":6000,"station_id":"st_cvj6sg6p6f1abm77japg","pricing_plan_id":"cebpf4jnsgd1na2vs0mg"},{"bike_id":"c7625cec-885a-4130-9efe-7391d0640914","system_id":"levelo_inurba_marseille","lat":43.27811,"lon":5.40718,"is_reserved":false,"is_disabled":false,"rental_uris":{"android":"levelo://app?vid=c7625cec-885a-4130-9efe-7391d0640914","ios":"levelo://app?vid=c7625cec-885a-4130-9efe-7391d0640914"},"vehicle_type_id":"4","last_reported":1773819893,"current_range_meters":6000,"station_id":"ce4bhnh2rcd13ifvqgtg","pricing_plan_id":"cebpf4jnsgd1na2vs0mg"},{"bike_id":"811cb60e-c2e0-4eff-a720-ab1d90d9f80a","system_id":"levelo_inurba_marseille","lat":43.23389,"lon":5.4123,"is_reserved":false,"is_disabled":false,"rental_uris":{"android":"levelo://app?vid=811cb60e-c2e0-4eff-a720-ab1d90d9f80a","ios":"levelo://app?vid=811cb60e-c2e0-4eff-a720-ab1d90d9f80a"},"vehicle_type_id":"4","last_reported":1773819893,"current_range_meters":6000,"station_id":"","pricing_plan_id":"cebpf4jnsgd1na2vs0mg"},{"bike_id":"7ada2641-316b-4e07-8cf0-f1c79c755356","system_id":"levelo_inurba_marseille","lat":43.24953,"lon":5.40514,"is_reserved":false,"is_disabled":false,"rental_uris":{"android":"levelo://app?vid=7ada2641-316b-4e07-8cf0-f1c79c755356","ios":"levelo://app?vid=7ada2641-316b-4e07-8cf0-f1c79c755356"},"vehicle_type_id":"4","last_reported":1773819893,"current_range_meters":6400,"station_id":"st_d2ngiaodas8pm72gd1h0","pricing_plan_id":"cebpf4jnsgd1na2vs0mg"},{"bike_id":"dfd63411-2eb6-430d-bd66-33e3d3f19978","system_id":"levelo_inurba_marseille","lat":43.31341,"lon":5.3673,"is_reserved":false,"is_disabled":false,"rental_uris":{"android":"levelo://app?vid=dfd63411-2eb6-430d-bd66-33e3d3f19978","ios":"levelo://app?vid=dfd63411-2eb6-430d-bd66-33e3d3f19978"},"vehicle_type_id":"4","last_reported":1773819893,"current_range_meters":6400,"station_id":"ce4bgr92rcd13ifvqc6g","pricing_plan_id":"cebpf4jnsgd1na2vs0mg"},{"bike_id":"dbab349c-c5b4-44d2-82cd-ce91d25828af","system_id":"levelo_inurba_marseille","lat":43.25864,"lon":5.39904,"is_reserved":false,"is_disabled":false,"rental_uris":{"android":"levelo://app?vid=dbab349c-c5b4-44d2-82cd-ce91d25828af","ios":"levelo://app?vid=dbab349c-c5b4-44d2-82cd-ce91d25828af"},"vehicle_type_id":"4","last_reported":1773819893,"current_range_meters":6400,"station_id":"ce4bhl92rcd13ifvqghg","pricing_plan_id":"cebpf4jnsgd1na2vs0mg"},{"bike_id":"cd5f896b-1575-445f-87a2-f997642870e7","system_id":"levelo_inurba_marseille","lat":43.305443,"lon":5.365562,"is_reserved":false,"is_disabled":false,"rental_uris":{"android":"levelo://app?vid=cd5f896b-1575-445f-87a2-f997642870e7","ios":"levelo://app?vid=cd5f896b-1575-445f-87a2-f997642870e7"},"vehicle_type_id":"4","last_reported":1773819893,"current_range_meters":6400,"station_id":"ce4bgs12rcd13ifvqcag","pricing_plan_id":"cebpf4jnsgd1na2vs0mg"},{"bike_id":"82dcdf4f-8f8d-49c8-bf8f-175264f4f3bd","system_id":"levelo_inurba_marseille","lat":43.22539,"lon":5.34826,"is_reserved":false,"is_disabled":false,"rental_uris":{"android":"levelo://app?vid=82dcdf4f-8f8d-49c8-bf8f-175264f4f3bd","ios":"levelo://app?vid=82dcdf4f-8f8d-49c8-bf8f-175264f4f3bd"},"vehicle_type_id":"4","last_reported":1773819893,"current_range_meters":6400,"station_id":"st_cvj5dfep6f1abm77gieg","pricing_plan_id":"cebpf4jnsgd1na2vs0mg"},{"bike_id":"2567a655-2c75-4ae5-a8b5-6cd436626987","system_id":"levelo_inurba_marseille","lat":43.28161,"lon":5.4262,"is_reserved":false,"is_disabled":false,"rental_uris":{"android":"levelo://app?vid=2567a655-2c75-4ae5-a8b5-6cd436626987","ios":"levelo://app?vid=2567a655-2c75-4ae5-a8b5-6cd436626987"},"vehicle_type_id":"4","last_reported":1773819893,"current_range_meters":6400,"station_id":"ce4bhnh2rcd13ifvqgug","pricing_plan_id":"cebpf4jnsgd1na2vs0mg"},{"bike_id":"047af0a5-14e2-479e-aa98-65733b038f29","system_id":"levelo_inurba_marseille","lat":43.337444,"lon":5.374475,"is_reserved":false,"is_disabled":true,"rental_uris":{"android":"levelo://app?vid=047af0a5-14e2-479e-aa98-65733b038f29","ios":"levelo://app?vid=047af0a5-14e2-479e-aa98-65733b038f29"},"vehicle_type_id":"4","last_reported":1773819893,"current_range_meters":6400,"station_id":"ce4bgip2rcd13ifvqbb0","pricing_plan_id":"cebpf4jnsgd1na2vs0mg"},{"bike_id":"6ff77052-2b2a-49dd-87a8-c8d9a9d1a863","system_id":"levelo_inurba_marseille","lat":43.29252,"lon":5.40916,"is_reserved":false,"is_disabled":false,"rental_uris":{"android":"levelo://app?vid=6ff77052-2b2a-49dd-87a8-c8d9a9d1a863","ios":"levelo://app?vid=6ff77052-2b2a-49dd-87a8-c8d9a9d1a863"},"vehicle_type_id":"4","last_reported":1773819893,"current_range_meters":6400,"station_id":"ce4bh192rcd13ifvqdc0","pricing_plan_id":"cebpf4jnsgd1na2vs0mg"},{"bike_id":"a266db77-7d4b-47a3-b204-b136086706b0","system_id":"levelo_inurba_marseille","lat":43.3122,"lon":5.3685,"is_reserved":false,"is_disabled":false,"rental_uris":{"android":"levelo://app?vid=a266db77-7d4b-47a3-b204-b136086706b0","ios":"levelo://app?vid=a266db77-7d4b-47a3-b204-b136086706b0"},"vehicle_type_id":"4","last_reported":1773819893,"current_range_meters":6400,"station_id":"ce4bgl92rcd13ifvqbq0","pricing_plan_id":"cebpf4jnsgd1na2vs0mg"},{"bike_id":"2874775b-146e-45de-9a13-98bbe699d55d","system_id":"levelo_inurba_marseille","lat":43.24582,"lon":5.43166,"is_reserved":false,"is_disabled":true,"rental_uris":{"android":"levelo://app?vid=2874775b-146e-45de-9a13-98bbe699d55d","ios":"levelo://app?vid=2874775b-146e-45de-9a13-98bbe699d55d"},"vehicle_type_id":"4","last_reported":1773819893,"current_range_meters":6400,"station_id":"","pricing_plan_id":"cebpf4jnsgd1na2vs0mg"},{"bike_id":"639bb6b3-4ec4-4153-8b41-915e2cf0b2f9","system_id":"levelo_inurba_marseille","lat":43.31339,"lon":5.3671,"is_reserved":false,"is_disabled":false,"rental_uris":{"android":"levelo://app?vid=639bb6b3-4ec4-4153-8b41-915e2cf0b2f9","ios":"levelo://app?vid=639bb6b3-4ec4-4153-8b41-915e2cf0b2f9"},"vehicle_type_id":"4","last_reported":1773819893,"current_range_meters":6400,"station_id":"ce4bgr92rcd13ifvqc6g","pricing_plan_id":"cebpf4jnsgd1na2vs0mg"},{"bike_id":"0940c0ab-3cca-4660-9974-509b4f5e9818","system_id":"levelo_inurba_marseille","lat":43.28928,"lon":5.39521,"is_reserved":false,"is_disabled":false,"rental_uris":{"android":"levelo://app?vid=0940c0ab-3cca-4660-9974-509b4f5e9818","ios":"levelo://app?vid=0940c0ab-3cca-4660-9974-509b4f5e9818"},"vehicle_type_id":"4","last_reported":1773819893,"current_range_meters":6400,"station_id":"","pricing_plan_id":"cebpf4jnsgd1na2vs0mg"},{"bike_id":"b9f2e5d5-d6ac-4c0d-86f2-4fe1a54ef3b3","system_id":"levelo_inurba_marseille","lat":43.32128,"lon":5.36803,"is_reserved":false,"is_disabled":false,"rental_uris":{"android":"levelo://app?vid=b9f2e5d5-d6ac-4c0d-86f2-4fe1a54ef3b3","ios":"levelo://app?vid=b9f2e5d5-d6ac-4c0d-86f2-4fe1a54ef3b3"},"vehicle_type_id":"4","last_reported":1773819893,"current_range_meters":6400,"station_id":"ce4bhrh2rcd13ifvqhug","pricing_plan_id":"cebpf4jnsgd1na2vs0mg"},{"bike_id":"f5bcc30c-fb06-46f4-a1be-c841326461a4","system_id":"levelo_inurba_marseille","lat":43.28867,"lon":5.42527,"is_reserved":false,"is_disabled":false,"rental_uris":{"android":"levelo://app?vid=f5bcc30c-fb06-46f4-a1be-c841326461a4","ios":"levelo://app?vid=f5bcc30c-fb06-46f4-a1be-c841326461a4"},"vehicle_type_id":"4","last_reported":1773819893,"current_range_meters":6800,"station_id":"","pricing_plan_id":"cebpf4jnsgd1na2vs0mg"},{"bike_id":"09b50b48-1342-4da7-892a-788b7c7b0016","system_id":"levelo_inurba_marseille","lat":43.3361,"lon":5.41026,"is_reserved":false,"is_disabled":false,"rental_uris":{"android":"levelo://app?vid=09b50b48-1342-4da7-892a-788b7c7b0016","ios":"levelo://app?vid=09b50b48-1342-4da7-892a-788b7c7b0016"},"vehicle_type_id":"4","last_reported":1773819893,"current_range_meters":6800,"station_id":"ce4bhqh2rcd13ifvqhmg","pricing_plan_id":"cebpf4jnsgd1na2vs0mg"},{"bike_id":"ede1fcf6-5677-4485-b676-a999f23e2a74","system_id":"levelo_inurba_marseille","lat":43.29286,"lon":5.36852,"is_reserved":false,"is_disabled":false,"rental_uris":{"android":"levelo://app?vid=ede1fcf6-5677-4485-b676-a999f23e2a74","ios":"levelo://app?vid=ede1fcf6-5677-4485-b676-a999f23e2a74"},"vehicle_type_id":"4","last_reported":1773819893,"current_range_meters":6800,"station_id":"ce4bhbp2rcd13ifvqesg","pricing_plan_id":"cebpf4jnsgd1na2vs0mg"},{"bike_id":"9605d782-0323-44bb-be12-5d0843b3fa58","system_id":"levelo_inurba_marseille","lat":43.25929,"lon":5.40908,"is_reserved":false,"is_disabled":false,"rental_uris":{"android":"levelo://app?vid=9605d782-0323-44bb-be12-5d0843b3fa58","ios":"levelo://app?vid=9605d782-0323-44bb-be12-5d0843b3fa58"},"vehicle_type_id":"4","last_reported":1773819893,"current_range_meters":6800,"station_id":"ce4bhm92rcd13ifvqglg","pricing_plan_id":"cebpf4jnsgd1na2vs0mg"},{"bike_id":"4d6f38b9-feb7-4809-8eed-e5ea4d4f2799","system_id":"levelo_inurba_marseille","lat":43.27694,"lon":5.3891,"is_reserved":false,"is_disabled":false,"rental_uris":{"android":"levelo://app?vid=4d6f38b9-feb7-4809-8eed-e5ea4d4f2799","ios":"levelo://app?vid=4d6f38b9-feb7-4809-8eed-e5ea4d4f2799"},"vehicle_type_id":"4","last_reported":1773819893,"current_range_meters":6800,"station_id":"ce4bhi12rcd13ifvqfo0","pricing_plan_id":"cebpf4jnsgd1na2vs0mg"},{"bike_id":"0aa81194-5fca-4a70-91c6-3ef30d559635","system_id":"levelo_inurba_marseille","lat":43.24375,"lon":5.37042,"is_reserved":false,"is_disabled":false,"rental_uris":{"android":"levelo://app?vid=0aa81194-5fca-4a70-91c6-3ef30d559635","ios":"levelo://app?vid=0aa81194-5fca-4a70-91c6-3ef30d559635"},"vehicle_type_id":"4","last_reported":1773819893,"current_range_meters":6800,"station_id":"ce4bhhh2rcd13ifvqfk0","pricing_plan_id":"cebpf4jnsgd1na2vs0mg"},{"bike_id":"e563383a-8a89-4304-b11f-18268886193e","system_id":"levelo_inurba_marseille","lat":43.25581,"lon":5.38242,"is_reserved":false,"is_disabled":false,"rental_uris":{"android":"levelo://app?vid=e563383a-8a89-4304-b11f-18268886193e","ios":"levelo://app?vid=e563383a-8a89-4304-b11f-18268886193e"},"vehicle_type_id":"4","last_reported":1773819893,"current_range_meters":6800,"station_id":"ce4bhih2rcd13ifvqfs0","pricing_plan_id":"cebpf4jnsgd1na2vs0mg"},{"bike_id":"e19bbcec-af9d-483d-ac29-18df3b9c0ab9","system_id":"levelo_inurba_marseille","lat":43.28472,"lon":5.484,"is_reserved":false,"is_disabled":false,"rental_uris":{"android":"levelo://app?vid=e19bbcec-af9d-483d-ac29-18df3b9c0ab9","ios":"levelo://app?vid=e19bbcec-af9d-483d-ac29-18df3b9c0ab9"},"vehicle_type_id":"4","last_reported":1773819893,"current_range_meters":6800,"station_id":"st_d3svhcjqgbts73a3dn0g","pricing_plan_id":"cebpf4jnsgd1na2vs0mg"},{"bike_id":"f7cad0dd-4929-454b-8848-7575c69435e1","system_id":"levelo_inurba_marseille","lat":43.25854,"lon":5.39887,"is_reserved":false,"is_disabled":true,"rental_uris":{"android":"levelo://app?vid=f7cad0dd-4929-454b-8848-7575c69435e1","ios":"levelo://app?vid=f7cad0dd-4929-454b-8848-7575c69435e1"},"vehicle_type_id":"4","last_reported":1773819893,"current_range_meters":6800,"station_id":"ce4bhl92rcd13ifvqghg","pricing_plan_id":"cebpf4jnsgd1na2vs0mg"},{"bike_id":"901c28db-c015-4313-845b-db71a8b5949f","system_id":"levelo_inurba_marseille","lat":43.24163,"lon":5.39703,"is_reserved":false,"is_disabled":true,"rental_uris":{"android":"levelo://app?vid=901c28db-c015-4313-845b-db71a8b5949f","ios":"levelo://app?vid=901c28db-c015-4313-845b-db71a8b5949f"},"vehicle_type_id":"4","last_reported":1773819893,"current_range_meters":6800,"station_id":"ce4bhn12rcd13ifvqgpg","pricing_plan_id":"cebpf4jnsgd1na2vs0mg"},{"bike_id":"a14f5aeb-6664-4a8f-ae07-1a8a18b880bc","system_id":"levelo_inurba_marseille","lat":43.28726,"lon":5.37933,"is_reserved":false,"is_disabled":false,"rental_uris":{"android":"levelo://app?vid=a14f5aeb-6664-4a8f-ae07-1a8a18b880bc","ios":"levelo://app?vid=a14f5aeb-6664-4a8f-ae07-1a8a18b880bc"},"vehicle_type_id":"4","last_reported":1773819893,"current_range_meters":6800,"station_id":"ce4bh9p2rcd13ifvqec0","pricing_plan_id":"cebpf4jnsgd1na2vs0mg"},{"bike_id":"0f8a9057-1ae1-45b6-af9b-ff1d43f8fd7d","system_id":"levelo_inurba_marseille","lat":43.28527,"lon":5.44114,"is_reserved":false,"is_disabled":false,"rental_uris":{"android":"levelo://app?vid=0f8a9057-1ae1-45b6-af9b-ff1d43f8fd7d","ios":"levelo://app?vid=0f8a9057-1ae1-45b6-af9b-ff1d43f8fd7d"},"vehicle_type_id":"4","last_reported":1773819893,"current_range_meters":6800,"station_id":"st_d3j3df2ikq2c7380ej80","pricing_plan_id":"cebpf4jnsgd1na2vs0mg"},{"bike_id":"bdec0e5b-0b6d-4f1c-9606-cf7119fadf8b","system_id":"levelo_inurba_marseille","lat":43.29248,"lon":5.40165,"is_reserved":false,"is_disabled":false,"rental_uris":{"android":"levelo://app?vid=bdec0e5b-0b6d-4f1c-9606-cf7119fadf8b","ios":"levelo://app?vid=bdec0e5b-0b6d-4f1c-9606-cf7119fadf8b"},"vehicle_type_id":"4","last_reported":1773819893,"current_range_meters":6800,"station_id":"","pricing_plan_id":"cebpf4jnsgd1na2vs0mg"},{"bike_id":"69f9e7d0-9e6e-48d9-8402-311a294217e6","system_id":"levelo_inurba_marseille","lat":43.29367,"lon":5.37868,"is_reserved":false,"is_disabled":true,"rental_uris":{"android":"levelo://app?vid=69f9e7d0-9e6e-48d9-8402-311a294217e6","ios":"levelo://app?vid=69f9e7d0-9e6e-48d9-8402-311a294217e6"},"vehicle_type_id":"4","last_reported":1773819893,"current_range_meters":6800,"station_id":"ce4bgjh2rcd13ifvqbf0","pricing_plan_id":"cebpf4jnsgd1na2vs0mg"},{"bike_id":"0bacd49d-1e82-47d0-b9c4-534513f8cc81","system_id":"levelo_inurba_marseille","lat":43.30959,"lon":5.39024,"is_reserved":false,"is_disabled":true,"rental_uris":{"android":"levelo://app?vid=0bacd49d-1e82-47d0-b9c4-534513f8cc81","ios":"levelo://app?vid=0bacd49d-1e82-47d0-b9c4-534513f8cc81"},"vehicle_type_id":"4","last_reported":1773819893,"current_range_meters":6800,"station_id":"ce4bgup2rcd13ifvqco0","pricing_plan_id":"cebpf4jnsgd1na2vs0mg"},{"bike_id":"455bb117-1c58-4c21-9bd3-6a2b5ba0015a","system_id":"levelo_inurba_marseille","lat":43.30541,"lon":5.36522,"is_reserved":false,"is_disabled":false,"rental_uris":{"android":"levelo://app?vid=455bb117-1c58-4c21-9bd3-6a2b5ba0015a","ios":"levelo://app?vid=455bb117-1c58-4c21-9bd3-6a2b5ba0015a"},"vehicle_type_id":"4","last_reported":1773819893,"current_range_meters":6800,"station_id":"ce4bgs12rcd13ifvqcag","pricing_plan_id":"cebpf4jnsgd1na2vs0mg"},{"bike_id":"f8a00c49-c93d-41ce-9f11-d81257ca6394","system_id":"levelo_inurba_marseille","lat":43.22946,"lon":5.35372,"is_reserved":false,"is_disabled":false,"rental_uris":{"android":"levelo://app?vid=f8a00c49-c93d-41ce-9f11-d81257ca6394","ios":"levelo://app?vid=f8a00c49-c93d-41ce-9f11-d81257ca6394"},"vehicle_type_id":"4","last_reported":1773819893,"current_range_meters":6800,"station_id":"cpo3532slgdg3j2ikp40","pricing_plan_id":"cebpf4jnsgd1na2vs0mg"},{"bike_id":"f08d135e-a426-40dc-a272-6448b5445f92","system_id":"levelo_inurba_marseille","lat":43.29271,"lon":5.36851,"is_reserved":false,"is_disabled":false,"rental_uris":{"android":"levelo://app?vid=f08d135e-a426-40dc-a272-6448b5445f92","ios":"levelo://app?vid=f08d135e-a426-40dc-a272-6448b5445f92"},"vehicle_type_id":"4","last_reported":1773819893,"current_range_meters":6800,"station_id":"ce4bhbp2rcd13ifvqesg","pricing_plan_id":"cebpf4jnsgd1na2vs0mg"},{"bike_id":"5f7edc62-03e6-4942-83a2-f3faa30b6803","system_id":"levelo_inurba_marseille","lat":43.27308,"lon":5.39079,"is_reserved":false,"is_disabled":false,"rental_uris":{"android":"levelo://app?vid=5f7edc62-03e6-4942-83a2-f3faa30b6803","ios":"levelo://app?vid=5f7edc62-03e6-4942-83a2-f3faa30b6803"},"vehicle_type_id":"4","last_reported":1773819893,"current_range_meters":6800,"station_id":"ce4bhgp2rcd13ifvqfe0","pricing_plan_id":"cebpf4jnsgd1na2vs0mg"},{"bike_id":"12b4799c-053f-4593-9120-d5f9e1bd0b23","system_id":"levelo_inurba_marseille","lat":43.27211,"lon":5.39185,"is_reserved":false,"is_disabled":false,"rental_uris":{"android":"levelo://app?vid=12b4799c-053f-4593-9120-d5f9e1bd0b23","ios":"levelo://app?vid=12b4799c-053f-4593-9120-d5f9e1bd0b23"},"vehicle_type_id":"4","last_reported":1773819893,"current_range_meters":6800,"station_id":"ce4bhhp2rcd13ifvqfm0","pricing_plan_id":"cebpf4jnsgd1na2vs0mg"},{"bike_id":"99d0b8bc-0cd1-4d6d-ba06-1452183cca0c","system_id":"levelo_inurba_marseille","lat":43.28284,"lon":5.35084,"is_reserved":false,"is_disabled":false,"rental_uris":{"android":"levelo://app?vid=99d0b8bc-0cd1-4d6d-ba06-1452183cca0c","ios":"levelo://app?vid=99d0b8bc-0cd1-4d6d-ba06-1452183cca0c"},"vehicle_type_id":"4","last_reported":1773819893,"current_range_meters":7200,"station_id":"ce4bhbp2rcd13ifvqerg","pricing_plan_id":"cebpf4jnsgd1na2vs0mg"},{"bike_id":"70f98469-d2c0-43f4-9102-c6ad6fb97bca","system_id":"levelo_inurba_marseille","lat":43.21771,"lon":5.34576,"is_reserved":false,"is_disabled":false,"rental_uris":{"android":"levelo://app?vid=70f98469-d2c0-43f4-9102-c6ad6fb97bca","ios":"levelo://app?vid=70f98469-d2c0-43f4-9102-c6ad6fb97bca"},"vehicle_type_id":"4","last_reported":1773819893,"current_range_meters":7200,"station_id":"st_cvj6r9ubvosntc0bgbag","pricing_plan_id":"cebpf4jnsgd1na2vs0mg"},{"bike_id":"efa56788-fd95-4d6e-84ce-b31b80bc3dea","system_id":"levelo_inurba_marseille","lat":43.29298,"lon":5.37445,"is_reserved":false,"is_disabled":true,"rental_uris":{"android":"levelo://app?vid=efa56788-fd95-4d6e-84ce-b31b80bc3dea","ios":"levelo://app?vid=efa56788-fd95-4d6e-84ce-b31b80bc3dea"},"vehicle_type_id":"4","last_reported":1773819893,"current_range_meters":7200,"station_id":"ce4bgi12rcd13ifvqb70","pricing_plan_id":"cebpf4jnsgd1na2vs0mg"},{"bike_id":"2a17c1d0-ddeb-46fc-8c2f-325eb3e4c098","system_id":"levelo_inurba_marseille","lat":43.28606,"lon":5.39872,"is_reserved":false,"is_disabled":false,"rental_uris":{"android":"levelo://app?vid=2a17c1d0-ddeb-46fc-8c2f-325eb3e4c098","ios":"levelo://app?vid=2a17c1d0-ddeb-46fc-8c2f-325eb3e4c098"},"vehicle_type_id":"4","last_reported":1773819893,"current_range_meters":7200,"station_id":"st_d4a7ka997mjs738ck50g","pricing_plan_id":"cebpf4jnsgd1na2vs0mg"},{"bike_id":"3feb4c73-6e63-47f9-927f-446525b49f72","system_id":"levelo_inurba_marseille","lat":43.31879,"lon":5.36815,"is_reserved":false,"is_disabled":false,"rental_uris":{"android":"levelo://app?vid=3feb4c73-6e63-47f9-927f-446525b49f72","ios":"levelo://app?vid=3feb4c73-6e63-47f9-927f-446525b49f72"},"vehicle_type_id":"4","last_reported":1773819893,"current_range_meters":7200,"station_id":"st_d6o2h0d0559c73evc1b0","pricing_plan_id":"cebpf4jnsgd1na2vs0mg"},{"bike_id":"7c245f6b-63fb-4c36-8493-afb8fd5288f8","system_id":"levelo_inurba_marseille","lat":43.31212,"lon":5.39105,"is_reserved":false,"is_disabled":false,"rental_uris":{"android":"levelo://app?vid=7c245f6b-63fb-4c36-8493-afb8fd5288f8","ios":"levelo://app?vid=7c245f6b-63fb-4c36-8493-afb8fd5288f8"},"vehicle_type_id":"4","last_reported":1773819893,"current_range_meters":7200,"station_id":"","pricing_plan_id":"cebpf4jnsgd1na2vs0mg"},{"bike_id":"643281bc-1ddb-4326-b8ee-47c3de73f7fc","system_id":"levelo_inurba_marseille","lat":43.23055,"lon":5.35495,"is_reserved":false,"is_disabled":false,"rental_uris":{"android":"levelo://app?vid=643281bc-1ddb-4326-b8ee-47c3de73f7fc","ios":"levelo://app?vid=643281bc-1ddb-4326-b8ee-47c3de73f7fc"},"vehicle_type_id":"4","last_reported":1773819893,"current_range_meters":7200,"station_id":"cpo3342slgdg3j2ifvpg","pricing_plan_id":"cebpf4jnsgd1na2vs0mg"},{"bike_id":"a1ce7f50-24f0-4981-95a3-cd96949f1bbd","system_id":"levelo_inurba_marseille","lat":43.26555,"lon":5.39045,"is_reserved":false,"is_disabled":false,"rental_uris":{"android":"levelo://app?vid=a1ce7f50-24f0-4981-95a3-cd96949f1bbd","ios":"levelo://app?vid=a1ce7f50-24f0-4981-95a3-cd96949f1bbd"},"vehicle_type_id":"4","last_reported":1773819893,"current_range_meters":7200,"station_id":"ce4bhe12rcd13ifvqf30","pricing_plan_id":"cebpf4jnsgd1na2vs0mg"},{"bike_id":"2706db3b-3f01-4b6b-a1e9-42e6bda22571","system_id":"levelo_inurba_marseille","lat":43.26191,"lon":5.37341,"is_reserved":false,"is_disabled":false,"rental_uris":{"android":"levelo://app?vid=2706db3b-3f01-4b6b-a1e9-42e6bda22571","ios":"levelo://app?vid=2706db3b-3f01-4b6b-a1e9-42e6bda22571"},"vehicle_type_id":"4","last_reported":1773819893,"current_range_meters":7200,"station_id":"","pricing_plan_id":"cebpf4jnsgd1na2vs0mg"},{"bike_id":"d8e2d3b7-2ad4-4067-b57e-7234f0f738e4","system_id":"levelo_inurba_marseille","lat":43.30156,"lon":5.38092,"is_reserved":false,"is_disabled":false,"rental_uris":{"android":"levelo://app?vid=d8e2d3b7-2ad4-4067-b57e-7234f0f738e4","ios":"levelo://app?vid=d8e2d3b7-2ad4-4067-b57e-7234f0f738e4"},"vehicle_type_id":"4","last_reported":1773819893,"current_range_meters":7200,"station_id":"ce4bgjp2rcd13ifvqbh0","pricing_plan_id":"cebpf4jnsgd1na2vs0mg"},{"bike_id":"6b40fc53-88b4-49ac-921b-e4ffe1669a10","system_id":"levelo_inurba_marseille","lat":43.25337,"lon":5.42179,"is_reserved":false,"is_disabled":false,"rental_uris":{"android":"levelo://app?vid=6b40fc53-88b4-49ac-921b-e4ffe1669a10","ios":"levelo://app?vid=6b40fc53-88b4-49ac-921b-e4ffe1669a10"},"vehicle_type_id":"4","last_reported":1773819893,"current_range_meters":8000,"station_id":"st_d2m65c5bi1j21697t3ng","pricing_plan_id":"cebpf4jnsgd1na2vs0mg"},{"bike_id":"8c6bc72c-3dae-4a20-aa5b-756c39133579","system_id":"levelo_inurba_marseille","lat":43.288643,"lon":5.358664,"is_reserved":false,"is_disabled":false,"rental_uris":{"android":"levelo://app?vid=8c6bc72c-3dae-4a20-aa5b-756c39133579","ios":"levelo://app?vid=8c6bc72c-3dae-4a20-aa5b-756c39133579"},"vehicle_type_id":"4","last_reported":1773819893,"current_range_meters":8000,"station_id":"ce4bhb12rcd13ifvqem0","pricing_plan_id":"cebpf4jnsgd1na2vs0mg"},{"bike_id":"a4c725fa-9af4-4690-b94a-876359a2d01c","system_id":"levelo_inurba_marseille","lat":43.24187,"lon":5.39734,"is_reserved":false,"is_disabled":false,"rental_uris":{"android":"levelo://app?vid=a4c725fa-9af4-4690-b94a-876359a2d01c","ios":"levelo://app?vid=a4c725fa-9af4-4690-b94a-876359a2d01c"},"vehicle_type_id":"4","last_reported":1773819893,"current_range_meters":8000,"station_id":"ce4bhn12rcd13ifvqgpg","pricing_plan_id":"cebpf4jnsgd1na2vs0mg"},{"bike_id":"4ca5e067-9350-4cc0-855c-d565dcef7221","system_id":"levelo_inurba_marseille","lat":43.23197,"lon":5.35571,"is_reserved":false,"is_disabled":false,"rental_uris":{"android":"levelo://app?vid=4ca5e067-9350-4cc0-855c-d565dcef7221","ios":"levelo://app?vid=4ca5e067-9350-4cc0-855c-d565dcef7221"},"vehicle_type_id":"4","last_reported":1773819893,"current_range_meters":8000,"station_id":"ce4bhu92rcd13ifvqi70","pricing_plan_id":"cebpf4jnsgd1na2vs0mg"},{"bike_id":"7d9d7aa8-fbf6-4ec2-9dd9-58e4fbfbf40b","system_id":"levelo_inurba_marseille","lat":43.33741,"lon":5.39196,"is_reserved":false,"is_disabled":false,"rental_uris":{"android":"levelo://app?vid=7d9d7aa8-fbf6-4ec2-9dd9-58e4fbfbf40b","ios":"levelo://app?vid=7d9d7aa8-fbf6-4ec2-9dd9-58e4fbfbf40b"},"vehicle_type_id":"4","last_reported":1773819893,"current_range_meters":8000,"station_id":"ce4bhr92rcd13ifvqhsg","pricing_plan_id":"cebpf4jnsgd1na2vs0mg"},{"bike_id":"d86f7f17-c40c-40d2-9445-70d30fa0ef64","system_id":"levelo_inurba_marseille","lat":43.2176,"lon":5.34589,"is_reserved":false,"is_disabled":true,"rental_uris":{"android":"levelo://app?vid=d86f7f17-c40c-40d2-9445-70d30fa0ef64","ios":"levelo://app?vid=d86f7f17-c40c-40d2-9445-70d30fa0ef64"},"vehicle_type_id":"4","last_reported":1773819893,"current_range_meters":8000,"station_id":"st_cvj6r9ubvosntc0bgbag","pricing_plan_id":"cebpf4jnsgd1na2vs0mg"},{"bike_id":"d0e658ae-6d7b-4756-a94b-be2999ddc02e","system_id":"levelo_inurba_marseille","lat":43.30653,"lon":5.39893,"is_reserved":false,"is_disabled":false,"rental_uris":{"android":"levelo://app?vid=d0e658ae-6d7b-4756-a94b-be2999ddc02e","ios":"levelo://app?vid=d0e658ae-6d7b-4756-a94b-be2999ddc02e"},"vehicle_type_id":"4","last_reported":1773819893,"current_range_meters":8000,"station_id":"","pricing_plan_id":"cebpf4jnsgd1na2vs0mg"},{"bike_id":"0de91aa7-85fc-42bc-9d70-ecd803417e08","system_id":"levelo_inurba_marseille","lat":43.2796,"lon":5.41058,"is_reserved":false,"is_disabled":true,"rental_uris":{"android":"levelo://app?vid=0de91aa7-85fc-42bc-9d70-ecd803417e08","ios":"levelo://app?vid=0de91aa7-85fc-42bc-9d70-ecd803417e08"},"vehicle_type_id":"4","last_reported":1773819893,"current_range_meters":8000,"station_id":"ce4bhnp2rcd13ifvqh0g","pricing_plan_id":"cebpf4jnsgd1na2vs0mg"},{"bike_id":"f20f82c5-e2c3-4db1-85d3-e096d4b03259","system_id":"levelo_inurba_marseille","lat":43.24648,"lon":5.38902,"is_reserved":false,"is_disabled":true,"rental_uris":{"android":"levelo://app?vid=f20f82c5-e2c3-4db1-85d3-e096d4b03259","ios":"levelo://app?vid=f20f82c5-e2c3-4db1-85d3-e096d4b03259"},"vehicle_type_id":"4","last_reported":1773819893,"current_range_meters":8000,"station_id":"ce4bhg12rcd13ifvqf60","pricing_plan_id":"cebpf4jnsgd1na2vs0mg"},{"bike_id":"447b11a1-21b5-4523-80dc-ebe593853403","system_id":"levelo_inurba_marseille","lat":43.29204,"lon":5.4266,"is_reserved":false,"is_disabled":false,"rental_uris":{"android":"levelo://app?vid=447b11a1-21b5-4523-80dc-ebe593853403","ios":"levelo://app?vid=447b11a1-21b5-4523-80dc-ebe593853403"},"vehicle_type_id":"4","last_reported":1773819893,"current_range_meters":8000,"station_id":"","pricing_plan_id":"cebpf4jnsgd1na2vs0mg"},{"bike_id":"c47ff79e-34f0-49a2-ac82-cbba34b15852","system_id":"levelo_inurba_marseille","lat":43.30147,"lon":5.38091,"is_reserved":false,"is_disabled":false,"rental_uris":{"android":"levelo://app?vid=c47ff79e-34f0-49a2-ac82-cbba34b15852","ios":"levelo://app?vid=c47ff79e-34f0-49a2-ac82-cbba34b15852"},"vehicle_type_id":"4","last_reported":1773819893,"current_range_meters":8000,"station_id":"ce4bgjp2rcd13ifvqbh0","pricing_plan_id":"cebpf4jnsgd1na2vs0mg"},{"bike_id":"895a0db2-f5e9-4a5d-b368-6d9de91755cc","system_id":"levelo_inurba_marseille","lat":43.28424,"lon":5.34983,"is_reserved":false,"is_disabled":false,"rental_uris":{"android":"levelo://app?vid=895a0db2-f5e9-4a5d-b368-6d9de91755cc","ios":"levelo://app?vid=895a0db2-f5e9-4a5d-b368-6d9de91755cc"},"vehicle_type_id":"4","last_reported":1773819893,"current_range_meters":8000,"station_id":"ce4bhbh2rcd13ifvqepg","pricing_plan_id":"cebpf4jnsgd1na2vs0mg"},{"bike_id":"81140dfd-97af-4671-b348-34770e012585","system_id":"levelo_inurba_marseille","lat":43.30153,"lon":5.38099,"is_reserved":false,"is_disabled":false,"rental_uris":{"android":"levelo://app?vid=81140dfd-97af-4671-b348-34770e012585","ios":"levelo://app?vid=81140dfd-97af-4671-b348-34770e012585"},"vehicle_type_id":"4","last_reported":1773819893,"current_range_meters":8000,"station_id":"ce4bgjp2rcd13ifvqbh0","pricing_plan_id":"cebpf4jnsgd1na2vs0mg"},{"bike_id":"167cce82-8d98-4503-af2f-d498aee11de8","system_id":"levelo_inurba_marseille","lat":43.27305,"lon":5.39083,"is_reserved":false,"is_disabled":false,"rental_uris":{"android":"levelo://app?vid=167cce82-8d98-4503-af2f-d498aee11de8","ios":"levelo://app?vid=167cce82-8d98-4503-af2f-d498aee11de8"},"vehicle_type_id":"4","last_reported":1773819893,"current_range_meters":8000,"station_id":"ce4bhgp2rcd13ifvqfe0","pricing_plan_id":"cebpf4jnsgd1na2vs0mg"},{"bike_id":"935da9a9-5f63-42ea-afe6-9baa0a1672c4","system_id":"levelo_inurba_marseille","lat":43.28314,"lon":5.40494,"is_reserved":false,"is_disabled":false,"rental_uris":{"android":"levelo://app?vid=935da9a9-5f63-42ea-afe6-9baa0a1672c4","ios":"levelo://app?vid=935da9a9-5f63-42ea-afe6-9baa0a1672c4"},"vehicle_type_id":"4","last_reported":1773819893,"current_range_meters":8000,"station_id":"","pricing_plan_id":"cebpf4jnsgd1na2vs0mg"},{"bike_id":"779b8a3c-1846-46b5-9cab-bf0ec2b1118f","system_id":"levelo_inurba_marseille","lat":43.28479,"lon":5.48391,"is_reserved":false,"is_disabled":false,"rental_uris":{"android":"levelo://app?vid=779b8a3c-1846-46b5-9cab-bf0ec2b1118f","ios":"levelo://app?vid=779b8a3c-1846-46b5-9cab-bf0ec2b1118f"},"vehicle_type_id":"4","last_reported":1773819893,"current_range_meters":8000,"station_id":"st_d3svhcjqgbts73a3dn0g","pricing_plan_id":"cebpf4jnsgd1na2vs0mg"},{"bike_id":"8a845e9a-2473-4366-a1a4-09a08d2712b5","system_id":"levelo_inurba_marseille","lat":43.32475,"lon":5.36569,"is_reserved":false,"is_disabled":false,"rental_uris":{"android":"levelo://app?vid=8a845e9a-2473-4366-a1a4-09a08d2712b5","ios":"levelo://app?vid=8a845e9a-2473-4366-a1a4-09a08d2712b5"},"vehicle_type_id":"4","last_reported":1773819893,"current_range_meters":8400,"station_id":"ce4bhs12rcd13ifvqhvg","pricing_plan_id":"cebpf4jnsgd1na2vs0mg"},{"bike_id":"5117dab8-ee3b-4447-b6fc-fe5dd6223973","system_id":"levelo_inurba_marseille","lat":43.3017,"lon":5.38088,"is_reserved":false,"is_disabled":false,"rental_uris":{"android":"levelo://app?vid=5117dab8-ee3b-4447-b6fc-fe5dd6223973","ios":"levelo://app?vid=5117dab8-ee3b-4447-b6fc-fe5dd6223973"},"vehicle_type_id":"4","last_reported":1773819893,"current_range_meters":8400,"station_id":"ce4bgjp2rcd13ifvqbh0","pricing_plan_id":"cebpf4jnsgd1na2vs0mg"},{"bike_id":"bd60a6ec-18d4-4476-ab1b-f354043c4b72","system_id":"levelo_inurba_marseille","lat":43.298,"lon":5.42732,"is_reserved":false,"is_disabled":false,"rental_uris":{"android":"levelo://app?vid=bd60a6ec-18d4-4476-ab1b-f354043c4b72","ios":"levelo://app?vid=bd60a6ec-18d4-4476-ab1b-f354043c4b72"},"vehicle_type_id":"4","last_reported":1773819893,"current_range_meters":8400,"station_id":"","pricing_plan_id":"cebpf4jnsgd1na2vs0mg"},{"bike_id":"ba16bc71-3c62-4074-9b94-56bc76b88dbc","system_id":"levelo_inurba_marseille","lat":43.266822,"lon":5.38282,"is_reserved":false,"is_disabled":true,"rental_uris":{"android":"levelo://app?vid=ba16bc71-3c62-4074-9b94-56bc76b88dbc","ios":"levelo://app?vid=ba16bc71-3c62-4074-9b94-56bc76b88dbc"},"vehicle_type_id":"4","last_reported":1773819893,"current_range_meters":8400,"station_id":"ce4bhg92rcd13ifvqf90","pricing_plan_id":"cebpf4jnsgd1na2vs0mg"},{"bike_id":"6a3136ba-007e-4b3a-915f-a5bf2e3997f3","system_id":"levelo_inurba_marseille","lat":43.31736,"lon":5.37772,"is_reserved":false,"is_disabled":false,"rental_uris":{"android":"levelo://app?vid=6a3136ba-007e-4b3a-915f-a5bf2e3997f3","ios":"levelo://app?vid=6a3136ba-007e-4b3a-915f-a5bf2e3997f3"},"vehicle_type_id":"4","last_reported":1773819893,"current_range_meters":8400,"station_id":"ce4bgth2rcd13ifvqch0","pricing_plan_id":"cebpf4jnsgd1na2vs0mg"},{"bike_id":"b1678298-3f5b-4e9b-bb34-63fa7c9d9c9c","system_id":"levelo_inurba_marseille","lat":43.28483,"lon":5.48394,"is_reserved":false,"is_disabled":false,"rental_uris":{"android":"levelo://app?vid=b1678298-3f5b-4e9b-bb34-63fa7c9d9c9c","ios":"levelo://app?vid=b1678298-3f5b-4e9b-bb34-63fa7c9d9c9c"},"vehicle_type_id":"4","last_reported":1773819893,"current_range_meters":8400,"station_id":"","pricing_plan_id":"cebpf4jnsgd1na2vs0mg"},{"bike_id":"a8831432-5dda-4112-a3e1-bcc9f2c881cc","system_id":"levelo_inurba_marseille","lat":43.29787,"lon":5.394,"is_reserved":false,"is_disabled":true,"rental_uris":{"android":"levelo://app?vid=a8831432-5dda-4112-a3e1-bcc9f2c881cc","ios":"levelo://app?vid=a8831432-5dda-4112-a3e1-bcc9f2c881cc"},"vehicle_type_id":"4","last_reported":1773819893,"current_range_meters":8400,"station_id":"chh1huq6cuj3fo74tm60","pricing_plan_id":"cebpf4jnsgd1na2vs0mg"},{"bike_id":"d0b1f448-6af4-4ef1-a755-e03baf4488aa","system_id":"levelo_inurba_marseille","lat":43.29251,"lon":5.35751,"is_reserved":false,"is_disabled":false,"rental_uris":{"android":"levelo://app?vid=d0b1f448-6af4-4ef1-a755-e03baf4488aa","ios":"levelo://app?vid=d0b1f448-6af4-4ef1-a755-e03baf4488aa"},"vehicle_type_id":"4","last_reported":1773819893,"current_range_meters":8400,"station_id":"","pricing_plan_id":"cebpf4jnsgd1na2vs0mg"},{"bike_id":"d35a0238-65d9-4e29-8ba1-260c92fa2330","system_id":"levelo_inurba_marseille","lat":43.2927,"lon":5.40146,"is_reserved":false,"is_disabled":false,"rental_uris":{"android":"levelo://app?vid=d35a0238-65d9-4e29-8ba1-260c92fa2330","ios":"levelo://app?vid=d35a0238-65d9-4e29-8ba1-260c92fa2330"},"vehicle_type_id":"4","last_reported":1773819893,"current_range_meters":8400,"station_id":"ce4bh312rcd13ifvqdk0","pricing_plan_id":"cebpf4jnsgd1na2vs0mg"},{"bike_id":"d9119f48-dd06-4f73-a1e4-5bd730d3e8ad","system_id":"levelo_inurba_marseille","lat":43.30889,"lon":5.37247,"is_reserved":false,"is_disabled":false,"rental_uris":{"android":"levelo://app?vid=d9119f48-dd06-4f73-a1e4-5bd730d3e8ad","ios":"levelo://app?vid=d9119f48-dd06-4f73-a1e4-5bd730d3e8ad"},"vehicle_type_id":"4","last_reported":1773819893,"current_range_meters":8400,"station_id":"","pricing_plan_id":"cebpf4jnsgd1na2vs0mg"},{"bike_id":"a9d31829-7e0d-482f-af05-97ddd320ae16","system_id":"levelo_inurba_marseille","lat":43.29755,"lon":5.4278,"is_reserved":false,"is_disabled":true,"rental_uris":{"android":"levelo://app?vid=a9d31829-7e0d-482f-af05-97ddd320ae16","ios":"levelo://app?vid=a9d31829-7e0d-482f-af05-97ddd320ae16"},"vehicle_type_id":"4","last_reported":1773819893,"current_range_meters":8400,"station_id":"st_d3md5207bmas73dh9klg","pricing_plan_id":"cebpf4jnsgd1na2vs0mg"},{"bike_id":"ccce1895-bef0-4592-a35a-129608199614","system_id":"levelo_inurba_marseille","lat":43.31691,"lon":5.40484,"is_reserved":false,"is_disabled":false,"rental_uris":{"android":"levelo://app?vid=ccce1895-bef0-4592-a35a-129608199614","ios":"levelo://app?vid=ccce1895-bef0-4592-a35a-129608199614"},"vehicle_type_id":"4","last_reported":1773819893,"current_range_meters":8400,"station_id":"ce4bh012rcd13ifvqd00","pricing_plan_id":"cebpf4jnsgd1na2vs0mg"},{"bike_id":"e107cb22-a13d-4c03-93ce-8114e06b9a0f","system_id":"levelo_inurba_marseille","lat":43.28477,"lon":5.48396,"is_reserved":false,"is_disabled":false,"rental_uris":{"android":"levelo://app?vid=e107cb22-a13d-4c03-93ce-8114e06b9a0f","ios":"levelo://app?vid=e107cb22-a13d-4c03-93ce-8114e06b9a0f"},"vehicle_type_id":"4","last_reported":1773819893,"current_range_meters":8400,"station_id":"","pricing_plan_id":"cebpf4jnsgd1na2vs0mg"},{"bike_id":"d4531119-47d1-4e6e-8eab-6fb1adfb9a69","system_id":"levelo_inurba_marseille","lat":43.29487,"lon":5.43316,"is_reserved":false,"is_disabled":false,"rental_uris":{"android":"levelo://app?vid=d4531119-47d1-4e6e-8eab-6fb1adfb9a69","ios":"levelo://app?vid=d4531119-47d1-4e6e-8eab-6fb1adfb9a69"},"vehicle_type_id":"4","last_reported":1773819893,"current_range_meters":8400,"station_id":"st_d3j5ugp08ojc73fj9d10","pricing_plan_id":"cebpf4jnsgd1na2vs0mg"},{"bike_id":"b2718878-96b6-4114-8686-e46804effae7","system_id":"levelo_inurba_marseille","lat":43.29583,"lon":5.38111,"is_reserved":false,"is_disabled":false,"rental_uris":{"android":"levelo://app?vid=b2718878-96b6-4114-8686-e46804effae7","ios":"levelo://app?vid=b2718878-96b6-4114-8686-e46804effae7"},"vehicle_type_id":"4","last_reported":1773819893,"current_range_meters":8400,"station_id":"ce4bgl12rcd13ifvqbo0","pricing_plan_id":"cebpf4jnsgd1na2vs0mg"},{"bike_id":"383333ab-900a-4d8e-9e5f-5f8443133843","system_id":"levelo_inurba_marseille","lat":43.23961,"lon":5.36647,"is_reserved":false,"is_disabled":true,"rental_uris":{"android":"levelo://app?vid=383333ab-900a-4d8e-9e5f-5f8443133843","ios":"levelo://app?vid=383333ab-900a-4d8e-9e5f-5f8443133843"},"vehicle_type_id":"4","last_reported":1773819893,"current_range_meters":8400,"station_id":"ce4bhi12rcd13ifvqfp0","pricing_plan_id":"cebpf4jnsgd1na2vs0mg"},{"bike_id":"b9236ee7-cd1b-4e39-b04e-4a8e959fc4d2","system_id":"levelo_inurba_marseille","lat":43.29744,"lon":5.42774,"is_reserved":false,"is_disabled":false,"rental_uris":{"android":"levelo://app?vid=b9236ee7-cd1b-4e39-b04e-4a8e959fc4d2","ios":"levelo://app?vid=b9236ee7-cd1b-4e39-b04e-4a8e959fc4d2"},"vehicle_type_id":"4","last_reported":1773819893,"current_range_meters":8400,"station_id":"st_d3md5207bmas73dh9klg","pricing_plan_id":"cebpf4jnsgd1na2vs0mg"},{"bike_id":"59eecf13-b920-4e62-9f56-f6df4e1fbe03","system_id":"levelo_inurba_marseille","lat":43.3202,"lon":5.41542,"is_reserved":false,"is_disabled":false,"rental_uris":{"android":"levelo://app?vid=59eecf13-b920-4e62-9f56-f6df4e1fbe03","ios":"levelo://app?vid=59eecf13-b920-4e62-9f56-f6df4e1fbe03"},"vehicle_type_id":"4","last_reported":1773819893,"current_range_meters":8400,"station_id":"ce4bhq92rcd13ifvqhkg","pricing_plan_id":"cebpf4jnsgd1na2vs0mg"},{"bike_id":"b51425a2-b294-4b12-a06b-78afda0873c2","system_id":"levelo_inurba_marseille","lat":43.29795,"lon":5.40145,"is_reserved":false,"is_disabled":false,"rental_uris":{"android":"levelo://app?vid=b51425a2-b294-4b12-a06b-78afda0873c2","ios":"levelo://app?vid=b51425a2-b294-4b12-a06b-78afda0873c2"},"vehicle_type_id":"4","last_reported":1773819893,"current_range_meters":8400,"station_id":"","pricing_plan_id":"cebpf4jnsgd1na2vs0mg"},{"bike_id":"7890338e-495d-444e-a13c-e11a68bd29dc","system_id":"levelo_inurba_marseille","lat":43.29051,"lon":5.37148,"is_reserved":false,"is_disabled":true,"rental_uris":{"android":"levelo://app?vid=7890338e-495d-444e-a13c-e11a68bd29dc","ios":"levelo://app?vid=7890338e-495d-444e-a13c-e11a68bd29dc"},"vehicle_type_id":"4","last_reported":1773819893,"current_range_meters":8400,"station_id":"ce4bh5p2rcd13ifvqe4g","pricing_plan_id":"cebpf4jnsgd1na2vs0mg"},{"bike_id":"fd676e58-478d-401a-b670-a4ed7b7af8bf","system_id":"levelo_inurba_marseille","lat":43.24081,"lon":5.37749,"is_reserved":false,"is_disabled":false,"rental_uris":{"android":"levelo://app?vid=fd676e58-478d-401a-b670-a4ed7b7af8bf","ios":"levelo://app?vid=fd676e58-478d-401a-b670-a4ed7b7af8bf"},"vehicle_type_id":"4","last_reported":1773819893,"current_range_meters":8400,"station_id":"ce4bhnp2rcd13ifvqgvg","pricing_plan_id":"cebpf4jnsgd1na2vs0mg"},{"bike_id":"ede8bf75-b1b0-4834-bb2e-cdd9b3d7e62a","system_id":"levelo_inurba_marseille","lat":43.31276,"lon":5.46846,"is_reserved":false,"is_disabled":false,"rental_uris":{"android":"levelo://app?vid=ede8bf75-b1b0-4834-bb2e-cdd9b3d7e62a","ios":"levelo://app?vid=ede8bf75-b1b0-4834-bb2e-cdd9b3d7e62a"},"vehicle_type_id":"4","last_reported":1773819893,"current_range_meters":8400,"station_id":"","pricing_plan_id":"cebpf4jnsgd1na2vs0mg"},{"bike_id":"0f5a317f-9a6d-4d3f-a033-06a3725992b0","system_id":"levelo_inurba_marseille","lat":43.3046,"lon":5.37915,"is_reserved":false,"is_disabled":false,"rental_uris":{"android":"levelo://app?vid=0f5a317f-9a6d-4d3f-a033-06a3725992b0","ios":"levelo://app?vid=0f5a317f-9a6d-4d3f-a033-06a3725992b0"},"vehicle_type_id":"4","last_reported":1773819893,"current_range_meters":8400,"station_id":"","pricing_plan_id":"cebpf4jnsgd1na2vs0mg"},{"bike_id":"916a4979-840c-4325-9981-8863cc5158a5","system_id":"levelo_inurba_marseille","lat":43.30917,"lon":5.36835,"is_reserved":false,"is_disabled":false,"rental_uris":{"android":"levelo://app?vid=916a4979-840c-4325-9981-8863cc5158a5","ios":"levelo://app?vid=916a4979-840c-4325-9981-8863cc5158a5"},"vehicle_type_id":"4","last_reported":1773819893,"current_range_meters":8800,"station_id":"ce4bgn92rcd13ifvqbvg","pricing_plan_id":"cebpf4jnsgd1na2vs0mg"},{"bike_id":"1c51670a-46e5-4a0c-9d9c-3c2806d077a8","system_id":"levelo_inurba_marseille","lat":43.29031,"lon":5.3813,"is_reserved":false,"is_disabled":true,"rental_uris":{"android":"levelo://app?vid=1c51670a-46e5-4a0c-9d9c-3c2806d077a8","ios":"levelo://app?vid=1c51670a-46e5-4a0c-9d9c-3c2806d077a8"},"vehicle_type_id":"4","last_reported":1773819893,"current_range_meters":8800,"station_id":"ce4bh4p2rcd13ifvqe1g","pricing_plan_id":"cebpf4jnsgd1na2vs0mg"},{"bike_id":"33572f2d-2a0c-408b-b99f-987216c854a1","system_id":"levelo_inurba_marseille","lat":43.28449,"lon":5.39218,"is_reserved":false,"is_disabled":false,"rental_uris":{"android":"levelo://app?vid=33572f2d-2a0c-408b-b99f-987216c854a1","ios":"levelo://app?vid=33572f2d-2a0c-408b-b99f-987216c854a1"},"vehicle_type_id":"4","last_reported":1773819893,"current_range_meters":8800,"station_id":"ce4bhoh2rcd13ifvqh5g","pricing_plan_id":"cebpf4jnsgd1na2vs0mg"},{"bike_id":"b999e86c-4912-417a-82e5-03c579e0d7e5","system_id":"levelo_inurba_marseille","lat":43.31233,"lon":5.38445,"is_reserved":false,"is_disabled":false,"rental_uris":{"android":"levelo://app?vid=b999e86c-4912-417a-82e5-03c579e0d7e5","ios":"levelo://app?vid=b999e86c-4912-417a-82e5-03c579e0d7e5"},"vehicle_type_id":"4","last_reported":1773819893,"current_range_meters":8800,"station_id":"","pricing_plan_id":"cebpf4jnsgd1na2vs0mg"},{"bike_id":"ed16ab64-9c0f-4050-80fd-94e1f15913c3","system_id":"levelo_inurba_marseille","lat":43.25075,"lon":5.40401,"is_reserved":false,"is_disabled":false,"rental_uris":{"android":"levelo://app?vid=ed16ab64-9c0f-4050-80fd-94e1f15913c3","ios":"levelo://app?vid=ed16ab64-9c0f-4050-80fd-94e1f15913c3"},"vehicle_type_id":"4","last_reported":1773819893,"current_range_meters":8800,"station_id":"","pricing_plan_id":"cebpf4jnsgd1na2vs0mg"},{"bike_id":"b4a2f40e-062d-400f-a128-16237b99d22f","system_id":"levelo_inurba_marseille","lat":43.29721,"lon":5.37723,"is_reserved":false,"is_disabled":false,"rental_uris":{"android":"levelo://app?vid=b4a2f40e-062d-400f-a128-16237b99d22f","ios":"levelo://app?vid=b4a2f40e-062d-400f-a128-16237b99d22f"},"vehicle_type_id":"4","last_reported":1773819893,"current_range_meters":8800,"station_id":"ce4bgkh2rcd13ifvqbl0","pricing_plan_id":"cebpf4jnsgd1na2vs0mg"},{"bike_id":"5173eb01-1501-409d-8735-5cd4a7564229","system_id":"levelo_inurba_marseille","lat":43.31848,"lon":5.44684,"is_reserved":false,"is_disabled":false,"rental_uris":{"android":"levelo://app?vid=5173eb01-1501-409d-8735-5cd4a7564229","ios":"levelo://app?vid=5173eb01-1501-409d-8735-5cd4a7564229"},"vehicle_type_id":"4","last_reported":1773819893,"current_range_meters":8800,"station_id":"","pricing_plan_id":"cebpf4jnsgd1na2vs0mg"},{"bike_id":"d532de73-31b0-408e-96ce-6676e6435a22","system_id":"levelo_inurba_marseille","lat":43.212,"lon":5.3508,"is_reserved":false,"is_disabled":false,"rental_uris":{"android":"levelo://app?vid=d532de73-31b0-408e-96ce-6676e6435a22","ios":"levelo://app?vid=d532de73-31b0-408e-96ce-6676e6435a22"},"vehicle_type_id":"4","last_reported":1773819893,"current_range_meters":9200,"station_id":"st_cvj6sg6p6f1abm77japg","pricing_plan_id":"cebpf4jnsgd1na2vs0mg"},{"bike_id":"1e0b341c-6b09-4225-9697-8d11216727af","system_id":"levelo_inurba_marseille","lat":43.31504,"lon":5.37281,"is_reserved":false,"is_disabled":false,"rental_uris":{"android":"levelo://app?vid=1e0b341c-6b09-4225-9697-8d11216727af","ios":"levelo://app?vid=1e0b341c-6b09-4225-9697-8d11216727af"},"vehicle_type_id":"4","last_reported":1773819893,"current_range_meters":9200,"station_id":"ce4bgt12rcd13ifvqcd0","pricing_plan_id":"cebpf4jnsgd1na2vs0mg"},{"bike_id":"0c568fbf-621d-4cc8-ade7-4b24ab6705de","system_id":"levelo_inurba_marseille","lat":43.21733,"lon":5.34633,"is_reserved":false,"is_disabled":false,"rental_uris":{"android":"levelo://app?vid=0c568fbf-621d-4cc8-ade7-4b24ab6705de","ios":"levelo://app?vid=0c568fbf-621d-4cc8-ade7-4b24ab6705de"},"vehicle_type_id":"4","last_reported":1773819893,"current_range_meters":9200,"station_id":"st_cvj6r9ubvosntc0bgbag","pricing_plan_id":"cebpf4jnsgd1na2vs0mg"},{"bike_id":"1b5b27bf-a4bb-43d9-b794-91d57f556aa7","system_id":"levelo_inurba_marseille","lat":43.30154,"lon":5.381,"is_reserved":false,"is_disabled":false,"rental_uris":{"android":"levelo://app?vid=1b5b27bf-a4bb-43d9-b794-91d57f556aa7","ios":"levelo://app?vid=1b5b27bf-a4bb-43d9-b794-91d57f556aa7"},"vehicle_type_id":"4","last_reported":1773819893,"current_range_meters":9200,"station_id":"ce4bgjp2rcd13ifvqbh0","pricing_plan_id":"cebpf4jnsgd1na2vs0mg"},{"bike_id":"d23facf0-1212-45cd-8ac8-666d566f19ff","system_id":"levelo_inurba_marseille","lat":43.30273,"lon":5.40088,"is_reserved":false,"is_disabled":false,"rental_uris":{"android":"levelo://app?vid=d23facf0-1212-45cd-8ac8-666d566f19ff","ios":"levelo://app?vid=d23facf0-1212-45cd-8ac8-666d566f19ff"},"vehicle_type_id":"4","last_reported":1773819893,"current_range_meters":9200,"station_id":"ce4bgvh2rcd13ifvqcs0","pricing_plan_id":"cebpf4jnsgd1na2vs0mg"},{"bike_id":"13ad50bf-7f2f-4ad1-a82f-209db682ff58","system_id":"levelo_inurba_marseille","lat":43.26561,"lon":5.39049,"is_reserved":false,"is_disabled":true,"rental_uris":{"android":"levelo://app?vid=13ad50bf-7f2f-4ad1-a82f-209db682ff58","ios":"levelo://app?vid=13ad50bf-7f2f-4ad1-a82f-209db682ff58"},"vehicle_type_id":"4","last_reported":1773819893,"current_range_meters":9200,"station_id":"ce4bhe12rcd13ifvqf30","pricing_plan_id":"cebpf4jnsgd1na2vs0mg"},{"bike_id":"97238ac8-405b-4595-9521-a72113dfed37","system_id":"levelo_inurba_marseille","lat":43.29849,"lon":5.44058,"is_reserved":false,"is_disabled":false,"rental_uris":{"android":"levelo://app?vid=97238ac8-405b-4595-9521-a72113dfed37","ios":"levelo://app?vid=97238ac8-405b-4595-9521-a72113dfed37"},"vehicle_type_id":"4","last_reported":1773819893,"current_range_meters":9200,"station_id":"st_d3jp68qikq2c7381ktn0","pricing_plan_id":"cebpf4jnsgd1na2vs0mg"},{"bike_id":"fd627f34-34e1-4ae6-b0d2-d80d077ae859","system_id":"levelo_inurba_marseille","lat":43.27492,"lon":5.42455,"is_reserved":false,"is_disabled":false,"rental_uris":{"android":"levelo://app?vid=fd627f34-34e1-4ae6-b0d2-d80d077ae859","ios":"levelo://app?vid=fd627f34-34e1-4ae6-b0d2-d80d077ae859"},"vehicle_type_id":"4","last_reported":1773819893,"current_range_meters":9200,"station_id":"","pricing_plan_id":"cebpf4jnsgd1na2vs0mg"},{"bike_id":"b2d32596-5bca-4b9e-ac0d-9f0f2f521e45","system_id":"levelo_inurba_marseille","lat":43.32979,"lon":5.36012,"is_reserved":false,"is_disabled":true,"rental_uris":{"android":"levelo://app?vid=b2d32596-5bca-4b9e-ac0d-9f0f2f521e45","ios":"levelo://app?vid=b2d32596-5bca-4b9e-ac0d-9f0f2f521e45"},"vehicle_type_id":"4","last_reported":1773819893,"current_range_meters":9200,"station_id":"","pricing_plan_id":"cebpf4jnsgd1na2vs0mg"},{"bike_id":"caf5e45c-f3f2-43eb-99a6-b11ec33451e8","system_id":"levelo_inurba_marseille","lat":43.23967,"lon":5.3663,"is_reserved":false,"is_disabled":false,"rental_uris":{"android":"levelo://app?vid=caf5e45c-f3f2-43eb-99a6-b11ec33451e8","ios":"levelo://app?vid=caf5e45c-f3f2-43eb-99a6-b11ec33451e8"},"vehicle_type_id":"4","last_reported":1773819893,"current_range_meters":9200,"station_id":"ce4bhi12rcd13ifvqfp0","pricing_plan_id":"cebpf4jnsgd1na2vs0mg"},{"bike_id":"84866230-b806-44e4-88b0-1270aa5210b3","system_id":"levelo_inurba_marseille","lat":43.30254,"lon":5.40048,"is_reserved":false,"is_disabled":false,"rental_uris":{"android":"levelo://app?vid=84866230-b806-44e4-88b0-1270aa5210b3","ios":"levelo://app?vid=84866230-b806-44e4-88b0-1270aa5210b3"},"vehicle_type_id":"4","last_reported":1773819893,"current_range_meters":9200,"station_id":"ce4bgvh2rcd13ifvqcs0","pricing_plan_id":"cebpf4jnsgd1na2vs0mg"},{"bike_id":"d7bf5072-98a3-46a7-9bdb-76cd2ead4a46","system_id":"levelo_inurba_marseille","lat":43.26214,"lon":5.37446,"is_reserved":false,"is_disabled":false,"rental_uris":{"android":"levelo://app?vid=d7bf5072-98a3-46a7-9bdb-76cd2ead4a46","ios":"levelo://app?vid=d7bf5072-98a3-46a7-9bdb-76cd2ead4a46"},"vehicle_type_id":"4","last_reported":1773819893,"current_range_meters":9200,"station_id":"ce4bhgp2rcd13ifvqfc0","pricing_plan_id":"cebpf4jnsgd1na2vs0mg"},{"bike_id":"f11cdd7c-024e-4b43-9265-7210dcd43c63","system_id":"levelo_inurba_marseille","lat":43.30162,"lon":5.38068,"is_reserved":false,"is_disabled":false,"rental_uris":{"android":"levelo://app?vid=f11cdd7c-024e-4b43-9265-7210dcd43c63","ios":"levelo://app?vid=f11cdd7c-024e-4b43-9265-7210dcd43c63"},"vehicle_type_id":"4","last_reported":1773819893,"current_range_meters":9200,"station_id":"ce4bgjp2rcd13ifvqbh0","pricing_plan_id":"cebpf4jnsgd1na2vs0mg"},{"bike_id":"72c2af1d-c829-426e-a247-06a2e53eb023","system_id":"levelo_inurba_marseille","lat":43.31544,"lon":5.37246,"is_reserved":false,"is_disabled":false,"rental_uris":{"android":"levelo://app?vid=72c2af1d-c829-426e-a247-06a2e53eb023","ios":"levelo://app?vid=72c2af1d-c829-426e-a247-06a2e53eb023"},"vehicle_type_id":"4","last_reported":1773819893,"current_range_meters":9200,"station_id":"ce4bgt12rcd13ifvqcd0","pricing_plan_id":"cebpf4jnsgd1na2vs0mg"},{"bike_id":"711cc478-4be2-49b5-9633-102eb85dbd0a","system_id":"levelo_inurba_marseille","lat":43.24041,"lon":5.37686,"is_reserved":false,"is_disabled":false,"rental_uris":{"android":"levelo://app?vid=711cc478-4be2-49b5-9633-102eb85dbd0a","ios":"levelo://app?vid=711cc478-4be2-49b5-9633-102eb85dbd0a"},"vehicle_type_id":"4","last_reported":1773819893,"current_range_meters":9200,"station_id":"","pricing_plan_id":"cebpf4jnsgd1na2vs0mg"},{"bike_id":"fad8e96d-acb2-4874-9608-7180f6b034b8","system_id":"levelo_inurba_marseille","lat":43.29172,"lon":5.40809,"is_reserved":false,"is_disabled":false,"rental_uris":{"android":"levelo://app?vid=fad8e96d-acb2-4874-9608-7180f6b034b8","ios":"levelo://app?vid=fad8e96d-acb2-4874-9608-7180f6b034b8"},"vehicle_type_id":"4","last_reported":1773819893,"current_range_meters":9200,"station_id":"","pricing_plan_id":"cebpf4jnsgd1na2vs0mg"},{"bike_id":"8e8fa83c-6cd9-4afd-a6bb-d457e986e3c4","system_id":"levelo_inurba_marseille","lat":43.29288,"lon":5.40117,"is_reserved":false,"is_disabled":false,"rental_uris":{"android":"levelo://app?vid=8e8fa83c-6cd9-4afd-a6bb-d457e986e3c4","ios":"levelo://app?vid=8e8fa83c-6cd9-4afd-a6bb-d457e986e3c4"},"vehicle_type_id":"4","last_reported":1773819893,"current_range_meters":9200,"station_id":"ce4bh312rcd13ifvqdk0","pricing_plan_id":"cebpf4jnsgd1na2vs0mg"},{"bike_id":"59ea75a0-8300-4d44-b147-e29403e53c82","system_id":"levelo_inurba_marseille","lat":43.32504,"lon":5.41469,"is_reserved":false,"is_disabled":false,"rental_uris":{"android":"levelo://app?vid=59ea75a0-8300-4d44-b147-e29403e53c82","ios":"levelo://app?vid=59ea75a0-8300-4d44-b147-e29403e53c82"},"vehicle_type_id":"4","last_reported":1773819893,"current_range_meters":9200,"station_id":"","pricing_plan_id":"cebpf4jnsgd1na2vs0mg"},{"bike_id":"0dbf0073-ecb4-44a3-8d10-bdd4a51bc702","system_id":"levelo_inurba_marseille","lat":43.31493,"lon":5.37315,"is_reserved":false,"is_disabled":false,"rental_uris":{"android":"levelo://app?vid=0dbf0073-ecb4-44a3-8d10-bdd4a51bc702","ios":"levelo://app?vid=0dbf0073-ecb4-44a3-8d10-bdd4a51bc702"},"vehicle_type_id":"4","last_reported":1773819893,"current_range_meters":9200,"station_id":"ce4bgt12rcd13ifvqcd0","pricing_plan_id":"cebpf4jnsgd1na2vs0mg"},{"bike_id":"55614024-db25-486b-99e8-ed28b6d6957b","system_id":"levelo_inurba_marseille","lat":43.29009,"lon":5.40435,"is_reserved":false,"is_disabled":false,"rental_uris":{"android":"levelo://app?vid=55614024-db25-486b-99e8-ed28b6d6957b","ios":"levelo://app?vid=55614024-db25-486b-99e8-ed28b6d6957b"},"vehicle_type_id":"4","last_reported":1773819893,"current_range_meters":9200,"station_id":"","pricing_plan_id":"cebpf4jnsgd1na2vs0mg"},{"bike_id":"a02196b2-d108-42bd-a4eb-67e27fde7a09","system_id":"levelo_inurba_marseille","lat":43.23191,"lon":5.35535,"is_reserved":false,"is_disabled":false,"rental_uris":{"android":"levelo://app?vid=a02196b2-d108-42bd-a4eb-67e27fde7a09","ios":"levelo://app?vid=a02196b2-d108-42bd-a4eb-67e27fde7a09"},"vehicle_type_id":"4","last_reported":1773819893,"current_range_meters":9200,"station_id":"ce4bhu92rcd13ifvqi70","pricing_plan_id":"cebpf4jnsgd1na2vs0mg"},{"bike_id":"fcb6c136-66f6-4be1-9513-85706f16e279","system_id":"levelo_inurba_marseille","lat":43.29334,"lon":5.37407,"is_reserved":false,"is_disabled":false,"rental_uris":{"android":"levelo://app?vid=fcb6c136-66f6-4be1-9513-85706f16e279","ios":"levelo://app?vid=fcb6c136-66f6-4be1-9513-85706f16e279"},"vehicle_type_id":"4","last_reported":1773819893,"current_range_meters":9600,"station_id":"","pricing_plan_id":"cebpf4jnsgd1na2vs0mg"},{"bike_id":"2cd6d2c4-9839-4b08-8d75-805c4c2214dc","system_id":"levelo_inurba_marseille","lat":43.23047,"lon":5.35497,"is_reserved":false,"is_disabled":false,"rental_uris":{"android":"levelo://app?vid=2cd6d2c4-9839-4b08-8d75-805c4c2214dc","ios":"levelo://app?vid=2cd6d2c4-9839-4b08-8d75-805c4c2214dc"},"vehicle_type_id":"4","last_reported":1773819893,"current_range_meters":9600,"station_id":"cpo3342slgdg3j2ifvpg","pricing_plan_id":"cebpf4jnsgd1na2vs0mg"},{"bike_id":"8c29270d-5d11-446e-a3f0-f5c56ae9c816","system_id":"levelo_inurba_marseille","lat":43.27552,"lon":5.43319,"is_reserved":false,"is_disabled":false,"rental_uris":{"android":"levelo://app?vid=8c29270d-5d11-446e-a3f0-f5c56ae9c816","ios":"levelo://app?vid=8c29270d-5d11-446e-a3f0-f5c56ae9c816"},"vehicle_type_id":"4","last_reported":1773819893,"current_range_meters":9600,"station_id":"","pricing_plan_id":"cebpf4jnsgd1na2vs0mg"},{"bike_id":"da717a02-32ae-4e95-970f-db2b51150f19","system_id":"levelo_inurba_marseille","lat":43.33598,"lon":5.41042,"is_reserved":false,"is_disabled":false,"rental_uris":{"android":"levelo://app?vid=da717a02-32ae-4e95-970f-db2b51150f19","ios":"levelo://app?vid=da717a02-32ae-4e95-970f-db2b51150f19"},"vehicle_type_id":"4","last_reported":1773819893,"current_range_meters":9600,"station_id":"ce4bhqh2rcd13ifvqhmg","pricing_plan_id":"cebpf4jnsgd1na2vs0mg"},{"bike_id":"c7a58df1-e626-4613-bd92-acf1a3516baf","system_id":"levelo_inurba_marseille","lat":43.21742,"lon":5.34612,"is_reserved":false,"is_disabled":false,"rental_uris":{"android":"levelo://app?vid=c7a58df1-e626-4613-bd92-acf1a3516baf","ios":"levelo://app?vid=c7a58df1-e626-4613-bd92-acf1a3516baf"},"vehicle_type_id":"4","last_reported":1773819893,"current_range_meters":9600,"station_id":"st_cvj6r9ubvosntc0bgbag","pricing_plan_id":"cebpf4jnsgd1na2vs0mg"},{"bike_id":"fe3454e0-f9d4-49cc-9107-aa7bbe78eeac","system_id":"levelo_inurba_marseille","lat":43.28858,"lon":5.42516,"is_reserved":false,"is_disabled":false,"rental_uris":{"android":"levelo://app?vid=fe3454e0-f9d4-49cc-9107-aa7bbe78eeac","ios":"levelo://app?vid=fe3454e0-f9d4-49cc-9107-aa7bbe78eeac"},"vehicle_type_id":"4","last_reported":1773819893,"current_range_meters":9600,"station_id":"","pricing_plan_id":"cebpf4jnsgd1na2vs0mg"},{"bike_id":"0ee4ce16-829f-49ee-9a2a-4b4670dfbc6f","system_id":"levelo_inurba_marseille","lat":43.28477,"lon":5.48401,"is_reserved":false,"is_disabled":false,"rental_uris":{"android":"levelo://app?vid=0ee4ce16-829f-49ee-9a2a-4b4670dfbc6f","ios":"levelo://app?vid=0ee4ce16-829f-49ee-9a2a-4b4670dfbc6f"},"vehicle_type_id":"4","last_reported":1773819893,"current_range_meters":9600,"station_id":"st_d3svhcjqgbts73a3dn0g","pricing_plan_id":"cebpf4jnsgd1na2vs0mg"},{"bike_id":"230fe976-1156-4701-a6ed-cdcc4f50ccc8","system_id":"levelo_inurba_marseille","lat":43.29037,"lon":5.39964,"is_reserved":false,"is_disabled":false,"rental_uris":{"android":"levelo://app?vid=230fe976-1156-4701-a6ed-cdcc4f50ccc8","ios":"levelo://app?vid=230fe976-1156-4701-a6ed-cdcc4f50ccc8"},"vehicle_type_id":"4","last_reported":1773819893,"current_range_meters":9600,"station_id":"ce4bh392rcd13ifvqdm0","pricing_plan_id":"cebpf4jnsgd1na2vs0mg"},{"bike_id":"30f098f2-037b-4b18-bb46-aaf0e1127844","system_id":"levelo_inurba_marseille","lat":43.3052,"lon":5.39909,"is_reserved":false,"is_disabled":false,"rental_uris":{"android":"levelo://app?vid=30f098f2-037b-4b18-bb46-aaf0e1127844","ios":"levelo://app?vid=30f098f2-037b-4b18-bb46-aaf0e1127844"},"vehicle_type_id":"4","last_reported":1773819893,"current_range_meters":9600,"station_id":"","pricing_plan_id":"cebpf4jnsgd1na2vs0mg"},{"bike_id":"6452d9cd-6a05-4ec2-8587-36bbcaecd809","system_id":"levelo_inurba_marseille","lat":43.23149,"lon":5.43727,"is_reserved":false,"is_disabled":false,"rental_uris":{"android":"levelo://app?vid=6452d9cd-6a05-4ec2-8587-36bbcaecd809","ios":"levelo://app?vid=6452d9cd-6a05-4ec2-8587-36bbcaecd809"},"vehicle_type_id":"4","last_reported":1773819893,"current_range_meters":9600,"station_id":"ce4bhmp2rcd13ifvqgog","pricing_plan_id":"cebpf4jnsgd1na2vs0mg"},{"bike_id":"b3af21d0-3ae0-4b53-ac21-69da0f6f14ea","system_id":"levelo_inurba_marseille","lat":43.27906,"lon":5.38022,"is_reserved":false,"is_disabled":false,"rental_uris":{"android":"levelo://app?vid=b3af21d0-3ae0-4b53-ac21-69da0f6f14ea","ios":"levelo://app?vid=b3af21d0-3ae0-4b53-ac21-69da0f6f14ea"},"vehicle_type_id":"4","last_reported":1773819893,"current_range_meters":9600,"station_id":"ce4bhf92rcd13ifvqf50","pricing_plan_id":"cebpf4jnsgd1na2vs0mg"},{"bike_id":"88db41f5-96f3-4155-a4d0-ecc56f594edb","system_id":"levelo_inurba_marseille","lat":43.22926,"lon":5.35389,"is_reserved":false,"is_disabled":false,"rental_uris":{"android":"levelo://app?vid=88db41f5-96f3-4155-a4d0-ecc56f594edb","ios":"levelo://app?vid=88db41f5-96f3-4155-a4d0-ecc56f594edb"},"vehicle_type_id":"4","last_reported":1773819893,"current_range_meters":9600,"station_id":"cpo3532slgdg3j2ikp40","pricing_plan_id":"cebpf4jnsgd1na2vs0mg"},{"bike_id":"73e44213-1cd8-4593-a09e-a9c4a914a5d2","system_id":"levelo_inurba_marseille","lat":43.28492,"lon":5.48381,"is_reserved":false,"is_disabled":false,"rental_uris":{"android":"levelo://app?vid=73e44213-1cd8-4593-a09e-a9c4a914a5d2","ios":"levelo://app?vid=73e44213-1cd8-4593-a09e-a9c4a914a5d2"},"vehicle_type_id":"4","last_reported":1773819893,"current_range_meters":9600,"station_id":"","pricing_plan_id":"cebpf4jnsgd1na2vs0mg"},{"bike_id":"6595b656-35a3-47c7-8c8f-07b149518286","system_id":"levelo_inurba_marseille","lat":43.34141,"lon":5.4093,"is_reserved":false,"is_disabled":false,"rental_uris":{"android":"levelo://app?vid=6595b656-35a3-47c7-8c8f-07b149518286","ios":"levelo://app?vid=6595b656-35a3-47c7-8c8f-07b149518286"},"vehicle_type_id":"4","last_reported":1773819893,"current_range_meters":9600,"station_id":"ce4bhqh2rcd13ifvqhlg","pricing_plan_id":"cebpf4jnsgd1na2vs0mg"},{"bike_id":"04b3915d-c848-4783-b657-1507b621b373","system_id":"levelo_inurba_marseille","lat":43.27495,"lon":5.42444,"is_reserved":false,"is_disabled":false,"rental_uris":{"android":"levelo://app?vid=04b3915d-c848-4783-b657-1507b621b373","ios":"levelo://app?vid=04b3915d-c848-4783-b657-1507b621b373"},"vehicle_type_id":"4","last_reported":1773819893,"current_range_meters":9600,"station_id":"","pricing_plan_id":"cebpf4jnsgd1na2vs0mg"},{"bike_id":"af9e9917-104d-4cfb-88dc-35d38c37713f","system_id":"levelo_inurba_marseille","lat":43.3134,"lon":5.36705,"is_reserved":false,"is_disabled":false,"rental_uris":{"android":"levelo://app?vid=af9e9917-104d-4cfb-88dc-35d38c37713f","ios":"levelo://app?vid=af9e9917-104d-4cfb-88dc-35d38c37713f"},"vehicle_type_id":"4","last_reported":1773819893,"current_range_meters":9600,"station_id":"ce4bgr92rcd13ifvqc6g","pricing_plan_id":"cebpf4jnsgd1na2vs0mg"},{"bike_id":"957d28e0-6aa9-4cb8-8361-e8dd87795a96","system_id":"levelo_inurba_marseille","lat":43.30733,"lon":5.42457,"is_reserved":false,"is_disabled":false,"rental_uris":{"android":"levelo://app?vid=957d28e0-6aa9-4cb8-8361-e8dd87795a96","ios":"levelo://app?vid=957d28e0-6aa9-4cb8-8361-e8dd87795a96"},"vehicle_type_id":"4","last_reported":1773819893,"current_range_meters":10000,"station_id":"st_cvj6ca6bvosntc0bfgr0","pricing_plan_id":"cebpf4jnsgd1na2vs0mg"},{"bike_id":"4603d8e6-1bdb-4e77-a999-dd174df795dd","system_id":"levelo_inurba_marseille","lat":43.21726,"lon":5.34589,"is_reserved":false,"is_disabled":false,"rental_uris":{"android":"levelo://app?vid=4603d8e6-1bdb-4e77-a999-dd174df795dd","ios":"levelo://app?vid=4603d8e6-1bdb-4e77-a999-dd174df795dd"},"vehicle_type_id":"4","last_reported":1773819893,"current_range_meters":10000,"station_id":"st_cvj6r9ubvosntc0bgbag","pricing_plan_id":"cebpf4jnsgd1na2vs0mg"},{"bike_id":"ab01fae9-1295-4c99-afcf-ba6ce8728ce3","system_id":"levelo_inurba_marseille","lat":43.27973,"lon":5.38708,"is_reserved":false,"is_disabled":false,"rental_uris":{"android":"levelo://app?vid=ab01fae9-1295-4c99-afcf-ba6ce8728ce3","ios":"levelo://app?vid=ab01fae9-1295-4c99-afcf-ba6ce8728ce3"},"vehicle_type_id":"4","last_reported":1773819893,"current_range_meters":10000,"station_id":"ce4bhg12rcd13ifvqf80","pricing_plan_id":"cebpf4jnsgd1na2vs0mg"},{"bike_id":"e96aa17b-a380-4269-aa15-f0a6d9e3febf","system_id":"levelo_inurba_marseille","lat":43.2173,"lon":5.34602,"is_reserved":false,"is_disabled":false,"rental_uris":{"android":"levelo://app?vid=e96aa17b-a380-4269-aa15-f0a6d9e3febf","ios":"levelo://app?vid=e96aa17b-a380-4269-aa15-f0a6d9e3febf"},"vehicle_type_id":"4","last_reported":1773819893,"current_range_meters":10000,"station_id":"st_cvj6r9ubvosntc0bgbag","pricing_plan_id":"cebpf4jnsgd1na2vs0mg"},{"bike_id":"263545ad-8d54-4c03-a677-0afb5016318b","system_id":"levelo_inurba_marseille","lat":43.3359,"lon":5.41034,"is_reserved":false,"is_disabled":false,"rental_uris":{"android":"levelo://app?vid=263545ad-8d54-4c03-a677-0afb5016318b","ios":"levelo://app?vid=263545ad-8d54-4c03-a677-0afb5016318b"},"vehicle_type_id":"4","last_reported":1773819893,"current_range_meters":10000,"station_id":"ce4bhqh2rcd13ifvqhmg","pricing_plan_id":"cebpf4jnsgd1na2vs0mg"},{"bike_id":"df96eb8d-2afa-4848-be90-b8048e9174ac","system_id":"levelo_inurba_marseille","lat":43.30529,"lon":5.36554,"is_reserved":false,"is_disabled":false,"rental_uris":{"android":"levelo://app?vid=df96eb8d-2afa-4848-be90-b8048e9174ac","ios":"levelo://app?vid=df96eb8d-2afa-4848-be90-b8048e9174ac"},"vehicle_type_id":"4","last_reported":1773819893,"current_range_meters":10000,"station_id":"ce4bgs12rcd13ifvqcag","pricing_plan_id":"cebpf4jnsgd1na2vs0mg"},