{"last_updated":1683562116,"ttl":30,"version":"2.2","data":{"bikes":[{"bike_id":"a460d740-797a-4836-a104-67765b22c20c","system_id":"levelo_inurba_marseille","lat":43.313391,"lon":5.36706,"is_reserved":false,"is_disabled":false,"rental_uris":{"android":"levelo://app?vid=a460d740-797a-4836-a104-67765b22c20c","ios":"levelo://app?vid=a460d740-797a-4836-a104-67765b22c20c"},"vehicle_type_id":"4","last_reported":1683562116,"current_range_meters":24800,"station_id":"ce4bgr92rcd13ifvqc6g","pricing_plan_id":"free"},{"bike_id":"18c73854-1fe5-4ae9-8823-49503e3baa2a","system_id":"levelo_inurba_marseille","lat":43.312239,"lon":5.368562,"is_reserved":false,"is_disabled":false,"rental_uris":{"android":"levelo://app?vid=18c73854-1fe5-4ae9-8823-49503e3baa2a","ios":"levelo://app?vid=18c73854-1fe5-4ae9-8823-49503e3baa2a"},"vehicle_type_id":"4","last_reported":1683562116,"current_range_meters":31200,"station_id":"ce4bgl92rcd13ifvqbq0","pricing_plan_id":"free"},{"bike_id":"d4c844fd-c8e2-4528-8b54-5d19a852e86d","system_id":"levelo_inurba_marseille","lat":43.31237,"lon":5.36852,"is_reserved":false,"is_disabled":false,"rental_uris":{"android":"levelo://app?vid=d4c844fd-c8e2-4528-8b54-5d19a852e86d","ios":"levelo://app?vid=d4c844fd-c8e2-4528-8b54-5d19a852e86d"},"vehicle_type_id":"4","last_reported":1683562116,"current_range_meters":31200,"station_id":"ce4bgl92rcd13ifvqbq0","pricing_plan_id":"free"},{"bike_id":"c4590920-7f5a-4140-a19d-dab4e4b92ebd","system_id":"levelo_inurba_marseille","lat":43.3124,"lon":5.36854,"is_reserved":false,"is_disabled":false,"rental_uris":{"android":"levelo://app?vid=c4590920-7f5a-4140-a19d-dab4e4b92ebd","ios":"levelo://app?vid=c4590920-7f5a-4140-a19d-dab4e4b92ebd"},"vehicle_type_id":"4","last_reported":1683562116,"current_range_meters":31200,"station_id":"ce4bgl92rcd13ifvqbq0","pricing_plan_id":"free"},{"bike_id":"b6e4c7a0-820b-4973-8e8b-b86a656b2167","system_id":"levelo_inurba_marseille","lat":43.312239,"lon":5.368562,"is_reserved":false,"is_disabled":false,"rental_uris":{"android":"levelo://app?vid=b6e4c7a0-820b-4973-8e8b-b86a656b2167","ios":"levelo://app?vid=b6e4c7a0-820b-4973-8e8b-b86a656b2167"},"vehicle_type_id":"4","last_reported":1683562116,"current_range_meters":24400,"station_id":"ce4bgl92rcd13ifvqbq0","pricing_plan_id":"free"},{"bike_id":"b95e2495-fc6f-43b2-94e5-3128774aade6","system_id":"levelo_inurba_marseille","lat":43.312239,"lon":5.368562,"is_reserved":false,"is_disabled":false,"rental_uris":{"android":"levelo://app?vid=b95e2495-fc6f-43b2-94e5-3128774aade6","ios":"levelo://app?vid=b95e2495-fc6f-43b2-94e5-3128774aade6"},"vehicle_type_id":"4","last_reported":1683562116,"current_range_meters":16400,"station_id":"ce4bgl92rcd13ifvqbq0","pricing_plan_id":"free"},{"bike_id":"d70c9b82-653a-4085-8728-02813d691fbb","system_id":"levelo_inurba_marseille","lat":43.309076,"lon":5.368465,"is_reserved":false,"is_disabled":false,"rental_uris":{"android":"levelo://app?vid=d70c9b82-653a-4085-8728-02813d691fbb","ios":"levelo://app?vid=d70c9b82-653a-4085-8728-02813d691fbb"},"vehicle_type_id":"4","last_reported":1683562116,"current_range_meters":10800,"station_id":"ce4bgn92rcd13ifvqbvg","pricing_plan_id":"free"},{"bike_id":"1abba5a6-4739-492d-8066-d39ef451f448","system_id":"levelo_inurba_marseille","lat":43.309076,"lon":5.368465,"is_reserved":false,"is_disabled":false,"rental_uris":{"android":"levelo://app?vid=1abba5a6-4739-492d-8066-d39ef451f448","ios":"levelo://app?vid=1abba5a6-4739-492d-8066-d39ef451f448"},"vehicle_type_id":"4","last_reported":1683562116,"current_range_meters":0,"station_id":"ce4bgn92rcd13ifvqbvg","pricing_plan_id":"free"},{"bike_id":"03093215-898a-4063-b7b5-7d081cbba9b4","system_id":"levelo_inurba_marseille","lat":43.317075,"lon":5.377367,"is_reserved":false,"is_disabled":false,"rental_uris":{"android":"levelo://app?vid=03093215-898a-4063-b7b5-7d081cbba9b4","ios":"levelo://app?vid=03093215-898a-4063-b7b5-7d081cbba9b4"},"vehicle_type_id":"4","last_reported":1683562116,"current_range_meters":25200,"station_id":"ce4bgth2rcd13ifvqch0","pricing_plan_id":"free"},{"bike_id":"da381dc7-5bd2-4bcd-a0a3-25a7cf736985","system_id":"levelo_inurba_marseille","lat":43.308614,"lon":5.372098,"is_reserved":false,"is_disabled":false,"rental_uris":{"android":"levelo://app?vid=da381dc7-5bd2-4bcd-a0a3-25a7cf736985","ios":"levelo://app?vid=da381dc7-5bd2-4bcd-a0a3-25a7cf736985"},"vehicle_type_id":"4","last_reported":1683562116,"current_range_meters":31200,"station_id":"ce4bguh2rcd13ifvqckg","pricing_plan_id":"free"},{"bike_id":"36762d44-d609-4637-8a1d-75fea129c12b","system_id":"levelo_inurba_marseille","lat":43.308614,"lon":5.372098,"is_reserved":false,"is_disabled":false,"rental_uris":{"android":"levelo://app?vid=36762d44-d609-4637-8a1d-75fea129c12b","ios":"levelo://app?vid=36762d44-d609-4637-8a1d-75fea129c12b"},"vehicle_type_id":"4","last_reported":1683562116,"current_range_meters":29600,"station_id":"ce4bguh2rcd13ifvqckg","pricing_plan_id":"free"},{"bike_id":"5b9ccd0e-1627-4030-94bf-932829303c6b","system_id":"levelo_inurba_marseille","lat":43.305714,"lon":5.365633,"is_reserved":false,"is_disabled":false,"rental_uris":{"android":"levelo://app?vid=5b9ccd0e-1627-4030-94bf-932829303c6b","ios":"levelo://app?vid=5b9ccd0e-1627-4030-94bf-932829303c6b"},"vehicle_type_id":"4","last_reported":1683562116,"current_range_meters":2800,"station_id":"ce4bgs12rcd13ifvqcag","pricing_plan_id":"free"},{"bike_id":"24626739-5928-403c-8453-a048e5e46b23","system_id":"levelo_inurba_marseille","lat":43.30542,"lon":5.36553,"is_reserved":false,"is_disabled":false,"rental_uris":{"android":"levelo://app?vid=24626739-5928-403c-8453-a048e5e46b23","ios":"levelo://app?vid=24626739-5928-403c-8453-a048e5e46b23"},"vehicle_type_id":"4","last_reported":1683562116,"current_range_meters":2000,"station_id":"","pricing_plan_id":"free"},{"bike_id":"257e2738-11dd-417f-8629-0cf2ab5bef4d","system_id":"levelo_inurba_marseille","lat":43.305714,"lon":5.365633,"is_reserved":false,"is_disabled":false,"rental_uris":{"android":"levelo://app?vid=257e2738-11dd-417f-8629-0cf2ab5bef4d","ios":"levelo://app?vid=257e2738-11dd-417f-8629-0cf2ab5bef4d"},"vehicle_type_id":"4","last_reported":1683562116,"current_range_meters":11600,"station_id":"ce4bgs12rcd13ifvqcag","pricing_plan_id":"free"},{"bike_id":"84613201-1101-44e6-bfe5-937021cba294","system_id":"levelo_inurba_marseille","lat":43.3053,"lon":5.36536,"is_reserved":false,"is_disabled":false,"rental_uris":{"android":"levelo://app?vid=84613201-1101-44e6-bfe5-937021cba294","ios":"levelo://app?vid=84613201-1101-44e6-bfe5-937021cba294"},"vehicle_type_id":"4","last_reported":1683562116,"current_range_meters":22400,"station_id":"","pricing_plan_id":"free"},{"bike_id":"8cd81883-eea3-49ec-b0a3-86382783c287","system_id":"levelo_inurba_marseille","lat":43.305989,"lon":5.37225,"is_reserved":false,"is_disabled":false,"rental_uris":{"android":"levelo://app?vid=8cd81883-eea3-49ec-b0a3-86382783c287","ios":"levelo://app?vid=8cd81883-eea3-49ec-b0a3-86382783c287"},"vehicle_type_id":"4","last_reported":1683562116,"current_range_meters":16000,"station_id":"ce4bgqh2rcd13ifvqc4g","pricing_plan_id":"free"},{"bike_id":"33be3fed-2e65-4cb8-8fbd-a35a8de4f167","system_id":"levelo_inurba_marseille","lat":43.305989,"lon":5.37225,"is_reserved":false,"is_disabled":false,"rental_uris":{"android":"levelo://app?vid=33be3fed-2e65-4cb8-8fbd-a35a8de4f167","ios":"levelo://app?vid=33be3fed-2e65-4cb8-8fbd-a35a8de4f167"},"vehicle_type_id":"4","last_reported":1683562116,"current_range_meters":19200,"station_id":"ce4bgqh2rcd13ifvqc4g","pricing_plan_id":"free"},{"bike_id":"8155f676-6f61-4de9-9f34-3d660801181a","system_id":"levelo_inurba_marseille","lat":43.30599,"lon":5.3723,"is_reserved":false,"is_disabled":false,"rental_uris":{"android":"levelo://app?vid=8155f676-6f61-4de9-9f34-3d660801181a","ios":"levelo://app?vid=8155f676-6f61-4de9-9f34-3d660801181a"},"vehicle_type_id":"4","last_reported":1683562116,"current_range_meters":27600,"station_id":"ce4bgqh2rcd13ifvqc4g","pricing_plan_id":"free"},{"bike_id":"4e64e012-deff-4fda-8cea-54a0fedb53d8","system_id":"levelo_inurba_marseille","lat":43.311131,"lon":5.377651,"is_reserved":false,"is_disabled":false,"rental_uris":{"android":"levelo://app?vid=4e64e012-deff-4fda-8cea-54a0fedb53d8","ios":"levelo://app?vid=4e64e012-deff-4fda-8cea-54a0fedb53d8"},"vehicle_type_id":"4","last_reported":1683562116,"current_range_meters":31200,"station_id":"ce4bgt92rcd13ifvqcg0","pricing_plan_id":"free"},{"bike_id":"6f93cac4-687b-4119-872e-160d40b9b37f","system_id":"levelo_inurba_marseille","lat":43.303046,"lon":5.368981,"is_reserved":false,"is_disabled":false,"rental_uris":{"android":"levelo://app?vid=6f93cac4-687b-4119-872e-160d40b9b37f","ios":"levelo://app?vid=6f93cac4-687b-4119-872e-160d40b9b37f"},"vehicle_type_id":"4","last_reported":1683562116,"current_range_meters":9200,"station_id":"ce4bgqh2rcd13ifvqc5g","pricing_plan_id":"free"},{"bike_id":"6cdbfb12-8e1d-4a23-aeec-7d75cca4d52e","system_id":"levelo_inurba_marseille","lat":43.30314,"lon":5.369,"is_reserved":false,"is_disabled":false,"rental_uris":{"android":"levelo://app?vid=6cdbfb12-8e1d-4a23-aeec-7d75cca4d52e","ios":"levelo://app?vid=6cdbfb12-8e1d-4a23-aeec-7d75cca4d52e"},"vehicle_type_id":"4","last_reported":1683562116,"current_range_meters":28400,"station_id":"ce4bgqh2rcd13ifvqc5g","pricing_plan_id":"free"},{"bike_id":"243d58c6-677a-4ef5-ac10-1ca5621449fc","system_id":"levelo_inurba_marseille","lat":43.30317,"lon":5.3645,"is_reserved":false,"is_disabled":false,"rental_uris":{"android":"levelo://app?vid=243d58c6-677a-4ef5-ac10-1ca5621449fc","ios":"levelo://app?vid=243d58c6-677a-4ef5-ac10-1ca5621449fc"},"vehicle_type_id":"4","last_reported":1683562116,"current_range_meters":8800,"station_id":"","pricing_plan_id":"free"},{"bike_id":"087421b8-9a1a-49a6-bb0f-b446386c7dbc","system_id":"levelo_inurba_marseille","lat":43.303046,"lon":5.368981,"is_reserved":false,"is_disabled":false,"rental_uris":{"android":"levelo://app?vid=087421b8-9a1a-49a6-bb0f-b446386c7dbc","ios":"levelo://app?vid=087421b8-9a1a-49a6-bb0f-b446386c7dbc"},"vehicle_type_id":"4","last_reported":1683562116,"current_range_meters":30000,"station_id":"ce4bgqh2rcd13ifvqc5g","pricing_plan_id":"free"},{"bike_id":"278379e9-3ea3-4752-9fa5-51d24b132a79","system_id":"levelo_inurba_marseille","lat":43.315293,"lon":5.380349,"is_reserved":false,"is_disabled":false,"rental_uris":{"android":"levelo://app?vid=278379e9-3ea3-4752-9fa5-51d24b132a79","ios":"levelo://app?vid=278379e9-3ea3-4752-9fa5-51d24b132a79"},"vehicle_type_id":"4","last_reported":1683562116,"current_range_meters":29200,"station_id":"ce4bhsp2rcd13ifvqi50","pricing_plan_id":"free"},{"bike_id":"2670b74e-9dda-431b-bc41-303baf872c7c","system_id":"levelo_inurba_marseille","lat":43.315289,"lon":5.380349,"is_reserved":false,"is_disabled":false,"rental_uris":{"android":"levelo://app?vid=2670b74e-9dda-431b-bc41-303baf872c7c","ios":"levelo://app?vid=2670b74e-9dda-431b-bc41-303baf872c7c"},"vehicle_type_id":"4","last_reported":1683562116,"current_range_meters":24400,"station_id":"ce4bhsp2rcd13ifvqi50","pricing_plan_id":"free"},{"bike_id":"74dc49db-f918-43ed-a8d8-199327d2e08a","system_id":"levelo_inurba_marseille","lat":43.30237,"lon":5.36473,"is_reserved":false,"is_disabled":false,"rental_uris":{"android":"levelo://app?vid=74dc49db-f918-43ed-a8d8-199327d2e08a","ios":"levelo://app?vid=74dc49db-f918-43ed-a8d8-199327d2e08a"},"vehicle_type_id":"4","last_reported":1683562116,"current_range_meters":19600,"station_id":"","pricing_plan_id":"free"},{"bike_id":"dd6eadb2-d35d-4583-887b-139b02ce67d8","system_id":"levelo_inurba_marseille","lat":43.301939,"lon":5.366286,"is_reserved":false,"is_disabled":false,"rental_uris":{"android":"levelo://app?vid=dd6eadb2-d35d-4583-887b-139b02ce67d8","ios":"levelo://app?vid=dd6eadb2-d35d-4583-887b-139b02ce67d8"},"vehicle_type_id":"4","last_reported":1683562116,"current_range_meters":29200,"station_id":"ce4bgrh2rcd13ifvqc8g","pricing_plan_id":"free"},{"bike_id":"0174541f-3bdf-4d1f-bc10-7144a1322c86","system_id":"levelo_inurba_marseille","lat":43.308012,"lon":5.381511,"is_reserved":false,"is_disabled":false,"rental_uris":{"android":"levelo://app?vid=0174541f-3bdf-4d1f-bc10-7144a1322c86","ios":"levelo://app?vid=0174541f-3bdf-4d1f-bc10-7144a1322c86"},"vehicle_type_id":"4","last_reported":1683562116,"current_range_meters":22400,"station_id":"ce4bgt12rcd13ifvqce0","pricing_plan_id":"free"},{"bike_id":"90b47e2f-d4f2-463d-bb15-c143d9fa0285","system_id":"levelo_inurba_marseille","lat":43.308012,"lon":5.381511,"is_reserved":false,"is_disabled":false,"rental_uris":{"android":"levelo://app?vid=90b47e2f-d4f2-463d-bb15-c143d9fa0285","ios":"levelo://app?vid=90b47e2f-d4f2-463d-bb15-c143d9fa0285"},"vehicle_type_id":"4","last_reported":1683562116,"current_range_meters":6000,"station_id":"ce4bgt12rcd13ifvqce0","pricing_plan_id":"free"},{"bike_id":"b4801d28-c7e5-4a52-9b83-2aecde570faf","system_id":"levelo_inurba_marseille","lat":43.304606,"lon":5.379026,"is_reserved":false,"is_disabled":false,"rental_uris":{"android":"levelo://app?vid=b4801d28-c7e5-4a52-9b83-2aecde570faf","ios":"levelo://app?vid=b4801d28-c7e5-4a52-9b83-2aecde570faf"},"vehicle_type_id":"4","last_reported":1683562116,"current_range_meters":2400,"station_id":"ce4bgup2rcd13ifvqcn0","pricing_plan_id":"free"},{"bike_id":"11355a26-ce04-4637-b186-e63c722271b4","system_id":"levelo_inurba_marseille","lat":43.31369,"lon":5.38511,"is_reserved":false,"is_disabled":false,"rental_uris":{"android":"levelo://app?vid=11355a26-ce04-4637-b186-e63c722271b4","ios":"levelo://app?vid=11355a26-ce04-4637-b186-e63c722271b4"},"vehicle_type_id":"4","last_reported":1683562116,"current_range_meters":26800,"station_id":"","pricing_plan_id":"free"},{"bike_id":"59ef17c0-6217-405e-8143-0b9d68130e9b","system_id":"levelo_inurba_marseille","lat":43.299222,"lon":5.365554,"is_reserved":false,"is_disabled":false,"rental_uris":{"android":"levelo://app?vid=59ef17c0-6217-405e-8143-0b9d68130e9b","ios":"levelo://app?vid=59ef17c0-6217-405e-8143-0b9d68130e9b"},"vehicle_type_id":"4","last_reported":1683562116,"current_range_meters":12800,"station_id":"ce4bgm92rcd13ifvqbr0","pricing_plan_id":"free"},{"bike_id":"a0797f70-341d-4baf-b0d2-bfd1d42cb622","system_id":"levelo_inurba_marseille","lat":43.299222,"lon":5.365554,"is_reserved":false,"is_disabled":false,"rental_uris":{"android":"levelo://app?vid=a0797f70-341d-4baf-b0d2-bfd1d42cb622","ios":"levelo://app?vid=a0797f70-341d-4baf-b0d2-bfd1d42cb622"},"vehicle_type_id":"4","last_reported":1683562116,"current_range_meters":28800,"station_id":"ce4bgm92rcd13ifvqbr0","pricing_plan_id":"free"},{"bike_id":"f5f27d5c-ff35-40e1-9de1-ae60497b8cea","system_id":"levelo_inurba_marseille","lat":43.299222,"lon":5.365554,"is_reserved":false,"is_disabled":false,"rental_uris":{"android":"levelo://app?vid=f5f27d5c-ff35-40e1-9de1-ae60497b8cea","ios":"levelo://app?vid=f5f27d5c-ff35-40e1-9de1-ae60497b8cea"},"vehicle_type_id":"4","last_reported":1683562116,"current_range_meters":28000,"station_id":"ce4bgm92rcd13ifvqbr0","pricing_plan_id":"free"},{"bike_id":"e106d5cc-b3a8-4ee4-8976-490dd54cf574","system_id":"levelo_inurba_marseille","lat":43.298433,"lon":5.362774,"is_reserved":false,"is_disabled":false,"rental_uris":{"android":"levelo://app?vid=e106d5cc-b3a8-4ee4-8976-490dd54cf574","ios":"levelo://app?vid=e106d5cc-b3a8-4ee4-8976-490dd54cf574"},"vehicle_type_id":"4","last_reported":1683562116,"current_range_meters":10400,"station_id":"ce4bgpp2rcd13ifvqc3g","pricing_plan_id":"free"},{"bike_id":"70214dc0-4c58-473a-9bba-578a140fb12d","system_id":"levelo_inurba_marseille","lat":43.30549,"lon":5.38424,"is_reserved":false,"is_disabled":false,"rental_uris":{"android":"levelo://app?vid=70214dc0-4c58-473a-9bba-578a140fb12d","ios":"levelo://app?vid=70214dc0-4c58-473a-9bba-578a140fb12d"},"vehicle_type_id":"4","last_reported":1683562116,"current_range_meters":6800,"station_id":"ce4bgg92rcd13ifvqb30","pricing_plan_id":"free"},{"bike_id":"81033cbd-abba-42cc-9ccf-f9ece927dedb","system_id":"levelo_inurba_marseille","lat":43.309589,"lon":5.390258,"is_reserved":false,"is_disabled":false,"rental_uris":{"android":"levelo://app?vid=81033cbd-abba-42cc-9ccf-f9ece927dedb","ios":"levelo://app?vid=81033cbd-abba-42cc-9ccf-f9ece927dedb"},"vehicle_type_id":"4","last_reported":1683562116,"current_range_meters":27200,"station_id":"ce4bgup2rcd13ifvqco0","pricing_plan_id":"free"},{"bike_id":"049b4953-b814-47c7-ac31-5679eaa72bed","system_id":"levelo_inurba_marseille","lat":43.299028,"lon":5.381509,"is_reserved":false,"is_disabled":false,"rental_uris":{"android":"levelo://app?vid=049b4953-b814-47c7-ac31-5679eaa72bed","ios":"levelo://app?vid=049b4953-b814-47c7-ac31-5679eaa72bed"},"vehicle_type_id":"4","last_reported":1683562116,"current_range_meters":13600,"station_id":"ce4bgj12rcd13ifvqbc0","pricing_plan_id":"free"},{"bike_id":"8b11a163-35c9-47ae-98b5-b7d2f369281f","system_id":"levelo_inurba_marseille","lat":43.296921,"lon":5.376579,"is_reserved":false,"is_disabled":false,"rental_uris":{"android":"levelo://app?vid=8b11a163-35c9-47ae-98b5-b7d2f369281f","ios":"levelo://app?vid=8b11a163-35c9-47ae-98b5-b7d2f369281f"},"vehicle_type_id":"4","last_reported":1683562116,"current_range_meters":16400,"station_id":"ce4bgkh2rcd13ifvqbl0","pricing_plan_id":"free"},{"bike_id":"5b392650-4340-464e-ba01-27a4e817827c","system_id":"levelo_inurba_marseille","lat":43.298983,"lon":5.381409,"is_reserved":false,"is_disabled":false,"rental_uris":{"android":"levelo://app?vid=5b392650-4340-464e-ba01-27a4e817827c","ios":"levelo://app?vid=5b392650-4340-464e-ba01-27a4e817827c"},"vehicle_type_id":"4","last_reported":1683562116,"current_range_meters":8400,"station_id":"ce4bgj12rcd13ifvqbc0","pricing_plan_id":"free"},{"bike_id":"86740c2d-0184-4797-a9a2-bb5749e6fa96","system_id":"levelo_inurba_marseille","lat":43.311722,"lon":5.387247,"is_reserved":false,"is_disabled":false,"rental_uris":{"android":"levelo://app?vid=86740c2d-0184-4797-a9a2-bb5749e6fa96","ios":"levelo://app?vid=86740c2d-0184-4797-a9a2-bb5749e6fa96"},"vehicle_type_id":"4","last_reported":1683562116,"current_range_meters":10800,"station_id":"ce4bgv12rcd13ifvqcp0","pricing_plan_id":"free"},{"bike_id":"4ee685c3-4f88-413c-a26d-7ba73b137132","system_id":"levelo_inurba_marseille","lat":43.309589,"lon":5.390258,"is_reserved":false,"is_disabled":false,"rental_uris":{"android":"levelo://app?vid=4ee685c3-4f88-413c-a26d-7ba73b137132","ios":"levelo://app?vid=4ee685c3-4f88-413c-a26d-7ba73b137132"},"vehicle_type_id":"4","last_reported":1683562116,"current_range_meters":22800,"station_id":"ce4bgup2rcd13ifvqco0","pricing_plan_id":"free"},{"bike_id":"40bcea4e-adf4-4001-b0a1-f6360e1f6d72","system_id":"levelo_inurba_marseille","lat":43.317557,"lon":5.390173,"is_reserved":false,"is_disabled":false,"rental_uris":{"android":"levelo://app?vid=40bcea4e-adf4-4001-b0a1-f6360e1f6d72","ios":"levelo://app?vid=40bcea4e-adf4-4001-b0a1-f6360e1f6d72"},"vehicle_type_id":"4","last_reported":1683562116,"current_range_meters":800,"station_id":"ce4bhqp2rcd13ifvqhng","pricing_plan_id":"free"},{"bike_id":"4f6418cd-2719-486c-8971-8645a7fa1118","system_id":"levelo_inurba_marseille","lat":43.317557,"lon":5.390173,"is_reserved":false,"is_disabled":false,"rental_uris":{"android":"levelo://app?vid=4f6418cd-2719-486c-8971-8645a7fa1118","ios":"levelo://app?vid=4f6418cd-2719-486c-8971-8645a7fa1118"},"vehicle_type_id":"4","last_reported":1683562116,"current_range_meters":11600,"station_id":"ce4bhqp2rcd13ifvqhng","pricing_plan_id":"free"},{"bike_id":"ea326d82-45b9-403c-b4c7-5986245d8f88","system_id":"levelo_inurba_marseille","lat":43.29586,"lon":5.3751,"is_reserved":false,"is_disabled":false,"rental_uris":{"android":"levelo://app?vid=ea326d82-45b9-403c-b4c7-5986245d8f88","ios":"levelo://app?vid=ea326d82-45b9-403c-b4c7-5986245d8f88"},"vehicle_type_id":"4","last_reported":1683562116,"current_range_meters":20000,"station_id":"ce4bgh92rcd13ifvqb50","pricing_plan_id":"free"},{"bike_id":"73da313c-006d-4d61-a6ce-dd38cd2722fc","system_id":"levelo_inurba_marseille","lat":43.2958,"lon":5.37516,"is_reserved":false,"is_disabled":false,"rental_uris":{"android":"levelo://app?vid=73da313c-006d-4d61-a6ce-dd38cd2722fc","ios":"levelo://app?vid=73da313c-006d-4d61-a6ce-dd38cd2722fc"},"vehicle_type_id":"4","last_reported":1683562116,"current_range_meters":13600,"station_id":"ce4bgh92rcd13ifvqb50","pricing_plan_id":"free"},{"bike_id":"b0071dec-28e2-45c5-8bce-94325ada7745","system_id":"levelo_inurba_marseille","lat":43.304278,"lon":5.388868,"is_reserved":false,"is_disabled":false,"rental_uris":{"android":"levelo://app?vid=b0071dec-28e2-45c5-8bce-94325ada7745","ios":"levelo://app?vid=b0071dec-28e2-45c5-8bce-94325ada7745"},"vehicle_type_id":"4","last_reported":1683562116,"current_range_meters":11600,"station_id":"ce4bgk12rcd13ifvqbi0","pricing_plan_id":"free"},{"bike_id":"8e956285-38d8-4de6-8261-ceb6fc7119d7","system_id":"levelo_inurba_marseille","lat":43.304278,"lon":5.388868,"is_reserved":false,"is_disabled":false,"rental_uris":{"android":"levelo://app?vid=8e956285-38d8-4de6-8261-ceb6fc7119d7","ios":"levelo://app?vid=8e956285-38d8-4de6-8261-ceb6fc7119d7"},"vehicle_type_id":"4","last_reported":1683562116,"current_range_meters":0,"station_id":"ce4bgk12rcd13ifvqbi0","pricing_plan_id":"free"},{"bike_id":"145bffc0-cd47-465d-918b-bd8975b76817","system_id":"levelo_inurba_marseille","lat":43.296277,"lon":5.377108,"is_reserved":false,"is_disabled":false,"rental_uris":{"android":"levelo://app?vid=145bffc0-cd47-465d-918b-bd8975b76817","ios":"levelo://app?vid=145bffc0-cd47-465d-918b-bd8975b76817"},"vehicle_type_id":"4","last_reported":1683562116,"current_range_meters":17200,"station_id":"ce4bgi92rcd13ifvqb90","pricing_plan_id":"free"},{"bike_id":"99ef2aa2-97ef-4774-929d-66cbff2d9885","system_id":"levelo_inurba_marseille","lat":43.299707,"lon":5.384859,"is_reserved":false,"is_disabled":false,"rental_uris":{"android":"levelo://app?vid=99ef2aa2-97ef-4774-929d-66cbff2d9885","ios":"levelo://app?vid=99ef2aa2-97ef-4774-929d-66cbff2d9885"},"vehicle_type_id":"4","last_reported":1683562116,"current_range_meters":14400,"station_id":"ce4bgj92rcd13ifvqbd0","pricing_plan_id":"free"},{"bike_id":"3a6193f5-e8c9-4bff-868c-4efcdb8cb35c","system_id":"levelo_inurba_marseille","lat":43.299707,"lon":5.384859,"is_reserved":false,"is_disabled":false,"rental_uris":{"android":"levelo://app?vid=3a6193f5-e8c9-4bff-868c-4efcdb8cb35c","ios":"levelo://app?vid=3a6193f5-e8c9-4bff-868c-4efcdb8cb35c"},"vehicle_type_id":"4","last_reported":1683562116,"current_range_meters":16000,"station_id":"ce4bgj92rcd13ifvqbd0","pricing_plan_id":"free"},{"bike_id":"2965835c-6386-4dae-b091-49569a000afc","system_id":"levelo_inurba_marseille","lat":43.299717,"lon":5.384845,"is_reserved":false,"is_disabled":false,"rental_uris":{"android":"levelo://app?vid=2965835c-6386-4dae-b091-49569a000afc","ios":"levelo://app?vid=2965835c-6386-4dae-b091-49569a000afc"},"vehicle_type_id":"4","last_reported":1683562116,"current_range_meters":800,"station_id":"ce4bgj92rcd13ifvqbd0","pricing_plan_id":"free"},{"bike_id":"ab20cbf9-1c10-423b-8dfe-ccee32610471","system_id":"levelo_inurba_marseille","lat":43.299717,"lon":5.384845,"is_reserved":false,"is_disabled":false,"rental_uris":{"android":"levelo://app?vid=ab20cbf9-1c10-423b-8dfe-ccee32610471","ios":"levelo://app?vid=ab20cbf9-1c10-423b-8dfe-ccee32610471"},"vehicle_type_id":"4","last_reported":1683562116,"current_range_meters":8400,"station_id":"ce4bgj92rcd13ifvqbd0","pricing_plan_id":"free"},{"bike_id":"7e4e7669-0690-44ed-ad77-4010b1ea4677","system_id":"levelo_inurba_marseille","lat":43.299717,"lon":5.384845,"is_reserved":false,"is_disabled":false,"rental_uris":{"android":"levelo://app?vid=7e4e7669-0690-44ed-ad77-4010b1ea4677","ios":"levelo://app?vid=7e4e7669-0690-44ed-ad77-4010b1ea4677"},"vehicle_type_id":"4","last_reported":1683562116,"current_range_meters":400,"station_id":"ce4bgj92rcd13ifvqbd0","pricing_plan_id":"free"},{"bike_id":"3c4f7351-5246-47f6-80e7-a9fa31f90d58","system_id":"levelo_inurba_marseille","lat":43.299717,"lon":5.384845,"is_reserved":false,"is_disabled":false,"rental_uris":{"android":"levelo://app?vid=3c4f7351-5246-47f6-80e7-a9fa31f90d58","ios":"levelo://app?vid=3c4f7351-5246-47f6-80e7-a9fa31f90d58"},"vehicle_type_id":"4","last_reported":1683562116,"current_range_meters":10000,"station_id":"ce4bgj92rcd13ifvqbd0","pricing_plan_id":"free"},{"bike_id":"82c41a54-be89-4b08-8f3c-784a898a6bc2","system_id":"levelo_inurba_marseille","lat":43.299724,"lon":5.384848,"is_reserved":false,"is_disabled":false,"rental_uris":{"android":"levelo://app?vid=82c41a54-be89-4b08-8f3c-784a898a6bc2","ios":"levelo://app?vid=82c41a54-be89-4b08-8f3c-784a898a6bc2"},"vehicle_type_id":"4","last_reported":1683562116,"current_range_meters":23200,"station_id":"ce4bgj92rcd13ifvqbd0","pricing_plan_id":"free"},{"bike_id":"4a5eeecf-a866-41d8-9253-a69852ef0ecc","system_id":"levelo_inurba_marseille","lat":43.29462,"lon":5.37464,"is_reserved":false,"is_disabled":false,"rental_uris":{"android":"levelo://app?vid=4a5eeecf-a866-41d8-9253-a69852ef0ecc","ios":"levelo://app?vid=4a5eeecf-a866-41d8-9253-a69852ef0ecc"},"vehicle_type_id":"4","last_reported":1683562116,"current_range_meters":12400,"station_id":"ce4bgkp2rcd13ifvqbmg","pricing_plan_id":"free"},{"bike_id":"75afc66f-6948-4d0f-919a-14c1b11d9eac","system_id":"levelo_inurba_marseille","lat":43.293,"lon":5.37168,"is_reserved":false,"is_disabled":false,"rental_uris":{"android":"levelo://app?vid=75afc66f-6948-4d0f-919a-14c1b11d9eac","ios":"levelo://app?vid=75afc66f-6948-4d0f-919a-14c1b11d9eac"},"vehicle_type_id":"4","last_reported":1683562116,"current_range_meters":19600,"station_id":"ce4bgh92rcd13ifvqb40","pricing_plan_id":"free"},{"bike_id":"d498657c-4627-49ae-80f7-b468cf531c7d","system_id":"levelo_inurba_marseille","lat":43.305994,"lon":5.393687,"is_reserved":false,"is_disabled":false,"rental_uris":{"android":"levelo://app?vid=d498657c-4627-49ae-80f7-b468cf531c7d","ios":"levelo://app?vid=d498657c-4627-49ae-80f7-b468cf531c7d"},"vehicle_type_id":"4","last_reported":1683562116,"current_range_meters":10400,"station_id":"ce4bh0p2rcd13ifvqd80","pricing_plan_id":"free"},{"bike_id":"8b9a6a61-1c45-4e4b-9e18-41f14bee8353","system_id":"levelo_inurba_marseille","lat":43.29379,"lon":5.37841,"is_reserved":false,"is_disabled":false,"rental_uris":{"android":"levelo://app?vid=8b9a6a61-1c45-4e4b-9e18-41f14bee8353","ios":"levelo://app?vid=8b9a6a61-1c45-4e4b-9e18-41f14bee8353"},"vehicle_type_id":"4","last_reported":1683562116,"current_range_meters":9200,"station_id":"","pricing_plan_id":"free"},{"bike_id":"189efff4-2dfb-4529-8115-632d168eb715","system_id":"levelo_inurba_marseille","lat":43.30295,"lon":5.39237,"is_reserved":false,"is_disabled":false,"rental_uris":{"android":"levelo://app?vid=189efff4-2dfb-4529-8115-632d168eb715","ios":"levelo://app?vid=189efff4-2dfb-4529-8115-632d168eb715"},"vehicle_type_id":"4","last_reported":1683562116,"current_range_meters":18400,"station_id":"ce4bgkh2rcd13ifvqbk0","pricing_plan_id":"free"},{"bike_id":"c96444f7-053b-4e80-9f92-bbd1ebe654e1","system_id":"levelo_inurba_marseille","lat":43.29229,"lon":5.36053,"is_reserved":false,"is_disabled":false,"rental_uris":{"android":"levelo://app?vid=c96444f7-053b-4e80-9f92-bbd1ebe654e1","ios":"levelo://app?vid=c96444f7-053b-4e80-9f92-bbd1ebe654e1"},"vehicle_type_id":"4","last_reported":1683562116,"current_range_meters":19200,"station_id":"ce4bhbh2rcd13ifvqeqg","pricing_plan_id":"free"},{"bike_id":"c5b017a7-150e-4b7d-9da2-a8bc5a4d0e42","system_id":"levelo_inurba_marseille","lat":43.313291,"lon":5.396838,"is_reserved":false,"is_disabled":false,"rental_uris":{"android":"levelo://app?vid=c5b017a7-150e-4b7d-9da2-a8bc5a4d0e42","ios":"levelo://app?vid=c5b017a7-150e-4b7d-9da2-a8bc5a4d0e42"},"vehicle_type_id":"4","last_reported":1683562116,"current_range_meters":11600,"station_id":"ce4bgvp2rcd13ifvqcu0","pricing_plan_id":"free"},{"bike_id":"61030399-0dc2-4b2d-aaa4-b7f1e569da6c","system_id":"levelo_inurba_marseille","lat":43.309038,"lon":5.396546,"is_reserved":false,"is_disabled":false,"rental_uris":{"android":"levelo://app?vid=61030399-0dc2-4b2d-aaa4-b7f1e569da6c","ios":"levelo://app?vid=61030399-0dc2-4b2d-aaa4-b7f1e569da6c"},"vehicle_type_id":"4","last_reported":1683562116,"current_range_meters":12400,"station_id":"ce4bh012rcd13ifvqcv0","pricing_plan_id":"free"},{"bike_id":"563519ee-08cd-4248-bad9-9086201937ca","system_id":"levelo_inurba_marseille","lat":43.29529,"lon":5.385581,"is_reserved":false,"is_disabled":false,"rental_uris":{"android":"levelo://app?vid=563519ee-08cd-4248-bad9-9086201937ca","ios":"levelo://app?vid=563519ee-08cd-4248-bad9-9086201937ca"},"vehicle_type_id":"4","last_reported":1683562116,"current_range_meters":22800,"station_id":"ce4bgih2rcd13ifvqba0","pricing_plan_id":"free"},{"bike_id":"0d4eeb0b-7473-4a8a-ad90-873a70a85ca2","system_id":"levelo_inurba_marseille","lat":43.29529,"lon":5.385581,"is_reserved":false,"is_disabled":false,"rental_uris":{"android":"levelo://app?vid=0d4eeb0b-7473-4a8a-ad90-873a70a85ca2","ios":"levelo://app?vid=0d4eeb0b-7473-4a8a-ad90-873a70a85ca2"},"vehicle_type_id":"4","last_reported":1683562116,"current_range_meters":18400,"station_id":"ce4bgih2rcd13ifvqba0","pricing_plan_id":"free"},{"bike_id":"811e2aad-b54d-47d2-ba0d-d9d3fbd43f04","system_id":"levelo_inurba_marseille","lat":43.29529,"lon":5.385581,"is_reserved":false,"is_disabled":false,"rental_uris":{"android":"levelo://app?vid=811e2aad-b54d-47d2-ba0d-d9d3fbd43f04","ios":"levelo://app?vid=811e2aad-b54d-47d2-ba0d-d9d3fbd43f04"},"vehicle_type_id":"4","last_reported":1683562116,"current_range_meters":8800,"station_id":"ce4bgih2rcd13ifvqba0","pricing_plan_id":"free"},{"bike_id":"cdd6e6a3-38b2-4d65-8875-a06f96748f22","system_id":"levelo_inurba_marseille","lat":43.29529,"lon":5.385581,"is_reserved":false,"is_disabled":false,"rental_uris":{"android":"levelo://app?vid=cdd6e6a3-38b2-4d65-8875-a06f96748f22","ios":"levelo://app?vid=cdd6e6a3-38b2-4d65-8875-a06f96748f22"},"vehicle_type_id":"4","last_reported":1683562116,"current_range_meters":14000,"station_id":"ce4bgih2rcd13ifvqba0","pricing_plan_id":"free"},{"bike_id":"d1b7d77b-0eaa-4398-a779-d06c3caaa2b6","system_id":"levelo_inurba_marseille","lat":43.29529,"lon":5.385581,"is_reserved":false,"is_disabled":false,"rental_uris":{"android":"levelo://app?vid=d1b7d77b-0eaa-4398-a779-d06c3caaa2b6","ios":"levelo://app?vid=d1b7d77b-0eaa-4398-a779-d06c3caaa2b6"},"vehicle_type_id":"4","last_reported":1683562116,"current_range_meters":27200,"station_id":"ce4bgih2rcd13ifvqba0","pricing_plan_id":"free"},{"bike_id":"ff3e4c69-9335-4521-9577-5451162898a2","system_id":"levelo_inurba_marseille","lat":43.29529,"lon":5.385581,"is_reserved":false,"is_disabled":false,"rental_uris":{"android":"levelo://app?vid=ff3e4c69-9335-4521-9577-5451162898a2","ios":"levelo://app?vid=ff3e4c69-9335-4521-9577-5451162898a2"},"vehicle_type_id":"4","last_reported":1683562116,"current_range_meters":0,"station_id":"ce4bgih2rcd13ifvqba0","pricing_plan_id":"free"},{"bike_id":"9fee0a71-d127-482e-b78f-d97c5ffe8162","system_id":"levelo_inurba_marseille","lat":43.29529,"lon":5.385581,"is_reserved":false,"is_disabled":false,"rental_uris":{"android":"levelo://app?vid=9fee0a71-d127-482e-b78f-d97c5ffe8162","ios":"levelo://app?vid=9fee0a71-d127-482e-b78f-d97c5ffe8162"},"vehicle_type_id":"4","last_reported":1683562116,"current_range_meters":19600,"station_id":"ce4bgih2rcd13ifvqba0","pricing_plan_id":"free"},{"bike_id":"ed662519-6dfa-4817-86da-76238a458fd1","system_id":"levelo_inurba_marseille","lat":43.29529,"lon":5.385581,"is_reserved":false,"is_disabled":false,"rental_uris":{"android":"levelo://app?vid=ed662519-6dfa-4817-86da-76238a458fd1","ios":"levelo://app?vid=ed662519-6dfa-4817-86da-76238a458fd1"},"vehicle_type_id":"4","last_reported":1683562116,"current_range_meters":24400,"station_id":"ce4bgih2rcd13ifvqba0","pricing_plan_id":"free"},{"bike_id":"2004d7f4-a8c7-451e-84bb-c182506039b4","system_id":"levelo_inurba_marseille","lat":43.29529,"lon":5.385581,"is_reserved":false,"is_disabled":false,"rental_uris":{"android":"levelo://app?vid=2004d7f4-a8c7-451e-84bb-c182506039b4","ios":"levelo://app?vid=2004d7f4-a8c7-451e-84bb-c182506039b4"},"vehicle_type_id":"4","last_reported":1683562116,"current_range_meters":16400,"station_id":"ce4bgih2rcd13ifvqba0","pricing_plan_id":"free"},{"bike_id":"eea353c6-0e83-4da1-9f3b-59959eacbd56","system_id":"levelo_inurba_marseille","lat":43.290624,"lon":5.359245,"is_reserved":false,"is_disabled":false,"rental_uris":{"android":"levelo://app?vid=eea353c6-0e83-4da1-9f3b-59959eacbd56","ios":"levelo://app?vid=eea353c6-0e83-4da1-9f3b-59959eacbd56"},"vehicle_type_id":"4","last_reported":1683562116,"current_range_meters":13600,"station_id":"ce4bha92rcd13ifvqeg0","pricing_plan_id":"free"},{"bike_id":"3471a551-6e1f-4cdc-b4cd-667b6693d467","system_id":"levelo_inurba_marseille","lat":43.290319,"lon":5.375732,"is_reserved":false,"is_disabled":false,"rental_uris":{"android":"levelo://app?vid=3471a551-6e1f-4cdc-b4cd-667b6693d467","ios":"levelo://app?vid=3471a551-6e1f-4cdc-b4cd-667b6693d467"},"vehicle_type_id":"4","last_reported":1683562116,"current_range_meters":4400,"station_id":"ce4bh692rcd13ifvqe90","pricing_plan_id":"free"},{"bike_id":"c957cb95-9b9c-49dd-ba56-7dbc6e160fa9","system_id":"levelo_inurba_marseille","lat":43.289184,"lon":5.366408,"is_reserved":false,"is_disabled":false,"rental_uris":{"android":"levelo://app?vid=c957cb95-9b9c-49dd-ba56-7dbc6e160fa9","ios":"levelo://app?vid=c957cb95-9b9c-49dd-ba56-7dbc6e160fa9"},"vehicle_type_id":"4","last_reported":1683562116,"current_range_meters":14800,"station_id":"ce4bhap2rcd13ifvqek0","pricing_plan_id":"free"},{"bike_id":"4dff18f3-1e9f-4da7-a66c-f586f1f3a585","system_id":"levelo_inurba_marseille","lat":43.304296,"lon":5.397513,"is_reserved":false,"is_disabled":false,"rental_uris":{"android":"levelo://app?vid=4dff18f3-1e9f-4da7-a66c-f586f1f3a585","ios":"levelo://app?vid=4dff18f3-1e9f-4da7-a66c-f586f1f3a585"},"vehicle_type_id":"4","last_reported":1683562116,"current_range_meters":400,"station_id":"ce4bh092rcd13ifvqd20","pricing_plan_id":"free"},{"bike_id":"4b53b6bd-f5ee-4c4b-8bc6-ec20e147aef2","system_id":"levelo_inurba_marseille","lat":43.292644,"lon":5.384257,"is_reserved":false,"is_disabled":false,"rental_uris":{"android":"levelo://app?vid=4b53b6bd-f5ee-4c4b-8bc6-ec20e147aef2","ios":"levelo://app?vid=4b53b6bd-f5ee-4c4b-8bc6-ec20e147aef2"},"vehicle_type_id":"4","last_reported":1683562116,"current_range_meters":10800,"station_id":"ce4bh692rcd13ifvqea0","pricing_plan_id":"free"},{"bike_id":"c2121ccb-c291-444d-a506-b47a35ee9690","system_id":"levelo_inurba_marseille","lat":43.292644,"lon":5.384257,"is_reserved":false,"is_disabled":false,"rental_uris":{"android":"levelo://app?vid=c2121ccb-c291-444d-a506-b47a35ee9690","ios":"levelo://app?vid=c2121ccb-c291-444d-a506-b47a35ee9690"},"vehicle_type_id":"4","last_reported":1683562116,"current_range_meters":24400,"station_id":"ce4bh692rcd13ifvqea0","pricing_plan_id":"free"},{"bike_id":"88312cfb-8b51-4d15-a207-36ae4e649617","system_id":"levelo_inurba_marseille","lat":43.292642,"lon":5.384254,"is_reserved":false,"is_disabled":false,"rental_uris":{"android":"levelo://app?vid=88312cfb-8b51-4d15-a207-36ae4e649617","ios":"levelo://app?vid=88312cfb-8b51-4d15-a207-36ae4e649617"},"vehicle_type_id":"4","last_reported":1683562116,"current_range_meters":2000,"station_id":"ce4bh692rcd13ifvqea0","pricing_plan_id":"free"},{"bike_id":"c44dbf42-bbe8-40ff-9e44-8bb3389825d4","system_id":"levelo_inurba_marseille","lat":43.292642,"lon":5.384254,"is_reserved":false,"is_disabled":false,"rental_uris":{"android":"levelo://app?vid=c44dbf42-bbe8-40ff-9e44-8bb3389825d4","ios":"levelo://app?vid=c44dbf42-bbe8-40ff-9e44-8bb3389825d4"},"vehicle_type_id":"4","last_reported":1683562116,"current_range_meters":21600,"station_id":"ce4bh692rcd13ifvqea0","pricing_plan_id":"free"},{"bike_id":"c80426be-83d3-4e57-a092-befe7b8a7a79","system_id":"levelo_inurba_marseille","lat":43.33041,"lon":5.3892,"is_reserved":false,"is_disabled":false,"rental_uris":{"android":"levelo://app?vid=c80426be-83d3-4e57-a092-befe7b8a7a79","ios":"levelo://app?vid=c80426be-83d3-4e57-a092-befe7b8a7a79"},"vehicle_type_id":"4","last_reported":1683562116,"current_range_meters":25200,"station_id":"ce4bhr92rcd13ifvqhrg","pricing_plan_id":"free"},{"bike_id":"72f7fdc7-4763-479b-a34e-f238ca3cd360","system_id":"levelo_inurba_marseille","lat":43.33043,"lon":5.38919,"is_reserved":false,"is_disabled":false,"rental_uris":{"android":"levelo://app?vid=72f7fdc7-4763-479b-a34e-f238ca3cd360","ios":"levelo://app?vid=72f7fdc7-4763-479b-a34e-f238ca3cd360"},"vehicle_type_id":"4","last_reported":1683562116,"current_range_meters":25600,"station_id":"ce4bhr92rcd13ifvqhrg","pricing_plan_id":"free"},{"bike_id":"2c4d1fc8-5966-49f2-8d08-251e531c7e7f","system_id":"levelo_inurba_marseille","lat":43.33045,"lon":5.38922,"is_reserved":false,"is_disabled":false,"rental_uris":{"android":"levelo://app?vid=2c4d1fc8-5966-49f2-8d08-251e531c7e7f","ios":"levelo://app?vid=2c4d1fc8-5966-49f2-8d08-251e531c7e7f"},"vehicle_type_id":"4","last_reported":1683562116,"current_range_meters":27200,"station_id":"ce4bhr92rcd13ifvqhrg","pricing_plan_id":"free"},{"bike_id":"c10b18d0-c5a3-44a4-bd5e-2966c0fb7c91","system_id":"levelo_inurba_marseille","lat":43.29104,"lon":5.38144,"is_reserved":false,"is_disabled":false,"rental_uris":{"android":"levelo://app?vid=c10b18d0-c5a3-44a4-bd5e-2966c0fb7c91","ios":"levelo://app?vid=c10b18d0-c5a3-44a4-bd5e-2966c0fb7c91"},"vehicle_type_id":"4","last_reported":1683562116,"current_range_meters":3600,"station_id":"ce4bh512rcd13ifvqe2g","pricing_plan_id":"free"},{"bike_id":"59a9ce07-3ee2-4416-ad3b-3367b40fd3cd","system_id":"levelo_inurba_marseille","lat":43.295169,"lon":5.390426,"is_reserved":false,"is_disabled":false,"rental_uris":{"android":"levelo://app?vid=59a9ce07-3ee2-4416-ad3b-3367b40fd3cd","ios":"levelo://app?vid=59a9ce07-3ee2-4416-ad3b-3367b40fd3cd"},"vehicle_type_id":"4","last_reported":1683562116,"current_range_meters":6000,"station_id":"ce4bh3p2rcd13ifvqdp0","pricing_plan_id":"free"},{"bike_id":"94dfe20f-2206-4f01-b76a-bdb03fd680db","system_id":"levelo_inurba_marseille","lat":43.295169,"lon":5.390426,"is_reserved":false,"is_disabled":false,"rental_uris":{"android":"levelo://app?vid=94dfe20f-2206-4f01-b76a-bdb03fd680db","ios":"levelo://app?vid=94dfe20f-2206-4f01-b76a-bdb03fd680db"},"vehicle_type_id":"4","last_reported":1683562116,"current_range_meters":16400,"station_id":"ce4bh3p2rcd13ifvqdp0","pricing_plan_id":"free"},{"bike_id":"d39f8d57-a849-4cb3-9d14-487ab2bd4377","system_id":"levelo_inurba_marseille","lat":43.289743,"lon":5.378304,"is_reserved":false,"is_disabled":false,"rental_uris":{"android":"levelo://app?vid=d39f8d57-a849-4cb3-9d14-487ab2bd4377","ios":"levelo://app?vid=d39f8d57-a849-4cb3-9d14-487ab2bd4377"},"vehicle_type_id":"4","last_reported":1683562116,"current_range_meters":5200,"station_id":"ce4bh9p2rcd13ifvqed0","pricing_plan_id":"free"},{"bike_id":"c38c63a0-bb78-48be-acd8-b12c9d9dd6ed","system_id":"levelo_inurba_marseille","lat":43.289741,"lon":5.378306,"is_reserved":false,"is_disabled":false,"rental_uris":{"android":"levelo://app?vid=c38c63a0-bb78-48be-acd8-b12c9d9dd6ed","ios":"levelo://app?vid=c38c63a0-bb78-48be-acd8-b12c9d9dd6ed"},"vehicle_type_id":"4","last_reported":1683562116,"current_range_meters":26000,"station_id":"ce4bh9p2rcd13ifvqed0","pricing_plan_id":"free"},{"bike_id":"78725f08-8d42-4f1a-9002-0d0b35dc7efd","system_id":"levelo_inurba_marseille","lat":43.33749,"lon":5.37438,"is_reserved":false,"is_disabled":false,"rental_uris":{"android":"levelo://app?vid=78725f08-8d42-4f1a-9002-0d0b35dc7efd","ios":"levelo://app?vid=78725f08-8d42-4f1a-9002-0d0b35dc7efd"},"vehicle_type_id":"4","last_reported":1683562116,"current_range_meters":14400,"station_id":"","pricing_plan_id":"free"},{"bike_id":"7c7fe969-ca3b-4e6a-9b0a-6e22bc5df003","system_id":"levelo_inurba_marseille","lat":43.33773,"lon":5.37431,"is_reserved":false,"is_disabled":false,"rental_uris":{"android":"levelo://app?vid=7c7fe969-ca3b-4e6a-9b0a-6e22bc5df003","ios":"levelo://app?vid=7c7fe969-ca3b-4e6a-9b0a-6e22bc5df003"},"vehicle_type_id":"4","last_reported":1683562116,"current_range_meters":31200,"station_id":"ce4rr2p2rcd13i802rgg","pricing_plan_id":"free"},{"bike_id":"b4d2bbff-b2dd-43d4-b642-cbde7c159902","system_id":"levelo_inurba_marseille","lat":43.33772,"lon":5.37465,"is_reserved":false,"is_disabled":false,"rental_uris":{"android":"levelo://app?vid=b4d2bbff-b2dd-43d4-b642-cbde7c159902","ios":"levelo://app?vid=b4d2bbff-b2dd-43d4-b642-cbde7c159902"},"vehicle_type_id":"4","last_reported":1683562116,"current_range_meters":26400,"station_id":"","pricing_plan_id":"free"},{"bike_id":"dd3ba9cd-f144-4bad-ae43-2286007b6038","system_id":"levelo_inurba_marseille","lat":43.301117,"lon":5.398795,"is_reserved":false,"is_disabled":false,"rental_uris":{"android":"levelo://app?vid=dd3ba9cd-f144-4bad-ae43-2286007b6038","ios":"levelo://app?vid=dd3ba9cd-f144-4bad-ae43-2286007b6038"},"vehicle_type_id":"4","last_reported":1683562116,"current_range_meters":7200,"station_id":"ce4bh0h2rcd13ifvqd40","pricing_plan_id":"free"},{"bike_id":"9e89e1bb-febc-440e-a066-5e002950af11","system_id":"levelo_inurba_marseille","lat":43.286039,"lon":5.370679,"is_reserved":false,"is_disabled":false,"rental_uris":{"android":"levelo://app?vid=9e89e1bb-febc-440e-a066-5e002950af11","ios":"levelo://app?vid=9e89e1bb-febc-440e-a066-5e002950af11"},"vehicle_type_id":"4","last_reported":1683562116,"current_range_meters":10000,"station_id":"ce4bht12rcd13ifvqi60","pricing_plan_id":"free"},{"bike_id":"244c2f3a-a837-4546-ab5d-5d1e74d6a79c","system_id":"levelo_inurba_marseille","lat":43.295194,"lon":5.39397,"is_reserved":false,"is_disabled":false,"rental_uris":{"android":"levelo://app?vid=244c2f3a-a837-4546-ab5d-5d1e74d6a79c","ios":"levelo://app?vid=244c2f3a-a837-4546-ab5d-5d1e74d6a79c"},"vehicle_type_id":"4","last_reported":1683562116,"current_range_meters":400,"station_id":"ce4bh292rcd13ifvqdf0","pricing_plan_id":"free"},{"bike_id":"6f3cc074-11e9-4a94-9845-ebbcb3f60d89","system_id":"levelo_inurba_marseille","lat":43.295196,"lon":5.39397,"is_reserved":false,"is_disabled":false,"rental_uris":{"android":"levelo://app?vid=6f3cc074-11e9-4a94-9845-ebbcb3f60d89","ios":"levelo://app?vid=6f3cc074-11e9-4a94-9845-ebbcb3f60d89"},"vehicle_type_id":"4","last_reported":1683562116,"current_range_meters":8000,"station_id":"ce4bh292rcd13ifvqdf0","pricing_plan_id":"free"},{"bike_id":"93632da7-500b-48a0-a692-92b3ff412b87","system_id":"levelo_inurba_marseille","lat":43.295196,"lon":5.39397,"is_reserved":false,"is_disabled":false,"rental_uris":{"android":"levelo://app?vid=93632da7-500b-48a0-a692-92b3ff412b87","ios":"levelo://app?vid=93632da7-500b-48a0-a692-92b3ff412b87"},"vehicle_type_id":"4","last_reported":1683562116,"current_range_meters":24400,"station_id":"ce4bh292rcd13ifvqdf0","pricing_plan_id":"free"},{"bike_id":"e2d52286-319c-4851-9c73-d55b801269a4","system_id":"levelo_inurba_marseille","lat":43.295194,"lon":5.39397,"is_reserved":false,"is_disabled":false,"rental_uris":{"android":"levelo://app?vid=e2d52286-319c-4851-9c73-d55b801269a4","ios":"levelo://app?vid=e2d52286-319c-4851-9c73-d55b801269a4"},"vehicle_type_id":"4","last_reported":1683562116,"current_range_meters":3600,"station_id":"ce4bh292rcd13ifvqdf0","pricing_plan_id":"free"},{"bike_id":"08109a5e-fb91-4a33-beb9-1c58e1ed7bed","system_id":"levelo_inurba_marseille","lat":43.290336,"lon":5.386425,"is_reserved":false,"is_disabled":false,"rental_uris":{"android":"levelo://app?vid=08109a5e-fb91-4a33-beb9-1c58e1ed7bed","ios":"levelo://app?vid=08109a5e-fb91-4a33-beb9-1c58e1ed7bed"},"vehicle_type_id":"4","last_reported":1683562116,"current_range_meters":5200,"station_id":"ce4bh4p2rcd13ifvqe0g","pricing_plan_id":"free"},{"bike_id":"46187a0a-82a0-40a6-97bf-22c89ce6133f","system_id":"levelo_inurba_marseille","lat":43.290336,"lon":5.386425,"is_reserved":false,"is_disabled":false,"rental_uris":{"android":"levelo://app?vid=46187a0a-82a0-40a6-97bf-22c89ce6133f","ios":"levelo://app?vid=46187a0a-82a0-40a6-97bf-22c89ce6133f"},"vehicle_type_id":"4","last_reported":1683562116,"current_range_meters":8800,"station_id":"ce4bh4p2rcd13ifvqe0g","pricing_plan_id":"free"},{"bike_id":"600fc041-ac1a-473d-8d9f-ffbbf78b7bd1","system_id":"levelo_inurba_marseille","lat":43.302759,"lon":5.400793,"is_reserved":false,"is_disabled":false,"rental_uris":{"android":"levelo://app?vid=600fc041-ac1a-473d-8d9f-ffbbf78b7bd1","ios":"levelo://app?vid=600fc041-ac1a-473d-8d9f-ffbbf78b7bd1"},"vehicle_type_id":"4","last_reported":1683562116,"current_range_meters":0,"station_id":"ce4bgvh2rcd13ifvqcs0","pricing_plan_id":"free"},{"bike_id":"5d27039f-4333-4b89-a099-6719b571802e","system_id":"levelo_inurba_marseille","lat":43.290336,"lon":5.386425,"is_reserved":false,"is_disabled":false,"rental_uris":{"android":"levelo://app?vid=5d27039f-4333-4b89-a099-6719b571802e","ios":"levelo://app?vid=5d27039f-4333-4b89-a099-6719b571802e"},"vehicle_type_id":"4","last_reported":1683562116,"current_range_meters":28000,"station_id":"ce4bh4p2rcd13ifvqe0g","pricing_plan_id":"free"},{"bike_id":"ae75b40f-5f10-497e-ae25-98bff594fb29","system_id":"levelo_inurba_marseille","lat":43.290336,"lon":5.386425,"is_reserved":false,"is_disabled":false,"rental_uris":{"android":"levelo://app?vid=ae75b40f-5f10-497e-ae25-98bff594fb29","ios":"levelo://app?vid=ae75b40f-5f10-497e-ae25-98bff594fb29"},"vehicle_type_id":"4","last_reported":1683562116,"current_range_meters":15600,"station_id":"ce4bh4p2rcd13ifvqe0g","pricing_plan_id":"free"},{"bike_id":"d82e1061-c1fb-4666-b162-348e668531fe","system_id":"levelo_inurba_marseille","lat":43.28951,"lon":5.38469,"is_reserved":false,"is_disabled":false,"rental_uris":{"android":"levelo://app?vid=d82e1061-c1fb-4666-b162-348e668531fe","ios":"levelo://app?vid=d82e1061-c1fb-4666-b162-348e668531fe"},"vehicle_type_id":"4","last_reported":1683562116,"current_range_meters":20800,"station_id":"","pricing_plan_id":"free"},{"bike_id":"3e4630ff-4d37-47d8-bac3-e98638858329","system_id":"levelo_inurba_marseille","lat":43.290336,"lon":5.386425,"is_reserved":false,"is_disabled":false,"rental_uris":{"android":"levelo://app?vid=3e4630ff-4d37-47d8-bac3-e98638858329","ios":"levelo://app?vid=3e4630ff-4d37-47d8-bac3-e98638858329"},"vehicle_type_id":"4","last_reported":1683562116,"current_range_meters":0,"station_id":"ce4bh4p2rcd13ifvqe0g","pricing_plan_id":"free"},{"bike_id":"cc415bc7-baa1-4ebe-8fb5-d2e7984c9f42","system_id":"levelo_inurba_marseille","lat":43.302759,"lon":5.400793,"is_reserved":false,"is_disabled":false,"rental_uris":{"android":"levelo://app?vid=cc415bc7-baa1-4ebe-8fb5-d2e7984c9f42","ios":"levelo://app?vid=cc415bc7-baa1-4ebe-8fb5-d2e7984c9f42"},"vehicle_type_id":"4","last_reported":1683562116,"current_range_meters":28400,"station_id":"ce4bgvh2rcd13ifvqcs0","pricing_plan_id":"free"},{"bike_id":"c09ed9e6-5ff7-4551-96cf-d834ba882ca8","system_id":"levelo_inurba_marseille","lat":43.286039,"lon":5.370679,"is_reserved":false,"is_disabled":false,"rental_uris":{"android":"levelo://app?vid=c09ed9e6-5ff7-4551-96cf-d834ba882ca8","ios":"levelo://app?vid=c09ed9e6-5ff7-4551-96cf-d834ba882ca8"},"vehicle_type_id":"4","last_reported":1683562116,"current_range_meters":400,"station_id":"ce4bht12rcd13ifvqi60","pricing_plan_id":"free"},{"bike_id":"5d8e9d0e-ff00-4e6f-a9f3-002675cc963a","system_id":"levelo_inurba_marseille","lat":43.286039,"lon":5.370679,"is_reserved":false,"is_disabled":false,"rental_uris":{"android":"levelo://app?vid=5d8e9d0e-ff00-4e6f-a9f3-002675cc963a","ios":"levelo://app?vid=5d8e9d0e-ff00-4e6f-a9f3-002675cc963a"},"vehicle_type_id":"4","last_reported":1683562116,"current_range_meters":12000,"station_id":"ce4bht12rcd13ifvqi60","pricing_plan_id":"free"},{"bike_id":"bac0039d-dba2-45d0-ae4e-abe5f8101815","system_id":"levelo_inurba_marseille","lat":43.286039,"lon":5.370679,"is_reserved":false,"is_disabled":false,"rental_uris":{"android":"levelo://app?vid=bac0039d-dba2-45d0-ae4e-abe5f8101815","ios":"levelo://app?vid=bac0039d-dba2-45d0-ae4e-abe5f8101815"},"vehicle_type_id":"4","last_reported":1683562116,"current_range_meters":18400,"station_id":"ce4bht12rcd13ifvqi60","pricing_plan_id":"free"},{"bike_id":"5bff2443-2ae9-4366-b834-80d65336e3f6","system_id":"levelo_inurba_marseille","lat":43.28829,"lon":5.38244,"is_reserved":false,"is_disabled":false,"rental_uris":{"android":"levelo://app?vid=5bff2443-2ae9-4366-b834-80d65336e3f6","ios":"levelo://app?vid=5bff2443-2ae9-4366-b834-80d65336e3f6"},"vehicle_type_id":"4","last_reported":1683562116,"current_range_meters":0,"station_id":"","pricing_plan_id":"free"},{"bike_id":"4639c5f6-6fc3-4d08-a2ec-a8f1604a91cf","system_id":"levelo_inurba_marseille","lat":43.316517,"lon":5.404375,"is_reserved":false,"is_disabled":false,"rental_uris":{"android":"levelo://app?vid=4639c5f6-6fc3-4d08-a2ec-a8f1604a91cf","ios":"levelo://app?vid=4639c5f6-6fc3-4d08-a2ec-a8f1604a91cf"},"vehicle_type_id":"4","last_reported":1683562116,"current_range_meters":16000,"station_id":"ce4bh012rcd13ifvqd00","pricing_plan_id":"free"},{"bike_id":"a4a6a0a2-07c5-401a-b7fb-161654f1b26f","system_id":"levelo_inurba_marseille","lat":43.28604,"lon":5.35175,"is_reserved":false,"is_disabled":false,"rental_uris":{"android":"levelo://app?vid=a4a6a0a2-07c5-401a-b7fb-161654f1b26f","ios":"levelo://app?vid=a4a6a0a2-07c5-401a-b7fb-161654f1b26f"},"vehicle_type_id":"4","last_reported":1683562116,"current_range_meters":20400,"station_id":"","pricing_plan_id":"free"},{"bike_id":"0a068d42-63fd-4311-81fa-fa5dda4c0853","system_id":"levelo_inurba_marseille","lat":43.28668,"lon":5.38662,"is_reserved":false,"is_disabled":false,"rental_uris":{"android":"levelo://app?vid=0a068d42-63fd-4311-81fa-fa5dda4c0853","ios":"levelo://app?vid=0a068d42-63fd-4311-81fa-fa5dda4c0853"},"vehicle_type_id":"4","last_reported":1683562116,"current_range_meters":18400,"station_id":"ce4bh492rcd13ifvqdug","pricing_plan_id":"free"},{"bike_id":"52cbe7fb-c1b1-4563-b2bc-9e233cd9a4d5","system_id":"levelo_inurba_marseille","lat":43.286686,"lon":5.386696,"is_reserved":false,"is_disabled":false,"rental_uris":{"android":"levelo://app?vid=52cbe7fb-c1b1-4563-b2bc-9e233cd9a4d5","ios":"levelo://app?vid=52cbe7fb-c1b1-4563-b2bc-9e233cd9a4d5"},"vehicle_type_id":"4","last_reported":1683562116,"current_range_meters":27200,"station_id":"ce4bh492rcd13ifvqdug","pricing_plan_id":"free"},{"bike_id":"7cdb1143-1df3-41fc-a179-c2f32ca67ebe","system_id":"levelo_inurba_marseille","lat":43.28516,"lon":5.35121,"is_reserved":false,"is_disabled":false,"rental_uris":{"android":"levelo://app?vid=7cdb1143-1df3-41fc-a179-c2f32ca67ebe","ios":"levelo://app?vid=7cdb1143-1df3-41fc-a179-c2f32ca67ebe"},"vehicle_type_id":"4","last_reported":1683562116,"current_range_meters":0,"station_id":"","pricing_plan_id":"free"},{"bike_id":"f1aa2330-3b31-44a4-97f8-e98ceff08ecf","system_id":"levelo_inurba_marseille","lat":43.33717,"lon":5.391857,"is_reserved":false,"is_disabled":false,"rental_uris":{"android":"levelo://app?vid=f1aa2330-3b31-44a4-97f8-e98ceff08ecf","ios":"levelo://app?vid=f1aa2330-3b31-44a4-97f8-e98ceff08ecf"},"vehicle_type_id":"4","last_reported":1683562116,"current_range_meters":31200,"station_id":"ce4bhr92rcd13ifvqhsg","pricing_plan_id":"free"},{"bike_id":"9c83bfd6-c1b6-4a4e-a784-955d5b766f75","system_id":"levelo_inurba_marseille","lat":43.323464,"lon":5.406297,"is_reserved":false,"is_disabled":false,"rental_uris":{"android":"levelo://app?vid=9c83bfd6-c1b6-4a4e-a784-955d5b766f75","ios":"levelo://app?vid=9c83bfd6-c1b6-4a4e-a784-955d5b766f75"},"vehicle_type_id":"4","last_reported":1683562116,"current_range_meters":23200,"station_id":"ce4bhq92rcd13ifvqhjg","pricing_plan_id":"free"},{"bike_id":"eeed33b8-4405-4fee-8d96-fecd07572891","system_id":"levelo_inurba_marseille","lat":43.323464,"lon":5.406297,"is_reserved":false,"is_disabled":false,"rental_uris":{"android":"levelo://app?vid=eeed33b8-4405-4fee-8d96-fecd07572891","ios":"levelo://app?vid=eeed33b8-4405-4fee-8d96-fecd07572891"},"vehicle_type_id":"4","last_reported":1683562116,"current_range_meters":30800,"station_id":"ce4bhq92rcd13ifvqhjg","pricing_plan_id":"free"},{"bike_id":"ad3cdfdb-0864-4cce-8a5d-05a05de94244","system_id":"levelo_inurba_marseille","lat":43.30092,"lon":5.40562,"is_reserved":false,"is_disabled":false,"rental_uris":{"android":"levelo://app?vid=ad3cdfdb-0864-4cce-8a5d-05a05de94244","ios":"levelo://app?vid=ad3cdfdb-0864-4cce-8a5d-05a05de94244"},"vehicle_type_id":"4","last_reported":1683562116,"current_range_meters":10400,"station_id":"","pricing_plan_id":"free"},{"bike_id":"1cced6a0-0a1e-43b7-8c92-d7362184345a","system_id":"levelo_inurba_marseille","lat":43.288051,"lon":5.391634,"is_reserved":false,"is_disabled":false,"rental_uris":{"android":"levelo://app?vid=1cced6a0-0a1e-43b7-8c92-d7362184345a","ios":"levelo://app?vid=1cced6a0-0a1e-43b7-8c92-d7362184345a"},"vehicle_type_id":"4","last_reported":1683562116,"current_range_meters":22800,"station_id":"","pricing_plan_id":"free"},{"bike_id":"7449951a-d879-43f9-a471-fdc3c4465d23","system_id":"levelo_inurba_marseille","lat":43.283494,"lon":5.380945,"is_reserved":false,"is_disabled":false,"rental_uris":{"android":"levelo://app?vid=7449951a-d879-43f9-a471-fdc3c4465d23","ios":"levelo://app?vid=7449951a-d879-43f9-a471-fdc3c4465d23"},"vehicle_type_id":"4","last_reported":1683562116,"current_range_meters":28400,"station_id":"ce4bh412rcd13ifvqdr0","pricing_plan_id":"free"},{"bike_id":"aaa538ff-e314-4b5f-81fb-34d132333bf6","system_id":"levelo_inurba_marseille","lat":43.284077,"lon":5.34976,"is_reserved":false,"is_disabled":false,"rental_uris":{"android":"levelo://app?vid=aaa538ff-e314-4b5f-81fb-34d132333bf6","ios":"levelo://app?vid=aaa538ff-e314-4b5f-81fb-34d132333bf6"},"vehicle_type_id":"4","last_reported":1683562116,"current_range_meters":0,"station_id":"","pricing_plan_id":"free"},{"bike_id":"76242f32-c407-44d4-84d7-fa1d50b0f9dc","system_id":"levelo_inurba_marseille","lat":43.32444,"lon":5.40831,"is_reserved":false,"is_disabled":false,"rental_uris":{"android":"levelo://app?vid=76242f32-c407-44d4-84d7-fa1d50b0f9dc","ios":"levelo://app?vid=76242f32-c407-44d4-84d7-fa1d50b0f9dc"},"vehicle_type_id":"4","last_reported":1683562116,"current_range_meters":0,"station_id":"","pricing_plan_id":"free"},{"bike_id":"f4300baf-d67d-4414-a794-f066c8aa3b10","system_id":"levelo_inurba_marseille","lat":43.28048,"lon":5.36952,"is_reserved":false,"is_disabled":false,"rental_uris":{"android":"levelo://app?vid=f4300baf-d67d-4414-a794-f066c8aa3b10","ios":"levelo://app?vid=f4300baf-d67d-4414-a794-f066c8aa3b10"},"vehicle_type_id":"4","last_reported":1683562116,"current_range_meters":0,"station_id":"ce4bha12rcd13ifvqef0","pricing_plan_id":"free"},{"bike_id":"c111cab3-5876-4594-aa61-1bb1559e2255","system_id":"levelo_inurba_marseille","lat":43.28039,"lon":5.369297,"is_reserved":false,"is_disabled":false,"rental_uris":{"android":"levelo://app?vid=c111cab3-5876-4594-aa61-1bb1559e2255","ios":"levelo://app?vid=c111cab3-5876-4594-aa61-1bb1559e2255"},"vehicle_type_id":"4","last_reported":1683562116,"current_range_meters":24800,"station_id":"ce4bha12rcd13ifvqef0","pricing_plan_id":"free"},{"bike_id":"228a2e88-6367-4fe9-b17d-87ec97e94db8","system_id":"levelo_inurba_marseille","lat":43.28039,"lon":5.369297,"is_reserved":false,"is_disabled":false,"rental_uris":{"android":"levelo://app?vid=228a2e88-6367-4fe9-b17d-87ec97e94db8","ios":"levelo://app?vid=228a2e88-6367-4fe9-b17d-87ec97e94db8"},"vehicle_type_id":"4","last_reported":1683562116,"current_range_meters":2000,"station_id":"ce4bha12rcd13ifvqef0","pricing_plan_id":"free"},{"bike_id":"bd6a2753-fec9-4f6c-9ca5-914dc81f0cb3","system_id":"levelo_inurba_marseille","lat":43.283502,"lon":5.386471,"is_reserved":false,"is_disabled":false,"rental_uris":{"android":"levelo://app?vid=bd6a2753-fec9-4f6c-9ca5-914dc81f0cb3","ios":"levelo://app?vid=bd6a2753-fec9-4f6c-9ca5-914dc81f0cb3"},"vehicle_type_id":"4","last_reported":1683562116,"current_range_meters":12000,"station_id":"ce4bh492rcd13ifvqdvg","pricing_plan_id":"free"},{"bike_id":"5d533c11-d8fd-40c7-a4a6-4224053e4438","system_id":"levelo_inurba_marseille","lat":43.28043,"lon":5.36948,"is_reserved":false,"is_disabled":false,"rental_uris":{"android":"levelo://app?vid=5d533c11-d8fd-40c7-a4a6-4224053e4438","ios":"levelo://app?vid=5d533c11-d8fd-40c7-a4a6-4224053e4438"},"vehicle_type_id":"4","last_reported":1683562116,"current_range_meters":17600,"station_id":"ce4bha12rcd13ifvqef0","pricing_plan_id":"free"},{"bike_id":"30cfbec4-bc47-47bf-91e4-b660b289a398","system_id":"levelo_inurba_marseille","lat":43.28039,"lon":5.369297,"is_reserved":false,"is_disabled":false,"rental_uris":{"android":"levelo://app?vid=30cfbec4-bc47-47bf-91e4-b660b289a398","ios":"levelo://app?vid=30cfbec4-bc47-47bf-91e4-b660b289a398"},"vehicle_type_id":"4","last_reported":1683562116,"current_range_meters":26800,"station_id":"ce4bha12rcd13ifvqef0","pricing_plan_id":"free"},{"bike_id":"b8cb1afa-0730-46dc-8483-c2c9b5b8cfba","system_id":"levelo_inurba_marseille","lat":43.28039,"lon":5.369297,"is_reserved":false,"is_disabled":false,"rental_uris":{"android":"levelo://app?vid=b8cb1afa-0730-46dc-8483-c2c9b5b8cfba","ios":"levelo://app?vid=b8cb1afa-0730-46dc-8483-c2c9b5b8cfba"},"vehicle_type_id":"4","last_reported":1683562116,"current_range_meters":0,"station_id":"ce4bha12rcd13ifvqef0","pricing_plan_id":"free"},{"bike_id":"4dffe24e-8439-4bd3-a688-adeab794171f","system_id":"levelo_inurba_marseille","lat":43.28039,"lon":5.369297,"is_reserved":false,"is_disabled":false,"rental_uris":{"android":"levelo://app?vid=4dffe24e-8439-4bd3-a688-adeab794171f","ios":"levelo://app?vid=4dffe24e-8439-4bd3-a688-adeab794171f"},"vehicle_type_id":"4","last_reported":1683562116,"current_range_meters":10400,"station_id":"ce4bha12rcd13ifvqef0","pricing_plan_id":"free"},{"bike_id":"313da5e9-4c41-46e2-b3d8-b3186b8cd53e","system_id":"levelo_inurba_marseille","lat":43.28041,"lon":5.36953,"is_reserved":false,"is_disabled":false,"rental_uris":{"android":"levelo://app?vid=313da5e9-4c41-46e2-b3d8-b3186b8cd53e","ios":"levelo://app?vid=313da5e9-4c41-46e2-b3d8-b3186b8cd53e"},"vehicle_type_id":"4","last_reported":1683562116,"current_range_meters":20800,"station_id":"ce4bha12rcd13ifvqef0","pricing_plan_id":"free"},{"bike_id":"38ca7130-4f50-494d-93d7-7782329d2af8","system_id":"levelo_inurba_marseille","lat":43.28039,"lon":5.369297,"is_reserved":false,"is_disabled":false,"rental_uris":{"android":"levelo://app?vid=38ca7130-4f50-494d-93d7-7782329d2af8","ios":"levelo://app?vid=38ca7130-4f50-494d-93d7-7782329d2af8"},"vehicle_type_id":"4","last_reported":1683562116,"current_range_meters":18400,"station_id":"ce4bha12rcd13ifvqef0","pricing_plan_id":"free"},{"bike_id":"cf651dc1-b62d-400d-b3cd-8b8db050d14a","system_id":"levelo_inurba_marseille","lat":43.280374,"lon":5.36946,"is_reserved":false,"is_disabled":false,"rental_uris":{"android":"levelo://app?vid=cf651dc1-b62d-400d-b3cd-8b8db050d14a","ios":"levelo://app?vid=cf651dc1-b62d-400d-b3cd-8b8db050d14a"},"vehicle_type_id":"4","last_reported":1683562116,"current_range_meters":20800,"station_id":"ce4bha12rcd13ifvqef0","pricing_plan_id":"free"},{"bike_id":"ffe71b75-027c-49e1-a6db-4f1e164b47af","system_id":"levelo_inurba_marseille","lat":43.28035,"lon":5.36952,"is_reserved":false,"is_disabled":false,"rental_uris":{"android":"levelo://app?vid=ffe71b75-027c-49e1-a6db-4f1e164b47af","ios":"levelo://app?vid=ffe71b75-027c-49e1-a6db-4f1e164b47af"},"vehicle_type_id":"4","last_reported":1683562116,"current_range_meters":30000,"station_id":"ce4bha12rcd13ifvqef0","pricing_plan_id":"free"},{"bike_id":"963a23f7-aefb-4db4-93ec-c5829f521534","system_id":"levelo_inurba_marseille","lat":43.28039,"lon":5.369297,"is_reserved":false,"is_disabled":false,"rental_uris":{"android":"levelo://app?vid=963a23f7-aefb-4db4-93ec-c5829f521534","ios":"levelo://app?vid=963a23f7-aefb-4db4-93ec-c5829f521534"},"vehicle_type_id":"4","last_reported":1683562116,"current_range_meters":30000,"station_id":"ce4bha12rcd13ifvqef0","pricing_plan_id":"free"},{"bike_id":"a6c7994d-17a8-44d2-a2f6-8467e9efae1e","system_id":"levelo_inurba_marseille","lat":43.28445,"lon":5.39193,"is_reserved":false,"is_disabled":false,"rental_uris":{"android":"levelo://app?vid=a6c7994d-17a8-44d2-a2f6-8467e9efae1e","ios":"levelo://app?vid=a6c7994d-17a8-44d2-a2f6-8467e9efae1e"},"vehicle_type_id":"4","last_reported":1683562116,"current_range_meters":3200,"station_id":"","pricing_plan_id":"free"},{"bike_id":"5882aab7-cbc5-4368-b53d-957c9b61d38c","system_id":"levelo_inurba_marseille","lat":43.284462,"lon":5.392121,"is_reserved":false,"is_disabled":false,"rental_uris":{"android":"levelo://app?vid=5882aab7-cbc5-4368-b53d-957c9b61d38c","ios":"levelo://app?vid=5882aab7-cbc5-4368-b53d-957c9b61d38c"},"vehicle_type_id":"4","last_reported":1683562116,"current_range_meters":24000,"station_id":"ce4bhoh2rcd13ifvqh5g","pricing_plan_id":"free"},{"bike_id":"81e2e3af-f510-487f-938c-b0e019fc07c2","system_id":"levelo_inurba_marseille","lat":43.284462,"lon":5.392121,"is_reserved":false,"is_disabled":false,"rental_uris":{"android":"levelo://app?vid=81e2e3af-f510-487f-938c-b0e019fc07c2","ios":"levelo://app?vid=81e2e3af-f510-487f-938c-b0e019fc07c2"},"vehicle_type_id":"4","last_reported":1683562116,"current_range_meters":10400,"station_id":"ce4bhoh2rcd13ifvqh5g","pricing_plan_id":"free"},{"bike_id":"80b3c2b1-67b6-4956-9afa-f7148e467b8b","system_id":"levelo_inurba_marseille","lat":43.2844,"lon":5.39206,"is_reserved":false,"is_disabled":false,"rental_uris":{"android":"levelo://app?vid=80b3c2b1-67b6-4956-9afa-f7148e467b8b","ios":"levelo://app?vid=80b3c2b1-67b6-4956-9afa-f7148e467b8b"},"vehicle_type_id":"4","last_reported":1683562116,"current_range_meters":18400,"station_id":"ce4bhoh2rcd13ifvqh5g","pricing_plan_id":"free"},{"bike_id":"fc0c5959-5735-46c1-84a3-08d79cfbb71f","system_id":"levelo_inurba_marseille","lat":43.28573,"lon":5.394992,"is_reserved":false,"is_disabled":false,"rental_uris":{"android":"levelo://app?vid=fc0c5959-5735-46c1-84a3-08d79cfbb71f","ios":"levelo://app?vid=fc0c5959-5735-46c1-84a3-08d79cfbb71f"},"vehicle_type_id":"4","last_reported":1683562116,"current_range_meters":6000,"station_id":"ce4bh292rcd13ifvqdg0","pricing_plan_id":"free"},{"bike_id":"a56cc0c8-99d2-4133-be0c-34108a37445f","system_id":"levelo_inurba_marseille","lat":43.28573,"lon":5.394992,"is_reserved":false,"is_disabled":false,"rental_uris":{"android":"levelo://app?vid=a56cc0c8-99d2-4133-be0c-34108a37445f","ios":"levelo://app?vid=a56cc0c8-99d2-4133-be0c-34108a37445f"},"vehicle_type_id":"4","last_reported":1683562116,"current_range_meters":9200,"station_id":"ce4bh292rcd13ifvqdg0","pricing_plan_id":"free"},{"bike_id":"de7ea1e6-fa43-469e-b37b-7f7dd52fa4a5","system_id":"levelo_inurba_marseille","lat":43.32609,"lon":5.41049,"is_reserved":false,"is_disabled":false,"rental_uris":{"android":"levelo://app?vid=de7ea1e6-fa43-469e-b37b-7f7dd52fa4a5","ios":"levelo://app?vid=de7ea1e6-fa43-469e-b37b-7f7dd52fa4a5"},"vehicle_type_id":"4","last_reported":1683562116,"current_range_meters":1600,"station_id":"ce4bhpp2rcd13ifvqhgg","pricing_plan_id":"free"},{"bike_id":"eebd1509-6fea-4804-9293-de275a3f09f4","system_id":"levelo_inurba_marseille","lat":43.287154,"lon":5.399979,"is_reserved":false,"is_disabled":false,"rental_uris":{"android":"levelo://app?vid=eebd1509-6fea-4804-9293-de275a3f09f4","ios":"levelo://app?vid=eebd1509-6fea-4804-9293-de275a3f09f4"},"vehicle_type_id":"4","last_reported":1683562116,"current_range_meters":4400,"station_id":"ce4bho92rcd13ifvqh3g","pricing_plan_id":"free"},{"bike_id":"5085f70d-af80-435c-aaff-3d14cb76bf44","system_id":"levelo_inurba_marseille","lat":43.320045,"lon":5.415048,"is_reserved":false,"is_disabled":false,"rental_uris":{"android":"levelo://app?vid=5085f70d-af80-435c-aaff-3d14cb76bf44","ios":"levelo://app?vid=5085f70d-af80-435c-aaff-3d14cb76bf44"},"vehicle_type_id":"4","last_reported":1683562116,"current_range_meters":22400,"station_id":"ce4bhq92rcd13ifvqhkg","pricing_plan_id":"free"},{"bike_id":"c6ff105f-0e3d-4a9f-86da-d381cdffc068","system_id":"levelo_inurba_marseille","lat":43.279742,"lon":5.38744,"is_reserved":false,"is_disabled":false,"rental_uris":{"android":"levelo://app?vid=c6ff105f-0e3d-4a9f-86da-d381cdffc068","ios":"levelo://app?vid=c6ff105f-0e3d-4a9f-86da-d381cdffc068"},"vehicle_type_id":"4","last_reported":1683562116,"current_range_meters":0,"station_id":"ce4bhg12rcd13ifvqf80","pricing_plan_id":"free"},{"bike_id":"d43101b5-746e-41b0-a429-3467052e0791","system_id":"levelo_inurba_marseille","lat":43.320045,"lon":5.415048,"is_reserved":false,"is_disabled":false,"rental_uris":{"android":"levelo://app?vid=d43101b5-746e-41b0-a429-3467052e0791","ios":"levelo://app?vid=d43101b5-746e-41b0-a429-3467052e0791"},"vehicle_type_id":"4","last_reported":1683562116,"current_range_meters":30800,"station_id":"ce4bhq92rcd13ifvqhkg","pricing_plan_id":"free"},{"bike_id":"592b2911-95f3-4384-9339-5412bcf411d1","system_id":"levelo_inurba_marseille","lat":43.320045,"lon":5.415048,"is_reserved":false,"is_disabled":false,"rental_uris":{"android":"levelo://app?vid=592b2911-95f3-4384-9339-5412bcf411d1","ios":"levelo://app?vid=592b2911-95f3-4384-9339-5412bcf411d1"},"vehicle_type_id":"4","last_reported":1683562116,"current_range_meters":27200,"station_id":"ce4bhq92rcd13ifvqhkg","pricing_plan_id":"free"},{"bike_id":"b58044b5-53d2-4380-b355-31d5d93a315d","system_id":"levelo_inurba_marseille","lat":43.320045,"lon":5.415048,"is_reserved":false,"is_disabled":false,"rental_uris":{"android":"levelo://app?vid=b58044b5-53d2-4380-b355-31d5d93a315d","ios":"levelo://app?vid=b58044b5-53d2-4380-b355-31d5d93a315d"},"vehicle_type_id":"4","last_reported":1683562116,"current_range_meters":31200,"station_id":"ce4bhq92rcd13ifvqhkg","pricing_plan_id":"free"},{"bike_id":"84b667b0-b076-44b2-a0b5-7946c54027d8","system_id":"levelo_inurba_marseille","lat":43.320045,"lon":5.415048,"is_reserved":false,"is_disabled":false,"rental_uris":{"android":"levelo://app?vid=84b667b0-b076-44b2-a0b5-7946c54027d8","ios":"levelo://app?vid=84b667b0-b076-44b2-a0b5-7946c54027d8"},"vehicle_type_id":"4","last_reported":1683562116,"current_range_meters":4800,"station_id":"ce4bhq92rcd13ifvqhkg","pricing_plan_id":"free"},{"bike_id":"17b255af-3133-41cc-9b13-3bf3797c30d0","system_id":"levelo_inurba_marseille","lat":43.320045,"lon":5.415048,"is_reserved":false,"is_disabled":false,"rental_uris":{"android":"levelo://app?vid=17b255af-3133-41cc-9b13-3bf3797c30d0","ios":"levelo://app?vid=17b255af-3133-41cc-9b13-3bf3797c30d0"},"vehicle_type_id":"4","last_reported":1683562116,"current_range_meters":31200,"station_id":"ce4bhq92rcd13ifvqhkg","pricing_plan_id":"free"},{"bike_id":"9f261c0c-c710-4d2b-a989-f1a8a6d3d8c9","system_id":"levelo_inurba_marseille","lat":43.32047,"lon":5.41568,"is_reserved":false,"is_disabled":false,"rental_uris":{"android":"levelo://app?vid=9f261c0c-c710-4d2b-a989-f1a8a6d3d8c9","ios":"levelo://app?vid=9f261c0c-c710-4d2b-a989-f1a8a6d3d8c9"},"vehicle_type_id":"4","last_reported":1683562116,"current_range_meters":28800,"station_id":"","pricing_plan_id":"free"},{"bike_id":"f5a30044-330c-457a-82b5-dad35ba8d10e","system_id":"levelo_inurba_marseille","lat":43.33612,"lon":5.410321,"is_reserved":false,"is_disabled":false,"rental_uris":{"android":"levelo://app?vid=f5a30044-330c-457a-82b5-dad35ba8d10e","ios":"levelo://app?vid=f5a30044-330c-457a-82b5-dad35ba8d10e"},"vehicle_type_id":"4","last_reported":1683562116,"current_range_meters":29200,"station_id":"ce4bhqh2rcd13ifvqhmg","pricing_plan_id":"free"},{"bike_id":"5cb0809a-1daf-4304-a79e-c5295e744944","system_id":"levelo_inurba_marseille","lat":43.29265,"lon":5.4091,"is_reserved":false,"is_disabled":false,"rental_uris":{"android":"levelo://app?vid=5cb0809a-1daf-4304-a79e-c5295e744944","ios":"levelo://app?vid=5cb0809a-1daf-4304-a79e-c5295e744944"},"vehicle_type_id":"4","last_reported":1683562116,"current_range_meters":15600,"station_id":"ce4bh192rcd13ifvqdc0","pricing_plan_id":"free"},{"bike_id":"c3f80dd2-1de9-48c3-91a7-a2819d0b76db","system_id":"levelo_inurba_marseille","lat":43.292571,"lon":5.409107,"is_reserved":false,"is_disabled":false,"rental_uris":{"android":"levelo://app?vid=c3f80dd2-1de9-48c3-91a7-a2819d0b76db","ios":"levelo://app?vid=c3f80dd2-1de9-48c3-91a7-a2819d0b76db"},"vehicle_type_id":"4","last_reported":1683562116,"current_range_meters":12000,"station_id":"ce4bh192rcd13ifvqdc0","pricing_plan_id":"free"},{"bike_id":"182fbafb-f420-48f7-85a5-44a50862d29c","system_id":"levelo_inurba_marseille","lat":43.292571,"lon":5.409107,"is_reserved":false,"is_disabled":false,"rental_uris":{"android":"levelo://app?vid=182fbafb-f420-48f7-85a5-44a50862d29c","ios":"levelo://app?vid=182fbafb-f420-48f7-85a5-44a50862d29c"},"vehicle_type_id":"4","last_reported":1683562116,"current_range_meters":28800,"station_id":"ce4bh192rcd13ifvqdc0","pricing_plan_id":"free"},{"bike_id":"adace850-826d-4831-8306-18384f10974f","system_id":"levelo_inurba_marseille","lat":43.27627,"lon":5.36102,"is_reserved":false,"is_disabled":false,"rental_uris":{"android":"levelo://app?vid=adace850-826d-4831-8306-18384f10974f","ios":"levelo://app?vid=adace850-826d-4831-8306-18384f10974f"},"vehicle_type_id":"4","last_reported":1683562116,"current_range_meters":17200,"station_id":"ce4bgj92rcd13ifvqbe0","pricing_plan_id":"free"},{"bike_id":"5330f2e3-2b91-4faf-8444-4229a54a9a70","system_id":"levelo_inurba_marseille","lat":43.292571,"lon":5.409107,"is_reserved":false,"is_disabled":false,"rental_uris":{"android":"levelo://app?vid=5330f2e3-2b91-4faf-8444-4229a54a9a70","ios":"levelo://app?vid=5330f2e3-2b91-4faf-8444-4229a54a9a70"},"vehicle_type_id":"4","last_reported":1683562116,"current_range_meters":10800,"station_id":"ce4bh192rcd13ifvqdc0","pricing_plan_id":"free"},{"bike_id":"ac19d7fd-ec2f-4f19-a106-96d79320ee4d","system_id":"levelo_inurba_marseille","lat":43.27626,"lon":5.36108,"is_reserved":false,"is_disabled":false,"rental_uris":{"android":"levelo://app?vid=ac19d7fd-ec2f-4f19-a106-96d79320ee4d","ios":"levelo://app?vid=ac19d7fd-ec2f-4f19-a106-96d79320ee4d"},"vehicle_type_id":"4","last_reported":1683562116,"current_range_meters":5200,"station_id":"ce4bgj92rcd13ifvqbe0","pricing_plan_id":"free"},{"bike_id":"b6e61f04-6284-4e0a-b173-2874c53e487f","system_id":"levelo_inurba_marseille","lat":43.276179,"lon":5.361009,"is_reserved":false,"is_disabled":false,"rental_uris":{"android":"levelo://app?vid=b6e61f04-6284-4e0a-b173-2874c53e487f","ios":"levelo://app?vid=b6e61f04-6284-4e0a-b173-2874c53e487f"},"vehicle_type_id":"4","last_reported":1683562116,"current_range_meters":19200,"station_id":"ce4bgj92rcd13ifvqbe0","pricing_plan_id":"free"},{"bike_id":"9055ed5f-83a5-4d4b-afbb-c008421beaf1","system_id":"levelo_inurba_marseille","lat":43.32545,"lon":5.41432,"is_reserved":false,"is_disabled":false,"rental_uris":{"android":"levelo://app?vid=9055ed5f-83a5-4d4b-afbb-c008421beaf1","ios":"levelo://app?vid=9055ed5f-83a5-4d4b-afbb-c008421beaf1"},"vehicle_type_id":"4","last_reported":1683562116,"current_range_meters":29600,"station_id":"ce4bhq12rcd13ifvqhhg","pricing_plan_id":"free"},{"bike_id":"e7878766-ae4d-477c-8557-18d59147e47f","system_id":"levelo_inurba_marseille","lat":43.27618,"lon":5.361009,"is_reserved":false,"is_disabled":false,"rental_uris":{"android":"levelo://app?vid=e7878766-ae4d-477c-8557-18d59147e47f","ios":"levelo://app?vid=e7878766-ae4d-477c-8557-18d59147e47f"},"vehicle_type_id":"4","last_reported":1683562116,"current_range_meters":21600,"station_id":"ce4bgj92rcd13ifvqbe0","pricing_plan_id":"free"},{"bike_id":"ff7971e9-e415-4852-a532-add2fcf8b5b8","system_id":"levelo_inurba_marseille","lat":43.27621,"lon":5.36112,"is_reserved":false,"is_disabled":false,"rental_uris":{"android":"levelo://app?vid=ff7971e9-e415-4852-a532-add2fcf8b5b8","ios":"levelo://app?vid=ff7971e9-e415-4852-a532-add2fcf8b5b8"},"vehicle_type_id":"4","last_reported":1683562116,"current_range_meters":4000,"station_id":"ce4bgj92rcd13ifvqbe0","pricing_plan_id":"free"},{"bike_id":"1e12c9cc-e46f-4db5-96a1-e9619a12fafe","system_id":"levelo_inurba_marseille","lat":43.32541,"lon":5.41438,"is_reserved":false,"is_disabled":false,"rental_uris":{"android":"levelo://app?vid=1e12c9cc-e46f-4db5-96a1-e9619a12fafe","ios":"levelo://app?vid=1e12c9cc-e46f-4db5-96a1-e9619a12fafe"},"vehicle_type_id":"4","last_reported":1683562116,"current_range_meters":30800,"station_id":"","pricing_plan_id":"free"},{"bike_id":"1cbe7a30-8218-45d3-a325-6a9ce7afcee6","system_id":"levelo_inurba_marseille","lat":43.27621,"lon":5.36106,"is_reserved":false,"is_disabled":false,"rental_uris":{"android":"levelo://app?vid=1cbe7a30-8218-45d3-a325-6a9ce7afcee6","ios":"levelo://app?vid=1cbe7a30-8218-45d3-a325-6a9ce7afcee6"},"vehicle_type_id":"4","last_reported":1683562116,"current_range_meters":29200,"station_id":"ce4bgj92rcd13ifvqbe0","pricing_plan_id":"free"},{"bike_id":"f99d7321-e2b2-465d-91a6-4b665a3c5439","system_id":"levelo_inurba_marseille","lat":43.2762,"lon":5.36107,"is_reserved":false,"is_disabled":false,"rental_uris":{"android":"levelo://app?vid=f99d7321-e2b2-465d-91a6-4b665a3c5439","ios":"levelo://app?vid=f99d7321-e2b2-465d-91a6-4b665a3c5439"},"vehicle_type_id":"4","last_reported":1683562116,"current_range_meters":6400,"station_id":"ce4bgj92rcd13ifvqbe0","pricing_plan_id":"free"},{"bike_id":"61f420b0-f1b3-468f-9dcd-bff90ce0f0e9","system_id":"levelo_inurba_marseille","lat":43.27618,"lon":5.361009,"is_reserved":false,"is_disabled":false,"rental_uris":{"android":"levelo://app?vid=61f420b0-f1b3-468f-9dcd-bff90ce0f0e9","ios":"levelo://app?vid=61f420b0-f1b3-468f-9dcd-bff90ce0f0e9"},"vehicle_type_id":"4","last_reported":1683562116,"current_range_meters":28800,"station_id":"ce4bgj92rcd13ifvqbe0","pricing_plan_id":"free"},{"bike_id":"89bbb9ef-5470-4891-95dd-0f2039b348d9","system_id":"levelo_inurba_marseille","lat":43.32538,"lon":5.41442,"is_reserved":false,"is_disabled":false,"rental_uris":{"android":"levelo://app?vid=89bbb9ef-5470-4891-95dd-0f2039b348d9","ios":"levelo://app?vid=89bbb9ef-5470-4891-95dd-0f2039b348d9"},"vehicle_type_id":"4","last_reported":1683562116,"current_range_meters":31200,"station_id":"ce4bhq12rcd13ifvqhhg","pricing_plan_id":"free"},{"bike_id":"c765fd78-6ec0-4a3c-8168-2799f615f4f9","system_id":"levelo_inurba_marseille","lat":43.27619,"lon":5.36109,"is_reserved":false,"is_disabled":false,"rental_uris":{"android":"levelo://app?vid=c765fd78-6ec0-4a3c-8168-2799f615f4f9","ios":"levelo://app?vid=c765fd78-6ec0-4a3c-8168-2799f615f4f9"},"vehicle_type_id":"4","last_reported":1683562116,"current_range_meters":29200,"station_id":"ce4bgj92rcd13ifvqbe0","pricing_plan_id":"free"},{"bike_id":"bb65a81e-e2ee-4fc8-aa5f-34a077841e71","system_id":"levelo_inurba_marseille","lat":43.276179,"lon":5.361009,"is_reserved":false,"is_disabled":false,"rental_uris":{"android":"levelo://app?vid=bb65a81e-e2ee-4fc8-aa5f-34a077841e71","ios":"levelo://app?vid=bb65a81e-e2ee-4fc8-aa5f-34a077841e71"},"vehicle_type_id":"4","last_reported":1683562116,"current_range_meters":25200,"station_id":"ce4bgj92rcd13ifvqbe0","pricing_plan_id":"free"},{"bike_id":"f9764df3-4651-4fa2-a4e5-661ee224c0dc","system_id":"levelo_inurba_marseille","lat":43.276179,"lon":5.361009,"is_reserved":false,"is_disabled":false,"rental_uris":{"android":"levelo://app?vid=f9764df3-4651-4fa2-a4e5-661ee224c0dc","ios":"levelo://app?vid=f9764df3-4651-4fa2-a4e5-661ee224c0dc"},"vehicle_type_id":"4","last_reported":1683562116,"current_range_meters":14800,"station_id":"ce4bgj92rcd13ifvqbe0","pricing_plan_id":"free"},{"bike_id":"d12ec49d-0c1d-4a93-a1d3-6b67fcd32ee2","system_id":"levelo_inurba_marseille","lat":43.27543,"lon":5.35977,"is_reserved":false,"is_disabled":false,"rental_uris":{"android":"levelo://app?vid=d12ec49d-0c1d-4a93-a1d3-6b67fcd32ee2","ios":"levelo://app?vid=d12ec49d-0c1d-4a93-a1d3-6b67fcd32ee2"},"vehicle_type_id":"4","last_reported":1683562116,"current_range_meters":3600,"station_id":"ce4bgj92rcd13ifvqbe0","pricing_plan_id":"free"},{"bike_id":"f3130420-55a2-42b2-bd8e-189b67f0b5cd","system_id":"levelo_inurba_marseille","lat":43.275335,"lon":5.360211,"is_reserved":false,"is_disabled":false,"rental_uris":{"android":"levelo://app?vid=f3130420-55a2-42b2-bd8e-189b67f0b5cd","ios":"levelo://app?vid=f3130420-55a2-42b2-bd8e-189b67f0b5cd"},"vehicle_type_id":"4","last_reported":1683562116,"current_range_meters":17200,"station_id":"","pricing_plan_id":"free"},{"bike_id":"2dbe279a-40ec-4f4a-9797-0ba27f81a837","system_id":"levelo_inurba_marseille","lat":43.278401,"lon":5.392152,"is_reserved":false,"is_disabled":false,"rental_uris":{"android":"levelo://app?vid=2dbe279a-40ec-4f4a-9797-0ba27f81a837","ios":"levelo://app?vid=2dbe279a-40ec-4f4a-9797-0ba27f81a837"},"vehicle_type_id":"4","last_reported":1683562116,"current_range_meters":12000,"station_id":"ce4bhjp2rcd13ifvqga0","pricing_plan_id":"free"},{"bike_id":"3f59be0d-cf4f-4513-acf2-a71305f54d0a","system_id":"levelo_inurba_marseille","lat":43.278401,"lon":5.392152,"is_reserved":false,"is_disabled":false,"rental_uris":{"android":"levelo://app?vid=3f59be0d-cf4f-4513-acf2-a71305f54d0a","ios":"levelo://app?vid=3f59be0d-cf4f-4513-acf2-a71305f54d0a"},"vehicle_type_id":"4","last_reported":1683562116,"current_range_meters":2000,"station_id":"ce4bhjp2rcd13ifvqga0","pricing_plan_id":"free"},{"bike_id":"fd21131b-c049-487d-bffb-c12c88eb5442","system_id":"levelo_inurba_marseille","lat":43.273613,"lon":5.362705,"is_reserved":false,"is_disabled":false,"rental_uris":{"android":"levelo://app?vid=fd21131b-c049-487d-bffb-c12c88eb5442","ios":"levelo://app?vid=fd21131b-c049-487d-bffb-c12c88eb5442"},"vehicle_type_id":"4","last_reported":1683562116,"current_range_meters":31200,"station_id":"ce4bhbh2rcd13ifvqeo0","pricing_plan_id":"free"},{"bike_id":"15c63220-afdd-4f79-bb3b-75e717689d8d","system_id":"levelo_inurba_marseille","lat":43.273613,"lon":5.362705,"is_reserved":false,"is_disabled":false,"rental_uris":{"android":"levelo://app?vid=15c63220-afdd-4f79-bb3b-75e717689d8d","ios":"levelo://app?vid=15c63220-afdd-4f79-bb3b-75e717689d8d"},"vehicle_type_id":"4","last_reported":1683562116,"current_range_meters":11200,"station_id":"ce4bhbh2rcd13ifvqeo0","pricing_plan_id":"free"},{"bike_id":"0193f14d-8605-4f3e-b7c8-e37747ad696a","system_id":"levelo_inurba_marseille","lat":43.273801,"lon":5.362631,"is_reserved":false,"is_disabled":false,"rental_uris":{"android":"levelo://app?vid=0193f14d-8605-4f3e-b7c8-e37747ad696a","ios":"levelo://app?vid=0193f14d-8605-4f3e-b7c8-e37747ad696a"},"vehicle_type_id":"4","last_reported":1683562116,"current_range_meters":9600,"station_id":"ce4bhbh2rcd13ifvqeo0","pricing_plan_id":"free"},{"bike_id":"b910732f-a171-4f98-8c46-62fe2243cd58","system_id":"levelo_inurba_marseille","lat":43.27376,"lon":5.36258,"is_reserved":false,"is_disabled":false,"rental_uris":{"android":"levelo://app?vid=b910732f-a171-4f98-8c46-62fe2243cd58","ios":"levelo://app?vid=b910732f-a171-4f98-8c46-62fe2243cd58"},"vehicle_type_id":"4","last_reported":1683562116,"current_range_meters":23600,"station_id":"ce4bhbh2rcd13ifvqeo0","pricing_plan_id":"free"},{"bike_id":"2179a268-5503-4f51-9588-2a7e9a363c93","system_id":"levelo_inurba_marseille","lat":43.27375,"lon":5.36264,"is_reserved":false,"is_disabled":false,"rental_uris":{"android":"levelo://app?vid=2179a268-5503-4f51-9588-2a7e9a363c93","ios":"levelo://app?vid=2179a268-5503-4f51-9588-2a7e9a363c93"},"vehicle_type_id":"4","last_reported":1683562116,"current_range_meters":25200,"station_id":"ce4bhbh2rcd13ifvqeo0","pricing_plan_id":"free"},{"bike_id":"3a53e1b5-55da-4ce0-ad8b-f7d49f4a5cc0","system_id":"levelo_inurba_marseille","lat":43.273613,"lon":5.362705,"is_reserved":false,"is_disabled":false,"rental_uris":{"android":"levelo://app?vid=3a53e1b5-55da-4ce0-ad8b-f7d49f4a5cc0","ios":"levelo://app?vid=3a53e1b5-55da-4ce0-ad8b-f7d49f4a5cc0"},"vehicle_type_id":"4","last_reported":1683562116,"current_range_meters":30000,"station_id":"ce4bhbh2rcd13ifvqeo0","pricing_plan_id":"free"},{"bike_id":"95f7561b-ae16-429b-ac7a-34df559c63be","system_id":"levelo_inurba_marseille","lat":43.27374,"lon":5.36259,"is_reserved":false,"is_disabled":false,"rental_uris":{"android":"levelo://app?vid=95f7561b-ae16-429b-ac7a-34df559c63be","ios":"levelo://app?vid=95f7561b-ae16-429b-ac7a-34df559c63be"},"vehicle_type_id":"4","last_reported":1683562116,"current_range_meters":15200,"station_id":"ce4bhbh2rcd13ifvqeo0","pricing_plan_id":"free"},{"bike_id":"3f956054-a2de-42ad-9559-94cdb162c013","system_id":"levelo_inurba_marseille","lat":43.273609,"lon":5.362708,"is_reserved":false,"is_disabled":false,"rental_uris":{"android":"levelo://app?vid=3f956054-a2de-42ad-9559-94cdb162c013","ios":"levelo://app?vid=3f956054-a2de-42ad-9559-94cdb162c013"},"vehicle_type_id":"4","last_reported":1683562116,"current_range_meters":31200,"station_id":"ce4bhbh2rcd13ifvqeo0","pricing_plan_id":"free"},{"bike_id":"61596c98-86ef-4d32-9647-6aa648f6a64a","system_id":"levelo_inurba_marseille","lat":43.273613,"lon":5.362705,"is_reserved":false,"is_disabled":false,"rental_uris":{"android":"levelo://app?vid=61596c98-86ef-4d32-9647-6aa648f6a64a","ios":"levelo://app?vid=61596c98-86ef-4d32-9647-6aa648f6a64a"},"vehicle_type_id":"4","last_reported":1683562116,"current_range_meters":10400,"station_id":"ce4bhbh2rcd13ifvqeo0","pricing_plan_id":"free"},{"bike_id":"d050982a-c944-4174-a3f7-30a5e82c9a6b","system_id":"levelo_inurba_marseille","lat":43.273613,"lon":5.362705,"is_reserved":false,"is_disabled":false,"rental_uris":{"android":"levelo://app?vid=d050982a-c944-4174-a3f7-30a5e82c9a6b","ios":"levelo://app?vid=d050982a-c944-4174-a3f7-30a5e82c9a6b"},"vehicle_type_id":"4","last_reported":1683562116,"current_range_meters":32000,"station_id":"ce4bhbh2rcd13ifvqeo0","pricing_plan_id":"free"},{"bike_id":"3f0c2974-eaa9-4702-9b5d-c19311382717","system_id":"levelo_inurba_marseille","lat":43.273613,"lon":5.362705,"is_reserved":false,"is_disabled":false,"rental_uris":{"android":"levelo://app?vid=3f0c2974-eaa9-4702-9b5d-c19311382717","ios":"levelo://app?vid=3f0c2974-eaa9-4702-9b5d-c19311382717"},"vehicle_type_id":"4","last_reported":1683562116,"current_range_meters":32000,"station_id":"ce4bhbh2rcd13ifvqeo0","pricing_plan_id":"free"},{"bike_id":"917010e9-146a-49bb-847a-43f85ccba8c3","system_id":"levelo_inurba_marseille","lat":43.273613,"lon":5.362705,"is_reserved":false,"is_disabled":false,"rental_uris":{"android":"levelo://app?vid=917010e9-146a-49bb-847a-43f85ccba8c3","ios":"levelo://app?vid=917010e9-146a-49bb-847a-43f85ccba8c3"},"vehicle_type_id":"4","last_reported":1683562116,"current_range_meters":24000,"station_id":"ce4bhbh2rcd13ifvqeo0","pricing_plan_id":"free"},{"bike_id":"58d25a49-f622-4129-ae7c-1c754fb2c98e","system_id":"levelo_inurba_marseille","lat":43.273609,"lon":5.362708,"is_reserved":false,"is_disabled":false,"rental_uris":{"android":"levelo://app?vid=58d25a49-f622-4129-ae7c-1c754fb2c98e","ios":"levelo://app?vid=58d25a49-f622-4129-ae7c-1c754fb2c98e"},"vehicle_type_id":"4","last_reported":1683562116,"current_range_meters":31200,"station_id":"ce4bhbh2rcd13ifvqeo0","pricing_plan_id":"free"},{"bike_id":"76ef355f-74b8-47d2-9b28-d9e761985f63","system_id":"levelo_inurba_marseille","lat":43.27372,"lon":5.36257,"is_reserved":false,"is_disabled":false,"rental_uris":{"android":"levelo://app?vid=76ef355f-74b8-47d2-9b28-d9e761985f63","ios":"levelo://app?vid=76ef355f-74b8-47d2-9b28-d9e761985f63"},"vehicle_type_id":"4","last_reported":1683562116,"current_range_meters":18800,"station_id":"ce4bhbh2rcd13ifvqeo0","pricing_plan_id":"free"},{"bike_id":"1615f1e4-0a0e-45eb-b49a-3741a572d394","system_id":"levelo_inurba_marseille","lat":43.273613,"lon":5.362705,"is_reserved":false,"is_disabled":false,"rental_uris":{"android":"levelo://app?vid=1615f1e4-0a0e-45eb-b49a-3741a572d394","ios":"levelo://app?vid=1615f1e4-0a0e-45eb-b49a-3741a572d394"},"vehicle_type_id":"4","last_reported":1683562116,"current_range_meters":31200,"station_id":"ce4bhbh2rcd13ifvqeo0","pricing_plan_id":"free"},{"bike_id":"5bad95ee-15b4-4563-8dae-a9e73b24b764","system_id":"levelo_inurba_marseille","lat":43.273613,"lon":5.362705,"is_reserved":false,"is_disabled":false,"rental_uris":{"android":"levelo://app?vid=5bad95ee-15b4-4563-8dae-a9e73b24b764","ios":"levelo://app?vid=5bad95ee-15b4-4563-8dae-a9e73b24b764"},"vehicle_type_id":"4","last_reported":1683562116,"current_range_meters":31600,"station_id":"ce4bhbh2rcd13ifvqeo0","pricing_plan_id":"free"},{"bike_id":"a5a37aac-cf92-49c1-903a-20e4b210ebd8","system_id":"levelo_inurba_marseille","lat":43.273609,"lon":5.362708,"is_reserved":false,"is_disabled":false,"rental_uris":{"android":"levelo://app?vid=a5a37aac-cf92-49c1-903a-20e4b210ebd8","ios":"levelo://app?vid=a5a37aac-cf92-49c1-903a-20e4b210ebd8"},"vehicle_type_id":"4","last_reported":1683562116,"current_range_meters":31200,"station_id":"ce4bhbh2rcd13ifvqeo0","pricing_plan_id":"free"},{"bike_id":"a2c5c09d-00a8-479e-a7cf-40f1ec6f6f44","system_id":"levelo_inurba_marseille","lat":43.2737,"lon":5.36254,"is_reserved":false,"is_disabled":false,"rental_uris":{"android":"levelo://app?vid=a2c5c09d-00a8-479e-a7cf-40f1ec6f6f44","ios":"levelo://app?vid=a2c5c09d-00a8-479e-a7cf-40f1ec6f6f44"},"vehicle_type_id":"4","last_reported":1683562116,"current_range_meters":13600,"station_id":"ce4bhbh2rcd13ifvqeo0","pricing_plan_id":"free"},{"bike_id":"5c45b351-8e45-4ce5-b467-e516e498c069","system_id":"levelo_inurba_marseille","lat":43.273609,"lon":5.362708,"is_reserved":false,"is_disabled":false,"rental_uris":{"android":"levelo://app?vid=5c45b351-8e45-4ce5-b467-e516e498c069","ios":"levelo://app?vid=5c45b351-8e45-4ce5-b467-e516e498c069"},"vehicle_type_id":"4","last_reported":1683562116,"current_range_meters":30800,"station_id":"ce4bhbh2rcd13ifvqeo0","pricing_plan_id":"free"},{"bike_id":"21b23107-ef1a-4c23-ac17-2895ce3d923e","system_id":"levelo_inurba_marseille","lat":43.273613,"lon":5.362705,"is_reserved":false,"is_disabled":false,"rental_uris":{"android":"levelo://app?vid=21b23107-ef1a-4c23-ac17-2895ce3d923e","ios":"levelo://app?vid=21b23107-ef1a-4c23-ac17-2895ce3d923e"},"vehicle_type_id":"4","last_reported":1683562116,"current_range_meters":25200,"station_id":"ce4bhbh2rcd13ifvqeo0","pricing_plan_id":"free"},{"bike_id":"97c8773a-e73d-4d33-9212-ed94aba0a3b4","system_id":"levelo_inurba_marseille","lat":43.273609,"lon":5.362708,"is_reserved":false,"is_disabled":false,"rental_uris":{"android":"levelo://app?vid=97c8773a-e73d-4d33-9212-ed94aba0a3b4","ios":"levelo://app?vid=97c8773a-e73d-4d33-9212-ed94aba0a3b4"},"vehicle_type_id":"4","last_reported":1683562116,"current_range_meters":31200,"station_id":"ce4bhbh2rcd13ifvqeo0","pricing_plan_id":"free"},{"bike_id":"49124115-c19d-4bc0-ae15-e220c6ce69eb","system_id":"levelo_inurba_marseille","lat":43.33612,"lon":5.410321,"is_reserved":false,"is_disabled":false,"rental_uris":{"android":"levelo://app?vid=49124115-c19d-4bc0-ae15-e220c6ce69eb","ios":"levelo://app?vid=49124115-c19d-4bc0-ae15-e220c6ce69eb"},"vehicle_type_id":"4","last_reported":1683562116,"current_range_meters":26400,"station_id":"ce4bhqh2rcd13ifvqhmg","pricing_plan_id":"free"},{"bike_id":"d35b1229-4bda-4bd0-a6e8-f808b32a8a6c","system_id":"levelo_inurba_marseille","lat":43.276769,"lon":5.388787,"is_reserved":false,"is_disabled":false,"rental_uris":{"android":"levelo://app?vid=d35b1229-4bda-4bd0-a6e8-f808b32a8a6c","ios":"levelo://app?vid=d35b1229-4bda-4bd0-a6e8-f808b32a8a6c"},"vehicle_type_id":"4","last_reported":1683562116,"current_range_meters":25600,"station_id":"ce4bhi12rcd13ifvqfo0","pricing_plan_id":"free"},{"bike_id":"f97f5184-1beb-4dc0-babd-60ed0d95ffb1","system_id":"levelo_inurba_marseille","lat":43.276769,"lon":5.388787,"is_reserved":false,"is_disabled":false,"rental_uris":{"android":"levelo://app?vid=f97f5184-1beb-4dc0-babd-60ed0d95ffb1","ios":"levelo://app?vid=f97f5184-1beb-4dc0-babd-60ed0d95ffb1"},"vehicle_type_id":"4","last_reported":1683562116,"current_range_meters":18800,"station_id":"ce4bhi12rcd13ifvqfo0","pricing_plan_id":"free"},{"bike_id":"58edf1c4-af94-4a6b-b2e1-4ecec8722171","system_id":"levelo_inurba_marseille","lat":43.27677,"lon":5.38906,"is_reserved":false,"is_disabled":false,"rental_uris":{"android":"levelo://app?vid=58edf1c4-af94-4a6b-b2e1-4ecec8722171","ios":"levelo://app?vid=58edf1c4-af94-4a6b-b2e1-4ecec8722171"},"vehicle_type_id":"4","last_reported":1683562116,"current_range_meters":0,"station_id":"ce4bhi12rcd13ifvqfo0","pricing_plan_id":"free"},{"bike_id":"3c74701a-f6a0-435d-9b34-35e94fed7183","system_id":"levelo_inurba_marseille","lat":43.32785,"lon":5.418,"is_reserved":false,"is_disabled":false,"rental_uris":{"android":"levelo://app?vid=3c74701a-f6a0-435d-9b34-35e94fed7183","ios":"levelo://app?vid=3c74701a-f6a0-435d-9b34-35e94fed7183"},"vehicle_type_id":"4","last_reported":1683562116,"current_range_meters":13200,"station_id":"","pricing_plan_id":"free"},{"bike_id":"db3dca1b-0d01-4ca7-838c-23ee8a122c54","system_id":"levelo_inurba_marseille","lat":43.31717,"lon":5.424,"is_reserved":false,"is_disabled":false,"rental_uris":{"android":"levelo://app?vid=db3dca1b-0d01-4ca7-838c-23ee8a122c54","ios":"levelo://app?vid=db3dca1b-0d01-4ca7-838c-23ee8a122c54"},"vehicle_type_id":"4","last_reported":1683562116,"current_range_meters":22800,"station_id":"ce4bhp92rcd13ifvqhbg","pricing_plan_id":"free"},{"bike_id":"687ac03d-a5c0-4259-9591-cb0a98ee6881","system_id":"levelo_inurba_marseille","lat":43.3172,"lon":5.424,"is_reserved":false,"is_disabled":false,"rental_uris":{"android":"levelo://app?vid=687ac03d-a5c0-4259-9591-cb0a98ee6881","ios":"levelo://app?vid=687ac03d-a5c0-4259-9591-cb0a98ee6881"},"vehicle_type_id":"4","last_reported":1683562116,"current_range_meters":18800,"station_id":"ce4bhp92rcd13ifvqhbg","pricing_plan_id":"free"},{"bike_id":"56460abe-93fd-4347-9359-06676c50ed5b","system_id":"levelo_inurba_marseille","lat":43.310785,"lon":5.424305,"is_reserved":false,"is_disabled":false,"rental_uris":{"android":"levelo://app?vid=56460abe-93fd-4347-9359-06676c50ed5b","ios":"levelo://app?vid=56460abe-93fd-4347-9359-06676c50ed5b"},"vehicle_type_id":"4","last_reported":1683562116,"current_range_meters":30400,"station_id":"ce4bhp92rcd13ifvqhag","pricing_plan_id":"free"},{"bike_id":"fec8f199-6d7e-44f7-8d32-1436fee6581b","system_id":"levelo_inurba_marseille","lat":43.310785,"lon":5.424305,"is_reserved":false,"is_disabled":false,"rental_uris":{"android":"levelo://app?vid=fec8f199-6d7e-44f7-8d32-1436fee6581b","ios":"levelo://app?vid=fec8f199-6d7e-44f7-8d32-1436fee6581b"},"vehicle_type_id":"4","last_reported":1683562116,"current_range_meters":31200,"station_id":"ce4bhp92rcd13ifvqhag","pricing_plan_id":"free"},{"bike_id":"83d90a67-703a-47e9-a0c8-486659e4ab33","system_id":"levelo_inurba_marseille","lat":43.310785,"lon":5.424305,"is_reserved":false,"is_disabled":false,"rental_uris":{"android":"levelo://app?vid=83d90a67-703a-47e9-a0c8-486659e4ab33","ios":"levelo://app?vid=83d90a67-703a-47e9-a0c8-486659e4ab33"},"vehicle_type_id":"4","last_reported":1683562116,"current_range_meters":31200,"station_id":"ce4bhp92rcd13ifvqhag","pricing_plan_id":"free"},{"bike_id":"d272d8d7-f915-4306-a0e5-3a4bd497ecb8","system_id":"levelo_inurba_marseille","lat":43.310785,"lon":5.424305,"is_reserved":false,"is_disabled":false,"rental_uris":{"android":"levelo://app?vid=d272d8d7-f915-4306-a0e5-3a4bd497ecb8","ios":"levelo://app?vid=d272d8d7-f915-4306-a0e5-3a4bd497ecb8"},"vehicle_type_id":"4","last_reported":1683562116,"current_range_meters":20000,"station_id":"ce4bhp92rcd13ifvqhag","pricing_plan_id":"free"},{"bike_id":"cdd66801-a1f5-4bed-847d-ccd1e7a4bc49","system_id":"levelo_inurba_marseille","lat":43.310785,"lon":5.424305,"is_reserved":false,"is_disabled":false,"rental_uris":{"android":"levelo://app?vid=cdd66801-a1f5-4bed-847d-ccd1e7a4bc49","ios":"levelo://app?vid=cdd66801-a1f5-4bed-847d-ccd1e7a4bc49"},"vehicle_type_id":"4","last_reported":1683562116,"current_range_meters":31600,"station_id":"ce4bhp92rcd13ifvqhag","pricing_plan_id":"free"},{"bike_id":"31443a00-7711-4358-a10c-5409526fda10","system_id":"levelo_inurba_marseille","lat":43.310785,"lon":5.424305,"is_reserved":false,"is_disabled":false,"rental_uris":{"android":"levelo://app?vid=31443a00-7711-4358-a10c-5409526fda10","ios":"levelo://app?vid=31443a00-7711-4358-a10c-5409526fda10"},"vehicle_type_id":"4","last_reported":1683562116,"current_range_meters":7200,"station_id":"ce4bhp92rcd13ifvqhag","pricing_plan_id":"free"},{"bike_id":"fe7eab8d-249c-4aa2-b3ec-560406333488","system_id":"levelo_inurba_marseille","lat":43.274103,"lon":5.394016,"is_reserved":false,"is_disabled":false,"rental_uris":{"android":"levelo://app?vid=fe7eab8d-249c-4aa2-b3ec-560406333488","ios":"levelo://app?vid=fe7eab8d-249c-4aa2-b3ec-560406333488"},"vehicle_type_id":"4","last_reported":1683562116,"current_range_meters":27200,"station_id":"ce4bhdp2rcd13ifvqf20","pricing_plan_id":"free"},{"bike_id":"90700115-268e-4a07-81e0-1b315289b22b","system_id":"levelo_inurba_marseille","lat":43.30417,"lon":5.42536,"is_reserved":false,"is_disabled":false,"rental_uris":{"android":"levelo://app?vid=90700115-268e-4a07-81e0-1b315289b22b","ios":"levelo://app?vid=90700115-268e-4a07-81e0-1b315289b22b"},"vehicle_type_id":"4","last_reported":1683562116,"current_range_meters":800,"station_id":"ce4bhoh2rcd13ifvqh6g","pricing_plan_id":"free"},{"bike_id":"84fef84e-4185-4c8b-96b1-b148dde95796","system_id":"levelo_inurba_marseille","lat":43.304096,"lon":5.425385,"is_reserved":false,"is_disabled":false,"rental_uris":{"android":"levelo://app?vid=84fef84e-4185-4c8b-96b1-b148dde95796","ios":"levelo://app?vid=84fef84e-4185-4c8b-96b1-b148dde95796"},"vehicle_type_id":"4","last_reported":1683562116,"current_range_meters":19200,"station_id":"ce4bhoh2rcd13ifvqh6g","pricing_plan_id":"free"},{"bike_id":"e6995714-1b1d-4aa4-bf78-df49302dbacd","system_id":"levelo_inurba_marseille","lat":43.272124,"lon":5.391768,"is_reserved":false,"is_disabled":false,"rental_uris":{"android":"levelo://app?vid=e6995714-1b1d-4aa4-bf78-df49302dbacd","ios":"levelo://app?vid=e6995714-1b1d-4aa4-bf78-df49302dbacd"},"vehicle_type_id":"4","last_reported":1683562116,"current_range_meters":9600,"station_id":"ce4bhhp2rcd13ifvqfm0","pricing_plan_id":"free"},{"bike_id":"660924fb-690c-4713-983f-83134378120c","system_id":"levelo_inurba_marseille","lat":43.29553,"lon":5.42285,"is_reserved":false,"is_disabled":false,"rental_uris":{"android":"levelo://app?vid=660924fb-690c-4713-983f-83134378120c","ios":"levelo://app?vid=660924fb-690c-4713-983f-83134378120c"},"vehicle_type_id":"4","last_reported":1683562116,"current_range_meters":31200,"station_id":"","pricing_plan_id":"free"},{"bike_id":"2fd56de7-ae2a-4775-89dc-2f8b62d9dfb0","system_id":"levelo_inurba_marseille","lat":43.29561,"lon":5.42291,"is_reserved":false,"is_disabled":false,"rental_uris":{"android":"levelo://app?vid=2fd56de7-ae2a-4775-89dc-2f8b62d9dfb0","ios":"levelo://app?vid=2fd56de7-ae2a-4775-89dc-2f8b62d9dfb0"},"vehicle_type_id":"4","last_reported":1683562116,"current_range_meters":12400,"station_id":"","pricing_plan_id":"free"},{"bike_id":"04d6f401-2a9c-4013-9d0e-0ab17841ecf2","system_id":"levelo_inurba_marseille","lat":43.29554,"lon":5.42287,"is_reserved":false,"is_disabled":false,"rental_uris":{"android":"levelo://app?vid=04d6f401-2a9c-4013-9d0e-0ab17841ecf2","ios":"levelo://app?vid=04d6f401-2a9c-4013-9d0e-0ab17841ecf2"},"vehicle_type_id":"4","last_reported":1683562116,"current_range_meters":31200,"station_id":"","pricing_plan_id":"free"},{"bike_id":"1421dc50-16f3-4948-a0bc-fe8ed0addab9","system_id":"levelo_inurba_marseille","lat":43.272124,"lon":5.391768,"is_reserved":false,"is_disabled":false,"rental_uris":{"android":"levelo://app?vid=1421dc50-16f3-4948-a0bc-fe8ed0addab9","ios":"levelo://app?vid=1421dc50-16f3-4948-a0bc-fe8ed0addab9"},"vehicle_type_id":"4","last_reported":1683562116,"current_range_meters":21200,"station_id":"ce4bhhp2rcd13ifvqfm0","pricing_plan_id":"free"},{"bike_id":"ec4d2a63-172e-44a5-b36e-1b8e2321ec80","system_id":"levelo_inurba_marseille","lat":43.272124,"lon":5.391768,"is_reserved":false,"is_disabled":false,"rental_uris":{"android":"levelo://app?vid=ec4d2a63-172e-44a5-b36e-1b8e2321ec80","ios":"levelo://app?vid=ec4d2a63-172e-44a5-b36e-1b8e2321ec80"},"vehicle_type_id":"4","last_reported":1683562116,"current_range_meters":1200,"station_id":"ce4bhhp2rcd13ifvqfm0","pricing_plan_id":"free"},{"bike_id":"9c7802a9-28ea-4b4e-ade9-b44f7d63df7e","system_id":"levelo_inurba_marseille","lat":43.272124,"lon":5.391768,"is_reserved":false,"is_disabled":false,"rental_uris":{"android":"levelo://app?vid=9c7802a9-28ea-4b4e-ade9-b44f7d63df7e","ios":"levelo://app?vid=9c7802a9-28ea-4b4e-ade9-b44f7d63df7e"},"vehicle_type_id":"4","last_reported":1683562116,"current_range_meters":10000,"station_id":"ce4bhhp2rcd13ifvqfm0","pricing_plan_id":"free"},{"bike_id":"cf9d31b0-6037-40a9-83e9-d7dd16d9ec5b","system_id":"levelo_inurba_marseille","lat":43.272116,"lon":5.391747,"is_reserved":false,"is_disabled":false,"rental_uris":{"android":"levelo://app?vid=cf9d31b0-6037-40a9-83e9-d7dd16d9ec5b","ios":"levelo://app?vid=cf9d31b0-6037-40a9-83e9-d7dd16d9ec5b"},"vehicle_type_id":"4","last_reported":1683562116,"current_range_meters":24400,"station_id":"ce4bhhp2rcd13ifvqfm0","pricing_plan_id":"free"},{"bike_id":"ba4fd0cc-7f54-4172-a114-cb6a5f11bb1f","system_id":"levelo_inurba_marseille","lat":43.272116,"lon":5.391747,"is_reserved":false,"is_disabled":false,"rental_uris":{"android":"levelo://app?vid=ba4fd0cc-7f54-4172-a114-cb6a5f11bb1f","ios":"levelo://app?vid=ba4fd0cc-7f54-4172-a114-cb6a5f11bb1f"},"vehicle_type_id":"4","last_reported":1683562116,"current_range_meters":27600,"station_id":"ce4bhhp2rcd13ifvqfm0","pricing_plan_id":"free"},{"bike_id":"795965a9-1500-4736-8db4-33d0011e2722","system_id":"levelo_inurba_marseille","lat":43.278128,"lon":5.407195,"is_reserved":false,"is_disabled":false,"rental_uris":{"android":"levelo://app?vid=795965a9-1500-4736-8db4-33d0011e2722","ios":"levelo://app?vid=795965a9-1500-4736-8db4-33d0011e2722"},"vehicle_type_id":"4","last_reported":1683562116,"current_range_meters":27600,"station_id":"ce4bhnh2rcd13ifvqgtg","pricing_plan_id":"free"},{"bike_id":"9b479b75-5c82-435b-b81b-7932a2bee083","system_id":"levelo_inurba_marseille","lat":43.278128,"lon":5.407195,"is_reserved":false,"is_disabled":false,"rental_uris":{"android":"levelo://app?vid=9b479b75-5c82-435b-b81b-7932a2bee083","ios":"levelo://app?vid=9b479b75-5c82-435b-b81b-7932a2bee083"},"vehicle_type_id":"4","last_reported":1683562116,"current_range_meters":6400,"station_id":"ce4bhnh2rcd13ifvqgtg","pricing_plan_id":"free"},{"bike_id":"787a3d19-d081-4f07-891d-9bebc33f595e","system_id":"levelo_inurba_marseille","lat":43.278128,"lon":5.407195,"is_reserved":false,"is_disabled":false,"rental_uris":{"android":"levelo://app?vid=787a3d19-d081-4f07-891d-9bebc33f595e","ios":"levelo://app?vid=787a3d19-d081-4f07-891d-9bebc33f595e"},"vehicle_type_id":"4","last_reported":1683562116,"current_range_meters":1600,"station_id":"ce4bhnh2rcd13ifvqgtg","pricing_plan_id":"free"},{"bike_id":"51e4ab76-a249-433a-80b3-625697b39ff9","system_id":"levelo_inurba_marseille","lat":43.278128,"lon":5.407195,"is_reserved":false,"is_disabled":false,"rental_uris":{"android":"levelo://app?vid=51e4ab76-a249-433a-80b3-625697b39ff9","ios":"levelo://app?vid=51e4ab76-a249-433a-80b3-625697b39ff9"},"vehicle_type_id":"4","last_reported":1683562116,"current_range_meters":4800,"station_id":"ce4bhnh2rcd13ifvqgtg","pricing_plan_id":"free"},{"bike_id":"22e38652-287a-410d-a584-c44bb2c58d4f","system_id":"levelo_inurba_marseille","lat":43.27813,"lon":5.40726,"is_reserved":false,"is_disabled":false,"rental_uris":{"android":"levelo://app?vid=22e38652-287a-410d-a584-c44bb2c58d4f","ios":"levelo://app?vid=22e38652-287a-410d-a584-c44bb2c58d4f"},"vehicle_type_id":"4","last_reported":1683562116,"current_range_meters":0,"station_id":"ce4bhnh2rcd13ifvqgtg","pricing_plan_id":"free"},{"bike_id":"abce18f6-b90f-41c6-80e1-9e23826a7779","system_id":"levelo_inurba_marseille","lat":43.269467,"lon":5.386439,"is_reserved":false,"is_disabled":false,"rental_uris":{"android":"levelo://app?vid=abce18f6-b90f-41c6-80e1-9e23826a7779","ios":"levelo://app?vid=abce18f6-b90f-41c6-80e1-9e23826a7779"},"vehicle_type_id":"4","last_reported":1683562116,"current_range_meters":20400,"station_id":"ce4bhh92rcd13ifvqfh0","pricing_plan_id":"free"},