{"last_updated":1730473772,"ttl":60,"version":"2.2","data":{"bikes":[{"bike_id":"21f186cd-2125-456e-887b-a3dc78989cfd","system_id":"levelo_inurba_marseille","lat":43.29274,"lon":5.36842,"is_reserved":false,"is_disabled":false,"rental_uris":{"android":"levelo://app?vid=21f186cd-2125-456e-887b-a3dc78989cfd","ios":"levelo://app?vid=21f186cd-2125-456e-887b-a3dc78989cfd"},"vehicle_type_id":"4","last_reported":1730473772,"current_range_meters":28800,"station_id":"ce4bhbp2rcd13ifvqesg","pricing_plan_id":"cebpf4jnsgd1na2vs0mg"},{"bike_id":"baa5d8b2-8abc-4f47-aaea-2b6f975fb2b0","system_id":"levelo_inurba_marseille","lat":43.28425,"lon":5.34998,"is_reserved":false,"is_disabled":false,"rental_uris":{"android":"levelo://app?vid=baa5d8b2-8abc-4f47-aaea-2b6f975fb2b0","ios":"levelo://app?vid=baa5d8b2-8abc-4f47-aaea-2b6f975fb2b0"},"vehicle_type_id":"4","last_reported":1730473772,"current_range_meters":38800,"station_id":"ce4bhbh2rcd13ifvqepg","pricing_plan_id":"cebpf4jnsgd1na2vs0mg"},{"bike_id":"dc015d1f-276c-40fe-8a60-f8e4ce96a4c8","system_id":"levelo_inurba_marseille","lat":43.28421,"lon":5.34996,"is_reserved":false,"is_disabled":false,"rental_uris":{"android":"levelo://app?vid=dc015d1f-276c-40fe-8a60-f8e4ce96a4c8","ios":"levelo://app?vid=dc015d1f-276c-40fe-8a60-f8e4ce96a4c8"},"vehicle_type_id":"4","last_reported":1730473772,"current_range_meters":11200,"station_id":"ce4bhbh2rcd13ifvqepg","pricing_plan_id":"cebpf4jnsgd1na2vs0mg"},{"bike_id":"72aeef7b-29fe-46b8-a95f-dcd59fc8c40f","system_id":"levelo_inurba_marseille","lat":43.27073,"lon":5.4228,"is_reserved":false,"is_disabled":false,"rental_uris":{"android":"levelo://app?vid=72aeef7b-29fe-46b8-a95f-dcd59fc8c40f","ios":"levelo://app?vid=72aeef7b-29fe-46b8-a95f-dcd59fc8c40f"},"vehicle_type_id":"4","last_reported":1730473772,"current_range_meters":24400,"station_id":"ce4bhk92rcd13ifvqgb0","pricing_plan_id":"cebpf4jnsgd1na2vs0mg"},{"bike_id":"39bdcd3d-2fc5-4df7-a139-896cc3ba8ea9","system_id":"levelo_inurba_marseille","lat":43.32105,"lon":5.36765,"is_reserved":false,"is_disabled":false,"rental_uris":{"android":"levelo://app?vid=39bdcd3d-2fc5-4df7-a139-896cc3ba8ea9","ios":"levelo://app?vid=39bdcd3d-2fc5-4df7-a139-896cc3ba8ea9"},"vehicle_type_id":"4","last_reported":1730473772,"current_range_meters":12400,"station_id":"ce4bhrh2rcd13ifvqhug","pricing_plan_id":"cebpf4jnsgd1na2vs0mg"},{"bike_id":"7ace59d4-9667-47e5-82cf-28e9c8ebfadd","system_id":"levelo_inurba_marseille","lat":43.28268,"lon":5.35069,"is_reserved":false,"is_disabled":false,"rental_uris":{"android":"levelo://app?vid=7ace59d4-9667-47e5-82cf-28e9c8ebfadd","ios":"levelo://app?vid=7ace59d4-9667-47e5-82cf-28e9c8ebfadd"},"vehicle_type_id":"4","last_reported":1730473772,"current_range_meters":38000,"station_id":"ce4bhbp2rcd13ifvqerg","pricing_plan_id":"cebpf4jnsgd1na2vs0mg"},{"bike_id":"593c91b5-204c-4da6-be51-88ac8457a9ee","system_id":"levelo_inurba_marseille","lat":43.24171,"lon":5.36393,"is_reserved":false,"is_disabled":false,"rental_uris":{"android":"levelo://app?vid=593c91b5-204c-4da6-be51-88ac8457a9ee","ios":"levelo://app?vid=593c91b5-204c-4da6-be51-88ac8457a9ee"},"vehicle_type_id":"4","last_reported":1730473772,"current_range_meters":32800,"station_id":"cpo36qri1sfpv3e86is0","pricing_plan_id":"cebpf4jnsgd1na2vs0mg"},{"bike_id":"1d012530-9f86-41af-8bcb-3e759685e196","system_id":"levelo_inurba_marseille","lat":43.24801,"lon":5.37452,"is_reserved":false,"is_disabled":false,"rental_uris":{"android":"levelo://app?vid=1d012530-9f86-41af-8bcb-3e759685e196","ios":"levelo://app?vid=1d012530-9f86-41af-8bcb-3e759685e196"},"vehicle_type_id":"4","last_reported":1730473772,"current_range_meters":9200,"station_id":"ce4bhgh2rcd13ifvqfb0","pricing_plan_id":"cebpf4jnsgd1na2vs0mg"},{"bike_id":"bc1199ad-f463-496a-98e6-1349f1f38e44","system_id":"levelo_inurba_marseille","lat":43.23062,"lon":5.35494,"is_reserved":false,"is_disabled":false,"rental_uris":{"android":"levelo://app?vid=bc1199ad-f463-496a-98e6-1349f1f38e44","ios":"levelo://app?vid=bc1199ad-f463-496a-98e6-1349f1f38e44"},"vehicle_type_id":"4","last_reported":1730473772,"current_range_meters":8800,"station_id":"cpo3342slgdg3j2ifvpg","pricing_plan_id":"cebpf4jnsgd1na2vs0mg"},{"bike_id":"512c4bd5-3edb-49b7-a54a-bbe327a08aa0","system_id":"levelo_inurba_marseille","lat":43.25726,"lon":5.41114,"is_reserved":false,"is_disabled":false,"rental_uris":{"android":"levelo://app?vid=512c4bd5-3edb-49b7-a54a-bbe327a08aa0","ios":"levelo://app?vid=512c4bd5-3edb-49b7-a54a-bbe327a08aa0"},"vehicle_type_id":"4","last_reported":1730473772,"current_range_meters":17200,"station_id":"ce4bhkp2rcd13ifvqgd0","pricing_plan_id":"cebpf4jnsgd1na2vs0mg"},{"bike_id":"a4627486-a087-47d1-bdea-e9476cd49986","system_id":"levelo_inurba_marseille","lat":43.23198,"lon":5.35549,"is_reserved":false,"is_disabled":false,"rental_uris":{"android":"levelo://app?vid=a4627486-a087-47d1-bdea-e9476cd49986","ios":"levelo://app?vid=a4627486-a087-47d1-bdea-e9476cd49986"},"vehicle_type_id":"4","last_reported":1730473772,"current_range_meters":30800,"station_id":"ce4bhu92rcd13ifvqi70","pricing_plan_id":"cebpf4jnsgd1na2vs0mg"},{"bike_id":"b10607b2-382a-4c63-9c85-1ae1146ee581","system_id":"levelo_inurba_marseille","lat":43.29094,"lon":5.3813,"is_reserved":false,"is_disabled":false,"rental_uris":{"android":"levelo://app?vid=b10607b2-382a-4c63-9c85-1ae1146ee581","ios":"levelo://app?vid=b10607b2-382a-4c63-9c85-1ae1146ee581"},"vehicle_type_id":"4","last_reported":1730473772,"current_range_meters":36800,"station_id":"ce4bh512rcd13ifvqe2g","pricing_plan_id":"cebpf4jnsgd1na2vs0mg"},{"bike_id":"509a9bdc-ca48-4855-8040-748bb9b3087b","system_id":"levelo_inurba_marseille","lat":43.25942,"lon":5.40902,"is_reserved":false,"is_disabled":false,"rental_uris":{"android":"levelo://app?vid=509a9bdc-ca48-4855-8040-748bb9b3087b","ios":"levelo://app?vid=509a9bdc-ca48-4855-8040-748bb9b3087b"},"vehicle_type_id":"4","last_reported":1730473772,"current_range_meters":27200,"station_id":"ce4bhm92rcd13ifvqglg","pricing_plan_id":"cebpf4jnsgd1na2vs0mg"},{"bike_id":"c6349e91-9caa-4934-a8ae-6e1d497938dd","system_id":"levelo_inurba_marseille","lat":43.28615,"lon":5.35103,"is_reserved":false,"is_disabled":false,"rental_uris":{"android":"levelo://app?vid=c6349e91-9caa-4934-a8ae-6e1d497938dd","ios":"levelo://app?vid=c6349e91-9caa-4934-a8ae-6e1d497938dd"},"vehicle_type_id":"4","last_reported":1730473772,"current_range_meters":38800,"station_id":"ce4bhch2rcd13ifvqeug","pricing_plan_id":"cebpf4jnsgd1na2vs0mg"},{"bike_id":"b58d7959-be24-4558-8014-49895e2f8ed4","system_id":"levelo_inurba_marseille","lat":43.23154,"lon":5.43714,"is_reserved":false,"is_disabled":false,"rental_uris":{"android":"levelo://app?vid=b58d7959-be24-4558-8014-49895e2f8ed4","ios":"levelo://app?vid=b58d7959-be24-4558-8014-49895e2f8ed4"},"vehicle_type_id":"4","last_reported":1730473772,"current_range_meters":22000,"station_id":"ce4bhmp2rcd13ifvqgog","pricing_plan_id":"cebpf4jnsgd1na2vs0mg"},{"bike_id":"87cfbcc8-319d-48e4-a727-7fc09528217e","system_id":"levelo_inurba_marseille","lat":43.26936,"lon":5.38911,"is_reserved":false,"is_disabled":false,"rental_uris":{"android":"levelo://app?vid=87cfbcc8-319d-48e4-a727-7fc09528217e","ios":"levelo://app?vid=87cfbcc8-319d-48e4-a727-7fc09528217e"},"vehicle_type_id":"4","last_reported":1730473772,"current_range_meters":35200,"station_id":"ce4bhhh2rcd13ifvqfl0","pricing_plan_id":"cebpf4jnsgd1na2vs0mg"},{"bike_id":"503969ca-01fe-4888-a1e7-fdad2a25a1b9","system_id":"levelo_inurba_marseille","lat":43.28416,"lon":5.34994,"is_reserved":false,"is_disabled":false,"rental_uris":{"android":"levelo://app?vid=503969ca-01fe-4888-a1e7-fdad2a25a1b9","ios":"levelo://app?vid=503969ca-01fe-4888-a1e7-fdad2a25a1b9"},"vehicle_type_id":"4","last_reported":1730473772,"current_range_meters":23200,"station_id":"ce4bhbh2rcd13ifvqepg","pricing_plan_id":"cebpf4jnsgd1na2vs0mg"},{"bike_id":"f90c7233-f112-4411-a745-3ee84b3555db","system_id":"levelo_inurba_marseille","lat":43.27375,"lon":5.36268,"is_reserved":false,"is_disabled":false,"rental_uris":{"android":"levelo://app?vid=f90c7233-f112-4411-a745-3ee84b3555db","ios":"levelo://app?vid=f90c7233-f112-4411-a745-3ee84b3555db"},"vehicle_type_id":"4","last_reported":1730473772,"current_range_meters":37600,"station_id":"ce4bhbh2rcd13ifvqeo0","pricing_plan_id":"cebpf4jnsgd1na2vs0mg"},{"bike_id":"fc2095ca-d28e-46ea-9a51-601b74247bea","system_id":"levelo_inurba_marseille","lat":43.28448,"lon":5.3496,"is_reserved":false,"is_disabled":false,"rental_uris":{"android":"levelo://app?vid=fc2095ca-d28e-46ea-9a51-601b74247bea","ios":"levelo://app?vid=fc2095ca-d28e-46ea-9a51-601b74247bea"},"vehicle_type_id":"4","last_reported":1730473772,"current_range_meters":14000,"station_id":"ce4bhbh2rcd13ifvqepg","pricing_plan_id":"cebpf4jnsgd1na2vs0mg"},{"bike_id":"efbe383f-83c6-4df5-ac1f-ffa8f2e0197b","system_id":"levelo_inurba_marseille","lat":43.31335,"lon":5.39699,"is_reserved":false,"is_disabled":false,"rental_uris":{"android":"levelo://app?vid=efbe383f-83c6-4df5-ac1f-ffa8f2e0197b","ios":"levelo://app?vid=efbe383f-83c6-4df5-ac1f-ffa8f2e0197b"},"vehicle_type_id":"4","last_reported":1730473772,"current_range_meters":9200,"station_id":"ce4bgvp2rcd13ifvqcu0","pricing_plan_id":"cebpf4jnsgd1na2vs0mg"},{"bike_id":"980e7e86-840e-4800-93c7-c5171cc55726","system_id":"levelo_inurba_marseille","lat":43.2306,"lon":5.35488,"is_reserved":false,"is_disabled":false,"rental_uris":{"android":"levelo://app?vid=980e7e86-840e-4800-93c7-c5171cc55726","ios":"levelo://app?vid=980e7e86-840e-4800-93c7-c5171cc55726"},"vehicle_type_id":"4","last_reported":1730473772,"current_range_meters":38800,"station_id":"cpo3342slgdg3j2ifvpg","pricing_plan_id":"cebpf4jnsgd1na2vs0mg"},{"bike_id":"7256dd54-7a94-401d-824a-25829f05bd6e","system_id":"levelo_inurba_marseille","lat":43.2861,"lon":5.35099,"is_reserved":false,"is_disabled":false,"rental_uris":{"android":"levelo://app?vid=7256dd54-7a94-401d-824a-25829f05bd6e","ios":"levelo://app?vid=7256dd54-7a94-401d-824a-25829f05bd6e"},"vehicle_type_id":"4","last_reported":1730473772,"current_range_meters":35200,"station_id":"ce4bhch2rcd13ifvqeug","pricing_plan_id":"cebpf4jnsgd1na2vs0mg"},{"bike_id":"eeda43af-c198-46c1-888c-dc5d272f2832","system_id":"levelo_inurba_marseille","lat":43.29871,"lon":5.3891,"is_reserved":false,"is_disabled":false,"rental_uris":{"android":"levelo://app?vid=eeda43af-c198-46c1-888c-dc5d272f2832","ios":"levelo://app?vid=eeda43af-c198-46c1-888c-dc5d272f2832"},"vehicle_type_id":"4","last_reported":1730473772,"current_range_meters":30000,"station_id":"ce4bh392rcd13ifvqdl0","pricing_plan_id":"cebpf4jnsgd1na2vs0mg"},{"bike_id":"276c9587-13b1-4ed9-a5c3-41b5dd9ac5c5","system_id":"levelo_inurba_marseille","lat":43.25833,"lon":5.39435,"is_reserved":false,"is_disabled":false,"rental_uris":{"android":"levelo://app?vid=276c9587-13b1-4ed9-a5c3-41b5dd9ac5c5","ios":"levelo://app?vid=276c9587-13b1-4ed9-a5c3-41b5dd9ac5c5"},"vehicle_type_id":"4","last_reported":1730473772,"current_range_meters":32000,"station_id":"ce4bhip2rcd13ifvqft0","pricing_plan_id":"cebpf4jnsgd1na2vs0mg"},{"bike_id":"902a84d5-56ca-468a-a9e6-146ab5c6eab3","system_id":"levelo_inurba_marseille","lat":43.25089,"lon":5.3952,"is_reserved":false,"is_disabled":false,"rental_uris":{"android":"levelo://app?vid=902a84d5-56ca-468a-a9e6-146ab5c6eab3","ios":"levelo://app?vid=902a84d5-56ca-468a-a9e6-146ab5c6eab3"},"vehicle_type_id":"4","last_reported":1730473772,"current_range_meters":16800,"station_id":"ce4bhm12rcd13ifvqgkg","pricing_plan_id":"cebpf4jnsgd1na2vs0mg"},{"bike_id":"ed9a0e70-d28d-45c9-ac4a-7d8a220214f1","system_id":"levelo_inurba_marseille","lat":43.30801,"lon":5.43526,"is_reserved":false,"is_disabled":false,"rental_uris":{"android":"levelo://app?vid=ed9a0e70-d28d-45c9-ac4a-7d8a220214f1","ios":"levelo://app?vid=ed9a0e70-d28d-45c9-ac4a-7d8a220214f1"},"vehicle_type_id":"4","last_reported":1730473772,"current_range_meters":21600,"station_id":"ce4bhph2rcd13ifvqheg","pricing_plan_id":"cebpf4jnsgd1na2vs0mg"},{"bike_id":"e8d86fa8-e773-40a8-a14d-9a74561290c9","system_id":"levelo_inurba_marseille","lat":43.25489,"lon":5.37648,"is_reserved":false,"is_disabled":false,"rental_uris":{"android":"levelo://app?vid=e8d86fa8-e773-40a8-a14d-9a74561290c9","ios":"levelo://app?vid=e8d86fa8-e773-40a8-a14d-9a74561290c9"},"vehicle_type_id":"4","last_reported":1730473772,"current_range_meters":18800,"station_id":"ce4bhh12rcd13ifvqff0","pricing_plan_id":"cebpf4jnsgd1na2vs0mg"},{"bike_id":"b9a731f6-a414-4b1d-9206-141e723290e3","system_id":"levelo_inurba_marseille","lat":43.27494,"lon":5.4246,"is_reserved":false,"is_disabled":false,"rental_uris":{"android":"levelo://app?vid=b9a731f6-a414-4b1d-9206-141e723290e3","ios":"levelo://app?vid=b9a731f6-a414-4b1d-9206-141e723290e3"},"vehicle_type_id":"4","last_reported":1730473772,"current_range_meters":2800,"station_id":"ce4bhn92rcd13ifvqgrg","pricing_plan_id":"cebpf4jnsgd1na2vs0mg"},{"bike_id":"1a88b521-71e1-497b-9dc0-e8fff05a39b1","system_id":"levelo_inurba_marseille","lat":43.28265,"lon":5.35066,"is_reserved":false,"is_disabled":false,"rental_uris":{"android":"levelo://app?vid=1a88b521-71e1-497b-9dc0-e8fff05a39b1","ios":"levelo://app?vid=1a88b521-71e1-497b-9dc0-e8fff05a39b1"},"vehicle_type_id":"4","last_reported":1730473772,"current_range_meters":32000,"station_id":"ce4bhbp2rcd13ifvqerg","pricing_plan_id":"cebpf4jnsgd1na2vs0mg"},{"bike_id":"f72dba07-91df-45be-a8a3-0c113ce1d814","system_id":"levelo_inurba_marseille","lat":43.27375,"lon":5.36263,"is_reserved":false,"is_disabled":false,"rental_uris":{"android":"levelo://app?vid=f72dba07-91df-45be-a8a3-0c113ce1d814","ios":"levelo://app?vid=f72dba07-91df-45be-a8a3-0c113ce1d814"},"vehicle_type_id":"4","last_reported":1730473772,"current_range_meters":24400,"station_id":"ce4bhbh2rcd13ifvqeo0","pricing_plan_id":"cebpf4jnsgd1na2vs0mg"},{"bike_id":"a7125d65-74ce-495d-817a-4658be7b2ef8","system_id":"levelo_inurba_marseille","lat":43.28695,"lon":5.37387,"is_reserved":false,"is_disabled":false,"rental_uris":{"android":"levelo://app?vid=a7125d65-74ce-495d-817a-4658be7b2ef8","ios":"levelo://app?vid=a7125d65-74ce-495d-817a-4658be7b2ef8"},"vehicle_type_id":"4","last_reported":1730473772,"current_range_meters":35200,"station_id":"ce4bh3p2rcd13ifvqdq0","pricing_plan_id":"cebpf4jnsgd1na2vs0mg"},{"bike_id":"d2ba17a1-691f-421f-b1c5-49f73f453922","system_id":"levelo_inurba_marseille","lat":43.29043,"lon":5.3592,"is_reserved":false,"is_disabled":false,"rental_uris":{"android":"levelo://app?vid=d2ba17a1-691f-421f-b1c5-49f73f453922","ios":"levelo://app?vid=d2ba17a1-691f-421f-b1c5-49f73f453922"},"vehicle_type_id":"4","last_reported":1730473772,"current_range_meters":30800,"station_id":"ce4bha92rcd13ifvqeg0","pricing_plan_id":"cebpf4jnsgd1na2vs0mg"},{"bike_id":"13554d08-60c3-4660-b624-2033e2e97000","system_id":"levelo_inurba_marseille","lat":43.27813,"lon":5.40713,"is_reserved":false,"is_disabled":false,"rental_uris":{"android":"levelo://app?vid=13554d08-60c3-4660-b624-2033e2e97000","ios":"levelo://app?vid=13554d08-60c3-4660-b624-2033e2e97000"},"vehicle_type_id":"4","last_reported":1730473772,"current_range_meters":5600,"station_id":"ce4bhnh2rcd13ifvqgtg","pricing_plan_id":"cebpf4jnsgd1na2vs0mg"},{"bike_id":"ebd94682-43cf-412b-9a67-e80a93315908","system_id":"levelo_inurba_marseille","lat":43.31484,"lon":5.3731,"is_reserved":false,"is_disabled":false,"rental_uris":{"android":"levelo://app?vid=ebd94682-43cf-412b-9a67-e80a93315908","ios":"levelo://app?vid=ebd94682-43cf-412b-9a67-e80a93315908"},"vehicle_type_id":"4","last_reported":1730473772,"current_range_meters":34800,"station_id":"ce4bgt12rcd13ifvqcd0","pricing_plan_id":"cebpf4jnsgd1na2vs0mg"},{"bike_id":"8f3e7ee9-bb66-4cc6-8cb6-12fbfb8e53f3","system_id":"levelo_inurba_marseille","lat":43.27375,"lon":5.36252,"is_reserved":false,"is_disabled":false,"rental_uris":{"android":"levelo://app?vid=8f3e7ee9-bb66-4cc6-8cb6-12fbfb8e53f3","ios":"levelo://app?vid=8f3e7ee9-bb66-4cc6-8cb6-12fbfb8e53f3"},"vehicle_type_id":"4","last_reported":1730473772,"current_range_meters":34000,"station_id":"ce4bhbh2rcd13ifvqeo0","pricing_plan_id":"cebpf4jnsgd1na2vs0mg"},{"bike_id":"76daf9d0-b47b-40d6-9996-9aa3f3f48bc8","system_id":"levelo_inurba_marseille","lat":43.28414,"lon":5.34988,"is_reserved":false,"is_disabled":false,"rental_uris":{"android":"levelo://app?vid=76daf9d0-b47b-40d6-9996-9aa3f3f48bc8","ios":"levelo://app?vid=76daf9d0-b47b-40d6-9996-9aa3f3f48bc8"},"vehicle_type_id":"4","last_reported":1730473772,"current_range_meters":38800,"station_id":"ce4bhbh2rcd13ifvqepg","pricing_plan_id":"cebpf4jnsgd1na2vs0mg"},{"bike_id":"d5035e83-93c0-4816-a0bc-6912ba516747","system_id":"levelo_inurba_marseille","lat":43.30586,"lon":5.39362,"is_reserved":false,"is_disabled":false,"rental_uris":{"android":"levelo://app?vid=d5035e83-93c0-4816-a0bc-6912ba516747","ios":"levelo://app?vid=d5035e83-93c0-4816-a0bc-6912ba516747"},"vehicle_type_id":"4","last_reported":1730473772,"current_range_meters":25600,"station_id":"ce4bh0p2rcd13ifvqd80","pricing_plan_id":"cebpf4jnsgd1na2vs0mg"},{"bike_id":"6e646dca-c1e2-403e-a86a-40041a70c101","system_id":"levelo_inurba_marseille","lat":43.32536,"lon":5.41434,"is_reserved":false,"is_disabled":false,"rental_uris":{"android":"levelo://app?vid=6e646dca-c1e2-403e-a86a-40041a70c101","ios":"levelo://app?vid=6e646dca-c1e2-403e-a86a-40041a70c101"},"vehicle_type_id":"4","last_reported":1730473772,"current_range_meters":34000,"station_id":"ce4bhq12rcd13ifvqhhg","pricing_plan_id":"cebpf4jnsgd1na2vs0mg"},{"bike_id":"e9aa96b7-84c9-4881-a593-ce7c0cd98473","system_id":"levelo_inurba_marseille","lat":43.28354,"lon":5.35027,"is_reserved":false,"is_disabled":false,"rental_uris":{"android":"levelo://app?vid=e9aa96b7-84c9-4881-a593-ce7c0cd98473","ios":"levelo://app?vid=e9aa96b7-84c9-4881-a593-ce7c0cd98473"},"vehicle_type_id":"4","last_reported":1730473772,"current_range_meters":28000,"station_id":"","pricing_plan_id":"cebpf4jnsgd1na2vs0mg"},{"bike_id":"7a7abe75-bd11-44c1-979b-06ef3e9f9da8","system_id":"levelo_inurba_marseille","lat":43.24651,"lon":5.38905,"is_reserved":false,"is_disabled":false,"rental_uris":{"android":"levelo://app?vid=7a7abe75-bd11-44c1-979b-06ef3e9f9da8","ios":"levelo://app?vid=7a7abe75-bd11-44c1-979b-06ef3e9f9da8"},"vehicle_type_id":"4","last_reported":1730473772,"current_range_meters":38800,"station_id":"ce4bhg12rcd13ifvqf60","pricing_plan_id":"cebpf4jnsgd1na2vs0mg"},{"bike_id":"dee11b71-3da3-463f-b568-ab6d2a0e6323","system_id":"levelo_inurba_marseille","lat":43.28847,"lon":5.39309,"is_reserved":false,"is_disabled":false,"rental_uris":{"android":"levelo://app?vid=dee11b71-3da3-463f-b568-ab6d2a0e6323","ios":"levelo://app?vid=dee11b71-3da3-463f-b568-ab6d2a0e6323"},"vehicle_type_id":"4","last_reported":1730473772,"current_range_meters":35600,"station_id":"ce4bh2p2rcd13ifvqdi0","pricing_plan_id":"cebpf4jnsgd1na2vs0mg"},{"bike_id":"71b44894-3df8-451a-bc8d-cf278fbdb6fc","system_id":"levelo_inurba_marseille","lat":43.25503,"lon":5.37648,"is_reserved":false,"is_disabled":false,"rental_uris":{"android":"levelo://app?vid=71b44894-3df8-451a-bc8d-cf278fbdb6fc","ios":"levelo://app?vid=71b44894-3df8-451a-bc8d-cf278fbdb6fc"},"vehicle_type_id":"4","last_reported":1730473772,"current_range_meters":29600,"station_id":"ce4bhh12rcd13ifvqff0","pricing_plan_id":"cebpf4jnsgd1na2vs0mg"},{"bike_id":"9938ebcd-9900-4f33-ae62-087d07b91466","system_id":"levelo_inurba_marseille","lat":43.25735,"lon":5.41114,"is_reserved":false,"is_disabled":false,"rental_uris":{"android":"levelo://app?vid=9938ebcd-9900-4f33-ae62-087d07b91466","ios":"levelo://app?vid=9938ebcd-9900-4f33-ae62-087d07b91466"},"vehicle_type_id":"4","last_reported":1730473772,"current_range_meters":39200,"station_id":"ce4bhkp2rcd13ifvqgd0","pricing_plan_id":"cebpf4jnsgd1na2vs0mg"},{"bike_id":"c181007c-c2cc-4c4b-8253-ed55f6bbf153","system_id":"levelo_inurba_marseille","lat":43.25505,"lon":5.37657,"is_reserved":false,"is_disabled":false,"rental_uris":{"android":"levelo://app?vid=c181007c-c2cc-4c4b-8253-ed55f6bbf153","ios":"levelo://app?vid=c181007c-c2cc-4c4b-8253-ed55f6bbf153"},"vehicle_type_id":"4","last_reported":1730473772,"current_range_meters":16000,"station_id":"ce4bhh12rcd13ifvqff0","pricing_plan_id":"cebpf4jnsgd1na2vs0mg"},{"bike_id":"177d6486-509f-4cc0-b756-77fb3388af5d","system_id":"levelo_inurba_marseille","lat":43.312256,"lon":5.368969,"is_reserved":false,"is_disabled":false,"rental_uris":{"android":"levelo://app?vid=177d6486-509f-4cc0-b756-77fb3388af5d","ios":"levelo://app?vid=177d6486-509f-4cc0-b756-77fb3388af5d"},"vehicle_type_id":"4","last_reported":1730473772,"current_range_meters":12400,"station_id":"ce4bh092rcd13ifvqd30","pricing_plan_id":"cebpf4jnsgd1na2vs0mg"},{"bike_id":"dc8fcbb5-8a40-4304-9661-cddb984b12f4","system_id":"levelo_inurba_marseille","lat":43.2293,"lon":5.35375,"is_reserved":false,"is_disabled":false,"rental_uris":{"android":"levelo://app?vid=dc8fcbb5-8a40-4304-9661-cddb984b12f4","ios":"levelo://app?vid=dc8fcbb5-8a40-4304-9661-cddb984b12f4"},"vehicle_type_id":"4","last_reported":1730473772,"current_range_meters":30800,"station_id":"cpo3532slgdg3j2ikp40","pricing_plan_id":"cebpf4jnsgd1na2vs0mg"},{"bike_id":"337aedca-2f90-4d1a-84bd-12a131b00b94","system_id":"levelo_inurba_marseille","lat":43.23971,"lon":5.36623,"is_reserved":false,"is_disabled":false,"rental_uris":{"android":"levelo://app?vid=337aedca-2f90-4d1a-84bd-12a131b00b94","ios":"levelo://app?vid=337aedca-2f90-4d1a-84bd-12a131b00b94"},"vehicle_type_id":"4","last_reported":1730473772,"current_range_meters":24400,"station_id":"ce4bhi12rcd13ifvqfp0","pricing_plan_id":"cebpf4jnsgd1na2vs0mg"},{"bike_id":"cf4a2620-65a6-4f70-ad26-15c77e0c33f5","system_id":"levelo_inurba_marseille","lat":43.31997,"lon":5.38169,"is_reserved":false,"is_disabled":false,"rental_uris":{"android":"levelo://app?vid=cf4a2620-65a6-4f70-ad26-15c77e0c33f5","ios":"levelo://app?vid=cf4a2620-65a6-4f70-ad26-15c77e0c33f5"},"vehicle_type_id":"4","last_reported":1730473772,"current_range_meters":38800,"station_id":"ce4bhr12rcd13ifvqhpg","pricing_plan_id":"cebpf4jnsgd1na2vs0mg"},{"bike_id":"05b66808-27ba-48de-8c25-fa6353c85930","system_id":"levelo_inurba_marseille","lat":43.27111,"lon":5.4042,"is_reserved":false,"is_disabled":false,"rental_uris":{"android":"levelo://app?vid=05b66808-27ba-48de-8c25-fa6353c85930","ios":"levelo://app?vid=05b66808-27ba-48de-8c25-fa6353c85930"},"vehicle_type_id":"4","last_reported":1730473772,"current_range_meters":9600,"station_id":"ce4bhjp2rcd13ifvqga0","pricing_plan_id":"cebpf4jnsgd1na2vs0mg"},{"bike_id":"a63b9fb5-56f7-422f-b390-b53b9a4eff8b","system_id":"levelo_inurba_marseille","lat":43.23188,"lon":5.39986,"is_reserved":false,"is_disabled":false,"rental_uris":{"android":"levelo://app?vid=a63b9fb5-56f7-422f-b390-b53b9a4eff8b","ios":"levelo://app?vid=a63b9fb5-56f7-422f-b390-b53b9a4eff8b"},"vehicle_type_id":"4","last_reported":1730473772,"current_range_meters":9600,"station_id":"ce4bhn12rcd13ifvqgqg","pricing_plan_id":"cebpf4jnsgd1na2vs0mg"},{"bike_id":"0bd966fd-877b-4aae-8013-4621694ce072","system_id":"levelo_inurba_marseille","lat":43.32482,"lon":5.36568,"is_reserved":false,"is_disabled":false,"rental_uris":{"android":"levelo://app?vid=0bd966fd-877b-4aae-8013-4621694ce072","ios":"levelo://app?vid=0bd966fd-877b-4aae-8013-4621694ce072"},"vehicle_type_id":"4","last_reported":1730473772,"current_range_meters":30000,"station_id":"ce4bhs12rcd13ifvqhvg","pricing_plan_id":"cebpf4jnsgd1na2vs0mg"},{"bike_id":"7471bc9b-f984-44e8-a6de-2b1222eeead0","system_id":"levelo_inurba_marseille","lat":43.2417,"lon":5.36401,"is_reserved":false,"is_disabled":false,"rental_uris":{"android":"levelo://app?vid=7471bc9b-f984-44e8-a6de-2b1222eeead0","ios":"levelo://app?vid=7471bc9b-f984-44e8-a6de-2b1222eeead0"},"vehicle_type_id":"4","last_reported":1730473772,"current_range_meters":5600,"station_id":"cpo36qri1sfpv3e86is0","pricing_plan_id":"cebpf4jnsgd1na2vs0mg"},{"bike_id":"fcd45cc4-a0e9-43bd-a022-fb30ef298065","system_id":"levelo_inurba_marseille","lat":43.30597,"lon":5.39361,"is_reserved":false,"is_disabled":false,"rental_uris":{"android":"levelo://app?vid=fcd45cc4-a0e9-43bd-a022-fb30ef298065","ios":"levelo://app?vid=fcd45cc4-a0e9-43bd-a022-fb30ef298065"},"vehicle_type_id":"4","last_reported":1730473772,"current_range_meters":38800,"station_id":"ce4bh0p2rcd13ifvqd80","pricing_plan_id":"cebpf4jnsgd1na2vs0mg"},{"bike_id":"87efb372-7cdf-47dd-989c-92c4a976b9df","system_id":"levelo_inurba_marseille","lat":43.26566,"lon":5.39011,"is_reserved":false,"is_disabled":false,"rental_uris":{"android":"levelo://app?vid=87efb372-7cdf-47dd-989c-92c4a976b9df","ios":"levelo://app?vid=87efb372-7cdf-47dd-989c-92c4a976b9df"},"vehicle_type_id":"4","last_reported":1730473772,"current_range_meters":4800,"station_id":"ce4bhe12rcd13ifvqf30","pricing_plan_id":"cebpf4jnsgd1na2vs0mg"},{"bike_id":"658dacf4-7ef3-4634-8126-9bbd88e5a6eb","system_id":"levelo_inurba_marseille","lat":43.232,"lon":5.35548,"is_reserved":false,"is_disabled":false,"rental_uris":{"android":"levelo://app?vid=658dacf4-7ef3-4634-8126-9bbd88e5a6eb","ios":"levelo://app?vid=658dacf4-7ef3-4634-8126-9bbd88e5a6eb"},"vehicle_type_id":"4","last_reported":1730473772,"current_range_meters":24400,"station_id":"ce4bhu92rcd13ifvqi70","pricing_plan_id":"cebpf4jnsgd1na2vs0mg"},{"bike_id":"c441ebd9-61be-436b-b788-f0be96e2ad18","system_id":"levelo_inurba_marseille","lat":43.2997,"lon":5.38736,"is_reserved":false,"is_disabled":false,"rental_uris":{"android":"levelo://app?vid=c441ebd9-61be-436b-b788-f0be96e2ad18","ios":"levelo://app?vid=c441ebd9-61be-436b-b788-f0be96e2ad18"},"vehicle_type_id":"4","last_reported":1730473772,"current_range_meters":6000,"station_id":"","pricing_plan_id":"cebpf4jnsgd1na2vs0mg"},{"bike_id":"e62e38a9-284c-4b15-bfe8-8b214b98f04b","system_id":"levelo_inurba_marseille","lat":43.2306,"lon":5.35483,"is_reserved":false,"is_disabled":false,"rental_uris":{"android":"levelo://app?vid=e62e38a9-284c-4b15-bfe8-8b214b98f04b","ios":"levelo://app?vid=e62e38a9-284c-4b15-bfe8-8b214b98f04b"},"vehicle_type_id":"4","last_reported":1730473772,"current_range_meters":26800,"station_id":"cpo3342slgdg3j2ifvpg","pricing_plan_id":"cebpf4jnsgd1na2vs0mg"},{"bike_id":"1c17dbb3-645f-4e72-99a6-aae026074d1a","system_id":"levelo_inurba_marseille","lat":43.31328,"lon":5.39689,"is_reserved":false,"is_disabled":false,"rental_uris":{"android":"levelo://app?vid=1c17dbb3-645f-4e72-99a6-aae026074d1a","ios":"levelo://app?vid=1c17dbb3-645f-4e72-99a6-aae026074d1a"},"vehicle_type_id":"4","last_reported":1730473772,"current_range_meters":8400,"station_id":"ce4bgvp2rcd13ifvqcu0","pricing_plan_id":"cebpf4jnsgd1na2vs0mg"},{"bike_id":"e30171e7-4eb5-4a0e-bf0f-459c1c96bdd6","system_id":"levelo_inurba_marseille","lat":43.23186,"lon":5.39991,"is_reserved":false,"is_disabled":false,"rental_uris":{"android":"levelo://app?vid=e30171e7-4eb5-4a0e-bf0f-459c1c96bdd6","ios":"levelo://app?vid=e30171e7-4eb5-4a0e-bf0f-459c1c96bdd6"},"vehicle_type_id":"4","last_reported":1730473772,"current_range_meters":3200,"station_id":"ce4bhn12rcd13ifvqgqg","pricing_plan_id":"cebpf4jnsgd1na2vs0mg"},{"bike_id":"ac67d544-20e1-4f92-be78-ce4300bd393e","system_id":"levelo_inurba_marseille","lat":43.28614,"lon":5.35115,"is_reserved":false,"is_disabled":false,"rental_uris":{"android":"levelo://app?vid=ac67d544-20e1-4f92-be78-ce4300bd393e","ios":"levelo://app?vid=ac67d544-20e1-4f92-be78-ce4300bd393e"},"vehicle_type_id":"4","last_reported":1730473772,"current_range_meters":28400,"station_id":"ce4bhch2rcd13ifvqeug","pricing_plan_id":"cebpf4jnsgd1na2vs0mg"},{"bike_id":"b890158d-4cc0-42ea-b1b1-cf934d08cc8a","system_id":"levelo_inurba_marseille","lat":43.32363,"lon":5.38885,"is_reserved":false,"is_disabled":false,"rental_uris":{"android":"levelo://app?vid=b890158d-4cc0-42ea-b1b1-cf934d08cc8a","ios":"levelo://app?vid=b890158d-4cc0-42ea-b1b1-cf934d08cc8a"},"vehicle_type_id":"4","last_reported":1730473772,"current_range_meters":32400,"station_id":"ce4bhqp2rcd13ifvqhog","pricing_plan_id":"cebpf4jnsgd1na2vs0mg"},{"bike_id":"7b0fca03-8a44-4f02-9b38-88c4f43b6971","system_id":"levelo_inurba_marseille","lat":43.26558,"lon":5.39028,"is_reserved":false,"is_disabled":false,"rental_uris":{"android":"levelo://app?vid=7b0fca03-8a44-4f02-9b38-88c4f43b6971","ios":"levelo://app?vid=7b0fca03-8a44-4f02-9b38-88c4f43b6971"},"vehicle_type_id":"4","last_reported":1730473772,"current_range_meters":38400,"station_id":"ce4bhe12rcd13ifvqf30","pricing_plan_id":"cebpf4jnsgd1na2vs0mg"},{"bike_id":"205d74b9-4188-436c-8520-a69986be2fad","system_id":"levelo_inurba_marseille","lat":43.28422,"lon":5.34994,"is_reserved":false,"is_disabled":false,"rental_uris":{"android":"levelo://app?vid=205d74b9-4188-436c-8520-a69986be2fad","ios":"levelo://app?vid=205d74b9-4188-436c-8520-a69986be2fad"},"vehicle_type_id":"4","last_reported":1730473772,"current_range_meters":36800,"station_id":"ce4bhbh2rcd13ifvqepg","pricing_plan_id":"cebpf4jnsgd1na2vs0mg"},{"bike_id":"6a0c8005-9604-4532-97a5-bf0c496901c7","system_id":"levelo_inurba_marseille","lat":43.32369,"lon":5.38887,"is_reserved":false,"is_disabled":false,"rental_uris":{"android":"levelo://app?vid=6a0c8005-9604-4532-97a5-bf0c496901c7","ios":"levelo://app?vid=6a0c8005-9604-4532-97a5-bf0c496901c7"},"vehicle_type_id":"4","last_reported":1730473772,"current_range_meters":38800,"station_id":"ce4bhqp2rcd13ifvqhog","pricing_plan_id":"cebpf4jnsgd1na2vs0mg"},{"bike_id":"eb64aa3b-2f6a-40fe-933d-479cda6703b0","system_id":"levelo_inurba_marseille","lat":43.3122,"lon":5.36858,"is_reserved":false,"is_disabled":false,"rental_uris":{"android":"levelo://app?vid=eb64aa3b-2f6a-40fe-933d-479cda6703b0","ios":"levelo://app?vid=eb64aa3b-2f6a-40fe-933d-479cda6703b0"},"vehicle_type_id":"4","last_reported":1730473772,"current_range_meters":26800,"station_id":"ce4bgl92rcd13ifvqbq0","pricing_plan_id":"cebpf4jnsgd1na2vs0mg"},{"bike_id":"5e952f6b-9aee-4257-81cc-27b4ae171e24","system_id":"levelo_inurba_marseille","lat":43.22936,"lon":5.35377,"is_reserved":false,"is_disabled":false,"rental_uris":{"android":"levelo://app?vid=5e952f6b-9aee-4257-81cc-27b4ae171e24","ios":"levelo://app?vid=5e952f6b-9aee-4257-81cc-27b4ae171e24"},"vehicle_type_id":"4","last_reported":1730473772,"current_range_meters":38800,"station_id":"cpo3532slgdg3j2ikp40","pricing_plan_id":"cebpf4jnsgd1na2vs0mg"},{"bike_id":"4ff4596a-9ec8-4fc0-afc4-66453f49832a","system_id":"levelo_inurba_marseille","lat":43.24545,"lon":5.39521,"is_reserved":false,"is_disabled":false,"rental_uris":{"android":"levelo://app?vid=4ff4596a-9ec8-4fc0-afc4-66453f49832a","ios":"levelo://app?vid=4ff4596a-9ec8-4fc0-afc4-66453f49832a"},"vehicle_type_id":"4","last_reported":1730473772,"current_range_meters":14000,"station_id":"ce4bhlp2rcd13ifvqgjg","pricing_plan_id":"cebpf4jnsgd1na2vs0mg"},{"bike_id":"81eaa22b-96f5-47dd-9220-ed8909709108","system_id":"levelo_inurba_marseille","lat":43.28415,"lon":5.34995,"is_reserved":false,"is_disabled":false,"rental_uris":{"android":"levelo://app?vid=81eaa22b-96f5-47dd-9220-ed8909709108","ios":"levelo://app?vid=81eaa22b-96f5-47dd-9220-ed8909709108"},"vehicle_type_id":"4","last_reported":1730473772,"current_range_meters":38800,"station_id":"ce4bhbh2rcd13ifvqepg","pricing_plan_id":"cebpf4jnsgd1na2vs0mg"},{"bike_id":"2c1b2c2f-d00c-4f40-b068-460336d2d6da","system_id":"levelo_inurba_marseille","lat":43.23196,"lon":5.35567,"is_reserved":false,"is_disabled":false,"rental_uris":{"android":"levelo://app?vid=2c1b2c2f-d00c-4f40-b068-460336d2d6da","ios":"levelo://app?vid=2c1b2c2f-d00c-4f40-b068-460336d2d6da"},"vehicle_type_id":"4","last_reported":1730473772,"current_range_meters":24800,"station_id":"ce4bhu92rcd13ifvqi70","pricing_plan_id":"cebpf4jnsgd1na2vs0mg"},{"bike_id":"e73640f8-f71b-4d66-9f47-680bb15ee81f","system_id":"levelo_inurba_marseille","lat":43.23196,"lon":5.39986,"is_reserved":false,"is_disabled":false,"rental_uris":{"android":"levelo://app?vid=e73640f8-f71b-4d66-9f47-680bb15ee81f","ios":"levelo://app?vid=e73640f8-f71b-4d66-9f47-680bb15ee81f"},"vehicle_type_id":"4","last_reported":1730473772,"current_range_meters":18000,"station_id":"ce4bhn12rcd13ifvqgqg","pricing_plan_id":"cebpf4jnsgd1na2vs0mg"},{"bike_id":"7f032ca0-2fbc-425c-b9e3-db49dd40b923","system_id":"levelo_inurba_marseille","lat":43.28263,"lon":5.35078,"is_reserved":false,"is_disabled":false,"rental_uris":{"android":"levelo://app?vid=7f032ca0-2fbc-425c-b9e3-db49dd40b923","ios":"levelo://app?vid=7f032ca0-2fbc-425c-b9e3-db49dd40b923"},"vehicle_type_id":"4","last_reported":1730473772,"current_range_meters":38800,"station_id":"ce4bhbp2rcd13ifvqerg","pricing_plan_id":"cebpf4jnsgd1na2vs0mg"},{"bike_id":"08699fb3-aee1-41b6-8e67-10a7e996191b","system_id":"levelo_inurba_marseille","lat":43.27392,"lon":5.36271,"is_reserved":false,"is_disabled":false,"rental_uris":{"android":"levelo://app?vid=08699fb3-aee1-41b6-8e67-10a7e996191b","ios":"levelo://app?vid=08699fb3-aee1-41b6-8e67-10a7e996191b"},"vehicle_type_id":"4","last_reported":1730473772,"current_range_meters":34000,"station_id":"ce4bhbh2rcd13ifvqeo0","pricing_plan_id":"cebpf4jnsgd1na2vs0mg"},{"bike_id":"2f0175d6-8d0c-40c1-89e0-d7fbce7a564a","system_id":"levelo_inurba_marseille","lat":43.27206,"lon":5.39202,"is_reserved":false,"is_disabled":false,"rental_uris":{"android":"levelo://app?vid=2f0175d6-8d0c-40c1-89e0-d7fbce7a564a","ios":"levelo://app?vid=2f0175d6-8d0c-40c1-89e0-d7fbce7a564a"},"vehicle_type_id":"4","last_reported":1730473772,"current_range_meters":28000,"station_id":"ce4bhhp2rcd13ifvqfm0","pricing_plan_id":"cebpf4jnsgd1na2vs0mg"},{"bike_id":"f046d6d2-e88c-4382-8d3d-c7a081ffeb0e","system_id":"levelo_inurba_marseille","lat":43.27813,"lon":5.40707,"is_reserved":false,"is_disabled":false,"rental_uris":{"android":"levelo://app?vid=f046d6d2-e88c-4382-8d3d-c7a081ffeb0e","ios":"levelo://app?vid=f046d6d2-e88c-4382-8d3d-c7a081ffeb0e"},"vehicle_type_id":"4","last_reported":1730473772,"current_range_meters":24000,"station_id":"ce4bhnh2rcd13ifvqgtg","pricing_plan_id":"cebpf4jnsgd1na2vs0mg"},{"bike_id":"e21335a2-4c03-4d87-bf65-f92d0169b049","system_id":"levelo_inurba_marseille","lat":43.23192,"lon":5.35556,"is_reserved":false,"is_disabled":false,"rental_uris":{"android":"levelo://app?vid=e21335a2-4c03-4d87-bf65-f92d0169b049","ios":"levelo://app?vid=e21335a2-4c03-4d87-bf65-f92d0169b049"},"vehicle_type_id":"4","last_reported":1730473772,"current_range_meters":16400,"station_id":"ce4bhu92rcd13ifvqi70","pricing_plan_id":"cebpf4jnsgd1na2vs0mg"},{"bike_id":"a8a0fb52-bd35-44df-bee9-47987ca6fea0","system_id":"levelo_inurba_marseille","lat":43.28415,"lon":5.34983,"is_reserved":false,"is_disabled":false,"rental_uris":{"android":"levelo://app?vid=a8a0fb52-bd35-44df-bee9-47987ca6fea0","ios":"levelo://app?vid=a8a0fb52-bd35-44df-bee9-47987ca6fea0"},"vehicle_type_id":"4","last_reported":1730473772,"current_range_meters":9200,"station_id":"ce4bhbh2rcd13ifvqepg","pricing_plan_id":"cebpf4jnsgd1na2vs0mg"},{"bike_id":"75bb46af-b778-42a3-80fc-788683ce5363","system_id":"levelo_inurba_marseille","lat":43.28153,"lon":5.42647,"is_reserved":false,"is_disabled":false,"rental_uris":{"android":"levelo://app?vid=75bb46af-b778-42a3-80fc-788683ce5363","ios":"levelo://app?vid=75bb46af-b778-42a3-80fc-788683ce5363"},"vehicle_type_id":"4","last_reported":1730473772,"current_range_meters":6000,"station_id":"ce4bhnh2rcd13ifvqgug","pricing_plan_id":"cebpf4jnsgd1na2vs0mg"},{"bike_id":"b2c1a809-13b8-42ea-84c7-9ce05b1a5336","system_id":"levelo_inurba_marseille","lat":43.27377,"lon":5.36254,"is_reserved":false,"is_disabled":false,"rental_uris":{"android":"levelo://app?vid=b2c1a809-13b8-42ea-84c7-9ce05b1a5336","ios":"levelo://app?vid=b2c1a809-13b8-42ea-84c7-9ce05b1a5336"},"vehicle_type_id":"4","last_reported":1730473772,"current_range_meters":8800,"station_id":"ce4bhbh2rcd13ifvqeo0","pricing_plan_id":"cebpf4jnsgd1na2vs0mg"},{"bike_id":"18402065-9e87-476b-95ad-30853de181a0","system_id":"levelo_inurba_marseille","lat":43.32456,"lon":5.45551,"is_reserved":false,"is_disabled":false,"rental_uris":{"android":"levelo://app?vid=18402065-9e87-476b-95ad-30853de181a0","ios":"levelo://app?vid=18402065-9e87-476b-95ad-30853de181a0"},"vehicle_type_id":"4","last_reported":1730473772,"current_range_meters":11200,"station_id":"","pricing_plan_id":"cebpf4jnsgd1na2vs0mg"},{"bike_id":"b319be05-04ec-4a78-8917-4e0370feda97","system_id":"levelo_inurba_marseille","lat":43.29293,"lon":5.37468,"is_reserved":false,"is_disabled":false,"rental_uris":{"android":"levelo://app?vid=b319be05-04ec-4a78-8917-4e0370feda97","ios":"levelo://app?vid=b319be05-04ec-4a78-8917-4e0370feda97"},"vehicle_type_id":"4","last_reported":1730473772,"current_range_meters":16000,"station_id":"ce4bgi12rcd13ifvqb70","pricing_plan_id":"cebpf4jnsgd1na2vs0mg"},{"bike_id":"9fbca05b-2c7b-4136-bd9c-511cbb2d90b8","system_id":"levelo_inurba_marseille","lat":43.23151,"lon":5.43718,"is_reserved":false,"is_disabled":false,"rental_uris":{"android":"levelo://app?vid=9fbca05b-2c7b-4136-bd9c-511cbb2d90b8","ios":"levelo://app?vid=9fbca05b-2c7b-4136-bd9c-511cbb2d90b8"},"vehicle_type_id":"4","last_reported":1730473772,"current_range_meters":38800,"station_id":"ce4bhmp2rcd13ifvqgog","pricing_plan_id":"cebpf4jnsgd1na2vs0mg"},{"bike_id":"d7547404-01f3-4bc3-88c4-b601865bf7d0","system_id":"levelo_inurba_marseille","lat":43.28261,"lon":5.35071,"is_reserved":false,"is_disabled":false,"rental_uris":{"android":"levelo://app?vid=d7547404-01f3-4bc3-88c4-b601865bf7d0","ios":"levelo://app?vid=d7547404-01f3-4bc3-88c4-b601865bf7d0"},"vehicle_type_id":"4","last_reported":1730473772,"current_range_meters":38800,"station_id":"ce4bhbp2rcd13ifvqerg","pricing_plan_id":"cebpf4jnsgd1na2vs0mg"},{"bike_id":"f639eb92-509e-4052-8835-e15d5e9042f8","system_id":"levelo_inurba_marseille","lat":43.25084,"lon":5.39519,"is_reserved":false,"is_disabled":false,"rental_uris":{"android":"levelo://app?vid=f639eb92-509e-4052-8835-e15d5e9042f8","ios":"levelo://app?vid=f639eb92-509e-4052-8835-e15d5e9042f8"},"vehicle_type_id":"4","last_reported":1730473772,"current_range_meters":9600,"station_id":"ce4bhm12rcd13ifvqgkg","pricing_plan_id":"cebpf4jnsgd1na2vs0mg"},{"bike_id":"9ee03537-9456-4f3d-b39a-87b125e38d8e","system_id":"levelo_inurba_marseille","lat":43.3076,"lon":5.43503,"is_reserved":false,"is_disabled":false,"rental_uris":{"android":"levelo://app?vid=9ee03537-9456-4f3d-b39a-87b125e38d8e","ios":"levelo://app?vid=9ee03537-9456-4f3d-b39a-87b125e38d8e"},"vehicle_type_id":"4","last_reported":1730473772,"current_range_meters":8800,"station_id":"","pricing_plan_id":"cebpf4jnsgd1na2vs0mg"},{"bike_id":"ef8a3dd0-a226-438e-8379-aa279fca8109","system_id":"levelo_inurba_marseille","lat":43.24393,"lon":5.37061,"is_reserved":false,"is_disabled":false,"rental_uris":{"android":"levelo://app?vid=ef8a3dd0-a226-438e-8379-aa279fca8109","ios":"levelo://app?vid=ef8a3dd0-a226-438e-8379-aa279fca8109"},"vehicle_type_id":"4","last_reported":1730473772,"current_range_meters":25200,"station_id":"ce4bhhh2rcd13ifvqfk0","pricing_plan_id":"cebpf4jnsgd1na2vs0mg"},{"bike_id":"4e4e17f7-8a40-41d0-b503-28bfbcae5c24","system_id":"levelo_inurba_marseille","lat":43.28616,"lon":5.35103,"is_reserved":false,"is_disabled":false,"rental_uris":{"android":"levelo://app?vid=4e4e17f7-8a40-41d0-b503-28bfbcae5c24","ios":"levelo://app?vid=4e4e17f7-8a40-41d0-b503-28bfbcae5c24"},"vehicle_type_id":"4","last_reported":1730473772,"current_range_meters":36400,"station_id":"ce4bhch2rcd13ifvqeug","pricing_plan_id":"cebpf4jnsgd1na2vs0mg"},{"bike_id":"fe198506-445a-4fd4-ad81-1c93c83826aa","system_id":"levelo_inurba_marseille","lat":43.28619,"lon":5.35103,"is_reserved":false,"is_disabled":false,"rental_uris":{"android":"levelo://app?vid=fe198506-445a-4fd4-ad81-1c93c83826aa","ios":"levelo://app?vid=fe198506-445a-4fd4-ad81-1c93c83826aa"},"vehicle_type_id":"4","last_reported":1730473772,"current_range_meters":38800,"station_id":"ce4bhch2rcd13ifvqeug","pricing_plan_id":"cebpf4jnsgd1na2vs0mg"},{"bike_id":"54b1db93-7993-4b47-8da3-8dc269c2f8e9","system_id":"levelo_inurba_marseille","lat":43.26209,"lon":5.37928,"is_reserved":false,"is_disabled":false,"rental_uris":{"android":"levelo://app?vid=54b1db93-7993-4b47-8da3-8dc269c2f8e9","ios":"levelo://app?vid=54b1db93-7993-4b47-8da3-8dc269c2f8e9"},"vehicle_type_id":"4","last_reported":1730473772,"current_range_meters":20400,"station_id":"ce4bhjp2rcd13ifvqg90","pricing_plan_id":"cebpf4jnsgd1na2vs0mg"},{"bike_id":"fadda05f-95af-4152-ab41-ce3a2d7a3da6","system_id":"levelo_inurba_marseille","lat":43.27816,"lon":5.4071,"is_reserved":false,"is_disabled":false,"rental_uris":{"android":"levelo://app?vid=fadda05f-95af-4152-ab41-ce3a2d7a3da6","ios":"levelo://app?vid=fadda05f-95af-4152-ab41-ce3a2d7a3da6"},"vehicle_type_id":"4","last_reported":1730473772,"current_range_meters":36000,"station_id":"ce4bhnh2rcd13ifvqgtg","pricing_plan_id":"cebpf4jnsgd1na2vs0mg"},{"bike_id":"c3892579-34c0-4f4d-b3e9-6b40091087e9","system_id":"levelo_inurba_marseille","lat":43.28411,"lon":5.35003,"is_reserved":false,"is_disabled":false,"rental_uris":{"android":"levelo://app?vid=c3892579-34c0-4f4d-b3e9-6b40091087e9","ios":"levelo://app?vid=c3892579-34c0-4f4d-b3e9-6b40091087e9"},"vehicle_type_id":"4","last_reported":1730473772,"current_range_meters":13600,"station_id":"ce4bhbh2rcd13ifvqepg","pricing_plan_id":"cebpf4jnsgd1na2vs0mg"},{"bike_id":"f7cd2e11-9116-45d3-91bc-6140ce51beb9","system_id":"levelo_inurba_marseille","lat":43.2841,"lon":5.34999,"is_reserved":false,"is_disabled":false,"rental_uris":{"android":"levelo://app?vid=f7cd2e11-9116-45d3-91bc-6140ce51beb9","ios":"levelo://app?vid=f7cd2e11-9116-45d3-91bc-6140ce51beb9"},"vehicle_type_id":"4","last_reported":1730473772,"current_range_meters":32000,"station_id":"ce4bhbh2rcd13ifvqepg","pricing_plan_id":"cebpf4jnsgd1na2vs0mg"},{"bike_id":"af4e9ea9-0a7b-461e-a196-6a3fb6b64b49","system_id":"levelo_inurba_marseille","lat":43.23196,"lon":5.35552,"is_reserved":false,"is_disabled":false,"rental_uris":{"android":"levelo://app?vid=af4e9ea9-0a7b-461e-a196-6a3fb6b64b49","ios":"levelo://app?vid=af4e9ea9-0a7b-461e-a196-6a3fb6b64b49"},"vehicle_type_id":"4","last_reported":1730473772,"current_range_meters":28400,"station_id":"ce4bhu92rcd13ifvqi70","pricing_plan_id":"cebpf4jnsgd1na2vs0mg"},{"bike_id":"811e443b-5092-4160-8592-7140e98d5492","system_id":"levelo_inurba_marseille","lat":43.28413,"lon":5.34983,"is_reserved":false,"is_disabled":false,"rental_uris":{"android":"levelo://app?vid=811e443b-5092-4160-8592-7140e98d5492","ios":"levelo://app?vid=811e443b-5092-4160-8592-7140e98d5492"},"vehicle_type_id":"4","last_reported":1730473772,"current_range_meters":32000,"station_id":"ce4bhbh2rcd13ifvqepg","pricing_plan_id":"cebpf4jnsgd1na2vs0mg"},{"bike_id":"2277cefc-fedf-41ec-a559-f246613a767d","system_id":"levelo_inurba_marseille","lat":43.31361,"lon":5.38505,"is_reserved":false,"is_disabled":false,"rental_uris":{"android":"levelo://app?vid=2277cefc-fedf-41ec-a559-f246613a767d","ios":"levelo://app?vid=2277cefc-fedf-41ec-a559-f246613a767d"},"vehicle_type_id":"4","last_reported":1730473772,"current_range_meters":38800,"station_id":"ce4bgt92rcd13ifvqcf0","pricing_plan_id":"cebpf4jnsgd1na2vs0mg"},{"bike_id":"e710d57e-fdd5-40bf-a746-5308bce81fd1","system_id":"levelo_inurba_marseille","lat":43.30936,"lon":5.40146,"is_reserved":false,"is_disabled":false,"rental_uris":{"android":"levelo://app?vid=e710d57e-fdd5-40bf-a746-5308bce81fd1","ios":"levelo://app?vid=e710d57e-fdd5-40bf-a746-5308bce81fd1"},"vehicle_type_id":"4","last_reported":1730473772,"current_range_meters":28400,"station_id":"ce4bgvp2rcd13ifvqct0","pricing_plan_id":"cebpf4jnsgd1na2vs0mg"},{"bike_id":"9a622b6c-8f69-4974-b122-b98929aa7a88","system_id":"levelo_inurba_marseille","lat":43.28843,"lon":5.3585,"is_reserved":false,"is_disabled":false,"rental_uris":{"android":"levelo://app?vid=9a622b6c-8f69-4974-b122-b98929aa7a88","ios":"levelo://app?vid=9a622b6c-8f69-4974-b122-b98929aa7a88"},"vehicle_type_id":"4","last_reported":1730473772,"current_range_meters":20800,"station_id":"ce4bhb12rcd13ifvqem0","pricing_plan_id":"cebpf4jnsgd1na2vs0mg"},{"bike_id":"1e6d3eef-818f-4ba0-995d-cddaa5c8a7f5","system_id":"levelo_inurba_marseille","lat":43.28612,"lon":5.35116,"is_reserved":false,"is_disabled":false,"rental_uris":{"android":"levelo://app?vid=1e6d3eef-818f-4ba0-995d-cddaa5c8a7f5","ios":"levelo://app?vid=1e6d3eef-818f-4ba0-995d-cddaa5c8a7f5"},"vehicle_type_id":"4","last_reported":1730473772,"current_range_meters":7200,"station_id":"ce4bhch2rcd13ifvqeug","pricing_plan_id":"cebpf4jnsgd1na2vs0mg"},{"bike_id":"5cdc1805-18c6-4324-84d5-2fd185f784e4","system_id":"levelo_inurba_marseille","lat":43.28618,"lon":5.35116,"is_reserved":false,"is_disabled":false,"rental_uris":{"android":"levelo://app?vid=5cdc1805-18c6-4324-84d5-2fd185f784e4","ios":"levelo://app?vid=5cdc1805-18c6-4324-84d5-2fd185f784e4"},"vehicle_type_id":"4","last_reported":1730473772,"current_range_meters":26000,"station_id":"ce4bhch2rcd13ifvqeug","pricing_plan_id":"cebpf4jnsgd1na2vs0mg"},{"bike_id":"d2df533a-0f6f-45c1-b04a-17e8f7bf61b0","system_id":"levelo_inurba_marseille","lat":43.25491,"lon":5.37648,"is_reserved":false,"is_disabled":false,"rental_uris":{"android":"levelo://app?vid=d2df533a-0f6f-45c1-b04a-17e8f7bf61b0","ios":"levelo://app?vid=d2df533a-0f6f-45c1-b04a-17e8f7bf61b0"},"vehicle_type_id":"4","last_reported":1730473772,"current_range_meters":25600,"station_id":"ce4bhh12rcd13ifvqff0","pricing_plan_id":"cebpf4jnsgd1na2vs0mg"},{"bike_id":"5b1beb29-08c3-4517-96e1-89c4b727e0c3","system_id":"levelo_inurba_marseille","lat":43.23197,"lon":5.35549,"is_reserved":false,"is_disabled":false,"rental_uris":{"android":"levelo://app?vid=5b1beb29-08c3-4517-96e1-89c4b727e0c3","ios":"levelo://app?vid=5b1beb29-08c3-4517-96e1-89c4b727e0c3"},"vehicle_type_id":"4","last_reported":1730473772,"current_range_meters":28800,"station_id":"ce4bhu92rcd13ifvqi70","pricing_plan_id":"cebpf4jnsgd1na2vs0mg"},{"bike_id":"184436cc-2283-4849-99ff-4cf3cfcbd0b4","system_id":"levelo_inurba_marseille","lat":43.27377,"lon":5.36275,"is_reserved":false,"is_disabled":false,"rental_uris":{"android":"levelo://app?vid=184436cc-2283-4849-99ff-4cf3cfcbd0b4","ios":"levelo://app?vid=184436cc-2283-4849-99ff-4cf3cfcbd0b4"},"vehicle_type_id":"4","last_reported":1730473772,"current_range_meters":13600,"station_id":"ce4bhbh2rcd13ifvqeo0","pricing_plan_id":"cebpf4jnsgd1na2vs0mg"},{"bike_id":"f99547b6-e0b7-4a86-b4bb-f600f8ca5cb2","system_id":"levelo_inurba_marseille","lat":43.2418,"lon":5.36396,"is_reserved":false,"is_disabled":false,"rental_uris":{"android":"levelo://app?vid=f99547b6-e0b7-4a86-b4bb-f600f8ca5cb2","ios":"levelo://app?vid=f99547b6-e0b7-4a86-b4bb-f600f8ca5cb2"},"vehicle_type_id":"4","last_reported":1730473772,"current_range_meters":6400,"station_id":"cpo36qri1sfpv3e86is0","pricing_plan_id":"cebpf4jnsgd1na2vs0mg"},{"bike_id":"e6a6d45a-e190-43cb-8101-dd964c389a88","system_id":"levelo_inurba_marseille","lat":43.28419,"lon":5.349866,"is_reserved":false,"is_disabled":false,"rental_uris":{"android":"levelo://app?vid=e6a6d45a-e190-43cb-8101-dd964c389a88","ios":"levelo://app?vid=e6a6d45a-e190-43cb-8101-dd964c389a88"},"vehicle_type_id":"4","last_reported":1730473772,"current_range_meters":38800,"station_id":"ce4bhbh2rcd13ifvqepg","pricing_plan_id":"cebpf4jnsgd1na2vs0mg"},{"bike_id":"8fa1110a-fa4b-46bc-99d4-d3c579d8e890","system_id":"levelo_inurba_marseille","lat":43.28863,"lon":5.35924,"is_reserved":false,"is_disabled":false,"rental_uris":{"android":"levelo://app?vid=8fa1110a-fa4b-46bc-99d4-d3c579d8e890","ios":"levelo://app?vid=8fa1110a-fa4b-46bc-99d4-d3c579d8e890"},"vehicle_type_id":"4","last_reported":1730473772,"current_range_meters":20400,"station_id":"","pricing_plan_id":"cebpf4jnsgd1na2vs0mg"},{"bike_id":"e136f05c-4173-4d3a-8465-ffde765b804b","system_id":"levelo_inurba_marseille","lat":43.26559,"lon":5.39007,"is_reserved":false,"is_disabled":false,"rental_uris":{"android":"levelo://app?vid=e136f05c-4173-4d3a-8465-ffde765b804b","ios":"levelo://app?vid=e136f05c-4173-4d3a-8465-ffde765b804b"},"vehicle_type_id":"4","last_reported":1730473772,"current_range_meters":36400,"station_id":"ce4bhe12rcd13ifvqf30","pricing_plan_id":"cebpf4jnsgd1na2vs0mg"},{"bike_id":"794d23c0-def7-4557-a69a-112ea268f585","system_id":"levelo_inurba_marseille","lat":43.2319,"lon":5.35558,"is_reserved":false,"is_disabled":false,"rental_uris":{"android":"levelo://app?vid=794d23c0-def7-4557-a69a-112ea268f585","ios":"levelo://app?vid=794d23c0-def7-4557-a69a-112ea268f585"},"vehicle_type_id":"4","last_reported":1730473772,"current_range_meters":38800,"station_id":"ce4bhu92rcd13ifvqi70","pricing_plan_id":"cebpf4jnsgd1na2vs0mg"},{"bike_id":"22db0d88-2821-4c74-a36a-fb8be6fc77b6","system_id":"levelo_inurba_marseille","lat":43.29935,"lon":5.36554,"is_reserved":false,"is_disabled":false,"rental_uris":{"android":"levelo://app?vid=22db0d88-2821-4c74-a36a-fb8be6fc77b6","ios":"levelo://app?vid=22db0d88-2821-4c74-a36a-fb8be6fc77b6"},"vehicle_type_id":"4","last_reported":1730473772,"current_range_meters":25600,"station_id":"ce4bgm92rcd13ifvqbr0","pricing_plan_id":"cebpf4jnsgd1na2vs0mg"},{"bike_id":"ac76ff47-c0e6-4b1a-9762-87652d1d1a56","system_id":"levelo_inurba_marseille","lat":43.22933,"lon":5.35377,"is_reserved":false,"is_disabled":false,"rental_uris":{"android":"levelo://app?vid=ac76ff47-c0e6-4b1a-9762-87652d1d1a56","ios":"levelo://app?vid=ac76ff47-c0e6-4b1a-9762-87652d1d1a56"},"vehicle_type_id":"4","last_reported":1730473772,"current_range_meters":6000,"station_id":"cpo3532slgdg3j2ikp40","pricing_plan_id":"cebpf4jnsgd1na2vs0mg"},{"bike_id":"c9fe9305-e5b5-403a-8ac6-ee784523647c","system_id":"levelo_inurba_marseille","lat":43.23433,"lon":5.35945,"is_reserved":false,"is_disabled":false,"rental_uris":{"android":"levelo://app?vid=c9fe9305-e5b5-403a-8ac6-ee784523647c","ios":"levelo://app?vid=c9fe9305-e5b5-403a-8ac6-ee784523647c"},"vehicle_type_id":"4","last_reported":1730473772,"current_range_meters":22800,"station_id":"","pricing_plan_id":"cebpf4jnsgd1na2vs0mg"},{"bike_id":"1457e520-5f81-4350-8a0e-59a53e77d12a","system_id":"levelo_inurba_marseille","lat":43.28407,"lon":5.3498,"is_reserved":false,"is_disabled":false,"rental_uris":{"android":"levelo://app?vid=1457e520-5f81-4350-8a0e-59a53e77d12a","ios":"levelo://app?vid=1457e520-5f81-4350-8a0e-59a53e77d12a"},"vehicle_type_id":"4","last_reported":1730473772,"current_range_meters":32400,"station_id":"ce4bhbh2rcd13ifvqepg","pricing_plan_id":"cebpf4jnsgd1na2vs0mg"},{"bike_id":"659d006a-9137-470a-a780-ed5d1116479b","system_id":"levelo_inurba_marseille","lat":43.2872,"lon":5.37937,"is_reserved":false,"is_disabled":false,"rental_uris":{"android":"levelo://app?vid=659d006a-9137-470a-a780-ed5d1116479b","ios":"levelo://app?vid=659d006a-9137-470a-a780-ed5d1116479b"},"vehicle_type_id":"4","last_reported":1730473772,"current_range_meters":28400,"station_id":"ce4bh9p2rcd13ifvqec0","pricing_plan_id":"cebpf4jnsgd1na2vs0mg"},{"bike_id":"10d0f90a-5bf8-4868-a2e1-d211884c4b7d","system_id":"levelo_inurba_marseille","lat":43.26208,"lon":5.37446,"is_reserved":false,"is_disabled":false,"rental_uris":{"android":"levelo://app?vid=10d0f90a-5bf8-4868-a2e1-d211884c4b7d","ios":"levelo://app?vid=10d0f90a-5bf8-4868-a2e1-d211884c4b7d"},"vehicle_type_id":"4","last_reported":1730473772,"current_range_meters":32800,"station_id":"ce4bhgp2rcd13ifvqfc0","pricing_plan_id":"cebpf4jnsgd1na2vs0mg"},{"bike_id":"584bf708-4fbc-41e0-902d-e215a4271f18","system_id":"levelo_inurba_marseille","lat":43.30432,"lon":5.38901,"is_reserved":false,"is_disabled":false,"rental_uris":{"android":"levelo://app?vid=584bf708-4fbc-41e0-902d-e215a4271f18","ios":"levelo://app?vid=584bf708-4fbc-41e0-902d-e215a4271f18"},"vehicle_type_id":"4","last_reported":1730473772,"current_range_meters":38800,"station_id":"ce4bgk12rcd13ifvqbi0","pricing_plan_id":"cebpf4jnsgd1na2vs0mg"},{"bike_id":"6ed9443b-e4ec-4b63-bd3e-b6eadab01a96","system_id":"levelo_inurba_marseille","lat":43.28451,"lon":5.35895,"is_reserved":false,"is_disabled":false,"rental_uris":{"android":"levelo://app?vid=6ed9443b-e4ec-4b63-bd3e-b6eadab01a96","ios":"levelo://app?vid=6ed9443b-e4ec-4b63-bd3e-b6eadab01a96"},"vehicle_type_id":"4","last_reported":1730473772,"current_range_meters":25600,"station_id":"ce4bhah2rcd13ifvqei0","pricing_plan_id":"cebpf4jnsgd1na2vs0mg"},{"bike_id":"4d54dee4-abc6-458f-99a7-45ce50c413d1","system_id":"levelo_inurba_marseille","lat":43.28617,"lon":5.35098,"is_reserved":false,"is_disabled":false,"rental_uris":{"android":"levelo://app?vid=4d54dee4-abc6-458f-99a7-45ce50c413d1","ios":"levelo://app?vid=4d54dee4-abc6-458f-99a7-45ce50c413d1"},"vehicle_type_id":"4","last_reported":1730473772,"current_range_meters":38000,"station_id":"ce4bhch2rcd13ifvqeug","pricing_plan_id":"cebpf4jnsgd1na2vs0mg"},{"bike_id":"9371ec22-28e8-4a60-ad3e-a03e315b6981","system_id":"levelo_inurba_marseille","lat":43.26683,"lon":5.38271,"is_reserved":false,"is_disabled":false,"rental_uris":{"android":"levelo://app?vid=9371ec22-28e8-4a60-ad3e-a03e315b6981","ios":"levelo://app?vid=9371ec22-28e8-4a60-ad3e-a03e315b6981"},"vehicle_type_id":"4","last_reported":1730473772,"current_range_meters":38800,"station_id":"ce4bhg92rcd13ifvqf90","pricing_plan_id":"cebpf4jnsgd1na2vs0mg"},{"bike_id":"94e5a78a-7095-4be1-a4e8-698f69574a49","system_id":"levelo_inurba_marseille","lat":43.23192,"lon":5.3555,"is_reserved":false,"is_disabled":false,"rental_uris":{"android":"levelo://app?vid=94e5a78a-7095-4be1-a4e8-698f69574a49","ios":"levelo://app?vid=94e5a78a-7095-4be1-a4e8-698f69574a49"},"vehicle_type_id":"4","last_reported":1730473772,"current_range_meters":28000,"station_id":"ce4bhu92rcd13ifvqi70","pricing_plan_id":"cebpf4jnsgd1na2vs0mg"},{"bike_id":"e28f4cf4-aaa0-4089-94fb-a26e49eaf87d","system_id":"levelo_inurba_marseille","lat":43.23189,"lon":5.39987,"is_reserved":false,"is_disabled":false,"rental_uris":{"android":"levelo://app?vid=e28f4cf4-aaa0-4089-94fb-a26e49eaf87d","ios":"levelo://app?vid=e28f4cf4-aaa0-4089-94fb-a26e49eaf87d"},"vehicle_type_id":"4","last_reported":1730473772,"current_range_meters":6000,"station_id":"ce4bhn12rcd13ifvqgqg","pricing_plan_id":"cebpf4jnsgd1na2vs0mg"},{"bike_id":"b82e46bd-dd93-438e-8032-253c0ff00e77","system_id":"levelo_inurba_marseille","lat":43.28616,"lon":5.35107,"is_reserved":false,"is_disabled":false,"rental_uris":{"android":"levelo://app?vid=b82e46bd-dd93-438e-8032-253c0ff00e77","ios":"levelo://app?vid=b82e46bd-dd93-438e-8032-253c0ff00e77"},"vehicle_type_id":"4","last_reported":1730473772,"current_range_meters":33200,"station_id":"ce4bhch2rcd13ifvqeug","pricing_plan_id":"cebpf4jnsgd1na2vs0mg"},{"bike_id":"367151e3-d9d1-496e-afc3-1d3ad14f98c6","system_id":"levelo_inurba_marseille","lat":43.32369,"lon":5.38892,"is_reserved":false,"is_disabled":false,"rental_uris":{"android":"levelo://app?vid=367151e3-d9d1-496e-afc3-1d3ad14f98c6","ios":"levelo://app?vid=367151e3-d9d1-496e-afc3-1d3ad14f98c6"},"vehicle_type_id":"4","last_reported":1730473772,"current_range_meters":37600,"station_id":"ce4bhqp2rcd13ifvqhog","pricing_plan_id":"cebpf4jnsgd1na2vs0mg"},{"bike_id":"e6d423af-6f58-47ca-9288-a4c2033ee6f3","system_id":"levelo_inurba_marseille","lat":43.28151,"lon":5.42655,"is_reserved":false,"is_disabled":false,"rental_uris":{"android":"levelo://app?vid=e6d423af-6f58-47ca-9288-a4c2033ee6f3","ios":"levelo://app?vid=e6d423af-6f58-47ca-9288-a4c2033ee6f3"},"vehicle_type_id":"4","last_reported":1730473772,"current_range_meters":4400,"station_id":"ce4bhnh2rcd13ifvqgug","pricing_plan_id":"cebpf4jnsgd1na2vs0mg"},{"bike_id":"707604b6-c6b3-46a1-a0b3-4a69400962f8","system_id":"levelo_inurba_marseille","lat":43.27489,"lon":5.42459,"is_reserved":false,"is_disabled":false,"rental_uris":{"android":"levelo://app?vid=707604b6-c6b3-46a1-a0b3-4a69400962f8","ios":"levelo://app?vid=707604b6-c6b3-46a1-a0b3-4a69400962f8"},"vehicle_type_id":"4","last_reported":1730473772,"current_range_meters":32000,"station_id":"ce4bhn92rcd13ifvqgrg","pricing_plan_id":"cebpf4jnsgd1na2vs0mg"},{"bike_id":"3db5e58c-baad-4ec5-bbd7-11d14bcba0d3","system_id":"levelo_inurba_marseille","lat":43.26951,"lon":5.38631,"is_reserved":false,"is_disabled":false,"rental_uris":{"android":"levelo://app?vid=3db5e58c-baad-4ec5-bbd7-11d14bcba0d3","ios":"levelo://app?vid=3db5e58c-baad-4ec5-bbd7-11d14bcba0d3"},"vehicle_type_id":"4","last_reported":1730473772,"current_range_meters":6800,"station_id":"ce4bhh92rcd13ifvqfh0","pricing_plan_id":"cebpf4jnsgd1na2vs0mg"},{"bike_id":"6345230e-f6a0-407f-8be7-e1e90f767494","system_id":"levelo_inurba_marseille","lat":43.275665,"lon":5.384292,"is_reserved":false,"is_disabled":false,"rental_uris":{"android":"levelo://app?vid=6345230e-f6a0-407f-8be7-e1e90f767494","ios":"levelo://app?vid=6345230e-f6a0-407f-8be7-e1e90f767494"},"vehicle_type_id":"4","last_reported":1730473772,"current_range_meters":24800,"station_id":"ce4bhh92rcd13ifvqfi0","pricing_plan_id":"cebpf4jnsgd1na2vs0mg"},{"bike_id":"609923c5-7e07-4c34-a3d0-fc79f4522099","system_id":"levelo_inurba_marseille","lat":43.23196,"lon":5.35557,"is_reserved":false,"is_disabled":false,"rental_uris":{"android":"levelo://app?vid=609923c5-7e07-4c34-a3d0-fc79f4522099","ios":"levelo://app?vid=609923c5-7e07-4c34-a3d0-fc79f4522099"},"vehicle_type_id":"4","last_reported":1730473772,"current_range_meters":14400,"station_id":"ce4bhu92rcd13ifvqi70","pricing_plan_id":"cebpf4jnsgd1na2vs0mg"},{"bike_id":"ea9f1d18-2b19-4bf9-82c6-382290adc5b8","system_id":"levelo_inurba_marseille","lat":43.28265,"lon":5.35066,"is_reserved":false,"is_disabled":false,"rental_uris":{"android":"levelo://app?vid=ea9f1d18-2b19-4bf9-82c6-382290adc5b8","ios":"levelo://app?vid=ea9f1d18-2b19-4bf9-82c6-382290adc5b8"},"vehicle_type_id":"4","last_reported":1730473772,"current_range_meters":25200,"station_id":"ce4bhbp2rcd13ifvqerg","pricing_plan_id":"cebpf4jnsgd1na2vs0mg"},{"bike_id":"76728138-a0ca-4f4a-b849-38a4ff45a9c5","system_id":"levelo_inurba_marseille","lat":43.27996,"lon":5.41661,"is_reserved":false,"is_disabled":false,"rental_uris":{"android":"levelo://app?vid=76728138-a0ca-4f4a-b849-38a4ff45a9c5","ios":"levelo://app?vid=76728138-a0ca-4f4a-b849-38a4ff45a9c5"},"vehicle_type_id":"4","last_reported":1730473772,"current_range_meters":38800,"station_id":"ce4bho12rcd13ifvqh1g","pricing_plan_id":"cebpf4jnsgd1na2vs0mg"},{"bike_id":"5b56874c-c7a1-46f2-acff-a7978e67ef45","system_id":"levelo_inurba_marseille","lat":43.24394,"lon":5.3707,"is_reserved":false,"is_disabled":false,"rental_uris":{"android":"levelo://app?vid=5b56874c-c7a1-46f2-acff-a7978e67ef45","ios":"levelo://app?vid=5b56874c-c7a1-46f2-acff-a7978e67ef45"},"vehicle_type_id":"4","last_reported":1730473772,"current_range_meters":23200,"station_id":"ce4bhhh2rcd13ifvqfk0","pricing_plan_id":"cebpf4jnsgd1na2vs0mg"},{"bike_id":"58748d2a-dff2-4bfe-ba69-a9beed25e62c","system_id":"levelo_inurba_marseille","lat":43.27112,"lon":5.39449,"is_reserved":false,"is_disabled":false,"rental_uris":{"android":"levelo://app?vid=58748d2a-dff2-4bfe-ba69-a9beed25e62c","ios":"levelo://app?vid=58748d2a-dff2-4bfe-ba69-a9beed25e62c"},"vehicle_type_id":"4","last_reported":1730473772,"current_range_meters":22400,"station_id":"","pricing_plan_id":"cebpf4jnsgd1na2vs0mg"},{"bike_id":"4a1a7b66-e76a-439d-b3d0-2d091971f57f","system_id":"levelo_inurba_marseille","lat":43.309337,"lon":5.401379,"is_reserved":false,"is_disabled":false,"rental_uris":{"android":"levelo://app?vid=4a1a7b66-e76a-439d-b3d0-2d091971f57f","ios":"levelo://app?vid=4a1a7b66-e76a-439d-b3d0-2d091971f57f"},"vehicle_type_id":"4","last_reported":1730473772,"current_range_meters":36400,"station_id":"ce4bgvp2rcd13ifvqct0","pricing_plan_id":"cebpf4jnsgd1na2vs0mg"},{"bike_id":"2cd6bcb7-a1c3-4fad-948d-ddbb771cb8a9","system_id":"levelo_inurba_marseille","lat":43.24998,"lon":5.38937,"is_reserved":false,"is_disabled":false,"rental_uris":{"android":"levelo://app?vid=2cd6bcb7-a1c3-4fad-948d-ddbb771cb8a9","ios":"levelo://app?vid=2cd6bcb7-a1c3-4fad-948d-ddbb771cb8a9"},"vehicle_type_id":"4","last_reported":1730473772,"current_range_meters":27200,"station_id":"ce4bhgp2rcd13ifvqfd0","pricing_plan_id":"cebpf4jnsgd1na2vs0mg"},{"bike_id":"819560b3-07b7-47c9-9936-06dfb2faf181","system_id":"levelo_inurba_marseille","lat":43.23193,"lon":5.35552,"is_reserved":false,"is_disabled":false,"rental_uris":{"android":"levelo://app?vid=819560b3-07b7-47c9-9936-06dfb2faf181","ios":"levelo://app?vid=819560b3-07b7-47c9-9936-06dfb2faf181"},"vehicle_type_id":"4","last_reported":1730473772,"current_range_meters":25200,"station_id":"ce4bhu92rcd13ifvqi70","pricing_plan_id":"cebpf4jnsgd1na2vs0mg"},{"bike_id":"e8bb2e43-06e1-4662-9540-13b29d948ad5","system_id":"levelo_inurba_marseille","lat":43.33725,"lon":5.39187,"is_reserved":false,"is_disabled":false,"rental_uris":{"android":"levelo://app?vid=e8bb2e43-06e1-4662-9540-13b29d948ad5","ios":"levelo://app?vid=e8bb2e43-06e1-4662-9540-13b29d948ad5"},"vehicle_type_id":"4","last_reported":1730473772,"current_range_meters":8400,"station_id":"ce4bhr92rcd13ifvqhsg","pricing_plan_id":"cebpf4jnsgd1na2vs0mg"},{"bike_id":"c3667759-f5d5-490f-bbd8-78ff8e82eb46","system_id":"levelo_inurba_marseille","lat":43.281544,"lon":5.42649,"is_reserved":false,"is_disabled":false,"rental_uris":{"android":"levelo://app?vid=c3667759-f5d5-490f-bbd8-78ff8e82eb46","ios":"levelo://app?vid=c3667759-f5d5-490f-bbd8-78ff8e82eb46"},"vehicle_type_id":"4","last_reported":1730473772,"current_range_meters":22400,"station_id":"ce4bhnh2rcd13ifvqgug","pricing_plan_id":"cebpf4jnsgd1na2vs0mg"},{"bike_id":"0444b311-7996-4c57-b0a2-65d829b737ba","system_id":"levelo_inurba_marseille","lat":43.263523,"lon":5.396082,"is_reserved":false,"is_disabled":false,"rental_uris":{"android":"levelo://app?vid=0444b311-7996-4c57-b0a2-65d829b737ba","ios":"levelo://app?vid=0444b311-7996-4c57-b0a2-65d829b737ba"},"vehicle_type_id":"4","last_reported":1730473772,"current_range_meters":26800,"station_id":"ce4bh492rcd13ifvqdvg","pricing_plan_id":"cebpf4jnsgd1na2vs0mg"},{"bike_id":"519ed868-bf2d-403e-82a3-e650632e4ae9","system_id":"levelo_inurba_marseille","lat":43.28616,"lon":5.35109,"is_reserved":false,"is_disabled":false,"rental_uris":{"android":"levelo://app?vid=519ed868-bf2d-403e-82a3-e650632e4ae9","ios":"levelo://app?vid=519ed868-bf2d-403e-82a3-e650632e4ae9"},"vehicle_type_id":"4","last_reported":1730473772,"current_range_meters":24800,"station_id":"ce4bhch2rcd13ifvqeug","pricing_plan_id":"cebpf4jnsgd1na2vs0mg"},{"bike_id":"94279a57-03c0-47b7-abe3-7226e86fd3b0","system_id":"levelo_inurba_marseille","lat":43.27617,"lon":5.36122,"is_reserved":false,"is_disabled":false,"rental_uris":{"android":"levelo://app?vid=94279a57-03c0-47b7-abe3-7226e86fd3b0","ios":"levelo://app?vid=94279a57-03c0-47b7-abe3-7226e86fd3b0"},"vehicle_type_id":"4","last_reported":1730473772,"current_range_meters":24800,"station_id":"ce4bgj92rcd13ifvqbe0","pricing_plan_id":"cebpf4jnsgd1na2vs0mg"},{"bike_id":"075a9b24-064f-4687-8f31-ecc829471959","system_id":"levelo_inurba_marseille","lat":43.33028,"lon":5.39052,"is_reserved":false,"is_disabled":false,"rental_uris":{"android":"levelo://app?vid=075a9b24-064f-4687-8f31-ecc829471959","ios":"levelo://app?vid=075a9b24-064f-4687-8f31-ecc829471959"},"vehicle_type_id":"4","last_reported":1730473772,"current_range_meters":15200,"station_id":"ce4bhr92rcd13ifvqhrg","pricing_plan_id":"cebpf4jnsgd1na2vs0mg"},{"bike_id":"f07d30ad-dc4e-4f01-9844-5e797d384c62","system_id":"levelo_inurba_marseille","lat":43.26057,"lon":5.394,"is_reserved":false,"is_disabled":false,"rental_uris":{"android":"levelo://app?vid=f07d30ad-dc4e-4f01-9844-5e797d384c62","ios":"levelo://app?vid=f07d30ad-dc4e-4f01-9844-5e797d384c62"},"vehicle_type_id":"4","last_reported":1730473772,"current_range_meters":22400,"station_id":"ce4bhh92rcd13ifvqfj0","pricing_plan_id":"cebpf4jnsgd1na2vs0mg"},{"bike_id":"611595ee-1303-42b9-b367-7efb000ebc9e","system_id":"levelo_inurba_marseille","lat":43.280322,"lon":5.353468,"is_reserved":false,"is_disabled":false,"rental_uris":{"android":"levelo://app?vid=611595ee-1303-42b9-b367-7efb000ebc9e","ios":"levelo://app?vid=611595ee-1303-42b9-b367-7efb000ebc9e"},"vehicle_type_id":"4","last_reported":1730473772,"current_range_meters":4400,"station_id":"","pricing_plan_id":"cebpf4jnsgd1na2vs0mg"},{"bike_id":"ce7a9679-1309-4337-a277-05901a838b7d","system_id":"levelo_inurba_marseille","lat":43.29364,"lon":5.43434,"is_reserved":false,"is_disabled":false,"rental_uris":{"android":"levelo://app?vid=ce7a9679-1309-4337-a277-05901a838b7d","ios":"levelo://app?vid=ce7a9679-1309-4337-a277-05901a838b7d"},"vehicle_type_id":"4","last_reported":1730473772,"current_range_meters":16800,"station_id":"","pricing_plan_id":"cebpf4jnsgd1na2vs0mg"},{"bike_id":"62cc4766-8c4f-4c68-b806-619b96217818","system_id":"levelo_inurba_marseille","lat":43.25115,"lon":5.40317,"is_reserved":false,"is_disabled":false,"rental_uris":{"android":"levelo://app?vid=62cc4766-8c4f-4c68-b806-619b96217818","ios":"levelo://app?vid=62cc4766-8c4f-4c68-b806-619b96217818"},"vehicle_type_id":"4","last_reported":1730473772,"current_range_meters":9600,"station_id":"ce4bhlh2rcd13ifvqgig","pricing_plan_id":"cebpf4jnsgd1na2vs0mg"},{"bike_id":"1fe219b2-8626-414e-8d61-0586c316f82f","system_id":"levelo_inurba_marseille","lat":43.2549,"lon":5.37646,"is_reserved":false,"is_disabled":false,"rental_uris":{"android":"levelo://app?vid=1fe219b2-8626-414e-8d61-0586c316f82f","ios":"levelo://app?vid=1fe219b2-8626-414e-8d61-0586c316f82f"},"vehicle_type_id":"4","last_reported":1730473772,"current_range_meters":8800,"station_id":"ce4bhh12rcd13ifvqff0","pricing_plan_id":"cebpf4jnsgd1na2vs0mg"},{"bike_id":"60a213fe-59a6-4547-aec6-ca86bbe101dc","system_id":"levelo_inurba_marseille","lat":43.337444,"lon":5.374475,"is_reserved":false,"is_disabled":false,"rental_uris":{"android":"levelo://app?vid=60a213fe-59a6-4547-aec6-ca86bbe101dc","ios":"levelo://app?vid=60a213fe-59a6-4547-aec6-ca86bbe101dc"},"vehicle_type_id":"4","last_reported":1730473772,"current_range_meters":2800,"station_id":"","pricing_plan_id":"cebpf4jnsgd1na2vs0mg"},{"bike_id":"bd6a7da4-414c-4f67-a401-ea89588c6516","system_id":"levelo_inurba_marseille","lat":43.23056,"lon":5.35493,"is_reserved":false,"is_disabled":false,"rental_uris":{"android":"levelo://app?vid=bd6a7da4-414c-4f67-a401-ea89588c6516","ios":"levelo://app?vid=bd6a7da4-414c-4f67-a401-ea89588c6516"},"vehicle_type_id":"4","last_reported":1730473772,"current_range_meters":20400,"station_id":"cpo3342slgdg3j2ifvpg","pricing_plan_id":"cebpf4jnsgd1na2vs0mg"},{"bike_id":"52efe13c-2b42-4b1e-a94c-1a532510eed2","system_id":"levelo_inurba_marseille","lat":43.31362,"lon":5.38489,"is_reserved":false,"is_disabled":false,"rental_uris":{"android":"levelo://app?vid=52efe13c-2b42-4b1e-a94c-1a532510eed2","ios":"levelo://app?vid=52efe13c-2b42-4b1e-a94c-1a532510eed2"},"vehicle_type_id":"4","last_reported":1730473772,"current_range_meters":15200,"station_id":"ce4bgjh2rcd13ifvqbf0","pricing_plan_id":"cebpf4jnsgd1na2vs0mg"},{"bike_id":"adf0a568-b210-4d8d-a616-1be5a3c57b8f","system_id":"levelo_inurba_marseille","lat":43.24815,"lon":5.37461,"is_reserved":false,"is_disabled":false,"rental_uris":{"android":"levelo://app?vid=adf0a568-b210-4d8d-a616-1be5a3c57b8f","ios":"levelo://app?vid=adf0a568-b210-4d8d-a616-1be5a3c57b8f"},"vehicle_type_id":"4","last_reported":1730473772,"current_range_meters":16000,"station_id":"ce4bhgh2rcd13ifvqfb0","pricing_plan_id":"cebpf4jnsgd1na2vs0mg"},{"bike_id":"ffcea463-c3ed-497e-8095-385644b9476c","system_id":"levelo_inurba_marseille","lat":43.28421,"lon":5.34998,"is_reserved":false,"is_disabled":false,"rental_uris":{"android":"levelo://app?vid=ffcea463-c3ed-497e-8095-385644b9476c","ios":"levelo://app?vid=ffcea463-c3ed-497e-8095-385644b9476c"},"vehicle_type_id":"4","last_reported":1730473772,"current_range_meters":38800,"station_id":"ce4bhbh2rcd13ifvqepg","pricing_plan_id":"cebpf4jnsgd1na2vs0mg"},{"bike_id":"e6aff83f-c6c9-4883-982c-d9366a6849a9","system_id":"levelo_inurba_marseille","lat":43.29196,"lon":5.39331,"is_reserved":false,"is_disabled":false,"rental_uris":{"android":"levelo://app?vid=e6aff83f-c6c9-4883-982c-d9366a6849a9","ios":"levelo://app?vid=e6aff83f-c6c9-4883-982c-d9366a6849a9"},"vehicle_type_id":"4","last_reported":1730473772,"current_range_meters":11600,"station_id":"ce4bh192rcd13ifvqdd0","pricing_plan_id":"cebpf4jnsgd1na2vs0mg"},{"bike_id":"2ba8a978-79b4-4046-9902-57544feaa3ea","system_id":"levelo_inurba_marseille","lat":43.28413,"lon":5.34989,"is_reserved":false,"is_disabled":false,"rental_uris":{"android":"levelo://app?vid=2ba8a978-79b4-4046-9902-57544feaa3ea","ios":"levelo://app?vid=2ba8a978-79b4-4046-9902-57544feaa3ea"},"vehicle_type_id":"4","last_reported":1730473772,"current_range_meters":13600,"station_id":"ce4bhbh2rcd13ifvqepg","pricing_plan_id":"cebpf4jnsgd1na2vs0mg"},{"bike_id":"fdd816e1-ffb8-43ab-a99d-87aee9a789c2","system_id":"levelo_inurba_marseille","lat":43.33611,"lon":5.4104,"is_reserved":false,"is_disabled":false,"rental_uris":{"android":"levelo://app?vid=fdd816e1-ffb8-43ab-a99d-87aee9a789c2","ios":"levelo://app?vid=fdd816e1-ffb8-43ab-a99d-87aee9a789c2"},"vehicle_type_id":"4","last_reported":1730473772,"current_range_meters":37600,"station_id":"ce4bhqh2rcd13ifvqhmg","pricing_plan_id":"cebpf4jnsgd1na2vs0mg"},{"bike_id":"1ebc8786-c52d-4e67-847f-d6f927afb8d4","system_id":"levelo_inurba_marseille","lat":43.28403,"lon":5.37513,"is_reserved":false,"is_disabled":false,"rental_uris":{"android":"levelo://app?vid=1ebc8786-c52d-4e67-847f-d6f927afb8d4","ios":"levelo://app?vid=1ebc8786-c52d-4e67-847f-d6f927afb8d4"},"vehicle_type_id":"4","last_reported":1730473772,"current_range_meters":14800,"station_id":"ce4bh412rcd13ifvqds0","pricing_plan_id":"cebpf4jnsgd1na2vs0mg"},{"bike_id":"df929ed3-557f-4e11-9511-f0d001c9bb7d","system_id":"levelo_inurba_marseille","lat":43.28419,"lon":5.35008,"is_reserved":false,"is_disabled":false,"rental_uris":{"android":"levelo://app?vid=df929ed3-557f-4e11-9511-f0d001c9bb7d","ios":"levelo://app?vid=df929ed3-557f-4e11-9511-f0d001c9bb7d"},"vehicle_type_id":"4","last_reported":1730473772,"current_range_meters":38400,"station_id":"ce4bhbh2rcd13ifvqepg","pricing_plan_id":"cebpf4jnsgd1na2vs0mg"},{"bike_id":"9c0ce7c2-266b-456a-b600-aad012ecaf01","system_id":"levelo_inurba_marseille","lat":43.26198,"lon":5.37924,"is_reserved":false,"is_disabled":false,"rental_uris":{"android":"levelo://app?vid=9c0ce7c2-266b-456a-b600-aad012ecaf01","ios":"levelo://app?vid=9c0ce7c2-266b-456a-b600-aad012ecaf01"},"vehicle_type_id":"4","last_reported":1730473772,"current_range_meters":38800,"station_id":"ce4bhjp2rcd13ifvqg90","pricing_plan_id":"cebpf4jnsgd1na2vs0mg"},{"bike_id":"41d47d69-979b-4480-8fb6-135de4b1e8ff","system_id":"levelo_inurba_marseille","lat":43.2572,"lon":5.41112,"is_reserved":false,"is_disabled":false,"rental_uris":{"android":"levelo://app?vid=41d47d69-979b-4480-8fb6-135de4b1e8ff","ios":"levelo://app?vid=41d47d69-979b-4480-8fb6-135de4b1e8ff"},"vehicle_type_id":"4","last_reported":1730473772,"current_range_meters":38800,"station_id":"ce4bhkp2rcd13ifvqgd0","pricing_plan_id":"cebpf4jnsgd1na2vs0mg"},{"bike_id":"06680b63-9402-4c2d-bd8c-d5881e972d8b","system_id":"levelo_inurba_marseille","lat":43.24392,"lon":5.3706,"is_reserved":false,"is_disabled":false,"rental_uris":{"android":"levelo://app?vid=06680b63-9402-4c2d-bd8c-d5881e972d8b","ios":"levelo://app?vid=06680b63-9402-4c2d-bd8c-d5881e972d8b"},"vehicle_type_id":"4","last_reported":1730473772,"current_range_meters":35200,"station_id":"ce4bhhh2rcd13ifvqfk0","pricing_plan_id":"cebpf4jnsgd1na2vs0mg"},{"bike_id":"efdcb740-1c7b-4f41-b385-4ce89c19ec84","system_id":"levelo_inurba_marseille","lat":43.29276,"lon":5.36842,"is_reserved":false,"is_disabled":false,"rental_uris":{"android":"levelo://app?vid=efdcb740-1c7b-4f41-b385-4ce89c19ec84","ios":"levelo://app?vid=efdcb740-1c7b-4f41-b385-4ce89c19ec84"},"vehicle_type_id":"4","last_reported":1730473772,"current_range_meters":12800,"station_id":"ce4bhbp2rcd13ifvqesg","pricing_plan_id":"cebpf4jnsgd1na2vs0mg"},{"bike_id":"fbf4cfc5-a87c-41c8-933d-c3bf734cf205","system_id":"levelo_inurba_marseille","lat":43.28944,"lon":5.35517,"is_reserved":false,"is_disabled":false,"rental_uris":{"android":"levelo://app?vid=fbf4cfc5-a87c-41c8-933d-c3bf734cf205","ios":"levelo://app?vid=fbf4cfc5-a87c-41c8-933d-c3bf734cf205"},"vehicle_type_id":"4","last_reported":1730473772,"current_range_meters":28800,"station_id":"","pricing_plan_id":"cebpf4jnsgd1na2vs0mg"},{"bike_id":"6027d0f6-4de9-4272-b89c-7a17052d6828","system_id":"levelo_inurba_marseille","lat":43.2737,"lon":5.36254,"is_reserved":false,"is_disabled":false,"rental_uris":{"android":"levelo://app?vid=6027d0f6-4de9-4272-b89c-7a17052d6828","ios":"levelo://app?vid=6027d0f6-4de9-4272-b89c-7a17052d6828"},"vehicle_type_id":"4","last_reported":1730473772,"current_range_meters":19600,"station_id":"ce4bhbh2rcd13ifvqeo0","pricing_plan_id":"cebpf4jnsgd1na2vs0mg"},{"bike_id":"2e679aa2-6222-4666-94d2-8febbbac34cf","system_id":"levelo_inurba_marseille","lat":43.28943,"lon":5.48069,"is_reserved":false,"is_disabled":false,"rental_uris":{"android":"levelo://app?vid=2e679aa2-6222-4666-94d2-8febbbac34cf","ios":"levelo://app?vid=2e679aa2-6222-4666-94d2-8febbbac34cf"},"vehicle_type_id":"4","last_reported":1730473772,"current_range_meters":6800,"station_id":"ce4bgvp2rcd13ifvqct0","pricing_plan_id":"cebpf4jnsgd1na2vs0mg"},{"bike_id":"f37747ca-e9c4-427d-80e3-aee733adf11b","system_id":"levelo_inurba_marseille","lat":43.23065,"lon":5.35493,"is_reserved":false,"is_disabled":false,"rental_uris":{"android":"levelo://app?vid=f37747ca-e9c4-427d-80e3-aee733adf11b","ios":"levelo://app?vid=f37747ca-e9c4-427d-80e3-aee733adf11b"},"vehicle_type_id":"4","last_reported":1730473772,"current_range_meters":9200,"station_id":"cpo3342slgdg3j2ifvpg","pricing_plan_id":"cebpf4jnsgd1na2vs0mg"},{"bike_id":"a2b24b7e-5aba-4c80-bdb5-7c03d8640965","system_id":"levelo_inurba_marseille","lat":43.26024,"lon":5.37548,"is_reserved":false,"is_disabled":false,"rental_uris":{"android":"levelo://app?vid=a2b24b7e-5aba-4c80-bdb5-7c03d8640965","ios":"levelo://app?vid=a2b24b7e-5aba-4c80-bdb5-7c03d8640965"},"vehicle_type_id":"4","last_reported":1730473772,"current_range_meters":34000,"station_id":"ce4bhgh2rcd13ifvqfa0","pricing_plan_id":"cebpf4jnsgd1na2vs0mg"},{"bike_id":"b75c5775-8ea4-49e3-89f1-e8dab689dbf8","system_id":"levelo_inurba_marseille","lat":43.28614,"lon":5.35104,"is_reserved":false,"is_disabled":false,"rental_uris":{"android":"levelo://app?vid=b75c5775-8ea4-49e3-89f1-e8dab689dbf8","ios":"levelo://app?vid=b75c5775-8ea4-49e3-89f1-e8dab689dbf8"},"vehicle_type_id":"4","last_reported":1730473772,"current_range_meters":14400,"station_id":"ce4bhch2rcd13ifvqeug","pricing_plan_id":"cebpf4jnsgd1na2vs0mg"},{"bike_id":"1dca45a8-0336-4041-83cb-7a06ca40420d","system_id":"levelo_inurba_marseille","lat":43.2319,"lon":5.35559,"is_reserved":false,"is_disabled":false,"rental_uris":{"android":"levelo://app?vid=1dca45a8-0336-4041-83cb-7a06ca40420d","ios":"levelo://app?vid=1dca45a8-0336-4041-83cb-7a06ca40420d"},"vehicle_type_id":"4","last_reported":1730473772,"current_range_meters":8400,"station_id":"ce4bhu92rcd13ifvqi70","pricing_plan_id":"cebpf4jnsgd1na2vs0mg"},{"bike_id":"7166b18b-d423-482d-b695-55db5508b8b0","system_id":"levelo_inurba_marseille","lat":43.290753,"lon":5.371669,"is_reserved":false,"is_disabled":false,"rental_uris":{"android":"levelo://app?vid=7166b18b-d423-482d-b695-55db5508b8b0","ios":"levelo://app?vid=7166b18b-d423-482d-b695-55db5508b8b0"},"vehicle_type_id":"4","last_reported":1730473772,"current_range_meters":8400,"station_id":"ce4bh5p2rcd13ifvqe4g","pricing_plan_id":"cebpf4jnsgd1na2vs0mg"},{"bike_id":"81564ad0-0ff6-439f-ab16-8d10426d2843","system_id":"levelo_inurba_marseille","lat":43.33768,"lon":5.37432,"is_reserved":false,"is_disabled":false,"rental_uris":{"android":"levelo://app?vid=81564ad0-0ff6-439f-ab16-8d10426d2843","ios":"levelo://app?vid=81564ad0-0ff6-439f-ab16-8d10426d2843"},"vehicle_type_id":"4","last_reported":1730473772,"current_range_meters":35200,"station_id":"","pricing_plan_id":"cebpf4jnsgd1na2vs0mg"},{"bike_id":"a4d3867e-9221-45b9-8b6b-6567e09269dd","system_id":"levelo_inurba_marseille","lat":43.28409,"lon":5.35007,"is_reserved":false,"is_disabled":false,"rental_uris":{"android":"levelo://app?vid=a4d3867e-9221-45b9-8b6b-6567e09269dd","ios":"levelo://app?vid=a4d3867e-9221-45b9-8b6b-6567e09269dd"},"vehicle_type_id":"4","last_reported":1730473772,"current_range_meters":19200,"station_id":"ce4bhbh2rcd13ifvqepg","pricing_plan_id":"cebpf4jnsgd1na2vs0mg"},{"bike_id":"0f28cd18-23d0-4435-9e94-35446716ca3f","system_id":"levelo_inurba_marseille","lat":43.27376,"lon":5.36255,"is_reserved":false,"is_disabled":false,"rental_uris":{"android":"levelo://app?vid=0f28cd18-23d0-4435-9e94-35446716ca3f","ios":"levelo://app?vid=0f28cd18-23d0-4435-9e94-35446716ca3f"},"vehicle_type_id":"4","last_reported":1730473772,"current_range_meters":32000,"station_id":"ce4bhbh2rcd13ifvqeo0","pricing_plan_id":"cebpf4jnsgd1na2vs0mg"},{"bike_id":"5c62e7b1-2ff0-4ec5-98a0-e9dc4f28ff32","system_id":"levelo_inurba_marseille","lat":43.290059,"lon":5.35616,"is_reserved":false,"is_disabled":false,"rental_uris":{"android":"levelo://app?vid=5c62e7b1-2ff0-4ec5-98a0-e9dc4f28ff32","ios":"levelo://app?vid=5c62e7b1-2ff0-4ec5-98a0-e9dc4f28ff32"},"vehicle_type_id":"4","last_reported":1730473772,"current_range_meters":30800,"station_id":"ce4bhb92rcd13ifvqen0","pricing_plan_id":"cebpf4jnsgd1na2vs0mg"},{"bike_id":"a1e3cbe9-d73a-4358-8c02-30f1d402c7bd","system_id":"levelo_inurba_marseille","lat":43.26209,"lon":5.37444,"is_reserved":false,"is_disabled":false,"rental_uris":{"android":"levelo://app?vid=a1e3cbe9-d73a-4358-8c02-30f1d402c7bd","ios":"levelo://app?vid=a1e3cbe9-d73a-4358-8c02-30f1d402c7bd"},"vehicle_type_id":"4","last_reported":1730473772,"current_range_meters":10000,"station_id":"ce4bhgp2rcd13ifvqfc0","pricing_plan_id":"cebpf4jnsgd1na2vs0mg"},{"bike_id":"ed279d38-b7eb-4b14-96b9-94c615824290","system_id":"levelo_inurba_marseille","lat":43.23197,"lon":5.35549,"is_reserved":false,"is_disabled":false,"rental_uris":{"android":"levelo://app?vid=ed279d38-b7eb-4b14-96b9-94c615824290","ios":"levelo://app?vid=ed279d38-b7eb-4b14-96b9-94c615824290"},"vehicle_type_id":"4","last_reported":1730473772,"current_range_meters":14000,"station_id":"ce4bhu92rcd13ifvqi70","pricing_plan_id":"cebpf4jnsgd1na2vs0mg"},{"bike_id":"8a71bab1-6054-4003-9cfc-c9bc1c913794","system_id":"levelo_inurba_marseille","lat":43.24647,"lon":5.38896,"is_reserved":false,"is_disabled":false,"rental_uris":{"android":"levelo://app?vid=8a71bab1-6054-4003-9cfc-c9bc1c913794","ios":"levelo://app?vid=8a71bab1-6054-4003-9cfc-c9bc1c913794"},"vehicle_type_id":"4","last_reported":1730473772,"current_range_meters":38800,"station_id":"ce4bhih2rcd13ifvqfr0","pricing_plan_id":"cebpf4jnsgd1na2vs0mg"},{"bike_id":"05d7bf34-85f8-478d-b39a-77883222a38b","system_id":"levelo_inurba_marseille","lat":43.22929,"lon":5.35378,"is_reserved":false,"is_disabled":false,"rental_uris":{"android":"levelo://app?vid=05d7bf34-85f8-478d-b39a-77883222a38b","ios":"levelo://app?vid=05d7bf34-85f8-478d-b39a-77883222a38b"},"vehicle_type_id":"4","last_reported":1730473772,"current_range_meters":28400,"station_id":"cpo3532slgdg3j2ikp40","pricing_plan_id":"cebpf4jnsgd1na2vs0mg"},{"bike_id":"b0ea0069-56f8-4126-a1b7-a083aaa6b747","system_id":"levelo_inurba_marseille","lat":43.32052,"lon":5.41559,"is_reserved":false,"is_disabled":false,"rental_uris":{"android":"levelo://app?vid=b0ea0069-56f8-4126-a1b7-a083aaa6b747","ios":"levelo://app?vid=b0ea0069-56f8-4126-a1b7-a083aaa6b747"},"vehicle_type_id":"4","last_reported":1730473772,"current_range_meters":28000,"station_id":"ce4bhq92rcd13ifvqhkg","pricing_plan_id":"cebpf4jnsgd1na2vs0mg"},{"bike_id":"fb94c394-0597-4fa0-93d3-7cd000522d79","system_id":"levelo_inurba_marseille","lat":43.26682,"lon":5.38275,"is_reserved":false,"is_disabled":false,"rental_uris":{"android":"levelo://app?vid=fb94c394-0597-4fa0-93d3-7cd000522d79","ios":"levelo://app?vid=fb94c394-0597-4fa0-93d3-7cd000522d79"},"vehicle_type_id":"4","last_reported":1730473772,"current_range_meters":30000,"station_id":"ce4bhg92rcd13ifvqf90","pricing_plan_id":"cebpf4jnsgd1na2vs0mg"},{"bike_id":"938ad7a8-faf1-44f3-ac73-aa1b4d76edf4","system_id":"levelo_inurba_marseille","lat":43.24394,"lon":5.37069,"is_reserved":false,"is_disabled":false,"rental_uris":{"android":"levelo://app?vid=938ad7a8-faf1-44f3-ac73-aa1b4d76edf4","ios":"levelo://app?vid=938ad7a8-faf1-44f3-ac73-aa1b4d76edf4"},"vehicle_type_id":"4","last_reported":1730473772,"current_range_meters":26000,"station_id":"ce4bhhh2rcd13ifvqfk0","pricing_plan_id":"cebpf4jnsgd1na2vs0mg"},{"bike_id":"f7efe7b1-c72c-41dd-85fa-0aa78300f8c6","system_id":"levelo_inurba_marseille","lat":43.27997,"lon":5.41668,"is_reserved":false,"is_disabled":false,"rental_uris":{"android":"levelo://app?vid=f7efe7b1-c72c-41dd-85fa-0aa78300f8c6","ios":"levelo://app?vid=f7efe7b1-c72c-41dd-85fa-0aa78300f8c6"},"vehicle_type_id":"4","last_reported":1730473772,"current_range_meters":28800,"station_id":"ce4bho12rcd13ifvqh1g","pricing_plan_id":"cebpf4jnsgd1na2vs0mg"},{"bike_id":"9f8e1ff8-0aee-4a9b-9f23-e7bf1710e9b3","system_id":"levelo_inurba_marseille","lat":43.28421,"lon":5.37515,"is_reserved":false,"is_disabled":false,"rental_uris":{"android":"levelo://app?vid=9f8e1ff8-0aee-4a9b-9f23-e7bf1710e9b3","ios":"levelo://app?vid=9f8e1ff8-0aee-4a9b-9f23-e7bf1710e9b3"},"vehicle_type_id":"4","last_reported":1730473772,"current_range_meters":12400,"station_id":"ce4bh412rcd13ifvqds0","pricing_plan_id":"cebpf4jnsgd1na2vs0mg"},{"bike_id":"2404bb01-72ab-4601-9f06-3d44b40a9088","system_id":"levelo_inurba_marseille","lat":43.24074,"lon":5.37741,"is_reserved":false,"is_disabled":false,"rental_uris":{"android":"levelo://app?vid=2404bb01-72ab-4601-9f06-3d44b40a9088","ios":"levelo://app?vid=2404bb01-72ab-4601-9f06-3d44b40a9088"},"vehicle_type_id":"4","last_reported":1730473772,"current_range_meters":16800,"station_id":"ce4bhnp2rcd13ifvqgvg","pricing_plan_id":"cebpf4jnsgd1na2vs0mg"},{"bike_id":"4182a82a-d7c4-496a-bd8e-4aff73798c29","system_id":"levelo_inurba_marseille","lat":43.28069,"lon":5.39678,"is_reserved":false,"is_disabled":false,"rental_uris":{"android":"levelo://app?vid=4182a82a-d7c4-496a-bd8e-4aff73798c29","ios":"levelo://app?vid=4182a82a-d7c4-496a-bd8e-4aff73798c29"},"vehicle_type_id":"4","last_reported":1730473772,"current_range_meters":16800,"station_id":"ce4bho12rcd13ifvqh2g","pricing_plan_id":"cebpf4jnsgd1na2vs0mg"},{"bike_id":"d0d35847-59ce-4dc4-a3c4-99e4b3532d93","system_id":"levelo_inurba_marseille","lat":43.29845,"lon":5.36279,"is_reserved":false,"is_disabled":false,"rental_uris":{"android":"levelo://app?vid=d0d35847-59ce-4dc4-a3c4-99e4b3532d93","ios":"levelo://app?vid=d0d35847-59ce-4dc4-a3c4-99e4b3532d93"},"vehicle_type_id":"4","last_reported":1730473772,"current_range_meters":29600,"station_id":"ce4bgpp2rcd13ifvqc3g","pricing_plan_id":"cebpf4jnsgd1na2vs0mg"},{"bike_id":"7414557e-12be-4e3b-a0c8-1c70ed5a44b0","system_id":"levelo_inurba_marseille","lat":43.24389,"lon":5.37053,"is_reserved":false,"is_disabled":false,"rental_uris":{"android":"levelo://app?vid=7414557e-12be-4e3b-a0c8-1c70ed5a44b0","ios":"levelo://app?vid=7414557e-12be-4e3b-a0c8-1c70ed5a44b0"},"vehicle_type_id":"4","last_reported":1730473772,"current_range_meters":24400,"station_id":"ce4bhhh2rcd13ifvqfk0","pricing_plan_id":"cebpf4jnsgd1na2vs0mg"},{"bike_id":"c06dbcfa-098c-4cc8-872f-1381eae37619","system_id":"levelo_inurba_marseille","lat":43.28615,"lon":5.351,"is_reserved":false,"is_disabled":false,"rental_uris":{"android":"levelo://app?vid=c06dbcfa-098c-4cc8-872f-1381eae37619","ios":"levelo://app?vid=c06dbcfa-098c-4cc8-872f-1381eae37619"},"vehicle_type_id":"4","last_reported":1730473772,"current_range_meters":30400,"station_id":"ce4bhch2rcd13ifvqeug","pricing_plan_id":"cebpf4jnsgd1na2vs0mg"},{"bike_id":"55d57c35-2798-44bd-b340-e44ab4f96ac1","system_id":"levelo_inurba_marseille","lat":43.337444,"lon":5.374475,"is_reserved":false,"is_disabled":false,"rental_uris":{"android":"levelo://app?vid=55d57c35-2798-44bd-b340-e44ab4f96ac1","ios":"levelo://app?vid=55d57c35-2798-44bd-b340-e44ab4f96ac1"},"vehicle_type_id":"4","last_reported":1730473772,"current_range_meters":36800,"station_id":"","pricing_plan_id":"cebpf4jnsgd1na2vs0mg"},{"bike_id":"ef44195b-c8ae-4f49-920e-b0ee5c3c7f53","system_id":"levelo_inurba_marseille","lat":43.27375,"lon":5.36258,"is_reserved":false,"is_disabled":false,"rental_uris":{"android":"levelo://app?vid=ef44195b-c8ae-4f49-920e-b0ee5c3c7f53","ios":"levelo://app?vid=ef44195b-c8ae-4f49-920e-b0ee5c3c7f53"},"vehicle_type_id":"4","last_reported":1730473772,"current_range_meters":15200,"station_id":"ce4bhbh2rcd13ifvqeo0","pricing_plan_id":"cebpf4jnsgd1na2vs0mg"},{"bike_id":"eb6b0d95-1fab-43e7-8709-23f1f7cb1afc","system_id":"levelo_inurba_marseille","lat":43.25118,"lon":5.40327,"is_reserved":false,"is_disabled":false,"rental_uris":{"android":"levelo://app?vid=eb6b0d95-1fab-43e7-8709-23f1f7cb1afc","ios":"levelo://app?vid=eb6b0d95-1fab-43e7-8709-23f1f7cb1afc"},"vehicle_type_id":"4","last_reported":1730473772,"current_range_meters":25200,"station_id":"ce4bhlh2rcd13ifvqgig","pricing_plan_id":"cebpf4jnsgd1na2vs0mg"},{"bike_id":"f8cd3598-2530-48cd-86f4-47ca26266b9e","system_id":"levelo_inurba_marseille","lat":43.24544,"lon":5.39537,"is_reserved":false,"is_disabled":false,"rental_uris":{"android":"levelo://app?vid=f8cd3598-2530-48cd-86f4-47ca26266b9e","ios":"levelo://app?vid=f8cd3598-2530-48cd-86f4-47ca26266b9e"},"vehicle_type_id":"4","last_reported":1730473772,"current_range_meters":18000,"station_id":"ce4bhlp2rcd13ifvqgjg","pricing_plan_id":"cebpf4jnsgd1na2vs0mg"},{"bike_id":"0d4e0479-d8a2-45f2-91e0-dd87823320fe","system_id":"levelo_inurba_marseille","lat":43.33777,"lon":5.37469,"is_reserved":false,"is_disabled":false,"rental_uris":{"android":"levelo://app?vid=0d4e0479-d8a2-45f2-91e0-dd87823320fe","ios":"levelo://app?vid=0d4e0479-d8a2-45f2-91e0-dd87823320fe"},"vehicle_type_id":"4","last_reported":1730473772,"current_range_meters":25600,"station_id":"","pricing_plan_id":"cebpf4jnsgd1na2vs0mg"},{"bike_id":"df0a9498-8bf2-46d4-99dd-0d927c84ae59","system_id":"levelo_inurba_marseille","lat":43.28255,"lon":5.35077,"is_reserved":false,"is_disabled":false,"rental_uris":{"android":"levelo://app?vid=df0a9498-8bf2-46d4-99dd-0d927c84ae59","ios":"levelo://app?vid=df0a9498-8bf2-46d4-99dd-0d927c84ae59"},"vehicle_type_id":"4","last_reported":1730473772,"current_range_meters":29600,"station_id":"ce4bhbp2rcd13ifvqerg","pricing_plan_id":"cebpf4jnsgd1na2vs0mg"},{"bike_id":"67110620-ff45-4af6-bd82-c51a14567c1b","system_id":"levelo_inurba_marseille","lat":43.27502,"lon":5.42456,"is_reserved":false,"is_disabled":false,"rental_uris":{"android":"levelo://app?vid=67110620-ff45-4af6-bd82-c51a14567c1b","ios":"levelo://app?vid=67110620-ff45-4af6-bd82-c51a14567c1b"},"vehicle_type_id":"4","last_reported":1730473772,"current_range_meters":39200,"station_id":"ce4bhn92rcd13ifvqgrg","pricing_plan_id":"cebpf4jnsgd1na2vs0mg"},{"bike_id":"d3dfadd6-074a-43ee-9df9-8b7c57af7893","system_id":"levelo_inurba_marseille","lat":43.27385,"lon":5.36263,"is_reserved":false,"is_disabled":false,"rental_uris":{"android":"levelo://app?vid=d3dfadd6-074a-43ee-9df9-8b7c57af7893","ios":"levelo://app?vid=d3dfadd6-074a-43ee-9df9-8b7c57af7893"},"vehicle_type_id":"4","last_reported":1730473772,"current_range_meters":34800,"station_id":"ce4bhbh2rcd13ifvqeo0","pricing_plan_id":"cebpf4jnsgd1na2vs0mg"},{"bike_id":"c094828f-e5fd-4e12-9637-5da6f8941c15","system_id":"levelo_inurba_marseille","lat":43.24167,"lon":5.36398,"is_reserved":false,"is_disabled":false,"rental_uris":{"android":"levelo://app?vid=c094828f-e5fd-4e12-9637-5da6f8941c15","ios":"levelo://app?vid=c094828f-e5fd-4e12-9637-5da6f8941c15"},"vehicle_type_id":"4","last_reported":1730473772,"current_range_meters":23200,"station_id":"cpo36qri1sfpv3e86is0","pricing_plan_id":"cebpf4jnsgd1na2vs0mg"},{"bike_id":"d9e43dc3-5cdd-4665-ba2d-da6bf31686bf","system_id":"levelo_inurba_marseille","lat":43.23062,"lon":5.35494,"is_reserved":false,"is_disabled":false,"rental_uris":{"android":"levelo://app?vid=d9e43dc3-5cdd-4665-ba2d-da6bf31686bf","ios":"levelo://app?vid=d9e43dc3-5cdd-4665-ba2d-da6bf31686bf"},"vehicle_type_id":"4","last_reported":1730473772,"current_range_meters":38400,"station_id":"cpo3342slgdg3j2ifvpg","pricing_plan_id":"cebpf4jnsgd1na2vs0mg"},{"bike_id":"3599e83b-016d-47f2-8abc-cb7d4c7594c7","system_id":"levelo_inurba_marseille","lat":43.28413,"lon":5.34983,"is_reserved":false,"is_disabled":false,"rental_uris":{"android":"levelo://app?vid=3599e83b-016d-47f2-8abc-cb7d4c7594c7","ios":"levelo://app?vid=3599e83b-016d-47f2-8abc-cb7d4c7594c7"},"vehicle_type_id":"4","last_reported":1730473772,"current_range_meters":12800,"station_id":"ce4bhbh2rcd13ifvqepg","pricing_plan_id":"cebpf4jnsgd1na2vs0mg"},{"bike_id":"18630bfa-92d7-4592-a326-0993bf23320e","system_id":"levelo_inurba_marseille","lat":43.30535,"lon":5.36551,"is_reserved":false,"is_disabled":false,"rental_uris":{"android":"levelo://app?vid=18630bfa-92d7-4592-a326-0993bf23320e","ios":"levelo://app?vid=18630bfa-92d7-4592-a326-0993bf23320e"},"vehicle_type_id":"4","last_reported":1730473772,"current_range_meters":20800,"station_id":"ce4bgs12rcd13ifvqcag","pricing_plan_id":"cebpf4jnsgd1na2vs0mg"},{"bike_id":"32a3de34-9ea1-4391-ab9e-7a9af4d8ab7d","system_id":"levelo_inurba_marseille","lat":43.26209,"lon":5.37442,"is_reserved":false,"is_disabled":false,"rental_uris":{"android":"levelo://app?vid=32a3de34-9ea1-4391-ab9e-7a9af4d8ab7d","ios":"levelo://app?vid=32a3de34-9ea1-4391-ab9e-7a9af4d8ab7d"},"vehicle_type_id":"4","last_reported":1730473772,"current_range_meters":30000,"station_id":"ce4bhgp2rcd13ifvqfc0","pricing_plan_id":"cebpf4jnsgd1na2vs0mg"},{"bike_id":"a2a6ebbf-a6ca-47ca-8053-f50990312a86","system_id":"levelo_inurba_marseille","lat":43.26205,"lon":5.37931,"is_reserved":false,"is_disabled":false,"rental_uris":{"android":"levelo://app?vid=a2a6ebbf-a6ca-47ca-8053-f50990312a86","ios":"levelo://app?vid=a2a6ebbf-a6ca-47ca-8053-f50990312a86"},"vehicle_type_id":"4","last_reported":1730473772,"current_range_meters":36400,"station_id":"ce4bhjp2rcd13ifvqg90","pricing_plan_id":"cebpf4jnsgd1na2vs0mg"},{"bike_id":"b8b2b2b2-3149-4305-b481-49d967661998","system_id":"levelo_inurba_marseille","lat":43.24085,"lon":5.37748,"is_reserved":false,"is_disabled":false,"rental_uris":{"android":"levelo://app?vid=b8b2b2b2-3149-4305-b481-49d967661998","ios":"levelo://app?vid=b8b2b2b2-3149-4305-b481-49d967661998"},"vehicle_type_id":"4","last_reported":1730473772,"current_range_meters":28400,"station_id":"ce4bhnp2rcd13ifvqgvg","pricing_plan_id":"cebpf4jnsgd1na2vs0mg"},{"bike_id":"dfd4f07f-74d7-4807-887d-874808b0ed30","system_id":"levelo_inurba_marseille","lat":43.26552,"lon":5.37285,"is_reserved":false,"is_disabled":false,"rental_uris":{"android":"levelo://app?vid=dfd4f07f-74d7-4807-887d-874808b0ed30","ios":"levelo://app?vid=dfd4f07f-74d7-4807-887d-874808b0ed30"},"vehicle_type_id":"4","last_reported":1730473772,"current_range_meters":3600,"station_id":"ce4bhg12rcd13ifvqf70","pricing_plan_id":"cebpf4jnsgd1na2vs0mg"},{"bike_id":"6b02f16f-ae2f-48f5-8404-b2e66ecd059d","system_id":"levelo_inurba_marseille","lat":43.32484,"lon":5.36568,"is_reserved":false,"is_disabled":false,"rental_uris":{"android":"levelo://app?vid=6b02f16f-ae2f-48f5-8404-b2e66ecd059d","ios":"levelo://app?vid=6b02f16f-ae2f-48f5-8404-b2e66ecd059d"},"vehicle_type_id":"4","last_reported":1730473772,"current_range_meters":38800,"station_id":"ce4bhs12rcd13ifvqhvg","pricing_plan_id":"cebpf4jnsgd1na2vs0mg"},{"bike_id":"dcc3412c-7336-4d5e-a8cb-a4954fb1723f","system_id":"levelo_inurba_marseille","lat":43.23063,"lon":5.35489,"is_reserved":false,"is_disabled":false,"rental_uris":{"android":"levelo://app?vid=dcc3412c-7336-4d5e-a8cb-a4954fb1723f","ios":"levelo://app?vid=dcc3412c-7336-4d5e-a8cb-a4954fb1723f"},"vehicle_type_id":"4","last_reported":1730473772,"current_range_meters":7200,"station_id":"cpo3342slgdg3j2ifvpg","pricing_plan_id":"cebpf4jnsgd1na2vs0mg"},{"bike_id":"8214cc5c-f4a1-4a02-8222-349a61046fb9","system_id":"levelo_inurba_marseille","lat":43.28265,"lon":5.35076,"is_reserved":false,"is_disabled":false,"rental_uris":{"android":"levelo://app?vid=8214cc5c-f4a1-4a02-8222-349a61046fb9","ios":"levelo://app?vid=8214cc5c-f4a1-4a02-8222-349a61046fb9"},"vehicle_type_id":"4","last_reported":1730473772,"current_range_meters":38800,"station_id":"ce4bhbp2rcd13ifvqerg","pricing_plan_id":"cebpf4jnsgd1na2vs0mg"},{"bike_id":"a9a6cfcc-1344-4bae-9ff0-051ddd89b004","system_id":"levelo_inurba_marseille","lat":43.26209,"lon":5.37441,"is_reserved":false,"is_disabled":false,"rental_uris":{"android":"levelo://app?vid=a9a6cfcc-1344-4bae-9ff0-051ddd89b004","ios":"levelo://app?vid=a9a6cfcc-1344-4bae-9ff0-051ddd89b004"},"vehicle_type_id":"4","last_reported":1730473772,"current_range_meters":14000,"station_id":"ce4bhgp2rcd13ifvqfc0","pricing_plan_id":"cebpf4jnsgd1na2vs0mg"},{"bike_id":"5b845125-d7b7-4639-81e5-d2c32492bd25","system_id":"levelo_inurba_marseille","lat":43.24652,"lon":5.38896,"is_reserved":false,"is_disabled":false,"rental_uris":{"android":"levelo://app?vid=5b845125-d7b7-4639-81e5-d2c32492bd25","ios":"levelo://app?vid=5b845125-d7b7-4639-81e5-d2c32492bd25"},"vehicle_type_id":"4","last_reported":1730473772,"current_range_meters":39200,"station_id":"ce4bhg12rcd13ifvqf60","pricing_plan_id":"cebpf4jnsgd1na2vs0mg"},{"bike_id":"811c0803-2f8f-4212-8e38-a6b4493cd1c7","system_id":"levelo_inurba_marseille","lat":43.24483,"lon":5.37263,"is_reserved":false,"is_disabled":false,"rental_uris":{"android":"levelo://app?vid=811c0803-2f8f-4212-8e38-a6b4493cd1c7","ios":"levelo://app?vid=811c0803-2f8f-4212-8e38-a6b4493cd1c7"},"vehicle_type_id":"4","last_reported":1730473772,"current_range_meters":33200,"station_id":"","pricing_plan_id":"cebpf4jnsgd1na2vs0mg"},{"bike_id":"e777b0ba-4271-4943-a3b6-096dc3d28497","system_id":"levelo_inurba_marseille","lat":43.25493,"lon":5.37648,"is_reserved":false,"is_disabled":false,"rental_uris":{"android":"levelo://app?vid=e777b0ba-4271-4943-a3b6-096dc3d28497","ios":"levelo://app?vid=e777b0ba-4271-4943-a3b6-096dc3d28497"},"vehicle_type_id":"4","last_reported":1730473772,"current_range_meters":26800,"station_id":"ce4bhh12rcd13ifvqff0","pricing_plan_id":"cebpf4jnsgd1na2vs0mg"},{"bike_id":"29a5b22c-62ce-439f-981b-e6338f4598f4","system_id":"levelo_inurba_marseille","lat":43.26567,"lon":5.39007,"is_reserved":false,"is_disabled":false,"rental_uris":{"android":"levelo://app?vid=29a5b22c-62ce-439f-981b-e6338f4598f4","ios":"levelo://app?vid=29a5b22c-62ce-439f-981b-e6338f4598f4"},"vehicle_type_id":"4","last_reported":1730473772,"current_range_meters":24000,"station_id":"ce4bhe12rcd13ifvqf30","pricing_plan_id":"cebpf4jnsgd1na2vs0mg"},{"bike_id":"4e86b0fe-9b57-4b58-a63b-bd7eba9b7b50","system_id":"levelo_inurba_marseille","lat":43.22936,"lon":5.35376,"is_reserved":false,"is_disabled":false,"rental_uris":{"android":"levelo://app?vid=4e86b0fe-9b57-4b58-a63b-bd7eba9b7b50","ios":"levelo://app?vid=4e86b0fe-9b57-4b58-a63b-bd7eba9b7b50"},"vehicle_type_id":"4","last_reported":1730473772,"current_range_meters":24400,"station_id":"cpo3532slgdg3j2ikp40","pricing_plan_id":"cebpf4jnsgd1na2vs0mg"},{"bike_id":"04cba293-91b1-417b-9060-88645e629047","system_id":"levelo_inurba_marseille","lat":43.30148,"lon":5.38081,"is_reserved":false,"is_disabled":false,"rental_uris":{"android":"levelo://app?vid=04cba293-91b1-417b-9060-88645e629047","ios":"levelo://app?vid=04cba293-91b1-417b-9060-88645e629047"},"vehicle_type_id":"4","last_reported":1730473772,"current_range_meters":36800,"station_id":"ce4bgjp2rcd13ifvqbh0","pricing_plan_id":"cebpf4jnsgd1na2vs0mg"},{"bike_id":"1a371f79-2c61-4b9c-9047-20b0cf16e4f6","system_id":"levelo_inurba_marseille","lat":43.28416,"lon":5.34987,"is_reserved":false,"is_disabled":false,"rental_uris":{"android":"levelo://app?vid=1a371f79-2c61-4b9c-9047-20b0cf16e4f6","ios":"levelo://app?vid=1a371f79-2c61-4b9c-9047-20b0cf16e4f6"},"vehicle_type_id":"4","last_reported":1730473772,"current_range_meters":24000,"station_id":"ce4bhbh2rcd13ifvqepg","pricing_plan_id":"cebpf4jnsgd1na2vs0mg"},{"bike_id":"a4db5a19-3609-4ae0-b34b-46926eb7485b","system_id":"levelo_inurba_marseille","lat":43.29028,"lon":5.3865,"is_reserved":false,"is_disabled":false,"rental_uris":{"android":"levelo://app?vid=a4db5a19-3609-4ae0-b34b-46926eb7485b","ios":"levelo://app?vid=a4db5a19-3609-4ae0-b34b-46926eb7485b"},"vehicle_type_id":"4","last_reported":1730473772,"current_range_meters":4000,"station_id":"ce4bh4p2rcd13ifvqe0g","pricing_plan_id":"cebpf4jnsgd1na2vs0mg"},{"bike_id":"aedd613a-3e0e-48bc-bcce-01db4dfff1e5","system_id":"levelo_inurba_marseille","lat":43.27075,"lon":5.42279,"is_reserved":false,"is_disabled":false,"rental_uris":{"android":"levelo://app?vid=aedd613a-3e0e-48bc-bcce-01db4dfff1e5","ios":"levelo://app?vid=aedd613a-3e0e-48bc-bcce-01db4dfff1e5"},"vehicle_type_id":"4","last_reported":1730473772,"current_range_meters":28800,"station_id":"ce4bhk92rcd13ifvqgb0","pricing_plan_id":"cebpf4jnsgd1na2vs0mg"},{"bike_id":"5c7a447f-1ec3-487a-b5ec-5b0ddc202e41","system_id":"levelo_inurba_marseille","lat":43.26208,"lon":5.37441,"is_reserved":false,"is_disabled":false,"rental_uris":{"android":"levelo://app?vid=5c7a447f-1ec3-487a-b5ec-5b0ddc202e41","ios":"levelo://app?vid=5c7a447f-1ec3-487a-b5ec-5b0ddc202e41"},"vehicle_type_id":"4","last_reported":1730473772,"current_range_meters":22400,"station_id":"ce4bhgp2rcd13ifvqfc0","pricing_plan_id":"cebpf4jnsgd1na2vs0mg"},{"bike_id":"bd95dc30-8740-459a-925b-11d03e37dc4f","system_id":"levelo_inurba_marseille","lat":43.32263,"lon":5.38277,"is_reserved":false,"is_disabled":false,"rental_uris":{"android":"levelo://app?vid=bd95dc30-8740-459a-925b-11d03e37dc4f","ios":"levelo://app?vid=bd95dc30-8740-459a-925b-11d03e37dc4f"},"vehicle_type_id":"4","last_reported":1730473772,"current_range_meters":37600,"station_id":"ce4bhr12rcd13ifvqhqg","pricing_plan_id":"cebpf4jnsgd1na2vs0mg"},{"bike_id":"1ecde62b-d5ba-4230-bbb2-e554691f86d8","system_id":"levelo_inurba_marseille","lat":43.27378,"lon":5.36249,"is_reserved":false,"is_disabled":false,"rental_uris":{"android":"levelo://app?vid=1ecde62b-d5ba-4230-bbb2-e554691f86d8","ios":"levelo://app?vid=1ecde62b-d5ba-4230-bbb2-e554691f86d8"},"vehicle_type_id":"4","last_reported":1730473772,"current_range_meters":10000,"station_id":"ce4bhbh2rcd13ifvqeo0","pricing_plan_id":"cebpf4jnsgd1na2vs0mg"},{"bike_id":"db2854d9-0b7d-4603-861c-5f8a2c8ac95b","system_id":"levelo_inurba_marseille","lat":43.29968,"lon":5.38505,"is_reserved":false,"is_disabled":false,"rental_uris":{"android":"levelo://app?vid=db2854d9-0b7d-4603-861c-5f8a2c8ac95b","ios":"levelo://app?vid=db2854d9-0b7d-4603-861c-5f8a2c8ac95b"},"vehicle_type_id":"4","last_reported":1730473772,"current_range_meters":30000,"station_id":"ce4bgkh2rcd13ifvqbk0","pricing_plan_id":"cebpf4jnsgd1na2vs0mg"},{"bike_id":"005822df-ed14-4e8b-b91d-af586adb6e1c","system_id":"levelo_inurba_marseille","lat":43.24804,"lon":5.37457,"is_reserved":false,"is_disabled":false,"rental_uris":{"android":"levelo://app?vid=005822df-ed14-4e8b-b91d-af586adb6e1c","ios":"levelo://app?vid=005822df-ed14-4e8b-b91d-af586adb6e1c"},"vehicle_type_id":"4","last_reported":1730473772,"current_range_meters":30800,"station_id":"ce4bhgh2rcd13ifvqfb0","pricing_plan_id":"cebpf4jnsgd1na2vs0mg"},{"bike_id":"cb0f5c57-6acc-4397-9c3f-24b11eabf2be","system_id":"levelo_inurba_marseille","lat":43.24174,"lon":5.39723,"is_reserved":false,"is_disabled":false,"rental_uris":{"android":"levelo://app?vid=cb0f5c57-6acc-4397-9c3f-24b11eabf2be","ios":"levelo://app?vid=cb0f5c57-6acc-4397-9c3f-24b11eabf2be"},"vehicle_type_id":"4","last_reported":1730473772,"current_range_meters":28400,"station_id":"ce4bhn12rcd13ifvqgpg","pricing_plan_id":"cebpf4jnsgd1na2vs0mg"},{"bike_id":"7d29d22d-f2f0-441a-a402-73d07db9efb1","system_id":"levelo_inurba_marseille","lat":43.23187,"lon":5.39979,"is_reserved":false,"is_disabled":false,"rental_uris":{"android":"levelo://app?vid=7d29d22d-f2f0-441a-a402-73d07db9efb1","ios":"levelo://app?vid=7d29d22d-f2f0-441a-a402-73d07db9efb1"},"vehicle_type_id":"4","last_reported":1730473772,"current_range_meters":17600,"station_id":"ce4bhn12rcd13ifvqgqg","pricing_plan_id":"cebpf4jnsgd1na2vs0mg"},