{"last_updated":1774729057,"ttl":60,"version":"2.2","data":{"bikes":[{"bike_id":"684ddfd5-4a37-4944-9d39-2f5b9ab9522d","system_id":"levelo_inurba_marseille","lat":43.30534,"lon":5.36687,"is_reserved":false,"is_disabled":false,"rental_uris":{"android":"levelo://app?vid=684ddfd5-4a37-4944-9d39-2f5b9ab9522d","ios":"levelo://app?vid=684ddfd5-4a37-4944-9d39-2f5b9ab9522d"},"vehicle_type_id":"4","last_reported":1774729057,"current_range_meters":2800,"station_id":"ce4bgrp2rcd13ifvqc9g","pricing_plan_id":"cebpf4jnsgd1na2vs0mg"},{"bike_id":"4d2c428a-06db-49bc-a222-2cbc52db76c0","system_id":"levelo_inurba_marseille","lat":43.24191,"lon":5.39739,"is_reserved":false,"is_disabled":false,"rental_uris":{"android":"levelo://app?vid=4d2c428a-06db-49bc-a222-2cbc52db76c0","ios":"levelo://app?vid=4d2c428a-06db-49bc-a222-2cbc52db76c0"},"vehicle_type_id":"4","last_reported":1774729057,"current_range_meters":2800,"station_id":"ce4bhn12rcd13ifvqgpg","pricing_plan_id":"cebpf4jnsgd1na2vs0mg"},{"bike_id":"42efb94c-1f2e-44e6-a6e6-f57b060b869e","system_id":"levelo_inurba_marseille","lat":43.24181,"lon":5.36352,"is_reserved":false,"is_disabled":false,"rental_uris":{"android":"levelo://app?vid=42efb94c-1f2e-44e6-a6e6-f57b060b869e","ios":"levelo://app?vid=42efb94c-1f2e-44e6-a6e6-f57b060b869e"},"vehicle_type_id":"4","last_reported":1774729057,"current_range_meters":2800,"station_id":"cpo36qri1sfpv3e86is0","pricing_plan_id":"cebpf4jnsgd1na2vs0mg"},{"bike_id":"76afd0f9-39c6-4d10-a3a3-3323a029e46a","system_id":"levelo_inurba_marseille","lat":43.23376,"lon":5.41251,"is_reserved":false,"is_disabled":false,"rental_uris":{"android":"levelo://app?vid=76afd0f9-39c6-4d10-a3a3-3323a029e46a","ios":"levelo://app?vid=76afd0f9-39c6-4d10-a3a3-3323a029e46a"},"vehicle_type_id":"4","last_reported":1774729057,"current_range_meters":2800,"station_id":"","pricing_plan_id":"cebpf4jnsgd1na2vs0mg"},{"bike_id":"9aa23d81-92d7-49e2-9b7d-61573701742e","system_id":"levelo_inurba_marseille","lat":43.31356,"lon":5.3849,"is_reserved":false,"is_disabled":false,"rental_uris":{"android":"levelo://app?vid=9aa23d81-92d7-49e2-9b7d-61573701742e","ios":"levelo://app?vid=9aa23d81-92d7-49e2-9b7d-61573701742e"},"vehicle_type_id":"4","last_reported":1774729057,"current_range_meters":2800,"station_id":"ce4bgt92rcd13ifvqcf0","pricing_plan_id":"cebpf4jnsgd1na2vs0mg"},{"bike_id":"a219f6ad-c3dc-49f8-96a0-308777dfd4f6","system_id":"levelo_inurba_marseille","lat":43.28041,"lon":5.36944,"is_reserved":false,"is_disabled":false,"rental_uris":{"android":"levelo://app?vid=a219f6ad-c3dc-49f8-96a0-308777dfd4f6","ios":"levelo://app?vid=a219f6ad-c3dc-49f8-96a0-308777dfd4f6"},"vehicle_type_id":"4","last_reported":1774729057,"current_range_meters":2800,"station_id":"ce4bha12rcd13ifvqef0","pricing_plan_id":"cebpf4jnsgd1na2vs0mg"},{"bike_id":"8a927669-3c1a-4573-98bd-585f9b534d2d","system_id":"levelo_inurba_marseille","lat":43.24472,"lon":5.42552,"is_reserved":false,"is_disabled":false,"rental_uris":{"android":"levelo://app?vid=8a927669-3c1a-4573-98bd-585f9b534d2d","ios":"levelo://app?vid=8a927669-3c1a-4573-98bd-585f9b534d2d"},"vehicle_type_id":"4","last_reported":1774729057,"current_range_meters":2800,"station_id":"st_d4a3vfp97mjs738cd8kg","pricing_plan_id":"cebpf4jnsgd1na2vs0mg"},{"bike_id":"bd934b71-fc54-44f1-90d5-67d1e4783891","system_id":"levelo_inurba_marseille","lat":43.2417,"lon":5.36379,"is_reserved":false,"is_disabled":false,"rental_uris":{"android":"levelo://app?vid=bd934b71-fc54-44f1-90d5-67d1e4783891","ios":"levelo://app?vid=bd934b71-fc54-44f1-90d5-67d1e4783891"},"vehicle_type_id":"4","last_reported":1774729057,"current_range_meters":2800,"station_id":"cpo36qri1sfpv3e86is0","pricing_plan_id":"cebpf4jnsgd1na2vs0mg"},{"bike_id":"c3367472-18be-40a9-a238-6fcdad4cc955","system_id":"levelo_inurba_marseille","lat":43.30319,"lon":5.36893,"is_reserved":false,"is_disabled":false,"rental_uris":{"android":"levelo://app?vid=c3367472-18be-40a9-a238-6fcdad4cc955","ios":"levelo://app?vid=c3367472-18be-40a9-a238-6fcdad4cc955"},"vehicle_type_id":"4","last_reported":1774729057,"current_range_meters":2800,"station_id":"ce4bgqh2rcd13ifvqc5g","pricing_plan_id":"cebpf4jnsgd1na2vs0mg"},{"bike_id":"27f65587-f91a-41b1-aacf-8da5e702b79e","system_id":"levelo_inurba_marseille","lat":43.29741,"lon":5.42781,"is_reserved":false,"is_disabled":false,"rental_uris":{"android":"levelo://app?vid=27f65587-f91a-41b1-aacf-8da5e702b79e","ios":"levelo://app?vid=27f65587-f91a-41b1-aacf-8da5e702b79e"},"vehicle_type_id":"4","last_reported":1774729057,"current_range_meters":2800,"station_id":"st_d3md5207bmas73dh9klg","pricing_plan_id":"cebpf4jnsgd1na2vs0mg"},{"bike_id":"e6eea0f4-d024-443d-b053-d6760524e421","system_id":"levelo_inurba_marseille","lat":43.29764,"lon":5.38002,"is_reserved":false,"is_disabled":false,"rental_uris":{"android":"levelo://app?vid=e6eea0f4-d024-443d-b053-d6760524e421","ios":"levelo://app?vid=e6eea0f4-d024-443d-b053-d6760524e421"},"vehicle_type_id":"4","last_reported":1774729057,"current_range_meters":2800,"station_id":"","pricing_plan_id":"cebpf4jnsgd1na2vs0mg"},{"bike_id":"99f073b4-e503-48e0-899e-f9360b1824e2","system_id":"levelo_inurba_marseille","lat":43.24663,"lon":5.38158,"is_reserved":false,"is_disabled":false,"rental_uris":{"android":"levelo://app?vid=99f073b4-e503-48e0-899e-f9360b1824e2","ios":"levelo://app?vid=99f073b4-e503-48e0-899e-f9360b1824e2"},"vehicle_type_id":"4","last_reported":1774729057,"current_range_meters":2800,"station_id":"ce4bhih2rcd13ifvqfr0","pricing_plan_id":"cebpf4jnsgd1na2vs0mg"},{"bike_id":"34924477-65c3-4a4b-9aad-f27ec6f8899d","system_id":"levelo_inurba_marseille","lat":43.30796,"lon":5.38153,"is_reserved":false,"is_disabled":false,"rental_uris":{"android":"levelo://app?vid=34924477-65c3-4a4b-9aad-f27ec6f8899d","ios":"levelo://app?vid=34924477-65c3-4a4b-9aad-f27ec6f8899d"},"vehicle_type_id":"4","last_reported":1774729057,"current_range_meters":3200,"station_id":"ce4bgt12rcd13ifvqce0","pricing_plan_id":"cebpf4jnsgd1na2vs0mg"},{"bike_id":"6a7fd2aa-a90b-461a-8118-a8f8d903c462","system_id":"levelo_inurba_marseille","lat":43.28477,"lon":5.48397,"is_reserved":false,"is_disabled":false,"rental_uris":{"android":"levelo://app?vid=6a7fd2aa-a90b-461a-8118-a8f8d903c462","ios":"levelo://app?vid=6a7fd2aa-a90b-461a-8118-a8f8d903c462"},"vehicle_type_id":"4","last_reported":1774729057,"current_range_meters":3200,"station_id":"","pricing_plan_id":"cebpf4jnsgd1na2vs0mg"},{"bike_id":"56f14f4b-c82e-47f2-9309-f1e556533ab5","system_id":"levelo_inurba_marseille","lat":43.29008,"lon":5.38673,"is_reserved":false,"is_disabled":false,"rental_uris":{"android":"levelo://app?vid=56f14f4b-c82e-47f2-9309-f1e556533ab5","ios":"levelo://app?vid=56f14f4b-c82e-47f2-9309-f1e556533ab5"},"vehicle_type_id":"4","last_reported":1774729057,"current_range_meters":3200,"station_id":"ce4bh4p2rcd13ifvqe0g","pricing_plan_id":"cebpf4jnsgd1na2vs0mg"},{"bike_id":"2febdeb9-0fee-4e6a-b6f8-0d1a667393bc","system_id":"levelo_inurba_marseille","lat":43.29532,"lon":5.38543,"is_reserved":false,"is_disabled":false,"rental_uris":{"android":"levelo://app?vid=2febdeb9-0fee-4e6a-b6f8-0d1a667393bc","ios":"levelo://app?vid=2febdeb9-0fee-4e6a-b6f8-0d1a667393bc"},"vehicle_type_id":"4","last_reported":1774729057,"current_range_meters":3200,"station_id":"","pricing_plan_id":"cebpf4jnsgd1na2vs0mg"},{"bike_id":"09bad5c5-5f1a-48f8-ab39-dab7b2139f5c","system_id":"levelo_inurba_marseille","lat":43.31159,"lon":5.3872,"is_reserved":false,"is_disabled":false,"rental_uris":{"android":"levelo://app?vid=09bad5c5-5f1a-48f8-ab39-dab7b2139f5c","ios":"levelo://app?vid=09bad5c5-5f1a-48f8-ab39-dab7b2139f5c"},"vehicle_type_id":"4","last_reported":1774729057,"current_range_meters":3200,"station_id":"ce4bgv12rcd13ifvqcp0","pricing_plan_id":"cebpf4jnsgd1na2vs0mg"},{"bike_id":"299c1db8-8b1c-4e76-8016-cf4f1472636c","system_id":"levelo_inurba_marseille","lat":43.30922,"lon":5.39972,"is_reserved":false,"is_disabled":false,"rental_uris":{"android":"levelo://app?vid=299c1db8-8b1c-4e76-8016-cf4f1472636c","ios":"levelo://app?vid=299c1db8-8b1c-4e76-8016-cf4f1472636c"},"vehicle_type_id":"4","last_reported":1774729057,"current_range_meters":3200,"station_id":"","pricing_plan_id":"cebpf4jnsgd1na2vs0mg"},{"bike_id":"6d0ba167-953c-4732-a568-160c9dd956c2","system_id":"levelo_inurba_marseille","lat":43.23204,"lon":5.35541,"is_reserved":false,"is_disabled":false,"rental_uris":{"android":"levelo://app?vid=6d0ba167-953c-4732-a568-160c9dd956c2","ios":"levelo://app?vid=6d0ba167-953c-4732-a568-160c9dd956c2"},"vehicle_type_id":"4","last_reported":1774729057,"current_range_meters":3200,"station_id":"ce4bhu92rcd13ifvqi70","pricing_plan_id":"cebpf4jnsgd1na2vs0mg"},{"bike_id":"8a478413-2476-45d1-bcf0-8f5b00e12217","system_id":"levelo_inurba_marseille","lat":43.2903,"lon":5.39966,"is_reserved":false,"is_disabled":false,"rental_uris":{"android":"levelo://app?vid=8a478413-2476-45d1-bcf0-8f5b00e12217","ios":"levelo://app?vid=8a478413-2476-45d1-bcf0-8f5b00e12217"},"vehicle_type_id":"4","last_reported":1774729057,"current_range_meters":3200,"station_id":"ce4bh392rcd13ifvqdm0","pricing_plan_id":"cebpf4jnsgd1na2vs0mg"},{"bike_id":"b6491ba5-c897-4cab-8c35-742c0d00c0cb","system_id":"levelo_inurba_marseille","lat":43.24712,"lon":5.38145,"is_reserved":false,"is_disabled":false,"rental_uris":{"android":"levelo://app?vid=b6491ba5-c897-4cab-8c35-742c0d00c0cb","ios":"levelo://app?vid=b6491ba5-c897-4cab-8c35-742c0d00c0cb"},"vehicle_type_id":"4","last_reported":1774729057,"current_range_meters":3200,"station_id":"","pricing_plan_id":"cebpf4jnsgd1na2vs0mg"},{"bike_id":"e20ac608-d21b-4f4e-b648-b5a261d2f29e","system_id":"levelo_inurba_marseille","lat":43.25073,"lon":5.40431,"is_reserved":false,"is_disabled":false,"rental_uris":{"android":"levelo://app?vid=e20ac608-d21b-4f4e-b648-b5a261d2f29e","ios":"levelo://app?vid=e20ac608-d21b-4f4e-b648-b5a261d2f29e"},"vehicle_type_id":"4","last_reported":1774729057,"current_range_meters":3200,"station_id":"","pricing_plan_id":"cebpf4jnsgd1na2vs0mg"},{"bike_id":"4752cceb-42e5-4657-a292-6347b87905d3","system_id":"levelo_inurba_marseille","lat":43.28839,"lon":5.39321,"is_reserved":false,"is_disabled":false,"rental_uris":{"android":"levelo://app?vid=4752cceb-42e5-4657-a292-6347b87905d3","ios":"levelo://app?vid=4752cceb-42e5-4657-a292-6347b87905d3"},"vehicle_type_id":"4","last_reported":1774729057,"current_range_meters":3200,"station_id":"ce4bh2p2rcd13ifvqdi0","pricing_plan_id":"cebpf4jnsgd1na2vs0mg"},{"bike_id":"16ab89e3-ec1f-456f-8d60-f3a31d9305e8","system_id":"levelo_inurba_marseille","lat":43.28405,"lon":5.37516,"is_reserved":false,"is_disabled":false,"rental_uris":{"android":"levelo://app?vid=16ab89e3-ec1f-456f-8d60-f3a31d9305e8","ios":"levelo://app?vid=16ab89e3-ec1f-456f-8d60-f3a31d9305e8"},"vehicle_type_id":"4","last_reported":1774729057,"current_range_meters":3600,"station_id":"ce4bh412rcd13ifvqds0","pricing_plan_id":"cebpf4jnsgd1na2vs0mg"},{"bike_id":"1d7503c3-20ca-4fb6-92d0-5b5a5f6d18ec","system_id":"levelo_inurba_marseille","lat":43.22925,"lon":5.35367,"is_reserved":false,"is_disabled":false,"rental_uris":{"android":"levelo://app?vid=1d7503c3-20ca-4fb6-92d0-5b5a5f6d18ec","ios":"levelo://app?vid=1d7503c3-20ca-4fb6-92d0-5b5a5f6d18ec"},"vehicle_type_id":"4","last_reported":1774729057,"current_range_meters":3600,"station_id":"cpo3532slgdg3j2ikp40","pricing_plan_id":"cebpf4jnsgd1na2vs0mg"},{"bike_id":"2873a201-01ad-44f0-a3f4-1c2939d32934","system_id":"levelo_inurba_marseille","lat":43.31544,"lon":5.38011,"is_reserved":false,"is_disabled":false,"rental_uris":{"android":"levelo://app?vid=2873a201-01ad-44f0-a3f4-1c2939d32934","ios":"levelo://app?vid=2873a201-01ad-44f0-a3f4-1c2939d32934"},"vehicle_type_id":"4","last_reported":1774729057,"current_range_meters":3600,"station_id":"ce4bhsp2rcd13ifvqi50","pricing_plan_id":"cebpf4jnsgd1na2vs0mg"},{"bike_id":"38121aba-cf52-46ff-b72d-8bcc0c109707","system_id":"levelo_inurba_marseille","lat":43.31449,"lon":5.37338,"is_reserved":false,"is_disabled":false,"rental_uris":{"android":"levelo://app?vid=38121aba-cf52-46ff-b72d-8bcc0c109707","ios":"levelo://app?vid=38121aba-cf52-46ff-b72d-8bcc0c109707"},"vehicle_type_id":"4","last_reported":1774729057,"current_range_meters":3600,"station_id":"ce4bgt12rcd13ifvqcd0","pricing_plan_id":"cebpf4jnsgd1na2vs0mg"},{"bike_id":"09308185-3b0f-4ee1-afda-90dee92cbe0f","system_id":"levelo_inurba_marseille","lat":43.29968,"lon":5.38505,"is_reserved":false,"is_disabled":true,"rental_uris":{"android":"levelo://app?vid=09308185-3b0f-4ee1-afda-90dee92cbe0f","ios":"levelo://app?vid=09308185-3b0f-4ee1-afda-90dee92cbe0f"},"vehicle_type_id":"4","last_reported":1774729057,"current_range_meters":3600,"station_id":"ce4bgj92rcd13ifvqbd0","pricing_plan_id":"cebpf4jnsgd1na2vs0mg"},{"bike_id":"53a863d7-5468-47d0-9a69-661da0040bb4","system_id":"levelo_inurba_marseille","lat":43.2756,"lon":5.3842,"is_reserved":false,"is_disabled":false,"rental_uris":{"android":"levelo://app?vid=53a863d7-5468-47d0-9a69-661da0040bb4","ios":"levelo://app?vid=53a863d7-5468-47d0-9a69-661da0040bb4"},"vehicle_type_id":"4","last_reported":1774729057,"current_range_meters":3600,"station_id":"ce4bhh92rcd13ifvqfi0","pricing_plan_id":"cebpf4jnsgd1na2vs0mg"},{"bike_id":"248e7202-bf14-41af-ab35-7275ee6c4d6f","system_id":"levelo_inurba_marseille","lat":43.23385,"lon":5.41232,"is_reserved":false,"is_disabled":false,"rental_uris":{"android":"levelo://app?vid=248e7202-bf14-41af-ab35-7275ee6c4d6f","ios":"levelo://app?vid=248e7202-bf14-41af-ab35-7275ee6c4d6f"},"vehicle_type_id":"4","last_reported":1774729057,"current_range_meters":3600,"station_id":"","pricing_plan_id":"cebpf4jnsgd1na2vs0mg"},{"bike_id":"ff23f6c3-07d6-471d-b47c-972e4e2656c1","system_id":"levelo_inurba_marseille","lat":43.21219,"lon":5.35076,"is_reserved":false,"is_disabled":false,"rental_uris":{"android":"levelo://app?vid=ff23f6c3-07d6-471d-b47c-972e4e2656c1","ios":"levelo://app?vid=ff23f6c3-07d6-471d-b47c-972e4e2656c1"},"vehicle_type_id":"4","last_reported":1774729057,"current_range_meters":3600,"station_id":"st_cvj6sg6p6f1abm77japg","pricing_plan_id":"cebpf4jnsgd1na2vs0mg"},{"bike_id":"cbf2e30a-2d35-4cae-a847-4692bc6fecdf","system_id":"levelo_inurba_marseille","lat":43.29252,"lon":5.40901,"is_reserved":false,"is_disabled":false,"rental_uris":{"android":"levelo://app?vid=cbf2e30a-2d35-4cae-a847-4692bc6fecdf","ios":"levelo://app?vid=cbf2e30a-2d35-4cae-a847-4692bc6fecdf"},"vehicle_type_id":"4","last_reported":1774729057,"current_range_meters":3600,"station_id":"ce4bh192rcd13ifvqdc0","pricing_plan_id":"cebpf4jnsgd1na2vs0mg"},{"bike_id":"0c835763-f02f-4287-b7e2-a3f359841b66","system_id":"levelo_inurba_marseille","lat":43.29961,"lon":5.38494,"is_reserved":false,"is_disabled":false,"rental_uris":{"android":"levelo://app?vid=0c835763-f02f-4287-b7e2-a3f359841b66","ios":"levelo://app?vid=0c835763-f02f-4287-b7e2-a3f359841b66"},"vehicle_type_id":"4","last_reported":1774729057,"current_range_meters":3600,"station_id":"ce4bgj92rcd13ifvqbd0","pricing_plan_id":"cebpf4jnsgd1na2vs0mg"},{"bike_id":"38f4e415-36c2-4383-823c-17dbe9c22d68","system_id":"levelo_inurba_marseille","lat":43.23783,"lon":5.36638,"is_reserved":false,"is_disabled":false,"rental_uris":{"android":"levelo://app?vid=38f4e415-36c2-4383-823c-17dbe9c22d68","ios":"levelo://app?vid=38f4e415-36c2-4383-823c-17dbe9c22d68"},"vehicle_type_id":"4","last_reported":1774729057,"current_range_meters":3600,"station_id":"st_d3nk18o9ro0c73en2l3g","pricing_plan_id":"cebpf4jnsgd1na2vs0mg"},{"bike_id":"66e6ad04-d016-4f93-ac62-d24fc2cd3a9c","system_id":"levelo_inurba_marseille","lat":43.30774,"lon":5.37653,"is_reserved":false,"is_disabled":false,"rental_uris":{"android":"levelo://app?vid=66e6ad04-d016-4f93-ac62-d24fc2cd3a9c","ios":"levelo://app?vid=66e6ad04-d016-4f93-ac62-d24fc2cd3a9c"},"vehicle_type_id":"4","last_reported":1774729057,"current_range_meters":3600,"station_id":"ce4bgv92rcd13ifvqcq0","pricing_plan_id":"cebpf4jnsgd1na2vs0mg"},{"bike_id":"f967aac8-bff7-4d61-9c8d-307b8d7b6ffd","system_id":"levelo_inurba_marseille","lat":43.25338,"lon":5.42178,"is_reserved":false,"is_disabled":false,"rental_uris":{"android":"levelo://app?vid=f967aac8-bff7-4d61-9c8d-307b8d7b6ffd","ios":"levelo://app?vid=f967aac8-bff7-4d61-9c8d-307b8d7b6ffd"},"vehicle_type_id":"4","last_reported":1774729057,"current_range_meters":4000,"station_id":"st_d2m65c5bi1j21697t3ng","pricing_plan_id":"cebpf4jnsgd1na2vs0mg"},{"bike_id":"274566a6-b928-4208-94b9-678ac66d2af4","system_id":"levelo_inurba_marseille","lat":43.24154,"lon":5.36404,"is_reserved":false,"is_disabled":false,"rental_uris":{"android":"levelo://app?vid=274566a6-b928-4208-94b9-678ac66d2af4","ios":"levelo://app?vid=274566a6-b928-4208-94b9-678ac66d2af4"},"vehicle_type_id":"4","last_reported":1774729057,"current_range_meters":4000,"station_id":"cpo36qri1sfpv3e86is0","pricing_plan_id":"cebpf4jnsgd1na2vs0mg"},{"bike_id":"4a1cd1f9-dee8-4a38-9996-334929ed333a","system_id":"levelo_inurba_marseille","lat":43.2418,"lon":5.39724,"is_reserved":false,"is_disabled":false,"rental_uris":{"android":"levelo://app?vid=4a1cd1f9-dee8-4a38-9996-334929ed333a","ios":"levelo://app?vid=4a1cd1f9-dee8-4a38-9996-334929ed333a"},"vehicle_type_id":"4","last_reported":1774729057,"current_range_meters":4000,"station_id":"ce4bhn12rcd13ifvqgpg","pricing_plan_id":"cebpf4jnsgd1na2vs0mg"},{"bike_id":"069b2c37-0541-4ce9-84e5-9f146f8e24bb","system_id":"levelo_inurba_marseille","lat":43.30567,"lon":5.3653,"is_reserved":false,"is_disabled":false,"rental_uris":{"android":"levelo://app?vid=069b2c37-0541-4ce9-84e5-9f146f8e24bb","ios":"levelo://app?vid=069b2c37-0541-4ce9-84e5-9f146f8e24bb"},"vehicle_type_id":"4","last_reported":1774729057,"current_range_meters":4000,"station_id":"ce4bgs12rcd13ifvqcag","pricing_plan_id":"cebpf4jnsgd1na2vs0mg"},{"bike_id":"7d88454c-5db9-4cbe-86a0-1ebe5d14c121","system_id":"levelo_inurba_marseille","lat":43.26959,"lon":5.38888,"is_reserved":false,"is_disabled":false,"rental_uris":{"android":"levelo://app?vid=7d88454c-5db9-4cbe-86a0-1ebe5d14c121","ios":"levelo://app?vid=7d88454c-5db9-4cbe-86a0-1ebe5d14c121"},"vehicle_type_id":"4","last_reported":1774729057,"current_range_meters":4000,"station_id":"","pricing_plan_id":"cebpf4jnsgd1na2vs0mg"},{"bike_id":"13921be2-b2f8-4f05-9c3e-61df921efa9c","system_id":"levelo_inurba_marseille","lat":43.29089,"lon":5.3814,"is_reserved":false,"is_disabled":false,"rental_uris":{"android":"levelo://app?vid=13921be2-b2f8-4f05-9c3e-61df921efa9c","ios":"levelo://app?vid=13921be2-b2f8-4f05-9c3e-61df921efa9c"},"vehicle_type_id":"4","last_reported":1774729057,"current_range_meters":4000,"station_id":"ce4bh512rcd13ifvqe2g","pricing_plan_id":"cebpf4jnsgd1na2vs0mg"},{"bike_id":"bd89dab9-7c16-4ba5-903e-9663dd927b27","system_id":"levelo_inurba_marseille","lat":43.27524,"lon":5.41563,"is_reserved":false,"is_disabled":false,"rental_uris":{"android":"levelo://app?vid=bd89dab9-7c16-4ba5-903e-9663dd927b27","ios":"levelo://app?vid=bd89dab9-7c16-4ba5-903e-9663dd927b27"},"vehicle_type_id":"4","last_reported":1774729057,"current_range_meters":4000,"station_id":"st_d6im8g6chgec73a5pndg","pricing_plan_id":"cebpf4jnsgd1na2vs0mg"},{"bike_id":"9bb739c8-0830-445d-9a52-071c8d33dcc3","system_id":"levelo_inurba_marseille","lat":43.31183,"lon":5.36868,"is_reserved":false,"is_disabled":false,"rental_uris":{"android":"levelo://app?vid=9bb739c8-0830-445d-9a52-071c8d33dcc3","ios":"levelo://app?vid=9bb739c8-0830-445d-9a52-071c8d33dcc3"},"vehicle_type_id":"4","last_reported":1774729057,"current_range_meters":4000,"station_id":"ce4bgl92rcd13ifvqbq0","pricing_plan_id":"cebpf4jnsgd1na2vs0mg"},{"bike_id":"9c448445-1c60-4520-a1cb-98a7a7992b90","system_id":"levelo_inurba_marseille","lat":43.28476,"lon":5.48399,"is_reserved":false,"is_disabled":false,"rental_uris":{"android":"levelo://app?vid=9c448445-1c60-4520-a1cb-98a7a7992b90","ios":"levelo://app?vid=9c448445-1c60-4520-a1cb-98a7a7992b90"},"vehicle_type_id":"4","last_reported":1774729057,"current_range_meters":4000,"station_id":"","pricing_plan_id":"cebpf4jnsgd1na2vs0mg"},{"bike_id":"fc9d355b-0829-40d8-a321-09eeb1df91e5","system_id":"levelo_inurba_marseille","lat":43.283697,"lon":5.386314,"is_reserved":false,"is_disabled":false,"rental_uris":{"android":"levelo://app?vid=fc9d355b-0829-40d8-a321-09eeb1df91e5","ios":"levelo://app?vid=fc9d355b-0829-40d8-a321-09eeb1df91e5"},"vehicle_type_id":"4","last_reported":1774729057,"current_range_meters":4000,"station_id":"ce4bh492rcd13ifvqdvg","pricing_plan_id":"cebpf4jnsgd1na2vs0mg"},{"bike_id":"aa9b29ac-dcd6-4f69-aef4-888ed1044715","system_id":"levelo_inurba_marseille","lat":43.25101,"lon":5.40311,"is_reserved":false,"is_disabled":false,"rental_uris":{"android":"levelo://app?vid=aa9b29ac-dcd6-4f69-aef4-888ed1044715","ios":"levelo://app?vid=aa9b29ac-dcd6-4f69-aef4-888ed1044715"},"vehicle_type_id":"4","last_reported":1774729057,"current_range_meters":4000,"station_id":"ce4bhlh2rcd13ifvqgig","pricing_plan_id":"cebpf4jnsgd1na2vs0mg"},{"bike_id":"b51d43d0-b538-4b30-b0d5-e5c1be881443","system_id":"levelo_inurba_marseille","lat":43.28677,"lon":5.46725,"is_reserved":false,"is_disabled":false,"rental_uris":{"android":"levelo://app?vid=b51d43d0-b538-4b30-b0d5-e5c1be881443","ios":"levelo://app?vid=b51d43d0-b538-4b30-b0d5-e5c1be881443"},"vehicle_type_id":"4","last_reported":1774729057,"current_range_meters":4000,"station_id":"st_d6tc3vkotcvc738tfjhg","pricing_plan_id":"cebpf4jnsgd1na2vs0mg"},{"bike_id":"04036cd8-134f-41e0-a1d4-5be3cecd1002","system_id":"levelo_inurba_marseille","lat":43.29188,"lon":5.39334,"is_reserved":false,"is_disabled":false,"rental_uris":{"android":"levelo://app?vid=04036cd8-134f-41e0-a1d4-5be3cecd1002","ios":"levelo://app?vid=04036cd8-134f-41e0-a1d4-5be3cecd1002"},"vehicle_type_id":"4","last_reported":1774729057,"current_range_meters":4000,"station_id":"ce4bh192rcd13ifvqdd0","pricing_plan_id":"cebpf4jnsgd1na2vs0mg"},{"bike_id":"6c2a1739-fe94-46e9-988c-0dc5185d4012","system_id":"levelo_inurba_marseille","lat":43.31124,"lon":5.38614,"is_reserved":false,"is_disabled":false,"rental_uris":{"android":"levelo://app?vid=6c2a1739-fe94-46e9-988c-0dc5185d4012","ios":"levelo://app?vid=6c2a1739-fe94-46e9-988c-0dc5185d4012"},"vehicle_type_id":"4","last_reported":1774729057,"current_range_meters":4400,"station_id":"","pricing_plan_id":"cebpf4jnsgd1na2vs0mg"},{"bike_id":"1e02fd97-12b6-42bd-b23c-433ee22bd9de","system_id":"levelo_inurba_marseille","lat":43.29026,"lon":5.38152,"is_reserved":false,"is_disabled":true,"rental_uris":{"android":"levelo://app?vid=1e02fd97-12b6-42bd-b23c-433ee22bd9de","ios":"levelo://app?vid=1e02fd97-12b6-42bd-b23c-433ee22bd9de"},"vehicle_type_id":"4","last_reported":1774729057,"current_range_meters":4400,"station_id":"ce4bh4p2rcd13ifvqe1g","pricing_plan_id":"cebpf4jnsgd1na2vs0mg"},{"bike_id":"d97252d0-3958-45e2-926c-26e2d5f2ad61","system_id":"levelo_inurba_marseille","lat":43.24821,"lon":5.37462,"is_reserved":false,"is_disabled":false,"rental_uris":{"android":"levelo://app?vid=d97252d0-3958-45e2-926c-26e2d5f2ad61","ios":"levelo://app?vid=d97252d0-3958-45e2-926c-26e2d5f2ad61"},"vehicle_type_id":"4","last_reported":1774729057,"current_range_meters":4400,"station_id":"ce4bhgh2rcd13ifvqfb0","pricing_plan_id":"cebpf4jnsgd1na2vs0mg"},{"bike_id":"40a9b225-0800-41d8-8f8d-434050f0d2a0","system_id":"levelo_inurba_marseille","lat":43.28928,"lon":5.38404,"is_reserved":false,"is_disabled":false,"rental_uris":{"android":"levelo://app?vid=40a9b225-0800-41d8-8f8d-434050f0d2a0","ios":"levelo://app?vid=40a9b225-0800-41d8-8f8d-434050f0d2a0"},"vehicle_type_id":"4","last_reported":1774729057,"current_range_meters":4400,"station_id":"ce4bh612rcd13ifvqe6g","pricing_plan_id":"cebpf4jnsgd1na2vs0mg"},{"bike_id":"5969c3f9-bb5c-48df-9b54-f62d28d08c6a","system_id":"levelo_inurba_marseille","lat":43.26037,"lon":5.39395,"is_reserved":false,"is_disabled":false,"rental_uris":{"android":"levelo://app?vid=5969c3f9-bb5c-48df-9b54-f62d28d08c6a","ios":"levelo://app?vid=5969c3f9-bb5c-48df-9b54-f62d28d08c6a"},"vehicle_type_id":"4","last_reported":1774729057,"current_range_meters":4400,"station_id":"ce4bhh92rcd13ifvqfj0","pricing_plan_id":"cebpf4jnsgd1na2vs0mg"},{"bike_id":"eefb45c2-fa8b-4f25-81e2-e893ce88a482","system_id":"levelo_inurba_marseille","lat":43.31108,"lon":5.3777,"is_reserved":false,"is_disabled":false,"rental_uris":{"android":"levelo://app?vid=eefb45c2-fa8b-4f25-81e2-e893ce88a482","ios":"levelo://app?vid=eefb45c2-fa8b-4f25-81e2-e893ce88a482"},"vehicle_type_id":"4","last_reported":1774729057,"current_range_meters":4400,"station_id":"ce4bgt92rcd13ifvqcg0","pricing_plan_id":"cebpf4jnsgd1na2vs0mg"},{"bike_id":"887a90d7-1245-44e3-a6fe-edaa4e75651e","system_id":"levelo_inurba_marseille","lat":43.29297,"lon":5.3758,"is_reserved":false,"is_disabled":false,"rental_uris":{"android":"levelo://app?vid=887a90d7-1245-44e3-a6fe-edaa4e75651e","ios":"levelo://app?vid=887a90d7-1245-44e3-a6fe-edaa4e75651e"},"vehicle_type_id":"4","last_reported":1774729057,"current_range_meters":4400,"station_id":"","pricing_plan_id":"cebpf4jnsgd1na2vs0mg"},{"bike_id":"c21db2bd-cbeb-4388-9b57-9b4bb729632d","system_id":"levelo_inurba_marseille","lat":43.31106,"lon":5.37752,"is_reserved":false,"is_disabled":false,"rental_uris":{"android":"levelo://app?vid=c21db2bd-cbeb-4388-9b57-9b4bb729632d","ios":"levelo://app?vid=c21db2bd-cbeb-4388-9b57-9b4bb729632d"},"vehicle_type_id":"4","last_reported":1774729057,"current_range_meters":4400,"station_id":"ce4bgt92rcd13ifvqcg0","pricing_plan_id":"cebpf4jnsgd1na2vs0mg"},{"bike_id":"c36307c2-9d67-442b-891a-88cbda3d03e9","system_id":"levelo_inurba_marseille","lat":43.29089,"lon":5.38137,"is_reserved":false,"is_disabled":false,"rental_uris":{"android":"levelo://app?vid=c36307c2-9d67-442b-891a-88cbda3d03e9","ios":"levelo://app?vid=c36307c2-9d67-442b-891a-88cbda3d03e9"},"vehicle_type_id":"4","last_reported":1774729057,"current_range_meters":4400,"station_id":"ce4bh512rcd13ifvqe2g","pricing_plan_id":"cebpf4jnsgd1na2vs0mg"},{"bike_id":"33aedb66-48d7-4b0c-815c-650aee7ca9c5","system_id":"levelo_inurba_marseille","lat":43.3053,"lon":5.38451,"is_reserved":false,"is_disabled":false,"rental_uris":{"android":"levelo://app?vid=33aedb66-48d7-4b0c-815c-650aee7ca9c5","ios":"levelo://app?vid=33aedb66-48d7-4b0c-815c-650aee7ca9c5"},"vehicle_type_id":"4","last_reported":1774729057,"current_range_meters":4400,"station_id":"ce4bgg92rcd13ifvqb30","pricing_plan_id":"cebpf4jnsgd1na2vs0mg"},{"bike_id":"e2fd0609-65a4-4990-91d6-e89e8fbab07e","system_id":"levelo_inurba_marseille","lat":43.32098,"lon":5.36796,"is_reserved":false,"is_disabled":false,"rental_uris":{"android":"levelo://app?vid=e2fd0609-65a4-4990-91d6-e89e8fbab07e","ios":"levelo://app?vid=e2fd0609-65a4-4990-91d6-e89e8fbab07e"},"vehicle_type_id":"4","last_reported":1774729057,"current_range_meters":4400,"station_id":"ce4bhrh2rcd13ifvqhug","pricing_plan_id":"cebpf4jnsgd1na2vs0mg"},{"bike_id":"62e86b36-0068-406a-b0f3-96b5d04c2a75","system_id":"levelo_inurba_marseille","lat":43.30885,"lon":5.39655,"is_reserved":false,"is_disabled":false,"rental_uris":{"android":"levelo://app?vid=62e86b36-0068-406a-b0f3-96b5d04c2a75","ios":"levelo://app?vid=62e86b36-0068-406a-b0f3-96b5d04c2a75"},"vehicle_type_id":"4","last_reported":1774729057,"current_range_meters":4400,"station_id":"ce4bh012rcd13ifvqcv0","pricing_plan_id":"cebpf4jnsgd1na2vs0mg"},{"bike_id":"edd74370-b43f-47b3-88f7-58d130733f2b","system_id":"levelo_inurba_marseille","lat":43.31126,"lon":5.37763,"is_reserved":false,"is_disabled":false,"rental_uris":{"android":"levelo://app?vid=edd74370-b43f-47b3-88f7-58d130733f2b","ios":"levelo://app?vid=edd74370-b43f-47b3-88f7-58d130733f2b"},"vehicle_type_id":"4","last_reported":1774729057,"current_range_meters":4400,"station_id":"ce4bgt92rcd13ifvqcg0","pricing_plan_id":"cebpf4jnsgd1na2vs0mg"},{"bike_id":"2f019591-3087-43f0-affb-e2eede13213e","system_id":"levelo_inurba_marseille","lat":43.24211,"lon":5.36636,"is_reserved":false,"is_disabled":false,"rental_uris":{"android":"levelo://app?vid=2f019591-3087-43f0-affb-e2eede13213e","ios":"levelo://app?vid=2f019591-3087-43f0-affb-e2eede13213e"},"vehicle_type_id":"4","last_reported":1774729057,"current_range_meters":4800,"station_id":"","pricing_plan_id":"cebpf4jnsgd1na2vs0mg"},{"bike_id":"ff0da1a2-3d1c-43ac-899e-2eb7e114000d","system_id":"levelo_inurba_marseille","lat":43.24161,"lon":5.39719,"is_reserved":false,"is_disabled":false,"rental_uris":{"android":"levelo://app?vid=ff0da1a2-3d1c-43ac-899e-2eb7e114000d","ios":"levelo://app?vid=ff0da1a2-3d1c-43ac-899e-2eb7e114000d"},"vehicle_type_id":"4","last_reported":1774729057,"current_range_meters":4800,"station_id":"ce4bhn12rcd13ifvqgpg","pricing_plan_id":"cebpf4jnsgd1na2vs0mg"},{"bike_id":"5e14f141-0e97-481f-bea4-cf489480bf75","system_id":"levelo_inurba_marseille","lat":43.31224,"lon":5.36878,"is_reserved":false,"is_disabled":false,"rental_uris":{"android":"levelo://app?vid=5e14f141-0e97-481f-bea4-cf489480bf75","ios":"levelo://app?vid=5e14f141-0e97-481f-bea4-cf489480bf75"},"vehicle_type_id":"4","last_reported":1774729057,"current_range_meters":4800,"station_id":"ce4bgl92rcd13ifvqbq0","pricing_plan_id":"cebpf4jnsgd1na2vs0mg"},{"bike_id":"f3d47af6-5b42-4057-b9f6-c501bdc25d75","system_id":"levelo_inurba_marseille","lat":43.23379,"lon":5.41237,"is_reserved":false,"is_disabled":false,"rental_uris":{"android":"levelo://app?vid=f3d47af6-5b42-4057-b9f6-c501bdc25d75","ios":"levelo://app?vid=f3d47af6-5b42-4057-b9f6-c501bdc25d75"},"vehicle_type_id":"4","last_reported":1774729057,"current_range_meters":4800,"station_id":"","pricing_plan_id":"cebpf4jnsgd1na2vs0mg"},{"bike_id":"7f5f4a35-fda4-4a33-b7ae-332aa08e4387","system_id":"levelo_inurba_marseille","lat":43.29798,"lon":5.42795,"is_reserved":false,"is_disabled":false,"rental_uris":{"android":"levelo://app?vid=7f5f4a35-fda4-4a33-b7ae-332aa08e4387","ios":"levelo://app?vid=7f5f4a35-fda4-4a33-b7ae-332aa08e4387"},"vehicle_type_id":"4","last_reported":1774729057,"current_range_meters":4800,"station_id":"st_d3md5207bmas73dh9klg","pricing_plan_id":"cebpf4jnsgd1na2vs0mg"},{"bike_id":"aab68428-cb5e-4269-a230-3f9cb51b72af","system_id":"levelo_inurba_marseille","lat":43.24545,"lon":5.39519,"is_reserved":false,"is_disabled":false,"rental_uris":{"android":"levelo://app?vid=aab68428-cb5e-4269-a230-3f9cb51b72af","ios":"levelo://app?vid=aab68428-cb5e-4269-a230-3f9cb51b72af"},"vehicle_type_id":"4","last_reported":1774729057,"current_range_meters":4800,"station_id":"ce4bhlp2rcd13ifvqgjg","pricing_plan_id":"cebpf4jnsgd1na2vs0mg"},{"bike_id":"b90b65e1-0e71-45b8-846a-3d9d421f7ac3","system_id":"levelo_inurba_marseille","lat":43.28982,"lon":5.38627,"is_reserved":false,"is_disabled":false,"rental_uris":{"android":"levelo://app?vid=b90b65e1-0e71-45b8-846a-3d9d421f7ac3","ios":"levelo://app?vid=b90b65e1-0e71-45b8-846a-3d9d421f7ac3"},"vehicle_type_id":"4","last_reported":1774729057,"current_range_meters":4800,"station_id":"","pricing_plan_id":"cebpf4jnsgd1na2vs0mg"},{"bike_id":"ff01e3e4-1dd3-4e88-ba46-bb2bac9cbad9","system_id":"levelo_inurba_marseille","lat":43.27372,"lon":5.36251,"is_reserved":false,"is_disabled":false,"rental_uris":{"android":"levelo://app?vid=ff01e3e4-1dd3-4e88-ba46-bb2bac9cbad9","ios":"levelo://app?vid=ff01e3e4-1dd3-4e88-ba46-bb2bac9cbad9"},"vehicle_type_id":"4","last_reported":1774729057,"current_range_meters":4800,"station_id":"ce4bhbh2rcd13ifvqeo0","pricing_plan_id":"cebpf4jnsgd1na2vs0mg"},{"bike_id":"8ca828fa-310a-4adb-ae46-512d1c32f75b","system_id":"levelo_inurba_marseille","lat":43.24466,"lon":5.42535,"is_reserved":false,"is_disabled":false,"rental_uris":{"android":"levelo://app?vid=8ca828fa-310a-4adb-ae46-512d1c32f75b","ios":"levelo://app?vid=8ca828fa-310a-4adb-ae46-512d1c32f75b"},"vehicle_type_id":"4","last_reported":1774729057,"current_range_meters":4800,"station_id":"st_d4a3vfp97mjs738cd8kg","pricing_plan_id":"cebpf4jnsgd1na2vs0mg"},{"bike_id":"70845e60-667c-4848-9ab6-a17610edf26c","system_id":"levelo_inurba_marseille","lat":43.28999,"lon":5.35607,"is_reserved":false,"is_disabled":false,"rental_uris":{"android":"levelo://app?vid=70845e60-667c-4848-9ab6-a17610edf26c","ios":"levelo://app?vid=70845e60-667c-4848-9ab6-a17610edf26c"},"vehicle_type_id":"4","last_reported":1774729057,"current_range_meters":4800,"station_id":"ce4bhb92rcd13ifvqen0","pricing_plan_id":"cebpf4jnsgd1na2vs0mg"},{"bike_id":"9894d46f-f5cd-4c55-b506-7a9646c52762","system_id":"levelo_inurba_marseille","lat":43.25085,"lon":5.39523,"is_reserved":false,"is_disabled":false,"rental_uris":{"android":"levelo://app?vid=9894d46f-f5cd-4c55-b506-7a9646c52762","ios":"levelo://app?vid=9894d46f-f5cd-4c55-b506-7a9646c52762"},"vehicle_type_id":"4","last_reported":1774729057,"current_range_meters":5600,"station_id":"ce4bhm12rcd13ifvqgkg","pricing_plan_id":"cebpf4jnsgd1na2vs0mg"},{"bike_id":"7e4fb604-8f8e-4a52-a076-4aa0d54b8dd9","system_id":"levelo_inurba_marseille","lat":43.27172,"lon":5.40993,"is_reserved":false,"is_disabled":false,"rental_uris":{"android":"levelo://app?vid=7e4fb604-8f8e-4a52-a076-4aa0d54b8dd9","ios":"levelo://app?vid=7e4fb604-8f8e-4a52-a076-4aa0d54b8dd9"},"vehicle_type_id":"4","last_reported":1774729057,"current_range_meters":5600,"station_id":"ce4bhl12rcd13ifvqgf0","pricing_plan_id":"cebpf4jnsgd1na2vs0mg"},{"bike_id":"4261fad2-1e9a-40a4-a4ce-af58c191085f","system_id":"levelo_inurba_marseille","lat":43.31498,"lon":5.37264,"is_reserved":false,"is_disabled":false,"rental_uris":{"android":"levelo://app?vid=4261fad2-1e9a-40a4-a4ce-af58c191085f","ios":"levelo://app?vid=4261fad2-1e9a-40a4-a4ce-af58c191085f"},"vehicle_type_id":"4","last_reported":1774729057,"current_range_meters":5600,"station_id":"ce4bgt12rcd13ifvqcd0","pricing_plan_id":"cebpf4jnsgd1na2vs0mg"},{"bike_id":"da3828ab-d25e-4e73-a41f-fb498af2d4d4","system_id":"levelo_inurba_marseille","lat":43.24388,"lon":5.37068,"is_reserved":false,"is_disabled":false,"rental_uris":{"android":"levelo://app?vid=da3828ab-d25e-4e73-a41f-fb498af2d4d4","ios":"levelo://app?vid=da3828ab-d25e-4e73-a41f-fb498af2d4d4"},"vehicle_type_id":"4","last_reported":1774729057,"current_range_meters":5600,"station_id":"ce4bhhh2rcd13ifvqfk0","pricing_plan_id":"cebpf4jnsgd1na2vs0mg"},{"bike_id":"7c655635-ba8c-474b-be1f-b576c74c289f","system_id":"levelo_inurba_marseille","lat":43.31113,"lon":5.37762,"is_reserved":false,"is_disabled":false,"rental_uris":{"android":"levelo://app?vid=7c655635-ba8c-474b-be1f-b576c74c289f","ios":"levelo://app?vid=7c655635-ba8c-474b-be1f-b576c74c289f"},"vehicle_type_id":"4","last_reported":1774729057,"current_range_meters":5600,"station_id":"ce4bgt92rcd13ifvqcg0","pricing_plan_id":"cebpf4jnsgd1na2vs0mg"},{"bike_id":"5f43315d-0dc7-46df-9700-67d9b72fe36d","system_id":"levelo_inurba_marseille","lat":43.29231,"lon":5.3877,"is_reserved":false,"is_disabled":false,"rental_uris":{"android":"levelo://app?vid=5f43315d-0dc7-46df-9700-67d9b72fe36d","ios":"levelo://app?vid=5f43315d-0dc7-46df-9700-67d9b72fe36d"},"vehicle_type_id":"4","last_reported":1774729057,"current_range_meters":5600,"station_id":"","pricing_plan_id":"cebpf4jnsgd1na2vs0mg"},{"bike_id":"609cfed6-9195-42b7-95f9-e2ea8bcdb4df","system_id":"levelo_inurba_marseille","lat":43.29574,"lon":5.37513,"is_reserved":false,"is_disabled":false,"rental_uris":{"android":"levelo://app?vid=609cfed6-9195-42b7-95f9-e2ea8bcdb4df","ios":"levelo://app?vid=609cfed6-9195-42b7-95f9-e2ea8bcdb4df"},"vehicle_type_id":"4","last_reported":1774729057,"current_range_meters":5600,"station_id":"ce4bgh92rcd13ifvqb50","pricing_plan_id":"cebpf4jnsgd1na2vs0mg"},{"bike_id":"24579790-dbc0-48f5-9802-612c25e33241","system_id":"levelo_inurba_marseille","lat":43.28534,"lon":5.44095,"is_reserved":false,"is_disabled":false,"rental_uris":{"android":"levelo://app?vid=24579790-dbc0-48f5-9802-612c25e33241","ios":"levelo://app?vid=24579790-dbc0-48f5-9802-612c25e33241"},"vehicle_type_id":"4","last_reported":1774729057,"current_range_meters":5600,"station_id":"st_d3j3df2ikq2c7380ej80","pricing_plan_id":"cebpf4jnsgd1na2vs0mg"},{"bike_id":"3f5fd5e5-cfbf-4444-8915-6181fbb94ef7","system_id":"levelo_inurba_marseille","lat":43.25327,"lon":5.42163,"is_reserved":false,"is_disabled":false,"rental_uris":{"android":"levelo://app?vid=3f5fd5e5-cfbf-4444-8915-6181fbb94ef7","ios":"levelo://app?vid=3f5fd5e5-cfbf-4444-8915-6181fbb94ef7"},"vehicle_type_id":"4","last_reported":1774729057,"current_range_meters":5600,"station_id":"st_d2m65c5bi1j21697t3ng","pricing_plan_id":"cebpf4jnsgd1na2vs0mg"},{"bike_id":"28f47ab4-ea9f-4d69-8be5-964a5e630350","system_id":"levelo_inurba_marseille","lat":43.29635,"lon":5.40609,"is_reserved":false,"is_disabled":false,"rental_uris":{"android":"levelo://app?vid=28f47ab4-ea9f-4d69-8be5-964a5e630350","ios":"levelo://app?vid=28f47ab4-ea9f-4d69-8be5-964a5e630350"},"vehicle_type_id":"4","last_reported":1774729057,"current_range_meters":5600,"station_id":"ce4bh0h2rcd13ifvqd60","pricing_plan_id":"cebpf4jnsgd1na2vs0mg"},{"bike_id":"fc3a06bd-3541-452a-942e-1851d5043e0e","system_id":"levelo_inurba_marseille","lat":43.3054,"lon":5.38432,"is_reserved":false,"is_disabled":false,"rental_uris":{"android":"levelo://app?vid=fc3a06bd-3541-452a-942e-1851d5043e0e","ios":"levelo://app?vid=fc3a06bd-3541-452a-942e-1851d5043e0e"},"vehicle_type_id":"4","last_reported":1774729057,"current_range_meters":5600,"station_id":"ce4bgg92rcd13ifvqb30","pricing_plan_id":"cebpf4jnsgd1na2vs0mg"},{"bike_id":"a8c3f471-9f54-43a4-9d32-c7edd5f99357","system_id":"levelo_inurba_marseille","lat":43.23888,"lon":5.37465,"is_reserved":false,"is_disabled":false,"rental_uris":{"android":"levelo://app?vid=a8c3f471-9f54-43a4-9d32-c7edd5f99357","ios":"levelo://app?vid=a8c3f471-9f54-43a4-9d32-c7edd5f99357"},"vehicle_type_id":"4","last_reported":1774729057,"current_range_meters":5600,"station_id":"st_d6sm7csbq4hs73f8fpjg","pricing_plan_id":"cebpf4jnsgd1na2vs0mg"},{"bike_id":"80f7f6c4-1406-416c-b47d-0fd56bd91196","system_id":"levelo_inurba_marseille","lat":43.21208,"lon":5.35047,"is_reserved":false,"is_disabled":false,"rental_uris":{"android":"levelo://app?vid=80f7f6c4-1406-416c-b47d-0fd56bd91196","ios":"levelo://app?vid=80f7f6c4-1406-416c-b47d-0fd56bd91196"},"vehicle_type_id":"4","last_reported":1774729057,"current_range_meters":5600,"station_id":"st_cvj6sg6p6f1abm77japg","pricing_plan_id":"cebpf4jnsgd1na2vs0mg"},{"bike_id":"a252e9d3-257d-4046-8328-43e3fbf4acb1","system_id":"levelo_inurba_marseille","lat":43.29225,"lon":5.38774,"is_reserved":false,"is_disabled":false,"rental_uris":{"android":"levelo://app?vid=a252e9d3-257d-4046-8328-43e3fbf4acb1","ios":"levelo://app?vid=a252e9d3-257d-4046-8328-43e3fbf4acb1"},"vehicle_type_id":"4","last_reported":1774729057,"current_range_meters":5600,"station_id":"","pricing_plan_id":"cebpf4jnsgd1na2vs0mg"},{"bike_id":"fbd013e2-8567-4cc4-a7c6-24dd8fd5e924","system_id":"levelo_inurba_marseille","lat":43.28988,"lon":5.35614,"is_reserved":false,"is_disabled":false,"rental_uris":{"android":"levelo://app?vid=fbd013e2-8567-4cc4-a7c6-24dd8fd5e924","ios":"levelo://app?vid=fbd013e2-8567-4cc4-a7c6-24dd8fd5e924"},"vehicle_type_id":"4","last_reported":1774729057,"current_range_meters":5600,"station_id":"ce4bhb92rcd13ifvqen0","pricing_plan_id":"cebpf4jnsgd1na2vs0mg"},{"bike_id":"ac4add4d-0d0e-4278-879c-33c8f18e4696","system_id":"levelo_inurba_marseille","lat":43.30558,"lon":5.36541,"is_reserved":false,"is_disabled":false,"rental_uris":{"android":"levelo://app?vid=ac4add4d-0d0e-4278-879c-33c8f18e4696","ios":"levelo://app?vid=ac4add4d-0d0e-4278-879c-33c8f18e4696"},"vehicle_type_id":"4","last_reported":1774729057,"current_range_meters":5600,"station_id":"ce4bgs12rcd13ifvqcag","pricing_plan_id":"cebpf4jnsgd1na2vs0mg"},{"bike_id":"3137e3ea-7797-4cae-a237-2a996dd9ad4a","system_id":"levelo_inurba_marseille","lat":43.28473,"lon":5.48389,"is_reserved":false,"is_disabled":false,"rental_uris":{"android":"levelo://app?vid=3137e3ea-7797-4cae-a237-2a996dd9ad4a","ios":"levelo://app?vid=3137e3ea-7797-4cae-a237-2a996dd9ad4a"},"vehicle_type_id":"4","last_reported":1774729057,"current_range_meters":6000,"station_id":"","pricing_plan_id":"cebpf4jnsgd1na2vs0mg"},{"bike_id":"ac1a9d6c-17a0-4e01-9607-d886e691e83d","system_id":"levelo_inurba_marseille","lat":43.24396,"lon":5.37068,"is_reserved":false,"is_disabled":false,"rental_uris":{"android":"levelo://app?vid=ac1a9d6c-17a0-4e01-9607-d886e691e83d","ios":"levelo://app?vid=ac1a9d6c-17a0-4e01-9607-d886e691e83d"},"vehicle_type_id":"4","last_reported":1774729057,"current_range_meters":6000,"station_id":"ce4bhhh2rcd13ifvqfk0","pricing_plan_id":"cebpf4jnsgd1na2vs0mg"},{"bike_id":"6d55693b-f207-45a6-8bc4-a39ad3c9ba7a","system_id":"levelo_inurba_marseille","lat":43.26798,"lon":5.38999,"is_reserved":false,"is_disabled":false,"rental_uris":{"android":"levelo://app?vid=6d55693b-f207-45a6-8bc4-a39ad3c9ba7a","ios":"levelo://app?vid=6d55693b-f207-45a6-8bc4-a39ad3c9ba7a"},"vehicle_type_id":"4","last_reported":1774729057,"current_range_meters":6000,"station_id":"","pricing_plan_id":"cebpf4jnsgd1na2vs0mg"},{"bike_id":"f6d4245b-c41c-4ec7-bb98-524c289bd3f3","system_id":"levelo_inurba_marseille","lat":43.25556,"lon":5.3825,"is_reserved":false,"is_disabled":false,"rental_uris":{"android":"levelo://app?vid=f6d4245b-c41c-4ec7-bb98-524c289bd3f3","ios":"levelo://app?vid=f6d4245b-c41c-4ec7-bb98-524c289bd3f3"},"vehicle_type_id":"4","last_reported":1774729057,"current_range_meters":6000,"station_id":"ce4bhih2rcd13ifvqfs0","pricing_plan_id":"cebpf4jnsgd1na2vs0mg"},{"bike_id":"b10b5c9d-32a7-453a-b818-152f69f05c04","system_id":"levelo_inurba_marseille","lat":43.29523,"lon":5.39038,"is_reserved":false,"is_disabled":false,"rental_uris":{"android":"levelo://app?vid=b10b5c9d-32a7-453a-b818-152f69f05c04","ios":"levelo://app?vid=b10b5c9d-32a7-453a-b818-152f69f05c04"},"vehicle_type_id":"4","last_reported":1774729057,"current_range_meters":6000,"station_id":"ce4bh3p2rcd13ifvqdp0","pricing_plan_id":"cebpf4jnsgd1na2vs0mg"},{"bike_id":"1bebdd87-eb20-43f1-8d96-9fdb37cf655b","system_id":"levelo_inurba_marseille","lat":43.29536,"lon":5.38543,"is_reserved":false,"is_disabled":false,"rental_uris":{"android":"levelo://app?vid=1bebdd87-eb20-43f1-8d96-9fdb37cf655b","ios":"levelo://app?vid=1bebdd87-eb20-43f1-8d96-9fdb37cf655b"},"vehicle_type_id":"4","last_reported":1774729057,"current_range_meters":6000,"station_id":"","pricing_plan_id":"cebpf4jnsgd1na2vs0mg"},{"bike_id":"9c0c7dc2-8e4c-4e55-891f-3e8c2c779959","system_id":"levelo_inurba_marseille","lat":43.25008,"lon":5.38932,"is_reserved":false,"is_disabled":false,"rental_uris":{"android":"levelo://app?vid=9c0c7dc2-8e4c-4e55-891f-3e8c2c779959","ios":"levelo://app?vid=9c0c7dc2-8e4c-4e55-891f-3e8c2c779959"},"vehicle_type_id":"4","last_reported":1774729057,"current_range_meters":6000,"station_id":"ce4bhgp2rcd13ifvqfd0","pricing_plan_id":"cebpf4jnsgd1na2vs0mg"},{"bike_id":"3e8af8be-cad9-4dd1-a766-65bd9877f462","system_id":"levelo_inurba_marseille","lat":43.3122,"lon":5.36817,"is_reserved":false,"is_disabled":false,"rental_uris":{"android":"levelo://app?vid=3e8af8be-cad9-4dd1-a766-65bd9877f462","ios":"levelo://app?vid=3e8af8be-cad9-4dd1-a766-65bd9877f462"},"vehicle_type_id":"4","last_reported":1774729057,"current_range_meters":6000,"station_id":"ce4bgl92rcd13ifvqbq0","pricing_plan_id":"cebpf4jnsgd1na2vs0mg"},{"bike_id":"492f0bd6-995d-4a7f-97f2-6e6f66731230","system_id":"levelo_inurba_marseille","lat":43.29574,"lon":5.39972,"is_reserved":false,"is_disabled":false,"rental_uris":{"android":"levelo://app?vid=492f0bd6-995d-4a7f-97f2-6e6f66731230","ios":"levelo://app?vid=492f0bd6-995d-4a7f-97f2-6e6f66731230"},"vehicle_type_id":"4","last_reported":1774729057,"current_range_meters":6000,"station_id":"ce4bh312rcd13ifvqdj0","pricing_plan_id":"cebpf4jnsgd1na2vs0mg"},{"bike_id":"f31d687b-f39f-4799-a123-ec0aec4b625b","system_id":"levelo_inurba_marseille","lat":43.30592,"lon":5.37265,"is_reserved":false,"is_disabled":true,"rental_uris":{"android":"levelo://app?vid=f31d687b-f39f-4799-a123-ec0aec4b625b","ios":"levelo://app?vid=f31d687b-f39f-4799-a123-ec0aec4b625b"},"vehicle_type_id":"4","last_reported":1774729057,"current_range_meters":6000,"station_id":"ce4bgqh2rcd13ifvqc4g","pricing_plan_id":"cebpf4jnsgd1na2vs0mg"},{"bike_id":"65b9b97b-854c-48dd-bdf1-822b26888732","system_id":"levelo_inurba_marseille","lat":43.28427,"lon":5.35008,"is_reserved":false,"is_disabled":false,"rental_uris":{"android":"levelo://app?vid=65b9b97b-854c-48dd-bdf1-822b26888732","ios":"levelo://app?vid=65b9b97b-854c-48dd-bdf1-822b26888732"},"vehicle_type_id":"4","last_reported":1774729057,"current_range_meters":6000,"station_id":"ce4bhbh2rcd13ifvqepg","pricing_plan_id":"cebpf4jnsgd1na2vs0mg"},{"bike_id":"dd5ab675-85c3-4750-a687-c2d9c6676296","system_id":"levelo_inurba_marseille","lat":43.29024,"lon":5.38645,"is_reserved":false,"is_disabled":false,"rental_uris":{"android":"levelo://app?vid=dd5ab675-85c3-4750-a687-c2d9c6676296","ios":"levelo://app?vid=dd5ab675-85c3-4750-a687-c2d9c6676296"},"vehicle_type_id":"4","last_reported":1774729057,"current_range_meters":6000,"station_id":"ce4bh4p2rcd13ifvqe0g","pricing_plan_id":"cebpf4jnsgd1na2vs0mg"},{"bike_id":"40c58c01-8a97-43d9-a8ab-de0a41339dce","system_id":"levelo_inurba_marseille","lat":43.31165,"lon":5.38651,"is_reserved":false,"is_disabled":false,"rental_uris":{"android":"levelo://app?vid=40c58c01-8a97-43d9-a8ab-de0a41339dce","ios":"levelo://app?vid=40c58c01-8a97-43d9-a8ab-de0a41339dce"},"vehicle_type_id":"4","last_reported":1774729057,"current_range_meters":6000,"station_id":"ce4bgv12rcd13ifvqcp0","pricing_plan_id":"cebpf4jnsgd1na2vs0mg"},{"bike_id":"28ae4317-f1df-4e81-b78b-8b397394412a","system_id":"levelo_inurba_marseille","lat":43.310428,"lon":5.393601,"is_reserved":false,"is_disabled":false,"rental_uris":{"android":"levelo://app?vid=28ae4317-f1df-4e81-b78b-8b397394412a","ios":"levelo://app?vid=28ae4317-f1df-4e81-b78b-8b397394412a"},"vehicle_type_id":"4","last_reported":1774729057,"current_range_meters":6000,"station_id":"","pricing_plan_id":"cebpf4jnsgd1na2vs0mg"},{"bike_id":"1823c8dd-c73c-44d7-b9a1-5787a09ca68f","system_id":"levelo_inurba_marseille","lat":43.29961,"lon":5.38495,"is_reserved":false,"is_disabled":false,"rental_uris":{"android":"levelo://app?vid=1823c8dd-c73c-44d7-b9a1-5787a09ca68f","ios":"levelo://app?vid=1823c8dd-c73c-44d7-b9a1-5787a09ca68f"},"vehicle_type_id":"4","last_reported":1774729057,"current_range_meters":6000,"station_id":"ce4bgj92rcd13ifvqbd0","pricing_plan_id":"cebpf4jnsgd1na2vs0mg"},{"bike_id":"386b4931-6e80-4ccd-90bc-d3594133872c","system_id":"levelo_inurba_marseille","lat":43.30318,"lon":5.40435,"is_reserved":false,"is_disabled":false,"rental_uris":{"android":"levelo://app?vid=386b4931-6e80-4ccd-90bc-d3594133872c","ios":"levelo://app?vid=386b4931-6e80-4ccd-90bc-d3594133872c"},"vehicle_type_id":"4","last_reported":1774729057,"current_range_meters":6000,"station_id":"ce4bh012rcd13ifvqd10","pricing_plan_id":"cebpf4jnsgd1na2vs0mg"},{"bike_id":"9e955995-81d3-4d62-89f5-f1517263c308","system_id":"levelo_inurba_marseille","lat":43.31702,"lon":5.38158,"is_reserved":false,"is_disabled":false,"rental_uris":{"android":"levelo://app?vid=9e955995-81d3-4d62-89f5-f1517263c308","ios":"levelo://app?vid=9e955995-81d3-4d62-89f5-f1517263c308"},"vehicle_type_id":"4","last_reported":1774729057,"current_range_meters":6400,"station_id":"","pricing_plan_id":"cebpf4jnsgd1na2vs0mg"},{"bike_id":"b74978cb-5b51-4041-8c1c-97c8f4ca71d2","system_id":"levelo_inurba_marseille","lat":43.3118,"lon":5.4063,"is_reserved":false,"is_disabled":false,"rental_uris":{"android":"levelo://app?vid=b74978cb-5b51-4041-8c1c-97c8f4ca71d2","ios":"levelo://app?vid=b74978cb-5b51-4041-8c1c-97c8f4ca71d2"},"vehicle_type_id":"4","last_reported":1774729057,"current_range_meters":6400,"station_id":"","pricing_plan_id":"cebpf4jnsgd1na2vs0mg"},{"bike_id":"6a81cdf5-2025-45a6-96ce-f8396d3ff5a3","system_id":"levelo_inurba_marseille","lat":43.29937,"lon":5.36556,"is_reserved":false,"is_disabled":false,"rental_uris":{"android":"levelo://app?vid=6a81cdf5-2025-45a6-96ce-f8396d3ff5a3","ios":"levelo://app?vid=6a81cdf5-2025-45a6-96ce-f8396d3ff5a3"},"vehicle_type_id":"4","last_reported":1774729057,"current_range_meters":6400,"station_id":"ce4bgm92rcd13ifvqbr0","pricing_plan_id":"cebpf4jnsgd1na2vs0mg"},{"bike_id":"2d5262be-582c-4d87-a7a2-b4c3f4ed4d38","system_id":"levelo_inurba_marseille","lat":43.2256,"lon":5.41628,"is_reserved":false,"is_disabled":false,"rental_uris":{"android":"levelo://app?vid=2d5262be-582c-4d87-a7a2-b4c3f4ed4d38","ios":"levelo://app?vid=2d5262be-582c-4d87-a7a2-b4c3f4ed4d38"},"vehicle_type_id":"4","last_reported":1774729057,"current_range_meters":6400,"station_id":"st_d2o4gvlbi1j2169b742g","pricing_plan_id":"cebpf4jnsgd1na2vs0mg"},{"bike_id":"3e80a70b-d902-4f38-bb78-001cfd129e63","system_id":"levelo_inurba_marseille","lat":43.28406,"lon":5.34998,"is_reserved":false,"is_disabled":false,"rental_uris":{"android":"levelo://app?vid=3e80a70b-d902-4f38-bb78-001cfd129e63","ios":"levelo://app?vid=3e80a70b-d902-4f38-bb78-001cfd129e63"},"vehicle_type_id":"4","last_reported":1774729057,"current_range_meters":6400,"station_id":"ce4bhbh2rcd13ifvqepg","pricing_plan_id":"cebpf4jnsgd1na2vs0mg"},{"bike_id":"c7af05b3-4ddb-499c-ae8b-c6fd8683ba94","system_id":"levelo_inurba_marseille","lat":43.29552,"lon":5.38345,"is_reserved":false,"is_disabled":false,"rental_uris":{"android":"levelo://app?vid=c7af05b3-4ddb-499c-ae8b-c6fd8683ba94","ios":"levelo://app?vid=c7af05b3-4ddb-499c-ae8b-c6fd8683ba94"},"vehicle_type_id":"4","last_reported":1774729057,"current_range_meters":6400,"station_id":"","pricing_plan_id":"cebpf4jnsgd1na2vs0mg"},{"bike_id":"3a44c55d-d596-4fa0-8b45-13fb04164040","system_id":"levelo_inurba_marseille","lat":43.2902,"lon":5.38648,"is_reserved":false,"is_disabled":false,"rental_uris":{"android":"levelo://app?vid=3a44c55d-d596-4fa0-8b45-13fb04164040","ios":"levelo://app?vid=3a44c55d-d596-4fa0-8b45-13fb04164040"},"vehicle_type_id":"4","last_reported":1774729057,"current_range_meters":6400,"station_id":"ce4bh4p2rcd13ifvqe0g","pricing_plan_id":"cebpf4jnsgd1na2vs0mg"},{"bike_id":"b0cb8f2c-ed5f-45b1-a6b7-fba3fd705003","system_id":"levelo_inurba_marseille","lat":43.28608,"lon":5.35111,"is_reserved":false,"is_disabled":false,"rental_uris":{"android":"levelo://app?vid=b0cb8f2c-ed5f-45b1-a6b7-fba3fd705003","ios":"levelo://app?vid=b0cb8f2c-ed5f-45b1-a6b7-fba3fd705003"},"vehicle_type_id":"4","last_reported":1774729057,"current_range_meters":6400,"station_id":"ce4bhch2rcd13ifvqeug","pricing_plan_id":"cebpf4jnsgd1na2vs0mg"},{"bike_id":"cb42d8dc-b761-4ac4-a26f-34b08cfe8436","system_id":"levelo_inurba_marseille","lat":43.2497,"lon":5.40462,"is_reserved":false,"is_disabled":false,"rental_uris":{"android":"levelo://app?vid=cb42d8dc-b761-4ac4-a26f-34b08cfe8436","ios":"levelo://app?vid=cb42d8dc-b761-4ac4-a26f-34b08cfe8436"},"vehicle_type_id":"4","last_reported":1774729057,"current_range_meters":6400,"station_id":"st_d2ngiaodas8pm72gd1h0","pricing_plan_id":"cebpf4jnsgd1na2vs0mg"},{"bike_id":"f285254c-c05d-4fb2-9a93-f10e12dcf4e6","system_id":"levelo_inurba_marseille","lat":43.24642,"lon":5.38919,"is_reserved":false,"is_disabled":false,"rental_uris":{"android":"levelo://app?vid=f285254c-c05d-4fb2-9a93-f10e12dcf4e6","ios":"levelo://app?vid=f285254c-c05d-4fb2-9a93-f10e12dcf4e6"},"vehicle_type_id":"4","last_reported":1774729057,"current_range_meters":6800,"station_id":"ce4bhg12rcd13ifvqf60","pricing_plan_id":"cebpf4jnsgd1na2vs0mg"},{"bike_id":"a0e1fe6f-1b0c-4b69-b699-3f3295a2fce0","system_id":"levelo_inurba_marseille","lat":43.28408,"lon":5.34996,"is_reserved":false,"is_disabled":false,"rental_uris":{"android":"levelo://app?vid=a0e1fe6f-1b0c-4b69-b699-3f3295a2fce0","ios":"levelo://app?vid=a0e1fe6f-1b0c-4b69-b699-3f3295a2fce0"},"vehicle_type_id":"4","last_reported":1774729057,"current_range_meters":6800,"station_id":"ce4bhbh2rcd13ifvqepg","pricing_plan_id":"cebpf4jnsgd1na2vs0mg"},{"bike_id":"c82691aa-ba67-49e2-8ab8-9f87a1546b96","system_id":"levelo_inurba_marseille","lat":43.23201,"lon":5.3556,"is_reserved":false,"is_disabled":false,"rental_uris":{"android":"levelo://app?vid=c82691aa-ba67-49e2-8ab8-9f87a1546b96","ios":"levelo://app?vid=c82691aa-ba67-49e2-8ab8-9f87a1546b96"},"vehicle_type_id":"4","last_reported":1774729057,"current_range_meters":6800,"station_id":"ce4bhu92rcd13ifvqi70","pricing_plan_id":"cebpf4jnsgd1na2vs0mg"},{"bike_id":"169d4028-432d-4038-a131-3b68ded73d44","system_id":"levelo_inurba_marseille","lat":43.2953,"lon":5.39018,"is_reserved":false,"is_disabled":false,"rental_uris":{"android":"levelo://app?vid=169d4028-432d-4038-a131-3b68ded73d44","ios":"levelo://app?vid=169d4028-432d-4038-a131-3b68ded73d44"},"vehicle_type_id":"4","last_reported":1774729057,"current_range_meters":6800,"station_id":"ce4bh3p2rcd13ifvqdp0","pricing_plan_id":"cebpf4jnsgd1na2vs0mg"},{"bike_id":"ab66f78f-c748-4a0f-9578-1a01bb6633af","system_id":"levelo_inurba_marseille","lat":43.29804,"lon":5.38085,"is_reserved":false,"is_disabled":false,"rental_uris":{"android":"levelo://app?vid=ab66f78f-c748-4a0f-9578-1a01bb6633af","ios":"levelo://app?vid=ab66f78f-c748-4a0f-9578-1a01bb6633af"},"vehicle_type_id":"4","last_reported":1774729057,"current_range_meters":6800,"station_id":"ce4bgip2rcd13ifvqbb0","pricing_plan_id":"cebpf4jnsgd1na2vs0mg"},{"bike_id":"451a5f24-c040-4b1d-af60-c45f4f404333","system_id":"levelo_inurba_marseille","lat":43.23886,"lon":5.37466,"is_reserved":false,"is_disabled":false,"rental_uris":{"android":"levelo://app?vid=451a5f24-c040-4b1d-af60-c45f4f404333","ios":"levelo://app?vid=451a5f24-c040-4b1d-af60-c45f4f404333"},"vehicle_type_id":"4","last_reported":1774729057,"current_range_meters":6800,"station_id":"st_d6sm7csbq4hs73f8fpjg","pricing_plan_id":"cebpf4jnsgd1na2vs0mg"},{"bike_id":"f5fe4c38-ede8-4f1c-add3-c20ba009856c","system_id":"levelo_inurba_marseille","lat":43.28656,"lon":5.38675,"is_reserved":false,"is_disabled":false,"rental_uris":{"android":"levelo://app?vid=f5fe4c38-ede8-4f1c-add3-c20ba009856c","ios":"levelo://app?vid=f5fe4c38-ede8-4f1c-add3-c20ba009856c"},"vehicle_type_id":"4","last_reported":1774729057,"current_range_meters":6800,"station_id":"ce4bh492rcd13ifvqdug","pricing_plan_id":"cebpf4jnsgd1na2vs0mg"},{"bike_id":"ce40357e-7726-4676-91b9-1ac78ffbca20","system_id":"levelo_inurba_marseille","lat":43.24379,"lon":5.3708,"is_reserved":false,"is_disabled":false,"rental_uris":{"android":"levelo://app?vid=ce40357e-7726-4676-91b9-1ac78ffbca20","ios":"levelo://app?vid=ce40357e-7726-4676-91b9-1ac78ffbca20"},"vehicle_type_id":"4","last_reported":1774729057,"current_range_meters":6800,"station_id":"ce4bhhh2rcd13ifvqfk0","pricing_plan_id":"cebpf4jnsgd1na2vs0mg"},{"bike_id":"298ef3ca-7de1-447f-974b-799467cd4d92","system_id":"levelo_inurba_marseille","lat":43.30133,"lon":5.3986,"is_reserved":false,"is_disabled":false,"rental_uris":{"android":"levelo://app?vid=298ef3ca-7de1-447f-974b-799467cd4d92","ios":"levelo://app?vid=298ef3ca-7de1-447f-974b-799467cd4d92"},"vehicle_type_id":"4","last_reported":1774729057,"current_range_meters":6800,"station_id":"ce4bh0h2rcd13ifvqd40","pricing_plan_id":"cebpf4jnsgd1na2vs0mg"},{"bike_id":"18eddf02-1b59-4724-8b34-3fa740043546","system_id":"levelo_inurba_marseille","lat":43.22933,"lon":5.35371,"is_reserved":false,"is_disabled":false,"rental_uris":{"android":"levelo://app?vid=18eddf02-1b59-4724-8b34-3fa740043546","ios":"levelo://app?vid=18eddf02-1b59-4724-8b34-3fa740043546"},"vehicle_type_id":"4","last_reported":1774729057,"current_range_meters":6800,"station_id":"cpo3532slgdg3j2ikp40","pricing_plan_id":"cebpf4jnsgd1na2vs0mg"},{"bike_id":"e9691ec1-022d-4d2e-b82b-962f7cabc02f","system_id":"levelo_inurba_marseille","lat":43.24816,"lon":5.37449,"is_reserved":false,"is_disabled":false,"rental_uris":{"android":"levelo://app?vid=e9691ec1-022d-4d2e-b82b-962f7cabc02f","ios":"levelo://app?vid=e9691ec1-022d-4d2e-b82b-962f7cabc02f"},"vehicle_type_id":"4","last_reported":1774729057,"current_range_meters":6800,"station_id":"ce4bhgh2rcd13ifvqfb0","pricing_plan_id":"cebpf4jnsgd1na2vs0mg"},{"bike_id":"20a80d48-b582-4670-b024-d043424a6446","system_id":"levelo_inurba_marseille","lat":43.24503,"lon":5.39745,"is_reserved":false,"is_disabled":false,"rental_uris":{"android":"levelo://app?vid=20a80d48-b582-4670-b024-d043424a6446","ios":"levelo://app?vid=20a80d48-b582-4670-b024-d043424a6446"},"vehicle_type_id":"4","last_reported":1774729057,"current_range_meters":6800,"station_id":"","pricing_plan_id":"cebpf4jnsgd1na2vs0mg"},{"bike_id":"ba4e8e5c-7571-4f65-9399-2835efc18d9b","system_id":"levelo_inurba_marseille","lat":43.27187,"lon":5.39207,"is_reserved":false,"is_disabled":false,"rental_uris":{"android":"levelo://app?vid=ba4e8e5c-7571-4f65-9399-2835efc18d9b","ios":"levelo://app?vid=ba4e8e5c-7571-4f65-9399-2835efc18d9b"},"vehicle_type_id":"4","last_reported":1774729057,"current_range_meters":6800,"station_id":"ce4bhhp2rcd13ifvqfm0","pricing_plan_id":"cebpf4jnsgd1na2vs0mg"},{"bike_id":"1bca506e-2c43-43d5-9cab-3f814da8f5fe","system_id":"levelo_inurba_marseille","lat":43.22565,"lon":5.41626,"is_reserved":false,"is_disabled":false,"rental_uris":{"android":"levelo://app?vid=1bca506e-2c43-43d5-9cab-3f814da8f5fe","ios":"levelo://app?vid=1bca506e-2c43-43d5-9cab-3f814da8f5fe"},"vehicle_type_id":"4","last_reported":1774729057,"current_range_meters":6800,"station_id":"st_d2o4gvlbi1j2169b742g","pricing_plan_id":"cebpf4jnsgd1na2vs0mg"},{"bike_id":"af876c1b-2a9c-46a3-8232-aa411e1bc39a","system_id":"levelo_inurba_marseille","lat":43.29798,"lon":5.38096,"is_reserved":false,"is_disabled":false,"rental_uris":{"android":"levelo://app?vid=af876c1b-2a9c-46a3-8232-aa411e1bc39a","ios":"levelo://app?vid=af876c1b-2a9c-46a3-8232-aa411e1bc39a"},"vehicle_type_id":"4","last_reported":1774729057,"current_range_meters":6800,"station_id":"ce4bgip2rcd13ifvqbb0","pricing_plan_id":"cebpf4jnsgd1na2vs0mg"},{"bike_id":"c4b9e478-47df-4fcf-807a-f7a72db5dc3f","system_id":"levelo_inurba_marseille","lat":43.30432,"lon":5.38886,"is_reserved":false,"is_disabled":false,"rental_uris":{"android":"levelo://app?vid=c4b9e478-47df-4fcf-807a-f7a72db5dc3f","ios":"levelo://app?vid=c4b9e478-47df-4fcf-807a-f7a72db5dc3f"},"vehicle_type_id":"4","last_reported":1774729057,"current_range_meters":6800,"station_id":"ce4bgk12rcd13ifvqbi0","pricing_plan_id":"cebpf4jnsgd1na2vs0mg"},{"bike_id":"9311ee53-a935-4687-a2cd-ae687c514961","system_id":"levelo_inurba_marseille","lat":43.2983,"lon":5.38236,"is_reserved":false,"is_disabled":false,"rental_uris":{"android":"levelo://app?vid=9311ee53-a935-4687-a2cd-ae687c514961","ios":"levelo://app?vid=9311ee53-a935-4687-a2cd-ae687c514961"},"vehicle_type_id":"4","last_reported":1774729057,"current_range_meters":6800,"station_id":"","pricing_plan_id":"cebpf4jnsgd1na2vs0mg"},{"bike_id":"277cf752-b9ed-41aa-a7a8-c21d885b59ac","system_id":"levelo_inurba_marseille","lat":43.24178,"lon":5.36382,"is_reserved":false,"is_disabled":false,"rental_uris":{"android":"levelo://app?vid=277cf752-b9ed-41aa-a7a8-c21d885b59ac","ios":"levelo://app?vid=277cf752-b9ed-41aa-a7a8-c21d885b59ac"},"vehicle_type_id":"4","last_reported":1774729057,"current_range_meters":6800,"station_id":"cpo36qri1sfpv3e86is0","pricing_plan_id":"cebpf4jnsgd1na2vs0mg"},{"bike_id":"3558ea35-7992-4ccb-8605-1b3d24e2540d","system_id":"levelo_inurba_marseille","lat":43.22932,"lon":5.35377,"is_reserved":false,"is_disabled":false,"rental_uris":{"android":"levelo://app?vid=3558ea35-7992-4ccb-8605-1b3d24e2540d","ios":"levelo://app?vid=3558ea35-7992-4ccb-8605-1b3d24e2540d"},"vehicle_type_id":"4","last_reported":1774729057,"current_range_meters":6800,"station_id":"cpo3532slgdg3j2ikp40","pricing_plan_id":"cebpf4jnsgd1na2vs0mg"},{"bike_id":"2e9e98fd-4713-4ee9-87be-8d47d65eb147","system_id":"levelo_inurba_marseille","lat":43.24658,"lon":5.38145,"is_reserved":false,"is_disabled":false,"rental_uris":{"android":"levelo://app?vid=2e9e98fd-4713-4ee9-87be-8d47d65eb147","ios":"levelo://app?vid=2e9e98fd-4713-4ee9-87be-8d47d65eb147"},"vehicle_type_id":"4","last_reported":1774729057,"current_range_meters":6800,"station_id":"ce4bhih2rcd13ifvqfr0","pricing_plan_id":"cebpf4jnsgd1na2vs0mg"},{"bike_id":"65f330fc-13df-46c3-a715-c189354f85cc","system_id":"levelo_inurba_marseille","lat":43.30457,"lon":5.3669,"is_reserved":false,"is_disabled":false,"rental_uris":{"android":"levelo://app?vid=65f330fc-13df-46c3-a715-c189354f85cc","ios":"levelo://app?vid=65f330fc-13df-46c3-a715-c189354f85cc"},"vehicle_type_id":"4","last_reported":1774729057,"current_range_meters":6800,"station_id":"","pricing_plan_id":"cebpf4jnsgd1na2vs0mg"},{"bike_id":"d81decec-1336-453f-8815-0de2ad63968a","system_id":"levelo_inurba_marseille","lat":43.24804,"lon":5.37453,"is_reserved":false,"is_disabled":false,"rental_uris":{"android":"levelo://app?vid=d81decec-1336-453f-8815-0de2ad63968a","ios":"levelo://app?vid=d81decec-1336-453f-8815-0de2ad63968a"},"vehicle_type_id":"4","last_reported":1774729057,"current_range_meters":6800,"station_id":"ce4bhgh2rcd13ifvqfb0","pricing_plan_id":"cebpf4jnsgd1na2vs0mg"},{"bike_id":"f103cc34-96c3-4868-ad5e-e0c28779d718","system_id":"levelo_inurba_marseille","lat":43.23045,"lon":5.35511,"is_reserved":false,"is_disabled":false,"rental_uris":{"android":"levelo://app?vid=f103cc34-96c3-4868-ad5e-e0c28779d718","ios":"levelo://app?vid=f103cc34-96c3-4868-ad5e-e0c28779d718"},"vehicle_type_id":"4","last_reported":1774729057,"current_range_meters":6800,"station_id":"cpo3342slgdg3j2ifvpg","pricing_plan_id":"cebpf4jnsgd1na2vs0mg"},{"bike_id":"152aecbe-66d3-4a1d-9659-725f9a1f1a96","system_id":"levelo_inurba_marseille","lat":43.31159,"lon":5.36848,"is_reserved":false,"is_disabled":false,"rental_uris":{"android":"levelo://app?vid=152aecbe-66d3-4a1d-9659-725f9a1f1a96","ios":"levelo://app?vid=152aecbe-66d3-4a1d-9659-725f9a1f1a96"},"vehicle_type_id":"4","last_reported":1774729057,"current_range_meters":6800,"station_id":"ce4bgl92rcd13ifvqbq0","pricing_plan_id":"cebpf4jnsgd1na2vs0mg"},{"bike_id":"290afd09-0584-4963-a797-1ed96debbdfe","system_id":"levelo_inurba_marseille","lat":43.21186,"lon":5.35066,"is_reserved":false,"is_disabled":false,"rental_uris":{"android":"levelo://app?vid=290afd09-0584-4963-a797-1ed96debbdfe","ios":"levelo://app?vid=290afd09-0584-4963-a797-1ed96debbdfe"},"vehicle_type_id":"4","last_reported":1774729057,"current_range_meters":7200,"station_id":"st_cvj6sg6p6f1abm77japg","pricing_plan_id":"cebpf4jnsgd1na2vs0mg"},{"bike_id":"c08d85a0-ca77-403f-b3fd-5f2dd3b5194f","system_id":"levelo_inurba_marseille","lat":43.29083,"lon":5.37148,"is_reserved":false,"is_disabled":false,"rental_uris":{"android":"levelo://app?vid=c08d85a0-ca77-403f-b3fd-5f2dd3b5194f","ios":"levelo://app?vid=c08d85a0-ca77-403f-b3fd-5f2dd3b5194f"},"vehicle_type_id":"4","last_reported":1774729057,"current_range_meters":7200,"station_id":"ce4bh5p2rcd13ifvqe4g","pricing_plan_id":"cebpf4jnsgd1na2vs0mg"},{"bike_id":"8683ab0d-4a2a-48af-b0e7-633359d29ce3","system_id":"levelo_inurba_marseille","lat":43.3053,"lon":5.36706,"is_reserved":false,"is_disabled":false,"rental_uris":{"android":"levelo://app?vid=8683ab0d-4a2a-48af-b0e7-633359d29ce3","ios":"levelo://app?vid=8683ab0d-4a2a-48af-b0e7-633359d29ce3"},"vehicle_type_id":"4","last_reported":1774729057,"current_range_meters":7200,"station_id":"ce4bgrp2rcd13ifvqc9g","pricing_plan_id":"cebpf4jnsgd1na2vs0mg"},{"bike_id":"1f2715e0-ff46-4504-b04c-9d6563e921fd","system_id":"levelo_inurba_marseille","lat":43.29037,"lon":5.38655,"is_reserved":false,"is_disabled":false,"rental_uris":{"android":"levelo://app?vid=1f2715e0-ff46-4504-b04c-9d6563e921fd","ios":"levelo://app?vid=1f2715e0-ff46-4504-b04c-9d6563e921fd"},"vehicle_type_id":"4","last_reported":1774729057,"current_range_meters":7200,"station_id":"ce4bh4p2rcd13ifvqe0g","pricing_plan_id":"cebpf4jnsgd1na2vs0mg"},{"bike_id":"899c9f36-9b83-4ce9-bd7d-0f95dd541b6a","system_id":"levelo_inurba_marseille","lat":43.32343,"lon":5.3675,"is_reserved":false,"is_disabled":false,"rental_uris":{"android":"levelo://app?vid=899c9f36-9b83-4ce9-bd7d-0f95dd541b6a","ios":"levelo://app?vid=899c9f36-9b83-4ce9-bd7d-0f95dd541b6a"},"vehicle_type_id":"4","last_reported":1774729057,"current_range_meters":7200,"station_id":"ce4bhsh2rcd13ifvqi2g","pricing_plan_id":"cebpf4jnsgd1na2vs0mg"},{"bike_id":"2457fc1b-679d-4a71-90e9-ad408ab6ed9d","system_id":"levelo_inurba_marseille","lat":43.33483,"lon":5.3797,"is_reserved":false,"is_disabled":false,"rental_uris":{"android":"levelo://app?vid=2457fc1b-679d-4a71-90e9-ad408ab6ed9d","ios":"levelo://app?vid=2457fc1b-679d-4a71-90e9-ad408ab6ed9d"},"vehicle_type_id":"4","last_reported":1774729057,"current_range_meters":7200,"station_id":"","pricing_plan_id":"cebpf4jnsgd1na2vs0mg"},{"bike_id":"cac65e9a-4f7e-4ab5-8945-0eea67327b18","system_id":"levelo_inurba_marseille","lat":43.30549,"lon":5.36552,"is_reserved":false,"is_disabled":false,"rental_uris":{"android":"levelo://app?vid=cac65e9a-4f7e-4ab5-8945-0eea67327b18","ios":"levelo://app?vid=cac65e9a-4f7e-4ab5-8945-0eea67327b18"},"vehicle_type_id":"4","last_reported":1774729057,"current_range_meters":7200,"station_id":"ce4bgs12rcd13ifvqcag","pricing_plan_id":"cebpf4jnsgd1na2vs0mg"},{"bike_id":"4f1943b2-e7ba-417a-88a7-44cb05f7a9c9","system_id":"levelo_inurba_marseille","lat":43.29469,"lon":5.38655,"is_reserved":false,"is_disabled":false,"rental_uris":{"android":"levelo://app?vid=4f1943b2-e7ba-417a-88a7-44cb05f7a9c9","ios":"levelo://app?vid=4f1943b2-e7ba-417a-88a7-44cb05f7a9c9"},"vehicle_type_id":"4","last_reported":1774729057,"current_range_meters":7200,"station_id":"","pricing_plan_id":"cebpf4jnsgd1na2vs0mg"},{"bike_id":"d32aa1bf-1440-405b-937c-d48e8423d1b5","system_id":"levelo_inurba_marseille","lat":43.3124,"lon":5.3687,"is_reserved":false,"is_disabled":false,"rental_uris":{"android":"levelo://app?vid=d32aa1bf-1440-405b-937c-d48e8423d1b5","ios":"levelo://app?vid=d32aa1bf-1440-405b-937c-d48e8423d1b5"},"vehicle_type_id":"4","last_reported":1774729057,"current_range_meters":7200,"station_id":"ce4bgl92rcd13ifvqbq0","pricing_plan_id":"cebpf4jnsgd1na2vs0mg"},{"bike_id":"c420f719-a4cc-4702-b6da-68e6d0f37e6c","system_id":"levelo_inurba_marseille","lat":43.28526,"lon":5.44077,"is_reserved":false,"is_disabled":false,"rental_uris":{"android":"levelo://app?vid=c420f719-a4cc-4702-b6da-68e6d0f37e6c","ios":"levelo://app?vid=c420f719-a4cc-4702-b6da-68e6d0f37e6c"},"vehicle_type_id":"4","last_reported":1774729057,"current_range_meters":7200,"station_id":"st_d3j3df2ikq2c7380ej80","pricing_plan_id":"cebpf4jnsgd1na2vs0mg"},{"bike_id":"651ccc8e-7873-40ba-89c6-a2f41f6c62c7","system_id":"levelo_inurba_marseille","lat":43.30805,"lon":5.38147,"is_reserved":false,"is_disabled":false,"rental_uris":{"android":"levelo://app?vid=651ccc8e-7873-40ba-89c6-a2f41f6c62c7","ios":"levelo://app?vid=651ccc8e-7873-40ba-89c6-a2f41f6c62c7"},"vehicle_type_id":"4","last_reported":1774729057,"current_range_meters":7200,"station_id":"ce4bgt12rcd13ifvqce0","pricing_plan_id":"cebpf4jnsgd1na2vs0mg"},{"bike_id":"f057f137-0cac-4b50-91e6-948f8581886d","system_id":"levelo_inurba_marseille","lat":43.24654,"lon":5.38151,"is_reserved":false,"is_disabled":false,"rental_uris":{"android":"levelo://app?vid=f057f137-0cac-4b50-91e6-948f8581886d","ios":"levelo://app?vid=f057f137-0cac-4b50-91e6-948f8581886d"},"vehicle_type_id":"4","last_reported":1774729057,"current_range_meters":7200,"station_id":"ce4bhih2rcd13ifvqfr0","pricing_plan_id":"cebpf4jnsgd1na2vs0mg"},{"bike_id":"44e6ef2e-f582-4dae-8b58-95600b73b872","system_id":"levelo_inurba_marseille","lat":43.33536,"lon":5.3747,"is_reserved":false,"is_disabled":false,"rental_uris":{"android":"levelo://app?vid=44e6ef2e-f582-4dae-8b58-95600b73b872","ios":"levelo://app?vid=44e6ef2e-f582-4dae-8b58-95600b73b872"},"vehicle_type_id":"4","last_reported":1774729057,"current_range_meters":7200,"station_id":"st_d46tts09ee8s73dlu43g","pricing_plan_id":"cebpf4jnsgd1na2vs0mg"},{"bike_id":"c2981b41-70b3-4e70-8d06-dc1902aed07f","system_id":"levelo_inurba_marseille","lat":43.28598,"lon":5.35127,"is_reserved":false,"is_disabled":false,"rental_uris":{"android":"levelo://app?vid=c2981b41-70b3-4e70-8d06-dc1902aed07f","ios":"levelo://app?vid=c2981b41-70b3-4e70-8d06-dc1902aed07f"},"vehicle_type_id":"4","last_reported":1774729057,"current_range_meters":7200,"station_id":"ce4bhch2rcd13ifvqeug","pricing_plan_id":"cebpf4jnsgd1na2vs0mg"},{"bike_id":"ef935ed1-650a-4632-b4dd-10e5cb1ef5b4","system_id":"levelo_inurba_marseille","lat":43.2841,"lon":5.34997,"is_reserved":false,"is_disabled":false,"rental_uris":{"android":"levelo://app?vid=ef935ed1-650a-4632-b4dd-10e5cb1ef5b4","ios":"levelo://app?vid=ef935ed1-650a-4632-b4dd-10e5cb1ef5b4"},"vehicle_type_id":"4","last_reported":1774729057,"current_range_meters":7200,"station_id":"ce4bhbh2rcd13ifvqepg","pricing_plan_id":"cebpf4jnsgd1na2vs0mg"},{"bike_id":"4f5cf7ef-ddb5-4d25-9c0b-bec33f5f4447","system_id":"levelo_inurba_marseille","lat":43.30945,"lon":5.36872,"is_reserved":false,"is_disabled":false,"rental_uris":{"android":"levelo://app?vid=4f5cf7ef-ddb5-4d25-9c0b-bec33f5f4447","ios":"levelo://app?vid=4f5cf7ef-ddb5-4d25-9c0b-bec33f5f4447"},"vehicle_type_id":"4","last_reported":1774729057,"current_range_meters":7200,"station_id":"ce4bgn92rcd13ifvqbvg","pricing_plan_id":"cebpf4jnsgd1na2vs0mg"},{"bike_id":"63e195b9-8b31-429c-af5e-c5dda2979db9","system_id":"levelo_inurba_marseille","lat":43.25106,"lon":5.4033,"is_reserved":false,"is_disabled":false,"rental_uris":{"android":"levelo://app?vid=63e195b9-8b31-429c-af5e-c5dda2979db9","ios":"levelo://app?vid=63e195b9-8b31-429c-af5e-c5dda2979db9"},"vehicle_type_id":"4","last_reported":1774729057,"current_range_meters":7200,"station_id":"ce4bhlh2rcd13ifvqgig","pricing_plan_id":"cebpf4jnsgd1na2vs0mg"},{"bike_id":"88fb9af6-0dea-445a-910b-bf18a4d2f559","system_id":"levelo_inurba_marseille","lat":43.2738,"lon":5.36252,"is_reserved":false,"is_disabled":false,"rental_uris":{"android":"levelo://app?vid=88fb9af6-0dea-445a-910b-bf18a4d2f559","ios":"levelo://app?vid=88fb9af6-0dea-445a-910b-bf18a4d2f559"},"vehicle_type_id":"4","last_reported":1774729057,"current_range_meters":7200,"station_id":"ce4bhbh2rcd13ifvqeo0","pricing_plan_id":"cebpf4jnsgd1na2vs0mg"},{"bike_id":"2bf237c2-c4a5-409d-aaf2-b153a3e1ff10","system_id":"levelo_inurba_marseille","lat":43.21738,"lon":5.3461,"is_reserved":false,"is_disabled":false,"rental_uris":{"android":"levelo://app?vid=2bf237c2-c4a5-409d-aaf2-b153a3e1ff10","ios":"levelo://app?vid=2bf237c2-c4a5-409d-aaf2-b153a3e1ff10"},"vehicle_type_id":"4","last_reported":1774729057,"current_range_meters":8000,"station_id":"st_cvj6r9ubvosntc0bgbag","pricing_plan_id":"cebpf4jnsgd1na2vs0mg"},{"bike_id":"4bce04e7-1cbc-45fa-ab2d-68941b2573d9","system_id":"levelo_inurba_marseille","lat":43.29517,"lon":5.39397,"is_reserved":false,"is_disabled":false,"rental_uris":{"android":"levelo://app?vid=4bce04e7-1cbc-45fa-ab2d-68941b2573d9","ios":"levelo://app?vid=4bce04e7-1cbc-45fa-ab2d-68941b2573d9"},"vehicle_type_id":"4","last_reported":1774729057,"current_range_meters":8000,"station_id":"ce4bh292rcd13ifvqdf0","pricing_plan_id":"cebpf4jnsgd1na2vs0mg"},{"bike_id":"015ad18d-3d69-4699-987a-2a91bd78292f","system_id":"levelo_inurba_marseille","lat":43.31712,"lon":5.43708,"is_reserved":false,"is_disabled":false,"rental_uris":{"android":"levelo://app?vid=015ad18d-3d69-4699-987a-2a91bd78292f","ios":"levelo://app?vid=015ad18d-3d69-4699-987a-2a91bd78292f"},"vehicle_type_id":"4","last_reported":1774729057,"current_range_meters":8000,"station_id":"ce4bhp92rcd13ifvqhcg","pricing_plan_id":"cebpf4jnsgd1na2vs0mg"},{"bike_id":"225e8b45-99f9-4029-a985-3d023789841e","system_id":"levelo_inurba_marseille","lat":43.29675,"lon":5.38932,"is_reserved":false,"is_disabled":false,"rental_uris":{"android":"levelo://app?vid=225e8b45-99f9-4029-a985-3d023789841e","ios":"levelo://app?vid=225e8b45-99f9-4029-a985-3d023789841e"},"vehicle_type_id":"4","last_reported":1774729057,"current_range_meters":8000,"station_id":"","pricing_plan_id":"cebpf4jnsgd1na2vs0mg"},{"bike_id":"ace402cd-5a43-4700-8e53-9f597a013620","system_id":"levelo_inurba_marseille","lat":43.28274,"lon":5.35075,"is_reserved":false,"is_disabled":false,"rental_uris":{"android":"levelo://app?vid=ace402cd-5a43-4700-8e53-9f597a013620","ios":"levelo://app?vid=ace402cd-5a43-4700-8e53-9f597a013620"},"vehicle_type_id":"4","last_reported":1774729057,"current_range_meters":8000,"station_id":"ce4bhbp2rcd13ifvqerg","pricing_plan_id":"cebpf4jnsgd1na2vs0mg"},{"bike_id":"129ae7f3-4fc9-4799-9c60-c7057f2a0117","system_id":"levelo_inurba_marseille","lat":43.2855,"lon":5.4408,"is_reserved":false,"is_disabled":false,"rental_uris":{"android":"levelo://app?vid=129ae7f3-4fc9-4799-9c60-c7057f2a0117","ios":"levelo://app?vid=129ae7f3-4fc9-4799-9c60-c7057f2a0117"},"vehicle_type_id":"4","last_reported":1774729057,"current_range_meters":8000,"station_id":"st_d3j3df2ikq2c7380ej80","pricing_plan_id":"cebpf4jnsgd1na2vs0mg"},{"bike_id":"6627d87e-d8cc-4315-9870-c98a872f12b5","system_id":"levelo_inurba_marseille","lat":43.24662,"lon":5.38166,"is_reserved":false,"is_disabled":false,"rental_uris":{"android":"levelo://app?vid=6627d87e-d8cc-4315-9870-c98a872f12b5","ios":"levelo://app?vid=6627d87e-d8cc-4315-9870-c98a872f12b5"},"vehicle_type_id":"4","last_reported":1774729057,"current_range_meters":8000,"station_id":"ce4bhih2rcd13ifvqfr0","pricing_plan_id":"cebpf4jnsgd1na2vs0mg"},{"bike_id":"4b8bd687-040a-43a0-9ca8-957b0e4f64cc","system_id":"levelo_inurba_marseille","lat":43.28395,"lon":5.37548,"is_reserved":false,"is_disabled":false,"rental_uris":{"android":"levelo://app?vid=4b8bd687-040a-43a0-9ca8-957b0e4f64cc","ios":"levelo://app?vid=4b8bd687-040a-43a0-9ca8-957b0e4f64cc"},"vehicle_type_id":"4","last_reported":1774729057,"current_range_meters":8000,"station_id":"ce4bh412rcd13ifvqds0","pricing_plan_id":"cebpf4jnsgd1na2vs0mg"},{"bike_id":"b44a4693-952f-4f72-9715-9477a81beee3","system_id":"levelo_inurba_marseille","lat":43.21749,"lon":5.346,"is_reserved":false,"is_disabled":false,"rental_uris":{"android":"levelo://app?vid=b44a4693-952f-4f72-9715-9477a81beee3","ios":"levelo://app?vid=b44a4693-952f-4f72-9715-9477a81beee3"},"vehicle_type_id":"4","last_reported":1774729057,"current_range_meters":8000,"station_id":"st_cvj6r9ubvosntc0bgbag","pricing_plan_id":"cebpf4jnsgd1na2vs0mg"},{"bike_id":"d42918c2-5949-42d0-8ebe-a9ca1daba3bd","system_id":"levelo_inurba_marseille","lat":43.28455,"lon":5.359,"is_reserved":false,"is_disabled":true,"rental_uris":{"android":"levelo://app?vid=d42918c2-5949-42d0-8ebe-a9ca1daba3bd","ios":"levelo://app?vid=d42918c2-5949-42d0-8ebe-a9ca1daba3bd"},"vehicle_type_id":"4","last_reported":1774729057,"current_range_meters":8000,"station_id":"ce4bhah2rcd13ifvqei0","pricing_plan_id":"cebpf4jnsgd1na2vs0mg"},{"bike_id":"026b4cb5-06ee-4ba0-b597-6d24c2a15c6a","system_id":"levelo_inurba_marseille","lat":43.29622,"lon":5.37736,"is_reserved":false,"is_disabled":false,"rental_uris":{"android":"levelo://app?vid=026b4cb5-06ee-4ba0-b597-6d24c2a15c6a","ios":"levelo://app?vid=026b4cb5-06ee-4ba0-b597-6d24c2a15c6a"},"vehicle_type_id":"4","last_reported":1774729057,"current_range_meters":8000,"station_id":"ce4bgi92rcd13ifvqb90","pricing_plan_id":"cebpf4jnsgd1na2vs0mg"},{"bike_id":"e7086223-c3e2-40fc-9416-7a406cdf745f","system_id":"levelo_inurba_marseille","lat":43.32653,"lon":5.40994,"is_reserved":false,"is_disabled":false,"rental_uris":{"android":"levelo://app?vid=e7086223-c3e2-40fc-9416-7a406cdf745f","ios":"levelo://app?vid=e7086223-c3e2-40fc-9416-7a406cdf745f"},"vehicle_type_id":"4","last_reported":1774729057,"current_range_meters":8000,"station_id":"ce4bhpp2rcd13ifvqhgg","pricing_plan_id":"cebpf4jnsgd1na2vs0mg"},{"bike_id":"54bbcc32-73c9-46d4-85f2-87bba4363815","system_id":"levelo_inurba_marseille","lat":43.29043,"lon":5.38653,"is_reserved":false,"is_disabled":false,"rental_uris":{"android":"levelo://app?vid=54bbcc32-73c9-46d4-85f2-87bba4363815","ios":"levelo://app?vid=54bbcc32-73c9-46d4-85f2-87bba4363815"},"vehicle_type_id":"4","last_reported":1774729057,"current_range_meters":8000,"station_id":"ce4bh4p2rcd13ifvqe0g","pricing_plan_id":"cebpf4jnsgd1na2vs0mg"},{"bike_id":"fadb9bc0-68a6-44e7-984d-9151bdc84414","system_id":"levelo_inurba_marseille","lat":43.31367,"lon":5.38493,"is_reserved":false,"is_disabled":false,"rental_uris":{"android":"levelo://app?vid=fadb9bc0-68a6-44e7-984d-9151bdc84414","ios":"levelo://app?vid=fadb9bc0-68a6-44e7-984d-9151bdc84414"},"vehicle_type_id":"4","last_reported":1774729057,"current_range_meters":8000,"station_id":"ce4bgt92rcd13ifvqcf0","pricing_plan_id":"cebpf4jnsgd1na2vs0mg"},{"bike_id":"d1a82a09-430c-4ffa-b61b-fbb0d10a9294","system_id":"levelo_inurba_marseille","lat":43.30951,"lon":5.40154,"is_reserved":false,"is_disabled":false,"rental_uris":{"android":"levelo://app?vid=d1a82a09-430c-4ffa-b61b-fbb0d10a9294","ios":"levelo://app?vid=d1a82a09-430c-4ffa-b61b-fbb0d10a9294"},"vehicle_type_id":"4","last_reported":1774729057,"current_range_meters":8000,"station_id":"ce4bgvp2rcd13ifvqct0","pricing_plan_id":"cebpf4jnsgd1na2vs0mg"},{"bike_id":"67c1c6e6-4211-4250-be02-a52880e1c23a","system_id":"levelo_inurba_marseille","lat":43.26501,"lon":5.40718,"is_reserved":false,"is_disabled":false,"rental_uris":{"android":"levelo://app?vid=67c1c6e6-4211-4250-be02-a52880e1c23a","ios":"levelo://app?vid=67c1c6e6-4211-4250-be02-a52880e1c23a"},"vehicle_type_id":"4","last_reported":1774729057,"current_range_meters":8000,"station_id":"","pricing_plan_id":"cebpf4jnsgd1na2vs0mg"},{"bike_id":"be4a1afc-a843-49e6-a087-d809924f7dda","system_id":"levelo_inurba_marseille","lat":43.28931,"lon":5.38412,"is_reserved":false,"is_disabled":true,"rental_uris":{"android":"levelo://app?vid=be4a1afc-a843-49e6-a087-d809924f7dda","ios":"levelo://app?vid=be4a1afc-a843-49e6-a087-d809924f7dda"},"vehicle_type_id":"4","last_reported":1774729057,"current_range_meters":8000,"station_id":"ce4bh612rcd13ifvqe6g","pricing_plan_id":"cebpf4jnsgd1na2vs0mg"},{"bike_id":"825bca4a-aff7-48e8-8885-db808d49f605","system_id":"levelo_inurba_marseille","lat":43.25493,"lon":5.37675,"is_reserved":false,"is_disabled":false,"rental_uris":{"android":"levelo://app?vid=825bca4a-aff7-48e8-8885-db808d49f605","ios":"levelo://app?vid=825bca4a-aff7-48e8-8885-db808d49f605"},"vehicle_type_id":"4","last_reported":1774729057,"current_range_meters":8000,"station_id":"ce4bhh12rcd13ifvqff0","pricing_plan_id":"cebpf4jnsgd1na2vs0mg"},{"bike_id":"2467f598-920a-477f-9c27-52d7293cbf42","system_id":"levelo_inurba_marseille","lat":43.28418,"lon":5.34966,"is_reserved":false,"is_disabled":false,"rental_uris":{"android":"levelo://app?vid=2467f598-920a-477f-9c27-52d7293cbf42","ios":"levelo://app?vid=2467f598-920a-477f-9c27-52d7293cbf42"},"vehicle_type_id":"4","last_reported":1774729057,"current_range_meters":8400,"station_id":"ce4bhbh2rcd13ifvqepg","pricing_plan_id":"cebpf4jnsgd1na2vs0mg"},{"bike_id":"36141db5-b3a5-4009-8266-2dd4f38320ae","system_id":"levelo_inurba_marseille","lat":43.23798,"lon":5.36632,"is_reserved":false,"is_disabled":false,"rental_uris":{"android":"levelo://app?vid=36141db5-b3a5-4009-8266-2dd4f38320ae","ios":"levelo://app?vid=36141db5-b3a5-4009-8266-2dd4f38320ae"},"vehicle_type_id":"4","last_reported":1774729057,"current_range_meters":8400,"station_id":"st_d3nk18o9ro0c73en2l3g","pricing_plan_id":"cebpf4jnsgd1na2vs0mg"},{"bike_id":"b1e731c5-a019-40fb-b94c-b458e0eddb64","system_id":"levelo_inurba_marseille","lat":43.23796,"lon":5.38615,"is_reserved":false,"is_disabled":false,"rental_uris":{"android":"levelo://app?vid=b1e731c5-a019-40fb-b94c-b458e0eddb64","ios":"levelo://app?vid=b1e731c5-a019-40fb-b94c-b458e0eddb64"},"vehicle_type_id":"4","last_reported":1774729057,"current_range_meters":8400,"station_id":"","pricing_plan_id":"cebpf4jnsgd1na2vs0mg"},{"bike_id":"970c0018-efd3-4265-ba0d-669fd24b3e90","system_id":"levelo_inurba_marseille","lat":43.30959,"lon":5.3903,"is_reserved":false,"is_disabled":true,"rental_uris":{"android":"levelo://app?vid=970c0018-efd3-4265-ba0d-669fd24b3e90","ios":"levelo://app?vid=970c0018-efd3-4265-ba0d-669fd24b3e90"},"vehicle_type_id":"4","last_reported":1774729057,"current_range_meters":8400,"station_id":"ce4bgup2rcd13ifvqco0","pricing_plan_id":"cebpf4jnsgd1na2vs0mg"},{"bike_id":"2c70cb4a-e27c-49e0-b395-f36c964f1dd7","system_id":"levelo_inurba_marseille","lat":43.25821,"lon":5.39442,"is_reserved":false,"is_disabled":false,"rental_uris":{"android":"levelo://app?vid=2c70cb4a-e27c-49e0-b395-f36c964f1dd7","ios":"levelo://app?vid=2c70cb4a-e27c-49e0-b395-f36c964f1dd7"},"vehicle_type_id":"4","last_reported":1774729057,"current_range_meters":8400,"station_id":"ce4bhip2rcd13ifvqft0","pricing_plan_id":"cebpf4jnsgd1na2vs0mg"},{"bike_id":"2c76498e-1409-4d1d-aa11-912dd68ff926","system_id":"levelo_inurba_marseille","lat":43.2852,"lon":5.44106,"is_reserved":false,"is_disabled":false,"rental_uris":{"android":"levelo://app?vid=2c76498e-1409-4d1d-aa11-912dd68ff926","ios":"levelo://app?vid=2c76498e-1409-4d1d-aa11-912dd68ff926"},"vehicle_type_id":"4","last_reported":1774729057,"current_range_meters":8400,"station_id":"st_d3j3df2ikq2c7380ej80","pricing_plan_id":"cebpf4jnsgd1na2vs0mg"},{"bike_id":"068cd4e0-b799-4f30-a5c4-85ee42414c50","system_id":"levelo_inurba_marseille","lat":43.29286,"lon":5.36836,"is_reserved":false,"is_disabled":false,"rental_uris":{"android":"levelo://app?vid=068cd4e0-b799-4f30-a5c4-85ee42414c50","ios":"levelo://app?vid=068cd4e0-b799-4f30-a5c4-85ee42414c50"},"vehicle_type_id":"4","last_reported":1774729057,"current_range_meters":8400,"station_id":"ce4bhbp2rcd13ifvqesg","pricing_plan_id":"cebpf4jnsgd1na2vs0mg"},{"bike_id":"44b061ea-ac90-4ccb-8d43-7cab8ff1f0e0","system_id":"levelo_inurba_marseille","lat":43.26068,"lon":5.39375,"is_reserved":false,"is_disabled":false,"rental_uris":{"android":"levelo://app?vid=44b061ea-ac90-4ccb-8d43-7cab8ff1f0e0","ios":"levelo://app?vid=44b061ea-ac90-4ccb-8d43-7cab8ff1f0e0"},"vehicle_type_id":"4","last_reported":1774729057,"current_range_meters":8400,"station_id":"ce4bhh92rcd13ifvqfj0","pricing_plan_id":"cebpf4jnsgd1na2vs0mg"},{"bike_id":"92cb4986-12bc-44d4-ad49-496427bf2b45","system_id":"levelo_inurba_marseille","lat":43.28535,"lon":5.44105,"is_reserved":false,"is_disabled":false,"rental_uris":{"android":"levelo://app?vid=92cb4986-12bc-44d4-ad49-496427bf2b45","ios":"levelo://app?vid=92cb4986-12bc-44d4-ad49-496427bf2b45"},"vehicle_type_id":"4","last_reported":1774729057,"current_range_meters":8400,"station_id":"st_d3j3df2ikq2c7380ej80","pricing_plan_id":"cebpf4jnsgd1na2vs0mg"},{"bike_id":"951ccfa0-2bbb-441f-98aa-0e6f6567daed","system_id":"levelo_inurba_marseille","lat":43.28689,"lon":5.37317,"is_reserved":false,"is_disabled":false,"rental_uris":{"android":"levelo://app?vid=951ccfa0-2bbb-441f-98aa-0e6f6567daed","ios":"levelo://app?vid=951ccfa0-2bbb-441f-98aa-0e6f6567daed"},"vehicle_type_id":"4","last_reported":1774729057,"current_range_meters":8400,"station_id":"","pricing_plan_id":"cebpf4jnsgd1na2vs0mg"},{"bike_id":"76201515-ae70-408c-82ba-b2d7c39b0327","system_id":"levelo_inurba_marseille","lat":43.25119,"lon":5.40312,"is_reserved":false,"is_disabled":false,"rental_uris":{"android":"levelo://app?vid=76201515-ae70-408c-82ba-b2d7c39b0327","ios":"levelo://app?vid=76201515-ae70-408c-82ba-b2d7c39b0327"},"vehicle_type_id":"4","last_reported":1774729057,"current_range_meters":8400,"station_id":"ce4bhlh2rcd13ifvqgig","pricing_plan_id":"cebpf4jnsgd1na2vs0mg"},{"bike_id":"e7bd119b-30de-4df6-bef1-c0224e1d1fa7","system_id":"levelo_inurba_marseille","lat":43.3053,"lon":5.36573,"is_reserved":false,"is_disabled":false,"rental_uris":{"android":"levelo://app?vid=e7bd119b-30de-4df6-bef1-c0224e1d1fa7","ios":"levelo://app?vid=e7bd119b-30de-4df6-bef1-c0224e1d1fa7"},"vehicle_type_id":"4","last_reported":1774729057,"current_range_meters":8400,"station_id":"ce4bgs12rcd13ifvqcag","pricing_plan_id":"cebpf4jnsgd1na2vs0mg"},{"bike_id":"d6c47c1d-53b3-46b1-8698-b5d0304bb09d","system_id":"levelo_inurba_marseille","lat":43.28184,"lon":5.39056,"is_reserved":false,"is_disabled":false,"rental_uris":{"android":"levelo://app?vid=d6c47c1d-53b3-46b1-8698-b5d0304bb09d","ios":"levelo://app?vid=d6c47c1d-53b3-46b1-8698-b5d0304bb09d"},"vehicle_type_id":"4","last_reported":1774729057,"current_range_meters":8400,"station_id":"","pricing_plan_id":"cebpf4jnsgd1na2vs0mg"},{"bike_id":"ce4bb8b5-8a16-4588-8ca5-c266a05621c6","system_id":"levelo_inurba_marseille","lat":43.23894,"lon":5.37458,"is_reserved":false,"is_disabled":false,"rental_uris":{"android":"levelo://app?vid=ce4bb8b5-8a16-4588-8ca5-c266a05621c6","ios":"levelo://app?vid=ce4bb8b5-8a16-4588-8ca5-c266a05621c6"},"vehicle_type_id":"4","last_reported":1774729057,"current_range_meters":8400,"station_id":"st_d6sm7csbq4hs73f8fpjg","pricing_plan_id":"cebpf4jnsgd1na2vs0mg"},{"bike_id":"7005161c-2e0d-4cdc-b67a-ab23e115a888","system_id":"levelo_inurba_marseille","lat":43.30553,"lon":5.36539,"is_reserved":false,"is_disabled":false,"rental_uris":{"android":"levelo://app?vid=7005161c-2e0d-4cdc-b67a-ab23e115a888","ios":"levelo://app?vid=7005161c-2e0d-4cdc-b67a-ab23e115a888"},"vehicle_type_id":"4","last_reported":1774729057,"current_range_meters":8400,"station_id":"ce4bgs12rcd13ifvqcag","pricing_plan_id":"cebpf4jnsgd1na2vs0mg"},{"bike_id":"c09263af-5f3c-4487-9b20-dca4afc4c1ed","system_id":"levelo_inurba_marseille","lat":43.28607,"lon":5.35089,"is_reserved":false,"is_disabled":false,"rental_uris":{"android":"levelo://app?vid=c09263af-5f3c-4487-9b20-dca4afc4c1ed","ios":"levelo://app?vid=c09263af-5f3c-4487-9b20-dca4afc4c1ed"},"vehicle_type_id":"4","last_reported":1774729057,"current_range_meters":8400,"station_id":"ce4bhch2rcd13ifvqeug","pricing_plan_id":"cebpf4jnsgd1na2vs0mg"},{"bike_id":"95476e75-5511-44cc-926e-a6cf142485f9","system_id":"levelo_inurba_marseille","lat":43.28927,"lon":5.38401,"is_reserved":false,"is_disabled":false,"rental_uris":{"android":"levelo://app?vid=95476e75-5511-44cc-926e-a6cf142485f9","ios":"levelo://app?vid=95476e75-5511-44cc-926e-a6cf142485f9"},"vehicle_type_id":"4","last_reported":1774729057,"current_range_meters":8400,"station_id":"ce4bh612rcd13ifvqe6g","pricing_plan_id":"cebpf4jnsgd1na2vs0mg"},{"bike_id":"32c16b1d-fde7-41b8-88af-f932c3c8aedf","system_id":"levelo_inurba_marseille","lat":43.27378,"lon":5.39046,"is_reserved":false,"is_disabled":false,"rental_uris":{"android":"levelo://app?vid=32c16b1d-fde7-41b8-88af-f932c3c8aedf","ios":"levelo://app?vid=32c16b1d-fde7-41b8-88af-f932c3c8aedf"},"vehicle_type_id":"4","last_reported":1774729057,"current_range_meters":8400,"station_id":"","pricing_plan_id":"cebpf4jnsgd1na2vs0mg"},{"bike_id":"de570f6a-7ce1-41c8-9aa5-aa038326b452","system_id":"levelo_inurba_marseille","lat":43.29578,"lon":5.39985,"is_reserved":false,"is_disabled":false,"rental_uris":{"android":"levelo://app?vid=de570f6a-7ce1-41c8-9aa5-aa038326b452","ios":"levelo://app?vid=de570f6a-7ce1-41c8-9aa5-aa038326b452"},"vehicle_type_id":"4","last_reported":1774729057,"current_range_meters":8400,"station_id":"ce4bh312rcd13ifvqdj0","pricing_plan_id":"cebpf4jnsgd1na2vs0mg"},{"bike_id":"659ccfdf-569f-4f01-84dd-6c9bbfa33ac4","system_id":"levelo_inurba_marseille","lat":43.2378,"lon":5.36625,"is_reserved":false,"is_disabled":false,"rental_uris":{"android":"levelo://app?vid=659ccfdf-569f-4f01-84dd-6c9bbfa33ac4","ios":"levelo://app?vid=659ccfdf-569f-4f01-84dd-6c9bbfa33ac4"},"vehicle_type_id":"4","last_reported":1774729057,"current_range_meters":8400,"station_id":"st_d3nk18o9ro0c73en2l3g","pricing_plan_id":"cebpf4jnsgd1na2vs0mg"},{"bike_id":"118bc7f1-2b7a-400b-a968-d0a57204de4e","system_id":"levelo_inurba_marseille","lat":43.2784,"lon":5.39205,"is_reserved":false,"is_disabled":false,"rental_uris":{"android":"levelo://app?vid=118bc7f1-2b7a-400b-a968-d0a57204de4e","ios":"levelo://app?vid=118bc7f1-2b7a-400b-a968-d0a57204de4e"},"vehicle_type_id":"4","last_reported":1774729057,"current_range_meters":8400,"station_id":"ce4bhjp2rcd13ifvqga0","pricing_plan_id":"cebpf4jnsgd1na2vs0mg"},{"bike_id":"a67fc460-c077-4ade-9390-37cad8d5479c","system_id":"levelo_inurba_marseille","lat":43.21753,"lon":5.34595,"is_reserved":false,"is_disabled":false,"rental_uris":{"android":"levelo://app?vid=a67fc460-c077-4ade-9390-37cad8d5479c","ios":"levelo://app?vid=a67fc460-c077-4ade-9390-37cad8d5479c"},"vehicle_type_id":"4","last_reported":1774729057,"current_range_meters":8400,"station_id":"st_cvj6r9ubvosntc0bgbag","pricing_plan_id":"cebpf4jnsgd1na2vs0mg"},{"bike_id":"5a6e5c84-8876-49f7-9e5a-93cccecfd145","system_id":"levelo_inurba_marseille","lat":43.25084,"lon":5.39516,"is_reserved":false,"is_disabled":false,"rental_uris":{"android":"levelo://app?vid=5a6e5c84-8876-49f7-9e5a-93cccecfd145","ios":"levelo://app?vid=5a6e5c84-8876-49f7-9e5a-93cccecfd145"},"vehicle_type_id":"4","last_reported":1774729057,"current_range_meters":8400,"station_id":"ce4bhm12rcd13ifvqgkg","pricing_plan_id":"cebpf4jnsgd1na2vs0mg"},{"bike_id":"2890b77e-7b82-4cf9-8b35-b2e9af77bfcf","system_id":"levelo_inurba_marseille","lat":43.2533,"lon":5.42173,"is_reserved":false,"is_disabled":false,"rental_uris":{"android":"levelo://app?vid=2890b77e-7b82-4cf9-8b35-b2e9af77bfcf","ios":"levelo://app?vid=2890b77e-7b82-4cf9-8b35-b2e9af77bfcf"},"vehicle_type_id":"4","last_reported":1774729057,"current_range_meters":8800,"station_id":"st_d2m65c5bi1j21697t3ng","pricing_plan_id":"cebpf4jnsgd1na2vs0mg"},{"bike_id":"a9176eb7-c188-4ff4-912f-d4e94b60be86","system_id":"levelo_inurba_marseille","lat":43.23802,"lon":5.36615,"is_reserved":false,"is_disabled":false,"rental_uris":{"android":"levelo://app?vid=a9176eb7-c188-4ff4-912f-d4e94b60be86","ios":"levelo://app?vid=a9176eb7-c188-4ff4-912f-d4e94b60be86"},"vehicle_type_id":"4","last_reported":1774729057,"current_range_meters":8800,"station_id":"st_d3nk18o9ro0c73en2l3g","pricing_plan_id":"cebpf4jnsgd1na2vs0mg"},{"bike_id":"0f430097-8d5e-4a5a-9147-4fc5e40a362e","system_id":"levelo_inurba_marseille","lat":43.33543,"lon":5.37459,"is_reserved":false,"is_disabled":false,"rental_uris":{"android":"levelo://app?vid=0f430097-8d5e-4a5a-9147-4fc5e40a362e","ios":"levelo://app?vid=0f430097-8d5e-4a5a-9147-4fc5e40a362e"},"vehicle_type_id":"4","last_reported":1774729057,"current_range_meters":8800,"station_id":"st_d46tts09ee8s73dlu43g","pricing_plan_id":"cebpf4jnsgd1na2vs0mg"},{"bike_id":"54ea3d34-d79a-4ab1-886f-1335ba6b438a","system_id":"levelo_inurba_marseille","lat":43.30145,"lon":5.38103,"is_reserved":false,"is_disabled":true,"rental_uris":{"android":"levelo://app?vid=54ea3d34-d79a-4ab1-886f-1335ba6b438a","ios":"levelo://app?vid=54ea3d34-d79a-4ab1-886f-1335ba6b438a"},"vehicle_type_id":"4","last_reported":1774729057,"current_range_meters":8800,"station_id":"ce4bgjp2rcd13ifvqbh0","pricing_plan_id":"cebpf4jnsgd1na2vs0mg"},{"bike_id":"253bfbd1-c3f6-4b72-a716-55890f3b4db7","system_id":"levelo_inurba_marseille","lat":43.28473,"lon":5.48397,"is_reserved":false,"is_disabled":false,"rental_uris":{"android":"levelo://app?vid=253bfbd1-c3f6-4b72-a716-55890f3b4db7","ios":"levelo://app?vid=253bfbd1-c3f6-4b72-a716-55890f3b4db7"},"vehicle_type_id":"4","last_reported":1774729057,"current_range_meters":8800,"station_id":"","pricing_plan_id":"cebpf4jnsgd1na2vs0mg"},{"bike_id":"d9275995-6199-47cd-9641-416f87712e15","system_id":"levelo_inurba_marseille","lat":43.23778,"lon":5.36631,"is_reserved":false,"is_disabled":false,"rental_uris":{"android":"levelo://app?vid=d9275995-6199-47cd-9641-416f87712e15","ios":"levelo://app?vid=d9275995-6199-47cd-9641-416f87712e15"},"vehicle_type_id":"4","last_reported":1774729057,"current_range_meters":8800,"station_id":"st_d3nk18o9ro0c73en2l3g","pricing_plan_id":"cebpf4jnsgd1na2vs0mg"},{"bike_id":"cc59f728-d7ea-44ba-a83b-ab5dcd4ed237","system_id":"levelo_inurba_marseille","lat":43.30555,"lon":5.36556,"is_reserved":false,"is_disabled":false,"rental_uris":{"android":"levelo://app?vid=cc59f728-d7ea-44ba-a83b-ab5dcd4ed237","ios":"levelo://app?vid=cc59f728-d7ea-44ba-a83b-ab5dcd4ed237"},"vehicle_type_id":"4","last_reported":1774729057,"current_range_meters":8800,"station_id":"ce4bgs12rcd13ifvqcag","pricing_plan_id":"cebpf4jnsgd1na2vs0mg"},{"bike_id":"1961bb3e-d5c8-4c76-b4b1-96f51bad8908","system_id":"levelo_inurba_marseille","lat":43.26559,"lon":5.37282,"is_reserved":false,"is_disabled":false,"rental_uris":{"android":"levelo://app?vid=1961bb3e-d5c8-4c76-b4b1-96f51bad8908","ios":"levelo://app?vid=1961bb3e-d5c8-4c76-b4b1-96f51bad8908"},"vehicle_type_id":"4","last_reported":1774729057,"current_range_meters":8800,"station_id":"ce4bhg12rcd13ifvqf70","pricing_plan_id":"cebpf4jnsgd1na2vs0mg"},{"bike_id":"2d0fdc3d-338a-4727-826c-caea44a0cbfa","system_id":"levelo_inurba_marseille","lat":43.29816,"lon":5.4407,"is_reserved":false,"is_disabled":false,"rental_uris":{"android":"levelo://app?vid=2d0fdc3d-338a-4727-826c-caea44a0cbfa","ios":"levelo://app?vid=2d0fdc3d-338a-4727-826c-caea44a0cbfa"},"vehicle_type_id":"4","last_reported":1774729057,"current_range_meters":8800,"station_id":"st_d3jp68qikq2c7381ktn0","pricing_plan_id":"cebpf4jnsgd1na2vs0mg"},{"bike_id":"9abb2481-2015-444c-b641-81f74382940d","system_id":"levelo_inurba_marseille","lat":43.28919,"lon":5.38411,"is_reserved":false,"is_disabled":false,"rental_uris":{"android":"levelo://app?vid=9abb2481-2015-444c-b641-81f74382940d","ios":"levelo://app?vid=9abb2481-2015-444c-b641-81f74382940d"},"vehicle_type_id":"4","last_reported":1774729057,"current_range_meters":8800,"station_id":"ce4bh612rcd13ifvqe6g","pricing_plan_id":"cebpf4jnsgd1na2vs0mg"},{"bike_id":"90aaae4f-4bea-44a9-9991-726dd88eccf2","system_id":"levelo_inurba_marseille","lat":43.23376,"lon":5.41245,"is_reserved":false,"is_disabled":true,"rental_uris":{"android":"levelo://app?vid=90aaae4f-4bea-44a9-9991-726dd88eccf2","ios":"levelo://app?vid=90aaae4f-4bea-44a9-9991-726dd88eccf2"},"vehicle_type_id":"4","last_reported":1774729057,"current_range_meters":8800,"station_id":"","pricing_plan_id":"cebpf4jnsgd1na2vs0mg"},{"bike_id":"c609aa61-79d9-47bd-b7b7-62d640d7b9ef","system_id":"levelo_inurba_marseille","lat":43.26552,"lon":5.37301,"is_reserved":false,"is_disabled":true,"rental_uris":{"android":"levelo://app?vid=c609aa61-79d9-47bd-b7b7-62d640d7b9ef","ios":"levelo://app?vid=c609aa61-79d9-47bd-b7b7-62d640d7b9ef"},"vehicle_type_id":"4","last_reported":1774729057,"current_range_meters":8800,"station_id":"ce4bhg12rcd13ifvqf70","pricing_plan_id":"cebpf4jnsgd1na2vs0mg"},{"bike_id":"752abf57-2523-4a36-ab7b-c328452703b1","system_id":"levelo_inurba_marseille","lat":43.24821,"lon":5.37464,"is_reserved":false,"is_disabled":false,"rental_uris":{"android":"levelo://app?vid=752abf57-2523-4a36-ab7b-c328452703b1","ios":"levelo://app?vid=752abf57-2523-4a36-ab7b-c328452703b1"},"vehicle_type_id":"4","last_reported":1774729057,"current_range_meters":8800,"station_id":"ce4bhgh2rcd13ifvqfb0","pricing_plan_id":"cebpf4jnsgd1na2vs0mg"},{"bike_id":"63dcb16f-015f-4b05-8f8b-b69a043fa8cb","system_id":"levelo_inurba_marseille","lat":43.2903,"lon":5.37577,"is_reserved":false,"is_disabled":false,"rental_uris":{"android":"levelo://app?vid=63dcb16f-015f-4b05-8f8b-b69a043fa8cb","ios":"levelo://app?vid=63dcb16f-015f-4b05-8f8b-b69a043fa8cb"},"vehicle_type_id":"4","last_reported":1774729057,"current_range_meters":8800,"station_id":"ce4bh692rcd13ifvqe90","pricing_plan_id":"cebpf4jnsgd1na2vs0mg"},{"bike_id":"56603236-0b6d-44e6-924a-3489e7c8fead","system_id":"levelo_inurba_marseille","lat":43.25736,"lon":5.38717,"is_reserved":false,"is_disabled":false,"rental_uris":{"android":"levelo://app?vid=56603236-0b6d-44e6-924a-3489e7c8fead","ios":"levelo://app?vid=56603236-0b6d-44e6-924a-3489e7c8fead"},"vehicle_type_id":"4","last_reported":1774729057,"current_range_meters":8800,"station_id":"","pricing_plan_id":"cebpf4jnsgd1na2vs0mg"},{"bike_id":"56ed71d3-4f24-4bcb-9e63-f10b7aa4866e","system_id":"levelo_inurba_marseille","lat":43.28419,"lon":5.34991,"is_reserved":false,"is_disabled":false,"rental_uris":{"android":"levelo://app?vid=56ed71d3-4f24-4bcb-9e63-f10b7aa4866e","ios":"levelo://app?vid=56ed71d3-4f24-4bcb-9e63-f10b7aa4866e"},"vehicle_type_id":"4","last_reported":1774729057,"current_range_meters":8800,"station_id":"ce4bhbh2rcd13ifvqepg","pricing_plan_id":"cebpf4jnsgd1na2vs0mg"},{"bike_id":"f9edbc1e-af4a-4c16-b5c1-dffc80f95855","system_id":"levelo_inurba_marseille","lat":43.29593,"lon":5.38101,"is_reserved":false,"is_disabled":false,"rental_uris":{"android":"levelo://app?vid=f9edbc1e-af4a-4c16-b5c1-dffc80f95855","ios":"levelo://app?vid=f9edbc1e-af4a-4c16-b5c1-dffc80f95855"},"vehicle_type_id":"4","last_reported":1774729057,"current_range_meters":8800,"station_id":"ce4bgl12rcd13ifvqbo0","pricing_plan_id":"cebpf4jnsgd1na2vs0mg"},{"bike_id":"a20860db-5e6f-4257-b103-c77c212b043f","system_id":"levelo_inurba_marseille","lat":43.29785,"lon":5.39334,"is_reserved":false,"is_disabled":true,"rental_uris":{"android":"levelo://app?vid=a20860db-5e6f-4257-b103-c77c212b043f","ios":"levelo://app?vid=a20860db-5e6f-4257-b103-c77c212b043f"},"vehicle_type_id":"4","last_reported":1774729057,"current_range_meters":8800,"station_id":"chh1huq6cuj3fo74tm60","pricing_plan_id":"cebpf4jnsgd1na2vs0mg"},{"bike_id":"4c9a3293-f2c3-4e99-b5e1-94195ca699a4","system_id":"levelo_inurba_marseille","lat":43.2854,"lon":5.44125,"is_reserved":false,"is_disabled":false,"rental_uris":{"android":"levelo://app?vid=4c9a3293-f2c3-4e99-b5e1-94195ca699a4","ios":"levelo://app?vid=4c9a3293-f2c3-4e99-b5e1-94195ca699a4"},"vehicle_type_id":"4","last_reported":1774729057,"current_range_meters":8800,"station_id":"st_d3j3df2ikq2c7380ej80","pricing_plan_id":"cebpf4jnsgd1na2vs0mg"},{"bike_id":"2f2b1d2c-1be4-402e-a839-6d84d3bfb79f","system_id":"levelo_inurba_marseille","lat":43.284,"lon":5.3501,"is_reserved":false,"is_disabled":false,"rental_uris":{"android":"levelo://app?vid=2f2b1d2c-1be4-402e-a839-6d84d3bfb79f","ios":"levelo://app?vid=2f2b1d2c-1be4-402e-a839-6d84d3bfb79f"},"vehicle_type_id":"4","last_reported":1774729057,"current_range_meters":8800,"station_id":"ce4bhbh2rcd13ifvqepg","pricing_plan_id":"cebpf4jnsgd1na2vs0mg"},{"bike_id":"d33edff9-e5b1-4ed1-bf0c-8372099fd747","system_id":"levelo_inurba_marseille","lat":43.27985,"lon":5.41666,"is_reserved":false,"is_disabled":false,"rental_uris":{"android":"levelo://app?vid=d33edff9-e5b1-4ed1-bf0c-8372099fd747","ios":"levelo://app?vid=d33edff9-e5b1-4ed1-bf0c-8372099fd747"},"vehicle_type_id":"4","last_reported":1774729057,"current_range_meters":9200,"station_id":"ce4bho12rcd13ifvqh1g","pricing_plan_id":"cebpf4jnsgd1na2vs0mg"},{"bike_id":"2cc220e9-c375-4561-818d-dacf15851ad3","system_id":"levelo_inurba_marseille","lat":43.24073,"lon":5.37759,"is_reserved":false,"is_disabled":false,"rental_uris":{"android":"levelo://app?vid=2cc220e9-c375-4561-818d-dacf15851ad3","ios":"levelo://app?vid=2cc220e9-c375-4561-818d-dacf15851ad3"},"vehicle_type_id":"4","last_reported":1774729057,"current_range_meters":9200,"station_id":"ce4bhnp2rcd13ifvqgvg","pricing_plan_id":"cebpf4jnsgd1na2vs0mg"},{"bike_id":"4247c776-2951-4741-b1a8-85d5eef00372","system_id":"levelo_inurba_marseille","lat":43.27373,"lon":5.36257,"is_reserved":false,"is_disabled":false,"rental_uris":{"android":"levelo://app?vid=4247c776-2951-4741-b1a8-85d5eef00372","ios":"levelo://app?vid=4247c776-2951-4741-b1a8-85d5eef00372"},"vehicle_type_id":"4","last_reported":1774729057,"current_range_meters":9200,"station_id":"ce4bhbh2rcd13ifvqeo0","pricing_plan_id":"cebpf4jnsgd1na2vs0mg"},{"bike_id":"4a2c0f41-33ad-4d27-89ae-3ec521f606e9","system_id":"levelo_inurba_marseille","lat":43.284,"lon":5.34998,"is_reserved":false,"is_disabled":false,"rental_uris":{"android":"levelo://app?vid=4a2c0f41-33ad-4d27-89ae-3ec521f606e9","ios":"levelo://app?vid=4a2c0f41-33ad-4d27-89ae-3ec521f606e9"},"vehicle_type_id":"4","last_reported":1774729057,"current_range_meters":9200,"station_id":"ce4bhbh2rcd13ifvqepg","pricing_plan_id":"cebpf4jnsgd1na2vs0mg"},{"bike_id":"dd2afc2a-d3f5-42c3-a3d7-6c4ed376f5b8","system_id":"levelo_inurba_marseille","lat":43.23194,"lon":5.35554,"is_reserved":false,"is_disabled":false,"rental_uris":{"android":"levelo://app?vid=dd2afc2a-d3f5-42c3-a3d7-6c4ed376f5b8","ios":"levelo://app?vid=dd2afc2a-d3f5-42c3-a3d7-6c4ed376f5b8"},"vehicle_type_id":"4","last_reported":1774729057,"current_range_meters":9200,"station_id":"ce4bhu92rcd13ifvqi70","pricing_plan_id":"cebpf4jnsgd1na2vs0mg"},{"bike_id":"bccd41cd-72b5-4c09-b3d2-797778513a40","system_id":"levelo_inurba_marseille","lat":43.29523,"lon":5.39031,"is_reserved":false,"is_disabled":false,"rental_uris":{"android":"levelo://app?vid=bccd41cd-72b5-4c09-b3d2-797778513a40","ios":"levelo://app?vid=bccd41cd-72b5-4c09-b3d2-797778513a40"},