{"last_updated":1704139651,"ttl":30,"version":"2.2","data":{"bikes":[{"bike_id":"7abe165e-a561-46ad-b3ef-8c7ab69ffce6","system_id":"levelo_inurba_marseille","lat":43.313391,"lon":5.36706,"is_reserved":false,"is_disabled":false,"rental_uris":{"android":"levelo://app?vid=7abe165e-a561-46ad-b3ef-8c7ab69ffce6","ios":"levelo://app?vid=7abe165e-a561-46ad-b3ef-8c7ab69ffce6"},"vehicle_type_id":"4","last_reported":1704139651,"current_range_meters":22000,"station_id":"ce4bgr92rcd13ifvqc6g","pricing_plan_id":"free"},{"bike_id":"19681d20-0e94-4d95-bd6e-75843e212133","system_id":"levelo_inurba_marseille","lat":43.313391,"lon":5.36706,"is_reserved":false,"is_disabled":false,"rental_uris":{"android":"levelo://app?vid=19681d20-0e94-4d95-bd6e-75843e212133","ios":"levelo://app?vid=19681d20-0e94-4d95-bd6e-75843e212133"},"vehicle_type_id":"4","last_reported":1704139651,"current_range_meters":28400,"station_id":"ce4bgr92rcd13ifvqc6g","pricing_plan_id":"free"},{"bike_id":"7ddfca8b-8d90-4c0e-b4ee-8399ae205af5","system_id":"levelo_inurba_marseille","lat":43.313391,"lon":5.36706,"is_reserved":false,"is_disabled":false,"rental_uris":{"android":"levelo://app?vid=7ddfca8b-8d90-4c0e-b4ee-8399ae205af5","ios":"levelo://app?vid=7ddfca8b-8d90-4c0e-b4ee-8399ae205af5"},"vehicle_type_id":"4","last_reported":1704139651,"current_range_meters":25200,"station_id":"ce4bgr92rcd13ifvqc6g","pricing_plan_id":"free"},{"bike_id":"de03c701-02a0-463d-b34f-b952a237a9db","system_id":"levelo_inurba_marseille","lat":43.312239,"lon":5.368562,"is_reserved":false,"is_disabled":false,"rental_uris":{"android":"levelo://app?vid=de03c701-02a0-463d-b34f-b952a237a9db","ios":"levelo://app?vid=de03c701-02a0-463d-b34f-b952a237a9db"},"vehicle_type_id":"4","last_reported":1704139651,"current_range_meters":12000,"station_id":"ce4bgl92rcd13ifvqbq0","pricing_plan_id":"free"},{"bike_id":"ed32e42d-afa6-4da9-8096-56868f5d319f","system_id":"levelo_inurba_marseille","lat":43.312239,"lon":5.368562,"is_reserved":false,"is_disabled":false,"rental_uris":{"android":"levelo://app?vid=ed32e42d-afa6-4da9-8096-56868f5d319f","ios":"levelo://app?vid=ed32e42d-afa6-4da9-8096-56868f5d319f"},"vehicle_type_id":"4","last_reported":1704139651,"current_range_meters":21600,"station_id":"ce4bgl92rcd13ifvqbq0","pricing_plan_id":"free"},{"bike_id":"25e6d0c7-9e2a-4bcf-b24c-ef29d76f1f81","system_id":"levelo_inurba_marseille","lat":43.314811,"lon":5.373103,"is_reserved":false,"is_disabled":false,"rental_uris":{"android":"levelo://app?vid=25e6d0c7-9e2a-4bcf-b24c-ef29d76f1f81","ios":"levelo://app?vid=25e6d0c7-9e2a-4bcf-b24c-ef29d76f1f81"},"vehicle_type_id":"4","last_reported":1704139651,"current_range_meters":28400,"station_id":"ce4bgt12rcd13ifvqcd0","pricing_plan_id":"free"},{"bike_id":"6ae0a7d8-a3f5-4b5e-9c31-1b0d0a660a33","system_id":"levelo_inurba_marseille","lat":43.314811,"lon":5.373103,"is_reserved":false,"is_disabled":false,"rental_uris":{"android":"levelo://app?vid=6ae0a7d8-a3f5-4b5e-9c31-1b0d0a660a33","ios":"levelo://app?vid=6ae0a7d8-a3f5-4b5e-9c31-1b0d0a660a33"},"vehicle_type_id":"4","last_reported":1704139651,"current_range_meters":6800,"station_id":"ce4bgt12rcd13ifvqcd0","pricing_plan_id":"free"},{"bike_id":"81785462-05dc-4c13-900e-6273fc28e12b","system_id":"levelo_inurba_marseille","lat":43.314811,"lon":5.373103,"is_reserved":false,"is_disabled":false,"rental_uris":{"android":"levelo://app?vid=81785462-05dc-4c13-900e-6273fc28e12b","ios":"levelo://app?vid=81785462-05dc-4c13-900e-6273fc28e12b"},"vehicle_type_id":"4","last_reported":1704139651,"current_range_meters":26000,"station_id":"ce4bgt12rcd13ifvqcd0","pricing_plan_id":"free"},{"bike_id":"169fc797-5a0f-44a1-9c51-501bf889c536","system_id":"levelo_inurba_marseille","lat":43.314811,"lon":5.373103,"is_reserved":false,"is_disabled":false,"rental_uris":{"android":"levelo://app?vid=169fc797-5a0f-44a1-9c51-501bf889c536","ios":"levelo://app?vid=169fc797-5a0f-44a1-9c51-501bf889c536"},"vehicle_type_id":"4","last_reported":1704139651,"current_range_meters":18000,"station_id":"ce4bgt12rcd13ifvqcd0","pricing_plan_id":"free"},{"bike_id":"21d63386-4dbc-4a1b-b3fb-d0b9b2d19bdd","system_id":"levelo_inurba_marseille","lat":43.314811,"lon":5.373104,"is_reserved":false,"is_disabled":false,"rental_uris":{"android":"levelo://app?vid=21d63386-4dbc-4a1b-b3fb-d0b9b2d19bdd","ios":"levelo://app?vid=21d63386-4dbc-4a1b-b3fb-d0b9b2d19bdd"},"vehicle_type_id":"4","last_reported":1704139651,"current_range_meters":28800,"station_id":"ce4bgt12rcd13ifvqcd0","pricing_plan_id":"free"},{"bike_id":"2fff1412-b89b-444b-830e-be3b6143ec0f","system_id":"levelo_inurba_marseille","lat":43.314811,"lon":5.373103,"is_reserved":false,"is_disabled":false,"rental_uris":{"android":"levelo://app?vid=2fff1412-b89b-444b-830e-be3b6143ec0f","ios":"levelo://app?vid=2fff1412-b89b-444b-830e-be3b6143ec0f"},"vehicle_type_id":"4","last_reported":1704139651,"current_range_meters":10800,"station_id":"ce4bgt12rcd13ifvqcd0","pricing_plan_id":"free"},{"bike_id":"1ca9373c-bbff-4b68-be9c-ccfd36d08db3","system_id":"levelo_inurba_marseille","lat":43.314811,"lon":5.373103,"is_reserved":false,"is_disabled":false,"rental_uris":{"android":"levelo://app?vid=1ca9373c-bbff-4b68-be9c-ccfd36d08db3","ios":"levelo://app?vid=1ca9373c-bbff-4b68-be9c-ccfd36d08db3"},"vehicle_type_id":"4","last_reported":1704139651,"current_range_meters":19200,"station_id":"ce4bgt12rcd13ifvqcd0","pricing_plan_id":"free"},{"bike_id":"d2478441-3bae-4773-acbb-e3e3073679c0","system_id":"levelo_inurba_marseille","lat":43.314811,"lon":5.373103,"is_reserved":false,"is_disabled":false,"rental_uris":{"android":"levelo://app?vid=d2478441-3bae-4773-acbb-e3e3073679c0","ios":"levelo://app?vid=d2478441-3bae-4773-acbb-e3e3073679c0"},"vehicle_type_id":"4","last_reported":1704139651,"current_range_meters":29600,"station_id":"ce4bgt12rcd13ifvqcd0","pricing_plan_id":"free"},{"bike_id":"dd3dd4fa-31ae-4ea0-a7b9-40dd880e3397","system_id":"levelo_inurba_marseille","lat":43.314811,"lon":5.373104,"is_reserved":false,"is_disabled":false,"rental_uris":{"android":"levelo://app?vid=dd3dd4fa-31ae-4ea0-a7b9-40dd880e3397","ios":"levelo://app?vid=dd3dd4fa-31ae-4ea0-a7b9-40dd880e3397"},"vehicle_type_id":"4","last_reported":1704139651,"current_range_meters":28400,"station_id":"ce4bgt12rcd13ifvqcd0","pricing_plan_id":"free"},{"bike_id":"e06a1df2-05d7-4bce-9885-790b045888d7","system_id":"levelo_inurba_marseille","lat":43.308933,"lon":5.371911,"is_reserved":false,"is_disabled":false,"rental_uris":{"android":"levelo://app?vid=e06a1df2-05d7-4bce-9885-790b045888d7","ios":"levelo://app?vid=e06a1df2-05d7-4bce-9885-790b045888d7"},"vehicle_type_id":"4","last_reported":1704139651,"current_range_meters":21600,"station_id":"ce4bguh2rcd13ifvqckg","pricing_plan_id":"free"},{"bike_id":"8f4a10bf-fdcf-471b-aa21-66a411b5fcd2","system_id":"levelo_inurba_marseille","lat":43.309039,"lon":5.371797,"is_reserved":false,"is_disabled":false,"rental_uris":{"android":"levelo://app?vid=8f4a10bf-fdcf-471b-aa21-66a411b5fcd2","ios":"levelo://app?vid=8f4a10bf-fdcf-471b-aa21-66a411b5fcd2"},"vehicle_type_id":"4","last_reported":1704139651,"current_range_meters":21600,"station_id":"ce4bguh2rcd13ifvqckg","pricing_plan_id":"free"},{"bike_id":"d699cb48-9003-403e-8cf2-795cecd8ff15","system_id":"levelo_inurba_marseille","lat":43.309039,"lon":5.371797,"is_reserved":false,"is_disabled":false,"rental_uris":{"android":"levelo://app?vid=d699cb48-9003-403e-8cf2-795cecd8ff15","ios":"levelo://app?vid=d699cb48-9003-403e-8cf2-795cecd8ff15"},"vehicle_type_id":"4","last_reported":1704139651,"current_range_meters":20400,"station_id":"ce4bguh2rcd13ifvqckg","pricing_plan_id":"free"},{"bike_id":"0d79ae00-be73-4cf1-ad97-e32a3f832f81","system_id":"levelo_inurba_marseille","lat":43.305714,"lon":5.365633,"is_reserved":false,"is_disabled":false,"rental_uris":{"android":"levelo://app?vid=0d79ae00-be73-4cf1-ad97-e32a3f832f81","ios":"levelo://app?vid=0d79ae00-be73-4cf1-ad97-e32a3f832f81"},"vehicle_type_id":"4","last_reported":1704139651,"current_range_meters":14800,"station_id":"ce4bgs12rcd13ifvqcag","pricing_plan_id":"free"},{"bike_id":"2d0cbd29-328c-407f-9b47-788a9f4494c6","system_id":"levelo_inurba_marseille","lat":43.305714,"lon":5.365633,"is_reserved":false,"is_disabled":false,"rental_uris":{"android":"levelo://app?vid=2d0cbd29-328c-407f-9b47-788a9f4494c6","ios":"levelo://app?vid=2d0cbd29-328c-407f-9b47-788a9f4494c6"},"vehicle_type_id":"4","last_reported":1704139651,"current_range_meters":26000,"station_id":"ce4bgs12rcd13ifvqcag","pricing_plan_id":"free"},{"bike_id":"6cc10ba3-514e-4b87-b859-081a0f2df958","system_id":"levelo_inurba_marseille","lat":43.305706,"lon":5.365654,"is_reserved":false,"is_disabled":false,"rental_uris":{"android":"levelo://app?vid=6cc10ba3-514e-4b87-b859-081a0f2df958","ios":"levelo://app?vid=6cc10ba3-514e-4b87-b859-081a0f2df958"},"vehicle_type_id":"4","last_reported":1704139651,"current_range_meters":22400,"station_id":"ce4bgs12rcd13ifvqcag","pricing_plan_id":"free"},{"bike_id":"5e9d6c04-02a2-41fe-a736-a4a8d77eb5e8","system_id":"levelo_inurba_marseille","lat":43.305989,"lon":5.37225,"is_reserved":false,"is_disabled":false,"rental_uris":{"android":"levelo://app?vid=5e9d6c04-02a2-41fe-a736-a4a8d77eb5e8","ios":"levelo://app?vid=5e9d6c04-02a2-41fe-a736-a4a8d77eb5e8"},"vehicle_type_id":"4","last_reported":1704139651,"current_range_meters":29200,"station_id":"ce4bgqh2rcd13ifvqc4g","pricing_plan_id":"free"},{"bike_id":"766a75aa-0725-44b0-960e-d762ebe7cb1e","system_id":"levelo_inurba_marseille","lat":43.305989,"lon":5.37225,"is_reserved":false,"is_disabled":false,"rental_uris":{"android":"levelo://app?vid=766a75aa-0725-44b0-960e-d762ebe7cb1e","ios":"levelo://app?vid=766a75aa-0725-44b0-960e-d762ebe7cb1e"},"vehicle_type_id":"4","last_reported":1704139651,"current_range_meters":17600,"station_id":"ce4bgqh2rcd13ifvqc4g","pricing_plan_id":"free"},{"bike_id":"9480542a-bfc5-4c0c-9336-a982f6ecc93d","system_id":"levelo_inurba_marseille","lat":43.311131,"lon":5.377651,"is_reserved":false,"is_disabled":false,"rental_uris":{"android":"levelo://app?vid=9480542a-bfc5-4c0c-9336-a982f6ecc93d","ios":"levelo://app?vid=9480542a-bfc5-4c0c-9336-a982f6ecc93d"},"vehicle_type_id":"4","last_reported":1704139651,"current_range_meters":6400,"station_id":"ce4bgt92rcd13ifvqcg0","pricing_plan_id":"free"},{"bike_id":"25af9e1c-886c-4f64-92f2-5ca68e46ae4a","system_id":"levelo_inurba_marseille","lat":43.31722,"lon":5.37668,"is_reserved":false,"is_disabled":false,"rental_uris":{"android":"levelo://app?vid=25af9e1c-886c-4f64-92f2-5ca68e46ae4a","ios":"levelo://app?vid=25af9e1c-886c-4f64-92f2-5ca68e46ae4a"},"vehicle_type_id":"4","last_reported":1704139651,"current_range_meters":17200,"station_id":"","pricing_plan_id":"free"},{"bike_id":"e8aeb72e-faac-447a-af4c-e2b70b65dae9","system_id":"levelo_inurba_marseille","lat":43.307945,"lon":5.376487,"is_reserved":false,"is_disabled":false,"rental_uris":{"android":"levelo://app?vid=e8aeb72e-faac-447a-af4c-e2b70b65dae9","ios":"levelo://app?vid=e8aeb72e-faac-447a-af4c-e2b70b65dae9"},"vehicle_type_id":"4","last_reported":1704139651,"current_range_meters":26000,"station_id":"ce4bgv92rcd13ifvqcq0","pricing_plan_id":"free"},{"bike_id":"271c97a6-6fc2-4bcc-94ba-ac4a3fc23ca7","system_id":"levelo_inurba_marseille","lat":43.30304,"lon":5.368987,"is_reserved":false,"is_disabled":false,"rental_uris":{"android":"levelo://app?vid=271c97a6-6fc2-4bcc-94ba-ac4a3fc23ca7","ios":"levelo://app?vid=271c97a6-6fc2-4bcc-94ba-ac4a3fc23ca7"},"vehicle_type_id":"4","last_reported":1704139651,"current_range_meters":31200,"station_id":"ce4bgqh2rcd13ifvqc5g","pricing_plan_id":"free"},{"bike_id":"0fd8d3d2-81cb-4827-b64f-fbf078d36928","system_id":"levelo_inurba_marseille","lat":43.303046,"lon":5.368981,"is_reserved":false,"is_disabled":false,"rental_uris":{"android":"levelo://app?vid=0fd8d3d2-81cb-4827-b64f-fbf078d36928","ios":"levelo://app?vid=0fd8d3d2-81cb-4827-b64f-fbf078d36928"},"vehicle_type_id":"4","last_reported":1704139651,"current_range_meters":31600,"station_id":"ce4bgqh2rcd13ifvqc5g","pricing_plan_id":"free"},{"bike_id":"1b58d13e-99d5-4160-bee7-13b1ba85d5e2","system_id":"levelo_inurba_marseille","lat":43.30304,"lon":5.368987,"is_reserved":false,"is_disabled":false,"rental_uris":{"android":"levelo://app?vid=1b58d13e-99d5-4160-bee7-13b1ba85d5e2","ios":"levelo://app?vid=1b58d13e-99d5-4160-bee7-13b1ba85d5e2"},"vehicle_type_id":"4","last_reported":1704139651,"current_range_meters":10800,"station_id":"ce4bgqh2rcd13ifvqc5g","pricing_plan_id":"free"},{"bike_id":"16503b00-600c-42e4-acb0-40cca7f9eb4f","system_id":"levelo_inurba_marseille","lat":43.30186,"lon":5.36613,"is_reserved":false,"is_disabled":false,"rental_uris":{"android":"levelo://app?vid=16503b00-600c-42e4-acb0-40cca7f9eb4f","ios":"levelo://app?vid=16503b00-600c-42e4-acb0-40cca7f9eb4f"},"vehicle_type_id":"4","last_reported":1704139651,"current_range_meters":30400,"station_id":"ce4bgrh2rcd13ifvqc8g","pricing_plan_id":"free"},{"bike_id":"ae594c05-2521-4b02-9690-dc87f2408f5d","system_id":"levelo_inurba_marseille","lat":43.308012,"lon":5.381511,"is_reserved":false,"is_disabled":false,"rental_uris":{"android":"levelo://app?vid=ae594c05-2521-4b02-9690-dc87f2408f5d","ios":"levelo://app?vid=ae594c05-2521-4b02-9690-dc87f2408f5d"},"vehicle_type_id":"4","last_reported":1704139651,"current_range_meters":0,"station_id":"ce4bgt12rcd13ifvqce0","pricing_plan_id":"free"},{"bike_id":"e96f260a-c493-418c-9f68-f1a3cf4ea11e","system_id":"levelo_inurba_marseille","lat":43.308012,"lon":5.381511,"is_reserved":false,"is_disabled":false,"rental_uris":{"android":"levelo://app?vid=e96f260a-c493-418c-9f68-f1a3cf4ea11e","ios":"levelo://app?vid=e96f260a-c493-418c-9f68-f1a3cf4ea11e"},"vehicle_type_id":"4","last_reported":1704139651,"current_range_meters":7600,"station_id":"ce4bgt12rcd13ifvqce0","pricing_plan_id":"free"},{"bike_id":"5377074b-30e2-4d67-825b-9deb3b1dbed3","system_id":"levelo_inurba_marseille","lat":43.304708,"lon":5.379039,"is_reserved":false,"is_disabled":false,"rental_uris":{"android":"levelo://app?vid=5377074b-30e2-4d67-825b-9deb3b1dbed3","ios":"levelo://app?vid=5377074b-30e2-4d67-825b-9deb3b1dbed3"},"vehicle_type_id":"4","last_reported":1704139651,"current_range_meters":13600,"station_id":"","pricing_plan_id":"free"},{"bike_id":"4c4910a8-b87e-4c13-b856-37ef8615c163","system_id":"levelo_inurba_marseille","lat":43.324771,"lon":5.36557,"is_reserved":false,"is_disabled":false,"rental_uris":{"android":"levelo://app?vid=4c4910a8-b87e-4c13-b856-37ef8615c163","ios":"levelo://app?vid=4c4910a8-b87e-4c13-b856-37ef8615c163"},"vehicle_type_id":"4","last_reported":1704139651,"current_range_meters":24800,"station_id":"ce4bhs12rcd13ifvqhvg","pricing_plan_id":"free"},{"bike_id":"12cc3e03-e48b-4f30-bfc9-f1b37a6da005","system_id":"levelo_inurba_marseille","lat":43.302774,"lon":5.376952,"is_reserved":false,"is_disabled":false,"rental_uris":{"android":"levelo://app?vid=12cc3e03-e48b-4f30-bfc9-f1b37a6da005","ios":"levelo://app?vid=12cc3e03-e48b-4f30-bfc9-f1b37a6da005"},"vehicle_type_id":"4","last_reported":1704139651,"current_range_meters":30000,"station_id":"ce4bguh2rcd13ifvqcj0","pricing_plan_id":"free"},{"bike_id":"46b4e2d4-d9c8-4dbb-bdcc-3d72eb57989a","system_id":"levelo_inurba_marseille","lat":43.32033,"lon":5.38076,"is_reserved":false,"is_disabled":false,"rental_uris":{"android":"levelo://app?vid=46b4e2d4-d9c8-4dbb-bdcc-3d72eb57989a","ios":"levelo://app?vid=46b4e2d4-d9c8-4dbb-bdcc-3d72eb57989a"},"vehicle_type_id":"4","last_reported":1704139651,"current_range_meters":2800,"station_id":"","pricing_plan_id":"free"},{"bike_id":"2a6c552b-c8f3-404a-aceb-36f8473ac999","system_id":"levelo_inurba_marseille","lat":43.28573,"lon":5.394992,"is_reserved":false,"is_disabled":false,"rental_uris":{"android":"levelo://app?vid=2a6c552b-c8f3-404a-aceb-36f8473ac999","ios":"levelo://app?vid=2a6c552b-c8f3-404a-aceb-36f8473ac999"},"vehicle_type_id":"4","last_reported":1704139651,"current_range_meters":31200,"station_id":"ce4bh292rcd13ifvqdg0","pricing_plan_id":"free"},{"bike_id":"0dac0acd-fc78-43f2-bef0-dca9a9876768","system_id":"levelo_inurba_marseille","lat":43.319935,"lon":5.381699,"is_reserved":false,"is_disabled":false,"rental_uris":{"android":"levelo://app?vid=0dac0acd-fc78-43f2-bef0-dca9a9876768","ios":"levelo://app?vid=0dac0acd-fc78-43f2-bef0-dca9a9876768"},"vehicle_type_id":"4","last_reported":1704139651,"current_range_meters":5600,"station_id":"ce4bhr12rcd13ifvqhpg","pricing_plan_id":"free"},{"bike_id":"1838a44d-5d52-4d42-b670-74a4a644f80c","system_id":"levelo_inurba_marseille","lat":43.31371,"lon":5.38489,"is_reserved":false,"is_disabled":false,"rental_uris":{"android":"levelo://app?vid=1838a44d-5d52-4d42-b670-74a4a644f80c","ios":"levelo://app?vid=1838a44d-5d52-4d42-b670-74a4a644f80c"},"vehicle_type_id":"4","last_reported":1704139651,"current_range_meters":21600,"station_id":"ce4bgt92rcd13ifvqcf0","pricing_plan_id":"free"},{"bike_id":"c167d754-deda-4459-8085-b13c1a544b19","system_id":"levelo_inurba_marseille","lat":43.31369,"lon":5.38495,"is_reserved":false,"is_disabled":false,"rental_uris":{"android":"levelo://app?vid=c167d754-deda-4459-8085-b13c1a544b19","ios":"levelo://app?vid=c167d754-deda-4459-8085-b13c1a544b19"},"vehicle_type_id":"4","last_reported":1704139651,"current_range_meters":12400,"station_id":"ce4bgt92rcd13ifvqcf0","pricing_plan_id":"free"},{"bike_id":"1dbc8a77-5d10-47e0-94e9-be1d311ed37a","system_id":"levelo_inurba_marseille","lat":43.313571,"lon":5.384829,"is_reserved":false,"is_disabled":false,"rental_uris":{"android":"levelo://app?vid=1dbc8a77-5d10-47e0-94e9-be1d311ed37a","ios":"levelo://app?vid=1dbc8a77-5d10-47e0-94e9-be1d311ed37a"},"vehicle_type_id":"4","last_reported":1704139651,"current_range_meters":26800,"station_id":"ce4bgt92rcd13ifvqcf0","pricing_plan_id":"free"},{"bike_id":"5ef22bc3-e59c-4ccf-b18c-2ffa7445c805","system_id":"levelo_inurba_marseille","lat":43.299222,"lon":5.365554,"is_reserved":false,"is_disabled":false,"rental_uris":{"android":"levelo://app?vid=5ef22bc3-e59c-4ccf-b18c-2ffa7445c805","ios":"levelo://app?vid=5ef22bc3-e59c-4ccf-b18c-2ffa7445c805"},"vehicle_type_id":"4","last_reported":1704139651,"current_range_meters":29200,"station_id":"ce4bgm92rcd13ifvqbr0","pricing_plan_id":"free"},{"bike_id":"218bb372-c46d-4ba4-aa93-a5df393ce036","system_id":"levelo_inurba_marseille","lat":43.299222,"lon":5.365554,"is_reserved":false,"is_disabled":false,"rental_uris":{"android":"levelo://app?vid=218bb372-c46d-4ba4-aa93-a5df393ce036","ios":"levelo://app?vid=218bb372-c46d-4ba4-aa93-a5df393ce036"},"vehicle_type_id":"4","last_reported":1704139651,"current_range_meters":15200,"station_id":"ce4bgm92rcd13ifvqbr0","pricing_plan_id":"free"},{"bike_id":"cc6264d7-a583-4b19-80de-52814ea9a65b","system_id":"levelo_inurba_marseille","lat":43.298433,"lon":5.362774,"is_reserved":false,"is_disabled":false,"rental_uris":{"android":"levelo://app?vid=cc6264d7-a583-4b19-80de-52814ea9a65b","ios":"levelo://app?vid=cc6264d7-a583-4b19-80de-52814ea9a65b"},"vehicle_type_id":"4","last_reported":1704139651,"current_range_meters":26800,"station_id":"ce4bgpp2rcd13ifvqc3g","pricing_plan_id":"free"},{"bike_id":"d87be16b-7b3c-476f-a204-5e153e806fd1","system_id":"levelo_inurba_marseille","lat":43.311667,"lon":5.387089,"is_reserved":false,"is_disabled":false,"rental_uris":{"android":"levelo://app?vid=d87be16b-7b3c-476f-a204-5e153e806fd1","ios":"levelo://app?vid=d87be16b-7b3c-476f-a204-5e153e806fd1"},"vehicle_type_id":"4","last_reported":1704139651,"current_range_meters":30000,"station_id":"ce4bgv12rcd13ifvqcp0","pricing_plan_id":"free"},{"bike_id":"3406ac08-144e-419c-8a8c-9c89910b5b78","system_id":"levelo_inurba_marseille","lat":43.327782,"lon":5.366877,"is_reserved":false,"is_disabled":false,"rental_uris":{"android":"levelo://app?vid=3406ac08-144e-419c-8a8c-9c89910b5b78","ios":"levelo://app?vid=3406ac08-144e-419c-8a8c-9c89910b5b78"},"vehicle_type_id":"4","last_reported":1704139651,"current_range_meters":23600,"station_id":"","pricing_plan_id":"free"},{"bike_id":"6a211462-17f8-48fc-bfdc-4215d62d93f6","system_id":"levelo_inurba_marseille","lat":43.297794,"lon":5.370888,"is_reserved":false,"is_disabled":false,"rental_uris":{"android":"levelo://app?vid=6a211462-17f8-48fc-bfdc-4215d62d93f6","ios":"levelo://app?vid=6a211462-17f8-48fc-bfdc-4215d62d93f6"},"vehicle_type_id":"4","last_reported":1704139651,"current_range_meters":26400,"station_id":"ce4bgop2rcd13ifvqc1g","pricing_plan_id":"free"},{"bike_id":"3c9bf24c-b538-4eae-99f5-9903fe75c815","system_id":"levelo_inurba_marseille","lat":43.32285,"lon":5.38255,"is_reserved":false,"is_disabled":false,"rental_uris":{"android":"levelo://app?vid=3c9bf24c-b538-4eae-99f5-9903fe75c815","ios":"levelo://app?vid=3c9bf24c-b538-4eae-99f5-9903fe75c815"},"vehicle_type_id":"4","last_reported":1704139651,"current_range_meters":6400,"station_id":"ce4bhr12rcd13ifvqhqg","pricing_plan_id":"free"},{"bike_id":"ea7074d7-b7c9-4941-82c2-dff391bae9cb","system_id":"levelo_inurba_marseille","lat":43.327991,"lon":5.366844,"is_reserved":false,"is_disabled":false,"rental_uris":{"android":"levelo://app?vid=ea7074d7-b7c9-4941-82c2-dff391bae9cb","ios":"levelo://app?vid=ea7074d7-b7c9-4941-82c2-dff391bae9cb"},"vehicle_type_id":"4","last_reported":1704139651,"current_range_meters":21600,"station_id":"ce4bhs92rcd13ifvqi0g","pricing_plan_id":"free"},{"bike_id":"881fe0ac-4a87-4653-9c80-a83989c2ce03","system_id":"levelo_inurba_marseille","lat":43.297558,"lon":5.364115,"is_reserved":false,"is_disabled":false,"rental_uris":{"android":"levelo://app?vid=881fe0ac-4a87-4653-9c80-a83989c2ce03","ios":"levelo://app?vid=881fe0ac-4a87-4653-9c80-a83989c2ce03"},"vehicle_type_id":"4","last_reported":1704139651,"current_range_meters":27200,"station_id":"ce4bgpp2rcd13ifvqc3g","pricing_plan_id":"free"},{"bike_id":"777e7b6f-5840-4b9c-afcf-288933a9c0d9","system_id":"levelo_inurba_marseille","lat":43.328371,"lon":5.366909,"is_reserved":false,"is_disabled":false,"rental_uris":{"android":"levelo://app?vid=777e7b6f-5840-4b9c-afcf-288933a9c0d9","ios":"levelo://app?vid=777e7b6f-5840-4b9c-afcf-288933a9c0d9"},"vehicle_type_id":"4","last_reported":1704139651,"current_range_meters":23200,"station_id":"ce4bhs92rcd13ifvqi0g","pricing_plan_id":"free"},{"bike_id":"8233d320-3015-483d-9317-9f5ea8045c87","system_id":"levelo_inurba_marseille","lat":43.3283,"lon":5.36692,"is_reserved":false,"is_disabled":false,"rental_uris":{"android":"levelo://app?vid=8233d320-3015-483d-9317-9f5ea8045c87","ios":"levelo://app?vid=8233d320-3015-483d-9317-9f5ea8045c87"},"vehicle_type_id":"4","last_reported":1704139651,"current_range_meters":5600,"station_id":"","pricing_plan_id":"free"},{"bike_id":"1b2d1de0-55de-4a36-95aa-2ebcd4db77b3","system_id":"levelo_inurba_marseille","lat":43.297163,"lon":5.365866,"is_reserved":false,"is_disabled":false,"rental_uris":{"android":"levelo://app?vid=1b2d1de0-55de-4a36-95aa-2ebcd4db77b3","ios":"levelo://app?vid=1b2d1de0-55de-4a36-95aa-2ebcd4db77b3"},"vehicle_type_id":"4","last_reported":1704139651,"current_range_meters":27200,"station_id":"ce4bgn12rcd13ifvqbt0","pricing_plan_id":"free"},{"bike_id":"370cccf7-c9ba-46c2-819b-c8e8cacc4c21","system_id":"levelo_inurba_marseille","lat":43.3277,"lon":5.37458,"is_reserved":false,"is_disabled":false,"rental_uris":{"android":"levelo://app?vid=370cccf7-c9ba-46c2-819b-c8e8cacc4c21","ios":"levelo://app?vid=370cccf7-c9ba-46c2-819b-c8e8cacc4c21"},"vehicle_type_id":"4","last_reported":1704139651,"current_range_meters":11600,"station_id":"","pricing_plan_id":"free"},{"bike_id":"80f556df-34ed-449a-9fcd-236dd8dc9003","system_id":"levelo_inurba_marseille","lat":43.2968,"lon":5.37291,"is_reserved":false,"is_disabled":false,"rental_uris":{"android":"levelo://app?vid=80f556df-34ed-449a-9fcd-236dd8dc9003","ios":"levelo://app?vid=80f556df-34ed-449a-9fcd-236dd8dc9003"},"vehicle_type_id":"4","last_reported":1704139651,"current_range_meters":30400,"station_id":"ce4bgk12rcd13ifvqbj0","pricing_plan_id":"free"},{"bike_id":"b8c2e6b2-afdf-484e-9fc4-357b6e171958","system_id":"levelo_inurba_marseille","lat":43.29601,"lon":5.36781,"is_reserved":false,"is_disabled":false,"rental_uris":{"android":"levelo://app?vid=b8c2e6b2-afdf-484e-9fc4-357b6e171958","ios":"levelo://app?vid=b8c2e6b2-afdf-484e-9fc4-357b6e171958"},"vehicle_type_id":"4","last_reported":1704139651,"current_range_meters":14800,"station_id":"ce4bgph2rcd13ifvqc2g","pricing_plan_id":"free"},{"bike_id":"bf16287c-13c4-48cc-a985-25660dfb6587","system_id":"levelo_inurba_marseille","lat":43.296129,"lon":5.370777,"is_reserved":false,"is_disabled":false,"rental_uris":{"android":"levelo://app?vid=bf16287c-13c4-48cc-a985-25660dfb6587","ios":"levelo://app?vid=bf16287c-13c4-48cc-a985-25660dfb6587"},"vehicle_type_id":"4","last_reported":1704139651,"current_range_meters":22800,"station_id":"ce4bgnh2rcd13ifvqc0g","pricing_plan_id":"free"},{"bike_id":"f2651f10-1ed7-4047-8635-5b1841c1e8a1","system_id":"levelo_inurba_marseille","lat":43.296131,"lon":5.370791,"is_reserved":false,"is_disabled":false,"rental_uris":{"android":"levelo://app?vid=f2651f10-1ed7-4047-8635-5b1841c1e8a1","ios":"levelo://app?vid=f2651f10-1ed7-4047-8635-5b1841c1e8a1"},"vehicle_type_id":"4","last_reported":1704139651,"current_range_meters":31200,"station_id":"ce4bgnh2rcd13ifvqc0g","pricing_plan_id":"free"},{"bike_id":"bedaa781-52d8-45a3-89eb-e3a54fa02b46","system_id":"levelo_inurba_marseille","lat":43.296131,"lon":5.370791,"is_reserved":false,"is_disabled":false,"rental_uris":{"android":"levelo://app?vid=bedaa781-52d8-45a3-89eb-e3a54fa02b46","ios":"levelo://app?vid=bedaa781-52d8-45a3-89eb-e3a54fa02b46"},"vehicle_type_id":"4","last_reported":1704139651,"current_range_meters":26400,"station_id":"ce4bgnh2rcd13ifvqc0g","pricing_plan_id":"free"},{"bike_id":"76c38e5c-6eb0-4862-a294-1007b4937961","system_id":"levelo_inurba_marseille","lat":43.296129,"lon":5.370777,"is_reserved":false,"is_disabled":false,"rental_uris":{"android":"levelo://app?vid=76c38e5c-6eb0-4862-a294-1007b4937961","ios":"levelo://app?vid=76c38e5c-6eb0-4862-a294-1007b4937961"},"vehicle_type_id":"4","last_reported":1704139651,"current_range_meters":30800,"station_id":"ce4bgnh2rcd13ifvqc0g","pricing_plan_id":"free"},{"bike_id":"8dbf3277-f84b-4485-b683-d51727b6f331","system_id":"levelo_inurba_marseille","lat":43.29573,"lon":5.367355,"is_reserved":false,"is_disabled":false,"rental_uris":{"android":"levelo://app?vid=8dbf3277-f84b-4485-b683-d51727b6f331","ios":"levelo://app?vid=8dbf3277-f84b-4485-b683-d51727b6f331"},"vehicle_type_id":"4","last_reported":1704139651,"current_range_meters":20000,"station_id":"ce4bgph2rcd13ifvqc2g","pricing_plan_id":"free"},{"bike_id":"8562c70f-5fb8-4caa-bb62-c506e55d61cf","system_id":"levelo_inurba_marseille","lat":43.29573,"lon":5.367355,"is_reserved":false,"is_disabled":false,"rental_uris":{"android":"levelo://app?vid=8562c70f-5fb8-4caa-bb62-c506e55d61cf","ios":"levelo://app?vid=8562c70f-5fb8-4caa-bb62-c506e55d61cf"},"vehicle_type_id":"4","last_reported":1704139651,"current_range_meters":7600,"station_id":"ce4bgph2rcd13ifvqc2g","pricing_plan_id":"free"},{"bike_id":"f8dd7761-e74f-4828-a760-263262c1c731","system_id":"levelo_inurba_marseille","lat":43.299028,"lon":5.381509,"is_reserved":false,"is_disabled":false,"rental_uris":{"android":"levelo://app?vid=f8dd7761-e74f-4828-a760-263262c1c731","ios":"levelo://app?vid=f8dd7761-e74f-4828-a760-263262c1c731"},"vehicle_type_id":"4","last_reported":1704139651,"current_range_meters":29600,"station_id":"ce4bgj12rcd13ifvqbc0","pricing_plan_id":"free"},{"bike_id":"441ec655-32b0-43c5-9506-0e7c84847647","system_id":"levelo_inurba_marseille","lat":43.299028,"lon":5.381509,"is_reserved":false,"is_disabled":false,"rental_uris":{"android":"levelo://app?vid=441ec655-32b0-43c5-9506-0e7c84847647","ios":"levelo://app?vid=441ec655-32b0-43c5-9506-0e7c84847647"},"vehicle_type_id":"4","last_reported":1704139651,"current_range_meters":28800,"station_id":"ce4bgj12rcd13ifvqbc0","pricing_plan_id":"free"},{"bike_id":"adfcfe6a-5336-47fb-a4ec-59df68986d91","system_id":"levelo_inurba_marseille","lat":43.299028,"lon":5.381509,"is_reserved":false,"is_disabled":false,"rental_uris":{"android":"levelo://app?vid=adfcfe6a-5336-47fb-a4ec-59df68986d91","ios":"levelo://app?vid=adfcfe6a-5336-47fb-a4ec-59df68986d91"},"vehicle_type_id":"4","last_reported":1704139651,"current_range_meters":27600,"station_id":"ce4bgj12rcd13ifvqbc0","pricing_plan_id":"free"},{"bike_id":"272aa343-0b25-4ccb-858d-7226e9e31c85","system_id":"levelo_inurba_marseille","lat":43.309589,"lon":5.390258,"is_reserved":false,"is_disabled":false,"rental_uris":{"android":"levelo://app?vid=272aa343-0b25-4ccb-858d-7226e9e31c85","ios":"levelo://app?vid=272aa343-0b25-4ccb-858d-7226e9e31c85"},"vehicle_type_id":"4","last_reported":1704139651,"current_range_meters":20800,"station_id":"ce4bgup2rcd13ifvqco0","pricing_plan_id":"free"},{"bike_id":"0ff7e19c-7e28-4102-baf3-4193d26c5e27","system_id":"levelo_inurba_marseille","lat":43.317557,"lon":5.390173,"is_reserved":false,"is_disabled":false,"rental_uris":{"android":"levelo://app?vid=0ff7e19c-7e28-4102-baf3-4193d26c5e27","ios":"levelo://app?vid=0ff7e19c-7e28-4102-baf3-4193d26c5e27"},"vehicle_type_id":"4","last_reported":1704139651,"current_range_meters":22800,"station_id":"ce4bhqp2rcd13ifvqhng","pricing_plan_id":"free"},{"bike_id":"899ab248-1d83-4356-8870-4afb21b0090a","system_id":"levelo_inurba_marseille","lat":43.304274,"lon":5.388873,"is_reserved":false,"is_disabled":false,"rental_uris":{"android":"levelo://app?vid=899ab248-1d83-4356-8870-4afb21b0090a","ios":"levelo://app?vid=899ab248-1d83-4356-8870-4afb21b0090a"},"vehicle_type_id":"4","last_reported":1704139651,"current_range_meters":24800,"station_id":"ce4bgk12rcd13ifvqbi0","pricing_plan_id":"free"},{"bike_id":"2a585470-5536-4919-b67b-89941882960c","system_id":"levelo_inurba_marseille","lat":43.295748,"lon":5.37522,"is_reserved":false,"is_disabled":false,"rental_uris":{"android":"levelo://app?vid=2a585470-5536-4919-b67b-89941882960c","ios":"levelo://app?vid=2a585470-5536-4919-b67b-89941882960c"},"vehicle_type_id":"4","last_reported":1704139651,"current_range_meters":11600,"station_id":"ce4bgh92rcd13ifvqb50","pricing_plan_id":"free"},{"bike_id":"7825a7a6-65a0-428a-b391-0eaa79924b5c","system_id":"levelo_inurba_marseille","lat":43.295748,"lon":5.37522,"is_reserved":false,"is_disabled":false,"rental_uris":{"android":"levelo://app?vid=7825a7a6-65a0-428a-b391-0eaa79924b5c","ios":"levelo://app?vid=7825a7a6-65a0-428a-b391-0eaa79924b5c"},"vehicle_type_id":"4","last_reported":1704139651,"current_range_meters":8400,"station_id":"ce4bgh92rcd13ifvqb50","pricing_plan_id":"free"},{"bike_id":"d60802d6-4f47-444a-b234-883690eec05b","system_id":"levelo_inurba_marseille","lat":43.33062,"lon":5.3627,"is_reserved":false,"is_disabled":false,"rental_uris":{"android":"levelo://app?vid=d60802d6-4f47-444a-b234-883690eec05b","ios":"levelo://app?vid=d60802d6-4f47-444a-b234-883690eec05b"},"vehicle_type_id":"4","last_reported":1704139651,"current_range_meters":18400,"station_id":"","pricing_plan_id":"free"},{"bike_id":"595edfd0-d82a-40e0-8545-ebc699e19d76","system_id":"levelo_inurba_marseille","lat":43.296263,"lon":5.377094,"is_reserved":false,"is_disabled":false,"rental_uris":{"android":"levelo://app?vid=595edfd0-d82a-40e0-8545-ebc699e19d76","ios":"levelo://app?vid=595edfd0-d82a-40e0-8545-ebc699e19d76"},"vehicle_type_id":"4","last_reported":1704139651,"current_range_meters":26800,"station_id":"ce4bgi92rcd13ifvqb90","pricing_plan_id":"free"},{"bike_id":"dec66e86-45b4-4aa2-9be3-152564f997b6","system_id":"levelo_inurba_marseille","lat":43.290631,"lon":5.359244,"is_reserved":false,"is_disabled":false,"rental_uris":{"android":"levelo://app?vid=dec66e86-45b4-4aa2-9be3-152564f997b6","ios":"levelo://app?vid=dec66e86-45b4-4aa2-9be3-152564f997b6"},"vehicle_type_id":"4","last_reported":1704139651,"current_range_meters":20800,"station_id":"ce4bha92rcd13ifvqeg0","pricing_plan_id":"free"},{"bike_id":"7119845d-00aa-4d9f-be8c-fc97d41f1380","system_id":"levelo_inurba_marseille","lat":43.297594,"lon":5.381134,"is_reserved":false,"is_disabled":false,"rental_uris":{"android":"levelo://app?vid=7119845d-00aa-4d9f-be8c-fc97d41f1380","ios":"levelo://app?vid=7119845d-00aa-4d9f-be8c-fc97d41f1380"},"vehicle_type_id":"4","last_reported":1704139651,"current_range_meters":6800,"station_id":"ce4bgip2rcd13ifvqbb0","pricing_plan_id":"free"},{"bike_id":"bff445cd-b242-498d-940a-e6f09b5b3116","system_id":"levelo_inurba_marseille","lat":43.295279,"lon":5.375048,"is_reserved":false,"is_disabled":false,"rental_uris":{"android":"levelo://app?vid=bff445cd-b242-498d-940a-e6f09b5b3116","ios":"levelo://app?vid=bff445cd-b242-498d-940a-e6f09b5b3116"},"vehicle_type_id":"4","last_reported":1704139651,"current_range_meters":0,"station_id":"ce4bgkp2rcd13ifvqbmg","pricing_plan_id":"free"},{"bike_id":"48ac435e-63ff-486a-9aa0-deee403fc939","system_id":"levelo_inurba_marseille","lat":43.299724,"lon":5.384848,"is_reserved":false,"is_disabled":false,"rental_uris":{"android":"levelo://app?vid=48ac435e-63ff-486a-9aa0-deee403fc939","ios":"levelo://app?vid=48ac435e-63ff-486a-9aa0-deee403fc939"},"vehicle_type_id":"4","last_reported":1704139651,"current_range_meters":19200,"station_id":"ce4bgj92rcd13ifvqbd0","pricing_plan_id":"free"},{"bike_id":"d1ae36cc-3d77-4823-bbea-3ec1cd29b40d","system_id":"levelo_inurba_marseille","lat":43.32367,"lon":5.388836,"is_reserved":false,"is_disabled":false,"rental_uris":{"android":"levelo://app?vid=d1ae36cc-3d77-4823-bbea-3ec1cd29b40d","ios":"levelo://app?vid=d1ae36cc-3d77-4823-bbea-3ec1cd29b40d"},"vehicle_type_id":"4","last_reported":1704139651,"current_range_meters":23600,"station_id":"ce4bhqp2rcd13ifvqhog","pricing_plan_id":"free"},{"bike_id":"1cc17439-80f1-4ead-a46e-452996c992e9","system_id":"levelo_inurba_marseille","lat":43.292749,"lon":5.368402,"is_reserved":false,"is_disabled":false,"rental_uris":{"android":"levelo://app?vid=1cc17439-80f1-4ead-a46e-452996c992e9","ios":"levelo://app?vid=1cc17439-80f1-4ead-a46e-452996c992e9"},"vehicle_type_id":"4","last_reported":1704139651,"current_range_meters":19600,"station_id":"ce4bhbp2rcd13ifvqesg","pricing_plan_id":"free"},{"bike_id":"2f93b2c9-de85-42f5-9ce0-4a7d62a07a85","system_id":"levelo_inurba_marseille","lat":43.292749,"lon":5.368402,"is_reserved":false,"is_disabled":false,"rental_uris":{"android":"levelo://app?vid=2f93b2c9-de85-42f5-9ce0-4a7d62a07a85","ios":"levelo://app?vid=2f93b2c9-de85-42f5-9ce0-4a7d62a07a85"},"vehicle_type_id":"4","last_reported":1704139651,"current_range_meters":0,"station_id":"ce4bhbp2rcd13ifvqesg","pricing_plan_id":"free"},{"bike_id":"327a768b-0bea-4a39-a1d1-f79905ad64da","system_id":"levelo_inurba_marseille","lat":43.282744,"lon":5.350533,"is_reserved":false,"is_disabled":false,"rental_uris":{"android":"levelo://app?vid=327a768b-0bea-4a39-a1d1-f79905ad64da","ios":"levelo://app?vid=327a768b-0bea-4a39-a1d1-f79905ad64da"},"vehicle_type_id":"4","last_reported":1704139651,"current_range_meters":23600,"station_id":"ce4bhbp2rcd13ifvqerg","pricing_plan_id":"free"},{"bike_id":"75745ab0-49a6-4671-ad3a-dca1abc13e6e","system_id":"levelo_inurba_marseille","lat":43.29274,"lon":5.36843,"is_reserved":false,"is_disabled":false,"rental_uris":{"android":"levelo://app?vid=75745ab0-49a6-4671-ad3a-dca1abc13e6e","ios":"levelo://app?vid=75745ab0-49a6-4671-ad3a-dca1abc13e6e"},"vehicle_type_id":"4","last_reported":1704139651,"current_range_meters":19600,"station_id":"ce4bhbp2rcd13ifvqesg","pricing_plan_id":"free"},{"bike_id":"c09cd1d2-2138-4dfe-859d-e20065b98a48","system_id":"levelo_inurba_marseille","lat":43.2936,"lon":5.37835,"is_reserved":false,"is_disabled":false,"rental_uris":{"android":"levelo://app?vid=c09cd1d2-2138-4dfe-859d-e20065b98a48","ios":"levelo://app?vid=c09cd1d2-2138-4dfe-859d-e20065b98a48"},"vehicle_type_id":"4","last_reported":1704139651,"current_range_meters":28000,"station_id":"ce4bgjh2rcd13ifvqbf0","pricing_plan_id":"free"},{"bike_id":"5edc9593-f38a-4f75-8459-71d65756d985","system_id":"levelo_inurba_marseille","lat":43.2936,"lon":5.37835,"is_reserved":false,"is_disabled":false,"rental_uris":{"android":"levelo://app?vid=5edc9593-f38a-4f75-8459-71d65756d985","ios":"levelo://app?vid=5edc9593-f38a-4f75-8459-71d65756d985"},"vehicle_type_id":"4","last_reported":1704139651,"current_range_meters":30800,"station_id":"ce4bgjh2rcd13ifvqbf0","pricing_plan_id":"free"},{"bike_id":"e554ea8c-f36d-4155-9216-cc740ca01f7a","system_id":"levelo_inurba_marseille","lat":43.292311,"lon":5.360731,"is_reserved":false,"is_disabled":false,"rental_uris":{"android":"levelo://app?vid=e554ea8c-f36d-4155-9216-cc740ca01f7a","ios":"levelo://app?vid=e554ea8c-f36d-4155-9216-cc740ca01f7a"},"vehicle_type_id":"4","last_reported":1704139651,"current_range_meters":18400,"station_id":"ce4bhbh2rcd13ifvqeqg","pricing_plan_id":"free"},{"bike_id":"d523e1f9-fa50-4802-a55c-e92e5309b8e3","system_id":"levelo_inurba_marseille","lat":43.30085,"lon":5.390856,"is_reserved":false,"is_disabled":false,"rental_uris":{"android":"levelo://app?vid=d523e1f9-fa50-4802-a55c-e92e5309b8e3","ios":"levelo://app?vid=d523e1f9-fa50-4802-a55c-e92e5309b8e3"},"vehicle_type_id":"4","last_reported":1704139651,"current_range_meters":26400,"station_id":"ce4bh192rcd13ifvqdb0","pricing_plan_id":"free"},{"bike_id":"453c26e7-1304-498d-9fbc-6cb9b1e286e8","system_id":"levelo_inurba_marseille","lat":43.300981,"lon":5.390822,"is_reserved":false,"is_disabled":false,"rental_uris":{"android":"levelo://app?vid=453c26e7-1304-498d-9fbc-6cb9b1e286e8","ios":"levelo://app?vid=453c26e7-1304-498d-9fbc-6cb9b1e286e8"},"vehicle_type_id":"4","last_reported":1704139651,"current_range_meters":23200,"station_id":"","pricing_plan_id":"free"},{"bike_id":"62b7d120-9258-4e02-a680-58654898b747","system_id":"levelo_inurba_marseille","lat":43.291671,"lon":5.371575,"is_reserved":false,"is_disabled":false,"rental_uris":{"android":"levelo://app?vid=62b7d120-9258-4e02-a680-58654898b747","ios":"levelo://app?vid=62b7d120-9258-4e02-a680-58654898b747"},"vehicle_type_id":"4","last_reported":1704139651,"current_range_meters":0,"station_id":"ce4bha92rcd13ifvqeh0","pricing_plan_id":"free"},{"bike_id":"0a4ad3d3-b80d-4e50-acde-d5d369eb17da","system_id":"levelo_inurba_marseille","lat":43.291994,"lon":5.357886,"is_reserved":false,"is_disabled":false,"rental_uris":{"android":"levelo://app?vid=0a4ad3d3-b80d-4e50-acde-d5d369eb17da","ios":"levelo://app?vid=0a4ad3d3-b80d-4e50-acde-d5d369eb17da"},"vehicle_type_id":"4","last_reported":1704139651,"current_range_meters":4800,"station_id":"ce4bhb12rcd13ifvqel0","pricing_plan_id":"free"},{"bike_id":"668942d6-33c2-433a-a4c3-8da233302454","system_id":"levelo_inurba_marseille","lat":43.313291,"lon":5.396838,"is_reserved":false,"is_disabled":false,"rental_uris":{"android":"levelo://app?vid=668942d6-33c2-433a-a4c3-8da233302454","ios":"levelo://app?vid=668942d6-33c2-433a-a4c3-8da233302454"},"vehicle_type_id":"4","last_reported":1704139651,"current_range_meters":30000,"station_id":"ce4bgvp2rcd13ifvqcu0","pricing_plan_id":"free"},{"bike_id":"be8f8d06-2cf9-49dd-9fbf-a20aa1f80808","system_id":"levelo_inurba_marseille","lat":43.313291,"lon":5.396838,"is_reserved":false,"is_disabled":false,"rental_uris":{"android":"levelo://app?vid=be8f8d06-2cf9-49dd-9fbf-a20aa1f80808","ios":"levelo://app?vid=be8f8d06-2cf9-49dd-9fbf-a20aa1f80808"},"vehicle_type_id":"4","last_reported":1704139651,"current_range_meters":22800,"station_id":"ce4bgvp2rcd13ifvqcu0","pricing_plan_id":"free"},{"bike_id":"48a1cb65-8e46-4608-83a7-ec144ecde95b","system_id":"levelo_inurba_marseille","lat":43.29537,"lon":5.38535,"is_reserved":false,"is_disabled":false,"rental_uris":{"android":"levelo://app?vid=48a1cb65-8e46-4608-83a7-ec144ecde95b","ios":"levelo://app?vid=48a1cb65-8e46-4608-83a7-ec144ecde95b"},"vehicle_type_id":"4","last_reported":1704139651,"current_range_meters":24400,"station_id":"ce4bgih2rcd13ifvqba0","pricing_plan_id":"free"},{"bike_id":"0bd35226-c42e-467d-b54f-f29309bfece1","system_id":"levelo_inurba_marseille","lat":43.29529,"lon":5.385581,"is_reserved":false,"is_disabled":false,"rental_uris":{"android":"levelo://app?vid=0bd35226-c42e-467d-b54f-f29309bfece1","ios":"levelo://app?vid=0bd35226-c42e-467d-b54f-f29309bfece1"},"vehicle_type_id":"4","last_reported":1704139651,"current_range_meters":22400,"station_id":"ce4bgih2rcd13ifvqba0","pricing_plan_id":"free"},{"bike_id":"2bb3acb9-bedd-4441-8b19-458215b4bd3d","system_id":"levelo_inurba_marseille","lat":43.290631,"lon":5.359244,"is_reserved":false,"is_disabled":false,"rental_uris":{"android":"levelo://app?vid=2bb3acb9-bedd-4441-8b19-458215b4bd3d","ios":"levelo://app?vid=2bb3acb9-bedd-4441-8b19-458215b4bd3d"},"vehicle_type_id":"4","last_reported":1704139651,"current_range_meters":27600,"station_id":"ce4bha92rcd13ifvqeg0","pricing_plan_id":"free"},{"bike_id":"e3d1dd37-a847-4837-b2e3-6c12642055b0","system_id":"levelo_inurba_marseille","lat":43.290631,"lon":5.359244,"is_reserved":false,"is_disabled":false,"rental_uris":{"android":"levelo://app?vid=e3d1dd37-a847-4837-b2e3-6c12642055b0","ios":"levelo://app?vid=e3d1dd37-a847-4837-b2e3-6c12642055b0"},"vehicle_type_id":"4","last_reported":1704139651,"current_range_meters":24400,"station_id":"ce4bha92rcd13ifvqeg0","pricing_plan_id":"free"},{"bike_id":"f48734ed-a725-4faf-ac9d-28625e44ef11","system_id":"levelo_inurba_marseille","lat":43.294153,"lon":5.386305,"is_reserved":false,"is_disabled":false,"rental_uris":{"android":"levelo://app?vid=f48734ed-a725-4faf-ac9d-28625e44ef11","ios":"levelo://app?vid=f48734ed-a725-4faf-ac9d-28625e44ef11"},"vehicle_type_id":"4","last_reported":1704139651,"current_range_meters":24400,"station_id":"ce4bh2h2rcd13ifvqdh0","pricing_plan_id":"free"},{"bike_id":"0cbed92e-4b45-414e-a860-acf2d6bc0bf5","system_id":"levelo_inurba_marseille","lat":43.290327,"lon":5.375711,"is_reserved":false,"is_disabled":false,"rental_uris":{"android":"levelo://app?vid=0cbed92e-4b45-414e-a860-acf2d6bc0bf5","ios":"levelo://app?vid=0cbed92e-4b45-414e-a860-acf2d6bc0bf5"},"vehicle_type_id":"4","last_reported":1704139651,"current_range_meters":14400,"station_id":"ce4bh692rcd13ifvqe90","pricing_plan_id":"free"},{"bike_id":"7c8d537b-4242-496a-9241-d13422ab0ff1","system_id":"levelo_inurba_marseille","lat":43.290327,"lon":5.375711,"is_reserved":false,"is_disabled":false,"rental_uris":{"android":"levelo://app?vid=7c8d537b-4242-496a-9241-d13422ab0ff1","ios":"levelo://app?vid=7c8d537b-4242-496a-9241-d13422ab0ff1"},"vehicle_type_id":"4","last_reported":1704139651,"current_range_meters":18400,"station_id":"ce4bh692rcd13ifvqe90","pricing_plan_id":"free"},{"bike_id":"3747019d-ea3e-4d8a-b2d1-7696625ee78c","system_id":"levelo_inurba_marseille","lat":43.290327,"lon":5.375711,"is_reserved":false,"is_disabled":false,"rental_uris":{"android":"levelo://app?vid=3747019d-ea3e-4d8a-b2d1-7696625ee78c","ios":"levelo://app?vid=3747019d-ea3e-4d8a-b2d1-7696625ee78c"},"vehicle_type_id":"4","last_reported":1704139651,"current_range_meters":2800,"station_id":"ce4bh692rcd13ifvqe90","pricing_plan_id":"free"},{"bike_id":"402d468c-4be4-48b9-bd00-529c772c33a7","system_id":"levelo_inurba_marseille","lat":43.294153,"lon":5.386305,"is_reserved":false,"is_disabled":false,"rental_uris":{"android":"levelo://app?vid=402d468c-4be4-48b9-bd00-529c772c33a7","ios":"levelo://app?vid=402d468c-4be4-48b9-bd00-529c772c33a7"},"vehicle_type_id":"4","last_reported":1704139651,"current_range_meters":24800,"station_id":"ce4bh2h2rcd13ifvqdh0","pricing_plan_id":"free"},{"bike_id":"6e13f63e-5d26-405f-820a-6f3091a32132","system_id":"levelo_inurba_marseille","lat":43.290327,"lon":5.375711,"is_reserved":false,"is_disabled":false,"rental_uris":{"android":"levelo://app?vid=6e13f63e-5d26-405f-820a-6f3091a32132","ios":"levelo://app?vid=6e13f63e-5d26-405f-820a-6f3091a32132"},"vehicle_type_id":"4","last_reported":1704139651,"current_range_meters":21600,"station_id":"ce4bh692rcd13ifvqe90","pricing_plan_id":"free"},{"bike_id":"58afa050-3472-4e60-b313-955a6a8ab7f0","system_id":"levelo_inurba_marseille","lat":43.289184,"lon":5.366408,"is_reserved":false,"is_disabled":false,"rental_uris":{"android":"levelo://app?vid=58afa050-3472-4e60-b313-955a6a8ab7f0","ios":"levelo://app?vid=58afa050-3472-4e60-b313-955a6a8ab7f0"},"vehicle_type_id":"4","last_reported":1704139651,"current_range_meters":22000,"station_id":"ce4bhap2rcd13ifvqek0","pricing_plan_id":"free"},{"bike_id":"9ef5a195-e0d1-4224-9582-be4d5fe33d0d","system_id":"levelo_inurba_marseille","lat":43.289468,"lon":5.363719,"is_reserved":false,"is_disabled":false,"rental_uris":{"android":"levelo://app?vid=9ef5a195-e0d1-4224-9582-be4d5fe33d0d","ios":"levelo://app?vid=9ef5a195-e0d1-4224-9582-be4d5fe33d0d"},"vehicle_type_id":"4","last_reported":1704139651,"current_range_meters":29600,"station_id":"ce4bhc92rcd13ifvqetg","pricing_plan_id":"free"},{"bike_id":"d73a9f0c-0bca-45b5-9382-179a726b299d","system_id":"levelo_inurba_marseille","lat":43.292644,"lon":5.384257,"is_reserved":false,"is_disabled":false,"rental_uris":{"android":"levelo://app?vid=d73a9f0c-0bca-45b5-9382-179a726b299d","ios":"levelo://app?vid=d73a9f0c-0bca-45b5-9382-179a726b299d"},"vehicle_type_id":"4","last_reported":1704139651,"current_range_meters":31200,"station_id":"ce4bh692rcd13ifvqea0","pricing_plan_id":"free"},{"bike_id":"f9fb56d1-1d7f-4144-ae6d-557151c57e3e","system_id":"levelo_inurba_marseille","lat":43.292642,"lon":5.384254,"is_reserved":false,"is_disabled":false,"rental_uris":{"android":"levelo://app?vid=f9fb56d1-1d7f-4144-ae6d-557151c57e3e","ios":"levelo://app?vid=f9fb56d1-1d7f-4144-ae6d-557151c57e3e"},"vehicle_type_id":"4","last_reported":1704139651,"current_range_meters":28800,"station_id":"ce4bh692rcd13ifvqea0","pricing_plan_id":"free"},{"bike_id":"1f0b2fc2-705d-45f1-95b7-d12b63c3724a","system_id":"levelo_inurba_marseille","lat":43.292644,"lon":5.384257,"is_reserved":false,"is_disabled":false,"rental_uris":{"android":"levelo://app?vid=1f0b2fc2-705d-45f1-95b7-d12b63c3724a","ios":"levelo://app?vid=1f0b2fc2-705d-45f1-95b7-d12b63c3724a"},"vehicle_type_id":"4","last_reported":1704139651,"current_range_meters":22400,"station_id":"ce4bh692rcd13ifvqea0","pricing_plan_id":"free"},{"bike_id":"ab8cf4a0-1b94-4680-9a22-47e1d5774c48","system_id":"levelo_inurba_marseille","lat":43.292642,"lon":5.384254,"is_reserved":false,"is_disabled":false,"rental_uris":{"android":"levelo://app?vid=ab8cf4a0-1b94-4680-9a22-47e1d5774c48","ios":"levelo://app?vid=ab8cf4a0-1b94-4680-9a22-47e1d5774c48"},"vehicle_type_id":"4","last_reported":1704139651,"current_range_meters":11200,"station_id":"ce4bh692rcd13ifvqea0","pricing_plan_id":"free"},{"bike_id":"0646dc1a-f962-4f4b-a128-e45c753669f8","system_id":"levelo_inurba_marseille","lat":43.294153,"lon":5.386305,"is_reserved":false,"is_disabled":false,"rental_uris":{"android":"levelo://app?vid=0646dc1a-f962-4f4b-a128-e45c753669f8","ios":"levelo://app?vid=0646dc1a-f962-4f4b-a128-e45c753669f8"},"vehicle_type_id":"4","last_reported":1704139651,"current_range_meters":18800,"station_id":"ce4bh2h2rcd13ifvqdh0","pricing_plan_id":"free"},{"bike_id":"891e99cc-b383-415e-b204-6dddbcb897ea","system_id":"levelo_inurba_marseille","lat":43.290827,"lon":5.381421,"is_reserved":false,"is_disabled":false,"rental_uris":{"android":"levelo://app?vid=891e99cc-b383-415e-b204-6dddbcb897ea","ios":"levelo://app?vid=891e99cc-b383-415e-b204-6dddbcb897ea"},"vehicle_type_id":"4","last_reported":1704139651,"current_range_meters":20400,"station_id":"","pricing_plan_id":"free"},{"bike_id":"7d3f0707-26fc-41d0-8f63-88674e57e19c","system_id":"levelo_inurba_marseille","lat":43.33019,"lon":5.39031,"is_reserved":false,"is_disabled":false,"rental_uris":{"android":"levelo://app?vid=7d3f0707-26fc-41d0-8f63-88674e57e19c","ios":"levelo://app?vid=7d3f0707-26fc-41d0-8f63-88674e57e19c"},"vehicle_type_id":"4","last_reported":1704139651,"current_range_meters":10400,"station_id":"","pricing_plan_id":"free"},{"bike_id":"13d41c86-d361-4b17-ae49-6b5491dd4e85","system_id":"levelo_inurba_marseille","lat":43.330442,"lon":5.389148,"is_reserved":false,"is_disabled":false,"rental_uris":{"android":"levelo://app?vid=13d41c86-d361-4b17-ae49-6b5491dd4e85","ios":"levelo://app?vid=13d41c86-d361-4b17-ae49-6b5491dd4e85"},"vehicle_type_id":"4","last_reported":1704139651,"current_range_meters":27600,"station_id":"ce4bhr92rcd13ifvqhrg","pricing_plan_id":"free"},{"bike_id":"9265b39e-1c84-4ec2-8751-005ec5bb260c","system_id":"levelo_inurba_marseille","lat":43.295169,"lon":5.390426,"is_reserved":false,"is_disabled":false,"rental_uris":{"android":"levelo://app?vid=9265b39e-1c84-4ec2-8751-005ec5bb260c","ios":"levelo://app?vid=9265b39e-1c84-4ec2-8751-005ec5bb260c"},"vehicle_type_id":"4","last_reported":1704139651,"current_range_meters":20000,"station_id":"ce4bh3p2rcd13ifvqdp0","pricing_plan_id":"free"},{"bike_id":"f311a794-46e8-4128-9ef6-a805e9fc4e48","system_id":"levelo_inurba_marseille","lat":43.29027,"lon":5.38145,"is_reserved":false,"is_disabled":false,"rental_uris":{"android":"levelo://app?vid=f311a794-46e8-4128-9ef6-a805e9fc4e48","ios":"levelo://app?vid=f311a794-46e8-4128-9ef6-a805e9fc4e48"},"vehicle_type_id":"4","last_reported":1704139651,"current_range_meters":14800,"station_id":"ce4bh4p2rcd13ifvqe1g","pricing_plan_id":"free"},{"bike_id":"6f89a8fa-356a-4c4e-b5b2-13d898a3ff2a","system_id":"levelo_inurba_marseille","lat":43.28856,"lon":5.358371,"is_reserved":false,"is_disabled":false,"rental_uris":{"android":"levelo://app?vid=6f89a8fa-356a-4c4e-b5b2-13d898a3ff2a","ios":"levelo://app?vid=6f89a8fa-356a-4c4e-b5b2-13d898a3ff2a"},"vehicle_type_id":"4","last_reported":1704139651,"current_range_meters":26800,"station_id":"ce4bhb12rcd13ifvqem0","pricing_plan_id":"free"},{"bike_id":"7ef78a3f-6ac0-4e2d-837d-9d51c2617955","system_id":"levelo_inurba_marseille","lat":43.312609,"lon":5.401662,"is_reserved":false,"is_disabled":false,"rental_uris":{"android":"levelo://app?vid=7ef78a3f-6ac0-4e2d-837d-9d51c2617955","ios":"levelo://app?vid=7ef78a3f-6ac0-4e2d-837d-9d51c2617955"},"vehicle_type_id":"4","last_reported":1704139651,"current_range_meters":22400,"station_id":"ce4bh092rcd13ifvqd30","pricing_plan_id":"free"},{"bike_id":"9a042682-2b83-4773-ad48-23fbaf2d69da","system_id":"levelo_inurba_marseille","lat":43.312609,"lon":5.401662,"is_reserved":false,"is_disabled":false,"rental_uris":{"android":"levelo://app?vid=9a042682-2b83-4773-ad48-23fbaf2d69da","ios":"levelo://app?vid=9a042682-2b83-4773-ad48-23fbaf2d69da"},"vehicle_type_id":"4","last_reported":1704139651,"current_range_meters":14000,"station_id":"ce4bh092rcd13ifvqd30","pricing_plan_id":"free"},{"bike_id":"acdd791b-b005-455d-8a15-399fdf59a552","system_id":"levelo_inurba_marseille","lat":43.337419,"lon":5.374721,"is_reserved":false,"is_disabled":false,"rental_uris":{"android":"levelo://app?vid=acdd791b-b005-455d-8a15-399fdf59a552","ios":"levelo://app?vid=acdd791b-b005-455d-8a15-399fdf59a552"},"vehicle_type_id":"4","last_reported":1704139651,"current_range_meters":5600,"station_id":"","pricing_plan_id":"free"},{"bike_id":"836fcdce-2890-48b6-ae4d-9738be601267","system_id":"levelo_inurba_marseille","lat":43.306412,"lon":5.401035,"is_reserved":false,"is_disabled":false,"rental_uris":{"android":"levelo://app?vid=836fcdce-2890-48b6-ae4d-9738be601267","ios":"levelo://app?vid=836fcdce-2890-48b6-ae4d-9738be601267"},"vehicle_type_id":"4","last_reported":1704139651,"current_range_meters":15600,"station_id":"ce4bh112rcd13ifvqda0","pricing_plan_id":"free"},{"bike_id":"9b6bea8c-a93a-4a79-b2e8-716a8a3cb079","system_id":"levelo_inurba_marseille","lat":43.309371,"lon":5.401449,"is_reserved":false,"is_disabled":false,"rental_uris":{"android":"levelo://app?vid=9b6bea8c-a93a-4a79-b2e8-716a8a3cb079","ios":"levelo://app?vid=9b6bea8c-a93a-4a79-b2e8-716a8a3cb079"},"vehicle_type_id":"4","last_reported":1704139651,"current_range_meters":9200,"station_id":"ce4bgvp2rcd13ifvqct0","pricing_plan_id":"free"},{"bike_id":"41a7d31f-1e0a-4058-8171-d9146d4a8418","system_id":"levelo_inurba_marseille","lat":43.33759,"lon":5.3746,"is_reserved":false,"is_disabled":false,"rental_uris":{"android":"levelo://app?vid=41a7d31f-1e0a-4058-8171-d9146d4a8418","ios":"levelo://app?vid=41a7d31f-1e0a-4058-8171-d9146d4a8418"},"vehicle_type_id":"4","last_reported":1704139651,"current_range_meters":27600,"station_id":"","pricing_plan_id":"free"},{"bike_id":"8624bf53-600c-43e6-b339-8a8971a49718","system_id":"levelo_inurba_marseille","lat":43.33763,"lon":5.37449,"is_reserved":false,"is_disabled":false,"rental_uris":{"android":"levelo://app?vid=8624bf53-600c-43e6-b339-8a8971a49718","ios":"levelo://app?vid=8624bf53-600c-43e6-b339-8a8971a49718"},"vehicle_type_id":"4","last_reported":1704139651,"current_range_meters":8400,"station_id":"","pricing_plan_id":"free"},{"bike_id":"b6f61fd6-309a-4f79-b64d-6c3f2f1a8e0f","system_id":"levelo_inurba_marseille","lat":43.30642,"lon":5.401031,"is_reserved":false,"is_disabled":false,"rental_uris":{"android":"levelo://app?vid=b6f61fd6-309a-4f79-b64d-6c3f2f1a8e0f","ios":"levelo://app?vid=b6f61fd6-309a-4f79-b64d-6c3f2f1a8e0f"},"vehicle_type_id":"4","last_reported":1704139651,"current_range_meters":22400,"station_id":"ce4bh112rcd13ifvqda0","pricing_plan_id":"free"},{"bike_id":"f34aee7b-7013-4c75-b63d-c87a318567ae","system_id":"levelo_inurba_marseille","lat":43.30642,"lon":5.401031,"is_reserved":false,"is_disabled":false,"rental_uris":{"android":"levelo://app?vid=f34aee7b-7013-4c75-b63d-c87a318567ae","ios":"levelo://app?vid=f34aee7b-7013-4c75-b63d-c87a318567ae"},"vehicle_type_id":"4","last_reported":1704139651,"current_range_meters":4000,"station_id":"ce4bh112rcd13ifvqda0","pricing_plan_id":"free"},{"bike_id":"14c48773-4ea9-4b98-9935-3871bf7e257f","system_id":"levelo_inurba_marseille","lat":43.301117,"lon":5.398795,"is_reserved":false,"is_disabled":false,"rental_uris":{"android":"levelo://app?vid=14c48773-4ea9-4b98-9935-3871bf7e257f","ios":"levelo://app?vid=14c48773-4ea9-4b98-9935-3871bf7e257f"},"vehicle_type_id":"4","last_reported":1704139651,"current_range_meters":2000,"station_id":"ce4bh0h2rcd13ifvqd40","pricing_plan_id":"free"},{"bike_id":"7e9a59ee-058b-4752-9380-1129ce8586dd","system_id":"levelo_inurba_marseille","lat":43.28727,"lon":5.36078,"is_reserved":false,"is_disabled":false,"rental_uris":{"android":"levelo://app?vid=7e9a59ee-058b-4752-9380-1129ce8586dd","ios":"levelo://app?vid=7e9a59ee-058b-4752-9380-1129ce8586dd"},"vehicle_type_id":"4","last_reported":1704139651,"current_range_meters":28400,"station_id":"cki0cbj6b192h4jlfktg","pricing_plan_id":"free"},{"bike_id":"f182ad30-578d-439a-b895-037c49f93cbb","system_id":"levelo_inurba_marseille","lat":43.28039,"lon":5.369297,"is_reserved":false,"is_disabled":false,"rental_uris":{"android":"levelo://app?vid=f182ad30-578d-439a-b895-037c49f93cbb","ios":"levelo://app?vid=f182ad30-578d-439a-b895-037c49f93cbb"},"vehicle_type_id":"4","last_reported":1704139651,"current_range_meters":31600,"station_id":"ce4bha12rcd13ifvqef0","pricing_plan_id":"free"},{"bike_id":"7c715647-9be3-498a-b3d0-318e439896db","system_id":"levelo_inurba_marseille","lat":43.295196,"lon":5.39397,"is_reserved":false,"is_disabled":false,"rental_uris":{"android":"levelo://app?vid=7c715647-9be3-498a-b3d0-318e439896db","ios":"levelo://app?vid=7c715647-9be3-498a-b3d0-318e439896db"},"vehicle_type_id":"4","last_reported":1704139651,"current_range_meters":4000,"station_id":"ce4bh292rcd13ifvqdf0","pricing_plan_id":"free"},{"bike_id":"b520f0bf-6576-4b78-831b-855829c0a0d5","system_id":"levelo_inurba_marseille","lat":43.302503,"lon":5.400397,"is_reserved":false,"is_disabled":false,"rental_uris":{"android":"levelo://app?vid=b520f0bf-6576-4b78-831b-855829c0a0d5","ios":"levelo://app?vid=b520f0bf-6576-4b78-831b-855829c0a0d5"},"vehicle_type_id":"4","last_reported":1704139651,"current_range_meters":10800,"station_id":"ce4bgvh2rcd13ifvqcs0","pricing_plan_id":"free"},{"bike_id":"a2223209-0143-4209-8550-5fc9c9d8f2eb","system_id":"levelo_inurba_marseille","lat":43.30263,"lon":5.400633,"is_reserved":false,"is_disabled":false,"rental_uris":{"android":"levelo://app?vid=a2223209-0143-4209-8550-5fc9c9d8f2eb","ios":"levelo://app?vid=a2223209-0143-4209-8550-5fc9c9d8f2eb"},"vehicle_type_id":"4","last_reported":1704139651,"current_range_meters":23600,"station_id":"ce4bgvh2rcd13ifvqcs0","pricing_plan_id":"free"},{"bike_id":"9da7227d-47de-4eb4-b462-00fbcf630aaf","system_id":"levelo_inurba_marseille","lat":43.289307,"lon":5.38406,"is_reserved":false,"is_disabled":false,"rental_uris":{"android":"levelo://app?vid=9da7227d-47de-4eb4-b462-00fbcf630aaf","ios":"levelo://app?vid=9da7227d-47de-4eb4-b462-00fbcf630aaf"},"vehicle_type_id":"4","last_reported":1704139651,"current_range_meters":26800,"station_id":"ce4bh612rcd13ifvqe6g","pricing_plan_id":"free"},{"bike_id":"ba03629d-5262-446e-b054-9d989e219b7b","system_id":"levelo_inurba_marseille","lat":43.289307,"lon":5.38406,"is_reserved":false,"is_disabled":false,"rental_uris":{"android":"levelo://app?vid=ba03629d-5262-446e-b054-9d989e219b7b","ios":"levelo://app?vid=ba03629d-5262-446e-b054-9d989e219b7b"},"vehicle_type_id":"4","last_reported":1704139651,"current_range_meters":19600,"station_id":"ce4bh612rcd13ifvqe6g","pricing_plan_id":"free"},{"bike_id":"40579999-f28a-4f53-8fc1-32606a609e63","system_id":"levelo_inurba_marseille","lat":43.28607,"lon":5.37062,"is_reserved":false,"is_disabled":false,"rental_uris":{"android":"levelo://app?vid=40579999-f28a-4f53-8fc1-32606a609e63","ios":"levelo://app?vid=40579999-f28a-4f53-8fc1-32606a609e63"},"vehicle_type_id":"4","last_reported":1704139651,"current_range_meters":25600,"station_id":"","pricing_plan_id":"free"},{"bike_id":"9b0c9e9e-977c-43ca-8676-217c423ef706","system_id":"levelo_inurba_marseille","lat":43.316828,"lon":5.404723,"is_reserved":false,"is_disabled":false,"rental_uris":{"android":"levelo://app?vid=9b0c9e9e-977c-43ca-8676-217c423ef706","ios":"levelo://app?vid=9b0c9e9e-977c-43ca-8676-217c423ef706"},"vehicle_type_id":"4","last_reported":1704139651,"current_range_meters":1200,"station_id":"ce4bh012rcd13ifvqd00","pricing_plan_id":"free"},{"bike_id":"921e71ab-ab09-4c78-a486-96c0ede5dd88","system_id":"levelo_inurba_marseille","lat":43.291994,"lon":5.392907,"is_reserved":false,"is_disabled":false,"rental_uris":{"android":"levelo://app?vid=921e71ab-ab09-4c78-a486-96c0ede5dd88","ios":"levelo://app?vid=921e71ab-ab09-4c78-a486-96c0ede5dd88"},"vehicle_type_id":"4","last_reported":1704139651,"current_range_meters":23600,"station_id":"ce4bh192rcd13ifvqdd0","pricing_plan_id":"free"},{"bike_id":"841bf837-cf41-45ca-b40c-632fbc9a1baf","system_id":"levelo_inurba_marseille","lat":43.291994,"lon":5.392907,"is_reserved":false,"is_disabled":false,"rental_uris":{"android":"levelo://app?vid=841bf837-cf41-45ca-b40c-632fbc9a1baf","ios":"levelo://app?vid=841bf837-cf41-45ca-b40c-632fbc9a1baf"},"vehicle_type_id":"4","last_reported":1704139651,"current_range_meters":400,"station_id":"ce4bh192rcd13ifvqdd0","pricing_plan_id":"free"},{"bike_id":"47962c03-d8a9-4723-a1c5-90c5c1cb0308","system_id":"levelo_inurba_marseille","lat":43.291994,"lon":5.392907,"is_reserved":false,"is_disabled":false,"rental_uris":{"android":"levelo://app?vid=47962c03-d8a9-4723-a1c5-90c5c1cb0308","ios":"levelo://app?vid=47962c03-d8a9-4723-a1c5-90c5c1cb0308"},"vehicle_type_id":"4","last_reported":1704139651,"current_range_meters":30800,"station_id":"ce4bh192rcd13ifvqdd0","pricing_plan_id":"free"},{"bike_id":"96f7b394-f197-4016-bb3c-db29fc986cc1","system_id":"levelo_inurba_marseille","lat":43.291994,"lon":5.392907,"is_reserved":false,"is_disabled":false,"rental_uris":{"android":"levelo://app?vid=96f7b394-f197-4016-bb3c-db29fc986cc1","ios":"levelo://app?vid=96f7b394-f197-4016-bb3c-db29fc986cc1"},"vehicle_type_id":"4","last_reported":1704139651,"current_range_meters":31200,"station_id":"ce4bh192rcd13ifvqdd0","pricing_plan_id":"free"},{"bike_id":"995a28a3-fd13-471a-9214-8f22527e63c1","system_id":"levelo_inurba_marseille","lat":43.291994,"lon":5.392907,"is_reserved":false,"is_disabled":false,"rental_uris":{"android":"levelo://app?vid=995a28a3-fd13-471a-9214-8f22527e63c1","ios":"levelo://app?vid=995a28a3-fd13-471a-9214-8f22527e63c1"},"vehicle_type_id":"4","last_reported":1704139651,"current_range_meters":24800,"station_id":"ce4bh192rcd13ifvqdd0","pricing_plan_id":"free"},{"bike_id":"24c6e01d-ba68-4dad-a8d1-c59cd6c07ba2","system_id":"levelo_inurba_marseille","lat":43.29939,"lon":5.40137,"is_reserved":false,"is_disabled":false,"rental_uris":{"android":"levelo://app?vid=24c6e01d-ba68-4dad-a8d1-c59cd6c07ba2","ios":"levelo://app?vid=24c6e01d-ba68-4dad-a8d1-c59cd6c07ba2"},"vehicle_type_id":"4","last_reported":1704139651,"current_range_meters":29200,"station_id":"ce4bh112rcd13ifvqd90","pricing_plan_id":"free"},{"bike_id":"e4a7ca26-e06c-41dd-af44-a20f1de56691","system_id":"levelo_inurba_marseille","lat":43.28468,"lon":5.35889,"is_reserved":false,"is_disabled":false,"rental_uris":{"android":"levelo://app?vid=e4a7ca26-e06c-41dd-af44-a20f1de56691","ios":"levelo://app?vid=e4a7ca26-e06c-41dd-af44-a20f1de56691"},"vehicle_type_id":"4","last_reported":1704139651,"current_range_meters":21600,"station_id":"ce4bhah2rcd13ifvqei0","pricing_plan_id":"free"},{"bike_id":"86ddb5bf-67f0-4b46-88f9-5b9360210ef6","system_id":"levelo_inurba_marseille","lat":43.284647,"lon":5.358887,"is_reserved":false,"is_disabled":false,"rental_uris":{"android":"levelo://app?vid=86ddb5bf-67f0-4b46-88f9-5b9360210ef6","ios":"levelo://app?vid=86ddb5bf-67f0-4b46-88f9-5b9360210ef6"},"vehicle_type_id":"4","last_reported":1704139651,"current_range_meters":3200,"station_id":"ce4bhah2rcd13ifvqei0","pricing_plan_id":"free"},{"bike_id":"a82ce6fc-460b-4941-aa03-723f8a7aa79f","system_id":"levelo_inurba_marseille","lat":43.284648,"lon":5.358817,"is_reserved":false,"is_disabled":false,"rental_uris":{"android":"levelo://app?vid=a82ce6fc-460b-4941-aa03-723f8a7aa79f","ios":"levelo://app?vid=a82ce6fc-460b-4941-aa03-723f8a7aa79f"},"vehicle_type_id":"4","last_reported":1704139651,"current_range_meters":800,"station_id":"ce4bhah2rcd13ifvqei0","pricing_plan_id":"free"},{"bike_id":"82fc3d83-93aa-4ce4-bd19-4015815af715","system_id":"levelo_inurba_marseille","lat":43.284534,"lon":5.358662,"is_reserved":false,"is_disabled":false,"rental_uris":{"android":"levelo://app?vid=82fc3d83-93aa-4ce4-bd19-4015815af715","ios":"levelo://app?vid=82fc3d83-93aa-4ce4-bd19-4015815af715"},"vehicle_type_id":"4","last_reported":1704139651,"current_range_meters":26000,"station_id":"ce4bhah2rcd13ifvqei0","pricing_plan_id":"free"},{"bike_id":"20be2735-b079-499a-af99-188ab3a39ea1","system_id":"levelo_inurba_marseille","lat":43.284619,"lon":5.358842,"is_reserved":false,"is_disabled":false,"rental_uris":{"android":"levelo://app?vid=20be2735-b079-499a-af99-188ab3a39ea1","ios":"levelo://app?vid=20be2735-b079-499a-af99-188ab3a39ea1"},"vehicle_type_id":"4","last_reported":1704139651,"current_range_meters":22000,"station_id":"ce4bhah2rcd13ifvqei0","pricing_plan_id":"free"},{"bike_id":"6ada2c0b-21ba-4d14-b3e2-2e610c3e64e1","system_id":"levelo_inurba_marseille","lat":43.284605,"lon":5.35886,"is_reserved":false,"is_disabled":false,"rental_uris":{"android":"levelo://app?vid=6ada2c0b-21ba-4d14-b3e2-2e610c3e64e1","ios":"levelo://app?vid=6ada2c0b-21ba-4d14-b3e2-2e610c3e64e1"},"vehicle_type_id":"4","last_reported":1704139651,"current_range_meters":0,"station_id":"ce4bhah2rcd13ifvqei0","pricing_plan_id":"free"},{"bike_id":"35060632-c8db-4c7e-bc82-9041f6daeeb7","system_id":"levelo_inurba_marseille","lat":43.28461,"lon":5.35881,"is_reserved":false,"is_disabled":false,"rental_uris":{"android":"levelo://app?vid=35060632-c8db-4c7e-bc82-9041f6daeeb7","ios":"levelo://app?vid=35060632-c8db-4c7e-bc82-9041f6daeeb7"},"vehicle_type_id":"4","last_reported":1704139651,"current_range_meters":16000,"station_id":"ce4bhah2rcd13ifvqei0","pricing_plan_id":"free"},{"bike_id":"7be1fd96-9df7-4dc2-864e-e485fc92ec9f","system_id":"levelo_inurba_marseille","lat":43.28457,"lon":5.35896,"is_reserved":false,"is_disabled":false,"rental_uris":{"android":"levelo://app?vid=7be1fd96-9df7-4dc2-864e-e485fc92ec9f","ios":"levelo://app?vid=7be1fd96-9df7-4dc2-864e-e485fc92ec9f"},"vehicle_type_id":"4","last_reported":1704139651,"current_range_meters":25200,"station_id":"","pricing_plan_id":"free"},{"bike_id":"bdd9b0c9-93ec-4f64-bd1f-2823cb71af5e","system_id":"levelo_inurba_marseille","lat":43.294314,"lon":5.397498,"is_reserved":false,"is_disabled":false,"rental_uris":{"android":"levelo://app?vid=bdd9b0c9-93ec-4f64-bd1f-2823cb71af5e","ios":"levelo://app?vid=bdd9b0c9-93ec-4f64-bd1f-2823cb71af5e"},"vehicle_type_id":"4","last_reported":1704139651,"current_range_meters":14400,"station_id":"ce4bh3h2rcd13ifvqdo0","pricing_plan_id":"free"},{"bike_id":"c3a0a884-5397-4533-9417-fb99cbd51802","system_id":"levelo_inurba_marseille","lat":43.284535,"lon":5.35896,"is_reserved":false,"is_disabled":false,"rental_uris":{"android":"levelo://app?vid=c3a0a884-5397-4533-9417-fb99cbd51802","ios":"levelo://app?vid=c3a0a884-5397-4533-9417-fb99cbd51802"},"vehicle_type_id":"4","last_reported":1704139651,"current_range_meters":29600,"station_id":"ce4bhah2rcd13ifvqei0","pricing_plan_id":"free"},{"bike_id":"e07dd0c9-ff0a-49bd-8bcb-17f59a7f02a9","system_id":"levelo_inurba_marseille","lat":43.28452,"lon":5.35887,"is_reserved":false,"is_disabled":false,"rental_uris":{"android":"levelo://app?vid=e07dd0c9-ff0a-49bd-8bcb-17f59a7f02a9","ios":"levelo://app?vid=e07dd0c9-ff0a-49bd-8bcb-17f59a7f02a9"},"vehicle_type_id":"4","last_reported":1704139651,"current_range_meters":13200,"station_id":"ce4bhah2rcd13ifvqei0","pricing_plan_id":"free"},{"bike_id":"87651261-bb53-4bf1-8b8f-9a1de1c777b8","system_id":"levelo_inurba_marseille","lat":43.294314,"lon":5.397498,"is_reserved":false,"is_disabled":false,"rental_uris":{"android":"levelo://app?vid=87651261-bb53-4bf1-8b8f-9a1de1c777b8","ios":"levelo://app?vid=87651261-bb53-4bf1-8b8f-9a1de1c777b8"},"vehicle_type_id":"4","last_reported":1704139651,"current_range_meters":24000,"station_id":"ce4bh3h2rcd13ifvqdo0","pricing_plan_id":"free"},{"bike_id":"8ac7f1dd-1771-414b-8ebd-511b661b23d8","system_id":"levelo_inurba_marseille","lat":43.294314,"lon":5.397498,"is_reserved":false,"is_disabled":false,"rental_uris":{"android":"levelo://app?vid=8ac7f1dd-1771-414b-8ebd-511b661b23d8","ios":"levelo://app?vid=8ac7f1dd-1771-414b-8ebd-511b661b23d8"},"vehicle_type_id":"4","last_reported":1704139651,"current_range_meters":0,"station_id":"ce4bh3h2rcd13ifvqdo0","pricing_plan_id":"free"},{"bike_id":"289ec5eb-d216-428b-ad9b-4faed6c2b280","system_id":"levelo_inurba_marseille","lat":43.295713,"lon":5.399639,"is_reserved":false,"is_disabled":false,"rental_uris":{"android":"levelo://app?vid=289ec5eb-d216-428b-ad9b-4faed6c2b280","ios":"levelo://app?vid=289ec5eb-d216-428b-ad9b-4faed6c2b280"},"vehicle_type_id":"4","last_reported":1704139651,"current_range_meters":16000,"station_id":"ce4bh312rcd13ifvqdj0","pricing_plan_id":"free"},{"bike_id":"5fb3799e-7273-4473-9614-8b1c00e65ef2","system_id":"levelo_inurba_marseille","lat":43.283998,"lon":5.375062,"is_reserved":false,"is_disabled":false,"rental_uris":{"android":"levelo://app?vid=5fb3799e-7273-4473-9614-8b1c00e65ef2","ios":"levelo://app?vid=5fb3799e-7273-4473-9614-8b1c00e65ef2"},"vehicle_type_id":"4","last_reported":1704139651,"current_range_meters":23600,"station_id":"ce4bh412rcd13ifvqds0","pricing_plan_id":"free"},{"bike_id":"7ae6eaba-6266-4fea-ac32-a4f96074d6b7","system_id":"levelo_inurba_marseille","lat":43.295713,"lon":5.399639,"is_reserved":false,"is_disabled":false,"rental_uris":{"android":"levelo://app?vid=7ae6eaba-6266-4fea-ac32-a4f96074d6b7","ios":"levelo://app?vid=7ae6eaba-6266-4fea-ac32-a4f96074d6b7"},"vehicle_type_id":"4","last_reported":1704139651,"current_range_meters":26400,"station_id":"ce4bh312rcd13ifvqdj0","pricing_plan_id":"free"},{"bike_id":"cdbd8012-725b-4fd4-8881-098365444cd0","system_id":"levelo_inurba_marseille","lat":43.283998,"lon":5.375062,"is_reserved":false,"is_disabled":false,"rental_uris":{"android":"levelo://app?vid=cdbd8012-725b-4fd4-8881-098365444cd0","ios":"levelo://app?vid=cdbd8012-725b-4fd4-8881-098365444cd0"},"vehicle_type_id":"4","last_reported":1704139651,"current_range_meters":20800,"station_id":"ce4bh412rcd13ifvqds0","pricing_plan_id":"free"},{"bike_id":"8097f626-313e-4b81-9d23-48d08845472a","system_id":"levelo_inurba_marseille","lat":43.286595,"lon":5.386795,"is_reserved":false,"is_disabled":false,"rental_uris":{"android":"levelo://app?vid=8097f626-313e-4b81-9d23-48d08845472a","ios":"levelo://app?vid=8097f626-313e-4b81-9d23-48d08845472a"},"vehicle_type_id":"4","last_reported":1704139651,"current_range_meters":8000,"station_id":"ce4bh492rcd13ifvqdug","pricing_plan_id":"free"},{"bike_id":"d8f34b4b-0482-4598-a007-c88e9675eb47","system_id":"levelo_inurba_marseille","lat":43.286595,"lon":5.386795,"is_reserved":false,"is_disabled":false,"rental_uris":{"android":"levelo://app?vid=d8f34b4b-0482-4598-a007-c88e9675eb47","ios":"levelo://app?vid=d8f34b4b-0482-4598-a007-c88e9675eb47"},"vehicle_type_id":"4","last_reported":1704139651,"current_range_meters":12400,"station_id":"ce4bh492rcd13ifvqdug","pricing_plan_id":"free"},{"bike_id":"8af6642b-e526-4770-8a06-6b115e68c32b","system_id":"levelo_inurba_marseille","lat":43.337191,"lon":5.391813,"is_reserved":false,"is_disabled":false,"rental_uris":{"android":"levelo://app?vid=8af6642b-e526-4770-8a06-6b115e68c32b","ios":"levelo://app?vid=8af6642b-e526-4770-8a06-6b115e68c32b"},"vehicle_type_id":"4","last_reported":1704139651,"current_range_meters":24000,"station_id":"ce4bhr92rcd13ifvqhsg","pricing_plan_id":"free"},{"bike_id":"1860c054-e673-4084-804e-8832a59aeb53","system_id":"levelo_inurba_marseille","lat":43.337168,"lon":5.391825,"is_reserved":false,"is_disabled":false,"rental_uris":{"android":"levelo://app?vid=1860c054-e673-4084-804e-8832a59aeb53","ios":"levelo://app?vid=1860c054-e673-4084-804e-8832a59aeb53"},"vehicle_type_id":"4","last_reported":1704139651,"current_range_meters":26800,"station_id":"ce4bhr92rcd13ifvqhsg","pricing_plan_id":"free"},{"bike_id":"98c54228-1550-4ed4-a373-bc1a4171707b","system_id":"levelo_inurba_marseille","lat":43.284793,"lon":5.384113,"is_reserved":false,"is_disabled":false,"rental_uris":{"android":"levelo://app?vid=98c54228-1550-4ed4-a373-bc1a4171707b","ios":"levelo://app?vid=98c54228-1550-4ed4-a373-bc1a4171707b"},"vehicle_type_id":"4","last_reported":1704139651,"current_range_meters":3200,"station_id":"ce4bh512rcd13ifvqe3g","pricing_plan_id":"free"},{"bike_id":"7c467038-9e2d-4602-8fa4-cb8cd5f158aa","system_id":"levelo_inurba_marseille","lat":43.284793,"lon":5.384119,"is_reserved":false,"is_disabled":false,"rental_uris":{"android":"levelo://app?vid=7c467038-9e2d-4602-8fa4-cb8cd5f158aa","ios":"levelo://app?vid=7c467038-9e2d-4602-8fa4-cb8cd5f158aa"},"vehicle_type_id":"4","last_reported":1704139651,"current_range_meters":4800,"station_id":"ce4bh512rcd13ifvqe3g","pricing_plan_id":"free"},{"bike_id":"b82735b3-d059-4364-b01a-9486af4a04a5","system_id":"levelo_inurba_marseille","lat":43.284793,"lon":5.384119,"is_reserved":false,"is_disabled":false,"rental_uris":{"android":"levelo://app?vid=b82735b3-d059-4364-b01a-9486af4a04a5","ios":"levelo://app?vid=b82735b3-d059-4364-b01a-9486af4a04a5"},"vehicle_type_id":"4","last_reported":1704139651,"current_range_meters":24000,"station_id":"ce4bh512rcd13ifvqe3g","pricing_plan_id":"free"},{"bike_id":"fd236dbe-0f03-4517-985d-41fabcb273ba","system_id":"levelo_inurba_marseille","lat":43.297946,"lon":5.404063,"is_reserved":false,"is_disabled":false,"rental_uris":{"android":"levelo://app?vid=fd236dbe-0f03-4517-985d-41fabcb273ba","ios":"levelo://app?vid=fd236dbe-0f03-4517-985d-41fabcb273ba"},"vehicle_type_id":"4","last_reported":1704139651,"current_range_meters":30400,"station_id":"ce4bh112rcd13ifvqd90","pricing_plan_id":"free"},{"bike_id":"24a8c9da-41de-4352-a59e-5f3175809ee0","system_id":"levelo_inurba_marseille","lat":43.283494,"lon":5.380945,"is_reserved":false,"is_disabled":false,"rental_uris":{"android":"levelo://app?vid=24a8c9da-41de-4352-a59e-5f3175809ee0","ios":"levelo://app?vid=24a8c9da-41de-4352-a59e-5f3175809ee0"},"vehicle_type_id":"4","last_reported":1704139651,"current_range_meters":28000,"station_id":"ce4bh412rcd13ifvqdr0","pricing_plan_id":"free"},{"bike_id":"b933f9b8-992b-453d-b0d8-fdbbfd13d70b","system_id":"levelo_inurba_marseille","lat":43.288501,"lon":5.393087,"is_reserved":false,"is_disabled":false,"rental_uris":{"android":"levelo://app?vid=b933f9b8-992b-453d-b0d8-fdbbfd13d70b","ios":"levelo://app?vid=b933f9b8-992b-453d-b0d8-fdbbfd13d70b"},"vehicle_type_id":"4","last_reported":1704139651,"current_range_meters":25200,"station_id":"ce4bh2p2rcd13ifvqdi0","pricing_plan_id":"free"},{"bike_id":"649fc628-7f55-4c0e-b7e0-bcac1f858887","system_id":"levelo_inurba_marseille","lat":43.283498,"lon":5.380948,"is_reserved":false,"is_disabled":false,"rental_uris":{"android":"levelo://app?vid=649fc628-7f55-4c0e-b7e0-bcac1f858887","ios":"levelo://app?vid=649fc628-7f55-4c0e-b7e0-bcac1f858887"},"vehicle_type_id":"4","last_reported":1704139651,"current_range_meters":29600,"station_id":"ce4bh412rcd13ifvqdr0","pricing_plan_id":"free"},{"bike_id":"5e0a3a31-1611-4ad7-90ec-0847b4d27440","system_id":"levelo_inurba_marseille","lat":43.283494,"lon":5.380945,"is_reserved":false,"is_disabled":false,"rental_uris":{"android":"levelo://app?vid=5e0a3a31-1611-4ad7-90ec-0847b4d27440","ios":"levelo://app?vid=5e0a3a31-1611-4ad7-90ec-0847b4d27440"},"vehicle_type_id":"4","last_reported":1704139651,"current_range_meters":14000,"station_id":"ce4bh412rcd13ifvqdr0","pricing_plan_id":"free"},{"bike_id":"2c933ba4-f850-42f7-9b35-c2cb2fe93a2b","system_id":"levelo_inurba_marseille","lat":43.292724,"lon":5.401131,"is_reserved":false,"is_disabled":false,"rental_uris":{"android":"levelo://app?vid=2c933ba4-f850-42f7-9b35-c2cb2fe93a2b","ios":"levelo://app?vid=2c933ba4-f850-42f7-9b35-c2cb2fe93a2b"},"vehicle_type_id":"4","last_reported":1704139651,"current_range_meters":15600,"station_id":"ce4bh312rcd13ifvqdk0","pricing_plan_id":"free"},{"bike_id":"1f5da6bb-f49f-4baa-a5b1-8de9d892bfab","system_id":"levelo_inurba_marseille","lat":43.292724,"lon":5.401131,"is_reserved":false,"is_disabled":false,"rental_uris":{"android":"levelo://app?vid=1f5da6bb-f49f-4baa-a5b1-8de9d892bfab","ios":"levelo://app?vid=1f5da6bb-f49f-4baa-a5b1-8de9d892bfab"},"vehicle_type_id":"4","last_reported":1704139651,"current_range_meters":4800,"station_id":"ce4bh312rcd13ifvqdk0","pricing_plan_id":"free"},{"bike_id":"c43aa574-a203-4e6f-b97e-125a5a276c8a","system_id":"levelo_inurba_marseille","lat":43.282744,"lon":5.350533,"is_reserved":false,"is_disabled":false,"rental_uris":{"android":"levelo://app?vid=c43aa574-a203-4e6f-b97e-125a5a276c8a","ios":"levelo://app?vid=c43aa574-a203-4e6f-b97e-125a5a276c8a"},"vehicle_type_id":"4","last_reported":1704139651,"current_range_meters":18800,"station_id":"ce4bhbp2rcd13ifvqerg","pricing_plan_id":"free"},{"bike_id":"3e52ba98-a074-4115-bfe1-6d6d2ca2f3a5","system_id":"levelo_inurba_marseille","lat":43.282744,"lon":5.350533,"is_reserved":false,"is_disabled":false,"rental_uris":{"android":"levelo://app?vid=3e52ba98-a074-4115-bfe1-6d6d2ca2f3a5","ios":"levelo://app?vid=3e52ba98-a074-4115-bfe1-6d6d2ca2f3a5"},"vehicle_type_id":"4","last_reported":1704139651,"current_range_meters":24400,"station_id":"ce4bhbp2rcd13ifvqerg","pricing_plan_id":"free"},{"bike_id":"df044df3-dc84-4895-9b9a-0c47d09763a4","system_id":"levelo_inurba_marseille","lat":43.28039,"lon":5.369297,"is_reserved":false,"is_disabled":false,"rental_uris":{"android":"levelo://app?vid=df044df3-dc84-4895-9b9a-0c47d09763a4","ios":"levelo://app?vid=df044df3-dc84-4895-9b9a-0c47d09763a4"},"vehicle_type_id":"4","last_reported":1704139651,"current_range_meters":31200,"station_id":"ce4bha12rcd13ifvqef0","pricing_plan_id":"free"},{"bike_id":"71bfa987-0717-402c-90fc-719984464e12","system_id":"levelo_inurba_marseille","lat":43.280382,"lon":5.369291,"is_reserved":false,"is_disabled":false,"rental_uris":{"android":"levelo://app?vid=71bfa987-0717-402c-90fc-719984464e12","ios":"levelo://app?vid=71bfa987-0717-402c-90fc-719984464e12"},"vehicle_type_id":"4","last_reported":1704139651,"current_range_meters":28400,"station_id":"ce4bha12rcd13ifvqef0","pricing_plan_id":"free"},{"bike_id":"7a1beebc-52c8-47ad-9484-9d71ab7861e3","system_id":"levelo_inurba_marseille","lat":43.28039,"lon":5.369297,"is_reserved":false,"is_disabled":false,"rental_uris":{"android":"levelo://app?vid=7a1beebc-52c8-47ad-9484-9d71ab7861e3","ios":"levelo://app?vid=7a1beebc-52c8-47ad-9484-9d71ab7861e3"},"vehicle_type_id":"4","last_reported":1704139651,"current_range_meters":24400,"station_id":"ce4bha12rcd13ifvqef0","pricing_plan_id":"free"},{"bike_id":"ddbed741-34fd-45ec-bd1c-bb6b657f8649","system_id":"levelo_inurba_marseille","lat":43.290412,"lon":5.399633,"is_reserved":false,"is_disabled":false,"rental_uris":{"android":"levelo://app?vid=ddbed741-34fd-45ec-bd1c-bb6b657f8649","ios":"levelo://app?vid=ddbed741-34fd-45ec-bd1c-bb6b657f8649"},"vehicle_type_id":"4","last_reported":1704139651,"current_range_meters":2000,"station_id":"ce4bh392rcd13ifvqdm0","pricing_plan_id":"free"},{"bike_id":"a96c8d10-e720-4716-b945-d22dc5fd33b9","system_id":"levelo_inurba_marseille","lat":43.281044,"lon":5.378308,"is_reserved":false,"is_disabled":false,"rental_uris":{"android":"levelo://app?vid=a96c8d10-e720-4716-b945-d22dc5fd33b9","ios":"levelo://app?vid=a96c8d10-e720-4716-b945-d22dc5fd33b9"},"vehicle_type_id":"4","last_reported":1704139651,"current_range_meters":27600,"station_id":"ce4bha12rcd13ifvqee0","pricing_plan_id":"free"},{"bike_id":"5e157b8d-c955-432d-ac13-827c1b606f6c","system_id":"levelo_inurba_marseille","lat":43.296263,"lon":5.40601,"is_reserved":false,"is_disabled":false,"rental_uris":{"android":"levelo://app?vid=5e157b8d-c955-432d-ac13-827c1b606f6c","ios":"levelo://app?vid=5e157b8d-c955-432d-ac13-827c1b606f6c"},"vehicle_type_id":"4","last_reported":1704139651,"current_range_meters":30000,"station_id":"ce4bh0h2rcd13ifvqd60","pricing_plan_id":"free"},{"bike_id":"4a98b203-2b9a-4f7a-ae1d-c99346f5a555","system_id":"levelo_inurba_marseille","lat":43.281044,"lon":5.378308,"is_reserved":false,"is_disabled":false,"rental_uris":{"android":"levelo://app?vid=4a98b203-2b9a-4f7a-ae1d-c99346f5a555","ios":"levelo://app?vid=4a98b203-2b9a-4f7a-ae1d-c99346f5a555"},"vehicle_type_id":"4","last_reported":1704139651,"current_range_meters":26400,"station_id":"ce4bha12rcd13ifvqee0","pricing_plan_id":"free"},{"bike_id":"eeb5ffd9-6b2f-4291-938e-5d1548007c27","system_id":"levelo_inurba_marseille","lat":43.284462,"lon":5.392121,"is_reserved":false,"is_disabled":false,"rental_uris":{"android":"levelo://app?vid=eeb5ffd9-6b2f-4291-938e-5d1548007c27","ios":"levelo://app?vid=eeb5ffd9-6b2f-4291-938e-5d1548007c27"},"vehicle_type_id":"4","last_reported":1704139651,"current_range_meters":26000,"station_id":"ce4bhoh2rcd13ifvqh5g","pricing_plan_id":"free"},{"bike_id":"d6c9d56f-5a1e-4097-a2f2-c1bc2bc8b0e2","system_id":"levelo_inurba_marseille","lat":43.304188,"lon":5.412904,"is_reserved":false,"is_disabled":false,"rental_uris":{"android":"levelo://app?vid=d6c9d56f-5a1e-4097-a2f2-c1bc2bc8b0e2","ios":"levelo://app?vid=d6c9d56f-5a1e-4097-a2f2-c1bc2bc8b0e2"},"vehicle_type_id":"4","last_reported":1704139651,"current_range_meters":12000,"station_id":"ce4bhop2rcd13ifvqh8g","pricing_plan_id":"free"},{"bike_id":"a727640c-5568-4228-bf01-47f754027641","system_id":"levelo_inurba_marseille","lat":43.279087,"lon":5.380114,"is_reserved":false,"is_disabled":false,"rental_uris":{"android":"levelo://app?vid=a727640c-5568-4228-bf01-47f754027641","ios":"levelo://app?vid=a727640c-5568-4228-bf01-47f754027641"},"vehicle_type_id":"4","last_reported":1704139651,"current_range_meters":8800,"station_id":"ce4bhf92rcd13ifvqf50","pricing_plan_id":"free"},{"bike_id":"8571ddf1-8157-46ba-b747-ea46713afd05","system_id":"levelo_inurba_marseille","lat":43.292907,"lon":5.406557,"is_reserved":false,"is_disabled":false,"rental_uris":{"android":"levelo://app?vid=8571ddf1-8157-46ba-b747-ea46713afd05","ios":"levelo://app?vid=8571ddf1-8157-46ba-b747-ea46713afd05"},"vehicle_type_id":"4","last_reported":1704139651,"current_range_meters":2800,"station_id":"","pricing_plan_id":"free"},{"bike_id":"4b79bdfe-9847-41bd-8b5d-fe96623da8a2","system_id":"levelo_inurba_marseille","lat":43.279087,"lon":5.380114,"is_reserved":false,"is_disabled":false,"rental_uris":{"android":"levelo://app?vid=4b79bdfe-9847-41bd-8b5d-fe96623da8a2","ios":"levelo://app?vid=4b79bdfe-9847-41bd-8b5d-fe96623da8a2"},"vehicle_type_id":"4","last_reported":1704139651,"current_range_meters":21600,"station_id":"ce4bhf92rcd13ifvqf50","pricing_plan_id":"free"},{"bike_id":"c25adcf8-98fc-454b-a99d-391c26d666c5","system_id":"levelo_inurba_marseille","lat":43.279087,"lon":5.380114,"is_reserved":false,"is_disabled":false,"rental_uris":{"android":"levelo://app?vid=c25adcf8-98fc-454b-a99d-391c26d666c5","ios":"levelo://app?vid=c25adcf8-98fc-454b-a99d-391c26d666c5"},"vehicle_type_id":"4","last_reported":1704139651,"current_range_meters":22800,"station_id":"ce4bhf92rcd13ifvqf50","pricing_plan_id":"free"},{"bike_id":"8ac5f70f-ef3b-47c3-81be-ad0eaf6a4eee","system_id":"levelo_inurba_marseille","lat":43.279087,"lon":5.380114,"is_reserved":false,"is_disabled":false,"rental_uris":{"android":"levelo://app?vid=8ac5f70f-ef3b-47c3-81be-ad0eaf6a4eee","ios":"levelo://app?vid=8ac5f70f-ef3b-47c3-81be-ad0eaf6a4eee"},"vehicle_type_id":"4","last_reported":1704139651,"current_range_meters":24000,"station_id":"ce4bhf92rcd13ifvqf50","pricing_plan_id":"free"},{"bike_id":"a6a7e3be-4759-45c3-909b-66024c2e309b","system_id":"levelo_inurba_marseille","lat":43.279087,"lon":5.380114,"is_reserved":false,"is_disabled":false,"rental_uris":{"android":"levelo://app?vid=a6a7e3be-4759-45c3-909b-66024c2e309b","ios":"levelo://app?vid=a6a7e3be-4759-45c3-909b-66024c2e309b"},"vehicle_type_id":"4","last_reported":1704139651,"current_range_meters":25600,"station_id":"ce4bhf92rcd13ifvqf50","pricing_plan_id":"free"},{"bike_id":"e9c939c1-e7b7-4411-874f-b5412405cb59","system_id":"levelo_inurba_marseille","lat":43.292571,"lon":5.409107,"is_reserved":false,"is_disabled":false,"rental_uris":{"android":"levelo://app?vid=e9c939c1-e7b7-4411-874f-b5412405cb59","ios":"levelo://app?vid=e9c939c1-e7b7-4411-874f-b5412405cb59"},"vehicle_type_id":"4","last_reported":1704139651,"current_range_meters":10800,"station_id":"ce4bh192rcd13ifvqdc0","pricing_plan_id":"free"},{"bike_id":"d3abb5f8-8a93-4a1e-982d-f1affaa007d8","system_id":"levelo_inurba_marseille","lat":43.29262,"lon":5.4091,"is_reserved":false,"is_disabled":false,"rental_uris":{"android":"levelo://app?vid=d3abb5f8-8a93-4a1e-982d-f1affaa007d8","ios":"levelo://app?vid=d3abb5f8-8a93-4a1e-982d-f1affaa007d8"},"vehicle_type_id":"4","last_reported":1704139651,"current_range_meters":19200,"station_id":"ce4bh192rcd13ifvqdc0","pricing_plan_id":"free"},{"bike_id":"c769d66f-94d8-4a28-a38a-ab1f9d5f19c6","system_id":"levelo_inurba_marseille","lat":43.292569,"lon":5.409107,"is_reserved":false,"is_disabled":false,"rental_uris":{"android":"levelo://app?vid=c769d66f-94d8-4a28-a38a-ab1f9d5f19c6","ios":"levelo://app?vid=c769d66f-94d8-4a28-a38a-ab1f9d5f19c6"},"vehicle_type_id":"4","last_reported":1704139651,"current_range_meters":24400,"station_id":"ce4bh192rcd13ifvqdc0","pricing_plan_id":"free"},{"bike_id":"337abd5c-b011-408b-8ed0-c2d99469c95e","system_id":"levelo_inurba_marseille","lat":43.292571,"lon":5.409107,"is_reserved":false,"is_disabled":false,"rental_uris":{"android":"levelo://app?vid=337abd5c-b011-408b-8ed0-c2d99469c95e","ios":"levelo://app?vid=337abd5c-b011-408b-8ed0-c2d99469c95e"},"vehicle_type_id":"4","last_reported":1704139651,"current_range_meters":10000,"station_id":"ce4bh192rcd13ifvqdc0","pricing_plan_id":"free"},{"bike_id":"13083173-d784-4a87-850f-f602f8724e39","system_id":"levelo_inurba_marseille","lat":43.276179,"lon":5.361009,"is_reserved":false,"is_disabled":false,"rental_uris":{"android":"levelo://app?vid=13083173-d784-4a87-850f-f602f8724e39","ios":"levelo://app?vid=13083173-d784-4a87-850f-f602f8724e39"},"vehicle_type_id":"4","last_reported":1704139651,"current_range_meters":20400,"station_id":"ce4bgj92rcd13ifvqbe0","pricing_plan_id":"free"},{"bike_id":"e1838f9f-299f-437d-abd8-4f286644fe17","system_id":"levelo_inurba_marseille","lat":43.280784,"lon":5.396622,"is_reserved":false,"is_disabled":false,"rental_uris":{"android":"levelo://app?vid=e1838f9f-299f-437d-abd8-4f286644fe17","ios":"levelo://app?vid=e1838f9f-299f-437d-abd8-4f286644fe17"},"vehicle_type_id":"4","last_reported":1704139651,"current_range_meters":29200,"station_id":"ce4bho12rcd13ifvqh2g","pricing_plan_id":"free"},{"bike_id":"d2a3da75-7092-415e-b8a8-ce83ba1178e9","system_id":"levelo_inurba_marseille","lat":43.280784,"lon":5.396622,"is_reserved":false,"is_disabled":false,"rental_uris":{"android":"levelo://app?vid=d2a3da75-7092-415e-b8a8-ce83ba1178e9","ios":"levelo://app?vid=d2a3da75-7092-415e-b8a8-ce83ba1178e9"},"vehicle_type_id":"4","last_reported":1704139651,"current_range_meters":20000,"station_id":"ce4bho12rcd13ifvqh2g","pricing_plan_id":"free"},{"bike_id":"9443765f-359f-4674-8822-13206f57c02e","system_id":"levelo_inurba_marseille","lat":43.280736,"lon":5.396526,"is_reserved":false,"is_disabled":false,"rental_uris":{"android":"levelo://app?vid=9443765f-359f-4674-8822-13206f57c02e","ios":"levelo://app?vid=9443765f-359f-4674-8822-13206f57c02e"},"vehicle_type_id":"4","last_reported":1704139651,"current_range_meters":1200,"station_id":"ce4bho12rcd13ifvqh2g","pricing_plan_id":"free"},{"bike_id":"c36e222f-f00c-404b-99a6-900cbe509d3f","system_id":"levelo_inurba_marseille","lat":43.280784,"lon":5.396622,"is_reserved":false,"is_disabled":false,"rental_uris":{"android":"levelo://app?vid=c36e222f-f00c-404b-99a6-900cbe509d3f","ios":"levelo://app?vid=c36e222f-f00c-404b-99a6-900cbe509d3f"},"vehicle_type_id":"4","last_reported":1704139651,"current_range_meters":21200,"station_id":"ce4bho12rcd13ifvqh2g","pricing_plan_id":"free"},{"bike_id":"4e4ff796-b6c2-4ed5-bf16-c931dd6520f7","system_id":"levelo_inurba_marseille","lat":43.303837,"lon":5.418724,"is_reserved":false,"is_disabled":false,"rental_uris":{"android":"levelo://app?vid=4e4ff796-b6c2-4ed5-bf16-c931dd6520f7","ios":"levelo://app?vid=4e4ff796-b6c2-4ed5-bf16-c931dd6520f7"},"vehicle_type_id":"4","last_reported":1704139651,"current_range_meters":26000,"station_id":"ce4bhop2rcd13ifvqh7g","pricing_plan_id":"free"},{"bike_id":"6090cc09-0dbd-45d6-93fb-c517e7a33dfc","system_id":"levelo_inurba_marseille","lat":43.278401,"lon":5.392152,"is_reserved":false,"is_disabled":false,"rental_uris":{"android":"levelo://app?vid=6090cc09-0dbd-45d6-93fb-c517e7a33dfc","ios":"levelo://app?vid=6090cc09-0dbd-45d6-93fb-c517e7a33dfc"},"vehicle_type_id":"4","last_reported":1704139651,"current_range_meters":31200,"station_id":"ce4bhjp2rcd13ifvqga0","pricing_plan_id":"free"},{"bike_id":"c7c66d88-5168-40ed-9ce0-79223bde1b93","system_id":"levelo_inurba_marseille","lat":43.278399,"lon":5.392139,"is_reserved":false,"is_disabled":false,"rental_uris":{"android":"levelo://app?vid=c7c66d88-5168-40ed-9ce0-79223bde1b93","ios":"levelo://app?vid=c7c66d88-5168-40ed-9ce0-79223bde1b93"},"vehicle_type_id":"4","last_reported":1704139651,"current_range_meters":3200,"station_id":"ce4bhjp2rcd13ifvqga0","pricing_plan_id":"free"},{"bike_id":"a4849013-ee82-47cf-8833-d229943dd2ed","system_id":"levelo_inurba_marseille","lat":43.278399,"lon":5.392139,"is_reserved":false,"is_disabled":false,"rental_uris":{"android":"levelo://app?vid=a4849013-ee82-47cf-8833-d229943dd2ed","ios":"levelo://app?vid=a4849013-ee82-47cf-8833-d229943dd2ed"},"vehicle_type_id":"4","last_reported":1704139651,"current_range_meters":19600,"station_id":"ce4bhjp2rcd13ifvqga0","pricing_plan_id":"free"},{"bike_id":"9ebd5be7-ea73-40bb-b2ae-8a925684cc42","system_id":"levelo_inurba_marseille","lat":43.273613,"lon":5.362705,"is_reserved":false,"is_disabled":false,"rental_uris":{"android":"levelo://app?vid=9ebd5be7-ea73-40bb-b2ae-8a925684cc42","ios":"levelo://app?vid=9ebd5be7-ea73-40bb-b2ae-8a925684cc42"},"vehicle_type_id":"4","last_reported":1704139651,"current_range_meters":30000,"station_id":"ce4bhbh2rcd13ifvqeo0","pricing_plan_id":"free"},{"bike_id":"838e390a-0d2f-44c2-87a4-d40aabcd8ccc","system_id":"levelo_inurba_marseille","lat":43.27671,"lon":5.389198,"is_reserved":false,"is_disabled":false,"rental_uris":{"android":"levelo://app?vid=838e390a-0d2f-44c2-87a4-d40aabcd8ccc","ios":"levelo://app?vid=838e390a-0d2f-44c2-87a4-d40aabcd8ccc"},"vehicle_type_id":"4","last_reported":1704139651,"current_range_meters":0,"station_id":"","pricing_plan_id":"free"},{"bike_id":"b2e64161-bed0-442d-9e12-361d365ea82c","system_id":"levelo_inurba_marseille","lat":43.279952,"lon":5.400085,"is_reserved":false,"is_disabled":false,"rental_uris":{"android":"levelo://app?vid=b2e64161-bed0-442d-9e12-361d365ea82c","ios":"levelo://app?vid=b2e64161-bed0-442d-9e12-361d365ea82c"},"vehicle_type_id":"4","last_reported":1704139651,"current_range_meters":10800,"station_id":"ce4bho92rcd13ifvqh4g","pricing_plan_id":"free"},{"bike_id":"5e3452d0-bbc8-463b-8852-ec98e809d5a0","system_id":"levelo_inurba_marseille","lat":43.317121,"lon":5.423936,"is_reserved":false,"is_disabled":false,"rental_uris":{"android":"levelo://app?vid=5e3452d0-bbc8-463b-8852-ec98e809d5a0","ios":"levelo://app?vid=5e3452d0-bbc8-463b-8852-ec98e809d5a0"},"vehicle_type_id":"4","last_reported":1704139651,"current_range_meters":31200,"station_id":"ce4bhp92rcd13ifvqhbg","pricing_plan_id":"free"},{"bike_id":"4760841b-4fd7-4b7d-aef3-782de75b0909","system_id":"levelo_inurba_marseille","lat":43.317121,"lon":5.423936,"is_reserved":false,"is_disabled":false,"rental_uris":{"android":"levelo://app?vid=4760841b-4fd7-4b7d-aef3-782de75b0909","ios":"levelo://app?vid=4760841b-4fd7-4b7d-aef3-782de75b0909"},"vehicle_type_id":"4","last_reported":1704139651,"current_range_meters":24800,"station_id":"ce4bhp92rcd13ifvqhbg","pricing_plan_id":"free"},{"bike_id":"95620b28-48e0-40ed-8f4c-f7654a31b6da","system_id":"levelo_inurba_marseille","lat":43.31716,"lon":5.42396,"is_reserved":false,"is_disabled":false,"rental_uris":{"android":"levelo://app?vid=95620b28-48e0-40ed-8f4c-f7654a31b6da","ios":"levelo://app?vid=95620b28-48e0-40ed-8f4c-f7654a31b6da"},"vehicle_type_id":"4","last_reported":1704139651,"current_range_meters":23600,"station_id":"ce4bhp92rcd13ifvqhbg","pricing_plan_id":"free"},{"bike_id":"c8e7703b-2edf-4796-b45d-2438019a9059","system_id":"levelo_inurba_marseille","lat":43.317121,"lon":5.423936,"is_reserved":false,"is_disabled":false,"rental_uris":{"android":"levelo://app?vid=c8e7703b-2edf-4796-b45d-2438019a9059","ios":"levelo://app?vid=c8e7703b-2edf-4796-b45d-2438019a9059"},"vehicle_type_id":"4","last_reported":1704139651,"current_range_meters":12800,"station_id":"ce4bhp92rcd13ifvqhbg","pricing_plan_id":"free"},{"bike_id":"f3e351f0-7ca3-497e-a450-69da3118abd7","system_id":"levelo_inurba_marseille","lat":43.31725,"lon":5.42397,"is_reserved":false,"is_disabled":false,"rental_uris":{"android":"levelo://app?vid=f3e351f0-7ca3-497e-a450-69da3118abd7","ios":"levelo://app?vid=f3e351f0-7ca3-497e-a450-69da3118abd7"},"vehicle_type_id":"4","last_reported":1704139651,"current_range_meters":28000,"station_id":"ce4bhp92rcd13ifvqhbg","pricing_plan_id":"free"},{"bike_id":"e2340435-a767-4a07-9db0-637fd4bce462","system_id":"levelo_inurba_marseille","lat":43.317121,"lon":5.423936,"is_reserved":false,"is_disabled":false,"rental_uris":{"android":"levelo://app?vid=e2340435-a767-4a07-9db0-637fd4bce462","ios":"levelo://app?vid=e2340435-a767-4a07-9db0-637fd4bce462"},"vehicle_type_id":"4","last_reported":1704139651,"current_range_meters":13200,"station_id":"ce4bhp92rcd13ifvqhbg","pricing_plan_id":"free"},{"bike_id":"d7a0f436-4a10-430d-9dfa-fb613b9a9e9c","system_id":"levelo_inurba_marseille","lat":43.340804,"lon":5.410219,"is_reserved":false,"is_disabled":false,"rental_uris":{"android":"levelo://app?vid=d7a0f436-4a10-430d-9dfa-fb613b9a9e9c","ios":"levelo://app?vid=d7a0f436-4a10-430d-9dfa-fb613b9a9e9c"},"vehicle_type_id":"4","last_reported":1704139651,"current_range_meters":15600,"station_id":"ce4bhqh2rcd13ifvqhlg","pricing_plan_id":"free"},{"bike_id":"37b922a5-9698-4420-9a36-80e27217d39c","system_id":"levelo_inurba_marseille","lat":43.295511,"lon":5.422926,"is_reserved":false,"is_disabled":false,"rental_uris":{"android":"levelo://app?vid=37b922a5-9698-4420-9a36-80e27217d39c","ios":"levelo://app?vid=37b922a5-9698-4420-9a36-80e27217d39c"},"vehicle_type_id":"4","last_reported":1704139651,"current_range_meters":14800,"station_id":"ce4bhph2rcd13ifvqhdg","pricing_plan_id":"free"},{"bike_id":"3fda408b-9e1d-457d-b0a8-8d90dd79118a","system_id":"levelo_inurba_marseille","lat":43.278128,"lon":5.407195,"is_reserved":false,"is_disabled":false,"rental_uris":{"android":"levelo://app?vid=3fda408b-9e1d-457d-b0a8-8d90dd79118a","ios":"levelo://app?vid=3fda408b-9e1d-457d-b0a8-8d90dd79118a"},"vehicle_type_id":"4","last_reported":1704139651,"current_range_meters":0,"station_id":"ce4bhnh2rcd13ifvqgtg","pricing_plan_id":"free"},{"bike_id":"929c2ab8-fd5f-4824-b5df-6b7ce73665b3","system_id":"levelo_inurba_marseille","lat":43.278128,"lon":5.407195,"is_reserved":false,"is_disabled":false,"rental_uris":{"android":"levelo://app?vid=929c2ab8-fd5f-4824-b5df-6b7ce73665b3","ios":"levelo://app?vid=929c2ab8-fd5f-4824-b5df-6b7ce73665b3"},"vehicle_type_id":"4","last_reported":1704139651,"current_range_meters":17600,"station_id":"ce4bhnh2rcd13ifvqgtg","pricing_plan_id":"free"},{"bike_id":"13040132-ee55-430d-812f-c961d418943f","system_id":"levelo_inurba_marseille","lat":43.278128,"lon":5.407195,"is_reserved":false,"is_disabled":false,"rental_uris":{"android":"levelo://app?vid=13040132-ee55-430d-812f-c961d418943f","ios":"levelo://app?vid=13040132-ee55-430d-812f-c961d418943f"},"vehicle_type_id":"4","last_reported":1704139651,"current_range_meters":16400,"station_id":"ce4bhnh2rcd13ifvqgtg","pricing_plan_id":"free"},{"bike_id":"92c62140-6073-4b50-887d-f4ed58f8da74","system_id":"levelo_inurba_marseille","lat":43.278128,"lon":5.407195,"is_reserved":false,"is_disabled":false,"rental_uris":{"android":"levelo://app?vid=92c62140-6073-4b50-887d-f4ed58f8da74","ios":"levelo://app?vid=92c62140-6073-4b50-887d-f4ed58f8da74"},"vehicle_type_id":"4","last_reported":1704139651,"current_range_meters":22800,"station_id":"ce4bhnh2rcd13ifvqgtg","pricing_plan_id":"free"},{"bike_id":"425f9578-de78-4e61-bdf4-7cfac3cad89a","system_id":"levelo_inurba_marseille","lat":43.279465,"lon":5.410561,"is_reserved":false,"is_disabled":false,"rental_uris":{"android":"levelo://app?vid=425f9578-de78-4e61-bdf4-7cfac3cad89a","ios":"levelo://app?vid=425f9578-de78-4e61-bdf4-7cfac3cad89a"},"vehicle_type_id":"4","last_reported":1704139651,"current_range_meters":24400,"station_id":"ce4bhnp2rcd13ifvqh0g","pricing_plan_id":"free"},{"bike_id":"16f3e93b-e8e5-42e9-b40b-cc09f3cfcf58","system_id":"levelo_inurba_marseille","lat":43.269319,"lon":5.389397,"is_reserved":false,"is_disabled":false,"rental_uris":{"android":"levelo://app?vid=16f3e93b-e8e5-42e9-b40b-cc09f3cfcf58","ios":"levelo://app?vid=16f3e93b-e8e5-42e9-b40b-cc09f3cfcf58"},"vehicle_type_id":"4","last_reported":1704139651,"current_range_meters":20000,"station_id":"ce4bhhh2rcd13ifvqfl0","pricing_plan_id":"free"},{"bike_id":"380d9360-6b9b-4853-a72a-3b851d8ded78","system_id":"levelo_inurba_marseille","lat":43.269319,"lon":5.389397,"is_reserved":false,"is_disabled":false,"rental_uris":{"android":"levelo://app?vid=380d9360-6b9b-4853-a72a-3b851d8ded78","ios":"levelo://app?vid=380d9360-6b9b-4853-a72a-3b851d8ded78"},"vehicle_type_id":"4","last_reported":1704139651,"current_range_meters":22800,"station_id":"ce4bhhh2rcd13ifvqfl0","pricing_plan_id":"free"},{"bike_id":"1d00931f-8544-46ac-865d-6963fa7bf93d","system_id":"levelo_inurba_marseille","lat":43.267966,"lon":5.393976,"is_reserved":false,"is_disabled":false,"rental_uris":{"android":"levelo://app?vid=1d00931f-8544-46ac-865d-6963fa7bf93d","ios":"levelo://app?vid=1d00931f-8544-46ac-865d-6963fa7bf93d"},"vehicle_type_id":"4","last_reported":1704139651,"current_range_meters":20000,"station_id":"ce4bhh12rcd13ifvqfg0","pricing_plan_id":"free"},{"bike_id":"4e7b82a4-f271-4a72-bdbd-460d1cfbd58d","system_id":"levelo_inurba_marseille","lat":43.27181,"lon":5.404997,"is_reserved":false,"is_disabled":false,"rental_uris":{"android":"levelo://app?vid=4e7b82a4-f271-4a72-bdbd-460d1cfbd58d","ios":"levelo://app?vid=4e7b82a4-f271-4a72-bdbd-460d1cfbd58d"},"vehicle_type_id":"4","last_reported":1704139651,"current_range_meters":8400,"station_id":"","pricing_plan_id":"free"},{"bike_id":"4acdea58-b679-4180-9812-65bb718e8387","system_id":"levelo_inurba_marseille","lat":43.308051,"lon":5.43527,"is_reserved":false,"is_disabled":false,"rental_uris":{"android":"levelo://app?vid=4acdea58-b679-4180-9812-65bb718e8387","ios":"levelo://app?vid=4acdea58-b679-4180-9812-65bb718e8387"},"vehicle_type_id":"4","last_reported":1704139651,"current_range_meters":18800,"station_id":"ce4bhph2rcd13ifvqheg","pricing_plan_id":"free"},{"bike_id":"e8dfbbad-95af-45d8-926a-e01b199b4fdd","system_id":"levelo_inurba_marseille","lat":43.265571,"lon":5.390032,"is_reserved":false,"is_disabled":false,"rental_uris":{"android":"levelo://app?vid=e8dfbbad-95af-45d8-926a-e01b199b4fdd","ios":"levelo://app?vid=e8dfbbad-95af-45d8-926a-e01b199b4fdd"},"vehicle_type_id":"4","last_reported":1704139651,"current_range_meters":11600,"station_id":"ce4bhe12rcd13ifvqf30","pricing_plan_id":"free"},{"bike_id":"45730320-d888-42aa-bc60-ab4966459db6","system_id":"levelo_inurba_marseille","lat":43.265571,"lon":5.390032,"is_reserved":false,"is_disabled":false,"rental_uris":{"android":"levelo://app?vid=45730320-d888-42aa-bc60-ab4966459db6","ios":"levelo://app?vid=45730320-d888-42aa-bc60-ab4966459db6"},"vehicle_type_id":"4","last_reported":1704139651,"current_range_meters":2000,"station_id":"ce4bhe12rcd13ifvqf30","pricing_plan_id":"free"},{"bike_id":"0109619f-e50e-476e-b2db-0b861cb046c1","system_id":"levelo_inurba_marseille","lat":43.265571,"lon":5.390032,"is_reserved":false,"is_disabled":false,"rental_uris":{"android":"levelo://app?vid=0109619f-e50e-476e-b2db-0b861cb046c1","ios":"levelo://app?vid=0109619f-e50e-476e-b2db-0b861cb046c1"},"vehicle_type_id":"4","last_reported":1704139651,"current_range_meters":9600,"station_id":"ce4bhe12rcd13ifvqf30","pricing_plan_id":"free"},{"bike_id":"1f4c63f7-d8cf-4821-b24d-6d76ed9b0ef8","system_id":"levelo_inurba_marseille","lat":43.308051,"lon":5.43527,"is_reserved":false,"is_disabled":false,"rental_uris":{"android":"levelo://app?vid=1f4c63f7-d8cf-4821-b24d-6d76ed9b0ef8","ios":"levelo://app?vid=1f4c63f7-d8cf-4821-b24d-6d76ed9b0ef8"},"vehicle_type_id":"4","last_reported":1704139651,"current_range_meters":5200,"station_id":"ce4bhph2rcd13ifvqheg","pricing_plan_id":"free"},{"bike_id":"0a414c3e-b68e-4ac4-b207-e3ea0ff06ae4","system_id":"levelo_inurba_marseille","lat":43.26949,"lon":5.40262,"is_reserved":false,"is_disabled":false,"rental_uris":{"android":"levelo://app?vid=0a414c3e-b68e-4ac4-b207-e3ea0ff06ae4","ios":"levelo://app?vid=0a414c3e-b68e-4ac4-b207-e3ea0ff06ae4"},"vehicle_type_id":"4","last_reported":1704139651,"current_range_meters":26800,"station_id":"cjm6bp8fraef2m0cb0m0","pricing_plan_id":"free"},{"bike_id":"dac5ea74-92f7-462e-b536-31f322bb01c0","system_id":"levelo_inurba_marseille","lat":43.331893,"lon":5.431791,"is_reserved":false,"is_disabled":false,"rental_uris":{"android":"levelo://app?vid=dac5ea74-92f7-462e-b536-31f322bb01c0","ios":"levelo://app?vid=dac5ea74-92f7-462e-b536-31f322bb01c0"},"vehicle_type_id":"4","last_reported":1704139651,"current_range_meters":6400,"station_id":"","pricing_plan_id":"free"},{"bike_id":"8c7df74b-a509-49f1-af95-b0a69adf8f56","system_id":"levelo_inurba_marseille","lat":43.317104,"lon":5.436818,"is_reserved":false,"is_disabled":false,"rental_uris":{"android":"levelo://app?vid=8c7df74b-a509-49f1-af95-b0a69adf8f56","ios":"levelo://app?vid=8c7df74b-a509-49f1-af95-b0a69adf8f56"},"vehicle_type_id":"4","last_reported":1704139651,"current_range_meters":31200,"station_id":"ce4bhp92rcd13ifvqhcg","pricing_plan_id":"free"},{"bike_id":"489ffe0a-afca-40a9-8027-23373921263c","system_id":"levelo_inurba_marseille","lat":43.271388,"lon":5.409269,"is_reserved":false,"is_disabled":false,"rental_uris":{"android":"levelo://app?vid=489ffe0a-afca-40a9-8027-23373921263c","ios":"levelo://app?vid=489ffe0a-afca-40a9-8027-23373921263c"},