{"last_updated":1778417620,"ttl":60,"version":"2.2","data":{"bikes":[{"bike_id":"ef4c0d2f-d37c-409b-be4c-7cceaa4aabfa","system_id":"levelo_inurba_marseille","lat":43.28468,"lon":5.48395,"is_reserved":false,"is_disabled":false,"rental_uris":{"android":"levelo://app?vid=ef4c0d2f-d37c-409b-be4c-7cceaa4aabfa","ios":"levelo://app?vid=ef4c0d2f-d37c-409b-be4c-7cceaa4aabfa"},"vehicle_type_id":"4","last_reported":1778417621,"current_range_meters":2800,"station_id":"","pricing_plan_id":"cebpf4jnsgd1na2vs0mg"},{"bike_id":"e6bd8138-3d56-4ae6-9878-8794caa087c5","system_id":"levelo_inurba_marseille","lat":43.24473,"lon":5.42545,"is_reserved":false,"is_disabled":true,"rental_uris":{"android":"levelo://app?vid=e6bd8138-3d56-4ae6-9878-8794caa087c5","ios":"levelo://app?vid=e6bd8138-3d56-4ae6-9878-8794caa087c5"},"vehicle_type_id":"4","last_reported":1778417621,"current_range_meters":2800,"station_id":"st_d4a3vfp97mjs738cd8kg","pricing_plan_id":"cebpf4jnsgd1na2vs0mg"},{"bike_id":"59367e27-6902-48cc-a012-aadb8f935bf1","system_id":"levelo_inurba_marseille","lat":43.26489,"lon":5.39552,"is_reserved":false,"is_disabled":false,"rental_uris":{"android":"levelo://app?vid=59367e27-6902-48cc-a012-aadb8f935bf1","ios":"levelo://app?vid=59367e27-6902-48cc-a012-aadb8f935bf1"},"vehicle_type_id":"4","last_reported":1778417621,"current_range_meters":2800,"station_id":"ce4bhi12rcd13ifvqfq0","pricing_plan_id":"cebpf4jnsgd1na2vs0mg"},{"bike_id":"0d9bf8ec-fef0-4863-9d9f-2c186422ebbd","system_id":"levelo_inurba_marseille","lat":43.2894,"lon":5.36646,"is_reserved":false,"is_disabled":false,"rental_uris":{"android":"levelo://app?vid=0d9bf8ec-fef0-4863-9d9f-2c186422ebbd","ios":"levelo://app?vid=0d9bf8ec-fef0-4863-9d9f-2c186422ebbd"},"vehicle_type_id":"4","last_reported":1778417621,"current_range_meters":2800,"station_id":"ce4bhap2rcd13ifvqek0","pricing_plan_id":"cebpf4jnsgd1na2vs0mg"},{"bike_id":"80ce62aa-95db-4134-a27f-af6f321881d8","system_id":"levelo_inurba_marseille","lat":43.3303,"lon":5.39033,"is_reserved":false,"is_disabled":false,"rental_uris":{"android":"levelo://app?vid=80ce62aa-95db-4134-a27f-af6f321881d8","ios":"levelo://app?vid=80ce62aa-95db-4134-a27f-af6f321881d8"},"vehicle_type_id":"4","last_reported":1778417621,"current_range_meters":2800,"station_id":"ce4bhr92rcd13ifvqhrg","pricing_plan_id":"cebpf4jnsgd1na2vs0mg"},{"bike_id":"22734838-df81-491d-9e42-8951d7ea9f37","system_id":"levelo_inurba_marseille","lat":43.27047,"lon":5.4226,"is_reserved":false,"is_disabled":false,"rental_uris":{"android":"levelo://app?vid=22734838-df81-491d-9e42-8951d7ea9f37","ios":"levelo://app?vid=22734838-df81-491d-9e42-8951d7ea9f37"},"vehicle_type_id":"4","last_reported":1778417621,"current_range_meters":2800,"station_id":"ce4bhk92rcd13ifvqgb0","pricing_plan_id":"cebpf4jnsgd1na2vs0mg"},{"bike_id":"136865c1-861e-4808-bdd6-86bfc13f7ee6","system_id":"levelo_inurba_marseille","lat":43.24675,"lon":5.41786,"is_reserved":false,"is_disabled":false,"rental_uris":{"android":"levelo://app?vid=136865c1-861e-4808-bdd6-86bfc13f7ee6","ios":"levelo://app?vid=136865c1-861e-4808-bdd6-86bfc13f7ee6"},"vehicle_type_id":"4","last_reported":1778417621,"current_range_meters":2800,"station_id":"","pricing_plan_id":"cebpf4jnsgd1na2vs0mg"},{"bike_id":"0905bf26-d1df-4967-bcf7-a2c7f347956a","system_id":"levelo_inurba_marseille","lat":43.28954,"lon":5.39632,"is_reserved":false,"is_disabled":true,"rental_uris":{"android":"levelo://app?vid=0905bf26-d1df-4967-bcf7-a2c7f347956a","ios":"levelo://app?vid=0905bf26-d1df-4967-bcf7-a2c7f347956a"},"vehicle_type_id":"4","last_reported":1778417621,"current_range_meters":3200,"station_id":"ce4bh3h2rcd13ifvqdn0","pricing_plan_id":"cebpf4jnsgd1na2vs0mg"},{"bike_id":"7eb2b478-c255-4368-b1eb-66e0e2af9eed","system_id":"levelo_inurba_marseille","lat":43.29314,"lon":5.37138,"is_reserved":false,"is_disabled":true,"rental_uris":{"android":"levelo://app?vid=7eb2b478-c255-4368-b1eb-66e0e2af9eed","ios":"levelo://app?vid=7eb2b478-c255-4368-b1eb-66e0e2af9eed"},"vehicle_type_id":"4","last_reported":1778417621,"current_range_meters":3200,"station_id":"ce4bgh92rcd13ifvqb40","pricing_plan_id":"cebpf4jnsgd1na2vs0mg"},{"bike_id":"b1eefa37-96ae-4f95-a344-438091e1d04d","system_id":"levelo_inurba_marseille","lat":43.31043,"lon":5.39393,"is_reserved":false,"is_disabled":false,"rental_uris":{"android":"levelo://app?vid=b1eefa37-96ae-4f95-a344-438091e1d04d","ios":"levelo://app?vid=b1eefa37-96ae-4f95-a344-438091e1d04d"},"vehicle_type_id":"4","last_reported":1778417621,"current_range_meters":3200,"station_id":"","pricing_plan_id":"cebpf4jnsgd1na2vs0mg"},{"bike_id":"22bbb124-6e20-4369-8d4f-79f7a2d5ba7a","system_id":"levelo_inurba_marseille","lat":43.2922,"lon":5.36065,"is_reserved":false,"is_disabled":false,"rental_uris":{"android":"levelo://app?vid=22bbb124-6e20-4369-8d4f-79f7a2d5ba7a","ios":"levelo://app?vid=22bbb124-6e20-4369-8d4f-79f7a2d5ba7a"},"vehicle_type_id":"4","last_reported":1778417621,"current_range_meters":3200,"station_id":"ce4bhbh2rcd13ifvqeqg","pricing_plan_id":"cebpf4jnsgd1na2vs0mg"},{"bike_id":"ccd1a2ac-4dc0-4f04-8e1b-6cb5116d549f","system_id":"levelo_inurba_marseille","lat":43.2119,"lon":5.35074,"is_reserved":false,"is_disabled":false,"rental_uris":{"android":"levelo://app?vid=ccd1a2ac-4dc0-4f04-8e1b-6cb5116d549f","ios":"levelo://app?vid=ccd1a2ac-4dc0-4f04-8e1b-6cb5116d549f"},"vehicle_type_id":"4","last_reported":1778417621,"current_range_meters":3200,"station_id":"st_cvj6sg6p6f1abm77japg","pricing_plan_id":"cebpf4jnsgd1na2vs0mg"},{"bike_id":"434b844d-3701-4f6b-b586-f90d25e5d1f0","system_id":"levelo_inurba_marseille","lat":43.30075,"lon":5.37858,"is_reserved":false,"is_disabled":false,"rental_uris":{"android":"levelo://app?vid=434b844d-3701-4f6b-b586-f90d25e5d1f0","ios":"levelo://app?vid=434b844d-3701-4f6b-b586-f90d25e5d1f0"},"vehicle_type_id":"4","last_reported":1778417621,"current_range_meters":3200,"station_id":"","pricing_plan_id":"cebpf4jnsgd1na2vs0mg"},{"bike_id":"67c2e277-81ff-4034-b271-b8737c1c913c","system_id":"levelo_inurba_marseille","lat":43.30555,"lon":5.36547,"is_reserved":false,"is_disabled":false,"rental_uris":{"android":"levelo://app?vid=67c2e277-81ff-4034-b271-b8737c1c913c","ios":"levelo://app?vid=67c2e277-81ff-4034-b271-b8737c1c913c"},"vehicle_type_id":"4","last_reported":1778417621,"current_range_meters":3200,"station_id":"ce4bgs12rcd13ifvqcag","pricing_plan_id":"cebpf4jnsgd1na2vs0mg"},{"bike_id":"7a404af4-6fca-4b7d-9016-256a230c7365","system_id":"levelo_inurba_marseille","lat":43.295338,"lon":5.385452,"is_reserved":false,"is_disabled":false,"rental_uris":{"android":"levelo://app?vid=7a404af4-6fca-4b7d-9016-256a230c7365","ios":"levelo://app?vid=7a404af4-6fca-4b7d-9016-256a230c7365"},"vehicle_type_id":"4","last_reported":1778417621,"current_range_meters":3200,"station_id":"ce4bgih2rcd13ifvqba0","pricing_plan_id":"cebpf4jnsgd1na2vs0mg"},{"bike_id":"627ea465-4e71-4046-a508-023e31352421","system_id":"levelo_inurba_marseille","lat":43.25073,"lon":5.40422,"is_reserved":false,"is_disabled":false,"rental_uris":{"android":"levelo://app?vid=627ea465-4e71-4046-a508-023e31352421","ios":"levelo://app?vid=627ea465-4e71-4046-a508-023e31352421"},"vehicle_type_id":"4","last_reported":1778417621,"current_range_meters":3200,"station_id":"","pricing_plan_id":"cebpf4jnsgd1na2vs0mg"},{"bike_id":"195b9449-8040-48fa-9486-994ae744add7","system_id":"levelo_inurba_marseille","lat":43.292248,"lon":5.360639,"is_reserved":false,"is_disabled":false,"rental_uris":{"android":"levelo://app?vid=195b9449-8040-48fa-9486-994ae744add7","ios":"levelo://app?vid=195b9449-8040-48fa-9486-994ae744add7"},"vehicle_type_id":"4","last_reported":1778417621,"current_range_meters":3200,"station_id":"ce4bhbh2rcd13ifvqeqg","pricing_plan_id":"cebpf4jnsgd1na2vs0mg"},{"bike_id":"4acb43ed-3642-4736-9baa-453b9005f3a4","system_id":"levelo_inurba_marseille","lat":43.29579,"lon":5.38753,"is_reserved":false,"is_disabled":false,"rental_uris":{"android":"levelo://app?vid=4acb43ed-3642-4736-9baa-453b9005f3a4","ios":"levelo://app?vid=4acb43ed-3642-4736-9baa-453b9005f3a4"},"vehicle_type_id":"4","last_reported":1778417621,"current_range_meters":3200,"station_id":"","pricing_plan_id":"cebpf4jnsgd1na2vs0mg"},{"bike_id":"234d937c-0a51-4b7b-a5da-54c58b1cfe2d","system_id":"levelo_inurba_marseille","lat":43.30598,"lon":5.36651,"is_reserved":false,"is_disabled":true,"rental_uris":{"android":"levelo://app?vid=234d937c-0a51-4b7b-a5da-54c58b1cfe2d","ios":"levelo://app?vid=234d937c-0a51-4b7b-a5da-54c58b1cfe2d"},"vehicle_type_id":"4","last_reported":1778417621,"current_range_meters":3600,"station_id":"","pricing_plan_id":"cebpf4jnsgd1na2vs0mg"},{"bike_id":"cdd278be-6985-4e01-a1e8-4899861427d9","system_id":"levelo_inurba_marseille","lat":43.2582,"lon":5.39437,"is_reserved":false,"is_disabled":false,"rental_uris":{"android":"levelo://app?vid=cdd278be-6985-4e01-a1e8-4899861427d9","ios":"levelo://app?vid=cdd278be-6985-4e01-a1e8-4899861427d9"},"vehicle_type_id":"4","last_reported":1778417621,"current_range_meters":3600,"station_id":"ce4bhip2rcd13ifvqft0","pricing_plan_id":"cebpf4jnsgd1na2vs0mg"},{"bike_id":"f422b51e-1ef9-42a2-8365-1d33f807a8e0","system_id":"levelo_inurba_marseille","lat":43.239,"lon":5.37463,"is_reserved":false,"is_disabled":true,"rental_uris":{"android":"levelo://app?vid=f422b51e-1ef9-42a2-8365-1d33f807a8e0","ios":"levelo://app?vid=f422b51e-1ef9-42a2-8365-1d33f807a8e0"},"vehicle_type_id":"4","last_reported":1778417621,"current_range_meters":3600,"station_id":"st_d6sm7csbq4hs73f8fpjg","pricing_plan_id":"cebpf4jnsgd1na2vs0mg"},{"bike_id":"74a938f2-f578-4294-9976-174677fe2f35","system_id":"levelo_inurba_marseille","lat":43.29503,"lon":5.43307,"is_reserved":false,"is_disabled":false,"rental_uris":{"android":"levelo://app?vid=74a938f2-f578-4294-9976-174677fe2f35","ios":"levelo://app?vid=74a938f2-f578-4294-9976-174677fe2f35"},"vehicle_type_id":"4","last_reported":1778417621,"current_range_meters":3600,"station_id":"st_d3j5ugp08ojc73fj9d10","pricing_plan_id":"cebpf4jnsgd1na2vs0mg"},{"bike_id":"6727ee62-68d3-4ad0-a46c-4c83d02d4dd2","system_id":"levelo_inurba_marseille","lat":43.29254,"lon":5.38439,"is_reserved":false,"is_disabled":false,"rental_uris":{"android":"levelo://app?vid=6727ee62-68d3-4ad0-a46c-4c83d02d4dd2","ios":"levelo://app?vid=6727ee62-68d3-4ad0-a46c-4c83d02d4dd2"},"vehicle_type_id":"4","last_reported":1778417621,"current_range_meters":3600,"station_id":"ce4bh692rcd13ifvqea0","pricing_plan_id":"cebpf4jnsgd1na2vs0mg"},{"bike_id":"8b44ba2e-1d6c-43b5-a876-15143d2a8370","system_id":"levelo_inurba_marseille","lat":43.25344,"lon":5.42157,"is_reserved":false,"is_disabled":false,"rental_uris":{"android":"levelo://app?vid=8b44ba2e-1d6c-43b5-a876-15143d2a8370","ios":"levelo://app?vid=8b44ba2e-1d6c-43b5-a876-15143d2a8370"},"vehicle_type_id":"4","last_reported":1778417621,"current_range_meters":4000,"station_id":"st_d2m65c5bi1j21697t3ng","pricing_plan_id":"cebpf4jnsgd1na2vs0mg"},{"bike_id":"97f964d8-1b4e-4439-a5e5-5bf9eca1819d","system_id":"levelo_inurba_marseille","lat":43.26382,"lon":5.41073,"is_reserved":false,"is_disabled":false,"rental_uris":{"android":"levelo://app?vid=97f964d8-1b4e-4439-a5e5-5bf9eca1819d","ios":"levelo://app?vid=97f964d8-1b4e-4439-a5e5-5bf9eca1819d"},"vehicle_type_id":"4","last_reported":1778417621,"current_range_meters":4000,"station_id":"st_d4e5ca6na9uc73bfl5fg","pricing_plan_id":"cebpf4jnsgd1na2vs0mg"},{"bike_id":"959457cd-ffeb-435f-abd7-e609cfbc4e6a","system_id":"levelo_inurba_marseille","lat":43.27454,"lon":5.41626,"is_reserved":false,"is_disabled":false,"rental_uris":{"android":"levelo://app?vid=959457cd-ffeb-435f-abd7-e609cfbc4e6a","ios":"levelo://app?vid=959457cd-ffeb-435f-abd7-e609cfbc4e6a"},"vehicle_type_id":"4","last_reported":1778417621,"current_range_meters":4000,"station_id":"st_d6im8g6chgec73a5pndg","pricing_plan_id":"cebpf4jnsgd1na2vs0mg"},{"bike_id":"531ee511-6f3d-455f-ae7f-c006a9c98a90","system_id":"levelo_inurba_marseille","lat":43.225387,"lon":5.348394,"is_reserved":false,"is_disabled":false,"rental_uris":{"android":"levelo://app?vid=531ee511-6f3d-455f-ae7f-c006a9c98a90","ios":"levelo://app?vid=531ee511-6f3d-455f-ae7f-c006a9c98a90"},"vehicle_type_id":"4","last_reported":1778417621,"current_range_meters":4000,"station_id":"st_cvj5dfep6f1abm77gieg","pricing_plan_id":"cebpf4jnsgd1na2vs0mg"},{"bike_id":"2a1755c6-621b-4ee0-b02e-fcd7e30106ff","system_id":"levelo_inurba_marseille","lat":43.29806,"lon":5.39354,"is_reserved":false,"is_disabled":true,"rental_uris":{"android":"levelo://app?vid=2a1755c6-621b-4ee0-b02e-fcd7e30106ff","ios":"levelo://app?vid=2a1755c6-621b-4ee0-b02e-fcd7e30106ff"},"vehicle_type_id":"4","last_reported":1778417621,"current_range_meters":4000,"station_id":"chh1huq6cuj3fo74tm60","pricing_plan_id":"cebpf4jnsgd1na2vs0mg"},{"bike_id":"3c5f0f52-deec-4478-b1b8-43df5890b0b6","system_id":"levelo_inurba_marseille","lat":43.23976,"lon":5.36605,"is_reserved":false,"is_disabled":false,"rental_uris":{"android":"levelo://app?vid=3c5f0f52-deec-4478-b1b8-43df5890b0b6","ios":"levelo://app?vid=3c5f0f52-deec-4478-b1b8-43df5890b0b6"},"vehicle_type_id":"4","last_reported":1778417621,"current_range_meters":4000,"station_id":"ce4bhi12rcd13ifvqfp0","pricing_plan_id":"cebpf4jnsgd1na2vs0mg"},{"bike_id":"80b9e211-badd-4f7e-a66f-384437473295","system_id":"levelo_inurba_marseille","lat":43.24168,"lon":5.3973,"is_reserved":false,"is_disabled":false,"rental_uris":{"android":"levelo://app?vid=80b9e211-badd-4f7e-a66f-384437473295","ios":"levelo://app?vid=80b9e211-badd-4f7e-a66f-384437473295"},"vehicle_type_id":"4","last_reported":1778417621,"current_range_meters":4000,"station_id":"ce4bhn12rcd13ifvqgpg","pricing_plan_id":"cebpf4jnsgd1na2vs0mg"},{"bike_id":"14590d34-d62f-459d-8e18-ff6401b40c6f","system_id":"levelo_inurba_marseille","lat":43.26942,"lon":5.3862,"is_reserved":false,"is_disabled":false,"rental_uris":{"android":"levelo://app?vid=14590d34-d62f-459d-8e18-ff6401b40c6f","ios":"levelo://app?vid=14590d34-d62f-459d-8e18-ff6401b40c6f"},"vehicle_type_id":"4","last_reported":1778417621,"current_range_meters":4000,"station_id":"ce4bhh92rcd13ifvqfh0","pricing_plan_id":"cebpf4jnsgd1na2vs0mg"},{"bike_id":"b8425fa1-a298-4679-ba8a-777546e14eca","system_id":"levelo_inurba_marseille","lat":43.33762,"lon":5.37441,"is_reserved":false,"is_disabled":false,"rental_uris":{"android":"levelo://app?vid=b8425fa1-a298-4679-ba8a-777546e14eca","ios":"levelo://app?vid=b8425fa1-a298-4679-ba8a-777546e14eca"},"vehicle_type_id":"4","last_reported":1778417621,"current_range_meters":4000,"station_id":"","pricing_plan_id":"cebpf4jnsgd1na2vs0mg"},{"bike_id":"db150a82-2da9-4ad5-ac02-452f8474e780","system_id":"levelo_inurba_marseille","lat":43.26206,"lon":5.37919,"is_reserved":false,"is_disabled":true,"rental_uris":{"android":"levelo://app?vid=db150a82-2da9-4ad5-ac02-452f8474e780","ios":"levelo://app?vid=db150a82-2da9-4ad5-ac02-452f8474e780"},"vehicle_type_id":"4","last_reported":1778417621,"current_range_meters":4000,"station_id":"ce4bhjp2rcd13ifvqg90","pricing_plan_id":"cebpf4jnsgd1na2vs0mg"},{"bike_id":"02ca854b-9eb5-4b3b-9aed-30ac625b84d4","system_id":"levelo_inurba_marseille","lat":43.31368,"lon":5.36725,"is_reserved":false,"is_disabled":true,"rental_uris":{"android":"levelo://app?vid=02ca854b-9eb5-4b3b-9aed-30ac625b84d4","ios":"levelo://app?vid=02ca854b-9eb5-4b3b-9aed-30ac625b84d4"},"vehicle_type_id":"4","last_reported":1778417621,"current_range_meters":4000,"station_id":"ce4bgr92rcd13ifvqc6g","pricing_plan_id":"cebpf4jnsgd1na2vs0mg"},{"bike_id":"723180a2-46e6-40de-8f0a-9b3af8fce124","system_id":"levelo_inurba_marseille","lat":43.23775,"lon":5.36633,"is_reserved":false,"is_disabled":false,"rental_uris":{"android":"levelo://app?vid=723180a2-46e6-40de-8f0a-9b3af8fce124","ios":"levelo://app?vid=723180a2-46e6-40de-8f0a-9b3af8fce124"},"vehicle_type_id":"4","last_reported":1778417621,"current_range_meters":4000,"station_id":"st_d3nk18o9ro0c73en2l3g","pricing_plan_id":"cebpf4jnsgd1na2vs0mg"},{"bike_id":"6b7675e6-d04f-42d7-9fe7-c32199e2e9e3","system_id":"levelo_inurba_marseille","lat":43.29619,"lon":5.37164,"is_reserved":false,"is_disabled":false,"rental_uris":{"android":"levelo://app?vid=6b7675e6-d04f-42d7-9fe7-c32199e2e9e3","ios":"levelo://app?vid=6b7675e6-d04f-42d7-9fe7-c32199e2e9e3"},"vehicle_type_id":"4","last_reported":1778417621,"current_range_meters":4000,"station_id":"ce4bgnh2rcd13ifvqc0g","pricing_plan_id":"cebpf4jnsgd1na2vs0mg"},{"bike_id":"76645867-9226-4148-a6ac-b7d91fe256ae","system_id":"levelo_inurba_marseille","lat":43.299133,"lon":5.374859,"is_reserved":false,"is_disabled":true,"rental_uris":{"android":"levelo://app?vid=76645867-9226-4148-a6ac-b7d91fe256ae","ios":"levelo://app?vid=76645867-9226-4148-a6ac-b7d91fe256ae"},"vehicle_type_id":"4","last_reported":1778417621,"current_range_meters":4000,"station_id":"","pricing_plan_id":"cebpf4jnsgd1na2vs0mg"},{"bike_id":"e5feed15-8db1-47a8-8323-a079b9617b52","system_id":"levelo_inurba_marseille","lat":43.29579,"lon":5.36743,"is_reserved":false,"is_disabled":false,"rental_uris":{"android":"levelo://app?vid=e5feed15-8db1-47a8-8323-a079b9617b52","ios":"levelo://app?vid=e5feed15-8db1-47a8-8323-a079b9617b52"},"vehicle_type_id":"4","last_reported":1778417621,"current_range_meters":4400,"station_id":"ce4bgph2rcd13ifvqc2g","pricing_plan_id":"cebpf4jnsgd1na2vs0mg"},{"bike_id":"2c9fba92-20e2-4f2d-8eb4-a2a2054f36dd","system_id":"levelo_inurba_marseille","lat":43.26583,"lon":5.39014,"is_reserved":false,"is_disabled":false,"rental_uris":{"android":"levelo://app?vid=2c9fba92-20e2-4f2d-8eb4-a2a2054f36dd","ios":"levelo://app?vid=2c9fba92-20e2-4f2d-8eb4-a2a2054f36dd"},"vehicle_type_id":"4","last_reported":1778417621,"current_range_meters":4400,"station_id":"ce4bhe12rcd13ifvqf30","pricing_plan_id":"cebpf4jnsgd1na2vs0mg"},{"bike_id":"6a744027-b77e-4cfc-92a9-0c921e8c8485","system_id":"levelo_inurba_marseille","lat":43.23194,"lon":5.3999,"is_reserved":false,"is_disabled":false,"rental_uris":{"android":"levelo://app?vid=6a744027-b77e-4cfc-92a9-0c921e8c8485","ios":"levelo://app?vid=6a744027-b77e-4cfc-92a9-0c921e8c8485"},"vehicle_type_id":"4","last_reported":1778417621,"current_range_meters":4800,"station_id":"ce4bhn12rcd13ifvqgqg","pricing_plan_id":"cebpf4jnsgd1na2vs0mg"},{"bike_id":"4f2b66b9-d2be-480c-a44a-c9a32982cb61","system_id":"levelo_inurba_marseille","lat":43.286647,"lon":5.383252,"is_reserved":false,"is_disabled":true,"rental_uris":{"android":"levelo://app?vid=4f2b66b9-d2be-480c-a44a-c9a32982cb61","ios":"levelo://app?vid=4f2b66b9-d2be-480c-a44a-c9a32982cb61"},"vehicle_type_id":"4","last_reported":1778417621,"current_range_meters":4800,"station_id":"ce4bh192rcd13ifvqdd0","pricing_plan_id":"cebpf4jnsgd1na2vs0mg"},{"bike_id":"d9ef7576-95cc-4eb4-afb7-35f5b4fefa6e","system_id":"levelo_inurba_marseille","lat":43.30611,"lon":5.39342,"is_reserved":false,"is_disabled":true,"rental_uris":{"android":"levelo://app?vid=d9ef7576-95cc-4eb4-afb7-35f5b4fefa6e","ios":"levelo://app?vid=d9ef7576-95cc-4eb4-afb7-35f5b4fefa6e"},"vehicle_type_id":"4","last_reported":1778417621,"current_range_meters":4800,"station_id":"ce4bh0p2rcd13ifvqd80","pricing_plan_id":"cebpf4jnsgd1na2vs0mg"},{"bike_id":"0a517897-1481-464c-a297-fc37db476b67","system_id":"levelo_inurba_marseille","lat":43.32094,"lon":5.36784,"is_reserved":false,"is_disabled":false,"rental_uris":{"android":"levelo://app?vid=0a517897-1481-464c-a297-fc37db476b67","ios":"levelo://app?vid=0a517897-1481-464c-a297-fc37db476b67"},"vehicle_type_id":"4","last_reported":1778417621,"current_range_meters":4800,"station_id":"ce4bhrh2rcd13ifvqhug","pricing_plan_id":"cebpf4jnsgd1na2vs0mg"},{"bike_id":"32795945-afa6-4fab-a236-e6fc5b6d6f56","system_id":"levelo_inurba_marseille","lat":43.24188,"lon":5.3969,"is_reserved":false,"is_disabled":false,"rental_uris":{"android":"levelo://app?vid=32795945-afa6-4fab-a236-e6fc5b6d6f56","ios":"levelo://app?vid=32795945-afa6-4fab-a236-e6fc5b6d6f56"},"vehicle_type_id":"4","last_reported":1778417621,"current_range_meters":4800,"station_id":"ce4bhn12rcd13ifvqgpg","pricing_plan_id":"cebpf4jnsgd1na2vs0mg"},{"bike_id":"21d54a23-f5a6-4470-993a-1d0aaef89cb7","system_id":"levelo_inurba_marseille","lat":43.23907,"lon":5.37438,"is_reserved":false,"is_disabled":false,"rental_uris":{"android":"levelo://app?vid=21d54a23-f5a6-4470-993a-1d0aaef89cb7","ios":"levelo://app?vid=21d54a23-f5a6-4470-993a-1d0aaef89cb7"},"vehicle_type_id":"4","last_reported":1778417621,"current_range_meters":4800,"station_id":"st_d6sm7csbq4hs73f8fpjg","pricing_plan_id":"cebpf4jnsgd1na2vs0mg"},{"bike_id":"37a3a975-df75-4681-b40a-292731c8b235","system_id":"levelo_inurba_marseille","lat":43.3126,"lon":5.36787,"is_reserved":false,"is_disabled":false,"rental_uris":{"android":"levelo://app?vid=37a3a975-df75-4681-b40a-292731c8b235","ios":"levelo://app?vid=37a3a975-df75-4681-b40a-292731c8b235"},"vehicle_type_id":"4","last_reported":1778417621,"current_range_meters":4800,"station_id":"ce4bgl92rcd13ifvqbq0","pricing_plan_id":"cebpf4jnsgd1na2vs0mg"},{"bike_id":"8b2f527f-8def-4236-a93a-fafed41bb4fa","system_id":"levelo_inurba_marseille","lat":43.24079,"lon":5.37754,"is_reserved":false,"is_disabled":false,"rental_uris":{"android":"levelo://app?vid=8b2f527f-8def-4236-a93a-fafed41bb4fa","ios":"levelo://app?vid=8b2f527f-8def-4236-a93a-fafed41bb4fa"},"vehicle_type_id":"4","last_reported":1778417621,"current_range_meters":5600,"station_id":"ce4bhnp2rcd13ifvqgvg","pricing_plan_id":"cebpf4jnsgd1na2vs0mg"},{"bike_id":"24b614b1-21fe-4a2b-a521-7a850622da21","system_id":"levelo_inurba_marseille","lat":43.23961,"lon":5.36631,"is_reserved":false,"is_disabled":false,"rental_uris":{"android":"levelo://app?vid=24b614b1-21fe-4a2b-a521-7a850622da21","ios":"levelo://app?vid=24b614b1-21fe-4a2b-a521-7a850622da21"},"vehicle_type_id":"4","last_reported":1778417621,"current_range_meters":5600,"station_id":"ce4bhi12rcd13ifvqfp0","pricing_plan_id":"cebpf4jnsgd1na2vs0mg"},{"bike_id":"6185c6b4-782e-4ff8-b9f0-cc828921242d","system_id":"levelo_inurba_marseille","lat":43.27093,"lon":5.42277,"is_reserved":false,"is_disabled":false,"rental_uris":{"android":"levelo://app?vid=6185c6b4-782e-4ff8-b9f0-cc828921242d","ios":"levelo://app?vid=6185c6b4-782e-4ff8-b9f0-cc828921242d"},"vehicle_type_id":"4","last_reported":1778417621,"current_range_meters":5600,"station_id":"ce4bhk92rcd13ifvqgb0","pricing_plan_id":"cebpf4jnsgd1na2vs0mg"},{"bike_id":"02ff9fbc-bcee-4ec1-ba28-2ffabeaef12d","system_id":"levelo_inurba_marseille","lat":43.24462,"lon":5.4254,"is_reserved":false,"is_disabled":false,"rental_uris":{"android":"levelo://app?vid=02ff9fbc-bcee-4ec1-ba28-2ffabeaef12d","ios":"levelo://app?vid=02ff9fbc-bcee-4ec1-ba28-2ffabeaef12d"},"vehicle_type_id":"4","last_reported":1778417621,"current_range_meters":5600,"station_id":"st_d4a3vfp97mjs738cd8kg","pricing_plan_id":"cebpf4jnsgd1na2vs0mg"},{"bike_id":"0bff19b0-759c-4974-b971-6d7bfa56b685","system_id":"levelo_inurba_marseille","lat":43.2981,"lon":5.44055,"is_reserved":false,"is_disabled":false,"rental_uris":{"android":"levelo://app?vid=0bff19b0-759c-4974-b971-6d7bfa56b685","ios":"levelo://app?vid=0bff19b0-759c-4974-b971-6d7bfa56b685"},"vehicle_type_id":"4","last_reported":1778417621,"current_range_meters":5600,"station_id":"st_d3jp68qikq2c7381ktn0","pricing_plan_id":"cebpf4jnsgd1na2vs0mg"},{"bike_id":"6aac3783-57e1-4b8b-830c-35d0b6c20a86","system_id":"levelo_inurba_marseille","lat":43.28617,"lon":5.3512,"is_reserved":false,"is_disabled":false,"rental_uris":{"android":"levelo://app?vid=6aac3783-57e1-4b8b-830c-35d0b6c20a86","ios":"levelo://app?vid=6aac3783-57e1-4b8b-830c-35d0b6c20a86"},"vehicle_type_id":"4","last_reported":1778417621,"current_range_meters":5600,"station_id":"ce4bhch2rcd13ifvqeug","pricing_plan_id":"cebpf4jnsgd1na2vs0mg"},{"bike_id":"58f02a01-2d6b-42fb-b6cf-a6eb2f8162a4","system_id":"levelo_inurba_marseille","lat":43.26071,"lon":5.39637,"is_reserved":false,"is_disabled":false,"rental_uris":{"android":"levelo://app?vid=58f02a01-2d6b-42fb-b6cf-a6eb2f8162a4","ios":"levelo://app?vid=58f02a01-2d6b-42fb-b6cf-a6eb2f8162a4"},"vehicle_type_id":"4","last_reported":1778417621,"current_range_meters":5600,"station_id":"","pricing_plan_id":"cebpf4jnsgd1na2vs0mg"},{"bike_id":"c6bfec4c-1a68-47fc-b55a-b2b30d2b8a26","system_id":"levelo_inurba_marseille","lat":43.260256,"lon":5.375514,"is_reserved":false,"is_disabled":false,"rental_uris":{"android":"levelo://app?vid=c6bfec4c-1a68-47fc-b55a-b2b30d2b8a26","ios":"levelo://app?vid=c6bfec4c-1a68-47fc-b55a-b2b30d2b8a26"},"vehicle_type_id":"4","last_reported":1778417621,"current_range_meters":5600,"station_id":"ce4bhgh2rcd13ifvqfa0","pricing_plan_id":"cebpf4jnsgd1na2vs0mg"},{"bike_id":"808c4ecd-9bba-4ef5-91dc-62b4109dcc93","system_id":"levelo_inurba_marseille","lat":43.29541,"lon":5.3855,"is_reserved":false,"is_disabled":true,"rental_uris":{"android":"levelo://app?vid=808c4ecd-9bba-4ef5-91dc-62b4109dcc93","ios":"levelo://app?vid=808c4ecd-9bba-4ef5-91dc-62b4109dcc93"},"vehicle_type_id":"4","last_reported":1778417621,"current_range_meters":5600,"station_id":"ce4bgih2rcd13ifvqba0","pricing_plan_id":"cebpf4jnsgd1na2vs0mg"},{"bike_id":"0995efab-767d-445b-9eb8-2b7662b1bd82","system_id":"levelo_inurba_marseille","lat":43.27583,"lon":5.38411,"is_reserved":false,"is_disabled":false,"rental_uris":{"android":"levelo://app?vid=0995efab-767d-445b-9eb8-2b7662b1bd82","ios":"levelo://app?vid=0995efab-767d-445b-9eb8-2b7662b1bd82"},"vehicle_type_id":"4","last_reported":1778417621,"current_range_meters":5600,"station_id":"ce4bhh92rcd13ifvqfi0","pricing_plan_id":"cebpf4jnsgd1na2vs0mg"},{"bike_id":"ff41f028-e74e-477a-8abb-51c0d2444223","system_id":"levelo_inurba_marseille","lat":43.25115,"lon":5.40319,"is_reserved":false,"is_disabled":false,"rental_uris":{"android":"levelo://app?vid=ff41f028-e74e-477a-8abb-51c0d2444223","ios":"levelo://app?vid=ff41f028-e74e-477a-8abb-51c0d2444223"},"vehicle_type_id":"4","last_reported":1778417621,"current_range_meters":5600,"station_id":"ce4bhlh2rcd13ifvqgig","pricing_plan_id":"cebpf4jnsgd1na2vs0mg"},{"bike_id":"a6a60149-ea74-4dce-b409-ebc1a0b75a1f","system_id":"levelo_inurba_marseille","lat":43.30557,"lon":5.38442,"is_reserved":false,"is_disabled":true,"rental_uris":{"android":"levelo://app?vid=a6a60149-ea74-4dce-b409-ebc1a0b75a1f","ios":"levelo://app?vid=a6a60149-ea74-4dce-b409-ebc1a0b75a1f"},"vehicle_type_id":"4","last_reported":1778417621,"current_range_meters":5600,"station_id":"ce4bgg92rcd13ifvqb30","pricing_plan_id":"cebpf4jnsgd1na2vs0mg"},{"bike_id":"356d0e42-b55c-457d-ab9b-54ff4b66852d","system_id":"levelo_inurba_marseille","lat":43.28705,"lon":5.3793,"is_reserved":false,"is_disabled":true,"rental_uris":{"android":"levelo://app?vid=356d0e42-b55c-457d-ab9b-54ff4b66852d","ios":"levelo://app?vid=356d0e42-b55c-457d-ab9b-54ff4b66852d"},"vehicle_type_id":"4","last_reported":1778417621,"current_range_meters":5600,"station_id":"ce4bh9p2rcd13ifvqec0","pricing_plan_id":"cebpf4jnsgd1na2vs0mg"},{"bike_id":"3a7a6490-34c7-4e66-a967-52dc19722c9c","system_id":"levelo_inurba_marseille","lat":43.25393,"lon":5.3943,"is_reserved":false,"is_disabled":false,"rental_uris":{"android":"levelo://app?vid=3a7a6490-34c7-4e66-a967-52dc19722c9c","ios":"levelo://app?vid=3a7a6490-34c7-4e66-a967-52dc19722c9c"},"vehicle_type_id":"4","last_reported":1778417621,"current_range_meters":5600,"station_id":"","pricing_plan_id":"cebpf4jnsgd1na2vs0mg"},{"bike_id":"ecc1b93b-a121-40a6-a1a0-780ffc6b17a4","system_id":"levelo_inurba_marseille","lat":43.29095,"lon":5.40121,"is_reserved":false,"is_disabled":true,"rental_uris":{"android":"levelo://app?vid=ecc1b93b-a121-40a6-a1a0-780ffc6b17a4","ios":"levelo://app?vid=ecc1b93b-a121-40a6-a1a0-780ffc6b17a4"},"vehicle_type_id":"4","last_reported":1778417621,"current_range_meters":5600,"station_id":"","pricing_plan_id":"cebpf4jnsgd1na2vs0mg"},{"bike_id":"f30a7c82-07ca-48e2-b65a-bb0caebfaee2","system_id":"levelo_inurba_marseille","lat":43.28494,"lon":5.38434,"is_reserved":false,"is_disabled":false,"rental_uris":{"android":"levelo://app?vid=f30a7c82-07ca-48e2-b65a-bb0caebfaee2","ios":"levelo://app?vid=f30a7c82-07ca-48e2-b65a-bb0caebfaee2"},"vehicle_type_id":"4","last_reported":1778417621,"current_range_meters":6000,"station_id":"ce4bh512rcd13ifvqe3g","pricing_plan_id":"cebpf4jnsgd1na2vs0mg"},{"bike_id":"d6aa3b2f-3029-4676-9089-14b4fb6bf286","system_id":"levelo_inurba_marseille","lat":43.28681,"lon":5.46677,"is_reserved":false,"is_disabled":false,"rental_uris":{"android":"levelo://app?vid=d6aa3b2f-3029-4676-9089-14b4fb6bf286","ios":"levelo://app?vid=d6aa3b2f-3029-4676-9089-14b4fb6bf286"},"vehicle_type_id":"4","last_reported":1778417621,"current_range_meters":6000,"station_id":"st_d6tc3vkotcvc738tfjhg","pricing_plan_id":"cebpf4jnsgd1na2vs0mg"},{"bike_id":"e5f0fbb4-b8dc-4aa1-9466-61d5f4ac958f","system_id":"levelo_inurba_marseille","lat":43.29049,"lon":5.38116,"is_reserved":false,"is_disabled":true,"rental_uris":{"android":"levelo://app?vid=e5f0fbb4-b8dc-4aa1-9466-61d5f4ac958f","ios":"levelo://app?vid=e5f0fbb4-b8dc-4aa1-9466-61d5f4ac958f"},"vehicle_type_id":"4","last_reported":1778417621,"current_range_meters":6000,"station_id":"ce4bh4p2rcd13ifvqe1g","pricing_plan_id":"cebpf4jnsgd1na2vs0mg"},{"bike_id":"2a10f88f-9d4c-47c3-8c89-9fe21d53aeab","system_id":"levelo_inurba_marseille","lat":43.28413,"lon":5.37515,"is_reserved":false,"is_disabled":true,"rental_uris":{"android":"levelo://app?vid=2a10f88f-9d4c-47c3-8c89-9fe21d53aeab","ios":"levelo://app?vid=2a10f88f-9d4c-47c3-8c89-9fe21d53aeab"},"vehicle_type_id":"4","last_reported":1778417621,"current_range_meters":6000,"station_id":"ce4bh412rcd13ifvqds0","pricing_plan_id":"cebpf4jnsgd1na2vs0mg"},{"bike_id":"1a6c2568-b2fa-4c03-a8b7-04ff60ab04d0","system_id":"levelo_inurba_marseille","lat":43.30429,"lon":5.38892,"is_reserved":false,"is_disabled":true,"rental_uris":{"android":"levelo://app?vid=1a6c2568-b2fa-4c03-a8b7-04ff60ab04d0","ios":"levelo://app?vid=1a6c2568-b2fa-4c03-a8b7-04ff60ab04d0"},"vehicle_type_id":"4","last_reported":1778417621,"current_range_meters":6000,"station_id":"ce4bgk12rcd13ifvqbi0","pricing_plan_id":"cebpf4jnsgd1na2vs0mg"},{"bike_id":"f77f5025-4765-45b0-9e15-5eaf08d12138","system_id":"levelo_inurba_marseille","lat":43.30261,"lon":5.40055,"is_reserved":false,"is_disabled":false,"rental_uris":{"android":"levelo://app?vid=f77f5025-4765-45b0-9e15-5eaf08d12138","ios":"levelo://app?vid=f77f5025-4765-45b0-9e15-5eaf08d12138"},"vehicle_type_id":"4","last_reported":1778417621,"current_range_meters":6000,"station_id":"ce4bgvh2rcd13ifvqcs0","pricing_plan_id":"cebpf4jnsgd1na2vs0mg"},{"bike_id":"7038e266-7dfa-42fa-8e91-50f179aa7f0e","system_id":"levelo_inurba_marseille","lat":43.33572,"lon":5.37461,"is_reserved":false,"is_disabled":false,"rental_uris":{"android":"levelo://app?vid=7038e266-7dfa-42fa-8e91-50f179aa7f0e","ios":"levelo://app?vid=7038e266-7dfa-42fa-8e91-50f179aa7f0e"},"vehicle_type_id":"4","last_reported":1778417621,"current_range_meters":6000,"station_id":"st_d46tts09ee8s73dlu43g","pricing_plan_id":"cebpf4jnsgd1na2vs0mg"},{"bike_id":"ad824b62-ba8d-40e6-a073-14a810f8f6bf","system_id":"levelo_inurba_marseille","lat":43.26072,"lon":5.39399,"is_reserved":false,"is_disabled":false,"rental_uris":{"android":"levelo://app?vid=ad824b62-ba8d-40e6-a073-14a810f8f6bf","ios":"levelo://app?vid=ad824b62-ba8d-40e6-a073-14a810f8f6bf"},"vehicle_type_id":"4","last_reported":1778417621,"current_range_meters":6000,"station_id":"ce4bhh92rcd13ifvqfj0","pricing_plan_id":"cebpf4jnsgd1na2vs0mg"},{"bike_id":"5e1f5986-ff69-4a2b-bb48-a1076b1b32aa","system_id":"levelo_inurba_marseille","lat":43.29296,"lon":5.3743,"is_reserved":false,"is_disabled":false,"rental_uris":{"android":"levelo://app?vid=5e1f5986-ff69-4a2b-bb48-a1076b1b32aa","ios":"levelo://app?vid=5e1f5986-ff69-4a2b-bb48-a1076b1b32aa"},"vehicle_type_id":"4","last_reported":1778417621,"current_range_meters":6000,"station_id":"ce4bgi12rcd13ifvqb70","pricing_plan_id":"cebpf4jnsgd1na2vs0mg"},{"bike_id":"8351b836-b458-4e50-bd94-7b7b9083100d","system_id":"levelo_inurba_marseille","lat":43.28604,"lon":5.35241,"is_reserved":false,"is_disabled":false,"rental_uris":{"android":"levelo://app?vid=8351b836-b458-4e50-bd94-7b7b9083100d","ios":"levelo://app?vid=8351b836-b458-4e50-bd94-7b7b9083100d"},"vehicle_type_id":"4","last_reported":1778417621,"current_range_meters":6400,"station_id":"","pricing_plan_id":"cebpf4jnsgd1na2vs0mg"},{"bike_id":"4d55de62-e87a-4e91-8f38-f3128df68a5b","system_id":"levelo_inurba_marseille","lat":43.26569,"lon":5.39003,"is_reserved":false,"is_disabled":false,"rental_uris":{"android":"levelo://app?vid=4d55de62-e87a-4e91-8f38-f3128df68a5b","ios":"levelo://app?vid=4d55de62-e87a-4e91-8f38-f3128df68a5b"},"vehicle_type_id":"4","last_reported":1778417621,"current_range_meters":6400,"station_id":"ce4bhe12rcd13ifvqf30","pricing_plan_id":"cebpf4jnsgd1na2vs0mg"},{"bike_id":"8c36f14f-0ea0-4eaf-8ef4-0bf3049421ef","system_id":"levelo_inurba_marseille","lat":43.30199,"lon":5.39957,"is_reserved":false,"is_disabled":false,"rental_uris":{"android":"levelo://app?vid=8c36f14f-0ea0-4eaf-8ef4-0bf3049421ef","ios":"levelo://app?vid=8c36f14f-0ea0-4eaf-8ef4-0bf3049421ef"},"vehicle_type_id":"4","last_reported":1778417621,"current_range_meters":6400,"station_id":"","pricing_plan_id":"cebpf4jnsgd1na2vs0mg"},{"bike_id":"8de89280-2a61-4268-b817-bf90021f9ced","system_id":"levelo_inurba_marseille","lat":43.32138,"lon":5.36779,"is_reserved":false,"is_disabled":false,"rental_uris":{"android":"levelo://app?vid=8de89280-2a61-4268-b817-bf90021f9ced","ios":"levelo://app?vid=8de89280-2a61-4268-b817-bf90021f9ced"},"vehicle_type_id":"4","last_reported":1778417621,"current_range_meters":6400,"station_id":"ce4bhrh2rcd13ifvqhug","pricing_plan_id":"cebpf4jnsgd1na2vs0mg"},{"bike_id":"6dec282d-38ec-4336-8ede-9a1772e1298f","system_id":"levelo_inurba_marseille","lat":43.29665,"lon":5.38,"is_reserved":false,"is_disabled":false,"rental_uris":{"android":"levelo://app?vid=6dec282d-38ec-4336-8ede-9a1772e1298f","ios":"levelo://app?vid=6dec282d-38ec-4336-8ede-9a1772e1298f"},"vehicle_type_id":"4","last_reported":1778417621,"current_range_meters":6400,"station_id":"","pricing_plan_id":"cebpf4jnsgd1na2vs0mg"},{"bike_id":"81bbcbc7-4353-4875-9f91-8af474a59e40","system_id":"levelo_inurba_marseille","lat":43.29781,"lon":5.37103,"is_reserved":false,"is_disabled":false,"rental_uris":{"android":"levelo://app?vid=81bbcbc7-4353-4875-9f91-8af474a59e40","ios":"levelo://app?vid=81bbcbc7-4353-4875-9f91-8af474a59e40"},"vehicle_type_id":"4","last_reported":1778417621,"current_range_meters":6400,"station_id":"ce4bgop2rcd13ifvqc1g","pricing_plan_id":"cebpf4jnsgd1na2vs0mg"},{"bike_id":"f5a1be47-8331-45d2-835d-c96520481361","system_id":"levelo_inurba_marseille","lat":43.25005,"lon":5.38921,"is_reserved":false,"is_disabled":false,"rental_uris":{"android":"levelo://app?vid=f5a1be47-8331-45d2-835d-c96520481361","ios":"levelo://app?vid=f5a1be47-8331-45d2-835d-c96520481361"},"vehicle_type_id":"4","last_reported":1778417621,"current_range_meters":6400,"station_id":"ce4bhgp2rcd13ifvqfd0","pricing_plan_id":"cebpf4jnsgd1na2vs0mg"},{"bike_id":"c4f142d2-aa2f-4b17-be44-8f84ab9c1b53","system_id":"levelo_inurba_marseille","lat":43.2408,"lon":5.37757,"is_reserved":false,"is_disabled":false,"rental_uris":{"android":"levelo://app?vid=c4f142d2-aa2f-4b17-be44-8f84ab9c1b53","ios":"levelo://app?vid=c4f142d2-aa2f-4b17-be44-8f84ab9c1b53"},"vehicle_type_id":"4","last_reported":1778417621,"current_range_meters":6400,"station_id":"ce4bhnp2rcd13ifvqgvg","pricing_plan_id":"cebpf4jnsgd1na2vs0mg"},{"bike_id":"0152740e-06db-4ade-88eb-e3632fbb8a1f","system_id":"levelo_inurba_marseille","lat":43.28314,"lon":5.35093,"is_reserved":false,"is_disabled":true,"rental_uris":{"android":"levelo://app?vid=0152740e-06db-4ade-88eb-e3632fbb8a1f","ios":"levelo://app?vid=0152740e-06db-4ade-88eb-e3632fbb8a1f"},"vehicle_type_id":"4","last_reported":1778417621,"current_range_meters":6400,"station_id":"","pricing_plan_id":"cebpf4jnsgd1na2vs0mg"},{"bike_id":"147a4cde-83e7-4d1a-9487-5b4c45228b9b","system_id":"levelo_inurba_marseille","lat":43.33174,"lon":5.37684,"is_reserved":false,"is_disabled":false,"rental_uris":{"android":"levelo://app?vid=147a4cde-83e7-4d1a-9487-5b4c45228b9b","ios":"levelo://app?vid=147a4cde-83e7-4d1a-9487-5b4c45228b9b"},"vehicle_type_id":"4","last_reported":1778417621,"current_range_meters":6400,"station_id":"st_d46cu089ee8s73dldbu0","pricing_plan_id":"cebpf4jnsgd1na2vs0mg"},{"bike_id":"7017c387-278c-4b8c-9782-aa80dc34ecbe","system_id":"levelo_inurba_marseille","lat":43.239,"lon":5.3747,"is_reserved":false,"is_disabled":true,"rental_uris":{"android":"levelo://app?vid=7017c387-278c-4b8c-9782-aa80dc34ecbe","ios":"levelo://app?vid=7017c387-278c-4b8c-9782-aa80dc34ecbe"},"vehicle_type_id":"4","last_reported":1778417621,"current_range_meters":6400,"station_id":"st_d6sm7csbq4hs73f8fpjg","pricing_plan_id":"cebpf4jnsgd1na2vs0mg"},{"bike_id":"45f8fdb7-2cb1-45b9-8a88-adeab1f325d7","system_id":"levelo_inurba_marseille","lat":43.29253,"lon":5.38343,"is_reserved":false,"is_disabled":false,"rental_uris":{"android":"levelo://app?vid=45f8fdb7-2cb1-45b9-8a88-adeab1f325d7","ios":"levelo://app?vid=45f8fdb7-2cb1-45b9-8a88-adeab1f325d7"},"vehicle_type_id":"4","last_reported":1778417621,"current_range_meters":6400,"station_id":"","pricing_plan_id":"cebpf4jnsgd1na2vs0mg"},{"bike_id":"982f91fe-716a-4105-b389-4739f37175ae","system_id":"levelo_inurba_marseille","lat":43.262061,"lon":5.404521,"is_reserved":false,"is_disabled":false,"rental_uris":{"android":"levelo://app?vid=982f91fe-716a-4105-b389-4739f37175ae","ios":"levelo://app?vid=982f91fe-716a-4105-b389-4739f37175ae"},"vehicle_type_id":"4","last_reported":1778417621,"current_range_meters":6400,"station_id":"ce4bhmh2rcd13ifvqgmg","pricing_plan_id":"cebpf4jnsgd1na2vs0mg"},{"bike_id":"5e506c32-8063-47a0-a03b-0e18aefd7f60","system_id":"levelo_inurba_marseille","lat":43.24086,"lon":5.37721,"is_reserved":false,"is_disabled":true,"rental_uris":{"android":"levelo://app?vid=5e506c32-8063-47a0-a03b-0e18aefd7f60","ios":"levelo://app?vid=5e506c32-8063-47a0-a03b-0e18aefd7f60"},"vehicle_type_id":"4","last_reported":1778417621,"current_range_meters":6800,"station_id":"ce4bhnp2rcd13ifvqgvg","pricing_plan_id":"cebpf4jnsgd1na2vs0mg"},{"bike_id":"5d33716e-5ee6-4385-b03b-431189cd1e85","system_id":"levelo_inurba_marseille","lat":43.31383,"lon":5.38492,"is_reserved":false,"is_disabled":false,"rental_uris":{"android":"levelo://app?vid=5d33716e-5ee6-4385-b03b-431189cd1e85","ios":"levelo://app?vid=5d33716e-5ee6-4385-b03b-431189cd1e85"},"vehicle_type_id":"4","last_reported":1778417621,"current_range_meters":6800,"station_id":"ce4bgt92rcd13ifvqcf0","pricing_plan_id":"cebpf4jnsgd1na2vs0mg"},{"bike_id":"fce79078-48bc-4d3e-a1b0-a9eb686a3f15","system_id":"levelo_inurba_marseille","lat":43.29473,"lon":5.3843,"is_reserved":false,"is_disabled":false,"rental_uris":{"android":"levelo://app?vid=fce79078-48bc-4d3e-a1b0-a9eb686a3f15","ios":"levelo://app?vid=fce79078-48bc-4d3e-a1b0-a9eb686a3f15"},"vehicle_type_id":"4","last_reported":1778417621,"current_range_meters":6800,"station_id":"","pricing_plan_id":"cebpf4jnsgd1na2vs0mg"},{"bike_id":"79dad335-ce16-47c4-bb2f-d695e58ce420","system_id":"levelo_inurba_marseille","lat":43.309601,"lon":5.390429,"is_reserved":false,"is_disabled":false,"rental_uris":{"android":"levelo://app?vid=79dad335-ce16-47c4-bb2f-d695e58ce420","ios":"levelo://app?vid=79dad335-ce16-47c4-bb2f-d695e58ce420"},"vehicle_type_id":"4","last_reported":1778417621,"current_range_meters":6800,"station_id":"ce4bgup2rcd13ifvqco0","pricing_plan_id":"cebpf4jnsgd1na2vs0mg"},{"bike_id":"9dc61640-987a-437c-ada7-637d7471e1db","system_id":"levelo_inurba_marseille","lat":43.33165,"lon":5.37681,"is_reserved":false,"is_disabled":false,"rental_uris":{"android":"levelo://app?vid=9dc61640-987a-437c-ada7-637d7471e1db","ios":"levelo://app?vid=9dc61640-987a-437c-ada7-637d7471e1db"},"vehicle_type_id":"4","last_reported":1778417621,"current_range_meters":6800,"station_id":"st_d46cu089ee8s73dldbu0","pricing_plan_id":"cebpf4jnsgd1na2vs0mg"},{"bike_id":"51ac79da-73b8-40fe-8601-c8f3e1221081","system_id":"levelo_inurba_marseille","lat":43.29072,"lon":5.39967,"is_reserved":false,"is_disabled":false,"rental_uris":{"android":"levelo://app?vid=51ac79da-73b8-40fe-8601-c8f3e1221081","ios":"levelo://app?vid=51ac79da-73b8-40fe-8601-c8f3e1221081"},"vehicle_type_id":"4","last_reported":1778417621,"current_range_meters":6800,"station_id":"ce4bh392rcd13ifvqdm0","pricing_plan_id":"cebpf4jnsgd1na2vs0mg"},{"bike_id":"9eff7a20-b88b-404e-ade4-6b726e99236c","system_id":"levelo_inurba_marseille","lat":43.29232,"lon":5.36057,"is_reserved":false,"is_disabled":false,"rental_uris":{"android":"levelo://app?vid=9eff7a20-b88b-404e-ade4-6b726e99236c","ios":"levelo://app?vid=9eff7a20-b88b-404e-ade4-6b726e99236c"},"vehicle_type_id":"4","last_reported":1778417621,"current_range_meters":6800,"station_id":"ce4bhbh2rcd13ifvqeqg","pricing_plan_id":"cebpf4jnsgd1na2vs0mg"},{"bike_id":"85ce676c-6be8-4f11-910f-4c2a8161986a","system_id":"levelo_inurba_marseille","lat":43.31125,"lon":5.37776,"is_reserved":false,"is_disabled":false,"rental_uris":{"android":"levelo://app?vid=85ce676c-6be8-4f11-910f-4c2a8161986a","ios":"levelo://app?vid=85ce676c-6be8-4f11-910f-4c2a8161986a"},"vehicle_type_id":"4","last_reported":1778417621,"current_range_meters":6800,"station_id":"ce4bgt92rcd13ifvqcg0","pricing_plan_id":"cebpf4jnsgd1na2vs0mg"},{"bike_id":"766502ff-097e-40c5-8a50-5fe10835534b","system_id":"levelo_inurba_marseille","lat":43.31181,"lon":5.3774,"is_reserved":false,"is_disabled":false,"rental_uris":{"android":"levelo://app?vid=766502ff-097e-40c5-8a50-5fe10835534b","ios":"levelo://app?vid=766502ff-097e-40c5-8a50-5fe10835534b"},"vehicle_type_id":"4","last_reported":1778417621,"current_range_meters":6800,"station_id":"","pricing_plan_id":"cebpf4jnsgd1na2vs0mg"},{"bike_id":"d5f0dc25-4592-44f7-8db4-ee52a35f69ad","system_id":"levelo_inurba_marseille","lat":43.28497,"lon":5.48381,"is_reserved":false,"is_disabled":false,"rental_uris":{"android":"levelo://app?vid=d5f0dc25-4592-44f7-8db4-ee52a35f69ad","ios":"levelo://app?vid=d5f0dc25-4592-44f7-8db4-ee52a35f69ad"},"vehicle_type_id":"4","last_reported":1778417621,"current_range_meters":6800,"station_id":"","pricing_plan_id":"cebpf4jnsgd1na2vs0mg"},{"bike_id":"17cc4c0a-4b5f-4e18-aeb2-472d34557615","system_id":"levelo_inurba_marseille","lat":43.28654,"lon":5.46664,"is_reserved":false,"is_disabled":false,"rental_uris":{"android":"levelo://app?vid=17cc4c0a-4b5f-4e18-aeb2-472d34557615","ios":"levelo://app?vid=17cc4c0a-4b5f-4e18-aeb2-472d34557615"},"vehicle_type_id":"4","last_reported":1778417621,"current_range_meters":6800,"station_id":"st_d6tc3vkotcvc738tfjhg","pricing_plan_id":"cebpf4jnsgd1na2vs0mg"},{"bike_id":"92eb53d1-6218-4204-9b15-5031bb91aa2f","system_id":"levelo_inurba_marseille","lat":43.2861,"lon":5.37054,"is_reserved":false,"is_disabled":false,"rental_uris":{"android":"levelo://app?vid=92eb53d1-6218-4204-9b15-5031bb91aa2f","ios":"levelo://app?vid=92eb53d1-6218-4204-9b15-5031bb91aa2f"},"vehicle_type_id":"4","last_reported":1778417621,"current_range_meters":6800,"station_id":"ce4bht12rcd13ifvqi60","pricing_plan_id":"cebpf4jnsgd1na2vs0mg"},{"bike_id":"042018ca-0be6-4c8a-b2fa-96b530d6b1f9","system_id":"levelo_inurba_marseille","lat":43.29227,"lon":5.36064,"is_reserved":false,"is_disabled":false,"rental_uris":{"android":"levelo://app?vid=042018ca-0be6-4c8a-b2fa-96b530d6b1f9","ios":"levelo://app?vid=042018ca-0be6-4c8a-b2fa-96b530d6b1f9"},"vehicle_type_id":"4","last_reported":1778417621,"current_range_meters":7200,"station_id":"ce4bhbh2rcd13ifvqeqg","pricing_plan_id":"cebpf4jnsgd1na2vs0mg"},{"bike_id":"66969438-299e-490d-ab31-e463b9efa104","system_id":"levelo_inurba_marseille","lat":43.28456,"lon":5.48381,"is_reserved":false,"is_disabled":false,"rental_uris":{"android":"levelo://app?vid=66969438-299e-490d-ab31-e463b9efa104","ios":"levelo://app?vid=66969438-299e-490d-ab31-e463b9efa104"},"vehicle_type_id":"4","last_reported":1778417621,"current_range_meters":7200,"station_id":"","pricing_plan_id":"cebpf4jnsgd1na2vs0mg"},{"bike_id":"d55796ed-4e9c-4094-8c61-04073e5fd354","system_id":"levelo_inurba_marseille","lat":43.28176,"lon":5.42632,"is_reserved":false,"is_disabled":false,"rental_uris":{"android":"levelo://app?vid=d55796ed-4e9c-4094-8c61-04073e5fd354","ios":"levelo://app?vid=d55796ed-4e9c-4094-8c61-04073e5fd354"},"vehicle_type_id":"4","last_reported":1778417621,"current_range_meters":7200,"station_id":"ce4bhnh2rcd13ifvqgug","pricing_plan_id":"cebpf4jnsgd1na2vs0mg"},{"bike_id":"16eab437-1b4d-450b-9a42-7bf3620c7694","system_id":"levelo_inurba_marseille","lat":43.290019,"lon":5.356235,"is_reserved":false,"is_disabled":true,"rental_uris":{"android":"levelo://app?vid=16eab437-1b4d-450b-9a42-7bf3620c7694","ios":"levelo://app?vid=16eab437-1b4d-450b-9a42-7bf3620c7694"},"vehicle_type_id":"4","last_reported":1778417621,"current_range_meters":7200,"station_id":"","pricing_plan_id":"cebpf4jnsgd1na2vs0mg"},{"bike_id":"2506be62-85f3-41a6-b103-e5faab53b5ba","system_id":"levelo_inurba_marseille","lat":43.27571,"lon":5.38406,"is_reserved":false,"is_disabled":true,"rental_uris":{"android":"levelo://app?vid=2506be62-85f3-41a6-b103-e5faab53b5ba","ios":"levelo://app?vid=2506be62-85f3-41a6-b103-e5faab53b5ba"},"vehicle_type_id":"4","last_reported":1778417621,"current_range_meters":7200,"station_id":"ce4bhh92rcd13ifvqfi0","pricing_plan_id":"cebpf4jnsgd1na2vs0mg"},{"bike_id":"f3663f60-dbbf-48c6-8470-0b2e2be6f100","system_id":"levelo_inurba_marseille","lat":43.26375,"lon":5.41091,"is_reserved":false,"is_disabled":false,"rental_uris":{"android":"levelo://app?vid=f3663f60-dbbf-48c6-8470-0b2e2be6f100","ios":"levelo://app?vid=f3663f60-dbbf-48c6-8470-0b2e2be6f100"},"vehicle_type_id":"4","last_reported":1778417621,"current_range_meters":7200,"station_id":"st_d4e5ca6na9uc73bfl5fg","pricing_plan_id":"cebpf4jnsgd1na2vs0mg"},{"bike_id":"943cf82b-777f-474d-9abb-0bc061b7cd0c","system_id":"levelo_inurba_marseille","lat":43.29712,"lon":5.36606,"is_reserved":false,"is_disabled":true,"rental_uris":{"android":"levelo://app?vid=943cf82b-777f-474d-9abb-0bc061b7cd0c","ios":"levelo://app?vid=943cf82b-777f-474d-9abb-0bc061b7cd0c"},"vehicle_type_id":"4","last_reported":1778417621,"current_range_meters":7200,"station_id":"ce4bgn12rcd13ifvqbt0","pricing_plan_id":"cebpf4jnsgd1na2vs0mg"},{"bike_id":"8395579b-8f38-41a7-86cb-d8270590e280","system_id":"levelo_inurba_marseille","lat":43.25721,"lon":5.41101,"is_reserved":false,"is_disabled":false,"rental_uris":{"android":"levelo://app?vid=8395579b-8f38-41a7-86cb-d8270590e280","ios":"levelo://app?vid=8395579b-8f38-41a7-86cb-d8270590e280"},"vehicle_type_id":"4","last_reported":1778417621,"current_range_meters":7200,"station_id":"ce4bhkp2rcd13ifvqgd0","pricing_plan_id":"cebpf4jnsgd1na2vs0mg"},{"bike_id":"43ec9c65-e87a-4e85-86f3-9260a882dc04","system_id":"levelo_inurba_marseille","lat":43.30152,"lon":5.43129,"is_reserved":false,"is_disabled":true,"rental_uris":{"android":"levelo://app?vid=43ec9c65-e87a-4e85-86f3-9260a882dc04","ios":"levelo://app?vid=43ec9c65-e87a-4e85-86f3-9260a882dc04"},"vehicle_type_id":"4","last_reported":1778417621,"current_range_meters":7200,"station_id":"st_d3js3co5814s73ftftug","pricing_plan_id":"cebpf4jnsgd1na2vs0mg"},{"bike_id":"6be1be21-8155-4845-b665-1dad8a6c6bf4","system_id":"levelo_inurba_marseille","lat":43.28638,"lon":5.3513,"is_reserved":false,"is_disabled":true,"rental_uris":{"android":"levelo://app?vid=6be1be21-8155-4845-b665-1dad8a6c6bf4","ios":"levelo://app?vid=6be1be21-8155-4845-b665-1dad8a6c6bf4"},"vehicle_type_id":"4","last_reported":1778417621,"current_range_meters":7200,"station_id":"ce4bhch2rcd13ifvqeug","pricing_plan_id":"cebpf4jnsgd1na2vs0mg"},{"bike_id":"9978bf29-8be4-416d-9e1c-7cc044f2b9f1","system_id":"levelo_inurba_marseille","lat":43.31442,"lon":5.37383,"is_reserved":false,"is_disabled":false,"rental_uris":{"android":"levelo://app?vid=9978bf29-8be4-416d-9e1c-7cc044f2b9f1","ios":"levelo://app?vid=9978bf29-8be4-416d-9e1c-7cc044f2b9f1"},"vehicle_type_id":"4","last_reported":1778417621,"current_range_meters":8000,"station_id":"","pricing_plan_id":"cebpf4jnsgd1na2vs0mg"},{"bike_id":"4bc3525b-023b-446e-b790-badde0d024ff","system_id":"levelo_inurba_marseille","lat":43.30946,"lon":5.40153,"is_reserved":false,"is_disabled":false,"rental_uris":{"android":"levelo://app?vid=4bc3525b-023b-446e-b790-badde0d024ff","ios":"levelo://app?vid=4bc3525b-023b-446e-b790-badde0d024ff"},"vehicle_type_id":"4","last_reported":1778417621,"current_range_meters":8000,"station_id":"ce4bgvp2rcd13ifvqct0","pricing_plan_id":"cebpf4jnsgd1na2vs0mg"},{"bike_id":"b12a35cf-71d1-4ef4-a233-6a85ad56a1b8","system_id":"levelo_inurba_marseille","lat":43.26568,"lon":5.37322,"is_reserved":false,"is_disabled":false,"rental_uris":{"android":"levelo://app?vid=b12a35cf-71d1-4ef4-a233-6a85ad56a1b8","ios":"levelo://app?vid=b12a35cf-71d1-4ef4-a233-6a85ad56a1b8"},"vehicle_type_id":"4","last_reported":1778417621,"current_range_meters":8000,"station_id":"ce4bhg12rcd13ifvqf70","pricing_plan_id":"cebpf4jnsgd1na2vs0mg"},{"bike_id":"fd218b19-8f33-4a74-8ae4-8251c7a63f98","system_id":"levelo_inurba_marseille","lat":43.24619,"lon":5.43157,"is_reserved":false,"is_disabled":false,"rental_uris":{"android":"levelo://app?vid=fd218b19-8f33-4a74-8ae4-8251c7a63f98","ios":"levelo://app?vid=fd218b19-8f33-4a74-8ae4-8251c7a63f98"},"vehicle_type_id":"4","last_reported":1778417621,"current_range_meters":8000,"station_id":"st_d2m6c4gdas8pm72e190g","pricing_plan_id":"cebpf4jnsgd1na2vs0mg"},{"bike_id":"4aca3acf-d4fb-4bf7-9b56-d709d78f25a5","system_id":"levelo_inurba_marseille","lat":43.30101,"lon":5.39066,"is_reserved":false,"is_disabled":false,"rental_uris":{"android":"levelo://app?vid=4aca3acf-d4fb-4bf7-9b56-d709d78f25a5","ios":"levelo://app?vid=4aca3acf-d4fb-4bf7-9b56-d709d78f25a5"},"vehicle_type_id":"4","last_reported":1778417621,"current_range_meters":8000,"station_id":"ce4bh192rcd13ifvqdb0","pricing_plan_id":"cebpf4jnsgd1na2vs0mg"},{"bike_id":"1b056854-076b-426c-ba2b-947a81eb8132","system_id":"levelo_inurba_marseille","lat":43.30935,"lon":5.4014,"is_reserved":false,"is_disabled":false,"rental_uris":{"android":"levelo://app?vid=1b056854-076b-426c-ba2b-947a81eb8132","ios":"levelo://app?vid=1b056854-076b-426c-ba2b-947a81eb8132"},"vehicle_type_id":"4","last_reported":1778417621,"current_range_meters":8000,"station_id":"ce4bgvp2rcd13ifvqct0","pricing_plan_id":"cebpf4jnsgd1na2vs0mg"},{"bike_id":"64ee1d1b-107a-4763-9db4-d26752131c23","system_id":"levelo_inurba_marseille","lat":43.25089,"lon":5.39523,"is_reserved":false,"is_disabled":false,"rental_uris":{"android":"levelo://app?vid=64ee1d1b-107a-4763-9db4-d26752131c23","ios":"levelo://app?vid=64ee1d1b-107a-4763-9db4-d26752131c23"},"vehicle_type_id":"4","last_reported":1778417621,"current_range_meters":8000,"station_id":"ce4bhm12rcd13ifvqgkg","pricing_plan_id":"cebpf4jnsgd1na2vs0mg"},{"bike_id":"019248d2-541c-4fa1-abbd-e47be97aa96b","system_id":"levelo_inurba_marseille","lat":43.25327,"lon":5.42175,"is_reserved":false,"is_disabled":true,"rental_uris":{"android":"levelo://app?vid=019248d2-541c-4fa1-abbd-e47be97aa96b","ios":"levelo://app?vid=019248d2-541c-4fa1-abbd-e47be97aa96b"},"vehicle_type_id":"4","last_reported":1778417621,"current_range_meters":8000,"station_id":"st_d2m65c5bi1j21697t3ng","pricing_plan_id":"cebpf4jnsgd1na2vs0mg"},{"bike_id":"a2bc18bc-742d-49ea-bbf9-2554b9cd98da","system_id":"levelo_inurba_marseille","lat":43.26084,"lon":5.38693,"is_reserved":false,"is_disabled":false,"rental_uris":{"android":"levelo://app?vid=a2bc18bc-742d-49ea-bbf9-2554b9cd98da","ios":"levelo://app?vid=a2bc18bc-742d-49ea-bbf9-2554b9cd98da"},"vehicle_type_id":"4","last_reported":1778417621,"current_range_meters":8000,"station_id":"","pricing_plan_id":"cebpf4jnsgd1na2vs0mg"},{"bike_id":"4d77ae6f-27b2-4640-9353-6e3312852823","system_id":"levelo_inurba_marseille","lat":43.29261,"lon":5.38456,"is_reserved":false,"is_disabled":false,"rental_uris":{"android":"levelo://app?vid=4d77ae6f-27b2-4640-9353-6e3312852823","ios":"levelo://app?vid=4d77ae6f-27b2-4640-9353-6e3312852823"},"vehicle_type_id":"4","last_reported":1778417621,"current_range_meters":8000,"station_id":"ce4bh692rcd13ifvqea0","pricing_plan_id":"cebpf4jnsgd1na2vs0mg"},{"bike_id":"3dee3b98-a392-4211-8e97-e2f36b1c9829","system_id":"levelo_inurba_marseille","lat":43.26568,"lon":5.39016,"is_reserved":false,"is_disabled":false,"rental_uris":{"android":"levelo://app?vid=3dee3b98-a392-4211-8e97-e2f36b1c9829","ios":"levelo://app?vid=3dee3b98-a392-4211-8e97-e2f36b1c9829"},"vehicle_type_id":"4","last_reported":1778417621,"current_range_meters":8000,"station_id":"ce4bhe12rcd13ifvqf30","pricing_plan_id":"cebpf4jnsgd1na2vs0mg"},{"bike_id":"a1d66207-ff5d-4a71-b148-d595e314ee4a","system_id":"levelo_inurba_marseille","lat":43.28795,"lon":5.42413,"is_reserved":false,"is_disabled":false,"rental_uris":{"android":"levelo://app?vid=a1d66207-ff5d-4a71-b148-d595e314ee4a","ios":"levelo://app?vid=a1d66207-ff5d-4a71-b148-d595e314ee4a"},"vehicle_type_id":"4","last_reported":1778417621,"current_range_meters":8000,"station_id":"","pricing_plan_id":"cebpf4jnsgd1na2vs0mg"},{"bike_id":"02849ecd-84ae-4972-8247-931607cdaec0","system_id":"levelo_inurba_marseille","lat":43.28644,"lon":5.35121,"is_reserved":false,"is_disabled":false,"rental_uris":{"android":"levelo://app?vid=02849ecd-84ae-4972-8247-931607cdaec0","ios":"levelo://app?vid=02849ecd-84ae-4972-8247-931607cdaec0"},"vehicle_type_id":"4","last_reported":1778417621,"current_range_meters":8000,"station_id":"ce4bhch2rcd13ifvqeug","pricing_plan_id":"cebpf4jnsgd1na2vs0mg"},{"bike_id":"cccda472-7561-4978-9b74-a8c6197a578e","system_id":"levelo_inurba_marseille","lat":43.33182,"lon":5.37632,"is_reserved":false,"is_disabled":false,"rental_uris":{"android":"levelo://app?vid=cccda472-7561-4978-9b74-a8c6197a578e","ios":"levelo://app?vid=cccda472-7561-4978-9b74-a8c6197a578e"},"vehicle_type_id":"4","last_reported":1778417621,"current_range_meters":8000,"station_id":"st_d46cu089ee8s73dldbu0","pricing_plan_id":"cebpf4jnsgd1na2vs0mg"},{"bike_id":"e88067db-06e7-43fb-8b26-0f29cfb1ca74","system_id":"levelo_inurba_marseille","lat":43.28699,"lon":5.46675,"is_reserved":false,"is_disabled":false,"rental_uris":{"android":"levelo://app?vid=e88067db-06e7-43fb-8b26-0f29cfb1ca74","ios":"levelo://app?vid=e88067db-06e7-43fb-8b26-0f29cfb1ca74"},"vehicle_type_id":"4","last_reported":1778417621,"current_range_meters":8000,"station_id":"st_d6tc3vkotcvc738tfjhg","pricing_plan_id":"cebpf4jnsgd1na2vs0mg"},{"bike_id":"bd013f89-14e0-4bf4-b551-5f21536228af","system_id":"levelo_inurba_marseille","lat":43.26068,"lon":5.39415,"is_reserved":false,"is_disabled":false,"rental_uris":{"android":"levelo://app?vid=bd013f89-14e0-4bf4-b551-5f21536228af","ios":"levelo://app?vid=bd013f89-14e0-4bf4-b551-5f21536228af"},"vehicle_type_id":"4","last_reported":1778417621,"current_range_meters":8400,"station_id":"ce4bhh92rcd13ifvqfj0","pricing_plan_id":"cebpf4jnsgd1na2vs0mg"},{"bike_id":"3a4bb4b4-1621-4140-b074-79bb089190b9","system_id":"levelo_inurba_marseille","lat":43.33054,"lon":5.37578,"is_reserved":false,"is_disabled":false,"rental_uris":{"android":"levelo://app?vid=3a4bb4b4-1621-4140-b074-79bb089190b9","ios":"levelo://app?vid=3a4bb4b4-1621-4140-b074-79bb089190b9"},"vehicle_type_id":"4","last_reported":1778417621,"current_range_meters":8400,"station_id":"","pricing_plan_id":"cebpf4jnsgd1na2vs0mg"},{"bike_id":"e72dcbdd-03ba-4e71-a4e1-86744277a8e2","system_id":"levelo_inurba_marseille","lat":43.29584,"lon":5.37721,"is_reserved":false,"is_disabled":false,"rental_uris":{"android":"levelo://app?vid=e72dcbdd-03ba-4e71-a4e1-86744277a8e2","ios":"levelo://app?vid=e72dcbdd-03ba-4e71-a4e1-86744277a8e2"},"vehicle_type_id":"4","last_reported":1778417621,"current_range_meters":8400,"station_id":"ce4bgi92rcd13ifvqb90","pricing_plan_id":"cebpf4jnsgd1na2vs0mg"},{"bike_id":"31398a4d-4b5e-484e-bd5a-d9f31bc295bd","system_id":"levelo_inurba_marseille","lat":43.25082,"lon":5.39496,"is_reserved":false,"is_disabled":false,"rental_uris":{"android":"levelo://app?vid=31398a4d-4b5e-484e-bd5a-d9f31bc295bd","ios":"levelo://app?vid=31398a4d-4b5e-484e-bd5a-d9f31bc295bd"},"vehicle_type_id":"4","last_reported":1778417621,"current_range_meters":8400,"station_id":"ce4bhm12rcd13ifvqgkg","pricing_plan_id":"cebpf4jnsgd1na2vs0mg"},{"bike_id":"19fcb531-afbf-4fbb-8cfa-4fdace7952bb","system_id":"levelo_inurba_marseille","lat":43.297066,"lon":5.376863,"is_reserved":false,"is_disabled":false,"rental_uris":{"android":"levelo://app?vid=19fcb531-afbf-4fbb-8cfa-4fdace7952bb","ios":"levelo://app?vid=19fcb531-afbf-4fbb-8cfa-4fdace7952bb"},"vehicle_type_id":"4","last_reported":1778417621,"current_range_meters":8400,"station_id":"ce4bgkh2rcd13ifvqbl0","pricing_plan_id":"cebpf4jnsgd1na2vs0mg"},{"bike_id":"05873d3e-2f07-45ee-9c3a-8f47e65ca722","system_id":"levelo_inurba_marseille","lat":43.29857,"lon":5.39726,"is_reserved":false,"is_disabled":true,"rental_uris":{"android":"levelo://app?vid=05873d3e-2f07-45ee-9c3a-8f47e65ca722","ios":"levelo://app?vid=05873d3e-2f07-45ee-9c3a-8f47e65ca722"},"vehicle_type_id":"4","last_reported":1778417621,"current_range_meters":8400,"station_id":"ce4bh0h2rcd13ifvqd50","pricing_plan_id":"cebpf4jnsgd1na2vs0mg"},{"bike_id":"f3e5f4c8-4e21-43e7-b783-e32e46d7b1d8","system_id":"levelo_inurba_marseille","lat":43.31743,"lon":5.36799,"is_reserved":false,"is_disabled":false,"rental_uris":{"android":"levelo://app?vid=f3e5f4c8-4e21-43e7-b783-e32e46d7b1d8","ios":"levelo://app?vid=f3e5f4c8-4e21-43e7-b783-e32e46d7b1d8"},"vehicle_type_id":"4","last_reported":1778417621,"current_range_meters":8400,"station_id":"","pricing_plan_id":"cebpf4jnsgd1na2vs0mg"},{"bike_id":"80386a2b-e970-41f0-870f-0b66294b34a1","system_id":"levelo_inurba_marseille","lat":43.26384,"lon":5.41068,"is_reserved":false,"is_disabled":false,"rental_uris":{"android":"levelo://app?vid=80386a2b-e970-41f0-870f-0b66294b34a1","ios":"levelo://app?vid=80386a2b-e970-41f0-870f-0b66294b34a1"},"vehicle_type_id":"4","last_reported":1778417621,"current_range_meters":8400,"station_id":"st_d4e5ca6na9uc73bfl5fg","pricing_plan_id":"cebpf4jnsgd1na2vs0mg"},{"bike_id":"e16f3497-994b-4a5e-a623-feda354f6eb9","system_id":"levelo_inurba_marseille","lat":43.29487,"lon":5.43306,"is_reserved":false,"is_disabled":false,"rental_uris":{"android":"levelo://app?vid=e16f3497-994b-4a5e-a623-feda354f6eb9","ios":"levelo://app?vid=e16f3497-994b-4a5e-a623-feda354f6eb9"},"vehicle_type_id":"4","last_reported":1778417621,"current_range_meters":8400,"station_id":"st_d3j5ugp08ojc73fj9d10","pricing_plan_id":"cebpf4jnsgd1na2vs0mg"},{"bike_id":"dfa6dd59-77bd-4892-9b0a-54e6272c910a","system_id":"levelo_inurba_marseille","lat":43.26221,"lon":5.40441,"is_reserved":false,"is_disabled":false,"rental_uris":{"android":"levelo://app?vid=dfa6dd59-77bd-4892-9b0a-54e6272c910a","ios":"levelo://app?vid=dfa6dd59-77bd-4892-9b0a-54e6272c910a"},"vehicle_type_id":"4","last_reported":1778417621,"current_range_meters":8400,"station_id":"ce4bhmh2rcd13ifvqgmg","pricing_plan_id":"cebpf4jnsgd1na2vs0mg"},{"bike_id":"4516e97d-1ec7-4f67-bd2c-30129b674d6c","system_id":"levelo_inurba_marseille","lat":43.28635,"lon":5.35074,"is_reserved":false,"is_disabled":true,"rental_uris":{"android":"levelo://app?vid=4516e97d-1ec7-4f67-bd2c-30129b674d6c","ios":"levelo://app?vid=4516e97d-1ec7-4f67-bd2c-30129b674d6c"},"vehicle_type_id":"4","last_reported":1778417621,"current_range_meters":8400,"station_id":"ce4bhch2rcd13ifvqeug","pricing_plan_id":"cebpf4jnsgd1na2vs0mg"},{"bike_id":"829aeb58-c649-476d-904d-bd92827ec395","system_id":"levelo_inurba_marseille","lat":43.30891,"lon":5.41241,"is_reserved":false,"is_disabled":false,"rental_uris":{"android":"levelo://app?vid=829aeb58-c649-476d-904d-bd92827ec395","ios":"levelo://app?vid=829aeb58-c649-476d-904d-bd92827ec395"},"vehicle_type_id":"4","last_reported":1778417621,"current_range_meters":8400,"station_id":"","pricing_plan_id":"cebpf4jnsgd1na2vs0mg"},{"bike_id":"9419e6b1-d07e-4865-bc84-49f308e929ec","system_id":"levelo_inurba_marseille","lat":43.23335,"lon":5.35821,"is_reserved":false,"is_disabled":false,"rental_uris":{"android":"levelo://app?vid=9419e6b1-d07e-4865-bc84-49f308e929ec","ios":"levelo://app?vid=9419e6b1-d07e-4865-bc84-49f308e929ec"},"vehicle_type_id":"4","last_reported":1778417621,"current_range_meters":8400,"station_id":"","pricing_plan_id":"cebpf4jnsgd1na2vs0mg"},{"bike_id":"b0ced4b0-fcdd-4a2b-a13d-3e0692835ed8","system_id":"levelo_inurba_marseille","lat":43.29855,"lon":5.36287,"is_reserved":false,"is_disabled":false,"rental_uris":{"android":"levelo://app?vid=b0ced4b0-fcdd-4a2b-a13d-3e0692835ed8","ios":"levelo://app?vid=b0ced4b0-fcdd-4a2b-a13d-3e0692835ed8"},"vehicle_type_id":"4","last_reported":1778417621,"current_range_meters":8400,"station_id":"ce4bgpp2rcd13ifvqc3g","pricing_plan_id":"cebpf4jnsgd1na2vs0mg"},{"bike_id":"90b935f7-9484-4e0c-abe3-8fc7dfec46f4","system_id":"levelo_inurba_marseille","lat":43.29538,"lon":5.38544,"is_reserved":false,"is_disabled":false,"rental_uris":{"android":"levelo://app?vid=90b935f7-9484-4e0c-abe3-8fc7dfec46f4","ios":"levelo://app?vid=90b935f7-9484-4e0c-abe3-8fc7dfec46f4"},"vehicle_type_id":"4","last_reported":1778417621,"current_range_meters":8400,"station_id":"ce4bgih2rcd13ifvqba0","pricing_plan_id":"cebpf4jnsgd1na2vs0mg"},{"bike_id":"7f14ac2a-95a1-4ff9-8272-a58b1f33bddd","system_id":"levelo_inurba_marseille","lat":43.32378,"lon":5.38946,"is_reserved":false,"is_disabled":false,"rental_uris":{"android":"levelo://app?vid=7f14ac2a-95a1-4ff9-8272-a58b1f33bddd","ios":"levelo://app?vid=7f14ac2a-95a1-4ff9-8272-a58b1f33bddd"},"vehicle_type_id":"4","last_reported":1778417621,"current_range_meters":8800,"station_id":"","pricing_plan_id":"cebpf4jnsgd1na2vs0mg"},{"bike_id":"aaccaeee-05c9-4bd8-9ffb-19f81b5e91e0","system_id":"levelo_inurba_marseille","lat":43.24998,"lon":5.38931,"is_reserved":false,"is_disabled":false,"rental_uris":{"android":"levelo://app?vid=aaccaeee-05c9-4bd8-9ffb-19f81b5e91e0","ios":"levelo://app?vid=aaccaeee-05c9-4bd8-9ffb-19f81b5e91e0"},"vehicle_type_id":"4","last_reported":1778417621,"current_range_meters":8800,"station_id":"ce4bhgp2rcd13ifvqfd0","pricing_plan_id":"cebpf4jnsgd1na2vs0mg"},{"bike_id":"eb9a0307-8326-472c-b4eb-306052a86d1d","system_id":"levelo_inurba_marseille","lat":43.30946,"lon":5.40224,"is_reserved":false,"is_disabled":false,"rental_uris":{"android":"levelo://app?vid=eb9a0307-8326-472c-b4eb-306052a86d1d","ios":"levelo://app?vid=eb9a0307-8326-472c-b4eb-306052a86d1d"},"vehicle_type_id":"4","last_reported":1778417621,"current_range_meters":8800,"station_id":"","pricing_plan_id":"cebpf4jnsgd1na2vs0mg"},{"bike_id":"3be48547-9755-4740-8c69-194d026c42aa","system_id":"levelo_inurba_marseille","lat":43.28409,"lon":5.37529,"is_reserved":false,"is_disabled":true,"rental_uris":{"android":"levelo://app?vid=3be48547-9755-4740-8c69-194d026c42aa","ios":"levelo://app?vid=3be48547-9755-4740-8c69-194d026c42aa"},"vehicle_type_id":"4","last_reported":1778417621,"current_range_meters":8800,"station_id":"ce4bh412rcd13ifvqds0","pricing_plan_id":"cebpf4jnsgd1na2vs0mg"},{"bike_id":"0fdd2634-3a09-446a-be37-6d2e2fa070de","system_id":"levelo_inurba_marseille","lat":43.28872,"lon":5.4253,"is_reserved":false,"is_disabled":false,"rental_uris":{"android":"levelo://app?vid=0fdd2634-3a09-446a-be37-6d2e2fa070de","ios":"levelo://app?vid=0fdd2634-3a09-446a-be37-6d2e2fa070de"},"vehicle_type_id":"4","last_reported":1778417621,"current_range_meters":8800,"station_id":"st_d3b462108ojc7389ooeg","pricing_plan_id":"cebpf4jnsgd1na2vs0mg"},{"bike_id":"444159f6-104e-4154-8676-04b8c81ae491","system_id":"levelo_inurba_marseille","lat":43.29262,"lon":5.36848,"is_reserved":false,"is_disabled":false,"rental_uris":{"android":"levelo://app?vid=444159f6-104e-4154-8676-04b8c81ae491","ios":"levelo://app?vid=444159f6-104e-4154-8676-04b8c81ae491"},"vehicle_type_id":"4","last_reported":1778417621,"current_range_meters":8800,"station_id":"ce4bhbp2rcd13ifvqesg","pricing_plan_id":"cebpf4jnsgd1na2vs0mg"},{"bike_id":"bb549587-fc7e-49e4-8c51-34ac21c6ff83","system_id":"levelo_inurba_marseille","lat":43.286129,"lon":5.370653,"is_reserved":false,"is_disabled":false,"rental_uris":{"android":"levelo://app?vid=bb549587-fc7e-49e4-8c51-34ac21c6ff83","ios":"levelo://app?vid=bb549587-fc7e-49e4-8c51-34ac21c6ff83"},"vehicle_type_id":"4","last_reported":1778417621,"current_range_meters":8800,"station_id":"ce4bht12rcd13ifvqi60","pricing_plan_id":"cebpf4jnsgd1na2vs0mg"},{"bike_id":"523bae21-47ff-42d4-800f-6f372ba97d90","system_id":"levelo_inurba_marseille","lat":43.30936,"lon":5.40126,"is_reserved":false,"is_disabled":false,"rental_uris":{"android":"levelo://app?vid=523bae21-47ff-42d4-800f-6f372ba97d90","ios":"levelo://app?vid=523bae21-47ff-42d4-800f-6f372ba97d90"},"vehicle_type_id":"4","last_reported":1778417621,"current_range_meters":8800,"station_id":"ce4bgvp2rcd13ifvqct0","pricing_plan_id":"cebpf4jnsgd1na2vs0mg"},{"bike_id":"f0727bb7-b933-4d55-a165-2af7c22b34c1","system_id":"levelo_inurba_marseille","lat":43.22573,"lon":5.41619,"is_reserved":false,"is_disabled":false,"rental_uris":{"android":"levelo://app?vid=f0727bb7-b933-4d55-a165-2af7c22b34c1","ios":"levelo://app?vid=f0727bb7-b933-4d55-a165-2af7c22b34c1"},"vehicle_type_id":"4","last_reported":1778417621,"current_range_meters":8800,"station_id":"st_d2o4gvlbi1j2169b742g","pricing_plan_id":"cebpf4jnsgd1na2vs0mg"},{"bike_id":"7f0ffc66-c0ff-4d1b-a9d2-bff6bc7152bb","system_id":"levelo_inurba_marseille","lat":43.31703,"lon":5.40454,"is_reserved":false,"is_disabled":false,"rental_uris":{"android":"levelo://app?vid=7f0ffc66-c0ff-4d1b-a9d2-bff6bc7152bb","ios":"levelo://app?vid=7f0ffc66-c0ff-4d1b-a9d2-bff6bc7152bb"},"vehicle_type_id":"4","last_reported":1778417621,"current_range_meters":8800,"station_id":"ce4bh012rcd13ifvqd00","pricing_plan_id":"cebpf4jnsgd1na2vs0mg"},{"bike_id":"1d18ceb8-8246-4fa1-b8b0-48b436a72bf8","system_id":"levelo_inurba_marseille","lat":43.25122,"lon":5.39514,"is_reserved":false,"is_disabled":false,"rental_uris":{"android":"levelo://app?vid=1d18ceb8-8246-4fa1-b8b0-48b436a72bf8","ios":"levelo://app?vid=1d18ceb8-8246-4fa1-b8b0-48b436a72bf8"},"vehicle_type_id":"4","last_reported":1778417621,"current_range_meters":8800,"station_id":"ce4bhm12rcd13ifvqgkg","pricing_plan_id":"cebpf4jnsgd1na2vs0mg"},{"bike_id":"ad206cfa-883b-417b-b1ab-804ae7af3a6b","system_id":"levelo_inurba_marseille","lat":43.31367,"lon":5.38501,"is_reserved":false,"is_disabled":false,"rental_uris":{"android":"levelo://app?vid=ad206cfa-883b-417b-b1ab-804ae7af3a6b","ios":"levelo://app?vid=ad206cfa-883b-417b-b1ab-804ae7af3a6b"},"vehicle_type_id":"4","last_reported":1778417621,"current_range_meters":8800,"station_id":"ce4bgt92rcd13ifvqcf0","pricing_plan_id":"cebpf4jnsgd1na2vs0mg"},{"bike_id":"4dd2dfb4-9ef4-4c0c-b45c-a5d099b69039","system_id":"levelo_inurba_marseille","lat":43.28864,"lon":5.42522,"is_reserved":false,"is_disabled":false,"rental_uris":{"android":"levelo://app?vid=4dd2dfb4-9ef4-4c0c-b45c-a5d099b69039","ios":"levelo://app?vid=4dd2dfb4-9ef4-4c0c-b45c-a5d099b69039"},"vehicle_type_id":"4","last_reported":1778417621,"current_range_meters":8800,"station_id":"st_d3b462108ojc7389ooeg","pricing_plan_id":"cebpf4jnsgd1na2vs0mg"},{"bike_id":"c690f58c-1038-42b0-b77d-6adb62e7af97","system_id":"levelo_inurba_marseille","lat":43.29548,"lon":5.38554,"is_reserved":false,"is_disabled":false,"rental_uris":{"android":"levelo://app?vid=c690f58c-1038-42b0-b77d-6adb62e7af97","ios":"levelo://app?vid=c690f58c-1038-42b0-b77d-6adb62e7af97"},"vehicle_type_id":"4","last_reported":1778417621,"current_range_meters":8800,"station_id":"ce4bgih2rcd13ifvqba0","pricing_plan_id":"cebpf4jnsgd1na2vs0mg"},{"bike_id":"2e0629af-656a-4d33-8117-3d1b72c80773","system_id":"levelo_inurba_marseille","lat":43.30178,"lon":5.36639,"is_reserved":false,"is_disabled":false,"rental_uris":{"android":"levelo://app?vid=2e0629af-656a-4d33-8117-3d1b72c80773","ios":"levelo://app?vid=2e0629af-656a-4d33-8117-3d1b72c80773"},"vehicle_type_id":"4","last_reported":1778417621,"current_range_meters":8800,"station_id":"ce4bgrh2rcd13ifvqc8g","pricing_plan_id":"cebpf4jnsgd1na2vs0mg"},{"bike_id":"4be48e83-9343-4c3a-b884-b414c3010644","system_id":"levelo_inurba_marseille","lat":43.2586,"lon":5.39888,"is_reserved":false,"is_disabled":true,"rental_uris":{"android":"levelo://app?vid=4be48e83-9343-4c3a-b884-b414c3010644","ios":"levelo://app?vid=4be48e83-9343-4c3a-b884-b414c3010644"},"vehicle_type_id":"4","last_reported":1778417621,"current_range_meters":8800,"station_id":"ce4bhl92rcd13ifvqghg","pricing_plan_id":"cebpf4jnsgd1na2vs0mg"},{"bike_id":"dfac2de4-d362-4feb-b799-9a59741ee828","system_id":"levelo_inurba_marseille","lat":43.22926,"lon":5.44477,"is_reserved":false,"is_disabled":false,"rental_uris":{"android":"levelo://app?vid=dfac2de4-d362-4feb-b799-9a59741ee828","ios":"levelo://app?vid=dfac2de4-d362-4feb-b799-9a59741ee828"},"vehicle_type_id":"4","last_reported":1778417621,"current_range_meters":8800,"station_id":"","pricing_plan_id":"cebpf4jnsgd1na2vs0mg"},{"bike_id":"f4a19dde-e4e0-4d27-9004-98553f2d57b5","system_id":"levelo_inurba_marseille","lat":43.33169,"lon":5.37741,"is_reserved":false,"is_disabled":false,"rental_uris":{"android":"levelo://app?vid=f4a19dde-e4e0-4d27-9004-98553f2d57b5","ios":"levelo://app?vid=f4a19dde-e4e0-4d27-9004-98553f2d57b5"},"vehicle_type_id":"4","last_reported":1778417621,"current_range_meters":8800,"station_id":"","pricing_plan_id":"cebpf4jnsgd1na2vs0mg"},{"bike_id":"439c580c-91fb-4f07-899b-17e34535b7cf","system_id":"levelo_inurba_marseille","lat":43.28696,"lon":5.37932,"is_reserved":false,"is_disabled":true,"rental_uris":{"android":"levelo://app?vid=439c580c-91fb-4f07-899b-17e34535b7cf","ios":"levelo://app?vid=439c580c-91fb-4f07-899b-17e34535b7cf"},"vehicle_type_id":"4","last_reported":1778417621,"current_range_meters":9200,"station_id":"ce4bh9p2rcd13ifvqec0","pricing_plan_id":"cebpf4jnsgd1na2vs0mg"},{"bike_id":"398b6917-c8b8-4a0f-8545-4ed8e3e8a340","system_id":"levelo_inurba_marseille","lat":43.29789,"lon":5.3711,"is_reserved":false,"is_disabled":false,"rental_uris":{"android":"levelo://app?vid=398b6917-c8b8-4a0f-8545-4ed8e3e8a340","ios":"levelo://app?vid=398b6917-c8b8-4a0f-8545-4ed8e3e8a340"},"vehicle_type_id":"4","last_reported":1778417621,"current_range_meters":9200,"station_id":"ce4bgop2rcd13ifvqc1g","pricing_plan_id":"cebpf4jnsgd1na2vs0mg"},{"bike_id":"a7628563-6042-4b75-8cb9-b4afa4523e3b","system_id":"levelo_inurba_marseille","lat":43.25146,"lon":5.40327,"is_reserved":false,"is_disabled":false,"rental_uris":{"android":"levelo://app?vid=a7628563-6042-4b75-8cb9-b4afa4523e3b","ios":"levelo://app?vid=a7628563-6042-4b75-8cb9-b4afa4523e3b"},"vehicle_type_id":"4","last_reported":1778417621,"current_range_meters":9200,"station_id":"ce4bhlh2rcd13ifvqgig","pricing_plan_id":"cebpf4jnsgd1na2vs0mg"},{"bike_id":"9bb74d20-8aee-4a2e-996c-43ecf8d7375f","system_id":"levelo_inurba_marseille","lat":43.24699,"lon":5.38178,"is_reserved":false,"is_disabled":true,"rental_uris":{"android":"levelo://app?vid=9bb74d20-8aee-4a2e-996c-43ecf8d7375f","ios":"levelo://app?vid=9bb74d20-8aee-4a2e-996c-43ecf8d7375f"},"vehicle_type_id":"4","last_reported":1778417621,"current_range_meters":9200,"station_id":"ce4bhih2rcd13ifvqfr0","pricing_plan_id":"cebpf4jnsgd1na2vs0mg"},{"bike_id":"5c5f1b2c-364a-42ea-b18e-b314ba5bf6e3","system_id":"levelo_inurba_marseille","lat":43.28427,"lon":5.34966,"is_reserved":false,"is_disabled":true,"rental_uris":{"android":"levelo://app?vid=5c5f1b2c-364a-42ea-b18e-b314ba5bf6e3","ios":"levelo://app?vid=5c5f1b2c-364a-42ea-b18e-b314ba5bf6e3"},"vehicle_type_id":"4","last_reported":1778417621,"current_range_meters":9200,"station_id":"ce4bhbh2rcd13ifvqepg","pricing_plan_id":"cebpf4jnsgd1na2vs0mg"},{"bike_id":"1f120ac7-7ee8-43e5-8a49-7d8f26aa9f00","system_id":"levelo_inurba_marseille","lat":43.30194,"lon":5.39461,"is_reserved":false,"is_disabled":false,"rental_uris":{"android":"levelo://app?vid=1f120ac7-7ee8-43e5-8a49-7d8f26aa9f00","ios":"levelo://app?vid=1f120ac7-7ee8-43e5-8a49-7d8f26aa9f00"},"vehicle_type_id":"4","last_reported":1778417621,"current_range_meters":9200,"station_id":"ce4bh0p2rcd13ifvqd70","pricing_plan_id":"cebpf4jnsgd1na2vs0mg"},{"bike_id":"0e20409f-126f-499f-882f-c3ac5aee5a50","system_id":"levelo_inurba_marseille","lat":43.28936,"lon":5.38403,"is_reserved":false,"is_disabled":false,"rental_uris":{"android":"levelo://app?vid=0e20409f-126f-499f-882f-c3ac5aee5a50","ios":"levelo://app?vid=0e20409f-126f-499f-882f-c3ac5aee5a50"},"vehicle_type_id":"4","last_reported":1778417621,"current_range_meters":9200,"station_id":"ce4bh612rcd13ifvqe6g","pricing_plan_id":"cebpf4jnsgd1na2vs0mg"},{"bike_id":"0f88bb22-2b72-469a-9d43-5e69793019fe","system_id":"levelo_inurba_marseille","lat":43.25019,"lon":5.38951,"is_reserved":false,"is_disabled":false,"rental_uris":{"android":"levelo://app?vid=0f88bb22-2b72-469a-9d43-5e69793019fe","ios":"levelo://app?vid=0f88bb22-2b72-469a-9d43-5e69793019fe"},"vehicle_type_id":"4","last_reported":1778417621,"current_range_meters":9200,"station_id":"ce4bhgp2rcd13ifvqfd0","pricing_plan_id":"cebpf4jnsgd1na2vs0mg"},{"bike_id":"32074a3c-57d2-497a-9fdc-02d0ec7a4fad","system_id":"levelo_inurba_marseille","lat":43.32489,"lon":5.383,"is_reserved":false,"is_disabled":false,"rental_uris":{"android":"levelo://app?vid=32074a3c-57d2-497a-9fdc-02d0ec7a4fad","ios":"levelo://app?vid=32074a3c-57d2-497a-9fdc-02d0ec7a4fad"},"vehicle_type_id":"4","last_reported":1778417621,"current_range_meters":9200,"station_id":"st_d4asgbiv49dc73anf9m0","pricing_plan_id":"cebpf4jnsgd1na2vs0mg"},{"bike_id":"680b6d6f-97fe-453c-83fc-f6305ceec7f5","system_id":"levelo_inurba_marseille","lat":43.28687,"lon":5.38667,"is_reserved":false,"is_disabled":false,"rental_uris":{"android":"levelo://app?vid=680b6d6f-97fe-453c-83fc-f6305ceec7f5","ios":"levelo://app?vid=680b6d6f-97fe-453c-83fc-f6305ceec7f5"},"vehicle_type_id":"4","last_reported":1778417621,"current_range_meters":9600,"station_id":"ce4bh492rcd13ifvqdug","pricing_plan_id":"cebpf4jnsgd1na2vs0mg"},{"bike_id":"3e9baed8-a7ec-42a0-892e-df6af4489cc5","system_id":"levelo_inurba_marseille","lat":43.28616,"lon":5.35106,"is_reserved":false,"is_disabled":false,"rental_uris":{"android":"levelo://app?vid=3e9baed8-a7ec-42a0-892e-df6af4489cc5","ios":"levelo://app?vid=3e9baed8-a7ec-42a0-892e-df6af4489cc5"},"vehicle_type_id":"4","last_reported":1778417621,"current_range_meters":9600,"station_id":"ce4bhch2rcd13ifvqeug","pricing_plan_id":"cebpf4jnsgd1na2vs0mg"},{"bike_id":"0a4272d9-d28f-49e7-a8fd-729cd3788c17","system_id":"levelo_inurba_marseille","lat":43.29556,"lon":5.38542,"is_reserved":false,"is_disabled":false,"rental_uris":{"android":"levelo://app?vid=0a4272d9-d28f-49e7-a8fd-729cd3788c17","ios":"levelo://app?vid=0a4272d9-d28f-49e7-a8fd-729cd3788c17"},"vehicle_type_id":"4","last_reported":1778417621,"current_range_meters":9600,"station_id":"ce4bgih2rcd13ifvqba0","pricing_plan_id":"cebpf4jnsgd1na2vs0mg"},{"bike_id":"07918b41-207e-49db-a428-6e9431456524","system_id":"levelo_inurba_marseille","lat":43.25119,"lon":5.4032,"is_reserved":false,"is_disabled":false,"rental_uris":{"android":"levelo://app?vid=07918b41-207e-49db-a428-6e9431456524","ios":"levelo://app?vid=07918b41-207e-49db-a428-6e9431456524"},"vehicle_type_id":"4","last_reported":1778417621,"current_range_meters":9600,"station_id":"ce4bhlh2rcd13ifvqgig","pricing_plan_id":"cebpf4jnsgd1na2vs0mg"},{"bike_id":"ff28cff5-db61-4054-aa44-f20eb6ede6ec","system_id":"levelo_inurba_marseille","lat":43.29625,"lon":5.37741,"is_reserved":false,"is_disabled":false,"rental_uris":{"android":"levelo://app?vid=ff28cff5-db61-4054-aa44-f20eb6ede6ec","ios":"levelo://app?vid=ff28cff5-db61-4054-aa44-f20eb6ede6ec"},"vehicle_type_id":"4","last_reported":1778417621,"current_range_meters":9600,"station_id":"ce4bgi92rcd13ifvqb90","pricing_plan_id":"cebpf4jnsgd1na2vs0mg"},{"bike_id":"09fa49d6-2f72-44fb-aecc-f42e40eb9080","system_id":"levelo_inurba_marseille","lat":43.25773,"lon":5.40869,"is_reserved":false,"is_disabled":false,"rental_uris":{"android":"levelo://app?vid=09fa49d6-2f72-44fb-aecc-f42e40eb9080","ios":"levelo://app?vid=09fa49d6-2f72-44fb-aecc-f42e40eb9080"},"vehicle_type_id":"4","last_reported":1778417621,"current_range_meters":9600,"station_id":"","pricing_plan_id":"cebpf4jnsgd1na2vs0mg"},{"bike_id":"4c32ad07-663c-485f-82eb-d96acfe1fee5","system_id":"levelo_inurba_marseille","lat":43.32914,"lon":5.38271,"is_reserved":false,"is_disabled":false,"rental_uris":{"android":"levelo://app?vid=4c32ad07-663c-485f-82eb-d96acfe1fee5","ios":"levelo://app?vid=4c32ad07-663c-485f-82eb-d96acfe1fee5"},"vehicle_type_id":"4","last_reported":1778417621,"current_range_meters":9600,"station_id":"","pricing_plan_id":"cebpf4jnsgd1na2vs0mg"},{"bike_id":"9fb94e69-3038-4e70-b37c-9e41dddc049b","system_id":"levelo_inurba_marseille","lat":43.28348,"lon":5.3806,"is_reserved":false,"is_disabled":true,"rental_uris":{"android":"levelo://app?vid=9fb94e69-3038-4e70-b37c-9e41dddc049b","ios":"levelo://app?vid=9fb94e69-3038-4e70-b37c-9e41dddc049b"},"vehicle_type_id":"4","last_reported":1778417621,"current_range_meters":9600,"station_id":"ce4bh412rcd13ifvqdr0","pricing_plan_id":"cebpf4jnsgd1na2vs0mg"},{"bike_id":"41ecb6d4-6eb0-4766-b142-ca32b6634c39","system_id":"levelo_inurba_marseille","lat":43.33166,"lon":5.3771,"is_reserved":false,"is_disabled":false,"rental_uris":{"android":"levelo://app?vid=41ecb6d4-6eb0-4766-b142-ca32b6634c39","ios":"levelo://app?vid=41ecb6d4-6eb0-4766-b142-ca32b6634c39"},"vehicle_type_id":"4","last_reported":1778417621,"current_range_meters":9600,"station_id":"st_d46cu089ee8s73dldbu0","pricing_plan_id":"cebpf4jnsgd1na2vs0mg"},{"bike_id":"6c221b35-333b-451f-b80c-c18ff57def2c","system_id":"levelo_inurba_marseille","lat":43.32082,"lon":5.36718,"is_reserved":false,"is_disabled":false,"rental_uris":{"android":"levelo://app?vid=6c221b35-333b-451f-b80c-c18ff57def2c","ios":"levelo://app?vid=6c221b35-333b-451f-b80c-c18ff57def2c"},"vehicle_type_id":"4","last_reported":1778417621,"current_range_meters":9600,"station_id":"ce4bhrh2rcd13ifvqhug","pricing_plan_id":"cebpf4jnsgd1na2vs0mg"},{"bike_id":"21a7f896-b278-4e64-96ff-f2d3e49aae77","system_id":"levelo_inurba_marseille","lat":43.24635,"lon":5.43161,"is_reserved":false,"is_disabled":true,"rental_uris":{"android":"levelo://app?vid=21a7f896-b278-4e64-96ff-f2d3e49aae77","ios":"levelo://app?vid=21a7f896-b278-4e64-96ff-f2d3e49aae77"},"vehicle_type_id":"4","last_reported":1778417621,"current_range_meters":9600,"station_id":"st_d2m6c4gdas8pm72e190g","pricing_plan_id":"cebpf4jnsgd1na2vs0mg"},{"bike_id":"6491640b-eb05-4fdc-b092-d0a35fa5fbb1","system_id":"levelo_inurba_marseille","lat":43.29845,"lon":5.36277,"is_reserved":false,"is_disabled":false,"rental_uris":{"android":"levelo://app?vid=6491640b-eb05-4fdc-b092-d0a35fa5fbb1","ios":"levelo://app?vid=6491640b-eb05-4fdc-b092-d0a35fa5fbb1"},"vehicle_type_id":"4","last_reported":1778417621,"current_range_meters":9600,"station_id":"ce4bgpp2rcd13ifvqc3g","pricing_plan_id":"cebpf4jnsgd1na2vs0mg"},{"bike_id":"0a5d24e1-c278-44ad-85d5-b890195fcd96","system_id":"levelo_inurba_marseille","lat":43.28606,"lon":5.3513,"is_reserved":false,"is_disabled":false,"rental_uris":{"android":"levelo://app?vid=0a5d24e1-c278-44ad-85d5-b890195fcd96","ios":"levelo://app?vid=0a5d24e1-c278-44ad-85d5-b890195fcd96"},"vehicle_type_id":"4","last_reported":1778417621,"current_range_meters":10000,"station_id":"ce4bhch2rcd13ifvqeug","pricing_plan_id":"cebpf4jnsgd1na2vs0mg"},{"bike_id":"3ac9eeb4-241a-436b-aaca-d4544bb90685","system_id":"levelo_inurba_marseille","lat":43.29632,"lon":5.40612,"is_reserved":false,"is_disabled":false,"rental_uris":{"android":"levelo://app?vid=3ac9eeb4-241a-436b-aaca-d4544bb90685","ios":"levelo://app?vid=3ac9eeb4-241a-436b-aaca-d4544bb90685"},"vehicle_type_id":"4","last_reported":1778417621,"current_range_meters":10000,"station_id":"ce4bh0h2rcd13ifvqd60","pricing_plan_id":"cebpf4jnsgd1na2vs0mg"},{"bike_id":"fa97b013-cf20-4697-baec-25d48d14dd9d","system_id":"levelo_inurba_marseille","lat":43.29306,"lon":5.38411,"is_reserved":false,"is_disabled":true,"rental_uris":{"android":"levelo://app?vid=fa97b013-cf20-4697-baec-25d48d14dd9d","ios":"levelo://app?vid=fa97b013-cf20-4697-baec-25d48d14dd9d"},"vehicle_type_id":"4","last_reported":1778417621,"current_range_meters":10000,"station_id":"ce4bh692rcd13ifvqea0","pricing_plan_id":"cebpf4jnsgd1na2vs0mg"},{"bike_id":"db8a576c-9375-4aa7-a828-1b46e8e3d489","system_id":"levelo_inurba_marseille","lat":43.26053,"lon":5.39399,"is_reserved":false,"is_disabled":false,"rental_uris":{"android":"levelo://app?vid=db8a576c-9375-4aa7-a828-1b46e8e3d489","ios":"levelo://app?vid=db8a576c-9375-4aa7-a828-1b46e8e3d489"},"vehicle_type_id":"4","last_reported":1778417621,"current_range_meters":10000,"station_id":"ce4bhh92rcd13ifvqfj0","pricing_plan_id":"cebpf4jnsgd1na2vs0mg"},{"bike_id":"aa77ea44-d77e-48bc-af16-69d497b15ff0","system_id":"levelo_inurba_marseille","lat":43.27099,"lon":5.38308,"is_reserved":false,"is_disabled":false,"rental_uris":{"android":"levelo://app?vid=aa77ea44-d77e-48bc-af16-69d497b15ff0","ios":"levelo://app?vid=aa77ea44-d77e-48bc-af16-69d497b15ff0"},"vehicle_type_id":"4","last_reported":1778417621,"current_range_meters":10000,"station_id":"st_d3n2fo6cfp8s73cte1j0","pricing_plan_id":"cebpf4jnsgd1na2vs0mg"},{"bike_id":"7c0caa52-21c5-41d5-bddb-76a38bb998b8","system_id":"levelo_inurba_marseille","lat":43.29814,"lon":5.44071,"is_reserved":false,"is_disabled":false,"rental_uris":{"android":"levelo://app?vid=7c0caa52-21c5-41d5-bddb-76a38bb998b8","ios":"levelo://app?vid=7c0caa52-21c5-41d5-bddb-76a38bb998b8"},"vehicle_type_id":"4","last_reported":1778417621,"current_range_meters":10000,"station_id":"st_d3jp68qikq2c7381ktn0","pricing_plan_id":"cebpf4jnsgd1na2vs0mg"},{"bike_id":"5165cb37-e8e5-4b54-8ebf-53c59022c8f5","system_id":"levelo_inurba_marseille","lat":43.28422,"lon":5.37528,"is_reserved":false,"is_disabled":false,"rental_uris":{"android":"levelo://app?vid=5165cb37-e8e5-4b54-8ebf-53c59022c8f5","ios":"levelo://app?vid=5165cb37-e8e5-4b54-8ebf-53c59022c8f5"},"vehicle_type_id":"4","last_reported":1778417621,"current_range_meters":10000,"station_id":"ce4bh412rcd13ifvqds0","pricing_plan_id":"cebpf4jnsgd1na2vs0mg"},{"bike_id":"b8253c6e-2e65-422a-b604-6720af1ef768","system_id":"levelo_inurba_marseille","lat":43.33179,"lon":5.37699,"is_reserved":false,"is_disabled":false,"rental_uris":{"android":"levelo://app?vid=b8253c6e-2e65-422a-b604-6720af1ef768","ios":"levelo://app?vid=b8253c6e-2e65-422a-b604-6720af1ef768"},"vehicle_type_id":"4","last_reported":1778417621,"current_range_meters":10000,"station_id":"st_d46cu089ee8s73dldbu0","pricing_plan_id":"cebpf4jnsgd1na2vs0mg"},{"bike_id":"429fd185-2c80-4e4e-9c37-a4fcb7e71fd3","system_id":"levelo_inurba_marseille","lat":43.29243,"lon":5.37621,"is_reserved":false,"is_disabled":false,"rental_uris":{"android":"levelo://app?vid=429fd185-2c80-4e4e-9c37-a4fcb7e71fd3","ios":"levelo://app?vid=429fd185-2c80-4e4e-9c37-a4fcb7e71fd3"},"vehicle_type_id":"4","last_reported":1778417621,"current_range_meters":10000,"station_id":"ce4bgi12rcd13ifvqb80","pricing_plan_id":"cebpf4jnsgd1na2vs0mg"},{"bike_id":"982c6655-755d-4e56-84af-cb19c1fd0817","system_id":"levelo_inurba_marseille","lat":43.29963,"lon":5.36537,"is_reserved":false,"is_disabled":false,"rental_uris":{"android":"levelo://app?vid=982c6655-755d-4e56-84af-cb19c1fd0817","ios":"levelo://app?vid=982c6655-755d-4e56-84af-cb19c1fd0817"},"vehicle_type_id":"4","last_reported":1778417621,"current_range_meters":10000,"station_id":"ce4bgm92rcd13ifvqbr0","pricing_plan_id":"cebpf4jnsgd1na2vs0mg"},{"bike_id":"57394a6b-0e54-4a7c-b04a-d450a2ab5e79","system_id":"levelo_inurba_marseille","lat":43.25512,"lon":5.3765,"is_reserved":false,"is_disabled":true,"rental_uris":{"android":"levelo://app?vid=57394a6b-0e54-4a7c-b04a-d450a2ab5e79","ios":"levelo://app?vid=57394a6b-0e54-4a7c-b04a-d450a2ab5e79"},"vehicle_type_id":"4","last_reported":1778417621,"current_range_meters":10000,"station_id":"ce4bhh12rcd13ifvqff0","pricing_plan_id":"cebpf4jnsgd1na2vs0mg"},{"bike_id":"75d44f43-cf7b-4662-8428-a2cc94a2980d","system_id":"levelo_inurba_marseille","lat":43.28867,"lon":5.42518,"is_reserved":false,"is_disabled":false,"rental_uris":{"android":"levelo://app?vid=75d44f43-cf7b-4662-8428-a2cc94a2980d","ios":"levelo://app?vid=75d44f43-cf7b-4662-8428-a2cc94a2980d"},"vehicle_type_id":"4","last_reported":1778417621,"current_range_meters":10000,"station_id":"st_d3b462108ojc7389ooeg","pricing_plan_id":"cebpf4jnsgd1na2vs0mg"},{"bike_id":"f0f401d4-150c-4cfa-919d-efdf4f923085","system_id":"levelo_inurba_marseille","lat":43.23902,"lon":5.37462,"is_reserved":false,"is_disabled":true,"rental_uris":{"android":"levelo://app?vid=f0f401d4-150c-4cfa-919d-efdf4f923085","ios":"levelo://app?vid=f0f401d4-150c-4cfa-919d-efdf4f923085"},"vehicle_type_id":"4","last_reported":1778417621,"current_range_meters":10000,"station_id":"st_d6sm7csbq4hs73f8fpjg","pricing_plan_id":"cebpf4jnsgd1na2vs0mg"},{"bike_id":"5a5f96c2-f665-462b-8d3c-826ece6c9c38","system_id":"levelo_inurba_marseille","lat":43.29268,"lon":5.36849,"is_reserved":false,"is_disabled":false,"rental_uris":{"android":"levelo://app?vid=5a5f96c2-f665-462b-8d3c-826ece6c9c38","ios":"levelo://app?vid=5a5f96c2-f665-462b-8d3c-826ece6c9c38"},"vehicle_type_id":"4","last_reported":1778417621,"current_range_meters":10000,"station_id":"ce4bhbp2rcd13ifvqesg","pricing_plan_id":"cebpf4jnsgd1na2vs0mg"},{"bike_id":"2c6cad1e-62e6-4820-a5aa-a8bd5c6f2122","system_id":"levelo_inurba_marseille","lat":43.29843,"lon":5.36262,"is_reserved":false,"is_disabled":false,"rental_uris":{"android":"levelo://app?vid=2c6cad1e-62e6-4820-a5aa-a8bd5c6f2122","ios":"levelo://app?vid=2c6cad1e-62e6-4820-a5aa-a8bd5c6f2122"},"vehicle_type_id":"4","last_reported":1778417621,"current_range_meters":10000,"station_id":"ce4bgpp2rcd13ifvqc3g","pricing_plan_id":"cebpf4jnsgd1na2vs0mg"},{"bike_id":"118bc792-3082-4259-9001-327353767cf5","system_id":"levelo_inurba_marseille","lat":43.28944,"lon":5.38387,"is_reserved":false,"is_disabled":false,"rental_uris":{"android":"levelo://app?vid=118bc792-3082-4259-9001-327353767cf5","ios":"levelo://app?vid=118bc792-3082-4259-9001-327353767cf5"},"vehicle_type_id":"4","last_reported":1778417621,"current_range_meters":10000,"station_id":"ce4bh612rcd13ifvqe6g","pricing_plan_id":"cebpf4jnsgd1na2vs0mg"},{"bike_id":"96178097-25e8-4e8a-b55e-03e212451214","system_id":"levelo_inurba_marseille","lat":43.32507,"lon":5.41479,"is_reserved":false,"is_disabled":false,"rental_uris":{"android":"levelo://app?vid=96178097-25e8-4e8a-b55e-03e212451214","ios":"levelo://app?vid=96178097-25e8-4e8a-b55e-03e212451214"},"vehicle_type_id":"4","last_reported":1778417621,"current_range_meters":10000,"station_id":"ce4bhq12rcd13ifvqhhg","pricing_plan_id":"cebpf4jnsgd1na2vs0mg"},{"bike_id":"55f6c61f-7d61-407f-80c7-c8e09e4b0ac9","system_id":"levelo_inurba_marseille","lat":43.23933,"lon":5.37447,"is_reserved":false,"is_disabled":false,"rental_uris":{"android":"levelo://app?vid=55f6c61f-7d61-407f-80c7-c8e09e4b0ac9","ios":"levelo://app?vid=55f6c61f-7d61-407f-80c7-c8e09e4b0ac9"},"vehicle_type_id":"4","last_reported":1778417621,"current_range_meters":10000,"station_id":"st_d6sm7csbq4hs73f8fpjg","pricing_plan_id":"cebpf4jnsgd1na2vs0mg"},{"bike_id":"8b637697-371a-4320-9dd5-804ddcdea538","system_id":"levelo_inurba_marseille","lat":43.26972,"lon":5.38616,"is_reserved":false,"is_disabled":false,"rental_uris":{"android":"levelo://app?vid=8b637697-371a-4320-9dd5-804ddcdea538","ios":"levelo://app?vid=8b637697-371a-4320-9dd5-804ddcdea538"},"vehicle_type_id":"4","last_reported":1778417621,"current_range_meters":10800,"station_id":"ce4bhh92rcd13ifvqfh0","pricing_plan_id":"cebpf4jnsgd1na2vs0mg"},{"bike_id":"3513c7c9-429c-4027-9626-3747f3ee85c7","system_id":"levelo_inurba_marseille","lat":43.33541,"lon":5.37464,"is_reserved":false,"is_disabled":false,"rental_uris":{"android":"levelo://app?vid=3513c7c9-429c-4027-9626-3747f3ee85c7","ios":"levelo://app?vid=3513c7c9-429c-4027-9626-3747f3ee85c7"},"vehicle_type_id":"4","last_reported":1778417621,"current_range_meters":10800,"station_id":"st_d46tts09ee8s73dlu43g","pricing_plan_id":"cebpf4jnsgd1na2vs0mg"},{"bike_id":"ad00b11e-25ed-4de4-94e7-98286bb87fc0","system_id":"levelo_inurba_marseille","lat":43.29857,"lon":5.37707,"is_reserved":false,"is_disabled":false,"rental_uris":{"android":"levelo://app?vid=ad00b11e-25ed-4de4-94e7-98286bb87fc0","ios":"levelo://app?vid=ad00b11e-25ed-4de4-94e7-98286bb87fc0"},"vehicle_type_id":"4","last_reported":1778417621,"current_range_meters":10800,"station_id":"","pricing_plan_id":"cebpf4jnsgd1na2vs0mg"},{"bike_id":"00efdd2b-c9e8-4ab6-a23d-aba82ba51e81","system_id":"levelo_inurba_marseille","lat":43.25144,"lon":5.40352,"is_reserved":false,"is_disabled":false,"rental_uris":{"android":"levelo://app?vid=00efdd2b-c9e8-4ab6-a23d-aba82ba51e81","ios":"levelo://app?vid=00efdd2b-c9e8-4ab6-a23d-aba82ba51e81"},"vehicle_type_id":"4","last_reported":1778417621,"current_range_meters":10800,"station_id":"","pricing_plan_id":"cebpf4jnsgd1na2vs0mg"},{"bike_id":"b5b0524a-16d5-40b7-8ca1-117d09866cbf","system_id":"levelo_inurba_marseille","lat":43.33957,"lon":5.41668,"is_reserved":false,"is_disabled":false,"rental_uris":{"android":"levelo://app?vid=b5b0524a-16d5-40b7-8ca1-117d09866cbf","ios":"levelo://app?vid=b5b0524a-16d5-40b7-8ca1-117d09866cbf"},"vehicle_type_id":"4","last_reported":1778417621,"current_range_meters":10800,"station_id":"","pricing_plan_id":"cebpf4jnsgd1na2vs0mg"},{"bike_id":"782b02f9-c57b-456b-a4bf-832d640b8f92","system_id":"levelo_inurba_marseille","lat":43.25698,"lon":5.41106,"is_reserved":false,"is_disabled":false,"rental_uris":{"android":"levelo://app?vid=782b02f9-c57b-456b-a4bf-832d640b8f92","ios":"levelo://app?vid=782b02f9-c57b-456b-a4bf-832d640b8f92"},"vehicle_type_id":"4","last_reported":1778417621,"current_range_meters":10800,"station_id":"ce4bhkp2rcd13ifvqgd0","pricing_plan_id":"cebpf4jnsgd1na2vs0mg"},{"bike_id":"635e37d3-7b93-4e97-82bd-bbf4c4561837","system_id":"levelo_inurba_marseille","lat":43.32238,"lon":5.36884,"is_reserved":false,"is_disabled":false,"rental_uris":{"android":"levelo://app?vid=635e37d3-7b93-4e97-82bd-bbf4c4561837","ios":"levelo://app?vid=635e37d3-7b93-4e97-82bd-bbf4c4561837"},"vehicle_type_id":"4","last_reported":1778417621,"current_range_meters":10800,"station_id":"","pricing_plan_id":"cebpf4jnsgd1na2vs0mg"},{"bike_id":"4c34fc06-cd5d-4370-99e5-d73fa1876b4f","system_id":"levelo_inurba_marseille","lat":43.29538,"lon":5.38532,"is_reserved":false,"is_disabled":false,"rental_uris":{"android":"levelo://app?vid=4c34fc06-cd5d-4370-99e5-d73fa1876b4f","ios":"levelo://app?vid=4c34fc06-cd5d-4370-99e5-d73fa1876b4f"},"vehicle_type_id":"4","last_reported":1778417621,"current_range_meters":10800,"station_id":"ce4bgih2rcd13ifvqba0","pricing_plan_id":"cebpf4jnsgd1na2vs0mg"},{"bike_id":"de5e63f3-90b9-4eb1-8a88-6b8b6b27e91d","system_id":"levelo_inurba_marseille","lat":43.23185,"lon":5.35584,"is_reserved":false,"is_disabled":true,"rental_uris":{"android":"levelo://app?vid=de5e63f3-90b9-4eb1-8a88-6b8b6b27e91d","ios":"levelo://app?vid=de5e63f3-90b9-4eb1-8a88-6b8b6b27e91d"},"vehicle_type_id":"4","last_reported":1778417621,"current_range_meters":10800,"station_id":"ce4bhu92rcd13ifvqi70","pricing_plan_id":"cebpf4jnsgd1na2vs0mg"},{"bike_id":"ded3ddf8-605b-4d28-b69f-a3d3077311b9","system_id":"levelo_inurba_marseille","lat":43.29883,"lon":5.39736,"is_reserved":false,"is_disabled":true,"rental_uris":{"android":"levelo://app?vid=ded3ddf8-605b-4d28-b69f-a3d3077311b9","ios":"levelo://app?vid=ded3ddf8-605b-4d28-b69f-a3d3077311b9"},"vehicle_type_id":"4","last_reported":1778417621,"current_range_meters":10800,"station_id":"ce4bh0h2rcd13ifvqd50","pricing_plan_id":"cebpf4jnsgd1na2vs0mg"},{"bike_id":"a19814e5-ed09-4aa6-8f0d-2656103e1679","system_id":"levelo_inurba_marseille","lat":43.3043,"lon":5.38889,"is_reserved":false,"is_disabled":false,"rental_uris":{"android":"levelo://app?vid=a19814e5-ed09-4aa6-8f0d-2656103e1679","ios":"levelo://app?vid=a19814e5-ed09-4aa6-8f0d-2656103e1679"},"vehicle_type_id":"4","last_reported":1778417621,"current_range_meters":10800,"station_id":"ce4bgk12rcd13ifvqbi0","pricing_plan_id":"cebpf4jnsgd1na2vs0mg"},{"bike_id":"5f7a64ef-f159-494d-879e-fcb5dfa65d69","system_id":"levelo_inurba_marseille","lat":43.31117,"lon":5.37772,"is_reserved":false,"is_disabled":false,"rental_uris":{"android":"levelo://app?vid=5f7a64ef-f159-494d-879e-fcb5dfa65d69","ios":"levelo://app?vid=5f7a64ef-f159-494d-879e-fcb5dfa65d69"},"vehicle_type_id":"4","last_reported":1778417621,"current_range_meters":10800,"station_id":"ce4bgt92rcd13ifvqcg0","pricing_plan_id":"cebpf4jnsgd1na2vs0mg"},{"bike_id":"74c9276e-bf9a-48c3-9e42-36092b4b8ec7","system_id":"levelo_inurba_marseille","lat":43.30544,"lon":5.36525,"is_reserved":false,"is_disabled":false,"rental_uris":{"android":"levelo://app?vid=74c9276e-bf9a-48c3-9e42-36092b4b8ec7","ios":"levelo://app?vid=74c9276e-bf9a-48c3-9e42-36092b4b8ec7"},"vehicle_type_id":"4","last_reported":1778417621,"current_range_meters":11200,"station_id":"ce4bgs12rcd13ifvqcag","pricing_plan_id":"cebpf4jnsgd1na2vs0mg"},{"bike_id":"9a97897a-dbb8-4895-920b-fd4cc7f9ad63","system_id":"levelo_inurba_marseille","lat":43.27067,"lon":5.40254,"is_reserved":false,"is_disabled":false,"rental_uris":{"android":"levelo://app?vid=9a97897a-dbb8-4895-920b-fd4cc7f9ad63","ios":"levelo://app?vid=9a97897a-dbb8-4895-920b-fd4cc7f9ad63"},"vehicle_type_id":"4","last_reported":1778417621,"current_range_meters":11200,"station_id":"ce4bhk92rcd13ifvqgc0","pricing_plan_id":"cebpf4jnsgd1na2vs0mg"},{"bike_id":"88f6387c-8894-40ad-99ab-678b2c9c3fd8","system_id":"levelo_inurba_marseille","lat":43.26944,"lon":5.40249,"is_reserved":false,"is_disabled":true,"rental_uris":{"android":"levelo://app?vid=88f6387c-8894-40ad-99ab-678b2c9c3fd8","ios":"levelo://app?vid=88f6387c-8894-40ad-99ab-678b2c9c3fd8"},"vehicle_type_id":"4","last_reported":1778417621,"current_range_meters":11200,"station_id":"cjm6bp8fraef2m0cb0m0","pricing_plan_id":"cebpf4jnsgd1na2vs0mg"},{"bike_id":"7a44c589-a6c7-45e0-9afc-1a6fd0e9a4bd","system_id":"levelo_inurba_marseille","lat":43.2972,"lon":5.37716,"is_reserved":false,"is_disabled":true,"rental_uris":{"android":"levelo://app?vid=7a44c589-a6c7-45e0-9afc-1a6fd0e9a4bd","ios":"levelo://app?vid=7a44c589-a6c7-45e0-9afc-1a6fd0e9a4bd"},"vehicle_type_id":"4","last_reported":1778417621,"current_range_meters":11200,"station_id":"ce4bgkh2rcd13ifvqbl0","pricing_plan_id":"cebpf4jnsgd1na2vs0mg"},{"bike_id":"d5292d58-8f4b-486e-aab5-1506eb52500a","system_id":"levelo_inurba_marseille","lat":43.24082,"lon":5.37728,"is_reserved":false,"is_disabled":false,"rental_uris":{"android":"levelo://app?vid=d5292d58-8f4b-486e-aab5-1506eb52500a","ios":"levelo://app?vid=d5292d58-8f4b-486e-aab5-1506eb52500a"},"vehicle_type_id":"4","last_reported":1778417621,"current_range_meters":11200,"station_id":"ce4bhnp2rcd13ifvqgvg","pricing_plan_id":"cebpf4jnsgd1na2vs0mg"},{"bike_id":"a817eaca-2af4-4d62-b438-c969e29b5119","system_id":"levelo_inurba_marseille","lat":43.29553,"lon":5.38546,"is_reserved":false,"is_disabled":false,"rental_uris":{"android":"levelo://app?vid=a817eaca-2af4-4d62-b438-c969e29b5119","ios":"levelo://app?vid=a817eaca-2af4-4d62-b438-c969e29b5119"},"vehicle_type_id":"4","last_reported":1778417621,"current_range_meters":11200,"station_id":"ce4bgih2rcd13ifvqba0","pricing_plan_id":"cebpf4jnsgd1na2vs0mg"},{"bike_id":"55a6b384-2482-4f2d-828d-0fd214e01297","system_id":"levelo_inurba_marseille","lat":43.24187,"lon":5.39889,"is_reserved":false,"is_disabled":false,"rental_uris":{"android":"levelo://app?vid=55a6b384-2482-4f2d-828d-0fd214e01297","ios":"levelo://app?vid=55a6b384-2482-4f2d-828d-0fd214e01297"},"vehicle_type_id":"4","last_reported":1778417621,"current_range_meters":11200,"station_id":"","pricing_plan_id":"cebpf4jnsgd1na2vs0mg"},{"bike_id":"4a17ee7a-6bb6-4368-8a75-193c8f779394","system_id":"levelo_inurba_marseille","lat":43.296,"lon":5.37505,"is_reserved":false,"is_disabled":false,"rental_uris":{"android":"levelo://app?vid=4a17ee7a-6bb6-4368-8a75-193c8f779394","ios":"levelo://app?vid=4a17ee7a-6bb6-4368-8a75-193c8f779394"},"vehicle_type_id":"4","last_reported":1778417621,"current_range_meters":11200,"station_id":"ce4bgh92rcd13ifvqb50","pricing_plan_id":"cebpf4jnsgd1na2vs0mg"},{"bike_id":"f5c7ae53-9fe4-4121-b89f-3db103fbc501","system_id":"levelo_inurba_marseille","lat":43.29462,"lon":5.37943,"is_reserved":false,"is_disabled":false,"rental_uris":{"android":"levelo://app?vid=f5c7ae53-9fe4-4121-b89f-3db103fbc501","ios":"levelo://app?vid=f5c7ae53-9fe4-4121-b89f-3db103fbc501"},"vehicle_type_id":"4","last_reported":1778417621,"current_range_meters":11200,"station_id":"","pricing_plan_id":"cebpf4jnsgd1na2vs0mg"},{"bike_id":"986ca31a-3462-410e-9801-3e37082a1e7a","system_id":"levelo_inurba_marseille","lat":43.30491,"lon":5.45988,"is_reserved":false,"is_disabled":false,"rental_uris":{"android":"levelo://app?vid=986ca31a-3462-410e-9801-3e37082a1e7a","ios":"levelo://app?vid=986ca31a-3462-410e-9801-3e37082a1e7a"},"vehicle_type_id":"4","last_reported":1778417621,"current_range_meters":11200,"station_id":"","pricing_plan_id":"cebpf4jnsgd1na2vs0mg"},{"bike_id":"ae73e9fb-6e04-4acb-b485-5230ae4174eb","system_id":"levelo_inurba_marseille","lat":43.25585,"lon":5.38224,"is_reserved":false,"is_disabled":false,"rental_uris":{"android":"levelo://app?vid=ae73e9fb-6e04-4acb-b485-5230ae4174eb","ios":"levelo://app?vid=ae73e9fb-6e04-4acb-b485-5230ae4174eb"},"vehicle_type_id":"4","last_reported":1778417621,"current_range_meters":11200,"station_id":"ce4bhih2rcd13ifvqfs0","pricing_plan_id":"cebpf4jnsgd1na2vs0mg"},{"bike_id":"73cbb9a5-b252-42aa-8192-5783eedf76ff","system_id":"levelo_inurba_marseille","lat":43.33536,"lon":5.37465,"is_reserved":false,"is_disabled":false,"rental_uris":{"android":"levelo://app?vid=73cbb9a5-b252-42aa-8192-5783eedf76ff","ios":"levelo://app?vid=73cbb9a5-b252-42aa-8192-5783eedf76ff"},"vehicle_type_id":"4","last_reported":1778417621,"current_range_meters":11200,"station_id":"st_d46tts09ee8s73dlu43g","pricing_plan_id":"cebpf4jnsgd1na2vs0mg"},{"bike_id":"51f86cdb-a256-4709-91e1-c5bcb36554d5","system_id":"levelo_inurba_marseille","lat":43.30427,"lon":5.38882,"is_reserved":false,"is_disabled":false,"rental_uris":{"android":"levelo://app?vid=51f86cdb-a256-4709-91e1-c5bcb36554d5","ios":"levelo://app?vid=51f86cdb-a256-4709-91e1-c5bcb36554d5"},"vehicle_type_id":"4","last_reported":1778417621,"current_range_meters":11200,"station_id":"ce4bgk12rcd13ifvqbi0","pricing_plan_id":"cebpf4jnsgd1na2vs0mg"},{"bike_id":"b049c2aa-2cea-498f-81be-f260a25852a3","system_id":"levelo_inurba_marseille","lat":43.27931,"lon":5.39512,"is_reserved":false,"is_disabled":false,"rental_uris":{"android":"levelo://app?vid=b049c2aa-2cea-498f-81be-f260a25852a3","ios":"levelo://app?vid=b049c2aa-2cea-498f-81be-f260a25852a3"},"vehicle_type_id":"4","last_reported":1778417621,"current_range_meters":11200,"station_id":"ce4bhf92rcd13ifvqf40","pricing_plan_id":"cebpf4jnsgd1na2vs0mg"},{"bike_id":"d70685b8-d744-4edb-9381-a881a163ba01","system_id":"levelo_inurba_marseille","lat":43.29564,"lon":5.38997,"is_reserved":false,"is_disabled":true,"rental_uris":{"android":"levelo://app?vid=d70685b8-d744-4edb-9381-a881a163ba01","ios":"levelo://app?vid=d70685b8-d744-4edb-9381-a881a163ba01"},"vehicle_type_id":"4","last_reported":1778417621,"current_range_meters":11200,"station_id":"","pricing_plan_id":"cebpf4jnsgd1na2vs0mg"},{"bike_id":"3fc0738b-e8d0-4ed2-90fb-94836bfb34cd","system_id":"levelo_inurba_marseille","lat":43.29594,"lon":5.36743,"is_reserved":false,"is_disabled":false,"rental_uris":{"android":"levelo://app?vid=3fc0738b-e8d0-4ed2-90fb-94836bfb34cd","ios":"levelo://app?vid=3fc0738b-e8d0-4ed2-90fb-94836bfb34cd"},"vehicle_type_id":"4","last_reported":1778417621,"current_range_meters":11200,"station_id":"ce4bgph2rcd13ifvqc2g","pricing_plan_id":"cebpf4jnsgd1na2vs0mg"},{"bike_id":"20dcd8e6-ed29-49e8-817d-19f9c5f3fe21","system_id":"levelo_inurba_marseille","lat":43.29571,"lon":5.37526,"is_reserved":false,"is_disabled":false,"rental_uris":{"android":"levelo://app?vid=20dcd8e6-ed29-49e8-817d-19f9c5f3fe21","ios":"levelo://app?vid=20dcd8e6-ed29-49e8-817d-19f9c5f3fe21"},