{"last_updated":1721931047,"ttl":30,"version":"2.2","data":{"bikes":[{"bike_id":"2391d722-2bad-4503-96df-e6259e9c3072","system_id":"levelo_inurba_marseille","lat":43.31341,"lon":5.367098,"is_reserved":false,"is_disabled":false,"rental_uris":{"android":"levelo://app?vid=2391d722-2bad-4503-96df-e6259e9c3072","ios":"levelo://app?vid=2391d722-2bad-4503-96df-e6259e9c3072"},"vehicle_type_id":"4","last_reported":1721931047,"current_range_meters":7200,"station_id":"ce4bgr92rcd13ifvqc6g","pricing_plan_id":"cebpf4jnsgd1na2vs0mg"},{"bike_id":"225f7201-c00a-48d8-8e66-9c61792f14c1","system_id":"levelo_inurba_marseille","lat":43.31243,"lon":5.36825,"is_reserved":false,"is_disabled":false,"rental_uris":{"android":"levelo://app?vid=225f7201-c00a-48d8-8e66-9c61792f14c1","ios":"levelo://app?vid=225f7201-c00a-48d8-8e66-9c61792f14c1"},"vehicle_type_id":"4","last_reported":1721931047,"current_range_meters":17600,"station_id":"ce4bgl92rcd13ifvqbq0","pricing_plan_id":"cebpf4jnsgd1na2vs0mg"},{"bike_id":"313d6760-796d-4033-bd5e-d8aac6cbab17","system_id":"levelo_inurba_marseille","lat":43.312239,"lon":5.368562,"is_reserved":false,"is_disabled":false,"rental_uris":{"android":"levelo://app?vid=313d6760-796d-4033-bd5e-d8aac6cbab17","ios":"levelo://app?vid=313d6760-796d-4033-bd5e-d8aac6cbab17"},"vehicle_type_id":"4","last_reported":1721931047,"current_range_meters":8400,"station_id":"ce4bgl92rcd13ifvqbq0","pricing_plan_id":"cebpf4jnsgd1na2vs0mg"},{"bike_id":"90971250-5f65-4858-b45d-25759baf499d","system_id":"levelo_inurba_marseille","lat":43.31341,"lon":5.367098,"is_reserved":false,"is_disabled":false,"rental_uris":{"android":"levelo://app?vid=90971250-5f65-4858-b45d-25759baf499d","ios":"levelo://app?vid=90971250-5f65-4858-b45d-25759baf499d"},"vehicle_type_id":"4","last_reported":1721931047,"current_range_meters":23200,"station_id":"ce4bgr92rcd13ifvqc6g","pricing_plan_id":"cebpf4jnsgd1na2vs0mg"},{"bike_id":"faedf63d-2f36-4f13-95d5-aed67f3d0d0b","system_id":"levelo_inurba_marseille","lat":43.312239,"lon":5.368562,"is_reserved":false,"is_disabled":false,"rental_uris":{"android":"levelo://app?vid=faedf63d-2f36-4f13-95d5-aed67f3d0d0b","ios":"levelo://app?vid=faedf63d-2f36-4f13-95d5-aed67f3d0d0b"},"vehicle_type_id":"4","last_reported":1721931047,"current_range_meters":0,"station_id":"ce4bgl92rcd13ifvqbq0","pricing_plan_id":"cebpf4jnsgd1na2vs0mg"},{"bike_id":"3f204dea-fa59-44df-b797-01b171310caa","system_id":"levelo_inurba_marseille","lat":43.312239,"lon":5.368562,"is_reserved":false,"is_disabled":false,"rental_uris":{"android":"levelo://app?vid=3f204dea-fa59-44df-b797-01b171310caa","ios":"levelo://app?vid=3f204dea-fa59-44df-b797-01b171310caa"},"vehicle_type_id":"4","last_reported":1721931047,"current_range_meters":18400,"station_id":"ce4bgl92rcd13ifvqbq0","pricing_plan_id":"cebpf4jnsgd1na2vs0mg"},{"bike_id":"b0b89b50-df04-4223-844e-b33fdce68a6e","system_id":"levelo_inurba_marseille","lat":43.312239,"lon":5.368562,"is_reserved":false,"is_disabled":false,"rental_uris":{"android":"levelo://app?vid=b0b89b50-df04-4223-844e-b33fdce68a6e","ios":"levelo://app?vid=b0b89b50-df04-4223-844e-b33fdce68a6e"},"vehicle_type_id":"4","last_reported":1721931047,"current_range_meters":1600,"station_id":"ce4bgl92rcd13ifvqbq0","pricing_plan_id":"cebpf4jnsgd1na2vs0mg"},{"bike_id":"aa3f7684-ec38-44bc-b737-c61b2c4adc65","system_id":"levelo_inurba_marseille","lat":43.312239,"lon":5.368562,"is_reserved":false,"is_disabled":false,"rental_uris":{"android":"levelo://app?vid=aa3f7684-ec38-44bc-b737-c61b2c4adc65","ios":"levelo://app?vid=aa3f7684-ec38-44bc-b737-c61b2c4adc65"},"vehicle_type_id":"4","last_reported":1721931047,"current_range_meters":13200,"station_id":"ce4bgl92rcd13ifvqbq0","pricing_plan_id":"cebpf4jnsgd1na2vs0mg"},{"bike_id":"093ab82a-9351-43f0-aa1e-8c0f92006508","system_id":"levelo_inurba_marseille","lat":43.314811,"lon":5.373104,"is_reserved":false,"is_disabled":false,"rental_uris":{"android":"levelo://app?vid=093ab82a-9351-43f0-aa1e-8c0f92006508","ios":"levelo://app?vid=093ab82a-9351-43f0-aa1e-8c0f92006508"},"vehicle_type_id":"4","last_reported":1721931047,"current_range_meters":26800,"station_id":"ce4bgt12rcd13ifvqcd0","pricing_plan_id":"cebpf4jnsgd1na2vs0mg"},{"bike_id":"78293cd2-6004-4199-bd03-cf57d42cfeb8","system_id":"levelo_inurba_marseille","lat":43.314811,"lon":5.373103,"is_reserved":false,"is_disabled":false,"rental_uris":{"android":"levelo://app?vid=78293cd2-6004-4199-bd03-cf57d42cfeb8","ios":"levelo://app?vid=78293cd2-6004-4199-bd03-cf57d42cfeb8"},"vehicle_type_id":"4","last_reported":1721931047,"current_range_meters":6800,"station_id":"ce4bgt12rcd13ifvqcd0","pricing_plan_id":"cebpf4jnsgd1na2vs0mg"},{"bike_id":"30b12927-a0b1-4bf6-a3f4-f56314e6fde5","system_id":"levelo_inurba_marseille","lat":43.30537,"lon":5.367345,"is_reserved":false,"is_disabled":false,"rental_uris":{"android":"levelo://app?vid=30b12927-a0b1-4bf6-a3f4-f56314e6fde5","ios":"levelo://app?vid=30b12927-a0b1-4bf6-a3f4-f56314e6fde5"},"vehicle_type_id":"4","last_reported":1721931047,"current_range_meters":400,"station_id":"ce4bgrp2rcd13ifvqc9g","pricing_plan_id":"cebpf4jnsgd1na2vs0mg"},{"bike_id":"a794e06d-e042-4d92-a4fb-0b2eda8d1d48","system_id":"levelo_inurba_marseille","lat":43.305989,"lon":5.37225,"is_reserved":false,"is_disabled":false,"rental_uris":{"android":"levelo://app?vid=a794e06d-e042-4d92-a4fb-0b2eda8d1d48","ios":"levelo://app?vid=a794e06d-e042-4d92-a4fb-0b2eda8d1d48"},"vehicle_type_id":"4","last_reported":1721931047,"current_range_meters":6000,"station_id":"ce4bgqh2rcd13ifvqc4g","pricing_plan_id":"cebpf4jnsgd1na2vs0mg"},{"bike_id":"fef15951-c817-4638-bac4-05b1100bf01d","system_id":"levelo_inurba_marseille","lat":43.305989,"lon":5.37225,"is_reserved":false,"is_disabled":false,"rental_uris":{"android":"levelo://app?vid=fef15951-c817-4638-bac4-05b1100bf01d","ios":"levelo://app?vid=fef15951-c817-4638-bac4-05b1100bf01d"},"vehicle_type_id":"4","last_reported":1721931047,"current_range_meters":11600,"station_id":"ce4bgqh2rcd13ifvqc4g","pricing_plan_id":"cebpf4jnsgd1na2vs0mg"},{"bike_id":"978bf813-2265-4db2-838a-84defe6ec0b1","system_id":"levelo_inurba_marseille","lat":43.31114,"lon":5.37779,"is_reserved":false,"is_disabled":false,"rental_uris":{"android":"levelo://app?vid=978bf813-2265-4db2-838a-84defe6ec0b1","ios":"levelo://app?vid=978bf813-2265-4db2-838a-84defe6ec0b1"},"vehicle_type_id":"4","last_reported":1721931047,"current_range_meters":4800,"station_id":"","pricing_plan_id":"cebpf4jnsgd1na2vs0mg"},{"bike_id":"a7324f0e-b1dc-4e0e-b823-f42d3d773289","system_id":"levelo_inurba_marseille","lat":43.311125,"lon":5.377624,"is_reserved":false,"is_disabled":false,"rental_uris":{"android":"levelo://app?vid=a7324f0e-b1dc-4e0e-b823-f42d3d773289","ios":"levelo://app?vid=a7324f0e-b1dc-4e0e-b823-f42d3d773289"},"vehicle_type_id":"4","last_reported":1721931047,"current_range_meters":0,"station_id":"ce4bgt92rcd13ifvqcg0","pricing_plan_id":"cebpf4jnsgd1na2vs0mg"},{"bike_id":"c48a1ad9-9d24-48be-b7c4-b21b5187368c","system_id":"levelo_inurba_marseille","lat":43.307945,"lon":5.376487,"is_reserved":false,"is_disabled":false,"rental_uris":{"android":"levelo://app?vid=c48a1ad9-9d24-48be-b7c4-b21b5187368c","ios":"levelo://app?vid=c48a1ad9-9d24-48be-b7c4-b21b5187368c"},"vehicle_type_id":"4","last_reported":1721931047,"current_range_meters":30400,"station_id":"ce4bgv92rcd13ifvqcq0","pricing_plan_id":"cebpf4jnsgd1na2vs0mg"},{"bike_id":"956fb0ea-541b-43ec-b903-2de58ed86b18","system_id":"levelo_inurba_marseille","lat":43.307945,"lon":5.376487,"is_reserved":false,"is_disabled":false,"rental_uris":{"android":"levelo://app?vid=956fb0ea-541b-43ec-b903-2de58ed86b18","ios":"levelo://app?vid=956fb0ea-541b-43ec-b903-2de58ed86b18"},"vehicle_type_id":"4","last_reported":1721931047,"current_range_meters":14400,"station_id":"ce4bgv92rcd13ifvqcq0","pricing_plan_id":"cebpf4jnsgd1na2vs0mg"},{"bike_id":"679c4fb3-9363-4157-8f52-33ca86a44812","system_id":"levelo_inurba_marseille","lat":43.30842,"lon":5.37706,"is_reserved":false,"is_disabled":false,"rental_uris":{"android":"levelo://app?vid=679c4fb3-9363-4157-8f52-33ca86a44812","ios":"levelo://app?vid=679c4fb3-9363-4157-8f52-33ca86a44812"},"vehicle_type_id":"4","last_reported":1721931047,"current_range_meters":18400,"station_id":"","pricing_plan_id":"cebpf4jnsgd1na2vs0mg"},{"bike_id":"55f51ed9-f7a7-4789-a207-7beb0bc20fbf","system_id":"levelo_inurba_marseille","lat":43.315289,"lon":5.380349,"is_reserved":false,"is_disabled":false,"rental_uris":{"android":"levelo://app?vid=55f51ed9-f7a7-4789-a207-7beb0bc20fbf","ios":"levelo://app?vid=55f51ed9-f7a7-4789-a207-7beb0bc20fbf"},"vehicle_type_id":"4","last_reported":1721931047,"current_range_meters":22800,"station_id":"ce4bhsp2rcd13ifvqi50","pricing_plan_id":"cebpf4jnsgd1na2vs0mg"},{"bike_id":"6a4eff70-6808-416d-9922-a394ffc11edd","system_id":"levelo_inurba_marseille","lat":43.304606,"lon":5.379026,"is_reserved":false,"is_disabled":false,"rental_uris":{"android":"levelo://app?vid=6a4eff70-6808-416d-9922-a394ffc11edd","ios":"levelo://app?vid=6a4eff70-6808-416d-9922-a394ffc11edd"},"vehicle_type_id":"4","last_reported":1721931047,"current_range_meters":22800,"station_id":"ce4bgup2rcd13ifvqcn0","pricing_plan_id":"cebpf4jnsgd1na2vs0mg"},{"bike_id":"9a726608-6808-4142-97af-658a275f7432","system_id":"levelo_inurba_marseille","lat":43.30817,"lon":5.38163,"is_reserved":false,"is_disabled":false,"rental_uris":{"android":"levelo://app?vid=9a726608-6808-4142-97af-658a275f7432","ios":"levelo://app?vid=9a726608-6808-4142-97af-658a275f7432"},"vehicle_type_id":"4","last_reported":1721931047,"current_range_meters":0,"station_id":"ce4bgt12rcd13ifvqce0","pricing_plan_id":"cebpf4jnsgd1na2vs0mg"},{"bike_id":"3eb53377-1d52-4009-848c-852a169b3612","system_id":"levelo_inurba_marseille","lat":43.304606,"lon":5.379026,"is_reserved":false,"is_disabled":false,"rental_uris":{"android":"levelo://app?vid=3eb53377-1d52-4009-848c-852a169b3612","ios":"levelo://app?vid=3eb53377-1d52-4009-848c-852a169b3612"},"vehicle_type_id":"4","last_reported":1721931047,"current_range_meters":27600,"station_id":"ce4bgup2rcd13ifvqcn0","pricing_plan_id":"cebpf4jnsgd1na2vs0mg"},{"bike_id":"eb69bf6c-e935-4ac0-8afc-bd95458c020e","system_id":"levelo_inurba_marseille","lat":43.304606,"lon":5.379026,"is_reserved":false,"is_disabled":false,"rental_uris":{"android":"levelo://app?vid=eb69bf6c-e935-4ac0-8afc-bd95458c020e","ios":"levelo://app?vid=eb69bf6c-e935-4ac0-8afc-bd95458c020e"},"vehicle_type_id":"4","last_reported":1721931047,"current_range_meters":7200,"station_id":"ce4bgup2rcd13ifvqcn0","pricing_plan_id":"cebpf4jnsgd1na2vs0mg"},{"bike_id":"bcfb7284-0459-49b9-83c9-271ba5727df1","system_id":"levelo_inurba_marseille","lat":43.324771,"lon":5.36557,"is_reserved":false,"is_disabled":false,"rental_uris":{"android":"levelo://app?vid=bcfb7284-0459-49b9-83c9-271ba5727df1","ios":"levelo://app?vid=bcfb7284-0459-49b9-83c9-271ba5727df1"},"vehicle_type_id":"4","last_reported":1721931047,"current_range_meters":16800,"station_id":"ce4bhs12rcd13ifvqhvg","pricing_plan_id":"cebpf4jnsgd1na2vs0mg"},{"bike_id":"e45d6b03-5fc6-412e-9819-88b157ac1bdd","system_id":"levelo_inurba_marseille","lat":43.310804,"lon":5.38359,"is_reserved":false,"is_disabled":false,"rental_uris":{"android":"levelo://app?vid=e45d6b03-5fc6-412e-9819-88b157ac1bdd","ios":"levelo://app?vid=e45d6b03-5fc6-412e-9819-88b157ac1bdd"},"vehicle_type_id":"4","last_reported":1721931047,"current_range_meters":400,"station_id":"ce4bgv92rcd13ifvqcr0","pricing_plan_id":"cebpf4jnsgd1na2vs0mg"},{"bike_id":"5b06d2ba-b447-4a64-9d57-d8404ac206fd","system_id":"levelo_inurba_marseille","lat":43.310804,"lon":5.38359,"is_reserved":false,"is_disabled":false,"rental_uris":{"android":"levelo://app?vid=5b06d2ba-b447-4a64-9d57-d8404ac206fd","ios":"levelo://app?vid=5b06d2ba-b447-4a64-9d57-d8404ac206fd"},"vehicle_type_id":"4","last_reported":1721931047,"current_range_meters":4800,"station_id":"ce4bgv92rcd13ifvqcr0","pricing_plan_id":"cebpf4jnsgd1na2vs0mg"},{"bike_id":"c07a67be-7fa6-4372-8509-327b2e561c87","system_id":"levelo_inurba_marseille","lat":43.310804,"lon":5.38359,"is_reserved":false,"is_disabled":false,"rental_uris":{"android":"levelo://app?vid=c07a67be-7fa6-4372-8509-327b2e561c87","ios":"levelo://app?vid=c07a67be-7fa6-4372-8509-327b2e561c87"},"vehicle_type_id":"4","last_reported":1721931047,"current_range_meters":12800,"station_id":"ce4bgv92rcd13ifvqcr0","pricing_plan_id":"cebpf4jnsgd1na2vs0mg"},{"bike_id":"730f683c-5ab4-4897-9ca4-f287c26d70d2","system_id":"levelo_inurba_marseille","lat":43.319935,"lon":5.381699,"is_reserved":false,"is_disabled":false,"rental_uris":{"android":"levelo://app?vid=730f683c-5ab4-4897-9ca4-f287c26d70d2","ios":"levelo://app?vid=730f683c-5ab4-4897-9ca4-f287c26d70d2"},"vehicle_type_id":"4","last_reported":1721931047,"current_range_meters":0,"station_id":"ce4bhr12rcd13ifvqhpg","pricing_plan_id":"cebpf4jnsgd1na2vs0mg"},{"bike_id":"db69cf9b-347f-4bf7-a167-1baf57a6f084","system_id":"levelo_inurba_marseille","lat":43.319935,"lon":5.381699,"is_reserved":false,"is_disabled":false,"rental_uris":{"android":"levelo://app?vid=db69cf9b-347f-4bf7-a167-1baf57a6f084","ios":"levelo://app?vid=db69cf9b-347f-4bf7-a167-1baf57a6f084"},"vehicle_type_id":"4","last_reported":1721931047,"current_range_meters":0,"station_id":"ce4bhr12rcd13ifvqhpg","pricing_plan_id":"cebpf4jnsgd1na2vs0mg"},{"bike_id":"2ebeeba5-7603-4c44-ba9c-264e4ff603a6","system_id":"levelo_inurba_marseille","lat":43.313571,"lon":5.384829,"is_reserved":false,"is_disabled":false,"rental_uris":{"android":"levelo://app?vid=2ebeeba5-7603-4c44-ba9c-264e4ff603a6","ios":"levelo://app?vid=2ebeeba5-7603-4c44-ba9c-264e4ff603a6"},"vehicle_type_id":"4","last_reported":1721931047,"current_range_meters":800,"station_id":"ce4bgt92rcd13ifvqcf0","pricing_plan_id":"cebpf4jnsgd1na2vs0mg"},{"bike_id":"f830be0f-6b33-4eeb-ac60-c1ade321fd94","system_id":"levelo_inurba_marseille","lat":43.31362,"lon":5.38486,"is_reserved":false,"is_disabled":false,"rental_uris":{"android":"levelo://app?vid=f830be0f-6b33-4eeb-ac60-c1ade321fd94","ios":"levelo://app?vid=f830be0f-6b33-4eeb-ac60-c1ade321fd94"},"vehicle_type_id":"4","last_reported":1721931047,"current_range_meters":0,"station_id":"ce4bgt92rcd13ifvqcf0","pricing_plan_id":"cebpf4jnsgd1na2vs0mg"},{"bike_id":"53d29f22-1f3f-4289-a7b9-93ad8e5ed7bb","system_id":"levelo_inurba_marseille","lat":43.313571,"lon":5.384829,"is_reserved":false,"is_disabled":false,"rental_uris":{"android":"levelo://app?vid=53d29f22-1f3f-4289-a7b9-93ad8e5ed7bb","ios":"levelo://app?vid=53d29f22-1f3f-4289-a7b9-93ad8e5ed7bb"},"vehicle_type_id":"4","last_reported":1721931047,"current_range_meters":17600,"station_id":"ce4bgt92rcd13ifvqcf0","pricing_plan_id":"cebpf4jnsgd1na2vs0mg"},{"bike_id":"a37f93fa-8ac1-49ac-9870-13fc3de684a9","system_id":"levelo_inurba_marseille","lat":43.313571,"lon":5.384829,"is_reserved":false,"is_disabled":false,"rental_uris":{"android":"levelo://app?vid=a37f93fa-8ac1-49ac-9870-13fc3de684a9","ios":"levelo://app?vid=a37f93fa-8ac1-49ac-9870-13fc3de684a9"},"vehicle_type_id":"4","last_reported":1721931047,"current_range_meters":15200,"station_id":"ce4bgt92rcd13ifvqcf0","pricing_plan_id":"cebpf4jnsgd1na2vs0mg"},{"bike_id":"159775f7-09b0-493d-b723-bf04d7e4c4d4","system_id":"levelo_inurba_marseille","lat":43.313571,"lon":5.384829,"is_reserved":false,"is_disabled":false,"rental_uris":{"android":"levelo://app?vid=159775f7-09b0-493d-b723-bf04d7e4c4d4","ios":"levelo://app?vid=159775f7-09b0-493d-b723-bf04d7e4c4d4"},"vehicle_type_id":"4","last_reported":1721931047,"current_range_meters":14000,"station_id":"ce4bgt92rcd13ifvqcf0","pricing_plan_id":"cebpf4jnsgd1na2vs0mg"},{"bike_id":"8581838d-2b55-4494-b50d-0336b372ddcd","system_id":"levelo_inurba_marseille","lat":43.29944,"lon":5.36547,"is_reserved":false,"is_disabled":false,"rental_uris":{"android":"levelo://app?vid=8581838d-2b55-4494-b50d-0336b372ddcd","ios":"levelo://app?vid=8581838d-2b55-4494-b50d-0336b372ddcd"},"vehicle_type_id":"4","last_reported":1721931047,"current_range_meters":24400,"station_id":"","pricing_plan_id":"cebpf4jnsgd1na2vs0mg"},{"bike_id":"9235f751-170f-4758-b496-d991034eafc2","system_id":"levelo_inurba_marseille","lat":43.29989,"lon":5.37195,"is_reserved":false,"is_disabled":false,"rental_uris":{"android":"levelo://app?vid=9235f751-170f-4758-b496-d991034eafc2","ios":"levelo://app?vid=9235f751-170f-4758-b496-d991034eafc2"},"vehicle_type_id":"4","last_reported":1721931047,"current_range_meters":30800,"station_id":"ce4bgr92rcd13ifvqc7g","pricing_plan_id":"cebpf4jnsgd1na2vs0mg"},{"bike_id":"74ea2ddc-3637-4a2b-8d0f-3f17e587d808","system_id":"levelo_inurba_marseille","lat":43.299724,"lon":5.371829,"is_reserved":false,"is_disabled":false,"rental_uris":{"android":"levelo://app?vid=74ea2ddc-3637-4a2b-8d0f-3f17e587d808","ios":"levelo://app?vid=74ea2ddc-3637-4a2b-8d0f-3f17e587d808"},"vehicle_type_id":"4","last_reported":1721931047,"current_range_meters":8800,"station_id":"ce4bgr92rcd13ifvqc7g","pricing_plan_id":"cebpf4jnsgd1na2vs0mg"},{"bike_id":"aff68bc2-1af5-4671-9609-7ed7041fd728","system_id":"levelo_inurba_marseille","lat":43.30069,"lon":5.37799,"is_reserved":false,"is_disabled":false,"rental_uris":{"android":"levelo://app?vid=aff68bc2-1af5-4671-9609-7ed7041fd728","ios":"levelo://app?vid=aff68bc2-1af5-4671-9609-7ed7041fd728"},"vehicle_type_id":"4","last_reported":1721931047,"current_range_meters":24400,"station_id":"","pricing_plan_id":"cebpf4jnsgd1na2vs0mg"},{"bike_id":"e09fb7f7-6cad-48d7-9c94-8fcbe236ec84","system_id":"levelo_inurba_marseille","lat":43.298433,"lon":5.362774,"is_reserved":false,"is_disabled":false,"rental_uris":{"android":"levelo://app?vid=e09fb7f7-6cad-48d7-9c94-8fcbe236ec84","ios":"levelo://app?vid=e09fb7f7-6cad-48d7-9c94-8fcbe236ec84"},"vehicle_type_id":"4","last_reported":1721931047,"current_range_meters":0,"station_id":"ce4bgpp2rcd13ifvqc3g","pricing_plan_id":"cebpf4jnsgd1na2vs0mg"},{"bike_id":"2318a0a6-a32b-4b43-a08c-e76e4c037be7","system_id":"levelo_inurba_marseille","lat":43.305364,"lon":5.384119,"is_reserved":false,"is_disabled":false,"rental_uris":{"android":"levelo://app?vid=2318a0a6-a32b-4b43-a08c-e76e4c037be7","ios":"levelo://app?vid=2318a0a6-a32b-4b43-a08c-e76e4c037be7"},"vehicle_type_id":"4","last_reported":1721931047,"current_range_meters":2000,"station_id":"ce4bgg92rcd13ifvqb30","pricing_plan_id":"cebpf4jnsgd1na2vs0mg"},{"bike_id":"851278da-7a53-4ff7-8ee7-e56a71b01fd2","system_id":"levelo_inurba_marseille","lat":43.299243,"lon":5.374807,"is_reserved":false,"is_disabled":false,"rental_uris":{"android":"levelo://app?vid=851278da-7a53-4ff7-8ee7-e56a71b01fd2","ios":"levelo://app?vid=851278da-7a53-4ff7-8ee7-e56a71b01fd2"},"vehicle_type_id":"4","last_reported":1721931047,"current_range_meters":7200,"station_id":"ce4bgjh2rcd13ifvqbg0","pricing_plan_id":"cebpf4jnsgd1na2vs0mg"},{"bike_id":"69ea121f-95cc-4724-9c5a-83c41de66230","system_id":"levelo_inurba_marseille","lat":43.311722,"lon":5.387247,"is_reserved":false,"is_disabled":false,"rental_uris":{"android":"levelo://app?vid=69ea121f-95cc-4724-9c5a-83c41de66230","ios":"levelo://app?vid=69ea121f-95cc-4724-9c5a-83c41de66230"},"vehicle_type_id":"4","last_reported":1721931047,"current_range_meters":26400,"station_id":"ce4bgv12rcd13ifvqcp0","pricing_plan_id":"cebpf4jnsgd1na2vs0mg"},{"bike_id":"d6496aec-b6ae-4f0a-b7f0-c99152dfa7a5","system_id":"levelo_inurba_marseille","lat":43.311722,"lon":5.387247,"is_reserved":false,"is_disabled":false,"rental_uris":{"android":"levelo://app?vid=d6496aec-b6ae-4f0a-b7f0-c99152dfa7a5","ios":"levelo://app?vid=d6496aec-b6ae-4f0a-b7f0-c99152dfa7a5"},"vehicle_type_id":"4","last_reported":1721931047,"current_range_meters":22400,"station_id":"ce4bgv12rcd13ifvqcp0","pricing_plan_id":"cebpf4jnsgd1na2vs0mg"},{"bike_id":"ebeedb1a-10c8-40aa-be8f-da665bb5eb12","system_id":"levelo_inurba_marseille","lat":43.311722,"lon":5.387247,"is_reserved":false,"is_disabled":false,"rental_uris":{"android":"levelo://app?vid=ebeedb1a-10c8-40aa-be8f-da665bb5eb12","ios":"levelo://app?vid=ebeedb1a-10c8-40aa-be8f-da665bb5eb12"},"vehicle_type_id":"4","last_reported":1721931047,"current_range_meters":12800,"station_id":"ce4bgv12rcd13ifvqcp0","pricing_plan_id":"cebpf4jnsgd1na2vs0mg"},{"bike_id":"8e3a3471-fd33-4d4e-8a4e-827b68e7eb54","system_id":"levelo_inurba_marseille","lat":43.311722,"lon":5.387247,"is_reserved":false,"is_disabled":false,"rental_uris":{"android":"levelo://app?vid=8e3a3471-fd33-4d4e-8a4e-827b68e7eb54","ios":"levelo://app?vid=8e3a3471-fd33-4d4e-8a4e-827b68e7eb54"},"vehicle_type_id":"4","last_reported":1721931047,"current_range_meters":31200,"station_id":"ce4bgv12rcd13ifvqcp0","pricing_plan_id":"cebpf4jnsgd1na2vs0mg"},{"bike_id":"a2ea553e-322a-425e-b3a6-795aa1254aa6","system_id":"levelo_inurba_marseille","lat":43.311722,"lon":5.387247,"is_reserved":false,"is_disabled":false,"rental_uris":{"android":"levelo://app?vid=a2ea553e-322a-425e-b3a6-795aa1254aa6","ios":"levelo://app?vid=a2ea553e-322a-425e-b3a6-795aa1254aa6"},"vehicle_type_id":"4","last_reported":1721931047,"current_range_meters":0,"station_id":"ce4bgv12rcd13ifvqcp0","pricing_plan_id":"cebpf4jnsgd1na2vs0mg"},{"bike_id":"9511b561-8cf4-41f0-a004-49a4c673ea1e","system_id":"levelo_inurba_marseille","lat":43.311722,"lon":5.387247,"is_reserved":false,"is_disabled":false,"rental_uris":{"android":"levelo://app?vid=9511b561-8cf4-41f0-a004-49a4c673ea1e","ios":"levelo://app?vid=9511b561-8cf4-41f0-a004-49a4c673ea1e"},"vehicle_type_id":"4","last_reported":1721931047,"current_range_meters":31200,"station_id":"ce4bgv12rcd13ifvqcp0","pricing_plan_id":"cebpf4jnsgd1na2vs0mg"},{"bike_id":"2cbcc7a2-74c2-42eb-989e-8c4a354d6851","system_id":"levelo_inurba_marseille","lat":43.311722,"lon":5.387247,"is_reserved":false,"is_disabled":false,"rental_uris":{"android":"levelo://app?vid=2cbcc7a2-74c2-42eb-989e-8c4a354d6851","ios":"levelo://app?vid=2cbcc7a2-74c2-42eb-989e-8c4a354d6851"},"vehicle_type_id":"4","last_reported":1721931047,"current_range_meters":31200,"station_id":"ce4bgv12rcd13ifvqcp0","pricing_plan_id":"cebpf4jnsgd1na2vs0mg"},{"bike_id":"e5e7a712-06cc-432e-8017-20cd8330c96b","system_id":"levelo_inurba_marseille","lat":43.30151,"lon":5.38089,"is_reserved":false,"is_disabled":false,"rental_uris":{"android":"levelo://app?vid=e5e7a712-06cc-432e-8017-20cd8330c96b","ios":"levelo://app?vid=e5e7a712-06cc-432e-8017-20cd8330c96b"},"vehicle_type_id":"4","last_reported":1721931047,"current_range_meters":0,"station_id":"","pricing_plan_id":"cebpf4jnsgd1na2vs0mg"},{"bike_id":"11bc5468-b465-4c3f-9bbc-903fb55e460e","system_id":"levelo_inurba_marseille","lat":43.297794,"lon":5.370888,"is_reserved":false,"is_disabled":false,"rental_uris":{"android":"levelo://app?vid=11bc5468-b465-4c3f-9bbc-903fb55e460e","ios":"levelo://app?vid=11bc5468-b465-4c3f-9bbc-903fb55e460e"},"vehicle_type_id":"4","last_reported":1721931047,"current_range_meters":0,"station_id":"ce4bgop2rcd13ifvqc1g","pricing_plan_id":"cebpf4jnsgd1na2vs0mg"},{"bike_id":"cdfb6b3f-d6fb-4d7e-9a55-66403d9de1cd","system_id":"levelo_inurba_marseille","lat":43.32286,"lon":5.38255,"is_reserved":false,"is_disabled":false,"rental_uris":{"android":"levelo://app?vid=cdfb6b3f-d6fb-4d7e-9a55-66403d9de1cd","ios":"levelo://app?vid=cdfb6b3f-d6fb-4d7e-9a55-66403d9de1cd"},"vehicle_type_id":"4","last_reported":1721931047,"current_range_meters":5200,"station_id":"ce4bhr12rcd13ifvqhqg","pricing_plan_id":"cebpf4jnsgd1na2vs0mg"},{"bike_id":"b7c473da-ed72-448f-ba2b-17a09e628aa2","system_id":"levelo_inurba_marseille","lat":43.322872,"lon":5.382756,"is_reserved":false,"is_disabled":false,"rental_uris":{"android":"levelo://app?vid=b7c473da-ed72-448f-ba2b-17a09e628aa2","ios":"levelo://app?vid=b7c473da-ed72-448f-ba2b-17a09e628aa2"},"vehicle_type_id":"4","last_reported":1721931047,"current_range_meters":28400,"station_id":"ce4bhr12rcd13ifvqhqg","pricing_plan_id":"cebpf4jnsgd1na2vs0mg"},{"bike_id":"f2d9fa02-73b3-4c0b-b068-549cbcae3f51","system_id":"levelo_inurba_marseille","lat":43.322872,"lon":5.382756,"is_reserved":false,"is_disabled":false,"rental_uris":{"android":"levelo://app?vid=f2d9fa02-73b3-4c0b-b068-549cbcae3f51","ios":"levelo://app?vid=f2d9fa02-73b3-4c0b-b068-549cbcae3f51"},"vehicle_type_id":"4","last_reported":1721931047,"current_range_meters":1600,"station_id":"ce4bhr12rcd13ifvqhqg","pricing_plan_id":"cebpf4jnsgd1na2vs0mg"},{"bike_id":"b447b52e-92af-46a1-b100-c7b84c2e780b","system_id":"levelo_inurba_marseille","lat":43.322872,"lon":5.382756,"is_reserved":false,"is_disabled":false,"rental_uris":{"android":"levelo://app?vid=b447b52e-92af-46a1-b100-c7b84c2e780b","ios":"levelo://app?vid=b447b52e-92af-46a1-b100-c7b84c2e780b"},"vehicle_type_id":"4","last_reported":1721931047,"current_range_meters":9200,"station_id":"ce4bhr12rcd13ifvqhqg","pricing_plan_id":"cebpf4jnsgd1na2vs0mg"},{"bike_id":"848cb78a-b641-4c1f-bd15-0d3a05c9f909","system_id":"levelo_inurba_marseille","lat":43.296803,"lon":5.372863,"is_reserved":false,"is_disabled":false,"rental_uris":{"android":"levelo://app?vid=848cb78a-b641-4c1f-bd15-0d3a05c9f909","ios":"levelo://app?vid=848cb78a-b641-4c1f-bd15-0d3a05c9f909"},"vehicle_type_id":"4","last_reported":1721931047,"current_range_meters":25200,"station_id":"ce4bgk12rcd13ifvqbj0","pricing_plan_id":"cebpf4jnsgd1na2vs0mg"},{"bike_id":"20eb2448-4cc8-4262-86a9-0058ec4cbf15","system_id":"levelo_inurba_marseille","lat":43.29656,"lon":5.36233,"is_reserved":false,"is_disabled":false,"rental_uris":{"android":"levelo://app?vid=20eb2448-4cc8-4262-86a9-0058ec4cbf15","ios":"levelo://app?vid=20eb2448-4cc8-4262-86a9-0058ec4cbf15"},"vehicle_type_id":"4","last_reported":1721931047,"current_range_meters":0,"station_id":"","pricing_plan_id":"cebpf4jnsgd1na2vs0mg"},{"bike_id":"c6f0b5d7-4c33-4d82-b0b7-ceca2a38e299","system_id":"levelo_inurba_marseille","lat":43.296131,"lon":5.370791,"is_reserved":false,"is_disabled":false,"rental_uris":{"android":"levelo://app?vid=c6f0b5d7-4c33-4d82-b0b7-ceca2a38e299","ios":"levelo://app?vid=c6f0b5d7-4c33-4d82-b0b7-ceca2a38e299"},"vehicle_type_id":"4","last_reported":1721931047,"current_range_meters":5200,"station_id":"ce4bgnh2rcd13ifvqc0g","pricing_plan_id":"cebpf4jnsgd1na2vs0mg"},{"bike_id":"f9d94cb5-7dfe-4979-8d24-2f1132cbfd34","system_id":"levelo_inurba_marseille","lat":43.29573,"lon":5.367355,"is_reserved":false,"is_disabled":false,"rental_uris":{"android":"levelo://app?vid=f9d94cb5-7dfe-4979-8d24-2f1132cbfd34","ios":"levelo://app?vid=f9d94cb5-7dfe-4979-8d24-2f1132cbfd34"},"vehicle_type_id":"4","last_reported":1721931047,"current_range_meters":1200,"station_id":"ce4bgph2rcd13ifvqc2g","pricing_plan_id":"cebpf4jnsgd1na2vs0mg"},{"bike_id":"6ce88f62-f0cf-42f5-be1c-a4369e30656f","system_id":"levelo_inurba_marseille","lat":43.296131,"lon":5.370773,"is_reserved":false,"is_disabled":false,"rental_uris":{"android":"levelo://app?vid=6ce88f62-f0cf-42f5-be1c-a4369e30656f","ios":"levelo://app?vid=6ce88f62-f0cf-42f5-be1c-a4369e30656f"},"vehicle_type_id":"4","last_reported":1721931047,"current_range_meters":8800,"station_id":"ce4bgnh2rcd13ifvqc0g","pricing_plan_id":"cebpf4jnsgd1na2vs0mg"},{"bike_id":"11e14b06-a9c5-44bb-b3b5-4c23a6a9b3ee","system_id":"levelo_inurba_marseille","lat":43.309589,"lon":5.390258,"is_reserved":false,"is_disabled":false,"rental_uris":{"android":"levelo://app?vid=11e14b06-a9c5-44bb-b3b5-4c23a6a9b3ee","ios":"levelo://app?vid=11e14b06-a9c5-44bb-b3b5-4c23a6a9b3ee"},"vehicle_type_id":"4","last_reported":1721931047,"current_range_meters":30400,"station_id":"ce4bgup2rcd13ifvqco0","pricing_plan_id":"cebpf4jnsgd1na2vs0mg"},{"bike_id":"7d8c5a61-4a8c-468f-b7a4-eee571a64e85","system_id":"levelo_inurba_marseille","lat":43.296921,"lon":5.376579,"is_reserved":false,"is_disabled":false,"rental_uris":{"android":"levelo://app?vid=7d8c5a61-4a8c-468f-b7a4-eee571a64e85","ios":"levelo://app?vid=7d8c5a61-4a8c-468f-b7a4-eee571a64e85"},"vehicle_type_id":"4","last_reported":1721931047,"current_range_meters":26800,"station_id":"ce4bgkh2rcd13ifvqbl0","pricing_plan_id":"cebpf4jnsgd1na2vs0mg"},{"bike_id":"b11ae67a-fab0-40d1-9bf7-029650a64d0e","system_id":"levelo_inurba_marseille","lat":43.296935,"lon":5.376544,"is_reserved":false,"is_disabled":false,"rental_uris":{"android":"levelo://app?vid=b11ae67a-fab0-40d1-9bf7-029650a64d0e","ios":"levelo://app?vid=b11ae67a-fab0-40d1-9bf7-029650a64d0e"},"vehicle_type_id":"4","last_reported":1721931047,"current_range_meters":8000,"station_id":"ce4bgkh2rcd13ifvqbl0","pricing_plan_id":"cebpf4jnsgd1na2vs0mg"},{"bike_id":"dc80e0e2-ec6b-4174-a12d-54effa365ab3","system_id":"levelo_inurba_marseille","lat":43.309589,"lon":5.390258,"is_reserved":false,"is_disabled":false,"rental_uris":{"android":"levelo://app?vid=dc80e0e2-ec6b-4174-a12d-54effa365ab3","ios":"levelo://app?vid=dc80e0e2-ec6b-4174-a12d-54effa365ab3"},"vehicle_type_id":"4","last_reported":1721931047,"current_range_meters":31200,"station_id":"ce4bgup2rcd13ifvqco0","pricing_plan_id":"cebpf4jnsgd1na2vs0mg"},{"bike_id":"c128ccb9-f491-4c5f-99b9-ddd5551222dc","system_id":"levelo_inurba_marseille","lat":43.309589,"lon":5.390258,"is_reserved":false,"is_disabled":false,"rental_uris":{"android":"levelo://app?vid=c128ccb9-f491-4c5f-99b9-ddd5551222dc","ios":"levelo://app?vid=c128ccb9-f491-4c5f-99b9-ddd5551222dc"},"vehicle_type_id":"4","last_reported":1721931047,"current_range_meters":28800,"station_id":"ce4bgup2rcd13ifvqco0","pricing_plan_id":"cebpf4jnsgd1na2vs0mg"},{"bike_id":"574c7af5-f70a-41d8-a69d-405bd61c7a6d","system_id":"levelo_inurba_marseille","lat":43.309589,"lon":5.390258,"is_reserved":false,"is_disabled":false,"rental_uris":{"android":"levelo://app?vid=574c7af5-f70a-41d8-a69d-405bd61c7a6d","ios":"levelo://app?vid=574c7af5-f70a-41d8-a69d-405bd61c7a6d"},"vehicle_type_id":"4","last_reported":1721931047,"current_range_meters":19200,"station_id":"ce4bgup2rcd13ifvqco0","pricing_plan_id":"cebpf4jnsgd1na2vs0mg"},{"bike_id":"12633fb0-8c16-4445-9176-71aa1d4e0b3c","system_id":"levelo_inurba_marseille","lat":43.309589,"lon":5.390258,"is_reserved":false,"is_disabled":false,"rental_uris":{"android":"levelo://app?vid=12633fb0-8c16-4445-9176-71aa1d4e0b3c","ios":"levelo://app?vid=12633fb0-8c16-4445-9176-71aa1d4e0b3c"},"vehicle_type_id":"4","last_reported":1721931047,"current_range_meters":19600,"station_id":"ce4bgup2rcd13ifvqco0","pricing_plan_id":"cebpf4jnsgd1na2vs0mg"},{"bike_id":"70b1e0b4-9f3f-4598-bd43-fdfcb745a820","system_id":"levelo_inurba_marseille","lat":43.309589,"lon":5.390258,"is_reserved":false,"is_disabled":false,"rental_uris":{"android":"levelo://app?vid=70b1e0b4-9f3f-4598-bd43-fdfcb745a820","ios":"levelo://app?vid=70b1e0b4-9f3f-4598-bd43-fdfcb745a820"},"vehicle_type_id":"4","last_reported":1721931047,"current_range_meters":31200,"station_id":"ce4bgup2rcd13ifvqco0","pricing_plan_id":"cebpf4jnsgd1na2vs0mg"},{"bike_id":"8ed2f3d9-de2f-421a-8501-e5425cf0c87d","system_id":"levelo_inurba_marseille","lat":43.309589,"lon":5.390258,"is_reserved":false,"is_disabled":false,"rental_uris":{"android":"levelo://app?vid=8ed2f3d9-de2f-421a-8501-e5425cf0c87d","ios":"levelo://app?vid=8ed2f3d9-de2f-421a-8501-e5425cf0c87d"},"vehicle_type_id":"4","last_reported":1721931047,"current_range_meters":5600,"station_id":"ce4bgup2rcd13ifvqco0","pricing_plan_id":"cebpf4jnsgd1na2vs0mg"},{"bike_id":"aecb9c28-1f8c-442b-93db-4a17eb7fb19a","system_id":"levelo_inurba_marseille","lat":43.309589,"lon":5.390258,"is_reserved":false,"is_disabled":false,"rental_uris":{"android":"levelo://app?vid=aecb9c28-1f8c-442b-93db-4a17eb7fb19a","ios":"levelo://app?vid=aecb9c28-1f8c-442b-93db-4a17eb7fb19a"},"vehicle_type_id":"4","last_reported":1721931047,"current_range_meters":9200,"station_id":"ce4bgup2rcd13ifvqco0","pricing_plan_id":"cebpf4jnsgd1na2vs0mg"},{"bike_id":"7a3f8dba-584e-4cc9-9faf-7fd04b899f7e","system_id":"levelo_inurba_marseille","lat":43.309589,"lon":5.390258,"is_reserved":false,"is_disabled":false,"rental_uris":{"android":"levelo://app?vid=7a3f8dba-584e-4cc9-9faf-7fd04b899f7e","ios":"levelo://app?vid=7a3f8dba-584e-4cc9-9faf-7fd04b899f7e"},"vehicle_type_id":"4","last_reported":1721931047,"current_range_meters":8000,"station_id":"ce4bgup2rcd13ifvqco0","pricing_plan_id":"cebpf4jnsgd1na2vs0mg"},{"bike_id":"9f3c496a-2bb8-4a3b-9916-aeaa7ad39f28","system_id":"levelo_inurba_marseille","lat":43.309589,"lon":5.390258,"is_reserved":false,"is_disabled":false,"rental_uris":{"android":"levelo://app?vid=9f3c496a-2bb8-4a3b-9916-aeaa7ad39f28","ios":"levelo://app?vid=9f3c496a-2bb8-4a3b-9916-aeaa7ad39f28"},"vehicle_type_id":"4","last_reported":1721931047,"current_range_meters":7200,"station_id":"ce4bgup2rcd13ifvqco0","pricing_plan_id":"cebpf4jnsgd1na2vs0mg"},{"bike_id":"823a1e42-c4bd-41f0-9ef2-7347087bd8a3","system_id":"levelo_inurba_marseille","lat":43.32143,"lon":5.38773,"is_reserved":false,"is_disabled":false,"rental_uris":{"android":"levelo://app?vid=823a1e42-c4bd-41f0-9ef2-7347087bd8a3","ios":"levelo://app?vid=823a1e42-c4bd-41f0-9ef2-7347087bd8a3"},"vehicle_type_id":"4","last_reported":1721931047,"current_range_meters":7600,"station_id":"","pricing_plan_id":"cebpf4jnsgd1na2vs0mg"},{"bike_id":"43810941-d7a8-4bda-951a-9b9e15ba4edc","system_id":"levelo_inurba_marseille","lat":43.31757,"lon":5.39015,"is_reserved":false,"is_disabled":false,"rental_uris":{"android":"levelo://app?vid=43810941-d7a8-4bda-951a-9b9e15ba4edc","ios":"levelo://app?vid=43810941-d7a8-4bda-951a-9b9e15ba4edc"},"vehicle_type_id":"4","last_reported":1721931047,"current_range_meters":21600,"station_id":"ce4bhqp2rcd13ifvqhng","pricing_plan_id":"cebpf4jnsgd1na2vs0mg"},{"bike_id":"79248592-d9de-4241-bf5e-37b5cd5cb962","system_id":"levelo_inurba_marseille","lat":43.317557,"lon":5.390173,"is_reserved":false,"is_disabled":false,"rental_uris":{"android":"levelo://app?vid=79248592-d9de-4241-bf5e-37b5cd5cb962","ios":"levelo://app?vid=79248592-d9de-4241-bf5e-37b5cd5cb962"},"vehicle_type_id":"4","last_reported":1721931047,"current_range_meters":4800,"station_id":"ce4bhqp2rcd13ifvqhng","pricing_plan_id":"cebpf4jnsgd1na2vs0mg"},{"bike_id":"5b44089b-e211-443c-a14e-eefe1263a36e","system_id":"levelo_inurba_marseille","lat":43.317557,"lon":5.390173,"is_reserved":false,"is_disabled":false,"rental_uris":{"android":"levelo://app?vid=5b44089b-e211-443c-a14e-eefe1263a36e","ios":"levelo://app?vid=5b44089b-e211-443c-a14e-eefe1263a36e"},"vehicle_type_id":"4","last_reported":1721931047,"current_range_meters":10000,"station_id":"ce4bhqp2rcd13ifvqhng","pricing_plan_id":"cebpf4jnsgd1na2vs0mg"},{"bike_id":"3cfa9114-b0d1-4787-a406-e6f58b73f1b7","system_id":"levelo_inurba_marseille","lat":43.295748,"lon":5.37522,"is_reserved":false,"is_disabled":false,"rental_uris":{"android":"levelo://app?vid=3cfa9114-b0d1-4787-a406-e6f58b73f1b7","ios":"levelo://app?vid=3cfa9114-b0d1-4787-a406-e6f58b73f1b7"},"vehicle_type_id":"4","last_reported":1721931047,"current_range_meters":18800,"station_id":"ce4bgh92rcd13ifvqb50","pricing_plan_id":"cebpf4jnsgd1na2vs0mg"},{"bike_id":"245b3203-b0cc-4b51-bb0d-e643a5634ffb","system_id":"levelo_inurba_marseille","lat":43.295748,"lon":5.37522,"is_reserved":false,"is_disabled":false,"rental_uris":{"android":"levelo://app?vid=245b3203-b0cc-4b51-bb0d-e643a5634ffb","ios":"levelo://app?vid=245b3203-b0cc-4b51-bb0d-e643a5634ffb"},"vehicle_type_id":"4","last_reported":1721931047,"current_range_meters":7200,"station_id":"ce4bgh92rcd13ifvqb50","pricing_plan_id":"cebpf4jnsgd1na2vs0mg"},{"bike_id":"cc8d169a-8f38-4a70-9abe-e43d5172f2d6","system_id":"levelo_inurba_marseille","lat":43.296263,"lon":5.377094,"is_reserved":false,"is_disabled":false,"rental_uris":{"android":"levelo://app?vid=cc8d169a-8f38-4a70-9abe-e43d5172f2d6","ios":"levelo://app?vid=cc8d169a-8f38-4a70-9abe-e43d5172f2d6"},"vehicle_type_id":"4","last_reported":1721931047,"current_range_meters":20800,"station_id":"ce4bgi92rcd13ifvqb90","pricing_plan_id":"cebpf4jnsgd1na2vs0mg"},{"bike_id":"f0d8afe8-7dec-4c6b-8c0b-26b5265466c8","system_id":"levelo_inurba_marseille","lat":43.304278,"lon":5.388868,"is_reserved":false,"is_disabled":false,"rental_uris":{"android":"levelo://app?vid=f0d8afe8-7dec-4c6b-8c0b-26b5265466c8","ios":"levelo://app?vid=f0d8afe8-7dec-4c6b-8c0b-26b5265466c8"},"vehicle_type_id":"4","last_reported":1721931047,"current_range_meters":11200,"station_id":"ce4bgk12rcd13ifvqbi0","pricing_plan_id":"cebpf4jnsgd1na2vs0mg"},{"bike_id":"89ca6ee5-ac70-4e2a-8df3-c3ef2f4207b4","system_id":"levelo_inurba_marseille","lat":43.304278,"lon":5.388868,"is_reserved":false,"is_disabled":false,"rental_uris":{"android":"levelo://app?vid=89ca6ee5-ac70-4e2a-8df3-c3ef2f4207b4","ios":"levelo://app?vid=89ca6ee5-ac70-4e2a-8df3-c3ef2f4207b4"},"vehicle_type_id":"4","last_reported":1721931047,"current_range_meters":28000,"station_id":"ce4bgk12rcd13ifvqbi0","pricing_plan_id":"cebpf4jnsgd1na2vs0mg"},{"bike_id":"93c405bb-f3b5-4841-a570-a36cb7fc1ea8","system_id":"levelo_inurba_marseille","lat":43.304278,"lon":5.388868,"is_reserved":false,"is_disabled":false,"rental_uris":{"android":"levelo://app?vid=93c405bb-f3b5-4841-a570-a36cb7fc1ea8","ios":"levelo://app?vid=93c405bb-f3b5-4841-a570-a36cb7fc1ea8"},"vehicle_type_id":"4","last_reported":1721931047,"current_range_meters":10800,"station_id":"ce4bgk12rcd13ifvqbi0","pricing_plan_id":"cebpf4jnsgd1na2vs0mg"},{"bike_id":"ab8f529c-9deb-4eef-a453-3285e31b7c73","system_id":"levelo_inurba_marseille","lat":43.295748,"lon":5.37522,"is_reserved":false,"is_disabled":false,"rental_uris":{"android":"levelo://app?vid=ab8f529c-9deb-4eef-a453-3285e31b7c73","ios":"levelo://app?vid=ab8f529c-9deb-4eef-a453-3285e31b7c73"},"vehicle_type_id":"4","last_reported":1721931047,"current_range_meters":0,"station_id":"ce4bgh92rcd13ifvqb50","pricing_plan_id":"cebpf4jnsgd1na2vs0mg"},{"bike_id":"2b79671f-a4e2-465c-97a6-f9622b8912fb","system_id":"levelo_inurba_marseille","lat":43.296277,"lon":5.377108,"is_reserved":false,"is_disabled":false,"rental_uris":{"android":"levelo://app?vid=2b79671f-a4e2-465c-97a6-f9622b8912fb","ios":"levelo://app?vid=2b79671f-a4e2-465c-97a6-f9622b8912fb"},"vehicle_type_id":"4","last_reported":1721931047,"current_range_meters":8000,"station_id":"ce4bgi92rcd13ifvqb90","pricing_plan_id":"cebpf4jnsgd1na2vs0mg"},{"bike_id":"2b8da8ee-6b05-4f2d-a46a-10154ca25309","system_id":"levelo_inurba_marseille","lat":43.296277,"lon":5.377108,"is_reserved":false,"is_disabled":false,"rental_uris":{"android":"levelo://app?vid=2b8da8ee-6b05-4f2d-a46a-10154ca25309","ios":"levelo://app?vid=2b8da8ee-6b05-4f2d-a46a-10154ca25309"},"vehicle_type_id":"4","last_reported":1721931047,"current_range_meters":0,"station_id":"ce4bgi92rcd13ifvqb90","pricing_plan_id":"cebpf4jnsgd1na2vs0mg"},{"bike_id":"52926f59-c2e8-4c1b-9b74-7b85240d5ca7","system_id":"levelo_inurba_marseille","lat":43.296263,"lon":5.377094,"is_reserved":false,"is_disabled":false,"rental_uris":{"android":"levelo://app?vid=52926f59-c2e8-4c1b-9b74-7b85240d5ca7","ios":"levelo://app?vid=52926f59-c2e8-4c1b-9b74-7b85240d5ca7"},"vehicle_type_id":"4","last_reported":1721931047,"current_range_meters":1600,"station_id":"ce4bgi92rcd13ifvqb90","pricing_plan_id":"cebpf4jnsgd1na2vs0mg"},{"bike_id":"f6bea491-e8f5-4e27-82c6-0e9faeddeb34","system_id":"levelo_inurba_marseille","lat":43.29614,"lon":5.37718,"is_reserved":false,"is_disabled":false,"rental_uris":{"android":"levelo://app?vid=f6bea491-e8f5-4e27-82c6-0e9faeddeb34","ios":"levelo://app?vid=f6bea491-e8f5-4e27-82c6-0e9faeddeb34"},"vehicle_type_id":"4","last_reported":1721931047,"current_range_meters":8000,"station_id":"ce4bgi92rcd13ifvqb90","pricing_plan_id":"cebpf4jnsgd1na2vs0mg"},{"bike_id":"5fc5e7d6-2073-4cee-bb4d-39618ee66b13","system_id":"levelo_inurba_marseille","lat":43.295279,"lon":5.375048,"is_reserved":false,"is_disabled":false,"rental_uris":{"android":"levelo://app?vid=5fc5e7d6-2073-4cee-bb4d-39618ee66b13","ios":"levelo://app?vid=5fc5e7d6-2073-4cee-bb4d-39618ee66b13"},"vehicle_type_id":"4","last_reported":1721931047,"current_range_meters":4000,"station_id":"ce4bgkp2rcd13ifvqbmg","pricing_plan_id":"cebpf4jnsgd1na2vs0mg"},{"bike_id":"9d795cc4-2d04-4387-8c68-32e8e140192e","system_id":"levelo_inurba_marseille","lat":43.295279,"lon":5.375048,"is_reserved":false,"is_disabled":false,"rental_uris":{"android":"levelo://app?vid=9d795cc4-2d04-4387-8c68-32e8e140192e","ios":"levelo://app?vid=9d795cc4-2d04-4387-8c68-32e8e140192e"},"vehicle_type_id":"4","last_reported":1721931047,"current_range_meters":0,"station_id":"ce4bgkp2rcd13ifvqbmg","pricing_plan_id":"cebpf4jnsgd1na2vs0mg"},{"bike_id":"13ddfac0-9472-42b3-97c3-05ea6ac13abd","system_id":"levelo_inurba_marseille","lat":43.299717,"lon":5.384845,"is_reserved":false,"is_disabled":false,"rental_uris":{"android":"levelo://app?vid=13ddfac0-9472-42b3-97c3-05ea6ac13abd","ios":"levelo://app?vid=13ddfac0-9472-42b3-97c3-05ea6ac13abd"},"vehicle_type_id":"4","last_reported":1721931047,"current_range_meters":0,"station_id":"ce4bgj92rcd13ifvqbd0","pricing_plan_id":"cebpf4jnsgd1na2vs0mg"},{"bike_id":"3a0cb516-8b87-485f-950b-0bc9066d3094","system_id":"levelo_inurba_marseille","lat":43.299717,"lon":5.384845,"is_reserved":false,"is_disabled":false,"rental_uris":{"android":"levelo://app?vid=3a0cb516-8b87-485f-950b-0bc9066d3094","ios":"levelo://app?vid=3a0cb516-8b87-485f-950b-0bc9066d3094"},"vehicle_type_id":"4","last_reported":1721931047,"current_range_meters":0,"station_id":"ce4bgj92rcd13ifvqbd0","pricing_plan_id":"cebpf4jnsgd1na2vs0mg"},{"bike_id":"6cffb5e2-b34e-4255-8df8-3cd424570fdf","system_id":"levelo_inurba_marseille","lat":43.301396,"lon":5.387812,"is_reserved":false,"is_disabled":false,"rental_uris":{"android":"levelo://app?vid=6cffb5e2-b34e-4255-8df8-3cd424570fdf","ios":"levelo://app?vid=6cffb5e2-b34e-4255-8df8-3cd424570fdf"},"vehicle_type_id":"4","last_reported":1721931047,"current_range_meters":1200,"station_id":"ce4bghh2rcd13ifvqb60","pricing_plan_id":"cebpf4jnsgd1na2vs0mg"},{"bike_id":"e541825c-40d4-45e5-8c99-6f5de76c516c","system_id":"levelo_inurba_marseille","lat":43.301396,"lon":5.387812,"is_reserved":false,"is_disabled":false,"rental_uris":{"android":"levelo://app?vid=e541825c-40d4-45e5-8c99-6f5de76c516c","ios":"levelo://app?vid=e541825c-40d4-45e5-8c99-6f5de76c516c"},"vehicle_type_id":"4","last_reported":1721931047,"current_range_meters":1600,"station_id":"ce4bghh2rcd13ifvqb60","pricing_plan_id":"cebpf4jnsgd1na2vs0mg"},{"bike_id":"42e2bdc5-cc88-4994-8564-066eddadb016","system_id":"levelo_inurba_marseille","lat":43.301396,"lon":5.387812,"is_reserved":false,"is_disabled":false,"rental_uris":{"android":"levelo://app?vid=42e2bdc5-cc88-4994-8564-066eddadb016","ios":"levelo://app?vid=42e2bdc5-cc88-4994-8564-066eddadb016"},"vehicle_type_id":"4","last_reported":1721931047,"current_range_meters":6800,"station_id":"ce4bghh2rcd13ifvqb60","pricing_plan_id":"cebpf4jnsgd1na2vs0mg"},{"bike_id":"115797ea-d335-4c59-acaf-9a485d6b5abb","system_id":"levelo_inurba_marseille","lat":43.301396,"lon":5.387812,"is_reserved":false,"is_disabled":false,"rental_uris":{"android":"levelo://app?vid=115797ea-d335-4c59-acaf-9a485d6b5abb","ios":"levelo://app?vid=115797ea-d335-4c59-acaf-9a485d6b5abb"},"vehicle_type_id":"4","last_reported":1721931047,"current_range_meters":0,"station_id":"ce4bghh2rcd13ifvqb60","pricing_plan_id":"cebpf4jnsgd1na2vs0mg"},{"bike_id":"338f32ac-5219-4a65-8815-8cde1e18ff0d","system_id":"levelo_inurba_marseille","lat":43.32367,"lon":5.388836,"is_reserved":false,"is_disabled":false,"rental_uris":{"android":"levelo://app?vid=338f32ac-5219-4a65-8815-8cde1e18ff0d","ios":"levelo://app?vid=338f32ac-5219-4a65-8815-8cde1e18ff0d"},"vehicle_type_id":"4","last_reported":1721931047,"current_range_meters":16400,"station_id":"ce4bhqp2rcd13ifvqhog","pricing_plan_id":"cebpf4jnsgd1na2vs0mg"},{"bike_id":"1c8f15ac-5a2e-453b-8a35-bbd113cc4118","system_id":"levelo_inurba_marseille","lat":43.32367,"lon":5.388836,"is_reserved":false,"is_disabled":false,"rental_uris":{"android":"levelo://app?vid=1c8f15ac-5a2e-453b-8a35-bbd113cc4118","ios":"levelo://app?vid=1c8f15ac-5a2e-453b-8a35-bbd113cc4118"},"vehicle_type_id":"4","last_reported":1721931047,"current_range_meters":10800,"station_id":"ce4bhqp2rcd13ifvqhog","pricing_plan_id":"cebpf4jnsgd1na2vs0mg"},{"bike_id":"eb16e139-9e93-45f4-a7a6-1f1bea722756","system_id":"levelo_inurba_marseille","lat":43.32369,"lon":5.38889,"is_reserved":false,"is_disabled":false,"rental_uris":{"android":"levelo://app?vid=eb16e139-9e93-45f4-a7a6-1f1bea722756","ios":"levelo://app?vid=eb16e139-9e93-45f4-a7a6-1f1bea722756"},"vehicle_type_id":"4","last_reported":1721931047,"current_range_meters":0,"station_id":"ce4bhqp2rcd13ifvqhog","pricing_plan_id":"cebpf4jnsgd1na2vs0mg"},{"bike_id":"103452e0-1340-4af6-8f36-53d0d05237c9","system_id":"levelo_inurba_marseille","lat":43.29602,"lon":5.381084,"is_reserved":false,"is_disabled":false,"rental_uris":{"android":"levelo://app?vid=103452e0-1340-4af6-8f36-53d0d05237c9","ios":"levelo://app?vid=103452e0-1340-4af6-8f36-53d0d05237c9"},"vehicle_type_id":"4","last_reported":1721931047,"current_range_meters":31600,"station_id":"ce4bgl12rcd13ifvqbo0","pricing_plan_id":"cebpf4jnsgd1na2vs0mg"},{"bike_id":"e7fa3156-09f2-41b5-b8f6-cc641eb2cccf","system_id":"levelo_inurba_marseille","lat":43.325202,"lon":5.387795,"is_reserved":false,"is_disabled":false,"rental_uris":{"android":"levelo://app?vid=e7fa3156-09f2-41b5-b8f6-cc641eb2cccf","ios":"levelo://app?vid=e7fa3156-09f2-41b5-b8f6-cc641eb2cccf"},"vehicle_type_id":"4","last_reported":1721931047,"current_range_meters":14800,"station_id":"","pricing_plan_id":"cebpf4jnsgd1na2vs0mg"},{"bike_id":"60b037de-f418-478b-b6b2-16fa5ac2b149","system_id":"levelo_inurba_marseille","lat":43.292749,"lon":5.368402,"is_reserved":false,"is_disabled":false,"rental_uris":{"android":"levelo://app?vid=60b037de-f418-478b-b6b2-16fa5ac2b149","ios":"levelo://app?vid=60b037de-f418-478b-b6b2-16fa5ac2b149"},"vehicle_type_id":"4","last_reported":1721931047,"current_range_meters":26800,"station_id":"ce4bhbp2rcd13ifvqesg","pricing_plan_id":"cebpf4jnsgd1na2vs0mg"},{"bike_id":"c92e3b40-b2a1-4fd7-9446-37755c48580b","system_id":"levelo_inurba_marseille","lat":43.293259,"lon":5.371586,"is_reserved":false,"is_disabled":false,"rental_uris":{"android":"levelo://app?vid=c92e3b40-b2a1-4fd7-9446-37755c48580b","ios":"levelo://app?vid=c92e3b40-b2a1-4fd7-9446-37755c48580b"},"vehicle_type_id":"4","last_reported":1721931047,"current_range_meters":10800,"station_id":"ce4bgh92rcd13ifvqb40","pricing_plan_id":"cebpf4jnsgd1na2vs0mg"},{"bike_id":"6308f73e-026a-47a2-8bd8-af7900d8a5ce","system_id":"levelo_inurba_marseille","lat":43.292749,"lon":5.368402,"is_reserved":false,"is_disabled":false,"rental_uris":{"android":"levelo://app?vid=6308f73e-026a-47a2-8bd8-af7900d8a5ce","ios":"levelo://app?vid=6308f73e-026a-47a2-8bd8-af7900d8a5ce"},"vehicle_type_id":"4","last_reported":1721931047,"current_range_meters":27200,"station_id":"ce4bhbp2rcd13ifvqesg","pricing_plan_id":"cebpf4jnsgd1na2vs0mg"},{"bike_id":"498bd756-7191-4f88-b8b3-aca303eef88a","system_id":"levelo_inurba_marseille","lat":43.29307,"lon":5.37177,"is_reserved":false,"is_disabled":false,"rental_uris":{"android":"levelo://app?vid=498bd756-7191-4f88-b8b3-aca303eef88a","ios":"levelo://app?vid=498bd756-7191-4f88-b8b3-aca303eef88a"},"vehicle_type_id":"4","last_reported":1721931047,"current_range_meters":2800,"station_id":"ce4bgh92rcd13ifvqb40","pricing_plan_id":"cebpf4jnsgd1na2vs0mg"},{"bike_id":"968e15f6-e1b9-411f-a340-6e0bc91582f8","system_id":"levelo_inurba_marseille","lat":43.292749,"lon":5.368398,"is_reserved":false,"is_disabled":false,"rental_uris":{"android":"levelo://app?vid=968e15f6-e1b9-411f-a340-6e0bc91582f8","ios":"levelo://app?vid=968e15f6-e1b9-411f-a340-6e0bc91582f8"},"vehicle_type_id":"4","last_reported":1721931047,"current_range_meters":16000,"station_id":"ce4bhbp2rcd13ifvqesg","pricing_plan_id":"cebpf4jnsgd1na2vs0mg"},{"bike_id":"f1449887-01b2-4f3d-a834-16567fc7a3d5","system_id":"levelo_inurba_marseille","lat":43.29303,"lon":5.37173,"is_reserved":false,"is_disabled":false,"rental_uris":{"android":"levelo://app?vid=f1449887-01b2-4f3d-a834-16567fc7a3d5","ios":"levelo://app?vid=f1449887-01b2-4f3d-a834-16567fc7a3d5"},"vehicle_type_id":"4","last_reported":1721931047,"current_range_meters":20400,"station_id":"ce4bgh92rcd13ifvqb40","pricing_plan_id":"cebpf4jnsgd1na2vs0mg"},{"bike_id":"ecca8c07-5d7e-40ef-9f40-2f88011ca96c","system_id":"levelo_inurba_marseille","lat":43.293009,"lon":5.374584,"is_reserved":false,"is_disabled":false,"rental_uris":{"android":"levelo://app?vid=ecca8c07-5d7e-40ef-9f40-2f88011ca96c","ios":"levelo://app?vid=ecca8c07-5d7e-40ef-9f40-2f88011ca96c"},"vehicle_type_id":"4","last_reported":1721931047,"current_range_meters":14800,"station_id":"ce4bgi12rcd13ifvqb70","pricing_plan_id":"cebpf4jnsgd1na2vs0mg"},{"bike_id":"0e64bf9b-fcd0-47c4-8669-c8f27838d2d5","system_id":"levelo_inurba_marseille","lat":43.29304,"lon":5.37457,"is_reserved":false,"is_disabled":false,"rental_uris":{"android":"levelo://app?vid=0e64bf9b-fcd0-47c4-8669-c8f27838d2d5","ios":"levelo://app?vid=0e64bf9b-fcd0-47c4-8669-c8f27838d2d5"},"vehicle_type_id":"4","last_reported":1721931047,"current_range_meters":0,"station_id":"ce4bgi12rcd13ifvqb70","pricing_plan_id":"cebpf4jnsgd1na2vs0mg"},{"bike_id":"e94795df-0a3e-4c24-966b-34b76770a2b2","system_id":"levelo_inurba_marseille","lat":43.293009,"lon":5.374584,"is_reserved":false,"is_disabled":false,"rental_uris":{"android":"levelo://app?vid=e94795df-0a3e-4c24-966b-34b76770a2b2","ios":"levelo://app?vid=e94795df-0a3e-4c24-966b-34b76770a2b2"},"vehicle_type_id":"4","last_reported":1721931047,"current_range_meters":25200,"station_id":"ce4bgi12rcd13ifvqb70","pricing_plan_id":"cebpf4jnsgd1na2vs0mg"},{"bike_id":"fa6fbf01-072e-40de-93cb-dd879050f8c0","system_id":"levelo_inurba_marseille","lat":43.293009,"lon":5.374584,"is_reserved":false,"is_disabled":false,"rental_uris":{"android":"levelo://app?vid=fa6fbf01-072e-40de-93cb-dd879050f8c0","ios":"levelo://app?vid=fa6fbf01-072e-40de-93cb-dd879050f8c0"},"vehicle_type_id":"4","last_reported":1721931047,"current_range_meters":16800,"station_id":"ce4bgi12rcd13ifvqb70","pricing_plan_id":"cebpf4jnsgd1na2vs0mg"},{"bike_id":"920bafbb-cbe4-4a54-8a56-522f09981efb","system_id":"levelo_inurba_marseille","lat":43.293009,"lon":5.374584,"is_reserved":false,"is_disabled":false,"rental_uris":{"android":"levelo://app?vid=920bafbb-cbe4-4a54-8a56-522f09981efb","ios":"levelo://app?vid=920bafbb-cbe4-4a54-8a56-522f09981efb"},"vehicle_type_id":"4","last_reported":1721931047,"current_range_meters":400,"station_id":"ce4bgi12rcd13ifvqb70","pricing_plan_id":"cebpf4jnsgd1na2vs0mg"},{"bike_id":"6a2fef35-ef0e-4875-9ae4-cd98cb39fcbf","system_id":"levelo_inurba_marseille","lat":43.305994,"lon":5.393687,"is_reserved":false,"is_disabled":false,"rental_uris":{"android":"levelo://app?vid=6a2fef35-ef0e-4875-9ae4-cd98cb39fcbf","ios":"levelo://app?vid=6a2fef35-ef0e-4875-9ae4-cd98cb39fcbf"},"vehicle_type_id":"4","last_reported":1721931047,"current_range_meters":400,"station_id":"ce4bh0p2rcd13ifvqd80","pricing_plan_id":"cebpf4jnsgd1na2vs0mg"},{"bike_id":"3a8c9255-1420-4e9f-8f06-c262a51f4d4b","system_id":"levelo_inurba_marseille","lat":43.293009,"lon":5.374584,"is_reserved":false,"is_disabled":false,"rental_uris":{"android":"levelo://app?vid=3a8c9255-1420-4e9f-8f06-c262a51f4d4b","ios":"levelo://app?vid=3a8c9255-1420-4e9f-8f06-c262a51f4d4b"},"vehicle_type_id":"4","last_reported":1721931047,"current_range_meters":2800,"station_id":"ce4bgi12rcd13ifvqb70","pricing_plan_id":"cebpf4jnsgd1na2vs0mg"},{"bike_id":"b4718915-9324-4f24-8df2-8a662974c668","system_id":"levelo_inurba_marseille","lat":43.302992,"lon":5.392136,"is_reserved":false,"is_disabled":false,"rental_uris":{"android":"levelo://app?vid=b4718915-9324-4f24-8df2-8a662974c668","ios":"levelo://app?vid=b4718915-9324-4f24-8df2-8a662974c668"},"vehicle_type_id":"4","last_reported":1721931047,"current_range_meters":400,"station_id":"ce4bgkh2rcd13ifvqbk0","pricing_plan_id":"cebpf4jnsgd1na2vs0mg"},{"bike_id":"be583336-de85-4625-b6ef-4bf1f9626e40","system_id":"levelo_inurba_marseille","lat":43.29228,"lon":5.361855,"is_reserved":false,"is_disabled":false,"rental_uris":{"android":"levelo://app?vid=be583336-de85-4625-b6ef-4bf1f9626e40","ios":"levelo://app?vid=be583336-de85-4625-b6ef-4bf1f9626e40"},"vehicle_type_id":"4","last_reported":1721931047,"current_range_meters":0,"station_id":"","pricing_plan_id":"cebpf4jnsgd1na2vs0mg"},{"bike_id":"25d4d998-00e9-4d5c-a85a-4aee4b83faeb","system_id":"levelo_inurba_marseille","lat":43.298764,"lon":5.388973,"is_reserved":false,"is_disabled":false,"rental_uris":{"android":"levelo://app?vid=25d4d998-00e9-4d5c-a85a-4aee4b83faeb","ios":"levelo://app?vid=25d4d998-00e9-4d5c-a85a-4aee4b83faeb"},"vehicle_type_id":"4","last_reported":1721931047,"current_range_meters":0,"station_id":"ce4bh392rcd13ifvqdl0","pricing_plan_id":"cebpf4jnsgd1na2vs0mg"},{"bike_id":"f510ff9c-0580-4d94-9cc6-f336fd72148a","system_id":"levelo_inurba_marseille","lat":43.292311,"lon":5.360731,"is_reserved":false,"is_disabled":false,"rental_uris":{"android":"levelo://app?vid=f510ff9c-0580-4d94-9cc6-f336fd72148a","ios":"levelo://app?vid=f510ff9c-0580-4d94-9cc6-f336fd72148a"},"vehicle_type_id":"4","last_reported":1721931047,"current_range_meters":30000,"station_id":"ce4bhbh2rcd13ifvqeqg","pricing_plan_id":"cebpf4jnsgd1na2vs0mg"},{"bike_id":"1a58fcb4-4fca-457a-a7d4-998982c68cc7","system_id":"levelo_inurba_marseille","lat":43.292311,"lon":5.360731,"is_reserved":false,"is_disabled":false,"rental_uris":{"android":"levelo://app?vid=1a58fcb4-4fca-457a-a7d4-998982c68cc7","ios":"levelo://app?vid=1a58fcb4-4fca-457a-a7d4-998982c68cc7"},"vehicle_type_id":"4","last_reported":1721931047,"current_range_meters":800,"station_id":"ce4bhbh2rcd13ifvqeqg","pricing_plan_id":"cebpf4jnsgd1na2vs0mg"},{"bike_id":"006601ca-72bb-420e-8fb7-86ec58f35301","system_id":"levelo_inurba_marseille","lat":43.292311,"lon":5.360731,"is_reserved":false,"is_disabled":false,"rental_uris":{"android":"levelo://app?vid=006601ca-72bb-420e-8fb7-86ec58f35301","ios":"levelo://app?vid=006601ca-72bb-420e-8fb7-86ec58f35301"},"vehicle_type_id":"4","last_reported":1721931047,"current_range_meters":0,"station_id":"ce4bhbh2rcd13ifvqeqg","pricing_plan_id":"cebpf4jnsgd1na2vs0mg"},{"bike_id":"0f184184-2be2-4d8b-8bf9-7437e96485a0","system_id":"levelo_inurba_marseille","lat":43.292311,"lon":5.360731,"is_reserved":false,"is_disabled":false,"rental_uris":{"android":"levelo://app?vid=0f184184-2be2-4d8b-8bf9-7437e96485a0","ios":"levelo://app?vid=0f184184-2be2-4d8b-8bf9-7437e96485a0"},"vehicle_type_id":"4","last_reported":1721931047,"current_range_meters":0,"station_id":"ce4bhbh2rcd13ifvqeqg","pricing_plan_id":"cebpf4jnsgd1na2vs0mg"},{"bike_id":"1eb6dfc7-fd6f-4c14-8661-4465fe0d8939","system_id":"levelo_inurba_marseille","lat":43.29224,"lon":5.36058,"is_reserved":false,"is_disabled":false,"rental_uris":{"android":"levelo://app?vid=1eb6dfc7-fd6f-4c14-8661-4465fe0d8939","ios":"levelo://app?vid=1eb6dfc7-fd6f-4c14-8661-4465fe0d8939"},"vehicle_type_id":"4","last_reported":1721931047,"current_range_meters":0,"station_id":"ce4bhbh2rcd13ifvqeqg","pricing_plan_id":"cebpf4jnsgd1na2vs0mg"},{"bike_id":"1cab1c87-242d-4775-8635-02cbd99453e1","system_id":"levelo_inurba_marseille","lat":43.29223,"lon":5.36045,"is_reserved":false,"is_disabled":false,"rental_uris":{"android":"levelo://app?vid=1cab1c87-242d-4775-8635-02cbd99453e1","ios":"levelo://app?vid=1cab1c87-242d-4775-8635-02cbd99453e1"},"vehicle_type_id":"4","last_reported":1721931047,"current_range_meters":31200,"station_id":"ce4bhbh2rcd13ifvqeqg","pricing_plan_id":"cebpf4jnsgd1na2vs0mg"},{"bike_id":"265c002d-4deb-4bc5-89d2-6b2b9831233a","system_id":"levelo_inurba_marseille","lat":43.29219,"lon":5.36043,"is_reserved":false,"is_disabled":false,"rental_uris":{"android":"levelo://app?vid=265c002d-4deb-4bc5-89d2-6b2b9831233a","ios":"levelo://app?vid=265c002d-4deb-4bc5-89d2-6b2b9831233a"},"vehicle_type_id":"4","last_reported":1721931047,"current_range_meters":24000,"station_id":"ce4bhbh2rcd13ifvqeqg","pricing_plan_id":"cebpf4jnsgd1na2vs0mg"},{"bike_id":"bce15108-b8b7-4952-9bfd-3b56f620b7f3","system_id":"levelo_inurba_marseille","lat":43.298764,"lon":5.388973,"is_reserved":false,"is_disabled":false,"rental_uris":{"android":"levelo://app?vid=bce15108-b8b7-4952-9bfd-3b56f620b7f3","ios":"levelo://app?vid=bce15108-b8b7-4952-9bfd-3b56f620b7f3"},"vehicle_type_id":"4","last_reported":1721931047,"current_range_meters":1600,"station_id":"ce4bh392rcd13ifvqdl0","pricing_plan_id":"cebpf4jnsgd1na2vs0mg"},{"bike_id":"5bc6ffb5-8fa4-41c1-927a-f04ace349668","system_id":"levelo_inurba_marseille","lat":43.298764,"lon":5.388973,"is_reserved":false,"is_disabled":false,"rental_uris":{"android":"levelo://app?vid=5bc6ffb5-8fa4-41c1-927a-f04ace349668","ios":"levelo://app?vid=5bc6ffb5-8fa4-41c1-927a-f04ace349668"},"vehicle_type_id":"4","last_reported":1721931047,"current_range_meters":800,"station_id":"ce4bh392rcd13ifvqdl0","pricing_plan_id":"cebpf4jnsgd1na2vs0mg"},{"bike_id":"c6ad5e91-a884-48d3-bc3d-61d9129c0164","system_id":"levelo_inurba_marseille","lat":43.298764,"lon":5.388973,"is_reserved":false,"is_disabled":false,"rental_uris":{"android":"levelo://app?vid=c6ad5e91-a884-48d3-bc3d-61d9129c0164","ios":"levelo://app?vid=c6ad5e91-a884-48d3-bc3d-61d9129c0164"},"vehicle_type_id":"4","last_reported":1721931047,"current_range_meters":15200,"station_id":"ce4bh392rcd13ifvqdl0","pricing_plan_id":"cebpf4jnsgd1na2vs0mg"},{"bike_id":"17c87d12-ecb5-462c-9471-910cb4c1a399","system_id":"levelo_inurba_marseille","lat":43.291675,"lon":5.371583,"is_reserved":false,"is_disabled":false,"rental_uris":{"android":"levelo://app?vid=17c87d12-ecb5-462c-9471-910cb4c1a399","ios":"levelo://app?vid=17c87d12-ecb5-462c-9471-910cb4c1a399"},"vehicle_type_id":"4","last_reported":1721931047,"current_range_meters":800,"station_id":"ce4bha92rcd13ifvqeh0","pricing_plan_id":"cebpf4jnsgd1na2vs0mg"},{"bike_id":"dd7348cc-8bc8-4110-b39f-b53b1da94c05","system_id":"levelo_inurba_marseille","lat":43.29201,"lon":5.35804,"is_reserved":false,"is_disabled":false,"rental_uris":{"android":"levelo://app?vid=dd7348cc-8bc8-4110-b39f-b53b1da94c05","ios":"levelo://app?vid=dd7348cc-8bc8-4110-b39f-b53b1da94c05"},"vehicle_type_id":"4","last_reported":1721931047,"current_range_meters":31200,"station_id":"ce4bhb12rcd13ifvqel0","pricing_plan_id":"cebpf4jnsgd1na2vs0mg"},{"bike_id":"89d9bbeb-32fc-4600-a355-2bffb5a1e810","system_id":"levelo_inurba_marseille","lat":43.29199,"lon":5.35785,"is_reserved":false,"is_disabled":false,"rental_uris":{"android":"levelo://app?vid=89d9bbeb-32fc-4600-a355-2bffb5a1e810","ios":"levelo://app?vid=89d9bbeb-32fc-4600-a355-2bffb5a1e810"},"vehicle_type_id":"4","last_reported":1721931047,"current_range_meters":0,"station_id":"ce4bhb12rcd13ifvqel0","pricing_plan_id":"cebpf4jnsgd1na2vs0mg"},{"bike_id":"a42d8894-5e20-41d5-9716-386cd2de4c2a","system_id":"levelo_inurba_marseille","lat":43.29194,"lon":5.35791,"is_reserved":false,"is_disabled":false,"rental_uris":{"android":"levelo://app?vid=a42d8894-5e20-41d5-9716-386cd2de4c2a","ios":"levelo://app?vid=a42d8894-5e20-41d5-9716-386cd2de4c2a"},"vehicle_type_id":"4","last_reported":1721931047,"current_range_meters":0,"station_id":"ce4bhb12rcd13ifvqel0","pricing_plan_id":"cebpf4jnsgd1na2vs0mg"},{"bike_id":"fef7053d-0d52-4327-a842-4f17896a45f8","system_id":"levelo_inurba_marseille","lat":43.309038,"lon":5.396546,"is_reserved":false,"is_disabled":false,"rental_uris":{"android":"levelo://app?vid=fef7053d-0d52-4327-a842-4f17896a45f8","ios":"levelo://app?vid=fef7053d-0d52-4327-a842-4f17896a45f8"},"vehicle_type_id":"4","last_reported":1721931047,"current_range_meters":31200,"station_id":"ce4bh012rcd13ifvqcv0","pricing_plan_id":"cebpf4jnsgd1na2vs0mg"},{"bike_id":"a8db7af0-976e-416e-abbb-c18042983197","system_id":"levelo_inurba_marseille","lat":43.309047,"lon":5.396551,"is_reserved":false,"is_disabled":false,"rental_uris":{"android":"levelo://app?vid=a8db7af0-976e-416e-abbb-c18042983197","ios":"levelo://app?vid=a8db7af0-976e-416e-abbb-c18042983197"},"vehicle_type_id":"4","last_reported":1721931047,"current_range_meters":5200,"station_id":"ce4bh012rcd13ifvqcv0","pricing_plan_id":"cebpf4jnsgd1na2vs0mg"},{"bike_id":"2056afff-5d5c-402c-97fd-7b67c1ecc43b","system_id":"levelo_inurba_marseille","lat":43.29529,"lon":5.385581,"is_reserved":false,"is_disabled":false,"rental_uris":{"android":"levelo://app?vid=2056afff-5d5c-402c-97fd-7b67c1ecc43b","ios":"levelo://app?vid=2056afff-5d5c-402c-97fd-7b67c1ecc43b"},"vehicle_type_id":"4","last_reported":1721931047,"current_range_meters":31600,"station_id":"ce4bgih2rcd13ifvqba0","pricing_plan_id":"cebpf4jnsgd1na2vs0mg"},{"bike_id":"6fcc744b-6b58-4230-8d7c-1717a13e8ce5","system_id":"levelo_inurba_marseille","lat":43.29529,"lon":5.385581,"is_reserved":false,"is_disabled":false,"rental_uris":{"android":"levelo://app?vid=6fcc744b-6b58-4230-8d7c-1717a13e8ce5","ios":"levelo://app?vid=6fcc744b-6b58-4230-8d7c-1717a13e8ce5"},"vehicle_type_id":"4","last_reported":1721931047,"current_range_meters":31200,"station_id":"ce4bgih2rcd13ifvqba0","pricing_plan_id":"cebpf4jnsgd1na2vs0mg"},{"bike_id":"aa7729c9-924b-4480-b999-1fcc141a1dea","system_id":"levelo_inurba_marseille","lat":43.29529,"lon":5.385581,"is_reserved":false,"is_disabled":false,"rental_uris":{"android":"levelo://app?vid=aa7729c9-924b-4480-b999-1fcc141a1dea","ios":"levelo://app?vid=aa7729c9-924b-4480-b999-1fcc141a1dea"},"vehicle_type_id":"4","last_reported":1721931047,"current_range_meters":31600,"station_id":"ce4bgih2rcd13ifvqba0","pricing_plan_id":"cebpf4jnsgd1na2vs0mg"},{"bike_id":"30214bbd-52ad-4a26-8a9f-b318b2627b21","system_id":"levelo_inurba_marseille","lat":43.29529,"lon":5.385581,"is_reserved":false,"is_disabled":false,"rental_uris":{"android":"levelo://app?vid=30214bbd-52ad-4a26-8a9f-b318b2627b21","ios":"levelo://app?vid=30214bbd-52ad-4a26-8a9f-b318b2627b21"},"vehicle_type_id":"4","last_reported":1721931047,"current_range_meters":26800,"station_id":"ce4bgih2rcd13ifvqba0","pricing_plan_id":"cebpf4jnsgd1na2vs0mg"},{"bike_id":"3e94b0ea-b905-43ce-8e62-463519e337bf","system_id":"levelo_inurba_marseille","lat":43.29529,"lon":5.385581,"is_reserved":false,"is_disabled":false,"rental_uris":{"android":"levelo://app?vid=3e94b0ea-b905-43ce-8e62-463519e337bf","ios":"levelo://app?vid=3e94b0ea-b905-43ce-8e62-463519e337bf"},"vehicle_type_id":"4","last_reported":1721931047,"current_range_meters":3200,"station_id":"ce4bgih2rcd13ifvqba0","pricing_plan_id":"cebpf4jnsgd1na2vs0mg"},{"bike_id":"0b576f42-4948-4cf4-8237-e3dc01bfb9b8","system_id":"levelo_inurba_marseille","lat":43.290779,"lon":5.371482,"is_reserved":false,"is_disabled":false,"rental_uris":{"android":"levelo://app?vid=0b576f42-4948-4cf4-8237-e3dc01bfb9b8","ios":"levelo://app?vid=0b576f42-4948-4cf4-8237-e3dc01bfb9b8"},"vehicle_type_id":"4","last_reported":1721931047,"current_range_meters":7600,"station_id":"ce4bh5p2rcd13ifvqe4g","pricing_plan_id":"cebpf4jnsgd1na2vs0mg"},{"bike_id":"6c5b546f-9af9-4c50-b921-bebfa03c10b4","system_id":"levelo_inurba_marseille","lat":43.29058,"lon":5.37005,"is_reserved":false,"is_disabled":false,"rental_uris":{"android":"levelo://app?vid=6c5b546f-9af9-4c50-b921-bebfa03c10b4","ios":"levelo://app?vid=6c5b546f-9af9-4c50-b921-bebfa03c10b4"},"vehicle_type_id":"4","last_reported":1721931047,"current_range_meters":0,"station_id":"","pricing_plan_id":"cebpf4jnsgd1na2vs0mg"},{"bike_id":"82911dc2-4f8e-4d3f-9dce-cf7536a832c6","system_id":"levelo_inurba_marseille","lat":43.29057,"lon":5.35902,"is_reserved":false,"is_disabled":false,"rental_uris":{"android":"levelo://app?vid=82911dc2-4f8e-4d3f-9dce-cf7536a832c6","ios":"levelo://app?vid=82911dc2-4f8e-4d3f-9dce-cf7536a832c6"},"vehicle_type_id":"4","last_reported":1721931047,"current_range_meters":0,"station_id":"ce4bha92rcd13ifvqeg0","pricing_plan_id":"cebpf4jnsgd1na2vs0mg"},{"bike_id":"13f36d02-0801-4d54-b74e-38bd36da807f","system_id":"levelo_inurba_marseille","lat":43.290631,"lon":5.359244,"is_reserved":false,"is_disabled":false,"rental_uris":{"android":"levelo://app?vid=13f36d02-0801-4d54-b74e-38bd36da807f","ios":"levelo://app?vid=13f36d02-0801-4d54-b74e-38bd36da807f"},"vehicle_type_id":"4","last_reported":1721931047,"current_range_meters":4000,"station_id":"ce4bha92rcd13ifvqeg0","pricing_plan_id":"cebpf4jnsgd1na2vs0mg"},{"bike_id":"ca56b4fc-d7ec-4b21-9c00-16888b1b3a8a","system_id":"levelo_inurba_marseille","lat":43.289184,"lon":5.366408,"is_reserved":false,"is_disabled":false,"rental_uris":{"android":"levelo://app?vid=ca56b4fc-d7ec-4b21-9c00-16888b1b3a8a","ios":"levelo://app?vid=ca56b4fc-d7ec-4b21-9c00-16888b1b3a8a"},"vehicle_type_id":"4","last_reported":1721931047,"current_range_meters":20800,"station_id":"ce4bhap2rcd13ifvqek0","pricing_plan_id":"cebpf4jnsgd1na2vs0mg"},{"bike_id":"8ba38f1d-b4b2-4469-8aad-1f21245e0541","system_id":"levelo_inurba_marseille","lat":43.289335,"lon":5.36395,"is_reserved":false,"is_disabled":false,"rental_uris":{"android":"levelo://app?vid=8ba38f1d-b4b2-4469-8aad-1f21245e0541","ios":"levelo://app?vid=8ba38f1d-b4b2-4469-8aad-1f21245e0541"},"vehicle_type_id":"4","last_reported":1721931047,"current_range_meters":400,"station_id":"ce4bhc92rcd13ifvqetg","pricing_plan_id":"cebpf4jnsgd1na2vs0mg"},{"bike_id":"03e0462f-b465-4c38-8a9e-df4fcc2753f0","system_id":"levelo_inurba_marseille","lat":43.29016,"lon":5.35721,"is_reserved":false,"is_disabled":false,"rental_uris":{"android":"levelo://app?vid=03e0462f-b465-4c38-8a9e-df4fcc2753f0","ios":"levelo://app?vid=03e0462f-b465-4c38-8a9e-df4fcc2753f0"},"vehicle_type_id":"4","last_reported":1721931047,"current_range_meters":0,"station_id":"","pricing_plan_id":"cebpf4jnsgd1na2vs0mg"},{"bike_id":"0a87e6c3-db71-4aba-aea3-9fd4b56979c5","system_id":"levelo_inurba_marseille","lat":43.292644,"lon":5.384257,"is_reserved":false,"is_disabled":false,"rental_uris":{"android":"levelo://app?vid=0a87e6c3-db71-4aba-aea3-9fd4b56979c5","ios":"levelo://app?vid=0a87e6c3-db71-4aba-aea3-9fd4b56979c5"},"vehicle_type_id":"4","last_reported":1721931047,"current_range_meters":0,"station_id":"ce4bh692rcd13ifvqea0","pricing_plan_id":"cebpf4jnsgd1na2vs0mg"},{"bike_id":"6ea3ba3b-dd05-4c8d-82d6-eac56fda5748","system_id":"levelo_inurba_marseille","lat":43.289049,"lon":5.36649,"is_reserved":false,"is_disabled":false,"rental_uris":{"android":"levelo://app?vid=6ea3ba3b-dd05-4c8d-82d6-eac56fda5748","ios":"levelo://app?vid=6ea3ba3b-dd05-4c8d-82d6-eac56fda5748"},"vehicle_type_id":"4","last_reported":1721931047,"current_range_meters":24400,"station_id":"ce4bgip2rcd13ifvqbb0","pricing_plan_id":"cebpf4jnsgd1na2vs0mg"},{"bike_id":"f48661ac-92f3-4596-90b4-7d12c147cb15","system_id":"levelo_inurba_marseille","lat":43.292642,"lon":5.384254,"is_reserved":false,"is_disabled":false,"rental_uris":{"android":"levelo://app?vid=f48661ac-92f3-4596-90b4-7d12c147cb15","ios":"levelo://app?vid=f48661ac-92f3-4596-90b4-7d12c147cb15"},"vehicle_type_id":"4","last_reported":1721931047,"current_range_meters":12800,"station_id":"ce4bh692rcd13ifvqea0","pricing_plan_id":"cebpf4jnsgd1na2vs0mg"},{"bike_id":"5fbef270-e4c5-4bec-8578-dda4e6810285","system_id":"levelo_inurba_marseille","lat":43.304296,"lon":5.397513,"is_reserved":false,"is_disabled":false,"rental_uris":{"android":"levelo://app?vid=5fbef270-e4c5-4bec-8578-dda4e6810285","ios":"levelo://app?vid=5fbef270-e4c5-4bec-8578-dda4e6810285"},"vehicle_type_id":"4","last_reported":1721931047,"current_range_meters":4800,"station_id":"ce4bh092rcd13ifvqd20","pricing_plan_id":"cebpf4jnsgd1na2vs0mg"},{"bike_id":"66f264a8-2971-460a-9e3f-252e91d814bb","system_id":"levelo_inurba_marseille","lat":43.292673,"lon":5.384437,"is_reserved":false,"is_disabled":false,"rental_uris":{"android":"levelo://app?vid=66f264a8-2971-460a-9e3f-252e91d814bb","ios":"levelo://app?vid=66f264a8-2971-460a-9e3f-252e91d814bb"},"vehicle_type_id":"4","last_reported":1721931047,"current_range_meters":0,"station_id":"ce4bh692rcd13ifvqea0","pricing_plan_id":"cebpf4jnsgd1na2vs0mg"},{"bike_id":"745bb862-f7c0-4105-9872-5d363854309f","system_id":"levelo_inurba_marseille","lat":43.292644,"lon":5.384257,"is_reserved":false,"is_disabled":false,"rental_uris":{"android":"levelo://app?vid=745bb862-f7c0-4105-9872-5d363854309f","ios":"levelo://app?vid=745bb862-f7c0-4105-9872-5d363854309f"},"vehicle_type_id":"4","last_reported":1721931047,"current_range_meters":8800,"station_id":"ce4bh692rcd13ifvqea0","pricing_plan_id":"cebpf4jnsgd1na2vs0mg"},{"bike_id":"bda27bbd-9554-4a3c-84ff-eddeb8d57ebf","system_id":"levelo_inurba_marseille","lat":43.304296,"lon":5.397513,"is_reserved":false,"is_disabled":false,"rental_uris":{"android":"levelo://app?vid=bda27bbd-9554-4a3c-84ff-eddeb8d57ebf","ios":"levelo://app?vid=bda27bbd-9554-4a3c-84ff-eddeb8d57ebf"},"vehicle_type_id":"4","last_reported":1721931047,"current_range_meters":18400,"station_id":"ce4bh092rcd13ifvqd20","pricing_plan_id":"cebpf4jnsgd1na2vs0mg"},{"bike_id":"7584ca6d-efcd-473e-b4d3-2c5a776d8a78","system_id":"levelo_inurba_marseille","lat":43.292644,"lon":5.384257,"is_reserved":false,"is_disabled":false,"rental_uris":{"android":"levelo://app?vid=7584ca6d-efcd-473e-b4d3-2c5a776d8a78","ios":"levelo://app?vid=7584ca6d-efcd-473e-b4d3-2c5a776d8a78"},"vehicle_type_id":"4","last_reported":1721931047,"current_range_meters":0,"station_id":"ce4bh692rcd13ifvqea0","pricing_plan_id":"cebpf4jnsgd1na2vs0mg"},{"bike_id":"96cd63b4-3874-4fc1-8210-02d86a9d1657","system_id":"levelo_inurba_marseille","lat":43.2926,"lon":5.38435,"is_reserved":false,"is_disabled":false,"rental_uris":{"android":"levelo://app?vid=96cd63b4-3874-4fc1-8210-02d86a9d1657","ios":"levelo://app?vid=96cd63b4-3874-4fc1-8210-02d86a9d1657"},"vehicle_type_id":"4","last_reported":1721931047,"current_range_meters":0,"station_id":"ce4bh692rcd13ifvqea0","pricing_plan_id":"cebpf4jnsgd1na2vs0mg"},{"bike_id":"3ae58e38-383a-4380-ac68-41ddc2b9426b","system_id":"levelo_inurba_marseille","lat":43.29006,"lon":5.35624,"is_reserved":false,"is_disabled":false,"rental_uris":{"android":"levelo://app?vid=3ae58e38-383a-4380-ac68-41ddc2b9426b","ios":"levelo://app?vid=3ae58e38-383a-4380-ac68-41ddc2b9426b"},"vehicle_type_id":"4","last_reported":1721931047,"current_range_meters":28400,"station_id":"ce4bhb92rcd13ifvqen0","pricing_plan_id":"cebpf4jnsgd1na2vs0mg"},{"bike_id":"2d756d2b-7d55-4b3e-b4e5-a09b247526cf","system_id":"levelo_inurba_marseille","lat":43.290995,"lon":5.381361,"is_reserved":false,"is_disabled":false,"rental_uris":{"android":"levelo://app?vid=2d756d2b-7d55-4b3e-b4e5-a09b247526cf","ios":"levelo://app?vid=2d756d2b-7d55-4b3e-b4e5-a09b247526cf"},"vehicle_type_id":"4","last_reported":1721931047,"current_range_meters":0,"station_id":"ce4bh512rcd13ifvqe2g","pricing_plan_id":"cebpf4jnsgd1na2vs0mg"},{"bike_id":"2baf21af-8b23-41e0-a31d-cdeda303813b","system_id":"levelo_inurba_marseille","lat":43.290995,"lon":5.381361,"is_reserved":false,"is_disabled":false,"rental_uris":{"android":"levelo://app?vid=2baf21af-8b23-41e0-a31d-cdeda303813b","ios":"levelo://app?vid=2baf21af-8b23-41e0-a31d-cdeda303813b"},"vehicle_type_id":"4","last_reported":1721931047,"current_range_meters":29600,"station_id":"ce4bh512rcd13ifvqe2g","pricing_plan_id":"cebpf4jnsgd1na2vs0mg"},{"bike_id":"8b2d47fc-6c1f-4c20-a102-1b510d65d42c","system_id":"levelo_inurba_marseille","lat":43.297807,"lon":5.393533,"is_reserved":false,"is_disabled":false,"rental_uris":{"android":"levelo://app?vid=8b2d47fc-6c1f-4c20-a102-1b510d65d42c","ios":"levelo://app?vid=8b2d47fc-6c1f-4c20-a102-1b510d65d42c"},"vehicle_type_id":"4","last_reported":1721931047,"current_range_meters":16800,"station_id":"chh1huq6cuj3fo74tm60","pricing_plan_id":"cebpf4jnsgd1na2vs0mg"},{"bike_id":"90bb070f-386a-4c1e-aeb5-337598a3d04f","system_id":"levelo_inurba_marseille","lat":43.295169,"lon":5.390426,"is_reserved":false,"is_disabled":false,"rental_uris":{"android":"levelo://app?vid=90bb070f-386a-4c1e-aeb5-337598a3d04f","ios":"levelo://app?vid=90bb070f-386a-4c1e-aeb5-337598a3d04f"},"vehicle_type_id":"4","last_reported":1721931047,"current_range_meters":14800,"station_id":"ce4bh3p2rcd13ifvqdp0","pricing_plan_id":"cebpf4jnsgd1na2vs0mg"},{"bike_id":"0cc90c3e-0a13-433c-8909-e8dca58d932f","system_id":"levelo_inurba_marseille","lat":43.289858,"lon":5.378332,"is_reserved":false,"is_disabled":false,"rental_uris":{"android":"levelo://app?vid=0cc90c3e-0a13-433c-8909-e8dca58d932f","ios":"levelo://app?vid=0cc90c3e-0a13-433c-8909-e8dca58d932f"},"vehicle_type_id":"4","last_reported":1721931047,"current_range_meters":0,"station_id":"ce4bh9p2rcd13ifvqed0","pricing_plan_id":"cebpf4jnsgd1na2vs0mg"},{"bike_id":"223e42db-3e44-4628-a4fc-3c271ee59b96","system_id":"levelo_inurba_marseille","lat":43.29784,"lon":5.3934,"is_reserved":false,"is_disabled":false,"rental_uris":{"android":"levelo://app?vid=223e42db-3e44-4628-a4fc-3c271ee59b96","ios":"levelo://app?vid=223e42db-3e44-4628-a4fc-3c271ee59b96"},"vehicle_type_id":"4","last_reported":1721931047,"current_range_meters":0,"station_id":"chh1huq6cuj3fo74tm60","pricing_plan_id":"cebpf4jnsgd1na2vs0mg"},{"bike_id":"909822e5-e6ce-468b-bbc3-e345609ad7c5","system_id":"levelo_inurba_marseille","lat":43.289743,"lon":5.378304,"is_reserved":false,"is_disabled":false,"rental_uris":{"android":"levelo://app?vid=909822e5-e6ce-468b-bbc3-e345609ad7c5","ios":"levelo://app?vid=909822e5-e6ce-468b-bbc3-e345609ad7c5"},"vehicle_type_id":"4","last_reported":1721931047,"current_range_meters":0,"station_id":"ce4bh9p2rcd13ifvqed0","pricing_plan_id":"cebpf4jnsgd1na2vs0mg"},{"bike_id":"246c041d-72bc-4b2f-a6aa-f2abfb8a44f9","system_id":"levelo_inurba_marseille","lat":43.295169,"lon":5.390426,"is_reserved":false,"is_disabled":false,"rental_uris":{"android":"levelo://app?vid=246c041d-72bc-4b2f-a6aa-f2abfb8a44f9","ios":"levelo://app?vid=246c041d-72bc-4b2f-a6aa-f2abfb8a44f9"},"vehicle_type_id":"4","last_reported":1721931047,"current_range_meters":19600,"station_id":"ce4bh3p2rcd13ifvqdp0","pricing_plan_id":"cebpf4jnsgd1na2vs0mg"},{"bike_id":"c6bd280d-a761-4de4-9397-04b2ebe9582e","system_id":"levelo_inurba_marseille","lat":43.289741,"lon":5.378306,"is_reserved":false,"is_disabled":false,"rental_uris":{"android":"levelo://app?vid=c6bd280d-a761-4de4-9397-04b2ebe9582e","ios":"levelo://app?vid=c6bd280d-a761-4de4-9397-04b2ebe9582e"},"vehicle_type_id":"4","last_reported":1721931047,"current_range_meters":24000,"station_id":"ce4bh9p2rcd13ifvqed0","pricing_plan_id":"cebpf4jnsgd1na2vs0mg"},{"bike_id":"4adb3e69-07a5-4034-925a-065c84716be5","system_id":"levelo_inurba_marseille","lat":43.29781,"lon":5.39354,"is_reserved":false,"is_disabled":false,"rental_uris":{"android":"levelo://app?vid=4adb3e69-07a5-4034-925a-065c84716be5","ios":"levelo://app?vid=4adb3e69-07a5-4034-925a-065c84716be5"},"vehicle_type_id":"4","last_reported":1721931047,"current_range_meters":31200,"station_id":"chh1huq6cuj3fo74tm60","pricing_plan_id":"cebpf4jnsgd1na2vs0mg"},{"bike_id":"18d162c8-282a-483f-bf55-8cc11befdd24","system_id":"levelo_inurba_marseille","lat":43.330442,"lon":5.389148,"is_reserved":false,"is_disabled":false,"rental_uris":{"android":"levelo://app?vid=18d162c8-282a-483f-bf55-8cc11befdd24","ios":"levelo://app?vid=18d162c8-282a-483f-bf55-8cc11befdd24"},"vehicle_type_id":"4","last_reported":1721931047,"current_range_meters":25200,"station_id":"ce4bhr92rcd13ifvqhrg","pricing_plan_id":"cebpf4jnsgd1na2vs0mg"},{"bike_id":"97e8ea28-e9b2-4c3c-9b80-95903d7db8d8","system_id":"levelo_inurba_marseille","lat":43.330442,"lon":5.389148,"is_reserved":false,"is_disabled":false,"rental_uris":{"android":"levelo://app?vid=97e8ea28-e9b2-4c3c-9b80-95903d7db8d8","ios":"levelo://app?vid=97e8ea28-e9b2-4c3c-9b80-95903d7db8d8"},"vehicle_type_id":"4","last_reported":1721931047,"current_range_meters":22000,"station_id":"ce4bhr92rcd13ifvqhrg","pricing_plan_id":"cebpf4jnsgd1na2vs0mg"},{"bike_id":"c42e30c4-12da-401a-bc24-0cdfe48ca8c7","system_id":"levelo_inurba_marseille","lat":43.295169,"lon":5.390426,"is_reserved":false,"is_disabled":false,"rental_uris":{"android":"levelo://app?vid=c42e30c4-12da-401a-bc24-0cdfe48ca8c7","ios":"levelo://app?vid=c42e30c4-12da-401a-bc24-0cdfe48ca8c7"},"vehicle_type_id":"4","last_reported":1721931047,"current_range_meters":10800,"station_id":"ce4bh3p2rcd13ifvqdp0","pricing_plan_id":"cebpf4jnsgd1na2vs0mg"},{"bike_id":"c0900131-90b3-4153-a3cf-0aa50a2fc6d5","system_id":"levelo_inurba_marseille","lat":43.330442,"lon":5.389148,"is_reserved":false,"is_disabled":false,"rental_uris":{"android":"levelo://app?vid=c0900131-90b3-4153-a3cf-0aa50a2fc6d5","ios":"levelo://app?vid=c0900131-90b3-4153-a3cf-0aa50a2fc6d5"},"vehicle_type_id":"4","last_reported":1721931047,"current_range_meters":31600,"station_id":"ce4bhr92rcd13ifvqhrg","pricing_plan_id":"cebpf4jnsgd1na2vs0mg"},{"bike_id":"2919f553-4a27-418e-b2d0-639ebe24364e","system_id":"levelo_inurba_marseille","lat":43.2901,"lon":5.381269,"is_reserved":false,"is_disabled":false,"rental_uris":{"android":"levelo://app?vid=2919f553-4a27-418e-b2d0-639ebe24364e","ios":"levelo://app?vid=2919f553-4a27-418e-b2d0-639ebe24364e"},"vehicle_type_id":"4","last_reported":1721931047,"current_range_meters":20400,"station_id":"ce4bh4p2rcd13ifvqe1g","pricing_plan_id":"cebpf4jnsgd1na2vs0mg"},{"bike_id":"639bbd77-ce29-43ed-b895-0d3749d5ab26","system_id":"levelo_inurba_marseille","lat":43.290094,"lon":5.381264,"is_reserved":false,"is_disabled":false,"rental_uris":{"android":"levelo://app?vid=639bbd77-ce29-43ed-b895-0d3749d5ab26","ios":"levelo://app?vid=639bbd77-ce29-43ed-b895-0d3749d5ab26"},"vehicle_type_id":"4","last_reported":1721931047,"current_range_meters":8400,"station_id":"ce4bh4p2rcd13ifvqe1g","pricing_plan_id":"cebpf4jnsgd1na2vs0mg"},{"bike_id":"11192161-ba07-413a-85c9-2150c9171d86","system_id":"levelo_inurba_marseille","lat":43.28856,"lon":5.35838,"is_reserved":false,"is_disabled":false,"rental_uris":{"android":"levelo://app?vid=11192161-ba07-413a-85c9-2150c9171d86","ios":"levelo://app?vid=11192161-ba07-413a-85c9-2150c9171d86"},"vehicle_type_id":"4","last_reported":1721931047,"current_range_meters":0,"station_id":"ce4bhb12rcd13ifvqem0","pricing_plan_id":"cebpf4jnsgd1na2vs0mg"},{"bike_id":"ca3a3640-3b14-4eeb-b34d-350cc0079125","system_id":"levelo_inurba_marseille","lat":43.28856,"lon":5.358371,"is_reserved":false,"is_disabled":false,"rental_uris":{"android":"levelo://app?vid=ca3a3640-3b14-4eeb-b34d-350cc0079125","ios":"levelo://app?vid=ca3a3640-3b14-4eeb-b34d-350cc0079125"},"vehicle_type_id":"4","last_reported":1721931047,"current_range_meters":3200,"station_id":"ce4bhb12rcd13ifvqem0","pricing_plan_id":"cebpf4jnsgd1na2vs0mg"},{"bike_id":"b4ac4f44-5971-4c25-9517-17a07b353916","system_id":"levelo_inurba_marseille","lat":43.312609,"lon":5.401662,"is_reserved":false,"is_disabled":false,"rental_uris":{"android":"levelo://app?vid=b4ac4f44-5971-4c25-9517-17a07b353916","ios":"levelo://app?vid=b4ac4f44-5971-4c25-9517-17a07b353916"},"vehicle_type_id":"4","last_reported":1721931047,"current_range_meters":15600,"station_id":"ce4bh092rcd13ifvqd30","pricing_plan_id":"cebpf4jnsgd1na2vs0mg"},{"bike_id":"287c7ea8-2c5f-4926-ac2c-f51288516b5d","system_id":"levelo_inurba_marseille","lat":43.312609,"lon":5.401662,"is_reserved":false,"is_disabled":false,"rental_uris":{"android":"levelo://app?vid=287c7ea8-2c5f-4926-ac2c-f51288516b5d","ios":"levelo://app?vid=287c7ea8-2c5f-4926-ac2c-f51288516b5d"},"vehicle_type_id":"4","last_reported":1721931047,"current_range_meters":0,"station_id":"ce4bh092rcd13ifvqd30","pricing_plan_id":"cebpf4jnsgd1na2vs0mg"},{"bike_id":"9b0ef755-6d11-4ea5-bf6d-b6d3ad34802b","system_id":"levelo_inurba_marseille","lat":43.312609,"lon":5.401662,"is_reserved":false,"is_disabled":false,"rental_uris":{"android":"levelo://app?vid=9b0ef755-6d11-4ea5-bf6d-b6d3ad34802b","ios":"levelo://app?vid=9b0ef755-6d11-4ea5-bf6d-b6d3ad34802b"},"vehicle_type_id":"4","last_reported":1721931047,"current_range_meters":6800,"station_id":"ce4bh092rcd13ifvqd30","pricing_plan_id":"cebpf4jnsgd1na2vs0mg"},{"bike_id":"11628e1a-6759-4cf0-af67-e502f0dd75a2","system_id":"levelo_inurba_marseille","lat":43.31272,"lon":5.40171,"is_reserved":false,"is_disabled":false,"rental_uris":{"android":"levelo://app?vid=11628e1a-6759-4cf0-af67-e502f0dd75a2","ios":"levelo://app?vid=11628e1a-6759-4cf0-af67-e502f0dd75a2"},"vehicle_type_id":"4","last_reported":1721931047,"current_range_meters":31200,"station_id":"ce4bh092rcd13ifvqd30","pricing_plan_id":"cebpf4jnsgd1na2vs0mg"},{"bike_id":"149ad317-2977-4c2d-b9af-065d2c29d5b4","system_id":"levelo_inurba_marseille","lat":43.287867,"lon":5.373639,"is_reserved":false,"is_disabled":false,"rental_uris":{"android":"levelo://app?vid=149ad317-2977-4c2d-b9af-065d2c29d5b4","ios":"levelo://app?vid=149ad317-2977-4c2d-b9af-065d2c29d5b4"},"vehicle_type_id":"4","last_reported":1721931047,"current_range_meters":27200,"station_id":"","pricing_plan_id":"cebpf4jnsgd1na2vs0mg"},{"bike_id":"c43f4f49-f04d-4beb-a3f8-a2b73a3655ea","system_id":"levelo_inurba_marseille","lat":43.33759,"lon":5.37439,"is_reserved":false,"is_disabled":false,"rental_uris":{"android":"levelo://app?vid=c43f4f49-f04d-4beb-a3f8-a2b73a3655ea","ios":"levelo://app?vid=c43f4f49-f04d-4beb-a3f8-a2b73a3655ea"},"vehicle_type_id":"4","last_reported":1721931047,"current_range_meters":24000,"station_id":"","pricing_plan_id":"cebpf4jnsgd1na2vs0mg"},{"bike_id":"9a4fc2cd-6e90-499f-b786-8a6cf682a52e","system_id":"levelo_inurba_marseille","lat":43.33764,"lon":5.37428,"is_reserved":false,"is_disabled":false,"rental_uris":{"android":"levelo://app?vid=9a4fc2cd-6e90-499f-b786-8a6cf682a52e","ios":"levelo://app?vid=9a4fc2cd-6e90-499f-b786-8a6cf682a52e"},"vehicle_type_id":"4","last_reported":1721931047,"current_range_meters":20000,"station_id":"","pricing_plan_id":"cebpf4jnsgd1na2vs0mg"},{"bike_id":"0753e7b2-e98f-4d3a-9110-01046f9e14a5","system_id":"levelo_inurba_marseille","lat":43.33766,"lon":5.37433,"is_reserved":false,"is_disabled":false,"rental_uris":{"android":"levelo://app?vid=0753e7b2-e98f-4d3a-9110-01046f9e14a5","ios":"levelo://app?vid=0753e7b2-e98f-4d3a-9110-01046f9e14a5"},"vehicle_type_id":"4","last_reported":1721931047,"current_range_meters":23600,"station_id":"","pricing_plan_id":"cebpf4jnsgd1na2vs0mg"},{"bike_id":"2683a0d9-0cf4-467d-ab04-4001d607282f","system_id":"levelo_inurba_marseille","lat":43.33773,"lon":5.37433,"is_reserved":false,"is_disabled":false,"rental_uris":{"android":"levelo://app?vid=2683a0d9-0cf4-467d-ab04-4001d607282f","ios":"levelo://app?vid=2683a0d9-0cf4-467d-ab04-4001d607282f"},"vehicle_type_id":"4","last_reported":1721931047,"current_range_meters":7600,"station_id":"","pricing_plan_id":"cebpf4jnsgd1na2vs0mg"},{"bike_id":"3b0336c9-2e8e-43ea-a09a-ee7cef35d734","system_id":"levelo_inurba_marseille","lat":43.33778,"lon":5.37438,"is_reserved":false,"is_disabled":false,"rental_uris":{"android":"levelo://app?vid=3b0336c9-2e8e-43ea-a09a-ee7cef35d734","ios":"levelo://app?vid=3b0336c9-2e8e-43ea-a09a-ee7cef35d734"},"vehicle_type_id":"4","last_reported":1721931047,"current_range_meters":14400,"station_id":"","pricing_plan_id":"cebpf4jnsgd1na2vs0mg"},{"bike_id":"29a383a3-a0ff-4e65-bb07-926d299a071b","system_id":"levelo_inurba_marseille","lat":43.301117,"lon":5.398795,"is_reserved":false,"is_disabled":false,"rental_uris":{"android":"levelo://app?vid=29a383a3-a0ff-4e65-bb07-926d299a071b","ios":"levelo://app?vid=29a383a3-a0ff-4e65-bb07-926d299a071b"},"vehicle_type_id":"4","last_reported":1721931047,"current_range_meters":31200,"station_id":"ce4bh0h2rcd13ifvqd40","pricing_plan_id":"cebpf4jnsgd1na2vs0mg"},{"bike_id":"8d541eff-af05-4277-adec-9fae4660cfc2","system_id":"levelo_inurba_marseille","lat":43.301117,"lon":5.398795,"is_reserved":false,"is_disabled":false,"rental_uris":{"android":"levelo://app?vid=8d541eff-af05-4277-adec-9fae4660cfc2","ios":"levelo://app?vid=8d541eff-af05-4277-adec-9fae4660cfc2"},"vehicle_type_id":"4","last_reported":1721931047,"current_range_meters":8800,"station_id":"ce4bh0h2rcd13ifvqd40","pricing_plan_id":"cebpf4jnsgd1na2vs0mg"},{"bike_id":"b977ad69-bbb3-45a8-b35d-bda1c942a536","system_id":"levelo_inurba_marseille","lat":43.301117,"lon":5.398795,"is_reserved":false,"is_disabled":false,"rental_uris":{"android":"levelo://app?vid=b977ad69-bbb3-45a8-b35d-bda1c942a536","ios":"levelo://app?vid=b977ad69-bbb3-45a8-b35d-bda1c942a536"},"vehicle_type_id":"4","last_reported":1721931047,"current_range_meters":25200,"station_id":"ce4bh0h2rcd13ifvqd40","pricing_plan_id":"cebpf4jnsgd1na2vs0mg"},{"bike_id":"9f66f613-4e32-4a88-b946-5b3fd4fe853c","system_id":"levelo_inurba_marseille","lat":43.301117,"lon":5.398795,"is_reserved":false,"is_disabled":false,"rental_uris":{"android":"levelo://app?vid=9f66f613-4e32-4a88-b946-5b3fd4fe853c","ios":"levelo://app?vid=9f66f613-4e32-4a88-b946-5b3fd4fe853c"},"vehicle_type_id":"4","last_reported":1721931047,"current_range_meters":31200,"station_id":"ce4bh0h2rcd13ifvqd40","pricing_plan_id":"cebpf4jnsgd1na2vs0mg"},{"bike_id":"b0ffd3b7-7ed9-45b6-b974-2ef31fa75a7d","system_id":"levelo_inurba_marseille","lat":43.301117,"lon":5.398795,"is_reserved":false,"is_disabled":false,"rental_uris":{"android":"levelo://app?vid=b0ffd3b7-7ed9-45b6-b974-2ef31fa75a7d","ios":"levelo://app?vid=b0ffd3b7-7ed9-45b6-b974-2ef31fa75a7d"},"vehicle_type_id":"4","last_reported":1721931047,"current_range_meters":10400,"station_id":"ce4bh0h2rcd13ifvqd40","pricing_plan_id":"cebpf4jnsgd1na2vs0mg"},{"bike_id":"c2dba4ad-eb5e-438f-b86b-9f6fbbeddaa9","system_id":"levelo_inurba_marseille","lat":43.28727,"lon":5.36078,"is_reserved":false,"is_disabled":false,"rental_uris":{"android":"levelo://app?vid=c2dba4ad-eb5e-438f-b86b-9f6fbbeddaa9","ios":"levelo://app?vid=c2dba4ad-eb5e-438f-b86b-9f6fbbeddaa9"},"vehicle_type_id":"4","last_reported":1721931047,"current_range_meters":0,"station_id":"cki0cbj6b192h4jlfktg","pricing_plan_id":"cebpf4jnsgd1na2vs0mg"},{"bike_id":"ceaa789e-65b0-4870-ab83-d30e200a0641","system_id":"levelo_inurba_marseille","lat":43.286591,"lon":5.363346,"is_reserved":false,"is_disabled":false,"rental_uris":{"android":"levelo://app?vid=ceaa789e-65b0-4870-ab83-d30e200a0641","ios":"levelo://app?vid=ceaa789e-65b0-4870-ab83-d30e200a0641"},"vehicle_type_id":"4","last_reported":1721931047,"current_range_meters":29600,"station_id":"ce4bhah2rcd13ifvqej0","pricing_plan_id":"cebpf4jnsgd1na2vs0mg"},{"bike_id":"8f9cbb13-4293-4862-8fcc-f4a72685ee81","system_id":"levelo_inurba_marseille","lat":43.286961,"lon":5.373785,"is_reserved":false,"is_disabled":false,"rental_uris":{"android":"levelo://app?vid=8f9cbb13-4293-4862-8fcc-f4a72685ee81","ios":"levelo://app?vid=8f9cbb13-4293-4862-8fcc-f4a72685ee81"},"vehicle_type_id":"4","last_reported":1721931047,"current_range_meters":16400,"station_id":"ce4bh3p2rcd13ifvqdq0","pricing_plan_id":"cebpf4jnsgd1na2vs0mg"},{"bike_id":"6be02a20-36f6-438e-89f5-50ada9e2b480","system_id":"levelo_inurba_marseille","lat":43.286961,"lon":5.373785,"is_reserved":false,"is_disabled":false,"rental_uris":{"android":"levelo://app?vid=6be02a20-36f6-438e-89f5-50ada9e2b480","ios":"levelo://app?vid=6be02a20-36f6-438e-89f5-50ada9e2b480"},"vehicle_type_id":"4","last_reported":1721931047,"current_range_meters":1200,"station_id":"ce4bh3p2rcd13ifvqdq0","pricing_plan_id":"cebpf4jnsgd1na2vs0mg"},{"bike_id":"39d78120-4750-43a3-b515-836020534217","system_id":"levelo_inurba_marseille","lat":43.286961,"lon":5.373785,"is_reserved":false,"is_disabled":false,"rental_uris":{"android":"levelo://app?vid=39d78120-4750-43a3-b515-836020534217","ios":"levelo://app?vid=39d78120-4750-43a3-b515-836020534217"},"vehicle_type_id":"4","last_reported":1721931047,"current_range_meters":31200,"station_id":"ce4bh3p2rcd13ifvqdq0","pricing_plan_id":"cebpf4jnsgd1na2vs0mg"},{"bike_id":"d19c8603-6b39-4c35-9bb9-0ad6bc25487e","system_id":"levelo_inurba_marseille","lat":43.286961,"lon":5.373785,"is_reserved":false,"is_disabled":false,"rental_uris":{"android":"levelo://app?vid=d19c8603-6b39-4c35-9bb9-0ad6bc25487e","ios":"levelo://app?vid=d19c8603-6b39-4c35-9bb9-0ad6bc25487e"},"vehicle_type_id":"4","last_reported":1721931047,"current_range_meters":19600,"station_id":"ce4bh3p2rcd13ifvqdq0","pricing_plan_id":"cebpf4jnsgd1na2vs0mg"},{"bike_id":"abd14860-c7b1-4139-a47d-2773425242cf","system_id":"levelo_inurba_marseille","lat":43.298681,"lon":5.397225,"is_reserved":false,"is_disabled":false,"rental_uris":{"android":"levelo://app?vid=abd14860-c7b1-4139-a47d-2773425242cf","ios":"levelo://app?vid=abd14860-c7b1-4139-a47d-2773425242cf"},"vehicle_type_id":"4","last_reported":1721931047,"current_range_meters":21600,"station_id":"ce4bh0h2rcd13ifvqd50","pricing_plan_id":"cebpf4jnsgd1na2vs0mg"},{"bike_id":"fac7dfb8-2fc3-418d-9c54-083f1d5d10e3","system_id":"levelo_inurba_marseille","lat":43.289307,"lon":5.38406,"is_reserved":false,"is_disabled":false,"rental_uris":{"android":"levelo://app?vid=fac7dfb8-2fc3-418d-9c54-083f1d5d10e3","ios":"levelo://app?vid=fac7dfb8-2fc3-418d-9c54-083f1d5d10e3"},"vehicle_type_id":"4","last_reported":1721931047,"current_range_meters":27600,"station_id":"ce4bh612rcd13ifvqe6g","pricing_plan_id":"cebpf4jnsgd1na2vs0mg"},{"bike_id":"6d7c6d85-aa04-4c91-bb04-b080d9627412","system_id":"levelo_inurba_marseille","lat":43.289307,"lon":5.38406,"is_reserved":false,"is_disabled":false,"rental_uris":{"android":"levelo://app?vid=6d7c6d85-aa04-4c91-bb04-b080d9627412","ios":"levelo://app?vid=6d7c6d85-aa04-4c91-bb04-b080d9627412"},"vehicle_type_id":"4","last_reported":1721931047,"current_range_meters":0,"station_id":"ce4bh612rcd13ifvqe6g","pricing_plan_id":"cebpf4jnsgd1na2vs0mg"},{"bike_id":"5a74b938-7021-4204-95bc-1be80c341f08","system_id":"levelo_inurba_marseille","lat":43.302759,"lon":5.400793,"is_reserved":false,"is_disabled":false,"rental_uris":{"android":"levelo://app?vid=5a74b938-7021-4204-95bc-1be80c341f08","ios":"levelo://app?vid=5a74b938-7021-4204-95bc-1be80c341f08"},"vehicle_type_id":"4","last_reported":1721931047,"current_range_meters":0,"station_id":"ce4bgvh2rcd13ifvqcs0","pricing_plan_id":"cebpf4jnsgd1na2vs0mg"},{"bike_id":"137dfa55-a5ae-4fd1-975b-38e9bd1cb572","system_id":"levelo_inurba_marseille","lat":43.302468,"lon":5.40056,"is_reserved":false,"is_disabled":false,"rental_uris":{"android":"levelo://app?vid=137dfa55-a5ae-4fd1-975b-38e9bd1cb572","ios":"levelo://app?vid=137dfa55-a5ae-4fd1-975b-38e9bd1cb572"},"vehicle_type_id":"4","last_reported":1721931047,"current_range_meters":0,"station_id":"ce4bgvh2rcd13ifvqcs0","pricing_plan_id":"cebpf4jnsgd1na2vs0mg"},{"bike_id":"be6981e1-708e-4e27-8d5d-d08c9e340714","system_id":"levelo_inurba_marseille","lat":43.29027,"lon":5.38639,"is_reserved":false,"is_disabled":false,"rental_uris":{"android":"levelo://app?vid=be6981e1-708e-4e27-8d5d-d08c9e340714","ios":"levelo://app?vid=be6981e1-708e-4e27-8d5d-d08c9e340714"},"vehicle_type_id":"4","last_reported":1721931047,"current_range_meters":0,"station_id":"ce4bh4p2rcd13ifvqe0g","pricing_plan_id":"cebpf4jnsgd1na2vs0mg"},{"bike_id":"5212c1a3-0f4f-4720-a923-06f8503a972b","system_id":"levelo_inurba_marseille","lat":43.290336,"lon":5.386425,"is_reserved":false,"is_disabled":false,"rental_uris":{"android":"levelo://app?vid=5212c1a3-0f4f-4720-a923-06f8503a972b","ios":"levelo://app?vid=5212c1a3-0f4f-4720-a923-06f8503a972b"},"vehicle_type_id":"4","last_reported":1721931047,"current_range_meters":4800,"station_id":"ce4bh4p2rcd13ifvqe0g","pricing_plan_id":"cebpf4jnsgd1na2vs0mg"},{"bike_id":"bed7c628-21d4-456a-8bc9-86e6ba4d3e38","system_id":"levelo_inurba_marseille","lat":43.290336,"lon":5.386425,"is_reserved":false,"is_disabled":false,"rental_uris":{"android":"levelo://app?vid=bed7c628-21d4-456a-8bc9-86e6ba4d3e38","ios":"levelo://app?vid=bed7c628-21d4-456a-8bc9-86e6ba4d3e38"},"vehicle_type_id":"4","last_reported":1721931047,"current_range_meters":22800,"station_id":"ce4bh4p2rcd13ifvqe0g","pricing_plan_id":"cebpf4jnsgd1na2vs0mg"},{"bike_id":"acbdb9b9-6928-4ea4-a343-16ac4841d98b","system_id":"levelo_inurba_marseille","lat":43.29029,"lon":5.38654,"is_reserved":false,"is_disabled":false,"rental_uris":{"android":"levelo://app?vid=acbdb9b9-6928-4ea4-a343-16ac4841d98b","ios":"levelo://app?vid=acbdb9b9-6928-4ea4-a343-16ac4841d98b"},"vehicle_type_id":"4","last_reported":1721931047,"current_range_meters":0,"station_id":"ce4bh4p2rcd13ifvqe0g","pricing_plan_id":"cebpf4jnsgd1na2vs0mg"},{"bike_id":"1affc00e-c4c9-456f-b63f-1344447d1dbf","system_id":"levelo_inurba_marseille","lat":43.286039,"lon":5.370679,"is_reserved":false,"is_disabled":false,"rental_uris":{"android":"levelo://app?vid=1affc00e-c4c9-456f-b63f-1344447d1dbf","ios":"levelo://app?vid=1affc00e-c4c9-456f-b63f-1344447d1dbf"},"vehicle_type_id":"4","last_reported":1721931047,"current_range_meters":0,"station_id":"ce4bht12rcd13ifvqi60","pricing_plan_id":"cebpf4jnsgd1na2vs0mg"},{"bike_id":"e8425b50-5b3a-4512-893f-6dfb8198ed95","system_id":"levelo_inurba_marseille","lat":43.286039,"lon":5.370679,"is_reserved":false,"is_disabled":false,"rental_uris":{"android":"levelo://app?vid=e8425b50-5b3a-4512-893f-6dfb8198ed95","ios":"levelo://app?vid=e8425b50-5b3a-4512-893f-6dfb8198ed95"},"vehicle_type_id":"4","last_reported":1721931047,"current_range_meters":31200,"station_id":"ce4bht12rcd13ifvqi60","pricing_plan_id":"cebpf4jnsgd1na2vs0mg"},{"bike_id":"213809c4-9eef-485b-81e3-163739bc1b92","system_id":"levelo_inurba_marseille","lat":43.286039,"lon":5.370679,"is_reserved":false,"is_disabled":false,"rental_uris":{"android":"levelo://app?vid=213809c4-9eef-485b-81e3-163739bc1b92","ios":"levelo://app?vid=213809c4-9eef-485b-81e3-163739bc1b92"},"vehicle_type_id":"4","last_reported":1721931047,"current_range_meters":12400,"station_id":"ce4bht12rcd13ifvqi60","pricing_plan_id":"cebpf4jnsgd1na2vs0mg"},{"bike_id":"955fbed6-d237-445d-9334-c1a81accbf59","system_id":"levelo_inurba_marseille","lat":43.290336,"lon":5.386425,"is_reserved":false,"is_disabled":false,"rental_uris":{"android":"levelo://app?vid=955fbed6-d237-445d-9334-c1a81accbf59","ios":"levelo://app?vid=955fbed6-d237-445d-9334-c1a81accbf59"},"vehicle_type_id":"4","last_reported":1721931047,"current_range_meters":24400,"station_id":"ce4bh4p2rcd13ifvqe0g","pricing_plan_id":"cebpf4jnsgd1na2vs0mg"},{"bike_id":"b6bac0c3-300b-4304-b062-1d04accf8642","system_id":"levelo_inurba_marseille","lat":43.287184,"lon":5.37937,"is_reserved":false,"is_disabled":false,"rental_uris":{"android":"levelo://app?vid=b6bac0c3-300b-4304-b062-1d04accf8642","ios":"levelo://app?vid=b6bac0c3-300b-4304-b062-1d04accf8642"},"vehicle_type_id":"4","last_reported":1721931047,"current_range_meters":24400,"station_id":"ce4bh9p2rcd13ifvqec0","pricing_plan_id":"cebpf4jnsgd1na2vs0mg"},{"bike_id":"bc1eb105-9454-48a8-8949-db055105689e","system_id":"levelo_inurba_marseille","lat":43.287184,"lon":5.37937,"is_reserved":false,"is_disabled":false,"rental_uris":{"android":"levelo://app?vid=bc1eb105-9454-48a8-8949-db055105689e","ios":"levelo://app?vid=bc1eb105-9454-48a8-8949-db055105689e"},"vehicle_type_id":"4","last_reported":1721931047,"current_range_meters":9600,"station_id":"ce4bh9p2rcd13ifvqec0","pricing_plan_id":"cebpf4jnsgd1na2vs0mg"},{"bike_id":"4b7d6613-76fe-455e-a862-34cf5521959f","system_id":"levelo_inurba_marseille","lat":43.284538,"lon":5.358657,"is_reserved":false,"is_disabled":false,"rental_uris":{"android":"levelo://app?vid=4b7d6613-76fe-455e-a862-34cf5521959f","ios":"levelo://app?vid=4b7d6613-76fe-455e-a862-34cf5521959f"},"vehicle_type_id":"4","last_reported":1721931047,"current_range_meters":16800,"station_id":"ce4bhah2rcd13ifvqei0","pricing_plan_id":"cebpf4jnsgd1na2vs0mg"},{"bike_id":"339b115b-6b26-473d-859b-15ce209dcd95","system_id":"levelo_inurba_marseille","lat":43.284538,"lon":5.358657,"is_reserved":false,"is_disabled":false,"rental_uris":{"android":"levelo://app?vid=339b115b-6b26-473d-859b-15ce209dcd95","ios":"levelo://app?vid=339b115b-6b26-473d-859b-15ce209dcd95"},"vehicle_type_id":"4","last_reported":1721931047,"current_range_meters":4400,"station_id":"ce4bhah2rcd13ifvqei0","pricing_plan_id":"cebpf4jnsgd1na2vs0mg"},{"bike_id":"7819efdb-6f9f-4553-8d69-b210aafa8f37","system_id":"levelo_inurba_marseille","lat":43.284534,"lon":5.358662,"is_reserved":false,"is_disabled":false,"rental_uris":{"android":"levelo://app?vid=7819efdb-6f9f-4553-8d69-b210aafa8f37","ios":"levelo://app?vid=7819efdb-6f9f-4553-8d69-b210aafa8f37"},"vehicle_type_id":"4","last_reported":1721931047,"current_range_meters":12400,"station_id":"ce4bhah2rcd13ifvqei0","pricing_plan_id":"cebpf4jnsgd1na2vs0mg"},{"bike_id":"35b2d44f-b49f-4596-9da6-fda4e6caf3a5","system_id":"levelo_inurba_marseille","lat":43.284534,"lon":5.358662,"is_reserved":false,"is_disabled":false,"rental_uris":{"android":"levelo://app?vid=35b2d44f-b49f-4596-9da6-fda4e6caf3a5","ios":"levelo://app?vid=35b2d44f-b49f-4596-9da6-fda4e6caf3a5"},"vehicle_type_id":"4","last_reported":1721931047,"current_range_meters":0,"station_id":"ce4bhah2rcd13ifvqei0","pricing_plan_id":"cebpf4jnsgd1na2vs0mg"},{"bike_id":"93afffec-b78b-4ad8-8624-20704853fe91","system_id":"levelo_inurba_marseille","lat":43.284538,"lon":5.358657,"is_reserved":false,"is_disabled":false,"rental_uris":{"android":"levelo://app?vid=93afffec-b78b-4ad8-8624-20704853fe91","ios":"levelo://app?vid=93afffec-b78b-4ad8-8624-20704853fe91"},"vehicle_type_id":"4","last_reported":1721931047,"current_range_meters":21600,"station_id":"ce4bhah2rcd13ifvqei0","pricing_plan_id":"cebpf4jnsgd1na2vs0mg"},{"bike_id":"294c97d0-a865-4198-a75c-f46de6b24fa0","system_id":"levelo_inurba_marseille","lat":43.284534,"lon":5.358662,"is_reserved":false,"is_disabled":false,"rental_uris":{"android":"levelo://app?vid=294c97d0-a865-4198-a75c-f46de6b24fa0","ios":"levelo://app?vid=294c97d0-a865-4198-a75c-f46de6b24fa0"},"vehicle_type_id":"4","last_reported":1721931047,"current_range_meters":3200,"station_id":"ce4bhah2rcd13ifvqei0","pricing_plan_id":"cebpf4jnsgd1na2vs0mg"},{"bike_id":"b7a4ad40-2410-493f-ba61-55486947f023","system_id":"levelo_inurba_marseille","lat":43.2945,"lon":5.39755,"is_reserved":false,"is_disabled":false,"rental_uris":{"android":"levelo://app?vid=b7a4ad40-2410-493f-ba61-55486947f023","ios":"levelo://app?vid=b7a4ad40-2410-493f-ba61-55486947f023"},"vehicle_type_id":"4","last_reported":1721931047,"current_range_meters":0,"station_id":"ce4bh3h2rcd13ifvqdo0","pricing_plan_id":"cebpf4jnsgd1na2vs0mg"},{"bike_id":"7f341628-5965-410b-b34e-11a7fb35ff8e","system_id":"levelo_inurba_marseille","lat":43.28624,"lon":5.35105,"is_reserved":false,"is_disabled":false,"rental_uris":{"android":"levelo://app?vid=7f341628-5965-410b-b34e-11a7fb35ff8e","ios":"levelo://app?vid=7f341628-5965-410b-b34e-11a7fb35ff8e"},"vehicle_type_id":"4","last_reported":1721931047,"current_range_meters":14400,"station_id":"ce4bhch2rcd13ifvqeug","pricing_plan_id":"cebpf4jnsgd1na2vs0mg"},{"bike_id":"a437b4be-c196-4f19-822e-21430a92263f","system_id":"levelo_inurba_marseille","lat":43.2862,"lon":5.35115,"is_reserved":false,"is_disabled":false,"rental_uris":{"android":"levelo://app?vid=a437b4be-c196-4f19-822e-21430a92263f","ios":"levelo://app?vid=a437b4be-c196-4f19-822e-21430a92263f"},"vehicle_type_id":"4","last_reported":1721931047,"current_range_meters":28000,"station_id":"ce4bhch2rcd13ifvqeug","pricing_plan_id":"cebpf4jnsgd1na2vs0mg"},{"bike_id":"baf27a1c-4257-4017-9a78-e03720d5e23c","system_id":"levelo_inurba_marseille","lat":43.28621,"lon":5.35109,"is_reserved":false,"is_disabled":false,"rental_uris":{"android":"levelo://app?vid=baf27a1c-4257-4017-9a78-e03720d5e23c","ios":"levelo://app?vid=baf27a1c-4257-4017-9a78-e03720d5e23c"},"vehicle_type_id":"4","last_reported":1721931047,"current_range_meters":31200,"station_id":"ce4bhch2rcd13ifvqeug","pricing_plan_id":"cebpf4jnsgd1na2vs0mg"},{"bike_id":"4a9c9e97-fe30-4b3d-8c8e-401cef20fda7","system_id":"levelo_inurba_marseille","lat":43.28621,"lon":5.35108,"is_reserved":false,"is_disabled":false,"rental_uris":{"android":"levelo://app?vid=4a9c9e97-fe30-4b3d-8c8e-401cef20fda7","ios":"levelo://app?vid=4a9c9e97-fe30-4b3d-8c8e-401cef20fda7"},"vehicle_type_id":"4","last_reported":1721931047,"current_range_meters":26400,"station_id":"ce4bhch2rcd13ifvqeug","pricing_plan_id":"cebpf4jnsgd1na2vs0mg"},{"bike_id":"f43a0541-55ed-4a9a-a5e1-4a85494f017b","system_id":"levelo_inurba_marseille","lat":43.28621,"lon":5.35107,"is_reserved":false,"is_disabled":false,"rental_uris":{"android":"levelo://app?vid=f43a0541-55ed-4a9a-a5e1-4a85494f017b","ios":"levelo://app?vid=f43a0541-55ed-4a9a-a5e1-4a85494f017b"},"vehicle_type_id":"4","last_reported":1721931047,"current_range_meters":30800,"station_id":"ce4bhch2rcd13ifvqeug","pricing_plan_id":"cebpf4jnsgd1na2vs0mg"},