{"last_updated":1731586684,"ttl":60,"version":"2.2","data":{"bikes":[{"bike_id":"8a86cdc2-56ee-4258-9f38-2fe0ed00da0e","system_id":"levelo_inurba_marseille","lat":43.30313,"lon":5.36899,"is_reserved":false,"is_disabled":false,"rental_uris":{"android":"levelo://app?vid=8a86cdc2-56ee-4258-9f38-2fe0ed00da0e","ios":"levelo://app?vid=8a86cdc2-56ee-4258-9f38-2fe0ed00da0e"},"vehicle_type_id":"4","last_reported":1731586684,"current_range_meters":30400,"station_id":"ce4bgqh2rcd13ifvqc5g","pricing_plan_id":"cebpf4jnsgd1na2vs0mg"},{"bike_id":"d72e41e0-b2be-44d4-9a5d-48e19d343592","system_id":"levelo_inurba_marseille","lat":43.31364,"lon":5.36706,"is_reserved":false,"is_disabled":false,"rental_uris":{"android":"levelo://app?vid=d72e41e0-b2be-44d4-9a5d-48e19d343592","ios":"levelo://app?vid=d72e41e0-b2be-44d4-9a5d-48e19d343592"},"vehicle_type_id":"4","last_reported":1731586684,"current_range_meters":32000,"station_id":"ce4bgr92rcd13ifvqc6g","pricing_plan_id":"cebpf4jnsgd1na2vs0mg"},{"bike_id":"b65884a7-d9b0-45b3-a1e6-8401e1cbb45e","system_id":"levelo_inurba_marseille","lat":43.30947,"lon":5.39011,"is_reserved":false,"is_disabled":false,"rental_uris":{"android":"levelo://app?vid=b65884a7-d9b0-45b3-a1e6-8401e1cbb45e","ios":"levelo://app?vid=b65884a7-d9b0-45b3-a1e6-8401e1cbb45e"},"vehicle_type_id":"4","last_reported":1731586684,"current_range_meters":28800,"station_id":"ce4bgup2rcd13ifvqco0","pricing_plan_id":"cebpf4jnsgd1na2vs0mg"},{"bike_id":"f85e3f5b-27bf-488c-b04a-b70db58b24e7","system_id":"levelo_inurba_marseille","lat":43.28856,"lon":5.35861,"is_reserved":false,"is_disabled":false,"rental_uris":{"android":"levelo://app?vid=f85e3f5b-27bf-488c-b04a-b70db58b24e7","ios":"levelo://app?vid=f85e3f5b-27bf-488c-b04a-b70db58b24e7"},"vehicle_type_id":"4","last_reported":1731586684,"current_range_meters":27200,"station_id":"ce4bhb12rcd13ifvqem0","pricing_plan_id":"cebpf4jnsgd1na2vs0mg"},{"bike_id":"750ea46f-b8da-4570-9404-a5121bc3f8be","system_id":"levelo_inurba_marseille","lat":43.28106,"lon":5.37832,"is_reserved":false,"is_disabled":false,"rental_uris":{"android":"levelo://app?vid=750ea46f-b8da-4570-9404-a5121bc3f8be","ios":"levelo://app?vid=750ea46f-b8da-4570-9404-a5121bc3f8be"},"vehicle_type_id":"4","last_reported":1731586684,"current_range_meters":28000,"station_id":"ce4bha12rcd13ifvqee0","pricing_plan_id":"cebpf4jnsgd1na2vs0mg"},{"bike_id":"0c275282-f059-4496-a54e-ec665479b0c1","system_id":"levelo_inurba_marseille","lat":43.29983,"lon":5.37174,"is_reserved":false,"is_disabled":false,"rental_uris":{"android":"levelo://app?vid=0c275282-f059-4496-a54e-ec665479b0c1","ios":"levelo://app?vid=0c275282-f059-4496-a54e-ec665479b0c1"},"vehicle_type_id":"4","last_reported":1731586684,"current_range_meters":36800,"station_id":"ce4bgr92rcd13ifvqc7g","pricing_plan_id":"cebpf4jnsgd1na2vs0mg"},{"bike_id":"991b96a6-4e44-41fa-ad72-b8d69ddc5e98","system_id":"levelo_inurba_marseille","lat":43.30272,"lon":5.37712,"is_reserved":false,"is_disabled":false,"rental_uris":{"android":"levelo://app?vid=991b96a6-4e44-41fa-ad72-b8d69ddc5e98","ios":"levelo://app?vid=991b96a6-4e44-41fa-ad72-b8d69ddc5e98"},"vehicle_type_id":"4","last_reported":1731586684,"current_range_meters":16400,"station_id":"ce4bguh2rcd13ifvqcj0","pricing_plan_id":"cebpf4jnsgd1na2vs0mg"},{"bike_id":"a789c85f-e51c-488c-b82a-114415ab3524","system_id":"levelo_inurba_marseille","lat":43.25082,"lon":5.39511,"is_reserved":false,"is_disabled":false,"rental_uris":{"android":"levelo://app?vid=a789c85f-e51c-488c-b82a-114415ab3524","ios":"levelo://app?vid=a789c85f-e51c-488c-b82a-114415ab3524"},"vehicle_type_id":"4","last_reported":1731586684,"current_range_meters":21600,"station_id":"ce4bhm12rcd13ifvqgkg","pricing_plan_id":"cebpf4jnsgd1na2vs0mg"},{"bike_id":"77b060ce-9068-49ee-af94-75c872e69481","system_id":"levelo_inurba_marseille","lat":43.32363,"lon":5.38877,"is_reserved":false,"is_disabled":false,"rental_uris":{"android":"levelo://app?vid=77b060ce-9068-49ee-af94-75c872e69481","ios":"levelo://app?vid=77b060ce-9068-49ee-af94-75c872e69481"},"vehicle_type_id":"4","last_reported":1731586684,"current_range_meters":38800,"station_id":"ce4bhqp2rcd13ifvqhog","pricing_plan_id":"cebpf4jnsgd1na2vs0mg"},{"bike_id":"6754df0b-0982-4e89-9afc-140b59ee3d94","system_id":"levelo_inurba_marseille","lat":43.32538,"lon":5.41425,"is_reserved":false,"is_disabled":false,"rental_uris":{"android":"levelo://app?vid=6754df0b-0982-4e89-9afc-140b59ee3d94","ios":"levelo://app?vid=6754df0b-0982-4e89-9afc-140b59ee3d94"},"vehicle_type_id":"4","last_reported":1731586684,"current_range_meters":27200,"station_id":"ce4bhq12rcd13ifvqhhg","pricing_plan_id":"cebpf4jnsgd1na2vs0mg"},{"bike_id":"50018998-fd1c-4bdc-834e-6d8a7fbe423b","system_id":"levelo_inurba_marseille","lat":43.285717,"lon":5.394925,"is_reserved":false,"is_disabled":false,"rental_uris":{"android":"levelo://app?vid=50018998-fd1c-4bdc-834e-6d8a7fbe423b","ios":"levelo://app?vid=50018998-fd1c-4bdc-834e-6d8a7fbe423b"},"vehicle_type_id":"4","last_reported":1731586684,"current_range_meters":22800,"station_id":"","pricing_plan_id":"cebpf4jnsgd1na2vs0mg"},{"bike_id":"91fe36a8-bc4f-4b08-8287-b0444a16f338","system_id":"levelo_inurba_marseille","lat":43.2316,"lon":5.437,"is_reserved":false,"is_disabled":false,"rental_uris":{"android":"levelo://app?vid=91fe36a8-bc4f-4b08-8287-b0444a16f338","ios":"levelo://app?vid=91fe36a8-bc4f-4b08-8287-b0444a16f338"},"vehicle_type_id":"4","last_reported":1731586684,"current_range_meters":38800,"station_id":"ce4bhmp2rcd13ifvqgog","pricing_plan_id":"cebpf4jnsgd1na2vs0mg"},{"bike_id":"8472a442-1b27-4429-9cbb-acb2837e6d0f","system_id":"levelo_inurba_marseille","lat":43.24081,"lon":5.37737,"is_reserved":false,"is_disabled":false,"rental_uris":{"android":"levelo://app?vid=8472a442-1b27-4429-9cbb-acb2837e6d0f","ios":"levelo://app?vid=8472a442-1b27-4429-9cbb-acb2837e6d0f"},"vehicle_type_id":"4","last_reported":1731586684,"current_range_meters":24400,"station_id":"ce4bhnp2rcd13ifvqgvg","pricing_plan_id":"cebpf4jnsgd1na2vs0mg"},{"bike_id":"cc792d10-5e3a-4b03-849b-38a1e4ffc260","system_id":"levelo_inurba_marseille","lat":43.337444,"lon":5.374475,"is_reserved":false,"is_disabled":false,"rental_uris":{"android":"levelo://app?vid=cc792d10-5e3a-4b03-849b-38a1e4ffc260","ios":"levelo://app?vid=cc792d10-5e3a-4b03-849b-38a1e4ffc260"},"vehicle_type_id":"4","last_reported":1731586684,"current_range_meters":34800,"station_id":"","pricing_plan_id":"cebpf4jnsgd1na2vs0mg"},{"bike_id":"1d31cf4d-c9fd-4282-a9cb-723e108c3e63","system_id":"levelo_inurba_marseille","lat":43.25508,"lon":5.37642,"is_reserved":false,"is_disabled":false,"rental_uris":{"android":"levelo://app?vid=1d31cf4d-c9fd-4282-a9cb-723e108c3e63","ios":"levelo://app?vid=1d31cf4d-c9fd-4282-a9cb-723e108c3e63"},"vehicle_type_id":"4","last_reported":1731586684,"current_range_meters":37600,"station_id":"ce4bhh12rcd13ifvqff0","pricing_plan_id":"cebpf4jnsgd1na2vs0mg"},{"bike_id":"9a922da9-c1d7-4ba6-a951-0d2b1db95673","system_id":"levelo_inurba_marseille","lat":43.27832,"lon":5.3922,"is_reserved":false,"is_disabled":false,"rental_uris":{"android":"levelo://app?vid=9a922da9-c1d7-4ba6-a951-0d2b1db95673","ios":"levelo://app?vid=9a922da9-c1d7-4ba6-a951-0d2b1db95673"},"vehicle_type_id":"4","last_reported":1731586684,"current_range_meters":10800,"station_id":"ce4bhjp2rcd13ifvqga0","pricing_plan_id":"cebpf4jnsgd1na2vs0mg"},{"bike_id":"9d3d8f04-350a-47f9-a91d-71c04ea9de18","system_id":"levelo_inurba_marseille","lat":43.23152,"lon":5.43708,"is_reserved":false,"is_disabled":false,"rental_uris":{"android":"levelo://app?vid=9d3d8f04-350a-47f9-a91d-71c04ea9de18","ios":"levelo://app?vid=9d3d8f04-350a-47f9-a91d-71c04ea9de18"},"vehicle_type_id":"4","last_reported":1731586684,"current_range_meters":38800,"station_id":"ce4bhmp2rcd13ifvqgog","pricing_plan_id":"cebpf4jnsgd1na2vs0mg"},{"bike_id":"9a033546-c660-40f4-a339-10dcc9222db7","system_id":"levelo_inurba_marseille","lat":43.29617,"lon":5.37142,"is_reserved":false,"is_disabled":false,"rental_uris":{"android":"levelo://app?vid=9a033546-c660-40f4-a339-10dcc9222db7","ios":"levelo://app?vid=9a033546-c660-40f4-a339-10dcc9222db7"},"vehicle_type_id":"4","last_reported":1731586684,"current_range_meters":16000,"station_id":"ce4bgnh2rcd13ifvqc0g","pricing_plan_id":"cebpf4jnsgd1na2vs0mg"},{"bike_id":"1a43676e-db80-45d5-a5f8-a8f236c408e8","system_id":"levelo_inurba_marseille","lat":43.24074,"lon":5.37759,"is_reserved":false,"is_disabled":false,"rental_uris":{"android":"levelo://app?vid=1a43676e-db80-45d5-a5f8-a8f236c408e8","ios":"levelo://app?vid=1a43676e-db80-45d5-a5f8-a8f236c408e8"},"vehicle_type_id":"4","last_reported":1731586684,"current_range_meters":12800,"station_id":"ce4bhnp2rcd13ifvqgvg","pricing_plan_id":"cebpf4jnsgd1na2vs0mg"},{"bike_id":"3a0419a3-13ed-4d36-8acb-56d7e9e39621","system_id":"levelo_inurba_marseille","lat":43.29845,"lon":5.36262,"is_reserved":false,"is_disabled":false,"rental_uris":{"android":"levelo://app?vid=3a0419a3-13ed-4d36-8acb-56d7e9e39621","ios":"levelo://app?vid=3a0419a3-13ed-4d36-8acb-56d7e9e39621"},"vehicle_type_id":"4","last_reported":1731586684,"current_range_meters":39200,"station_id":"ce4bgpp2rcd13ifvqc3g","pricing_plan_id":"cebpf4jnsgd1na2vs0mg"},{"bike_id":"7e465898-a890-47d7-a27e-266939b652fb","system_id":"levelo_inurba_marseille","lat":43.25003,"lon":5.38923,"is_reserved":false,"is_disabled":false,"rental_uris":{"android":"levelo://app?vid=7e465898-a890-47d7-a27e-266939b652fb","ios":"levelo://app?vid=7e465898-a890-47d7-a27e-266939b652fb"},"vehicle_type_id":"4","last_reported":1731586684,"current_range_meters":37600,"station_id":"ce4bhgp2rcd13ifvqfd0","pricing_plan_id":"cebpf4jnsgd1na2vs0mg"},{"bike_id":"1622353b-6708-48bc-85a0-98f1e9da5565","system_id":"levelo_inurba_marseille","lat":43.27989,"lon":5.41657,"is_reserved":false,"is_disabled":false,"rental_uris":{"android":"levelo://app?vid=1622353b-6708-48bc-85a0-98f1e9da5565","ios":"levelo://app?vid=1622353b-6708-48bc-85a0-98f1e9da5565"},"vehicle_type_id":"4","last_reported":1731586684,"current_range_meters":20800,"station_id":"ce4bho12rcd13ifvqh1g","pricing_plan_id":"cebpf4jnsgd1na2vs0mg"},{"bike_id":"94b347ec-f504-4783-a0c6-3966ab5e9667","system_id":"levelo_inurba_marseille","lat":43.27984,"lon":5.38746,"is_reserved":false,"is_disabled":false,"rental_uris":{"android":"levelo://app?vid=94b347ec-f504-4783-a0c6-3966ab5e9667","ios":"levelo://app?vid=94b347ec-f504-4783-a0c6-3966ab5e9667"},"vehicle_type_id":"4","last_reported":1731586684,"current_range_meters":9200,"station_id":"ce4bhg12rcd13ifvqf80","pricing_plan_id":"cebpf4jnsgd1na2vs0mg"},{"bike_id":"cc701f23-7d96-4f7a-bd0f-fae88949b72c","system_id":"levelo_inurba_marseille","lat":43.26945,"lon":5.38629,"is_reserved":false,"is_disabled":false,"rental_uris":{"android":"levelo://app?vid=cc701f23-7d96-4f7a-bd0f-fae88949b72c","ios":"levelo://app?vid=cc701f23-7d96-4f7a-bd0f-fae88949b72c"},"vehicle_type_id":"4","last_reported":1731586684,"current_range_meters":24800,"station_id":"ce4bhh92rcd13ifvqfh0","pricing_plan_id":"cebpf4jnsgd1na2vs0mg"},{"bike_id":"4a74f469-1d99-48ee-a8ca-9199898c00a4","system_id":"levelo_inurba_marseille","lat":43.23199,"lon":5.35547,"is_reserved":false,"is_disabled":false,"rental_uris":{"android":"levelo://app?vid=4a74f469-1d99-48ee-a8ca-9199898c00a4","ios":"levelo://app?vid=4a74f469-1d99-48ee-a8ca-9199898c00a4"},"vehicle_type_id":"4","last_reported":1731586684,"current_range_meters":21600,"station_id":"ce4bhu92rcd13ifvqi70","pricing_plan_id":"cebpf4jnsgd1na2vs0mg"},{"bike_id":"c4b2bafb-ae76-412e-a120-055cc31bbdd6","system_id":"levelo_inurba_marseille","lat":43.24994,"lon":5.38938,"is_reserved":false,"is_disabled":false,"rental_uris":{"android":"levelo://app?vid=c4b2bafb-ae76-412e-a120-055cc31bbdd6","ios":"levelo://app?vid=c4b2bafb-ae76-412e-a120-055cc31bbdd6"},"vehicle_type_id":"4","last_reported":1731586684,"current_range_meters":22000,"station_id":"ce4bhgp2rcd13ifvqfd0","pricing_plan_id":"cebpf4jnsgd1na2vs0mg"},{"bike_id":"381db979-e40a-42d4-8115-ce23919a0790","system_id":"levelo_inurba_marseille","lat":43.30801,"lon":5.38163,"is_reserved":false,"is_disabled":false,"rental_uris":{"android":"levelo://app?vid=381db979-e40a-42d4-8115-ce23919a0790","ios":"levelo://app?vid=381db979-e40a-42d4-8115-ce23919a0790"},"vehicle_type_id":"4","last_reported":1731586684,"current_range_meters":31200,"station_id":"ce4bgt12rcd13ifvqce0","pricing_plan_id":"cebpf4jnsgd1na2vs0mg"},{"bike_id":"304bc20b-dec5-43dd-9211-c6d16fa3594e","system_id":"levelo_inurba_marseille","lat":43.30546,"lon":5.36695,"is_reserved":false,"is_disabled":false,"rental_uris":{"android":"levelo://app?vid=304bc20b-dec5-43dd-9211-c6d16fa3594e","ios":"levelo://app?vid=304bc20b-dec5-43dd-9211-c6d16fa3594e"},"vehicle_type_id":"4","last_reported":1731586684,"current_range_meters":38800,"station_id":"ce4bgrp2rcd13ifvqc9g","pricing_plan_id":"cebpf4jnsgd1na2vs0mg"},{"bike_id":"b3940d9d-c0a0-4e69-9f77-ae8d503d6517","system_id":"levelo_inurba_marseille","lat":43.2407,"lon":5.37762,"is_reserved":false,"is_disabled":false,"rental_uris":{"android":"levelo://app?vid=b3940d9d-c0a0-4e69-9f77-ae8d503d6517","ios":"levelo://app?vid=b3940d9d-c0a0-4e69-9f77-ae8d503d6517"},"vehicle_type_id":"4","last_reported":1731586684,"current_range_meters":28000,"station_id":"ce4bhnp2rcd13ifvqgvg","pricing_plan_id":"cebpf4jnsgd1na2vs0mg"},{"bike_id":"c0d36329-4d48-4aa1-bc06-ca1aa8cf1f4d","system_id":"levelo_inurba_marseille","lat":43.29217,"lon":5.36069,"is_reserved":false,"is_disabled":false,"rental_uris":{"android":"levelo://app?vid=c0d36329-4d48-4aa1-bc06-ca1aa8cf1f4d","ios":"levelo://app?vid=c0d36329-4d48-4aa1-bc06-ca1aa8cf1f4d"},"vehicle_type_id":"4","last_reported":1731586684,"current_range_meters":24400,"station_id":"ce4bhbh2rcd13ifvqeqg","pricing_plan_id":"cebpf4jnsgd1na2vs0mg"},{"bike_id":"af11ea44-5a8f-470d-b91f-307c73da6a58","system_id":"levelo_inurba_marseille","lat":43.29296,"lon":5.3746,"is_reserved":false,"is_disabled":false,"rental_uris":{"android":"levelo://app?vid=af11ea44-5a8f-470d-b91f-307c73da6a58","ios":"levelo://app?vid=af11ea44-5a8f-470d-b91f-307c73da6a58"},"vehicle_type_id":"4","last_reported":1731586684,"current_range_meters":20000,"station_id":"ce4bgi12rcd13ifvqb70","pricing_plan_id":"cebpf4jnsgd1na2vs0mg"},{"bike_id":"23ce6e3d-6412-43e7-a2d0-e8db5a3f392b","system_id":"levelo_inurba_marseille","lat":43.29101,"lon":5.38142,"is_reserved":false,"is_disabled":false,"rental_uris":{"android":"levelo://app?vid=23ce6e3d-6412-43e7-a2d0-e8db5a3f392b","ios":"levelo://app?vid=23ce6e3d-6412-43e7-a2d0-e8db5a3f392b"},"vehicle_type_id":"4","last_reported":1731586684,"current_range_meters":38800,"station_id":"ce4bh512rcd13ifvqe2g","pricing_plan_id":"cebpf4jnsgd1na2vs0mg"},{"bike_id":"47c967a5-3c8a-4d73-a522-90111361a0a0","system_id":"levelo_inurba_marseille","lat":43.32482,"lon":5.36561,"is_reserved":false,"is_disabled":false,"rental_uris":{"android":"levelo://app?vid=47c967a5-3c8a-4d73-a522-90111361a0a0","ios":"levelo://app?vid=47c967a5-3c8a-4d73-a522-90111361a0a0"},"vehicle_type_id":"4","last_reported":1731586684,"current_range_meters":39200,"station_id":"ce4bhs12rcd13ifvqhvg","pricing_plan_id":"cebpf4jnsgd1na2vs0mg"},{"bike_id":"b401526e-9797-412b-a024-2aeff2654ce6","system_id":"levelo_inurba_marseille","lat":43.27933,"lon":5.35496,"is_reserved":false,"is_disabled":false,"rental_uris":{"android":"levelo://app?vid=b401526e-9797-412b-a024-2aeff2654ce6","ios":"levelo://app?vid=b401526e-9797-412b-a024-2aeff2654ce6"},"vehicle_type_id":"4","last_reported":1731586684,"current_range_meters":5600,"station_id":"","pricing_plan_id":"cebpf4jnsgd1na2vs0mg"},{"bike_id":"4a06006d-6c0d-4453-846e-eca266cb000d","system_id":"levelo_inurba_marseille","lat":43.297092,"lon":5.366007,"is_reserved":false,"is_disabled":false,"rental_uris":{"android":"levelo://app?vid=4a06006d-6c0d-4453-846e-eca266cb000d","ios":"levelo://app?vid=4a06006d-6c0d-4453-846e-eca266cb000d"},"vehicle_type_id":"4","last_reported":1731586684,"current_range_meters":27200,"station_id":"ce4bgn12rcd13ifvqbt0","pricing_plan_id":"cebpf4jnsgd1na2vs0mg"},{"bike_id":"2760fdc7-884c-4ba5-870a-94984248d5c7","system_id":"levelo_inurba_marseille","lat":43.32695,"lon":5.41223,"is_reserved":false,"is_disabled":false,"rental_uris":{"android":"levelo://app?vid=2760fdc7-884c-4ba5-870a-94984248d5c7","ios":"levelo://app?vid=2760fdc7-884c-4ba5-870a-94984248d5c7"},"vehicle_type_id":"4","last_reported":1731586684,"current_range_meters":30800,"station_id":"ce4bhq12rcd13ifvqhhg","pricing_plan_id":"cebpf4jnsgd1na2vs0mg"},{"bike_id":"ed46a90a-56f6-4596-a9f5-7be324dd5c5e","system_id":"levelo_inurba_marseille","lat":43.30549,"lon":5.367,"is_reserved":false,"is_disabled":false,"rental_uris":{"android":"levelo://app?vid=ed46a90a-56f6-4596-a9f5-7be324dd5c5e","ios":"levelo://app?vid=ed46a90a-56f6-4596-a9f5-7be324dd5c5e"},"vehicle_type_id":"4","last_reported":1731586684,"current_range_meters":33200,"station_id":"ce4bgrp2rcd13ifvqc9g","pricing_plan_id":"cebpf4jnsgd1na2vs0mg"},{"bike_id":"361bc54f-7f02-4bc2-98b0-61a87e850783","system_id":"levelo_inurba_marseille","lat":43.289825,"lon":5.378395,"is_reserved":false,"is_disabled":false,"rental_uris":{"android":"levelo://app?vid=361bc54f-7f02-4bc2-98b0-61a87e850783","ios":"levelo://app?vid=361bc54f-7f02-4bc2-98b0-61a87e850783"},"vehicle_type_id":"4","last_reported":1731586684,"current_range_meters":16000,"station_id":"ce4bh9p2rcd13ifvqed0","pricing_plan_id":"cebpf4jnsgd1na2vs0mg"},{"bike_id":"2d988347-9c45-4c49-a1fc-7c2979a31818","system_id":"levelo_inurba_marseille","lat":43.282672,"lon":5.350717,"is_reserved":false,"is_disabled":false,"rental_uris":{"android":"levelo://app?vid=2d988347-9c45-4c49-a1fc-7c2979a31818","ios":"levelo://app?vid=2d988347-9c45-4c49-a1fc-7c2979a31818"},"vehicle_type_id":"4","last_reported":1731586684,"current_range_meters":27600,"station_id":"ce4bhbp2rcd13ifvqerg","pricing_plan_id":"cebpf4jnsgd1na2vs0mg"},{"bike_id":"7427f906-074e-419b-9913-72e531b99e24","system_id":"levelo_inurba_marseille","lat":43.26056,"lon":5.39403,"is_reserved":false,"is_disabled":false,"rental_uris":{"android":"levelo://app?vid=7427f906-074e-419b-9913-72e531b99e24","ios":"levelo://app?vid=7427f906-074e-419b-9913-72e531b99e24"},"vehicle_type_id":"4","last_reported":1731586684,"current_range_meters":12400,"station_id":"ce4bhh92rcd13ifvqfj0","pricing_plan_id":"cebpf4jnsgd1na2vs0mg"},{"bike_id":"481bfc19-2c1a-4390-aad8-0869310d51b6","system_id":"levelo_inurba_marseille","lat":43.23154,"lon":5.43703,"is_reserved":false,"is_disabled":false,"rental_uris":{"android":"levelo://app?vid=481bfc19-2c1a-4390-aad8-0869310d51b6","ios":"levelo://app?vid=481bfc19-2c1a-4390-aad8-0869310d51b6"},"vehicle_type_id":"4","last_reported":1731586684,"current_range_meters":18800,"station_id":"ce4bhmp2rcd13ifvqgog","pricing_plan_id":"cebpf4jnsgd1na2vs0mg"},{"bike_id":"785a4434-c998-4c07-9e49-6240ac8eab46","system_id":"levelo_inurba_marseille","lat":43.33023,"lon":5.39041,"is_reserved":false,"is_disabled":false,"rental_uris":{"android":"levelo://app?vid=785a4434-c998-4c07-9e49-6240ac8eab46","ios":"levelo://app?vid=785a4434-c998-4c07-9e49-6240ac8eab46"},"vehicle_type_id":"4","last_reported":1731586684,"current_range_meters":33200,"station_id":"ce4bhr92rcd13ifvqhrg","pricing_plan_id":"cebpf4jnsgd1na2vs0mg"},{"bike_id":"ae16b5ca-ec13-4818-bd6d-4c8e843132a0","system_id":"levelo_inurba_marseille","lat":43.27421,"lon":5.3941,"is_reserved":false,"is_disabled":false,"rental_uris":{"android":"levelo://app?vid=ae16b5ca-ec13-4818-bd6d-4c8e843132a0","ios":"levelo://app?vid=ae16b5ca-ec13-4818-bd6d-4c8e843132a0"},"vehicle_type_id":"4","last_reported":1731586684,"current_range_meters":13600,"station_id":"ce4bhdp2rcd13ifvqf20","pricing_plan_id":"cebpf4jnsgd1na2vs0mg"},{"bike_id":"fbba0614-e375-49e7-94e8-de49b528b3ef","system_id":"levelo_inurba_marseille","lat":43.28347,"lon":5.38113,"is_reserved":false,"is_disabled":false,"rental_uris":{"android":"levelo://app?vid=fbba0614-e375-49e7-94e8-de49b528b3ef","ios":"levelo://app?vid=fbba0614-e375-49e7-94e8-de49b528b3ef"},"vehicle_type_id":"4","last_reported":1731586684,"current_range_meters":38400,"station_id":"ce4bh412rcd13ifvqdr0","pricing_plan_id":"cebpf4jnsgd1na2vs0mg"},{"bike_id":"75801e28-b69b-4a5e-945c-714926c1ddf7","system_id":"levelo_inurba_marseille","lat":43.337444,"lon":5.374475,"is_reserved":false,"is_disabled":false,"rental_uris":{"android":"levelo://app?vid=75801e28-b69b-4a5e-945c-714926c1ddf7","ios":"levelo://app?vid=75801e28-b69b-4a5e-945c-714926c1ddf7"},"vehicle_type_id":"4","last_reported":1731586684,"current_range_meters":35600,"station_id":"","pricing_plan_id":"cebpf4jnsgd1na2vs0mg"},{"bike_id":"9b9b7df5-5c5f-4f58-9a9a-0d41052faee8","system_id":"levelo_inurba_marseille","lat":43.30539,"lon":5.36726,"is_reserved":false,"is_disabled":false,"rental_uris":{"android":"levelo://app?vid=9b9b7df5-5c5f-4f58-9a9a-0d41052faee8","ios":"levelo://app?vid=9b9b7df5-5c5f-4f58-9a9a-0d41052faee8"},"vehicle_type_id":"4","last_reported":1731586684,"current_range_meters":26800,"station_id":"ce4bgrp2rcd13ifvqc9g","pricing_plan_id":"cebpf4jnsgd1na2vs0mg"},{"bike_id":"71e318e3-010a-4aa4-844c-cdd2fe89c6a8","system_id":"levelo_inurba_marseille","lat":43.29874,"lon":5.39737,"is_reserved":false,"is_disabled":false,"rental_uris":{"android":"levelo://app?vid=71e318e3-010a-4aa4-844c-cdd2fe89c6a8","ios":"levelo://app?vid=71e318e3-010a-4aa4-844c-cdd2fe89c6a8"},"vehicle_type_id":"4","last_reported":1731586684,"current_range_meters":27600,"station_id":"ce4bh0h2rcd13ifvqd50","pricing_plan_id":"cebpf4jnsgd1na2vs0mg"},{"bike_id":"7e720f35-18c8-444c-8b96-b8153d807db2","system_id":"levelo_inurba_marseille","lat":43.28473,"lon":5.38169,"is_reserved":false,"is_disabled":false,"rental_uris":{"android":"levelo://app?vid=7e720f35-18c8-444c-8b96-b8153d807db2","ios":"levelo://app?vid=7e720f35-18c8-444c-8b96-b8153d807db2"},"vehicle_type_id":"4","last_reported":1731586684,"current_range_meters":28400,"station_id":"ce4bh412rcd13ifvqdr0","pricing_plan_id":"cebpf4jnsgd1na2vs0mg"},{"bike_id":"e1a6970f-d408-49cf-a4fe-ef82d2512acf","system_id":"levelo_inurba_marseille","lat":43.32478,"lon":5.36549,"is_reserved":false,"is_disabled":false,"rental_uris":{"android":"levelo://app?vid=e1a6970f-d408-49cf-a4fe-ef82d2512acf","ios":"levelo://app?vid=e1a6970f-d408-49cf-a4fe-ef82d2512acf"},"vehicle_type_id":"4","last_reported":1731586684,"current_range_meters":14000,"station_id":"ce4bhs12rcd13ifvqhvg","pricing_plan_id":"cebpf4jnsgd1na2vs0mg"},{"bike_id":"431da0da-2765-40c5-8ec6-144e64d098fc","system_id":"levelo_inurba_marseille","lat":43.30289,"lon":5.37697,"is_reserved":false,"is_disabled":false,"rental_uris":{"android":"levelo://app?vid=431da0da-2765-40c5-8ec6-144e64d098fc","ios":"levelo://app?vid=431da0da-2765-40c5-8ec6-144e64d098fc"},"vehicle_type_id":"4","last_reported":1731586684,"current_range_meters":16000,"station_id":"ce4bguh2rcd13ifvqcj0","pricing_plan_id":"cebpf4jnsgd1na2vs0mg"},{"bike_id":"a88a4619-07f1-45c7-9eba-6379a6a8eb68","system_id":"levelo_inurba_marseille","lat":43.30563,"lon":5.36515,"is_reserved":false,"is_disabled":false,"rental_uris":{"android":"levelo://app?vid=a88a4619-07f1-45c7-9eba-6379a6a8eb68","ios":"levelo://app?vid=a88a4619-07f1-45c7-9eba-6379a6a8eb68"},"vehicle_type_id":"4","last_reported":1731586684,"current_range_meters":38800,"station_id":"ce4bgs12rcd13ifvqcag","pricing_plan_id":"cebpf4jnsgd1na2vs0mg"},{"bike_id":"e2badf85-87df-423f-90ae-3db5d2b1e066","system_id":"levelo_inurba_marseille","lat":43.28999,"lon":5.35609,"is_reserved":false,"is_disabled":false,"rental_uris":{"android":"levelo://app?vid=e2badf85-87df-423f-90ae-3db5d2b1e066","ios":"levelo://app?vid=e2badf85-87df-423f-90ae-3db5d2b1e066"},"vehicle_type_id":"4","last_reported":1731586684,"current_range_meters":28400,"station_id":"ce4bhb92rcd13ifvqen0","pricing_plan_id":"cebpf4jnsgd1na2vs0mg"},{"bike_id":"a885910c-aaa9-4ec7-b396-5d7f8239d63c","system_id":"levelo_inurba_marseille","lat":43.29175,"lon":5.37135,"is_reserved":false,"is_disabled":false,"rental_uris":{"android":"levelo://app?vid=a885910c-aaa9-4ec7-b396-5d7f8239d63c","ios":"levelo://app?vid=a885910c-aaa9-4ec7-b396-5d7f8239d63c"},"vehicle_type_id":"4","last_reported":1731586684,"current_range_meters":39200,"station_id":"ce4bha92rcd13ifvqeh0","pricing_plan_id":"cebpf4jnsgd1na2vs0mg"},{"bike_id":"a583d3ea-648d-4ca4-ab6d-7c3a4f13bd72","system_id":"levelo_inurba_marseille","lat":43.23967,"lon":5.36632,"is_reserved":false,"is_disabled":false,"rental_uris":{"android":"levelo://app?vid=a583d3ea-648d-4ca4-ab6d-7c3a4f13bd72","ios":"levelo://app?vid=a583d3ea-648d-4ca4-ab6d-7c3a4f13bd72"},"vehicle_type_id":"4","last_reported":1731586684,"current_range_meters":24000,"station_id":"ce4bhi12rcd13ifvqfp0","pricing_plan_id":"cebpf4jnsgd1na2vs0mg"},{"bike_id":"817849d8-25eb-48a4-b155-e11b87f519ff","system_id":"levelo_inurba_marseille","lat":43.30542,"lon":5.36527,"is_reserved":false,"is_disabled":false,"rental_uris":{"android":"levelo://app?vid=817849d8-25eb-48a4-b155-e11b87f519ff","ios":"levelo://app?vid=817849d8-25eb-48a4-b155-e11b87f519ff"},"vehicle_type_id":"4","last_reported":1731586684,"current_range_meters":38800,"station_id":"ce4bgs12rcd13ifvqcag","pricing_plan_id":"cebpf4jnsgd1na2vs0mg"},{"bike_id":"6897c62b-b991-4a06-9533-b54bda9c9ab0","system_id":"levelo_inurba_marseille","lat":43.26032,"lon":5.37541,"is_reserved":false,"is_disabled":false,"rental_uris":{"android":"levelo://app?vid=6897c62b-b991-4a06-9533-b54bda9c9ab0","ios":"levelo://app?vid=6897c62b-b991-4a06-9533-b54bda9c9ab0"},"vehicle_type_id":"4","last_reported":1731586684,"current_range_meters":8000,"station_id":"ce4bhgh2rcd13ifvqfa0","pricing_plan_id":"cebpf4jnsgd1na2vs0mg"},{"bike_id":"50895aa3-3796-4b6a-9eaf-67e06ca3c582","system_id":"levelo_inurba_marseille","lat":43.28616,"lon":5.35101,"is_reserved":false,"is_disabled":false,"rental_uris":{"android":"levelo://app?vid=50895aa3-3796-4b6a-9eaf-67e06ca3c582","ios":"levelo://app?vid=50895aa3-3796-4b6a-9eaf-67e06ca3c582"},"vehicle_type_id":"4","last_reported":1731586684,"current_range_meters":28800,"station_id":"ce4bhch2rcd13ifvqeug","pricing_plan_id":"cebpf4jnsgd1na2vs0mg"},{"bike_id":"af80e1d2-51f4-4d96-8540-7e2dc63ab3cf","system_id":"levelo_inurba_marseille","lat":43.26502,"lon":5.39541,"is_reserved":false,"is_disabled":false,"rental_uris":{"android":"levelo://app?vid=af80e1d2-51f4-4d96-8540-7e2dc63ab3cf","ios":"levelo://app?vid=af80e1d2-51f4-4d96-8540-7e2dc63ab3cf"},"vehicle_type_id":"4","last_reported":1731586684,"current_range_meters":37600,"station_id":"ce4bhi12rcd13ifvqfq0","pricing_plan_id":"cebpf4jnsgd1na2vs0mg"},{"bike_id":"12ac1a8f-9f8f-4e86-8d2e-151acc7da0f1","system_id":"levelo_inurba_marseille","lat":43.28483,"lon":5.38405,"is_reserved":false,"is_disabled":false,"rental_uris":{"android":"levelo://app?vid=12ac1a8f-9f8f-4e86-8d2e-151acc7da0f1","ios":"levelo://app?vid=12ac1a8f-9f8f-4e86-8d2e-151acc7da0f1"},"vehicle_type_id":"4","last_reported":1731586684,"current_range_meters":37600,"station_id":"ce4bh512rcd13ifvqe3g","pricing_plan_id":"cebpf4jnsgd1na2vs0mg"},{"bike_id":"d99bff46-e3e0-4c25-9719-3fa3dd9a1a6e","system_id":"levelo_inurba_marseille","lat":43.31578,"lon":5.37277,"is_reserved":false,"is_disabled":false,"rental_uris":{"android":"levelo://app?vid=d99bff46-e3e0-4c25-9719-3fa3dd9a1a6e","ios":"levelo://app?vid=d99bff46-e3e0-4c25-9719-3fa3dd9a1a6e"},"vehicle_type_id":"4","last_reported":1731586684,"current_range_meters":20400,"station_id":"ce4bgt12rcd13ifvqcd0","pricing_plan_id":"cebpf4jnsgd1na2vs0mg"},{"bike_id":"90153985-f15a-489f-8214-d1b0fd56d096","system_id":"levelo_inurba_marseille","lat":43.28043,"lon":5.36955,"is_reserved":false,"is_disabled":false,"rental_uris":{"android":"levelo://app?vid=90153985-f15a-489f-8214-d1b0fd56d096","ios":"levelo://app?vid=90153985-f15a-489f-8214-d1b0fd56d096"},"vehicle_type_id":"4","last_reported":1731586684,"current_range_meters":38000,"station_id":"ce4bha12rcd13ifvqef0","pricing_plan_id":"cebpf4jnsgd1na2vs0mg"},{"bike_id":"7328681f-85a2-4fa2-ba05-e515e3f7c93f","system_id":"levelo_inurba_marseille","lat":43.29846,"lon":5.36282,"is_reserved":false,"is_disabled":false,"rental_uris":{"android":"levelo://app?vid=7328681f-85a2-4fa2-ba05-e515e3f7c93f","ios":"levelo://app?vid=7328681f-85a2-4fa2-ba05-e515e3f7c93f"},"vehicle_type_id":"4","last_reported":1731586684,"current_range_meters":38800,"station_id":"ce4bgpp2rcd13ifvqc3g","pricing_plan_id":"cebpf4jnsgd1na2vs0mg"},{"bike_id":"54016e92-8d38-4269-8bd9-250988ad3e27","system_id":"levelo_inurba_marseille","lat":43.29307,"lon":5.37458,"is_reserved":false,"is_disabled":false,"rental_uris":{"android":"levelo://app?vid=54016e92-8d38-4269-8bd9-250988ad3e27","ios":"levelo://app?vid=54016e92-8d38-4269-8bd9-250988ad3e27"},"vehicle_type_id":"4","last_reported":1731586684,"current_range_meters":6400,"station_id":"ce4bgi12rcd13ifvqb70","pricing_plan_id":"cebpf4jnsgd1na2vs0mg"},{"bike_id":"81a89863-15b2-4a1c-bbea-87248b848171","system_id":"levelo_inurba_marseille","lat":43.31234,"lon":5.36861,"is_reserved":false,"is_disabled":false,"rental_uris":{"android":"levelo://app?vid=81a89863-15b2-4a1c-bbea-87248b848171","ios":"levelo://app?vid=81a89863-15b2-4a1c-bbea-87248b848171"},"vehicle_type_id":"4","last_reported":1731586684,"current_range_meters":32000,"station_id":"ce4bgl92rcd13ifvqbq0","pricing_plan_id":"cebpf4jnsgd1na2vs0mg"},{"bike_id":"58e49139-e7d4-406e-9b27-59042a1f5a26","system_id":"levelo_inurba_marseille","lat":43.25866,"lon":5.39896,"is_reserved":false,"is_disabled":false,"rental_uris":{"android":"levelo://app?vid=58e49139-e7d4-406e-9b27-59042a1f5a26","ios":"levelo://app?vid=58e49139-e7d4-406e-9b27-59042a1f5a26"},"vehicle_type_id":"4","last_reported":1731586684,"current_range_meters":34800,"station_id":"ce4bhl92rcd13ifvqghg","pricing_plan_id":"cebpf4jnsgd1na2vs0mg"},{"bike_id":"21c3f886-bafe-4236-aa7c-30af499af7f0","system_id":"levelo_inurba_marseille","lat":43.32485,"lon":5.36564,"is_reserved":false,"is_disabled":false,"rental_uris":{"android":"levelo://app?vid=21c3f886-bafe-4236-aa7c-30af499af7f0","ios":"levelo://app?vid=21c3f886-bafe-4236-aa7c-30af499af7f0"},"vehicle_type_id":"4","last_reported":1731586684,"current_range_meters":16800,"station_id":"ce4bhs12rcd13ifvqhvg","pricing_plan_id":"cebpf4jnsgd1na2vs0mg"},{"bike_id":"14dc970f-991c-4178-b6ca-20b8175b56fa","system_id":"levelo_inurba_marseille","lat":43.29898,"lon":5.4366,"is_reserved":false,"is_disabled":false,"rental_uris":{"android":"levelo://app?vid=14dc970f-991c-4178-b6ca-20b8175b56fa","ios":"levelo://app?vid=14dc970f-991c-4178-b6ca-20b8175b56fa"},"vehicle_type_id":"4","last_reported":1731586684,"current_range_meters":11200,"station_id":"ce4bhpp2rcd13ifvqhfg","pricing_plan_id":"cebpf4jnsgd1na2vs0mg"},{"bike_id":"9a9c6182-b972-43ba-ba68-012b04aafcae","system_id":"levelo_inurba_marseille","lat":43.27211,"lon":5.39179,"is_reserved":false,"is_disabled":false,"rental_uris":{"android":"levelo://app?vid=9a9c6182-b972-43ba-ba68-012b04aafcae","ios":"levelo://app?vid=9a9c6182-b972-43ba-ba68-012b04aafcae"},"vehicle_type_id":"4","last_reported":1731586684,"current_range_meters":24800,"station_id":"ce4bhhp2rcd13ifvqfm0","pricing_plan_id":"cebpf4jnsgd1na2vs0mg"},{"bike_id":"7e68d8eb-008a-41fa-8d76-b35dd2ccf3ff","system_id":"levelo_inurba_marseille","lat":43.25002,"lon":5.38924,"is_reserved":false,"is_disabled":false,"rental_uris":{"android":"levelo://app?vid=7e68d8eb-008a-41fa-8d76-b35dd2ccf3ff","ios":"levelo://app?vid=7e68d8eb-008a-41fa-8d76-b35dd2ccf3ff"},"vehicle_type_id":"4","last_reported":1731586684,"current_range_meters":25600,"station_id":"ce4bhgp2rcd13ifvqfd0","pricing_plan_id":"cebpf4jnsgd1na2vs0mg"},{"bike_id":"72103d95-b4ec-41de-829f-29597931c61b","system_id":"levelo_inurba_marseille","lat":43.29096,"lon":5.38145,"is_reserved":false,"is_disabled":false,"rental_uris":{"android":"levelo://app?vid=72103d95-b4ec-41de-829f-29597931c61b","ios":"levelo://app?vid=72103d95-b4ec-41de-829f-29597931c61b"},"vehicle_type_id":"4","last_reported":1731586684,"current_range_meters":27200,"station_id":"ce4bh512rcd13ifvqe2g","pricing_plan_id":"cebpf4jnsgd1na2vs0mg"},{"bike_id":"f15f84e3-6119-4797-bcba-f763c86025cb","system_id":"levelo_inurba_marseille","lat":43.337444,"lon":5.374475,"is_reserved":false,"is_disabled":false,"rental_uris":{"android":"levelo://app?vid=f15f84e3-6119-4797-bcba-f763c86025cb","ios":"levelo://app?vid=f15f84e3-6119-4797-bcba-f763c86025cb"},"vehicle_type_id":"4","last_reported":1731586684,"current_range_meters":35600,"station_id":"","pricing_plan_id":"cebpf4jnsgd1na2vs0mg"},{"bike_id":"dbcb7a22-bbea-4608-9dfe-67f001ce8b59","system_id":"levelo_inurba_marseille","lat":43.29791,"lon":5.3934,"is_reserved":false,"is_disabled":false,"rental_uris":{"android":"levelo://app?vid=dbcb7a22-bbea-4608-9dfe-67f001ce8b59","ios":"levelo://app?vid=dbcb7a22-bbea-4608-9dfe-67f001ce8b59"},"vehicle_type_id":"4","last_reported":1731586684,"current_range_meters":9200,"station_id":"chh1huq6cuj3fo74tm60","pricing_plan_id":"cebpf4jnsgd1na2vs0mg"},{"bike_id":"c12e8bda-0e21-4687-9bad-39d69ce4f3e0","system_id":"levelo_inurba_marseille","lat":43.28272,"lon":5.3507,"is_reserved":false,"is_disabled":false,"rental_uris":{"android":"levelo://app?vid=c12e8bda-0e21-4687-9bad-39d69ce4f3e0","ios":"levelo://app?vid=c12e8bda-0e21-4687-9bad-39d69ce4f3e0"},"vehicle_type_id":"4","last_reported":1731586684,"current_range_meters":24000,"station_id":"ce4bhbp2rcd13ifvqerg","pricing_plan_id":"cebpf4jnsgd1na2vs0mg"},{"bike_id":"916bd7c1-d2d2-4d11-ad6d-4b1715ab51a3","system_id":"levelo_inurba_marseille","lat":43.30802,"lon":5.38162,"is_reserved":false,"is_disabled":false,"rental_uris":{"android":"levelo://app?vid=916bd7c1-d2d2-4d11-ad6d-4b1715ab51a3","ios":"levelo://app?vid=916bd7c1-d2d2-4d11-ad6d-4b1715ab51a3"},"vehicle_type_id":"4","last_reported":1731586684,"current_range_meters":33200,"station_id":"ce4bgt12rcd13ifvqce0","pricing_plan_id":"cebpf4jnsgd1na2vs0mg"},{"bike_id":"ba295aa4-e303-4da2-9863-82d8a34fc59c","system_id":"levelo_inurba_marseille","lat":43.2396,"lon":5.36638,"is_reserved":false,"is_disabled":false,"rental_uris":{"android":"levelo://app?vid=ba295aa4-e303-4da2-9863-82d8a34fc59c","ios":"levelo://app?vid=ba295aa4-e303-4da2-9863-82d8a34fc59c"},"vehicle_type_id":"4","last_reported":1731586684,"current_range_meters":14400,"station_id":"ce4bhi12rcd13ifvqfp0","pricing_plan_id":"cebpf4jnsgd1na2vs0mg"},{"bike_id":"2cdb055a-001e-4662-bd5b-c22f42b108ff","system_id":"levelo_inurba_marseille","lat":43.25582,"lon":5.38235,"is_reserved":false,"is_disabled":false,"rental_uris":{"android":"levelo://app?vid=2cdb055a-001e-4662-bd5b-c22f42b108ff","ios":"levelo://app?vid=2cdb055a-001e-4662-bd5b-c22f42b108ff"},"vehicle_type_id":"4","last_reported":1731586684,"current_range_meters":38400,"station_id":"ce4bhih2rcd13ifvqfs0","pricing_plan_id":"cebpf4jnsgd1na2vs0mg"},{"bike_id":"6c9da2fe-47bd-4a5e-871b-ffc073386481","system_id":"levelo_inurba_marseille","lat":43.2969,"lon":5.3729,"is_reserved":false,"is_disabled":false,"rental_uris":{"android":"levelo://app?vid=6c9da2fe-47bd-4a5e-871b-ffc073386481","ios":"levelo://app?vid=6c9da2fe-47bd-4a5e-871b-ffc073386481"},"vehicle_type_id":"4","last_reported":1731586684,"current_range_meters":28000,"station_id":"ce4bgk12rcd13ifvqbj0","pricing_plan_id":"cebpf4jnsgd1na2vs0mg"},{"bike_id":"8963f262-bdcb-43f5-9e37-237198779ba8","system_id":"levelo_inurba_marseille","lat":43.33773,"lon":5.37442,"is_reserved":false,"is_disabled":false,"rental_uris":{"android":"levelo://app?vid=8963f262-bdcb-43f5-9e37-237198779ba8","ios":"levelo://app?vid=8963f262-bdcb-43f5-9e37-237198779ba8"},"vehicle_type_id":"4","last_reported":1731586684,"current_range_meters":33600,"station_id":"","pricing_plan_id":"cebpf4jnsgd1na2vs0mg"},{"bike_id":"398b47b3-a042-4cec-b1dd-254773a78263","system_id":"levelo_inurba_marseille","lat":43.27409,"lon":5.38939,"is_reserved":false,"is_disabled":false,"rental_uris":{"android":"levelo://app?vid=398b47b3-a042-4cec-b1dd-254773a78263","ios":"levelo://app?vid=398b47b3-a042-4cec-b1dd-254773a78263"},"vehicle_type_id":"4","last_reported":1731586684,"current_range_meters":4400,"station_id":"","pricing_plan_id":"cebpf4jnsgd1na2vs0mg"},{"bike_id":"42ecf14b-ffaf-42b1-80c0-6e943e1cda3f","system_id":"levelo_inurba_marseille","lat":43.2603,"lon":5.37541,"is_reserved":false,"is_disabled":false,"rental_uris":{"android":"levelo://app?vid=42ecf14b-ffaf-42b1-80c0-6e943e1cda3f","ios":"levelo://app?vid=42ecf14b-ffaf-42b1-80c0-6e943e1cda3f"},"vehicle_type_id":"4","last_reported":1731586684,"current_range_meters":38000,"station_id":"ce4bhgh2rcd13ifvqfa0","pricing_plan_id":"cebpf4jnsgd1na2vs0mg"},{"bike_id":"4224ee07-4491-4b0b-9ce2-8da04beb0c85","system_id":"levelo_inurba_marseille","lat":43.24073,"lon":5.37758,"is_reserved":false,"is_disabled":false,"rental_uris":{"android":"levelo://app?vid=4224ee07-4491-4b0b-9ce2-8da04beb0c85","ios":"levelo://app?vid=4224ee07-4491-4b0b-9ce2-8da04beb0c85"},"vehicle_type_id":"4","last_reported":1731586684,"current_range_meters":38800,"station_id":"ce4bhnp2rcd13ifvqgvg","pricing_plan_id":"cebpf4jnsgd1na2vs0mg"},{"bike_id":"ac1081cc-aff5-436e-a11b-24d06190a755","system_id":"levelo_inurba_marseille","lat":43.337444,"lon":5.374475,"is_reserved":false,"is_disabled":false,"rental_uris":{"android":"levelo://app?vid=ac1081cc-aff5-436e-a11b-24d06190a755","ios":"levelo://app?vid=ac1081cc-aff5-436e-a11b-24d06190a755"},"vehicle_type_id":"4","last_reported":1731586684,"current_range_meters":34800,"station_id":"","pricing_plan_id":"cebpf4jnsgd1na2vs0mg"},{"bike_id":"e0223d4a-76ae-4328-bd57-ba87312b68f3","system_id":"levelo_inurba_marseille","lat":43.29687,"lon":5.3729,"is_reserved":false,"is_disabled":false,"rental_uris":{"android":"levelo://app?vid=e0223d4a-76ae-4328-bd57-ba87312b68f3","ios":"levelo://app?vid=e0223d4a-76ae-4328-bd57-ba87312b68f3"},"vehicle_type_id":"4","last_reported":1731586684,"current_range_meters":38400,"station_id":"ce4bgk12rcd13ifvqbj0","pricing_plan_id":"cebpf4jnsgd1na2vs0mg"},{"bike_id":"92e3ad17-17c9-4714-a148-ef9436ad6113","system_id":"levelo_inurba_marseille","lat":43.22935,"lon":5.3538,"is_reserved":false,"is_disabled":false,"rental_uris":{"android":"levelo://app?vid=92e3ad17-17c9-4714-a148-ef9436ad6113","ios":"levelo://app?vid=92e3ad17-17c9-4714-a148-ef9436ad6113"},"vehicle_type_id":"4","last_reported":1731586684,"current_range_meters":39200,"station_id":"cpo3532slgdg3j2ikp40","pricing_plan_id":"cebpf4jnsgd1na2vs0mg"},{"bike_id":"187a7fa8-9afd-4d26-b5e7-6a10712e67a7","system_id":"levelo_inurba_marseille","lat":43.23156,"lon":5.43703,"is_reserved":false,"is_disabled":false,"rental_uris":{"android":"levelo://app?vid=187a7fa8-9afd-4d26-b5e7-6a10712e67a7","ios":"levelo://app?vid=187a7fa8-9afd-4d26-b5e7-6a10712e67a7"},"vehicle_type_id":"4","last_reported":1731586684,"current_range_meters":39200,"station_id":"ce4bhmp2rcd13ifvqgog","pricing_plan_id":"cebpf4jnsgd1na2vs0mg"},{"bike_id":"b57a5365-00b1-42ab-a3f6-488c665039da","system_id":"levelo_inurba_marseille","lat":43.267137,"lon":5.38233,"is_reserved":false,"is_disabled":false,"rental_uris":{"android":"levelo://app?vid=b57a5365-00b1-42ab-a3f6-488c665039da","ios":"levelo://app?vid=b57a5365-00b1-42ab-a3f6-488c665039da"},"vehicle_type_id":"4","last_reported":1731586684,"current_range_meters":36400,"station_id":"ce4bhg92rcd13ifvqf90","pricing_plan_id":"cebpf4jnsgd1na2vs0mg"},{"bike_id":"164f983e-6520-4464-9295-f68e5ab09af4","system_id":"levelo_inurba_marseille","lat":43.28715,"lon":5.37933,"is_reserved":false,"is_disabled":false,"rental_uris":{"android":"levelo://app?vid=164f983e-6520-4464-9295-f68e5ab09af4","ios":"levelo://app?vid=164f983e-6520-4464-9295-f68e5ab09af4"},"vehicle_type_id":"4","last_reported":1731586684,"current_range_meters":22400,"station_id":"ce4bh9p2rcd13ifvqec0","pricing_plan_id":"cebpf4jnsgd1na2vs0mg"},{"bike_id":"82f309e6-c4ae-421f-89cb-1d64a8e0ef10","system_id":"levelo_inurba_marseille","lat":43.337444,"lon":5.374475,"is_reserved":false,"is_disabled":false,"rental_uris":{"android":"levelo://app?vid=82f309e6-c4ae-421f-89cb-1d64a8e0ef10","ios":"levelo://app?vid=82f309e6-c4ae-421f-89cb-1d64a8e0ef10"},"vehicle_type_id":"4","last_reported":1731586684,"current_range_meters":32800,"station_id":"","pricing_plan_id":"cebpf4jnsgd1na2vs0mg"},{"bike_id":"5419d154-3ce9-4c40-9294-d16b9d2b3431","system_id":"levelo_inurba_marseille","lat":43.337444,"lon":5.374475,"is_reserved":false,"is_disabled":false,"rental_uris":{"android":"levelo://app?vid=5419d154-3ce9-4c40-9294-d16b9d2b3431","ios":"levelo://app?vid=5419d154-3ce9-4c40-9294-d16b9d2b3431"},"vehicle_type_id":"4","last_reported":1731586684,"current_range_meters":32800,"station_id":"","pricing_plan_id":"cebpf4jnsgd1na2vs0mg"},{"bike_id":"8146b127-e602-40cb-a6bf-0f40669d5db0","system_id":"levelo_inurba_marseille","lat":43.25725,"lon":5.41106,"is_reserved":false,"is_disabled":false,"rental_uris":{"android":"levelo://app?vid=8146b127-e602-40cb-a6bf-0f40669d5db0","ios":"levelo://app?vid=8146b127-e602-40cb-a6bf-0f40669d5db0"},"vehicle_type_id":"4","last_reported":1731586684,"current_range_meters":16800,"station_id":"ce4bhkp2rcd13ifvqgd0","pricing_plan_id":"cebpf4jnsgd1na2vs0mg"},{"bike_id":"6e4ab7d2-c1df-4ea4-bb4b-2f5c43ed5717","system_id":"levelo_inurba_marseille","lat":43.33768,"lon":5.37439,"is_reserved":false,"is_disabled":false,"rental_uris":{"android":"levelo://app?vid=6e4ab7d2-c1df-4ea4-bb4b-2f5c43ed5717","ios":"levelo://app?vid=6e4ab7d2-c1df-4ea4-bb4b-2f5c43ed5717"},"vehicle_type_id":"4","last_reported":1731586684,"current_range_meters":32800,"station_id":"","pricing_plan_id":"cebpf4jnsgd1na2vs0mg"},{"bike_id":"bd465249-964f-4479-968e-5f6e32af60f1","system_id":"levelo_inurba_marseille","lat":43.337444,"lon":5.374475,"is_reserved":false,"is_disabled":false,"rental_uris":{"android":"levelo://app?vid=bd465249-964f-4479-968e-5f6e32af60f1","ios":"levelo://app?vid=bd465249-964f-4479-968e-5f6e32af60f1"},"vehicle_type_id":"4","last_reported":1731586684,"current_range_meters":35200,"station_id":"","pricing_plan_id":"cebpf4jnsgd1na2vs0mg"},{"bike_id":"e9884c3e-ef8b-4f5f-bbd2-a8caa762df54","system_id":"levelo_inurba_marseille","lat":43.24803,"lon":5.37456,"is_reserved":false,"is_disabled":false,"rental_uris":{"android":"levelo://app?vid=e9884c3e-ef8b-4f5f-bbd2-a8caa762df54","ios":"levelo://app?vid=e9884c3e-ef8b-4f5f-bbd2-a8caa762df54"},"vehicle_type_id":"4","last_reported":1731586684,"current_range_meters":38800,"station_id":"ce4bhgh2rcd13ifvqfb0","pricing_plan_id":"cebpf4jnsgd1na2vs0mg"},{"bike_id":"c65d815a-4ae8-44f8-83bf-30165109408d","system_id":"levelo_inurba_marseille","lat":43.30957,"lon":5.39029,"is_reserved":false,"is_disabled":false,"rental_uris":{"android":"levelo://app?vid=c65d815a-4ae8-44f8-83bf-30165109408d","ios":"levelo://app?vid=c65d815a-4ae8-44f8-83bf-30165109408d"},"vehicle_type_id":"4","last_reported":1731586684,"current_range_meters":23200,"station_id":"ce4bgup2rcd13ifvqco0","pricing_plan_id":"cebpf4jnsgd1na2vs0mg"},{"bike_id":"96465dfb-8924-459a-94bb-50a5ed5af403","system_id":"levelo_inurba_marseille","lat":43.293969,"lon":5.411039,"is_reserved":false,"is_disabled":false,"rental_uris":{"android":"levelo://app?vid=96465dfb-8924-459a-94bb-50a5ed5af403","ios":"levelo://app?vid=96465dfb-8924-459a-94bb-50a5ed5af403"},"vehicle_type_id":"4","last_reported":1731586684,"current_range_meters":28800,"station_id":"","pricing_plan_id":"cebpf4jnsgd1na2vs0mg"},{"bike_id":"a7ba5254-b565-43bc-a120-0a150acf5c72","system_id":"levelo_inurba_marseille","lat":43.27082,"lon":5.42278,"is_reserved":false,"is_disabled":false,"rental_uris":{"android":"levelo://app?vid=a7ba5254-b565-43bc-a120-0a150acf5c72","ios":"levelo://app?vid=a7ba5254-b565-43bc-a120-0a150acf5c72"},"vehicle_type_id":"4","last_reported":1731586684,"current_range_meters":28800,"station_id":"ce4bhk92rcd13ifvqgb0","pricing_plan_id":"cebpf4jnsgd1na2vs0mg"},{"bike_id":"18f44aca-6098-4932-8a25-25217f071e96","system_id":"levelo_inurba_marseille","lat":43.31176,"lon":5.38716,"is_reserved":false,"is_disabled":false,"rental_uris":{"android":"levelo://app?vid=18f44aca-6098-4932-8a25-25217f071e96","ios":"levelo://app?vid=18f44aca-6098-4932-8a25-25217f071e96"},"vehicle_type_id":"4","last_reported":1731586684,"current_range_meters":33600,"station_id":"ce4bgv12rcd13ifvqcp0","pricing_plan_id":"cebpf4jnsgd1na2vs0mg"},{"bike_id":"9e456525-0f5f-4a80-9d37-85501f13c908","system_id":"levelo_inurba_marseille","lat":43.25083,"lon":5.39512,"is_reserved":false,"is_disabled":false,"rental_uris":{"android":"levelo://app?vid=9e456525-0f5f-4a80-9d37-85501f13c908","ios":"levelo://app?vid=9e456525-0f5f-4a80-9d37-85501f13c908"},"vehicle_type_id":"4","last_reported":1731586684,"current_range_meters":39200,"station_id":"ce4bhm12rcd13ifvqgkg","pricing_plan_id":"cebpf4jnsgd1na2vs0mg"},{"bike_id":"3db0bf2b-998b-493d-b4fd-65b0c7da7618","system_id":"levelo_inurba_marseille","lat":43.25088,"lon":5.39523,"is_reserved":false,"is_disabled":false,"rental_uris":{"android":"levelo://app?vid=3db0bf2b-998b-493d-b4fd-65b0c7da7618","ios":"levelo://app?vid=3db0bf2b-998b-493d-b4fd-65b0c7da7618"},"vehicle_type_id":"4","last_reported":1731586684,"current_range_meters":17600,"station_id":"ce4bhm12rcd13ifvqgkg","pricing_plan_id":"cebpf4jnsgd1na2vs0mg"},{"bike_id":"c9d041c0-acec-4cf4-bba2-e01a92441368","system_id":"levelo_inurba_marseille","lat":43.337444,"lon":5.374475,"is_reserved":false,"is_disabled":false,"rental_uris":{"android":"levelo://app?vid=c9d041c0-acec-4cf4-bba2-e01a92441368","ios":"levelo://app?vid=c9d041c0-acec-4cf4-bba2-e01a92441368"},"vehicle_type_id":"4","last_reported":1731586684,"current_range_meters":34800,"station_id":"","pricing_plan_id":"cebpf4jnsgd1na2vs0mg"},{"bike_id":"79fa3182-27e0-4329-a285-0cebdce5fcb6","system_id":"levelo_inurba_marseille","lat":43.25823,"lon":5.39438,"is_reserved":false,"is_disabled":false,"rental_uris":{"android":"levelo://app?vid=79fa3182-27e0-4329-a285-0cebdce5fcb6","ios":"levelo://app?vid=79fa3182-27e0-4329-a285-0cebdce5fcb6"},"vehicle_type_id":"4","last_reported":1731586684,"current_range_meters":20400,"station_id":"ce4bhip2rcd13ifvqft0","pricing_plan_id":"cebpf4jnsgd1na2vs0mg"},{"bike_id":"1a3f88a7-ba66-47f0-b62b-2014c1df80d9","system_id":"levelo_inurba_marseille","lat":43.23152,"lon":5.43707,"is_reserved":false,"is_disabled":false,"rental_uris":{"android":"levelo://app?vid=1a3f88a7-ba66-47f0-b62b-2014c1df80d9","ios":"levelo://app?vid=1a3f88a7-ba66-47f0-b62b-2014c1df80d9"},"vehicle_type_id":"4","last_reported":1731586684,"current_range_meters":38800,"station_id":"ce4bhmp2rcd13ifvqgog","pricing_plan_id":"cebpf4jnsgd1na2vs0mg"},{"bike_id":"df66abf0-5814-42dd-b2a3-5842fb95e6fb","system_id":"levelo_inurba_marseille","lat":43.34149,"lon":5.40893,"is_reserved":false,"is_disabled":false,"rental_uris":{"android":"levelo://app?vid=df66abf0-5814-42dd-b2a3-5842fb95e6fb","ios":"levelo://app?vid=df66abf0-5814-42dd-b2a3-5842fb95e6fb"},"vehicle_type_id":"4","last_reported":1731586684,"current_range_meters":33600,"station_id":"ce4bhqh2rcd13ifvqhlg","pricing_plan_id":"cebpf4jnsgd1na2vs0mg"},{"bike_id":"6e6a30f1-bd86-412e-bd37-d639dbb87c59","system_id":"levelo_inurba_marseille","lat":43.293,"lon":5.37457,"is_reserved":false,"is_disabled":false,"rental_uris":{"android":"levelo://app?vid=6e6a30f1-bd86-412e-bd37-d639dbb87c59","ios":"levelo://app?vid=6e6a30f1-bd86-412e-bd37-d639dbb87c59"},"vehicle_type_id":"4","last_reported":1731586684,"current_range_meters":4400,"station_id":"ce4bgi12rcd13ifvqb70","pricing_plan_id":"cebpf4jnsgd1na2vs0mg"},{"bike_id":"92eef5a4-7413-4712-aa62-eb761eb3479d","system_id":"levelo_inurba_marseille","lat":43.28123,"lon":5.37853,"is_reserved":false,"is_disabled":false,"rental_uris":{"android":"levelo://app?vid=92eef5a4-7413-4712-aa62-eb761eb3479d","ios":"levelo://app?vid=92eef5a4-7413-4712-aa62-eb761eb3479d"},"vehicle_type_id":"4","last_reported":1731586684,"current_range_meters":37600,"station_id":"ce4bha12rcd13ifvqee0","pricing_plan_id":"cebpf4jnsgd1na2vs0mg"},{"bike_id":"942ebb39-b1c0-4e2a-8bd6-9132b397a7ce","system_id":"levelo_inurba_marseille","lat":43.27986,"lon":5.41658,"is_reserved":false,"is_disabled":false,"rental_uris":{"android":"levelo://app?vid=942ebb39-b1c0-4e2a-8bd6-9132b397a7ce","ios":"levelo://app?vid=942ebb39-b1c0-4e2a-8bd6-9132b397a7ce"},"vehicle_type_id":"4","last_reported":1731586684,"current_range_meters":36400,"station_id":"ce4bho12rcd13ifvqh1g","pricing_plan_id":"cebpf4jnsgd1na2vs0mg"},{"bike_id":"7993481c-6af9-41f2-9bac-c327a53be150","system_id":"levelo_inurba_marseille","lat":43.23155,"lon":5.43702,"is_reserved":false,"is_disabled":false,"rental_uris":{"android":"levelo://app?vid=7993481c-6af9-41f2-9bac-c327a53be150","ios":"levelo://app?vid=7993481c-6af9-41f2-9bac-c327a53be150"},"vehicle_type_id":"4","last_reported":1731586684,"current_range_meters":38000,"station_id":"ce4bhmp2rcd13ifvqgog","pricing_plan_id":"cebpf4jnsgd1na2vs0mg"},{"bike_id":"ebd4f46e-4628-4e08-88d8-cf16e0481613","system_id":"levelo_inurba_marseille","lat":43.29935,"lon":5.38488,"is_reserved":false,"is_disabled":false,"rental_uris":{"android":"levelo://app?vid=ebd4f46e-4628-4e08-88d8-cf16e0481613","ios":"levelo://app?vid=ebd4f46e-4628-4e08-88d8-cf16e0481613"},"vehicle_type_id":"4","last_reported":1731586684,"current_range_meters":6000,"station_id":"ce4bgkp2rcd13ifvqbmg","pricing_plan_id":"cebpf4jnsgd1na2vs0mg"},{"bike_id":"4f403e37-a8c3-4d70-a9e9-789f448b0b15","system_id":"levelo_inurba_marseille","lat":43.31992,"lon":5.3817,"is_reserved":false,"is_disabled":false,"rental_uris":{"android":"levelo://app?vid=4f403e37-a8c3-4d70-a9e9-789f448b0b15","ios":"levelo://app?vid=4f403e37-a8c3-4d70-a9e9-789f448b0b15"},"vehicle_type_id":"4","last_reported":1731586684,"current_range_meters":24400,"station_id":"ce4bhr12rcd13ifvqhpg","pricing_plan_id":"cebpf4jnsgd1na2vs0mg"},{"bike_id":"9349eebe-93fd-472c-91d4-00e053b1829b","system_id":"levelo_inurba_marseille","lat":43.24387,"lon":5.37063,"is_reserved":false,"is_disabled":false,"rental_uris":{"android":"levelo://app?vid=9349eebe-93fd-472c-91d4-00e053b1829b","ios":"levelo://app?vid=9349eebe-93fd-472c-91d4-00e053b1829b"},"vehicle_type_id":"4","last_reported":1731586684,"current_range_meters":16800,"station_id":"ce4bhhh2rcd13ifvqfk0","pricing_plan_id":"cebpf4jnsgd1na2vs0mg"},{"bike_id":"4177f19e-c06c-4fc9-9298-1dc4da1c18f8","system_id":"levelo_inurba_marseille","lat":43.28077,"lon":5.39657,"is_reserved":false,"is_disabled":false,"rental_uris":{"android":"levelo://app?vid=4177f19e-c06c-4fc9-9298-1dc4da1c18f8","ios":"levelo://app?vid=4177f19e-c06c-4fc9-9298-1dc4da1c18f8"},"vehicle_type_id":"4","last_reported":1731586684,"current_range_meters":4400,"station_id":"ce4bho12rcd13ifvqh2g","pricing_plan_id":"cebpf4jnsgd1na2vs0mg"},{"bike_id":"bef30feb-cc3e-413b-a285-e3755e78a5a5","system_id":"levelo_inurba_marseille","lat":43.29146,"lon":5.38746,"is_reserved":false,"is_disabled":false,"rental_uris":{"android":"levelo://app?vid=bef30feb-cc3e-413b-a285-e3755e78a5a5","ios":"levelo://app?vid=bef30feb-cc3e-413b-a285-e3755e78a5a5"},"vehicle_type_id":"4","last_reported":1731586684,"current_range_meters":30800,"station_id":"","pricing_plan_id":"cebpf4jnsgd1na2vs0mg"},{"bike_id":"96352786-b953-4b6d-96b3-5df619023394","system_id":"levelo_inurba_marseille","lat":43.313485,"lon":5.367096,"is_reserved":false,"is_disabled":false,"rental_uris":{"android":"levelo://app?vid=96352786-b953-4b6d-96b3-5df619023394","ios":"levelo://app?vid=96352786-b953-4b6d-96b3-5df619023394"},"vehicle_type_id":"4","last_reported":1731586684,"current_range_meters":5600,"station_id":"ce4bgr92rcd13ifvqc6g","pricing_plan_id":"cebpf4jnsgd1na2vs0mg"},{"bike_id":"4b0c5f0c-e1e0-486f-956e-a3d4d03ca077","system_id":"levelo_inurba_marseille","lat":43.27814,"lon":5.40709,"is_reserved":false,"is_disabled":false,"rental_uris":{"android":"levelo://app?vid=4b0c5f0c-e1e0-486f-956e-a3d4d03ca077","ios":"levelo://app?vid=4b0c5f0c-e1e0-486f-956e-a3d4d03ca077"},"vehicle_type_id":"4","last_reported":1731586684,"current_range_meters":39200,"station_id":"ce4bhnh2rcd13ifvqgtg","pricing_plan_id":"cebpf4jnsgd1na2vs0mg"},{"bike_id":"d1de8638-bffd-4be4-ae10-3dd7a5d6ff38","system_id":"levelo_inurba_marseille","lat":43.30552,"lon":5.36701,"is_reserved":false,"is_disabled":false,"rental_uris":{"android":"levelo://app?vid=d1de8638-bffd-4be4-ae10-3dd7a5d6ff38","ios":"levelo://app?vid=d1de8638-bffd-4be4-ae10-3dd7a5d6ff38"},"vehicle_type_id":"4","last_reported":1731586684,"current_range_meters":6800,"station_id":"ce4bgrp2rcd13ifvqc9g","pricing_plan_id":"cebpf4jnsgd1na2vs0mg"},{"bike_id":"37212eb8-cfa6-47ba-9ed7-bfed51287466","system_id":"levelo_inurba_marseille","lat":43.31451,"lon":5.3734,"is_reserved":false,"is_disabled":false,"rental_uris":{"android":"levelo://app?vid=37212eb8-cfa6-47ba-9ed7-bfed51287466","ios":"levelo://app?vid=37212eb8-cfa6-47ba-9ed7-bfed51287466"},"vehicle_type_id":"4","last_reported":1731586684,"current_range_meters":38400,"station_id":"ce4bgt12rcd13ifvqcd0","pricing_plan_id":"cebpf4jnsgd1na2vs0mg"},{"bike_id":"84055cf7-e10e-4e42-90eb-74a91ae20092","system_id":"levelo_inurba_marseille","lat":43.24167,"lon":5.36391,"is_reserved":false,"is_disabled":false,"rental_uris":{"android":"levelo://app?vid=84055cf7-e10e-4e42-90eb-74a91ae20092","ios":"levelo://app?vid=84055cf7-e10e-4e42-90eb-74a91ae20092"},"vehicle_type_id":"4","last_reported":1731586684,"current_range_meters":25200,"station_id":"cpo36qri1sfpv3e86is0","pricing_plan_id":"cebpf4jnsgd1na2vs0mg"},{"bike_id":"4db793e0-8a24-4168-97ab-81eea9bbda9d","system_id":"levelo_inurba_marseille","lat":43.312182,"lon":5.368563,"is_reserved":false,"is_disabled":false,"rental_uris":{"android":"levelo://app?vid=4db793e0-8a24-4168-97ab-81eea9bbda9d","ios":"levelo://app?vid=4db793e0-8a24-4168-97ab-81eea9bbda9d"},"vehicle_type_id":"4","last_reported":1731586684,"current_range_meters":38000,"station_id":"ce4bgl92rcd13ifvqbq0","pricing_plan_id":"cebpf4jnsgd1na2vs0mg"},{"bike_id":"bef7ca68-0ccd-456c-a245-4471193ed987","system_id":"levelo_inurba_marseille","lat":43.26052,"lon":5.39401,"is_reserved":false,"is_disabled":false,"rental_uris":{"android":"levelo://app?vid=bef7ca68-0ccd-456c-a245-4471193ed987","ios":"levelo://app?vid=bef7ca68-0ccd-456c-a245-4471193ed987"},"vehicle_type_id":"4","last_reported":1731586684,"current_range_meters":27600,"station_id":"ce4bhh92rcd13ifvqfj0","pricing_plan_id":"cebpf4jnsgd1na2vs0mg"},{"bike_id":"af9f8d8d-cf01-4264-b3ce-d8c901dbf55c","system_id":"levelo_inurba_marseille","lat":43.27818,"lon":5.4071,"is_reserved":false,"is_disabled":false,"rental_uris":{"android":"levelo://app?vid=af9f8d8d-cf01-4264-b3ce-d8c901dbf55c","ios":"levelo://app?vid=af9f8d8d-cf01-4264-b3ce-d8c901dbf55c"},"vehicle_type_id":"4","last_reported":1731586684,"current_range_meters":12000,"station_id":"ce4bhnh2rcd13ifvqgtg","pricing_plan_id":"cebpf4jnsgd1na2vs0mg"},{"bike_id":"a8309f22-6b23-44b6-8cae-c8da391143bd","system_id":"levelo_inurba_marseille","lat":43.29971,"lon":5.37176,"is_reserved":false,"is_disabled":false,"rental_uris":{"android":"levelo://app?vid=a8309f22-6b23-44b6-8cae-c8da391143bd","ios":"levelo://app?vid=a8309f22-6b23-44b6-8cae-c8da391143bd"},"vehicle_type_id":"4","last_reported":1731586684,"current_range_meters":27600,"station_id":"ce4bgr92rcd13ifvqc7g","pricing_plan_id":"cebpf4jnsgd1na2vs0mg"},{"bike_id":"2c6a7996-be41-4371-b5ba-90d26258105b","system_id":"levelo_inurba_marseille","lat":43.24075,"lon":5.37759,"is_reserved":false,"is_disabled":false,"rental_uris":{"android":"levelo://app?vid=2c6a7996-be41-4371-b5ba-90d26258105b","ios":"levelo://app?vid=2c6a7996-be41-4371-b5ba-90d26258105b"},"vehicle_type_id":"4","last_reported":1731586684,"current_range_meters":16800,"station_id":"ce4bhnp2rcd13ifvqgvg","pricing_plan_id":"cebpf4jnsgd1na2vs0mg"},{"bike_id":"af79f849-a358-42b9-b75e-08fc8e145409","system_id":"levelo_inurba_marseille","lat":43.29023,"lon":5.36872,"is_reserved":false,"is_disabled":false,"rental_uris":{"android":"levelo://app?vid=af79f849-a358-42b9-b75e-08fc8e145409","ios":"levelo://app?vid=af79f849-a358-42b9-b75e-08fc8e145409"},"vehicle_type_id":"4","last_reported":1731586684,"current_range_meters":30000,"station_id":"ce4bh9p2rcd13ifvqec0","pricing_plan_id":"cebpf4jnsgd1na2vs0mg"},{"bike_id":"76ce7cae-8cce-443a-a0cd-8795a4167d7d","system_id":"levelo_inurba_marseille","lat":43.26815,"lon":5.40258,"is_reserved":false,"is_disabled":false,"rental_uris":{"android":"levelo://app?vid=76ce7cae-8cce-443a-a0cd-8795a4167d7d","ios":"levelo://app?vid=76ce7cae-8cce-443a-a0cd-8795a4167d7d"},"vehicle_type_id":"4","last_reported":1731586684,"current_range_meters":38000,"station_id":"ce501612rcd8frsf0b60","pricing_plan_id":"cebpf4jnsgd1na2vs0mg"},{"bike_id":"6cd6cd57-0685-4d87-903a-571cb9380930","system_id":"levelo_inurba_marseille","lat":43.23183,"lon":5.39981,"is_reserved":false,"is_disabled":false,"rental_uris":{"android":"levelo://app?vid=6cd6cd57-0685-4d87-903a-571cb9380930","ios":"levelo://app?vid=6cd6cd57-0685-4d87-903a-571cb9380930"},"vehicle_type_id":"4","last_reported":1731586684,"current_range_meters":36800,"station_id":"ce4bhn12rcd13ifvqgqg","pricing_plan_id":"cebpf4jnsgd1na2vs0mg"},{"bike_id":"7c9b8995-ac96-4708-b4eb-b4b17631b9d8","system_id":"levelo_inurba_marseille","lat":43.337444,"lon":5.374475,"is_reserved":false,"is_disabled":false,"rental_uris":{"android":"levelo://app?vid=7c9b8995-ac96-4708-b4eb-b4b17631b9d8","ios":"levelo://app?vid=7c9b8995-ac96-4708-b4eb-b4b17631b9d8"},"vehicle_type_id":"4","last_reported":1731586684,"current_range_meters":33200,"station_id":"","pricing_plan_id":"cebpf4jnsgd1na2vs0mg"},{"bike_id":"71ae68da-e36e-4e27-836d-32e8199181c7","system_id":"levelo_inurba_marseille","lat":43.28342,"lon":5.38106,"is_reserved":false,"is_disabled":false,"rental_uris":{"android":"levelo://app?vid=71ae68da-e36e-4e27-836d-32e8199181c7","ios":"levelo://app?vid=71ae68da-e36e-4e27-836d-32e8199181c7"},"vehicle_type_id":"4","last_reported":1731586684,"current_range_meters":35600,"station_id":"ce4bh412rcd13ifvqdr0","pricing_plan_id":"cebpf4jnsgd1na2vs0mg"},{"bike_id":"9571fd97-c0fe-4a0a-a188-293db4f2b9c7","system_id":"levelo_inurba_marseille","lat":43.23154,"lon":5.43704,"is_reserved":false,"is_disabled":false,"rental_uris":{"android":"levelo://app?vid=9571fd97-c0fe-4a0a-a188-293db4f2b9c7","ios":"levelo://app?vid=9571fd97-c0fe-4a0a-a188-293db4f2b9c7"},"vehicle_type_id":"4","last_reported":1731586684,"current_range_meters":38400,"station_id":"ce4bhmp2rcd13ifvqgog","pricing_plan_id":"cebpf4jnsgd1na2vs0mg"},{"bike_id":"7112ae4f-b60c-4e95-a6a6-bbf850d5e002","system_id":"levelo_inurba_marseille","lat":43.27946,"lon":5.41035,"is_reserved":false,"is_disabled":false,"rental_uris":{"android":"levelo://app?vid=7112ae4f-b60c-4e95-a6a6-bbf850d5e002","ios":"levelo://app?vid=7112ae4f-b60c-4e95-a6a6-bbf850d5e002"},"vehicle_type_id":"4","last_reported":1731586684,"current_range_meters":38800,"station_id":"ce4bhnp2rcd13ifvqh0g","pricing_plan_id":"cebpf4jnsgd1na2vs0mg"},{"bike_id":"f1884f91-e425-436c-a9e5-ba8e349da851","system_id":"levelo_inurba_marseille","lat":43.296204,"lon":5.390709,"is_reserved":false,"is_disabled":false,"rental_uris":{"android":"levelo://app?vid=f1884f91-e425-436c-a9e5-ba8e349da851","ios":"levelo://app?vid=f1884f91-e425-436c-a9e5-ba8e349da851"},"vehicle_type_id":"4","last_reported":1731586684,"current_range_meters":5600,"station_id":"ce4bhbp2rcd13ifvqerg","pricing_plan_id":"cebpf4jnsgd1na2vs0mg"},{"bike_id":"8d06e41d-acbb-422d-9c3f-49462f4119df","system_id":"levelo_inurba_marseille","lat":43.33765,"lon":5.37451,"is_reserved":false,"is_disabled":false,"rental_uris":{"android":"levelo://app?vid=8d06e41d-acbb-422d-9c3f-49462f4119df","ios":"levelo://app?vid=8d06e41d-acbb-422d-9c3f-49462f4119df"},"vehicle_type_id":"4","last_reported":1731586684,"current_range_meters":22800,"station_id":"","pricing_plan_id":"cebpf4jnsgd1na2vs0mg"},{"bike_id":"a592f289-7c17-4820-9105-4cfe6872b948","system_id":"levelo_inurba_marseille","lat":43.28148,"lon":5.42641,"is_reserved":false,"is_disabled":false,"rental_uris":{"android":"levelo://app?vid=a592f289-7c17-4820-9105-4cfe6872b948","ios":"levelo://app?vid=a592f289-7c17-4820-9105-4cfe6872b948"},"vehicle_type_id":"4","last_reported":1731586684,"current_range_meters":36800,"station_id":"ce4bhnh2rcd13ifvqgug","pricing_plan_id":"cebpf4jnsgd1na2vs0mg"},{"bike_id":"5fcf0b0a-1c96-4f2a-bab7-01f1f4d82dde","system_id":"levelo_inurba_marseille","lat":43.23155,"lon":5.43706,"is_reserved":false,"is_disabled":false,"rental_uris":{"android":"levelo://app?vid=5fcf0b0a-1c96-4f2a-bab7-01f1f4d82dde","ios":"levelo://app?vid=5fcf0b0a-1c96-4f2a-bab7-01f1f4d82dde"},"vehicle_type_id":"4","last_reported":1731586684,"current_range_meters":32400,"station_id":"ce4bhmp2rcd13ifvqgog","pricing_plan_id":"cebpf4jnsgd1na2vs0mg"},{"bike_id":"0feb10e9-66f2-4734-bda0-be1871256693","system_id":"levelo_inurba_marseille","lat":43.27943,"lon":5.41047,"is_reserved":false,"is_disabled":false,"rental_uris":{"android":"levelo://app?vid=0feb10e9-66f2-4734-bda0-be1871256693","ios":"levelo://app?vid=0feb10e9-66f2-4734-bda0-be1871256693"},"vehicle_type_id":"4","last_reported":1731586684,"current_range_meters":10800,"station_id":"ce4bhnp2rcd13ifvqh0g","pricing_plan_id":"cebpf4jnsgd1na2vs0mg"},{"bike_id":"ee5e3601-b138-4f31-a00f-099dd96e44f1","system_id":"levelo_inurba_marseille","lat":43.309573,"lon":5.390168,"is_reserved":false,"is_disabled":false,"rental_uris":{"android":"levelo://app?vid=ee5e3601-b138-4f31-a00f-099dd96e44f1","ios":"levelo://app?vid=ee5e3601-b138-4f31-a00f-099dd96e44f1"},"vehicle_type_id":"4","last_reported":1731586684,"current_range_meters":38800,"station_id":"ce4bgup2rcd13ifvqco0","pricing_plan_id":"cebpf4jnsgd1na2vs0mg"},{"bike_id":"3847d777-0100-4341-96cf-84edf05a3123","system_id":"levelo_inurba_marseille","lat":43.29189,"lon":5.39317,"is_reserved":false,"is_disabled":false,"rental_uris":{"android":"levelo://app?vid=3847d777-0100-4341-96cf-84edf05a3123","ios":"levelo://app?vid=3847d777-0100-4341-96cf-84edf05a3123"},"vehicle_type_id":"4","last_reported":1731586684,"current_range_meters":19600,"station_id":"ce4bh192rcd13ifvqdd0","pricing_plan_id":"cebpf4jnsgd1na2vs0mg"},{"bike_id":"c3b9ced7-2951-4845-9c00-c49c8c3e851f","system_id":"levelo_inurba_marseille","lat":43.27691,"lon":5.38892,"is_reserved":false,"is_disabled":false,"rental_uris":{"android":"levelo://app?vid=c3b9ced7-2951-4845-9c00-c49c8c3e851f","ios":"levelo://app?vid=c3b9ced7-2951-4845-9c00-c49c8c3e851f"},"vehicle_type_id":"4","last_reported":1731586684,"current_range_meters":38800,"station_id":"ce4bhi12rcd13ifvqfo0","pricing_plan_id":"cebpf4jnsgd1na2vs0mg"},{"bike_id":"7209a431-5b18-4e7f-96ac-76d12a1bd180","system_id":"levelo_inurba_marseille","lat":43.29984,"lon":5.37169,"is_reserved":false,"is_disabled":false,"rental_uris":{"android":"levelo://app?vid=7209a431-5b18-4e7f-96ac-76d12a1bd180","ios":"levelo://app?vid=7209a431-5b18-4e7f-96ac-76d12a1bd180"},"vehicle_type_id":"4","last_reported":1731586684,"current_range_meters":14000,"station_id":"ce4bgr92rcd13ifvqc7g","pricing_plan_id":"cebpf4jnsgd1na2vs0mg"},{"bike_id":"4bbaf73d-fc2a-4e45-a669-e4b5032ca381","system_id":"levelo_inurba_marseille","lat":43.28268,"lon":5.35069,"is_reserved":false,"is_disabled":false,"rental_uris":{"android":"levelo://app?vid=4bbaf73d-fc2a-4e45-a669-e4b5032ca381","ios":"levelo://app?vid=4bbaf73d-fc2a-4e45-a669-e4b5032ca381"},"vehicle_type_id":"4","last_reported":1731586684,"current_range_meters":38800,"station_id":"ce4bhbp2rcd13ifvqerg","pricing_plan_id":"cebpf4jnsgd1na2vs0mg"},{"bike_id":"2ba01715-3170-4a7e-ae00-4a8868ac1042","system_id":"levelo_inurba_marseille","lat":43.25088,"lon":5.39512,"is_reserved":false,"is_disabled":false,"rental_uris":{"android":"levelo://app?vid=2ba01715-3170-4a7e-ae00-4a8868ac1042","ios":"levelo://app?vid=2ba01715-3170-4a7e-ae00-4a8868ac1042"},"vehicle_type_id":"4","last_reported":1731586684,"current_range_meters":28800,"station_id":"ce4bhm12rcd13ifvqgkg","pricing_plan_id":"cebpf4jnsgd1na2vs0mg"},{"bike_id":"f844c1d9-caa1-48fb-8595-7f781e4b2806","system_id":"levelo_inurba_marseille","lat":43.23151,"lon":5.43714,"is_reserved":false,"is_disabled":false,"rental_uris":{"android":"levelo://app?vid=f844c1d9-caa1-48fb-8595-7f781e4b2806","ios":"levelo://app?vid=f844c1d9-caa1-48fb-8595-7f781e4b2806"},"vehicle_type_id":"4","last_reported":1731586684,"current_range_meters":9600,"station_id":"ce4bhmp2rcd13ifvqgog","pricing_plan_id":"cebpf4jnsgd1na2vs0mg"},{"bike_id":"fa43c577-dabf-40f4-ae90-67e8f2f51a03","system_id":"levelo_inurba_marseille","lat":43.2558,"lon":5.38226,"is_reserved":false,"is_disabled":false,"rental_uris":{"android":"levelo://app?vid=fa43c577-dabf-40f4-ae90-67e8f2f51a03","ios":"levelo://app?vid=fa43c577-dabf-40f4-ae90-67e8f2f51a03"},"vehicle_type_id":"4","last_reported":1731586684,"current_range_meters":17200,"station_id":"ce4bhih2rcd13ifvqfs0","pricing_plan_id":"cebpf4jnsgd1na2vs0mg"},{"bike_id":"890394d9-d027-42d8-8d4b-306c8879b0e0","system_id":"levelo_inurba_marseille","lat":43.337444,"lon":5.374475,"is_reserved":false,"is_disabled":false,"rental_uris":{"android":"levelo://app?vid=890394d9-d027-42d8-8d4b-306c8879b0e0","ios":"levelo://app?vid=890394d9-d027-42d8-8d4b-306c8879b0e0"},"vehicle_type_id":"4","last_reported":1731586684,"current_range_meters":34000,"station_id":"","pricing_plan_id":"cebpf4jnsgd1na2vs0mg"},{"bike_id":"56187ec8-356e-4a20-81f7-858821cd03f2","system_id":"levelo_inurba_marseille","lat":43.32541,"lon":5.4142,"is_reserved":false,"is_disabled":false,"rental_uris":{"android":"levelo://app?vid=56187ec8-356e-4a20-81f7-858821cd03f2","ios":"levelo://app?vid=56187ec8-356e-4a20-81f7-858821cd03f2"},"vehicle_type_id":"4","last_reported":1731586684,"current_range_meters":16800,"station_id":"ce4bhq12rcd13ifvqhhg","pricing_plan_id":"cebpf4jnsgd1na2vs0mg"},{"bike_id":"e00b09e7-a5a6-4713-aa04-f6a5455df303","system_id":"levelo_inurba_marseille","lat":43.27944,"lon":5.41041,"is_reserved":false,"is_disabled":false,"rental_uris":{"android":"levelo://app?vid=e00b09e7-a5a6-4713-aa04-f6a5455df303","ios":"levelo://app?vid=e00b09e7-a5a6-4713-aa04-f6a5455df303"},"vehicle_type_id":"4","last_reported":1731586684,"current_range_meters":31200,"station_id":"ce4bhnp2rcd13ifvqh0g","pricing_plan_id":"cebpf4jnsgd1na2vs0mg"},{"bike_id":"d64789a5-6f7a-491a-b16a-1ea1a1a93312","system_id":"levelo_inurba_marseille","lat":43.30788,"lon":5.37651,"is_reserved":false,"is_disabled":false,"rental_uris":{"android":"levelo://app?vid=d64789a5-6f7a-491a-b16a-1ea1a1a93312","ios":"levelo://app?vid=d64789a5-6f7a-491a-b16a-1ea1a1a93312"},"vehicle_type_id":"4","last_reported":1731586684,"current_range_meters":28000,"station_id":"ce4bgv92rcd13ifvqcq0","pricing_plan_id":"cebpf4jnsgd1na2vs0mg"},{"bike_id":"7b26391e-23df-41d9-9842-230b8e859c34","system_id":"levelo_inurba_marseille","lat":43.23145,"lon":5.43711,"is_reserved":false,"is_disabled":false,"rental_uris":{"android":"levelo://app?vid=7b26391e-23df-41d9-9842-230b8e859c34","ios":"levelo://app?vid=7b26391e-23df-41d9-9842-230b8e859c34"},"vehicle_type_id":"4","last_reported":1731586684,"current_range_meters":36000,"station_id":"ce4bhmp2rcd13ifvqgog","pricing_plan_id":"cebpf4jnsgd1na2vs0mg"},{"bike_id":"0e1e0285-49db-43e4-b1d6-60fffa1a5238","system_id":"levelo_inurba_marseille","lat":43.28072,"lon":5.39665,"is_reserved":false,"is_disabled":false,"rental_uris":{"android":"levelo://app?vid=0e1e0285-49db-43e4-b1d6-60fffa1a5238","ios":"levelo://app?vid=0e1e0285-49db-43e4-b1d6-60fffa1a5238"},"vehicle_type_id":"4","last_reported":1731586684,"current_range_meters":8800,"station_id":"ce4bho12rcd13ifvqh2g","pricing_plan_id":"cebpf4jnsgd1na2vs0mg"},{"bike_id":"7181b2ff-e1ca-4a92-afe5-4a32023da39b","system_id":"levelo_inurba_marseille","lat":43.30318,"lon":5.36903,"is_reserved":false,"is_disabled":false,"rental_uris":{"android":"levelo://app?vid=7181b2ff-e1ca-4a92-afe5-4a32023da39b","ios":"levelo://app?vid=7181b2ff-e1ca-4a92-afe5-4a32023da39b"},"vehicle_type_id":"4","last_reported":1731586684,"current_range_meters":9600,"station_id":"ce4bgqh2rcd13ifvqc5g","pricing_plan_id":"cebpf4jnsgd1na2vs0mg"},{"bike_id":"fedf7211-1df0-4c7e-b1fa-98318edae844","system_id":"levelo_inurba_marseille","lat":43.30135,"lon":5.38072,"is_reserved":false,"is_disabled":false,"rental_uris":{"android":"levelo://app?vid=fedf7211-1df0-4c7e-b1fa-98318edae844","ios":"levelo://app?vid=fedf7211-1df0-4c7e-b1fa-98318edae844"},"vehicle_type_id":"4","last_reported":1731586684,"current_range_meters":38000,"station_id":"ce4bgjp2rcd13ifvqbh0","pricing_plan_id":"cebpf4jnsgd1na2vs0mg"},{"bike_id":"07ee4904-f535-458a-b0b5-2f7426ce7969","system_id":"levelo_inurba_marseille","lat":43.24079,"lon":5.37747,"is_reserved":false,"is_disabled":false,"rental_uris":{"android":"levelo://app?vid=07ee4904-f535-458a-b0b5-2f7426ce7969","ios":"levelo://app?vid=07ee4904-f535-458a-b0b5-2f7426ce7969"},"vehicle_type_id":"4","last_reported":1731586684,"current_range_meters":7200,"station_id":"ce4bhnp2rcd13ifvqgvg","pricing_plan_id":"cebpf4jnsgd1na2vs0mg"},{"bike_id":"158dba1c-26d3-4e0d-9842-cfb17131a03e","system_id":"levelo_inurba_marseille","lat":43.29907,"lon":5.38124,"is_reserved":false,"is_disabled":false,"rental_uris":{"android":"levelo://app?vid=158dba1c-26d3-4e0d-9842-cfb17131a03e","ios":"levelo://app?vid=158dba1c-26d3-4e0d-9842-cfb17131a03e"},"vehicle_type_id":"4","last_reported":1731586684,"current_range_meters":28800,"station_id":"ce4bgj12rcd13ifvqbc0","pricing_plan_id":"cebpf4jnsgd1na2vs0mg"},{"bike_id":"8aa67a89-0dc6-4b92-b9d3-266a6f0ca2c6","system_id":"levelo_inurba_marseille","lat":43.305317,"lon":5.36699,"is_reserved":false,"is_disabled":false,"rental_uris":{"android":"levelo://app?vid=8aa67a89-0dc6-4b92-b9d3-266a6f0ca2c6","ios":"levelo://app?vid=8aa67a89-0dc6-4b92-b9d3-266a6f0ca2c6"},"vehicle_type_id":"4","last_reported":1731586684,"current_range_meters":39200,"station_id":"ce4bgrp2rcd13ifvqc9g","pricing_plan_id":"cebpf4jnsgd1na2vs0mg"},{"bike_id":"b277c41c-d8d5-4885-a3cd-df7609bf9100","system_id":"levelo_inurba_marseille","lat":43.30213,"lon":5.39465,"is_reserved":false,"is_disabled":false,"rental_uris":{"android":"levelo://app?vid=b277c41c-d8d5-4885-a3cd-df7609bf9100","ios":"levelo://app?vid=b277c41c-d8d5-4885-a3cd-df7609bf9100"},"vehicle_type_id":"4","last_reported":1731586684,"current_range_meters":24000,"station_id":"ce4bh0p2rcd13ifvqd70","pricing_plan_id":"cebpf4jnsgd1na2vs0mg"},{"bike_id":"a6664e8b-d7e8-42bb-a34e-fc702e657c3c","system_id":"levelo_inurba_marseille","lat":43.3078,"lon":5.37654,"is_reserved":false,"is_disabled":false,"rental_uris":{"android":"levelo://app?vid=a6664e8b-d7e8-42bb-a34e-fc702e657c3c","ios":"levelo://app?vid=a6664e8b-d7e8-42bb-a34e-fc702e657c3c"},"vehicle_type_id":"4","last_reported":1731586684,"current_range_meters":38800,"station_id":"ce4bgv92rcd13ifvqcq0","pricing_plan_id":"cebpf4jnsgd1na2vs0mg"},{"bike_id":"afb8b4e9-41ca-4ecb-82f6-539a067b1cb8","system_id":"levelo_inurba_marseille","lat":43.29163,"lon":5.37159,"is_reserved":false,"is_disabled":false,"rental_uris":{"android":"levelo://app?vid=afb8b4e9-41ca-4ecb-82f6-539a067b1cb8","ios":"levelo://app?vid=afb8b4e9-41ca-4ecb-82f6-539a067b1cb8"},"vehicle_type_id":"4","last_reported":1731586684,"current_range_meters":19200,"station_id":"ce4bha92rcd13ifvqeh0","pricing_plan_id":"cebpf4jnsgd1na2vs0mg"},{"bike_id":"b761fbf5-2bb8-4246-8985-7f4acd907d8e","system_id":"levelo_inurba_marseille","lat":43.29682,"lon":5.373,"is_reserved":false,"is_disabled":false,"rental_uris":{"android":"levelo://app?vid=b761fbf5-2bb8-4246-8985-7f4acd907d8e","ios":"levelo://app?vid=b761fbf5-2bb8-4246-8985-7f4acd907d8e"},"vehicle_type_id":"4","last_reported":1731586684,"current_range_meters":38000,"station_id":"ce4bgk12rcd13ifvqbj0","pricing_plan_id":"cebpf4jnsgd1na2vs0mg"},{"bike_id":"6a6ea60f-2251-4c20-a3fd-b8dbfc3cb31a","system_id":"levelo_inurba_marseille","lat":43.33764,"lon":5.37473,"is_reserved":false,"is_disabled":false,"rental_uris":{"android":"levelo://app?vid=6a6ea60f-2251-4c20-a3fd-b8dbfc3cb31a","ios":"levelo://app?vid=6a6ea60f-2251-4c20-a3fd-b8dbfc3cb31a"},"vehicle_type_id":"4","last_reported":1731586684,"current_range_meters":35200,"station_id":"","pricing_plan_id":"cebpf4jnsgd1na2vs0mg"},{"bike_id":"2868211a-801a-40e9-87f4-374361291305","system_id":"levelo_inurba_marseille","lat":43.28155,"lon":5.42648,"is_reserved":false,"is_disabled":false,"rental_uris":{"android":"levelo://app?vid=2868211a-801a-40e9-87f4-374361291305","ios":"levelo://app?vid=2868211a-801a-40e9-87f4-374361291305"},"vehicle_type_id":"4","last_reported":1731586684,"current_range_meters":26800,"station_id":"ce4bhnh2rcd13ifvqgug","pricing_plan_id":"cebpf4jnsgd1na2vs0mg"},{"bike_id":"e29f90f1-17a9-449f-989c-37480ccfb0f7","system_id":"levelo_inurba_marseille","lat":43.27166,"lon":5.40983,"is_reserved":false,"is_disabled":false,"rental_uris":{"android":"levelo://app?vid=e29f90f1-17a9-449f-989c-37480ccfb0f7","ios":"levelo://app?vid=e29f90f1-17a9-449f-989c-37480ccfb0f7"},"vehicle_type_id":"4","last_reported":1731586684,"current_range_meters":3600,"station_id":"ce4bhl12rcd13ifvqgf0","pricing_plan_id":"cebpf4jnsgd1na2vs0mg"},{"bike_id":"1311c692-6e9d-4afb-b7b0-20686564fe7a","system_id":"levelo_inurba_marseille","lat":43.337444,"lon":5.374475,"is_reserved":false,"is_disabled":false,"rental_uris":{"android":"levelo://app?vid=1311c692-6e9d-4afb-b7b0-20686564fe7a","ios":"levelo://app?vid=1311c692-6e9d-4afb-b7b0-20686564fe7a"},"vehicle_type_id":"4","last_reported":1731586684,"current_range_meters":32800,"station_id":"","pricing_plan_id":"cebpf4jnsgd1na2vs0mg"},{"bike_id":"da761391-3718-4934-8589-a23ff8e2f1fa","system_id":"levelo_inurba_marseille","lat":43.26555,"lon":5.37277,"is_reserved":false,"is_disabled":false,"rental_uris":{"android":"levelo://app?vid=da761391-3718-4934-8589-a23ff8e2f1fa","ios":"levelo://app?vid=da761391-3718-4934-8589-a23ff8e2f1fa"},"vehicle_type_id":"4","last_reported":1731586684,"current_range_meters":37600,"station_id":"ce4bhg12rcd13ifvqf70","pricing_plan_id":"cebpf4jnsgd1na2vs0mg"},{"bike_id":"07a4be1c-5cf0-4f3e-8c27-4c3e24078daa","system_id":"levelo_inurba_marseille","lat":43.24807,"lon":5.37456,"is_reserved":false,"is_disabled":false,"rental_uris":{"android":"levelo://app?vid=07a4be1c-5cf0-4f3e-8c27-4c3e24078daa","ios":"levelo://app?vid=07a4be1c-5cf0-4f3e-8c27-4c3e24078daa"},"vehicle_type_id":"4","last_reported":1731586684,"current_range_meters":38800,"station_id":"ce4bhgh2rcd13ifvqfb0","pricing_plan_id":"cebpf4jnsgd1na2vs0mg"},{"bike_id":"9dc75a2b-efbe-4b3b-85ce-8f586f3b1405","system_id":"levelo_inurba_marseille","lat":43.31754,"lon":5.39019,"is_reserved":false,"is_disabled":false,"rental_uris":{"android":"levelo://app?vid=9dc75a2b-efbe-4b3b-85ce-8f586f3b1405","ios":"levelo://app?vid=9dc75a2b-efbe-4b3b-85ce-8f586f3b1405"},"vehicle_type_id":"4","last_reported":1731586684,"current_range_meters":28400,"station_id":"ce4bhqp2rcd13ifvqhng","pricing_plan_id":"cebpf4jnsgd1na2vs0mg"},{"bike_id":"00e5ba65-0bf1-4c3a-bef2-91f89020d7f7","system_id":"levelo_inurba_marseille","lat":43.29257,"lon":5.38264,"is_reserved":false,"is_disabled":false,"rental_uris":{"android":"levelo://app?vid=00e5ba65-0bf1-4c3a-bef2-91f89020d7f7","ios":"levelo://app?vid=00e5ba65-0bf1-4c3a-bef2-91f89020d7f7"},"vehicle_type_id":"4","last_reported":1731586684,"current_range_meters":4800,"station_id":"","pricing_plan_id":"cebpf4jnsgd1na2vs0mg"},{"bike_id":"163fe7f7-6a69-4e3f-b7b8-bd391e653884","system_id":"levelo_inurba_marseille","lat":43.29971,"lon":5.37185,"is_reserved":false,"is_disabled":false,"rental_uris":{"android":"levelo://app?vid=163fe7f7-6a69-4e3f-b7b8-bd391e653884","ios":"levelo://app?vid=163fe7f7-6a69-4e3f-b7b8-bd391e653884"},"vehicle_type_id":"4","last_reported":1731586684,"current_range_meters":27600,"station_id":"ce4bgr92rcd13ifvqc7g","pricing_plan_id":"cebpf4jnsgd1na2vs0mg"},{"bike_id":"3d513708-f95c-4cb9-828c-9df3e142d836","system_id":"levelo_inurba_marseille","lat":43.26954,"lon":5.38626,"is_reserved":false,"is_disabled":false,"rental_uris":{"android":"levelo://app?vid=3d513708-f95c-4cb9-828c-9df3e142d836","ios":"levelo://app?vid=3d513708-f95c-4cb9-828c-9df3e142d836"},"vehicle_type_id":"4","last_reported":1731586684,"current_range_meters":35600,"station_id":"ce4bhh92rcd13ifvqfh0","pricing_plan_id":"cebpf4jnsgd1na2vs0mg"},{"bike_id":"2b2995b4-0a5a-4c5e-acaa-eff7ac9a00e5","system_id":"levelo_inurba_marseille","lat":43.27323,"lon":5.39079,"is_reserved":false,"is_disabled":false,"rental_uris":{"android":"levelo://app?vid=2b2995b4-0a5a-4c5e-acaa-eff7ac9a00e5","ios":"levelo://app?vid=2b2995b4-0a5a-4c5e-acaa-eff7ac9a00e5"},"vehicle_type_id":"4","last_reported":1731586684,"current_range_meters":30800,"station_id":"ce4bhgp2rcd13ifvqfe0","pricing_plan_id":"cebpf4jnsgd1na2vs0mg"},{"bike_id":"3e4efabd-b6ee-455f-8edb-144b5b7ee1b2","system_id":"levelo_inurba_marseille","lat":43.27434,"lon":5.39413,"is_reserved":false,"is_disabled":false,"rental_uris":{"android":"levelo://app?vid=3e4efabd-b6ee-455f-8edb-144b5b7ee1b2","ios":"levelo://app?vid=3e4efabd-b6ee-455f-8edb-144b5b7ee1b2"},"vehicle_type_id":"4","last_reported":1731586684,"current_range_meters":38400,"station_id":"ce4bhdp2rcd13ifvqf20","pricing_plan_id":"cebpf4jnsgd1na2vs0mg"},{"bike_id":"177abea4-0407-4b1a-882d-c4c45532ef15","system_id":"levelo_inurba_marseille","lat":43.30102,"lon":5.3824,"is_reserved":false,"is_disabled":false,"rental_uris":{"android":"levelo://app?vid=177abea4-0407-4b1a-882d-c4c45532ef15","ios":"levelo://app?vid=177abea4-0407-4b1a-882d-c4c45532ef15"},"vehicle_type_id":"4","last_reported":1731586684,"current_range_meters":38800,"station_id":"ce4bgj92rcd13ifvqbd0","pricing_plan_id":"cebpf4jnsgd1na2vs0mg"},{"bike_id":"14041b42-c763-4196-acb4-81474847f26a","system_id":"levelo_inurba_marseille","lat":43.24082,"lon":5.3775,"is_reserved":false,"is_disabled":false,"rental_uris":{"android":"levelo://app?vid=14041b42-c763-4196-acb4-81474847f26a","ios":"levelo://app?vid=14041b42-c763-4196-acb4-81474847f26a"},"vehicle_type_id":"4","last_reported":1731586684,"current_range_meters":38400,"station_id":"ce4bhnp2rcd13ifvqgvg","pricing_plan_id":"cebpf4jnsgd1na2vs0mg"},{"bike_id":"48796882-6375-44c4-9fb8-0a1cfb7173dd","system_id":"levelo_inurba_marseille","lat":43.30661,"lon":5.401084,"is_reserved":false,"is_disabled":false,"rental_uris":{"android":"levelo://app?vid=48796882-6375-44c4-9fb8-0a1cfb7173dd","ios":"levelo://app?vid=48796882-6375-44c4-9fb8-0a1cfb7173dd"},"vehicle_type_id":"4","last_reported":1731586684,"current_range_meters":8000,"station_id":"ce4bh112rcd13ifvqda0","pricing_plan_id":"cebpf4jnsgd1na2vs0mg"},{"bike_id":"2371864c-284f-40f2-86e3-82f3c9fa99d8","system_id":"levelo_inurba_marseille","lat":43.29973,"lon":5.37164,"is_reserved":false,"is_disabled":false,"rental_uris":{"android":"levelo://app?vid=2371864c-284f-40f2-86e3-82f3c9fa99d8","ios":"levelo://app?vid=2371864c-284f-40f2-86e3-82f3c9fa99d8"},"vehicle_type_id":"4","last_reported":1731586684,"current_range_meters":38800,"station_id":"ce4bgr92rcd13ifvqc7g","pricing_plan_id":"cebpf4jnsgd1na2vs0mg"},{"bike_id":"ddf5d54e-8eb4-42d1-afd4-0ef5ff9beb54","system_id":"levelo_inurba_marseille","lat":43.30518,"lon":5.38411,"is_reserved":false,"is_disabled":false,"rental_uris":{"android":"levelo://app?vid=ddf5d54e-8eb4-42d1-afd4-0ef5ff9beb54","ios":"levelo://app?vid=ddf5d54e-8eb4-42d1-afd4-0ef5ff9beb54"},"vehicle_type_id":"4","last_reported":1731586684,"current_range_meters":22800,"station_id":"ce4bgg92rcd13ifvqb30","pricing_plan_id":"cebpf4jnsgd1na2vs0mg"},{"bike_id":"0c1c0594-437c-4701-8575-348abc0a364e","system_id":"levelo_inurba_marseille","lat":43.32342,"lon":5.4063,"is_reserved":false,"is_disabled":false,"rental_uris":{"android":"levelo://app?vid=0c1c0594-437c-4701-8575-348abc0a364e","ios":"levelo://app?vid=0c1c0594-437c-4701-8575-348abc0a364e"},"vehicle_type_id":"4","last_reported":1731586684,"current_range_meters":39200,"station_id":"ce4bhq92rcd13ifvqhjg","pricing_plan_id":"cebpf4jnsgd1na2vs0mg"},{"bike_id":"bba76986-27db-4a0b-aac9-b12dd5c4e056","system_id":"levelo_inurba_marseille","lat":43.30296,"lon":5.37692,"is_reserved":false,"is_disabled":false,"rental_uris":{"android":"levelo://app?vid=bba76986-27db-4a0b-aac9-b12dd5c4e056","ios":"levelo://app?vid=bba76986-27db-4a0b-aac9-b12dd5c4e056"},"vehicle_type_id":"4","last_reported":1731586684,"current_range_meters":39200,"station_id":"ce4bguh2rcd13ifvqcj0","pricing_plan_id":"cebpf4jnsgd1na2vs0mg"},{"bike_id":"30579d2d-afec-421e-bd07-fe577ab81dba","system_id":"levelo_inurba_marseille","lat":43.337444,"lon":5.374475,"is_reserved":false,"is_disabled":false,"rental_uris":{"android":"levelo://app?vid=30579d2d-afec-421e-bd07-fe577ab81dba","ios":"levelo://app?vid=30579d2d-afec-421e-bd07-fe577ab81dba"},"vehicle_type_id":"4","last_reported":1731586684,"current_range_meters":35200,"station_id":"","pricing_plan_id":"cebpf4jnsgd1na2vs0mg"},{"bike_id":"9dc0beab-2689-48b5-8b6a-dee8d9e9397d","system_id":"levelo_inurba_marseille","lat":43.332045,"lon":5.410321,"is_reserved":false,"is_disabled":false,"rental_uris":{"android":"levelo://app?vid=9dc0beab-2689-48b5-8b6a-dee8d9e9397d","ios":"levelo://app?vid=9dc0beab-2689-48b5-8b6a-dee8d9e9397d"},"vehicle_type_id":"4","last_reported":1731586684,"current_range_meters":36800,"station_id":"ce4bgth2rcd13ifvqch0","pricing_plan_id":"cebpf4jnsgd1na2vs0mg"},{"bike_id":"0736c583-b9ba-4390-abd4-f4bf2c6cf549","system_id":"levelo_inurba_marseille","lat":43.278076,"lon":5.407462,"is_reserved":false,"is_disabled":false,"rental_uris":{"android":"levelo://app?vid=0736c583-b9ba-4390-abd4-f4bf2c6cf549","ios":"levelo://app?vid=0736c583-b9ba-4390-abd4-f4bf2c6cf549"},"vehicle_type_id":"4","last_reported":1731586684,"current_range_meters":38000,"station_id":"ce4bhnh2rcd13ifvqgtg","pricing_plan_id":"cebpf4jnsgd1na2vs0mg"},{"bike_id":"99a5d9a3-ff3d-4169-929e-98f34d8522fa","system_id":"levelo_inurba_marseille","lat":43.29031,"lon":5.37563,"is_reserved":false,"is_disabled":false,"rental_uris":{"android":"levelo://app?vid=99a5d9a3-ff3d-4169-929e-98f34d8522fa","ios":"levelo://app?vid=99a5d9a3-ff3d-4169-929e-98f34d8522fa"},"vehicle_type_id":"4","last_reported":1731586684,"current_range_meters":32800,"station_id":"ce4bh692rcd13ifvqe90","pricing_plan_id":"cebpf4jnsgd1na2vs0mg"},{"bike_id":"1bda1f07-b7d4-4dea-acbc-bba7a290c9cc","system_id":"levelo_inurba_marseille","lat":43.2985,"lon":5.36281,"is_reserved":false,"is_disabled":false,"rental_uris":{"android":"levelo://app?vid=1bda1f07-b7d4-4dea-acbc-bba7a290c9cc","ios":"levelo://app?vid=1bda1f07-b7d4-4dea-acbc-bba7a290c9cc"},"vehicle_type_id":"4","last_reported":1731586684,"current_range_meters":8000,"station_id":"ce4bgpp2rcd13ifvqc3g","pricing_plan_id":"cebpf4jnsgd1na2vs0mg"},{"bike_id":"12ee0d28-9700-48a4-8dd0-0426c98284e0","system_id":"levelo_inurba_marseille","lat":43.28351,"lon":5.38093,"is_reserved":false,"is_disabled":false,"rental_uris":{"android":"levelo://app?vid=12ee0d28-9700-48a4-8dd0-0426c98284e0","ios":"levelo://app?vid=12ee0d28-9700-48a4-8dd0-0426c98284e0"},"vehicle_type_id":"4","last_reported":1731586684,"current_range_meters":16800,"station_id":"ce4bh412rcd13ifvqdr0","pricing_plan_id":"cebpf4jnsgd1na2vs0mg"},{"bike_id":"7859a5ae-74ed-4e8a-b212-d33efeb6280b","system_id":"levelo_inurba_marseille","lat":43.31018,"lon":5.38044,"is_reserved":false,"is_disabled":false,"rental_uris":{"android":"levelo://app?vid=7859a5ae-74ed-4e8a-b212-d33efeb6280b","ios":"levelo://app?vid=7859a5ae-74ed-4e8a-b212-d33efeb6280b"},"vehicle_type_id":"4","last_reported":1731586684,"current_range_meters":10000,"station_id":"ce4bgv92rcd13ifvqcq0","pricing_plan_id":"cebpf4jnsgd1na2vs0mg"},{"bike_id":"26bb3cfd-f0ab-42c6-ad19-2f33d121180e","system_id":"levelo_inurba_marseille","lat":43.293067,"lon":5.3718,"is_reserved":false,"is_disabled":false,"rental_uris":{"android":"levelo://app?vid=26bb3cfd-f0ab-42c6-ad19-2f33d121180e","ios":"levelo://app?vid=26bb3cfd-f0ab-42c6-ad19-2f33d121180e"},"vehicle_type_id":"4","last_reported":1731586684,"current_range_meters":33200,"station_id":"ce4bgh92rcd13ifvqb40","pricing_plan_id":"cebpf4jnsgd1na2vs0mg"},{"bike_id":"e2acb56e-ee1b-472b-a334-68e12b0d531a","system_id":"levelo_inurba_marseille","lat":43.25817,"lon":5.39439,"is_reserved":false,"is_disabled":false,"rental_uris":{"android":"levelo://app?vid=e2acb56e-ee1b-472b-a334-68e12b0d531a","ios":"levelo://app?vid=e2acb56e-ee1b-472b-a334-68e12b0d531a"},"vehicle_type_id":"4","last_reported":1731586684,"current_range_meters":39200,"station_id":"ce4bhip2rcd13ifvqft0","pricing_plan_id":"cebpf4jnsgd1na2vs0mg"},{"bike_id":"0f433459-e074-4293-bfa5-3b5b113abeb1","system_id":"levelo_inurba_marseille","lat":43.33724,"lon":5.39186,"is_reserved":false,"is_disabled":false,"rental_uris":{"android":"levelo://app?vid=0f433459-e074-4293-bfa5-3b5b113abeb1","ios":"levelo://app?vid=0f433459-e074-4293-bfa5-3b5b113abeb1"},"vehicle_type_id":"4","last_reported":1731586684,"current_range_meters":37600,"station_id":"ce4bhr92rcd13ifvqhsg","pricing_plan_id":"cebpf4jnsgd1na2vs0mg"},{"bike_id":"b6bca026-1efe-4754-928d-9042ba992b22","system_id":"levelo_inurba_marseille","lat":43.28428,"lon":5.34997,"is_reserved":false,"is_disabled":false,"rental_uris":{"android":"levelo://app?vid=b6bca026-1efe-4754-928d-9042ba992b22","ios":"levelo://app?vid=b6bca026-1efe-4754-928d-9042ba992b22"},"vehicle_type_id":"4","last_reported":1731586684,"current_range_meters":36400,"station_id":"ce4bhbh2rcd13ifvqepg","pricing_plan_id":"cebpf4jnsgd1na2vs0mg"},{"bike_id":"991c362a-b115-4ff0-bcff-6cdcb54bcae7","system_id":"levelo_inurba_marseille","lat":43.2993,"lon":5.36544,"is_reserved":false,"is_disabled":false,"rental_uris":{"android":"levelo://app?vid=991c362a-b115-4ff0-bcff-6cdcb54bcae7","ios":"levelo://app?vid=991c362a-b115-4ff0-bcff-6cdcb54bcae7"},"vehicle_type_id":"4","last_reported":1731586684,"current_range_meters":36800,"station_id":"ce4bgm92rcd13ifvqbr0","pricing_plan_id":"cebpf4jnsgd1na2vs0mg"},{"bike_id":"dbd750a9-0c24-495b-8b51-27338322d10f","system_id":"levelo_inurba_marseille","lat":43.302754,"lon":5.377027,"is_reserved":false,"is_disabled":false,"rental_uris":{"android":"levelo://app?vid=dbd750a9-0c24-495b-8b51-27338322d10f","ios":"levelo://app?vid=dbd750a9-0c24-495b-8b51-27338322d10f"},"vehicle_type_id":"4","last_reported":1731586684,"current_range_meters":38800,"station_id":"ce4bguh2rcd13ifvqcj0","pricing_plan_id":"cebpf4jnsgd1na2vs0mg"},{"bike_id":"8f6e4a2d-7245-40ff-b198-73575424a862","system_id":"levelo_inurba_marseille","lat":43.25579,"lon":5.3824,"is_reserved":false,"is_disabled":false,"rental_uris":{"android":"levelo://app?vid=8f6e4a2d-7245-40ff-b198-73575424a862","ios":"levelo://app?vid=8f6e4a2d-7245-40ff-b198-73575424a862"},"vehicle_type_id":"4","last_reported":1731586684,"current_range_meters":27200,"station_id":"ce4bhih2rcd13ifvqfs0","pricing_plan_id":"cebpf4jnsgd1na2vs0mg"},{"bike_id":"b7fb8d75-d625-4c08-9dbb-f681a5ef902e","system_id":"levelo_inurba_marseille","lat":43.2991,"lon":5.37478,"is_reserved":false,"is_disabled":false,"rental_uris":{"android":"levelo://app?vid=b7fb8d75-d625-4c08-9dbb-f681a5ef902e","ios":"levelo://app?vid=b7fb8d75-d625-4c08-9dbb-f681a5ef902e"},"vehicle_type_id":"4","last_reported":1731586684,"current_range_meters":17200,"station_id":"ce4bgjh2rcd13ifvqbg0","pricing_plan_id":"cebpf4jnsgd1na2vs0mg"},{"bike_id":"b448c76e-6a85-4e4e-8af8-7d9249501502","system_id":"levelo_inurba_marseille","lat":43.337444,"lon":5.374475,"is_reserved":false,"is_disabled":false,"rental_uris":{"android":"levelo://app?vid=b448c76e-6a85-4e4e-8af8-7d9249501502","ios":"levelo://app?vid=b448c76e-6a85-4e4e-8af8-7d9249501502"},"vehicle_type_id":"4","last_reported":1731586684,"current_range_meters":32800,"station_id":"","pricing_plan_id":"cebpf4jnsgd1na2vs0mg"},{"bike_id":"27180a1a-1e8e-44cf-be67-76727484dd68","system_id":"levelo_inurba_marseille","lat":43.324309,"lon":5.388201,"is_reserved":false,"is_disabled":false,"rental_uris":{"android":"levelo://app?vid=27180a1a-1e8e-44cf-be67-76727484dd68","ios":"levelo://app?vid=27180a1a-1e8e-44cf-be67-76727484dd68"},"vehicle_type_id":"4","last_reported":1731586684,"current_range_meters":38800,"station_id":"ce4bhqp2rcd13ifvqhog","pricing_plan_id":"cebpf4jnsgd1na2vs0mg"},{"bike_id":"3ee03d1b-be56-43ca-b167-578049bf9879","system_id":"levelo_inurba_marseille","lat":43.25867,"lon":5.39889,"is_reserved":false,"is_disabled":false,"rental_uris":{"android":"levelo://app?vid=3ee03d1b-be56-43ca-b167-578049bf9879","ios":"levelo://app?vid=3ee03d1b-be56-43ca-b167-578049bf9879"},"vehicle_type_id":"4","last_reported":1731586684,"current_range_meters":16400,"station_id":"ce4bhl92rcd13ifvqghg","pricing_plan_id":"cebpf4jnsgd1na2vs0mg"},{"bike_id":"288e1e1b-b3f5-4d6f-b1aa-ecb1e6d1b9fb","system_id":"levelo_inurba_marseille","lat":43.31704,"lon":5.40452,"is_reserved":false,"is_disabled":false,"rental_uris":{"android":"levelo://app?vid=288e1e1b-b3f5-4d6f-b1aa-ecb1e6d1b9fb","ios":"levelo://app?vid=288e1e1b-b3f5-4d6f-b1aa-ecb1e6d1b9fb"},"vehicle_type_id":"4","last_reported":1731586684,"current_range_meters":38800,"station_id":"ce4bh012rcd13ifvqd00","pricing_plan_id":"cebpf4jnsgd1na2vs0mg"},{"bike_id":"414dea06-0073-498d-8e43-6a1238984f59","system_id":"levelo_inurba_marseille","lat":43.337444,"lon":5.374475,"is_reserved":false,"is_disabled":false,"rental_uris":{"android":"levelo://app?vid=414dea06-0073-498d-8e43-6a1238984f59","ios":"levelo://app?vid=414dea06-0073-498d-8e43-6a1238984f59"},"vehicle_type_id":"4","last_reported":1731586684,"current_range_meters":35200,"station_id":"","pricing_plan_id":"cebpf4jnsgd1na2vs0mg"},{"bike_id":"51f3ff22-72a4-4a3d-ad10-3115a4d0c529","system_id":"levelo_inurba_marseille","lat":43.32038,"lon":5.41535,"is_reserved":false,"is_disabled":false,"rental_uris":{"android":"levelo://app?vid=51f3ff22-72a4-4a3d-ad10-3115a4d0c529","ios":"levelo://app?vid=51f3ff22-72a4-4a3d-ad10-3115a4d0c529"},"vehicle_type_id":"4","last_reported":1731586684,"current_range_meters":13600,"station_id":"ce4bhq92rcd13ifvqhkg","pricing_plan_id":"cebpf4jnsgd1na2vs0mg"},{"bike_id":"b613702c-21b0-4c7d-8000-0fe3d104d85f","system_id":"levelo_inurba_marseille","lat":43.337444,"lon":5.374475,"is_reserved":false,"is_disabled":false,"rental_uris":{"android":"levelo://app?vid=b613702c-21b0-4c7d-8000-0fe3d104d85f","ios":"levelo://app?vid=b613702c-21b0-4c7d-8000-0fe3d104d85f"},"vehicle_type_id":"4","last_reported":1731586684,"current_range_meters":36800,"station_id":"","pricing_plan_id":"cebpf4jnsgd1na2vs0mg"},{"bike_id":"71675479-65a3-432e-900f-c13f815182ff","system_id":"levelo_inurba_marseille","lat":43.29664,"lon":5.40593,"is_reserved":false,"is_disabled":false,"rental_uris":{"android":"levelo://app?vid=71675479-65a3-432e-900f-c13f815182ff","ios":"levelo://app?vid=71675479-65a3-432e-900f-c13f815182ff"},"vehicle_type_id":"4","last_reported":1731586684,"current_range_meters":17200,"station_id":"ce4bh0h2rcd13ifvqd60","pricing_plan_id":"cebpf4jnsgd1na2vs0mg"},{"bike_id":"6e64937f-7e6e-44ad-9555-155940ed5af2","system_id":"levelo_inurba_marseille","lat":43.26027,"lon":5.37547,"is_reserved":false,"is_disabled":false,"rental_uris":{"android":"levelo://app?vid=6e64937f-7e6e-44ad-9555-155940ed5af2","ios":"levelo://app?vid=6e64937f-7e6e-44ad-9555-155940ed5af2"},"vehicle_type_id":"4","last_reported":1731586684,"current_range_meters":39200,"station_id":"ce4bhgh2rcd13ifvqfa0","pricing_plan_id":"cebpf4jnsgd1na2vs0mg"},{"bike_id":"9871243f-6d17-4845-b392-85871507fa60","system_id":"levelo_inurba_marseille","lat":43.2407,"lon":5.37767,"is_reserved":false,"is_disabled":false,"rental_uris":{"android":"levelo://app?vid=9871243f-6d17-4845-b392-85871507fa60","ios":"levelo://app?vid=9871243f-6d17-4845-b392-85871507fa60"},"vehicle_type_id":"4","last_reported":1731586684,"current_range_meters":38800,"station_id":"ce4bhnp2rcd13ifvqgvg","pricing_plan_id":"cebpf4jnsgd1na2vs0mg"},{"bike_id":"d016a293-647b-4a56-9e6a-a54a6a310cdd","system_id":"levelo_inurba_marseille","lat":43.337444,"lon":5.374475,"is_reserved":false,"is_disabled":false,"rental_uris":{"android":"levelo://app?vid=d016a293-647b-4a56-9e6a-a54a6a310cdd","ios":"levelo://app?vid=d016a293-647b-4a56-9e6a-a54a6a310cdd"},"vehicle_type_id":"4","last_reported":1731586684,"current_range_meters":37600,"station_id":"","pricing_plan_id":"cebpf4jnsgd1na2vs0mg"},{"bike_id":"bf8877aa-4e3b-4217-ae53-5d8001def350","system_id":"levelo_inurba_marseille","lat":43.32486,"lon":5.36557,"is_reserved":false,"is_disabled":false,"rental_uris":{"android":"levelo://app?vid=bf8877aa-4e3b-4217-ae53-5d8001def350","ios":"levelo://app?vid=bf8877aa-4e3b-4217-ae53-5d8001def350"},"vehicle_type_id":"4","last_reported":1731586684,"current_range_meters":22000,"station_id":"ce4bhs12rcd13ifvqhvg","pricing_plan_id":"cebpf4jnsgd1na2vs0mg"},{"bike_id":"28176f03-c382-4685-9bef-bbd69552163c","system_id":"levelo_inurba_marseille","lat":43.28731,"lon":5.37928,"is_reserved":false,"is_disabled":false,"rental_uris":{"android":"levelo://app?vid=28176f03-c382-4685-9bef-bbd69552163c","ios":"levelo://app?vid=28176f03-c382-4685-9bef-bbd69552163c"},"vehicle_type_id":"4","last_reported":1731586684,"current_range_meters":16800,"station_id":"ce4bh9p2rcd13ifvqec0","pricing_plan_id":"cebpf4jnsgd1na2vs0mg"},{"bike_id":"9845ad5a-de12-470b-831e-1d4f043b3a0c","system_id":"levelo_inurba_marseille","lat":43.2782,"lon":5.40709,"is_reserved":false,"is_disabled":false,"rental_uris":{"android":"levelo://app?vid=9845ad5a-de12-470b-831e-1d4f043b3a0c","ios":"levelo://app?vid=9845ad5a-de12-470b-831e-1d4f043b3a0c"},"vehicle_type_id":"4","last_reported":1731586684,"current_range_meters":28400,"station_id":"ce4bhnh2rcd13ifvqgtg","pricing_plan_id":"cebpf4jnsgd1na2vs0mg"},{"bike_id":"05ba761d-f694-43da-bb6c-5eb3e24e0c53","system_id":"levelo_inurba_marseille","lat":43.281082,"lon":5.37821,"is_reserved":false,"is_disabled":false,"rental_uris":{"android":"levelo://app?vid=05ba761d-f694-43da-bb6c-5eb3e24e0c53","ios":"levelo://app?vid=05ba761d-f694-43da-bb6c-5eb3e24e0c53"},"vehicle_type_id":"4","last_reported":1731586684,"current_range_meters":28400,"station_id":"ce4bha12rcd13ifvqee0","pricing_plan_id":"cebpf4jnsgd1na2vs0mg"},{"bike_id":"5c5df7f8-885c-4c12-ac25-37dfba28821f","system_id":"levelo_inurba_marseille","lat":43.28415,"lon":5.37501,"is_reserved":false,"is_disabled":false,"rental_uris":{"android":"levelo://app?vid=5c5df7f8-885c-4c12-ac25-37dfba28821f","ios":"levelo://app?vid=5c5df7f8-885c-4c12-ac25-37dfba28821f"},"vehicle_type_id":"4","last_reported":1731586684,"current_range_meters":37600,"station_id":"ce4bh412rcd13ifvqds0","pricing_plan_id":"cebpf4jnsgd1na2vs0mg"},{"bike_id":"78784f7d-82ad-46ce-89fd-625dd80324b5","system_id":"levelo_inurba_marseille","lat":43.23147,"lon":5.43719,"is_reserved":false,"is_disabled":false,"rental_uris":{"android":"levelo://app?vid=78784f7d-82ad-46ce-89fd-625dd80324b5","ios":"levelo://app?vid=78784f7d-82ad-46ce-89fd-625dd80324b5"},"vehicle_type_id":"4","last_reported":1731586684,"current_range_meters":38400,"station_id":"ce4bhmp2rcd13ifvqgog","pricing_plan_id":"cebpf4jnsgd1na2vs0mg"},{"bike_id":"643ea380-d064-4d3e-971a-51103ae572dc","system_id":"levelo_inurba_marseille","lat":43.25008,"lon":5.38916,"is_reserved":false,"is_disabled":false,"rental_uris":{"android":"levelo://app?vid=643ea380-d064-4d3e-971a-51103ae572dc","ios":"levelo://app?vid=643ea380-d064-4d3e-971a-51103ae572dc"},"vehicle_type_id":"4","last_reported":1731586684,"current_range_meters":14000,"station_id":"ce4bhgp2rcd13ifvqfd0","pricing_plan_id":"cebpf4jnsgd1na2vs0mg"},{"bike_id":"ee18b4d4-1d75-42c2-91a8-384cac15af9c","system_id":"levelo_inurba_marseille","lat":43.29526,"lon":5.38543,"is_reserved":false,"is_disabled":false,"rental_uris":{"android":"levelo://app?vid=ee18b4d4-1d75-42c2-91a8-384cac15af9c","ios":"levelo://app?vid=ee18b4d4-1d75-42c2-91a8-384cac15af9c"},"vehicle_type_id":"4","last_reported":1731586684,"current_range_meters":4400,"station_id":"ce4bgih2rcd13ifvqba0","pricing_plan_id":"cebpf4jnsgd1na2vs0mg"},{"bike_id":"3dc3b411-d166-4a64-b7c0-8eb3f98bdc69","system_id":"levelo_inurba_marseille","lat":43.29528,"lon":5.38535,"is_reserved":false,"is_disabled":false,"rental_uris":{"android":"levelo://app?vid=3dc3b411-d166-4a64-b7c0-8eb3f98bdc69","ios":"levelo://app?vid=3dc3b411-d166-4a64-b7c0-8eb3f98bdc69"},"vehicle_type_id":"4","last_reported":1731586684,"current_range_meters":6000,"station_id":"ce4bgih2rcd13ifvqba0","pricing_plan_id":"cebpf4jnsgd1na2vs0mg"},{"bike_id":"03deca09-b2e2-4cc3-862b-875f4219b8d3","system_id":"levelo_inurba_marseille","lat":43.23962,"lon":5.36627,"is_reserved":false,"is_disabled":false,"rental_uris":{"android":"levelo://app?vid=03deca09-b2e2-4cc3-862b-875f4219b8d3","ios":"levelo://app?vid=03deca09-b2e2-4cc3-862b-875f4219b8d3"},"vehicle_type_id":"4","last_reported":1731586684,"current_range_meters":24000,"station_id":"ce4bhi12rcd13ifvqfp0","pricing_plan_id":"cebpf4jnsgd1na2vs0mg"},{"bike_id":"adf4d974-36ee-4a8b-a466-bf5f174a5259","system_id":"levelo_inurba_marseille","lat":43.28347,"lon":5.38099,"is_reserved":false,"is_disabled":false,"rental_uris":{"android":"levelo://app?vid=adf4d974-36ee-4a8b-a466-bf5f174a5259","ios":"levelo://app?vid=adf4d974-36ee-4a8b-a466-bf5f174a5259"},"vehicle_type_id":"4","last_reported":1731586684,"current_range_meters":32400,"station_id":"ce4bh412rcd13ifvqdr0","pricing_plan_id":"cebpf4jnsgd1na2vs0mg"},{"bike_id":"0dee7378-8700-4be4-93db-4e24d320a8f0","system_id":"levelo_inurba_marseille","lat":43.29929,"lon":5.37468,"is_reserved":false,"is_disabled":false,"rental_uris":{"android":"levelo://app?vid=0dee7378-8700-4be4-93db-4e24d320a8f0","ios":"levelo://app?vid=0dee7378-8700-4be4-93db-4e24d320a8f0"},"vehicle_type_id":"4","last_reported":1731586684,"current_range_meters":38000,"station_id":"ce4bgjh2rcd13ifvqbg0","pricing_plan_id":"cebpf4jnsgd1na2vs0mg"},{"bike_id":"3ea303ba-d02e-4159-acea-cfd7008a8f2b","system_id":"levelo_inurba_marseille","lat":43.30295,"lon":5.39214,"is_reserved":false,"is_disabled":false,"rental_uris":{"android":"levelo://app?vid=3ea303ba-d02e-4159-acea-cfd7008a8f2b","ios":"levelo://app?vid=3ea303ba-d02e-4159-acea-cfd7008a8f2b"},"vehicle_type_id":"4","last_reported":1731586684,"current_range_meters":29600,"station_id":"ce4bgkh2rcd13ifvqbk0","pricing_plan_id":"cebpf4jnsgd1na2vs0mg"},{"bike_id":"03e11b44-f700-48c9-90dd-e85453c7da2e","system_id":"levelo_inurba_marseille","lat":43.30291,"lon":5.37693,"is_reserved":false,"is_disabled":false,"rental_uris":{"android":"levelo://app?vid=03e11b44-f700-48c9-90dd-e85453c7da2e","ios":"levelo://app?vid=03e11b44-f700-48c9-90dd-e85453c7da2e"},"vehicle_type_id":"4","last_reported":1731586684,"current_range_meters":17200,"station_id":"ce4bguh2rcd13ifvqcj0","pricing_plan_id":"cebpf4jnsgd1na2vs0mg"},{"bike_id":"19ea19a6-b06a-40c3-9698-b4228e5ce2e9","system_id":"levelo_inurba_marseille","lat":43.30597,"lon":5.39356,"is_reserved":false,"is_disabled":false,"rental_uris":{"android":"levelo://app?vid=19ea19a6-b06a-40c3-9698-b4228e5ce2e9","ios":"levelo://app?vid=19ea19a6-b06a-40c3-9698-b4228e5ce2e9"},"vehicle_type_id":"4","last_reported":1731586684,"current_range_meters":18000,"station_id":"ce4bh0p2rcd13ifvqd80","pricing_plan_id":"cebpf4jnsgd1na2vs0mg"},{"bike_id":"50d3c811-5adf-48ef-b10e-fd0bb4d4be22","system_id":"levelo_inurba_marseille","lat":43.30276,"lon":5.37709,"is_reserved":false,"is_disabled":false,"rental_uris":{"android":"levelo://app?vid=50d3c811-5adf-48ef-b10e-fd0bb4d4be22","ios":"levelo://app?vid=50d3c811-5adf-48ef-b10e-fd0bb4d4be22"},"vehicle_type_id":"4","last_reported":1731586684,"current_range_meters":24400,"station_id":"ce4bguh2rcd13ifvqcj0","pricing_plan_id":"cebpf4jnsgd1na2vs0mg"},{"bike_id":"de44b8c3-582b-4120-96ef-429437ba035b","system_id":"levelo_inurba_marseille","lat":43.262177,"lon":5.374399,"is_reserved":false,"is_disabled":false,"rental_uris":{"android":"levelo://app?vid=de44b8c3-582b-4120-96ef-429437ba035b","ios":"levelo://app?vid=de44b8c3-582b-4120-96ef-429437ba035b"},"vehicle_type_id":"4","last_reported":1731586684,"current_range_meters":7200,"station_id":"ce4bhgp2rcd13ifvqfc0","pricing_plan_id":"cebpf4jnsgd1na2vs0mg"},{"bike_id":"dea1740f-a5a6-4107-8483-a3ac7f7b9c78","system_id":"levelo_inurba_marseille","lat":43.31241,"lon":5.36859,"is_reserved":false,"is_disabled":false,"rental_uris":{"android":"levelo://app?vid=dea1740f-a5a6-4107-8483-a3ac7f7b9c78","ios":"levelo://app?vid=dea1740f-a5a6-4107-8483-a3ac7f7b9c78"},