{"last_updated":1690819725,"ttl":30,"version":"2.2","data":{"bikes":[{"bike_id":"e526d4e2-849c-44ae-a0d7-5572a62df909","system_id":"levelo_inurba_marseille","lat":43.3121,"lon":5.36857,"is_reserved":false,"is_disabled":false,"rental_uris":{"android":"levelo://app?vid=e526d4e2-849c-44ae-a0d7-5572a62df909","ios":"levelo://app?vid=e526d4e2-849c-44ae-a0d7-5572a62df909"},"vehicle_type_id":"4","last_reported":1690819726,"current_range_meters":18800,"station_id":"ce4bgl92rcd13ifvqbq0","pricing_plan_id":"free"},{"bike_id":"1164151c-1fd3-446c-8d32-cb3feeb968ca","system_id":"levelo_inurba_marseille","lat":43.309039,"lon":5.371797,"is_reserved":false,"is_disabled":false,"rental_uris":{"android":"levelo://app?vid=1164151c-1fd3-446c-8d32-cb3feeb968ca","ios":"levelo://app?vid=1164151c-1fd3-446c-8d32-cb3feeb968ca"},"vehicle_type_id":"4","last_reported":1690819726,"current_range_meters":27200,"station_id":"ce4bguh2rcd13ifvqckg","pricing_plan_id":"free"},{"bike_id":"52a5d137-ce3a-4497-b223-026a0f119ec0","system_id":"levelo_inurba_marseille","lat":43.30884,"lon":5.3719,"is_reserved":false,"is_disabled":false,"rental_uris":{"android":"levelo://app?vid=52a5d137-ce3a-4497-b223-026a0f119ec0","ios":"levelo://app?vid=52a5d137-ce3a-4497-b223-026a0f119ec0"},"vehicle_type_id":"4","last_reported":1690819726,"current_range_meters":29600,"station_id":"ce4bguh2rcd13ifvqckg","pricing_plan_id":"free"},{"bike_id":"f98c244a-9348-4646-bb55-fbffddefc91e","system_id":"levelo_inurba_marseille","lat":43.30672,"lon":5.3658,"is_reserved":false,"is_disabled":false,"rental_uris":{"android":"levelo://app?vid=f98c244a-9348-4646-bb55-fbffddefc91e","ios":"levelo://app?vid=f98c244a-9348-4646-bb55-fbffddefc91e"},"vehicle_type_id":"4","last_reported":1690819726,"current_range_meters":4000,"station_id":"","pricing_plan_id":"free"},{"bike_id":"f20ea888-8740-440b-bfeb-8eb2a7c1f652","system_id":"levelo_inurba_marseille","lat":43.305989,"lon":5.37225,"is_reserved":false,"is_disabled":false,"rental_uris":{"android":"levelo://app?vid=f20ea888-8740-440b-bfeb-8eb2a7c1f652","ios":"levelo://app?vid=f20ea888-8740-440b-bfeb-8eb2a7c1f652"},"vehicle_type_id":"4","last_reported":1690819726,"current_range_meters":29200,"station_id":"ce4bgqh2rcd13ifvqc4g","pricing_plan_id":"free"},{"bike_id":"68110660-c4a4-4cf1-8a50-53b77b9bb97f","system_id":"levelo_inurba_marseille","lat":43.304606,"lon":5.379026,"is_reserved":false,"is_disabled":false,"rental_uris":{"android":"levelo://app?vid=68110660-c4a4-4cf1-8a50-53b77b9bb97f","ios":"levelo://app?vid=68110660-c4a4-4cf1-8a50-53b77b9bb97f"},"vehicle_type_id":"4","last_reported":1690819726,"current_range_meters":28400,"station_id":"ce4bgup2rcd13ifvqcn0","pricing_plan_id":"free"},{"bike_id":"f51cafa4-e579-468c-b864-552331664cae","system_id":"levelo_inurba_marseille","lat":43.31115,"lon":5.38313,"is_reserved":false,"is_disabled":false,"rental_uris":{"android":"levelo://app?vid=f51cafa4-e579-468c-b864-552331664cae","ios":"levelo://app?vid=f51cafa4-e579-468c-b864-552331664cae"},"vehicle_type_id":"4","last_reported":1690819726,"current_range_meters":29200,"station_id":"","pricing_plan_id":"free"},{"bike_id":"a5a80bf9-63f9-440a-bb43-1a1ee2d36f35","system_id":"levelo_inurba_marseille","lat":43.313571,"lon":5.384829,"is_reserved":false,"is_disabled":false,"rental_uris":{"android":"levelo://app?vid=a5a80bf9-63f9-440a-bb43-1a1ee2d36f35","ios":"levelo://app?vid=a5a80bf9-63f9-440a-bb43-1a1ee2d36f35"},"vehicle_type_id":"4","last_reported":1690819726,"current_range_meters":22000,"station_id":"ce4bgt92rcd13ifvqcf0","pricing_plan_id":"free"},{"bike_id":"a85e0d5a-cd78-482f-8241-457e28a66ea6","system_id":"levelo_inurba_marseille","lat":43.313571,"lon":5.384829,"is_reserved":false,"is_disabled":false,"rental_uris":{"android":"levelo://app?vid=a85e0d5a-cd78-482f-8241-457e28a66ea6","ios":"levelo://app?vid=a85e0d5a-cd78-482f-8241-457e28a66ea6"},"vehicle_type_id":"4","last_reported":1690819726,"current_range_meters":30400,"station_id":"ce4bgt92rcd13ifvqcf0","pricing_plan_id":"free"},{"bike_id":"985ee3e8-a152-4ef5-b2f9-debac6a4d625","system_id":"levelo_inurba_marseille","lat":43.299222,"lon":5.365554,"is_reserved":false,"is_disabled":false,"rental_uris":{"android":"levelo://app?vid=985ee3e8-a152-4ef5-b2f9-debac6a4d625","ios":"levelo://app?vid=985ee3e8-a152-4ef5-b2f9-debac6a4d625"},"vehicle_type_id":"4","last_reported":1690819726,"current_range_meters":2000,"station_id":"ce4bgm92rcd13ifvqbr0","pricing_plan_id":"free"},{"bike_id":"30537d43-af02-4a10-b928-7b9b8cf633d2","system_id":"levelo_inurba_marseille","lat":43.30532,"lon":5.38434,"is_reserved":false,"is_disabled":false,"rental_uris":{"android":"levelo://app?vid=30537d43-af02-4a10-b928-7b9b8cf633d2","ios":"levelo://app?vid=30537d43-af02-4a10-b928-7b9b8cf633d2"},"vehicle_type_id":"4","last_reported":1690819726,"current_range_meters":29600,"station_id":"ce4bgg92rcd13ifvqb30","pricing_plan_id":"free"},{"bike_id":"fbd7d09a-2191-43b9-941a-5acfd2b241d4","system_id":"levelo_inurba_marseille","lat":43.297774,"lon":5.370875,"is_reserved":false,"is_disabled":false,"rental_uris":{"android":"levelo://app?vid=fbd7d09a-2191-43b9-941a-5acfd2b241d4","ios":"levelo://app?vid=fbd7d09a-2191-43b9-941a-5acfd2b241d4"},"vehicle_type_id":"4","last_reported":1690819726,"current_range_meters":23200,"station_id":"ce4bgop2rcd13ifvqc1g","pricing_plan_id":"free"},{"bike_id":"82f1e03d-e4c3-4aac-b6f0-c9fc3950fe62","system_id":"levelo_inurba_marseille","lat":43.322919,"lon":5.382674,"is_reserved":false,"is_disabled":false,"rental_uris":{"android":"levelo://app?vid=82f1e03d-e4c3-4aac-b6f0-c9fc3950fe62","ios":"levelo://app?vid=82f1e03d-e4c3-4aac-b6f0-c9fc3950fe62"},"vehicle_type_id":"4","last_reported":1690819726,"current_range_meters":16000,"station_id":"","pricing_plan_id":"free"},{"bike_id":"9415d978-2564-41e1-bf0c-bf78154b02ce","system_id":"levelo_inurba_marseille","lat":43.322872,"lon":5.382756,"is_reserved":false,"is_disabled":false,"rental_uris":{"android":"levelo://app?vid=9415d978-2564-41e1-bf0c-bf78154b02ce","ios":"levelo://app?vid=9415d978-2564-41e1-bf0c-bf78154b02ce"},"vehicle_type_id":"4","last_reported":1690819726,"current_range_meters":18800,"station_id":"ce4bhr12rcd13ifvqhqg","pricing_plan_id":"free"},{"bike_id":"711b5568-f412-46f6-b2c1-6b25a217636a","system_id":"levelo_inurba_marseille","lat":43.3229,"lon":5.38279,"is_reserved":false,"is_disabled":false,"rental_uris":{"android":"levelo://app?vid=711b5568-f412-46f6-b2c1-6b25a217636a","ios":"levelo://app?vid=711b5568-f412-46f6-b2c1-6b25a217636a"},"vehicle_type_id":"4","last_reported":1690819726,"current_range_meters":2800,"station_id":"ce4bhr12rcd13ifvqhqg","pricing_plan_id":"free"},{"bike_id":"79bf6da4-5f08-488b-96b1-6e23f74ec5ec","system_id":"levelo_inurba_marseille","lat":43.322872,"lon":5.382756,"is_reserved":false,"is_disabled":false,"rental_uris":{"android":"levelo://app?vid=79bf6da4-5f08-488b-96b1-6e23f74ec5ec","ios":"levelo://app?vid=79bf6da4-5f08-488b-96b1-6e23f74ec5ec"},"vehicle_type_id":"4","last_reported":1690819726,"current_range_meters":28800,"station_id":"ce4bhr12rcd13ifvqhqg","pricing_plan_id":"free"},{"bike_id":"209e3e39-006c-4098-a884-84f25f9f1a12","system_id":"levelo_inurba_marseille","lat":43.32828,"lon":5.36689,"is_reserved":false,"is_disabled":false,"rental_uris":{"android":"levelo://app?vid=209e3e39-006c-4098-a884-84f25f9f1a12","ios":"levelo://app?vid=209e3e39-006c-4098-a884-84f25f9f1a12"},"vehicle_type_id":"4","last_reported":1690819726,"current_range_meters":8400,"station_id":"ce4bhs92rcd13ifvqi0g","pricing_plan_id":"free"},{"bike_id":"dd789220-e7b5-42c1-b9dc-dc4243148021","system_id":"levelo_inurba_marseille","lat":43.297163,"lon":5.365866,"is_reserved":false,"is_disabled":false,"rental_uris":{"android":"levelo://app?vid=dd789220-e7b5-42c1-b9dc-dc4243148021","ios":"levelo://app?vid=dd789220-e7b5-42c1-b9dc-dc4243148021"},"vehicle_type_id":"4","last_reported":1690819726,"current_range_meters":31200,"station_id":"ce4bgn12rcd13ifvqbt0","pricing_plan_id":"free"},{"bike_id":"61b39c43-398d-4345-ae6b-a312757f2f03","system_id":"levelo_inurba_marseille","lat":43.3283,"lon":5.36686,"is_reserved":false,"is_disabled":false,"rental_uris":{"android":"levelo://app?vid=61b39c43-398d-4345-ae6b-a312757f2f03","ios":"levelo://app?vid=61b39c43-398d-4345-ae6b-a312757f2f03"},"vehicle_type_id":"4","last_reported":1690819726,"current_range_meters":23200,"station_id":"ce4bhs92rcd13ifvqi0g","pricing_plan_id":"free"},{"bike_id":"6e2ecb45-9d47-4c78-839f-879a3de42c45","system_id":"levelo_inurba_marseille","lat":43.3283,"lon":5.36681,"is_reserved":false,"is_disabled":false,"rental_uris":{"android":"levelo://app?vid=6e2ecb45-9d47-4c78-839f-879a3de42c45","ios":"levelo://app?vid=6e2ecb45-9d47-4c78-839f-879a3de42c45"},"vehicle_type_id":"4","last_reported":1690819726,"current_range_meters":21200,"station_id":"ce4bhs92rcd13ifvqi0g","pricing_plan_id":"free"},{"bike_id":"8b6d5493-c7aa-4d05-b9ba-2de7f4b0a1a2","system_id":"levelo_inurba_marseille","lat":43.32833,"lon":5.36697,"is_reserved":false,"is_disabled":false,"rental_uris":{"android":"levelo://app?vid=8b6d5493-c7aa-4d05-b9ba-2de7f4b0a1a2","ios":"levelo://app?vid=8b6d5493-c7aa-4d05-b9ba-2de7f4b0a1a2"},"vehicle_type_id":"4","last_reported":1690819726,"current_range_meters":8400,"station_id":"ce4bhs92rcd13ifvqi0g","pricing_plan_id":"free"},{"bike_id":"452cfc60-de17-4e32-8e61-affb2816010a","system_id":"levelo_inurba_marseille","lat":43.32841,"lon":5.36676,"is_reserved":false,"is_disabled":false,"rental_uris":{"android":"levelo://app?vid=452cfc60-de17-4e32-8e61-affb2816010a","ios":"levelo://app?vid=452cfc60-de17-4e32-8e61-affb2816010a"},"vehicle_type_id":"4","last_reported":1690819726,"current_range_meters":29600,"station_id":"ce4bhs92rcd13ifvqi0g","pricing_plan_id":"free"},{"bike_id":"5c9f28c0-9521-4699-8026-a426a5f1221a","system_id":"levelo_inurba_marseille","lat":43.29573,"lon":5.367355,"is_reserved":false,"is_disabled":false,"rental_uris":{"android":"levelo://app?vid=5c9f28c0-9521-4699-8026-a426a5f1221a","ios":"levelo://app?vid=5c9f28c0-9521-4699-8026-a426a5f1221a"},"vehicle_type_id":"4","last_reported":1690819726,"current_range_meters":23600,"station_id":"ce4bgph2rcd13ifvqc2g","pricing_plan_id":"free"},{"bike_id":"a3576a56-d5fa-4519-bce7-f4d6de1b4141","system_id":"levelo_inurba_marseille","lat":43.309543,"lon":5.390233,"is_reserved":false,"is_disabled":false,"rental_uris":{"android":"levelo://app?vid=a3576a56-d5fa-4519-bce7-f4d6de1b4141","ios":"levelo://app?vid=a3576a56-d5fa-4519-bce7-f4d6de1b4141"},"vehicle_type_id":"4","last_reported":1690819726,"current_range_meters":28400,"station_id":"ce4bgup2rcd13ifvqco0","pricing_plan_id":"free"},{"bike_id":"f0b1921d-8fc5-42f6-8214-26455e772ce5","system_id":"levelo_inurba_marseille","lat":43.30951,"lon":5.39023,"is_reserved":false,"is_disabled":false,"rental_uris":{"android":"levelo://app?vid=f0b1921d-8fc5-42f6-8214-26455e772ce5","ios":"levelo://app?vid=f0b1921d-8fc5-42f6-8214-26455e772ce5"},"vehicle_type_id":"4","last_reported":1690819726,"current_range_meters":24000,"station_id":"ce4bgup2rcd13ifvqco0","pricing_plan_id":"free"},{"bike_id":"525733a0-a8a4-4752-a225-66eff967c6b1","system_id":"levelo_inurba_marseille","lat":43.299028,"lon":5.381509,"is_reserved":false,"is_disabled":false,"rental_uris":{"android":"levelo://app?vid=525733a0-a8a4-4752-a225-66eff967c6b1","ios":"levelo://app?vid=525733a0-a8a4-4752-a225-66eff967c6b1"},"vehicle_type_id":"4","last_reported":1690819726,"current_range_meters":21200,"station_id":"ce4bgj12rcd13ifvqbc0","pricing_plan_id":"free"},{"bike_id":"eab96ed4-2888-4fd9-91c0-dc377fd67d8b","system_id":"levelo_inurba_marseille","lat":43.299028,"lon":5.381509,"is_reserved":false,"is_disabled":false,"rental_uris":{"android":"levelo://app?vid=eab96ed4-2888-4fd9-91c0-dc377fd67d8b","ios":"levelo://app?vid=eab96ed4-2888-4fd9-91c0-dc377fd67d8b"},"vehicle_type_id":"4","last_reported":1690819726,"current_range_meters":13600,"station_id":"ce4bgj12rcd13ifvqbc0","pricing_plan_id":"free"},{"bike_id":"0c270cc1-6c4c-41a4-b2da-46f065c7f0e8","system_id":"levelo_inurba_marseille","lat":43.309474,"lon":5.390311,"is_reserved":false,"is_disabled":false,"rental_uris":{"android":"levelo://app?vid=0c270cc1-6c4c-41a4-b2da-46f065c7f0e8","ios":"levelo://app?vid=0c270cc1-6c4c-41a4-b2da-46f065c7f0e8"},"vehicle_type_id":"4","last_reported":1690819726,"current_range_meters":20000,"station_id":"","pricing_plan_id":"free"},{"bike_id":"9310c64b-a829-4d28-8de8-5db4772011a4","system_id":"levelo_inurba_marseille","lat":43.30952,"lon":5.39042,"is_reserved":false,"is_disabled":false,"rental_uris":{"android":"levelo://app?vid=9310c64b-a829-4d28-8de8-5db4772011a4","ios":"levelo://app?vid=9310c64b-a829-4d28-8de8-5db4772011a4"},"vehicle_type_id":"4","last_reported":1690819726,"current_range_meters":22800,"station_id":"ce4bgup2rcd13ifvqco0","pricing_plan_id":"free"},{"bike_id":"8cd0ec22-ddc3-4d7e-a70f-615be7bb6075","system_id":"levelo_inurba_marseille","lat":43.298037,"lon":5.381066,"is_reserved":false,"is_disabled":false,"rental_uris":{"android":"levelo://app?vid=8cd0ec22-ddc3-4d7e-a70f-615be7bb6075","ios":"levelo://app?vid=8cd0ec22-ddc3-4d7e-a70f-615be7bb6075"},"vehicle_type_id":"4","last_reported":1690819726,"current_range_meters":25200,"station_id":"ce4bgip2rcd13ifvqbb0","pricing_plan_id":"free"},{"bike_id":"a74c719c-52bd-4579-b952-b3295737dc14","system_id":"levelo_inurba_marseille","lat":43.297947,"lon":5.380956,"is_reserved":false,"is_disabled":false,"rental_uris":{"android":"levelo://app?vid=a74c719c-52bd-4579-b952-b3295737dc14","ios":"levelo://app?vid=a74c719c-52bd-4579-b952-b3295737dc14"},"vehicle_type_id":"4","last_reported":1690819726,"current_range_meters":16000,"station_id":"ce4bgip2rcd13ifvqbb0","pricing_plan_id":"free"},{"bike_id":"f4cbcbd2-5e66-42e0-85eb-61b2ae435a7b","system_id":"levelo_inurba_marseille","lat":43.295757,"lon":5.37527,"is_reserved":false,"is_disabled":false,"rental_uris":{"android":"levelo://app?vid=f4cbcbd2-5e66-42e0-85eb-61b2ae435a7b","ios":"levelo://app?vid=f4cbcbd2-5e66-42e0-85eb-61b2ae435a7b"},"vehicle_type_id":"4","last_reported":1690819726,"current_range_meters":7200,"station_id":"ce4bgh92rcd13ifvqb50","pricing_plan_id":"free"},{"bike_id":"21f7d6d9-8cff-412e-bc48-2e7410ff5ec7","system_id":"levelo_inurba_marseille","lat":43.29784,"lon":5.38105,"is_reserved":false,"is_disabled":false,"rental_uris":{"android":"levelo://app?vid=21f7d6d9-8cff-412e-bc48-2e7410ff5ec7","ios":"levelo://app?vid=21f7d6d9-8cff-412e-bc48-2e7410ff5ec7"},"vehicle_type_id":"4","last_reported":1690819726,"current_range_meters":25200,"station_id":"ce4bgip2rcd13ifvqbb0","pricing_plan_id":"free"},{"bike_id":"0c3572b1-56f2-4676-a434-c89458e212e0","system_id":"levelo_inurba_marseille","lat":43.299707,"lon":5.384859,"is_reserved":false,"is_disabled":false,"rental_uris":{"android":"levelo://app?vid=0c3572b1-56f2-4676-a434-c89458e212e0","ios":"levelo://app?vid=0c3572b1-56f2-4676-a434-c89458e212e0"},"vehicle_type_id":"4","last_reported":1690819726,"current_range_meters":3600,"station_id":"ce4bgj92rcd13ifvqbd0","pricing_plan_id":"free"},{"bike_id":"eeb263b1-85bf-45c1-9ae9-d4f39665097c","system_id":"levelo_inurba_marseille","lat":43.32368,"lon":5.38877,"is_reserved":false,"is_disabled":false,"rental_uris":{"android":"levelo://app?vid=eeb263b1-85bf-45c1-9ae9-d4f39665097c","ios":"levelo://app?vid=eeb263b1-85bf-45c1-9ae9-d4f39665097c"},"vehicle_type_id":"4","last_reported":1690819726,"current_range_meters":17600,"station_id":"ce4bhqp2rcd13ifvqhog","pricing_plan_id":"free"},{"bike_id":"1bc03523-c6aa-4ad1-b9a7-ae556f4def9f","system_id":"levelo_inurba_marseille","lat":43.30092,"lon":5.38814,"is_reserved":false,"is_disabled":false,"rental_uris":{"android":"levelo://app?vid=1bc03523-c6aa-4ad1-b9a7-ae556f4def9f","ios":"levelo://app?vid=1bc03523-c6aa-4ad1-b9a7-ae556f4def9f"},"vehicle_type_id":"4","last_reported":1690819726,"current_range_meters":12000,"station_id":"","pricing_plan_id":"free"},{"bike_id":"a8142977-1ace-4d34-a83d-f6c7e96ab875","system_id":"levelo_inurba_marseille","lat":43.29602,"lon":5.381084,"is_reserved":false,"is_disabled":false,"rental_uris":{"android":"levelo://app?vid=a8142977-1ace-4d34-a83d-f6c7e96ab875","ios":"levelo://app?vid=a8142977-1ace-4d34-a83d-f6c7e96ab875"},"vehicle_type_id":"4","last_reported":1690819726,"current_range_meters":5600,"station_id":"ce4bgl12rcd13ifvqbo0","pricing_plan_id":"free"},{"bike_id":"ff580774-39e8-4c46-a470-b4075cb62e95","system_id":"levelo_inurba_marseille","lat":43.293009,"lon":5.374584,"is_reserved":false,"is_disabled":false,"rental_uris":{"android":"levelo://app?vid=ff580774-39e8-4c46-a470-b4075cb62e95","ios":"levelo://app?vid=ff580774-39e8-4c46-a470-b4075cb62e95"},"vehicle_type_id":"4","last_reported":1690819726,"current_range_meters":6400,"station_id":"ce4bgi12rcd13ifvqb70","pricing_plan_id":"free"},{"bike_id":"ef537ce9-9798-4f12-b4d0-08b6e679ea21","system_id":"levelo_inurba_marseille","lat":43.300852,"lon":5.390859,"is_reserved":false,"is_disabled":false,"rental_uris":{"android":"levelo://app?vid=ef537ce9-9798-4f12-b4d0-08b6e679ea21","ios":"levelo://app?vid=ef537ce9-9798-4f12-b4d0-08b6e679ea21"},"vehicle_type_id":"4","last_reported":1690819726,"current_range_meters":21600,"station_id":"ce4bh192rcd13ifvqdb0","pricing_plan_id":"free"},{"bike_id":"0073c5ad-1e31-433e-a3e2-519e38a67c5f","system_id":"levelo_inurba_marseille","lat":43.300852,"lon":5.390859,"is_reserved":false,"is_disabled":false,"rental_uris":{"android":"levelo://app?vid=0073c5ad-1e31-433e-a3e2-519e38a67c5f","ios":"levelo://app?vid=0073c5ad-1e31-433e-a3e2-519e38a67c5f"},"vehicle_type_id":"4","last_reported":1690819726,"current_range_meters":0,"station_id":"ce4bh192rcd13ifvqdb0","pricing_plan_id":"free"},{"bike_id":"5088cbed-f480-4907-842e-47bfbe93c26d","system_id":"levelo_inurba_marseille","lat":43.291994,"lon":5.357886,"is_reserved":false,"is_disabled":false,"rental_uris":{"android":"levelo://app?vid=5088cbed-f480-4907-842e-47bfbe93c26d","ios":"levelo://app?vid=5088cbed-f480-4907-842e-47bfbe93c26d"},"vehicle_type_id":"4","last_reported":1690819726,"current_range_meters":23600,"station_id":"ce4bhb12rcd13ifvqel0","pricing_plan_id":"free"},{"bike_id":"6a12aef0-9d5e-45ab-b4a2-886e829074c9","system_id":"levelo_inurba_marseille","lat":43.29888,"lon":5.38896,"is_reserved":false,"is_disabled":false,"rental_uris":{"android":"levelo://app?vid=6a12aef0-9d5e-45ab-b4a2-886e829074c9","ios":"levelo://app?vid=6a12aef0-9d5e-45ab-b4a2-886e829074c9"},"vehicle_type_id":"4","last_reported":1690819726,"current_range_meters":6800,"station_id":"ce4bh392rcd13ifvqdl0","pricing_plan_id":"free"},{"bike_id":"ebfa543b-5a73-40fc-ba1a-7460a861c5ff","system_id":"levelo_inurba_marseille","lat":43.292663,"lon":5.376389,"is_reserved":false,"is_disabled":false,"rental_uris":{"android":"levelo://app?vid=ebfa543b-5a73-40fc-ba1a-7460a861c5ff","ios":"levelo://app?vid=ebfa543b-5a73-40fc-ba1a-7460a861c5ff"},"vehicle_type_id":"4","last_reported":1690819726,"current_range_meters":24800,"station_id":"ce4bgi12rcd13ifvqb80","pricing_plan_id":"free"},{"bike_id":"3c67db03-32bd-4f24-93a4-55b39aeaa144","system_id":"levelo_inurba_marseille","lat":43.298764,"lon":5.388973,"is_reserved":false,"is_disabled":false,"rental_uris":{"android":"levelo://app?vid=3c67db03-32bd-4f24-93a4-55b39aeaa144","ios":"levelo://app?vid=3c67db03-32bd-4f24-93a4-55b39aeaa144"},"vehicle_type_id":"4","last_reported":1690819726,"current_range_meters":21200,"station_id":"ce4bh392rcd13ifvqdl0","pricing_plan_id":"free"},{"bike_id":"09ddb4cb-e9fc-4356-b0be-d3700ae8f1e4","system_id":"levelo_inurba_marseille","lat":43.292663,"lon":5.376389,"is_reserved":false,"is_disabled":false,"rental_uris":{"android":"levelo://app?vid=09ddb4cb-e9fc-4356-b0be-d3700ae8f1e4","ios":"levelo://app?vid=09ddb4cb-e9fc-4356-b0be-d3700ae8f1e4"},"vehicle_type_id":"4","last_reported":1690819726,"current_range_meters":9600,"station_id":"ce4bgi12rcd13ifvqb80","pricing_plan_id":"free"},{"bike_id":"3bed5b27-608e-4885-9790-7efba92ee568","system_id":"levelo_inurba_marseille","lat":43.29875,"lon":5.3891,"is_reserved":false,"is_disabled":false,"rental_uris":{"android":"levelo://app?vid=3bed5b27-608e-4885-9790-7efba92ee568","ios":"levelo://app?vid=3bed5b27-608e-4885-9790-7efba92ee568"},"vehicle_type_id":"4","last_reported":1690819726,"current_range_meters":17600,"station_id":"ce4bh392rcd13ifvqdl0","pricing_plan_id":"free"},{"bike_id":"48ca99b2-d032-42ca-95a1-5a717f04616c","system_id":"levelo_inurba_marseille","lat":43.29206,"lon":5.35798,"is_reserved":false,"is_disabled":false,"rental_uris":{"android":"levelo://app?vid=48ca99b2-d032-42ca-95a1-5a717f04616c","ios":"levelo://app?vid=48ca99b2-d032-42ca-95a1-5a717f04616c"},"vehicle_type_id":"4","last_reported":1690819726,"current_range_meters":15600,"station_id":"ce4bhb12rcd13ifvqel0","pricing_plan_id":"free"},{"bike_id":"a2f0daae-b15c-466c-a1eb-051f755b6de6","system_id":"levelo_inurba_marseille","lat":43.291994,"lon":5.357886,"is_reserved":false,"is_disabled":false,"rental_uris":{"android":"levelo://app?vid=a2f0daae-b15c-466c-a1eb-051f755b6de6","ios":"levelo://app?vid=a2f0daae-b15c-466c-a1eb-051f755b6de6"},"vehicle_type_id":"4","last_reported":1690819726,"current_range_meters":9600,"station_id":"ce4bhb12rcd13ifvqel0","pricing_plan_id":"free"},{"bike_id":"f29fbabf-4195-4a21-a766-d9b1132f3572","system_id":"levelo_inurba_marseille","lat":43.29198,"lon":5.358,"is_reserved":false,"is_disabled":false,"rental_uris":{"android":"levelo://app?vid=f29fbabf-4195-4a21-a766-d9b1132f3572","ios":"levelo://app?vid=f29fbabf-4195-4a21-a766-d9b1132f3572"},"vehicle_type_id":"4","last_reported":1690819726,"current_range_meters":8400,"station_id":"ce4bhb12rcd13ifvqel0","pricing_plan_id":"free"},{"bike_id":"8a8a0400-547f-4e98-8555-f8d886068159","system_id":"levelo_inurba_marseille","lat":43.291994,"lon":5.357886,"is_reserved":false,"is_disabled":false,"rental_uris":{"android":"levelo://app?vid=8a8a0400-547f-4e98-8555-f8d886068159","ios":"levelo://app?vid=8a8a0400-547f-4e98-8555-f8d886068159"},"vehicle_type_id":"4","last_reported":1690819726,"current_range_meters":16800,"station_id":"ce4bhb12rcd13ifvqel0","pricing_plan_id":"free"},{"bike_id":"00042a9b-4d8f-4ab8-a4d1-4e3724d7254d","system_id":"levelo_inurba_marseille","lat":43.29189,"lon":5.35811,"is_reserved":false,"is_disabled":false,"rental_uris":{"android":"levelo://app?vid=00042a9b-4d8f-4ab8-a4d1-4e3724d7254d","ios":"levelo://app?vid=00042a9b-4d8f-4ab8-a4d1-4e3724d7254d"},"vehicle_type_id":"4","last_reported":1690819726,"current_range_meters":12000,"station_id":"ce4bhb12rcd13ifvqel0","pricing_plan_id":"free"},{"bike_id":"9380bb99-00a9-4416-aaaa-cfbb22a60286","system_id":"levelo_inurba_marseille","lat":43.29529,"lon":5.385581,"is_reserved":false,"is_disabled":false,"rental_uris":{"android":"levelo://app?vid=9380bb99-00a9-4416-aaaa-cfbb22a60286","ios":"levelo://app?vid=9380bb99-00a9-4416-aaaa-cfbb22a60286"},"vehicle_type_id":"4","last_reported":1690819726,"current_range_meters":20800,"station_id":"ce4bgih2rcd13ifvqba0","pricing_plan_id":"free"},{"bike_id":"7c8d9a23-b06d-4824-8510-f3e0436e7de5","system_id":"levelo_inurba_marseille","lat":43.302008,"lon":5.394694,"is_reserved":false,"is_disabled":false,"rental_uris":{"android":"levelo://app?vid=7c8d9a23-b06d-4824-8510-f3e0436e7de5","ios":"levelo://app?vid=7c8d9a23-b06d-4824-8510-f3e0436e7de5"},"vehicle_type_id":"4","last_reported":1690819726,"current_range_meters":8800,"station_id":"ce4bh0p2rcd13ifvqd70","pricing_plan_id":"free"},{"bike_id":"125cf16c-ecf7-409a-8f0f-7b7d26aa7ff7","system_id":"levelo_inurba_marseille","lat":43.301117,"lon":5.398795,"is_reserved":false,"is_disabled":false,"rental_uris":{"android":"levelo://app?vid=125cf16c-ecf7-409a-8f0f-7b7d26aa7ff7","ios":"levelo://app?vid=125cf16c-ecf7-409a-8f0f-7b7d26aa7ff7"},"vehicle_type_id":"4","last_reported":1690819726,"current_range_meters":10400,"station_id":"ce4bh0h2rcd13ifvqd40","pricing_plan_id":"free"},{"bike_id":"af7b0d22-d9ca-4e60-9c84-471b2caef65c","system_id":"levelo_inurba_marseille","lat":43.290624,"lon":5.359245,"is_reserved":false,"is_disabled":false,"rental_uris":{"android":"levelo://app?vid=af7b0d22-d9ca-4e60-9c84-471b2caef65c","ios":"levelo://app?vid=af7b0d22-d9ca-4e60-9c84-471b2caef65c"},"vehicle_type_id":"4","last_reported":1690819726,"current_range_meters":30400,"station_id":"ce4bha92rcd13ifvqeg0","pricing_plan_id":"free"},{"bike_id":"3129de6f-2ad2-41b3-90e8-6980e9bd342f","system_id":"levelo_inurba_marseille","lat":43.290327,"lon":5.375711,"is_reserved":false,"is_disabled":false,"rental_uris":{"android":"levelo://app?vid=3129de6f-2ad2-41b3-90e8-6980e9bd342f","ios":"levelo://app?vid=3129de6f-2ad2-41b3-90e8-6980e9bd342f"},"vehicle_type_id":"4","last_reported":1690819726,"current_range_meters":0,"station_id":"ce4bh692rcd13ifvqe90","pricing_plan_id":"free"},{"bike_id":"f6e0913e-352c-4853-8ec8-37baaa999f19","system_id":"levelo_inurba_marseille","lat":43.294162,"lon":5.386292,"is_reserved":false,"is_disabled":false,"rental_uris":{"android":"levelo://app?vid=f6e0913e-352c-4853-8ec8-37baaa999f19","ios":"levelo://app?vid=f6e0913e-352c-4853-8ec8-37baaa999f19"},"vehicle_type_id":"4","last_reported":1690819726,"current_range_meters":8000,"station_id":"ce4bh2h2rcd13ifvqdh0","pricing_plan_id":"free"},{"bike_id":"bd43a569-43e1-4c21-88a9-971b7d3c7629","system_id":"levelo_inurba_marseille","lat":43.2895,"lon":5.36392,"is_reserved":false,"is_disabled":false,"rental_uris":{"android":"levelo://app?vid=bd43a569-43e1-4c21-88a9-971b7d3c7629","ios":"levelo://app?vid=bd43a569-43e1-4c21-88a9-971b7d3c7629"},"vehicle_type_id":"4","last_reported":1690819726,"current_range_meters":26000,"station_id":"ce4bhc92rcd13ifvqetg","pricing_plan_id":"free"},{"bike_id":"2040d58b-c5c6-4292-a35d-1be34c7c531c","system_id":"levelo_inurba_marseille","lat":43.289468,"lon":5.363719,"is_reserved":false,"is_disabled":false,"rental_uris":{"android":"levelo://app?vid=2040d58b-c5c6-4292-a35d-1be34c7c531c","ios":"levelo://app?vid=2040d58b-c5c6-4292-a35d-1be34c7c531c"},"vehicle_type_id":"4","last_reported":1690819726,"current_range_meters":12000,"station_id":"ce4bhc92rcd13ifvqetg","pricing_plan_id":"free"},{"bike_id":"e5b5b789-7360-4f5c-8b0d-d01a94e7759c","system_id":"levelo_inurba_marseille","lat":43.28943,"lon":5.36398,"is_reserved":false,"is_disabled":false,"rental_uris":{"android":"levelo://app?vid=e5b5b789-7360-4f5c-8b0d-d01a94e7759c","ios":"levelo://app?vid=e5b5b789-7360-4f5c-8b0d-d01a94e7759c"},"vehicle_type_id":"4","last_reported":1690819726,"current_range_meters":26800,"station_id":"ce4bhc92rcd13ifvqetg","pricing_plan_id":"free"},{"bike_id":"e7a928bc-f83f-40ac-9931-67e4ffc41b92","system_id":"levelo_inurba_marseille","lat":43.2927,"lon":5.38441,"is_reserved":false,"is_disabled":false,"rental_uris":{"android":"levelo://app?vid=e7a928bc-f83f-40ac-9931-67e4ffc41b92","ios":"levelo://app?vid=e7a928bc-f83f-40ac-9931-67e4ffc41b92"},"vehicle_type_id":"4","last_reported":1690819726,"current_range_meters":18800,"station_id":"ce4bh692rcd13ifvqea0","pricing_plan_id":"free"},{"bike_id":"6cd0440c-809f-4291-a891-ea5c03768115","system_id":"levelo_inurba_marseille","lat":43.292642,"lon":5.384254,"is_reserved":false,"is_disabled":false,"rental_uris":{"android":"levelo://app?vid=6cd0440c-809f-4291-a891-ea5c03768115","ios":"levelo://app?vid=6cd0440c-809f-4291-a891-ea5c03768115"},"vehicle_type_id":"4","last_reported":1690819726,"current_range_meters":0,"station_id":"ce4bh692rcd13ifvqea0","pricing_plan_id":"free"},{"bike_id":"ee23da88-7189-4bd2-84a0-84f91824abe5","system_id":"levelo_inurba_marseille","lat":43.290104,"lon":5.356111,"is_reserved":false,"is_disabled":false,"rental_uris":{"android":"levelo://app?vid=ee23da88-7189-4bd2-84a0-84f91824abe5","ios":"levelo://app?vid=ee23da88-7189-4bd2-84a0-84f91824abe5"},"vehicle_type_id":"4","last_reported":1690819726,"current_range_meters":23600,"station_id":"ce4bhb92rcd13ifvqen0","pricing_plan_id":"free"},{"bike_id":"5dc08659-e0c2-4b40-95a0-57cb7e7f9860","system_id":"levelo_inurba_marseille","lat":43.33042,"lon":5.38915,"is_reserved":false,"is_disabled":false,"rental_uris":{"android":"levelo://app?vid=5dc08659-e0c2-4b40-95a0-57cb7e7f9860","ios":"levelo://app?vid=5dc08659-e0c2-4b40-95a0-57cb7e7f9860"},"vehicle_type_id":"4","last_reported":1690819726,"current_range_meters":16000,"station_id":"ce4bhr92rcd13ifvqhrg","pricing_plan_id":"free"},{"bike_id":"90a1a68f-5e38-41da-b78c-77ff4020fce6","system_id":"levelo_inurba_marseille","lat":43.33045,"lon":5.38911,"is_reserved":false,"is_disabled":false,"rental_uris":{"android":"levelo://app?vid=90a1a68f-5e38-41da-b78c-77ff4020fce6","ios":"levelo://app?vid=90a1a68f-5e38-41da-b78c-77ff4020fce6"},"vehicle_type_id":"4","last_reported":1690819726,"current_range_meters":31200,"station_id":"ce4bhr92rcd13ifvqhrg","pricing_plan_id":"free"},{"bike_id":"020b8f4a-4996-409f-883b-5761c4356500","system_id":"levelo_inurba_marseille","lat":43.290104,"lon":5.356111,"is_reserved":false,"is_disabled":false,"rental_uris":{"android":"levelo://app?vid=020b8f4a-4996-409f-883b-5761c4356500","ios":"levelo://app?vid=020b8f4a-4996-409f-883b-5761c4356500"},"vehicle_type_id":"4","last_reported":1690819726,"current_range_meters":0,"station_id":"ce4bhb92rcd13ifvqen0","pricing_plan_id":"free"},{"bike_id":"4d5213cc-4264-426b-b60d-a14a9204e8ba","system_id":"levelo_inurba_marseille","lat":43.290104,"lon":5.356111,"is_reserved":false,"is_disabled":false,"rental_uris":{"android":"levelo://app?vid=4d5213cc-4264-426b-b60d-a14a9204e8ba","ios":"levelo://app?vid=4d5213cc-4264-426b-b60d-a14a9204e8ba"},"vehicle_type_id":"4","last_reported":1690819726,"current_range_meters":26400,"station_id":"ce4bhb92rcd13ifvqen0","pricing_plan_id":"free"},{"bike_id":"33679209-2aa5-405b-ad0a-c5fe9ac9981c","system_id":"levelo_inurba_marseille","lat":43.290103,"lon":5.356114,"is_reserved":false,"is_disabled":false,"rental_uris":{"android":"levelo://app?vid=33679209-2aa5-405b-ad0a-c5fe9ac9981c","ios":"levelo://app?vid=33679209-2aa5-405b-ad0a-c5fe9ac9981c"},"vehicle_type_id":"4","last_reported":1690819726,"current_range_meters":13600,"station_id":"ce4bhb92rcd13ifvqen0","pricing_plan_id":"free"},{"bike_id":"19b41b24-6455-4d12-883e-07661df2854c","system_id":"levelo_inurba_marseille","lat":43.33047,"lon":5.38914,"is_reserved":false,"is_disabled":false,"rental_uris":{"android":"levelo://app?vid=19b41b24-6455-4d12-883e-07661df2854c","ios":"levelo://app?vid=19b41b24-6455-4d12-883e-07661df2854c"},"vehicle_type_id":"4","last_reported":1690819726,"current_range_meters":31200,"station_id":"ce4bhr92rcd13ifvqhrg","pricing_plan_id":"free"},{"bike_id":"8ed0f67c-530e-4f07-ae6f-8b8e85a70e44","system_id":"levelo_inurba_marseille","lat":43.290103,"lon":5.356114,"is_reserved":false,"is_disabled":false,"rental_uris":{"android":"levelo://app?vid=8ed0f67c-530e-4f07-ae6f-8b8e85a70e44","ios":"levelo://app?vid=8ed0f67c-530e-4f07-ae6f-8b8e85a70e44"},"vehicle_type_id":"4","last_reported":1690819726,"current_range_meters":24800,"station_id":"ce4bhb92rcd13ifvqen0","pricing_plan_id":"free"},{"bike_id":"f9023d03-3481-49aa-b88c-9943f46026e0","system_id":"levelo_inurba_marseille","lat":43.290056,"lon":5.35613,"is_reserved":false,"is_disabled":false,"rental_uris":{"android":"levelo://app?vid=f9023d03-3481-49aa-b88c-9943f46026e0","ios":"levelo://app?vid=f9023d03-3481-49aa-b88c-9943f46026e0"},"vehicle_type_id":"4","last_reported":1690819726,"current_range_meters":24400,"station_id":"","pricing_plan_id":"free"},{"bike_id":"d2cac616-3108-4943-979d-500c6714380d","system_id":"levelo_inurba_marseille","lat":43.290104,"lon":5.356111,"is_reserved":false,"is_disabled":false,"rental_uris":{"android":"levelo://app?vid=d2cac616-3108-4943-979d-500c6714380d","ios":"levelo://app?vid=d2cac616-3108-4943-979d-500c6714380d"},"vehicle_type_id":"4","last_reported":1690819726,"current_range_meters":12400,"station_id":"ce4bhb92rcd13ifvqen0","pricing_plan_id":"free"},{"bike_id":"acef8df3-f46a-4a23-aff6-a8a88757726a","system_id":"levelo_inurba_marseille","lat":43.290104,"lon":5.356111,"is_reserved":false,"is_disabled":false,"rental_uris":{"android":"levelo://app?vid=acef8df3-f46a-4a23-aff6-a8a88757726a","ios":"levelo://app?vid=acef8df3-f46a-4a23-aff6-a8a88757726a"},"vehicle_type_id":"4","last_reported":1690819726,"current_range_meters":26400,"station_id":"ce4bhb92rcd13ifvqen0","pricing_plan_id":"free"},{"bike_id":"134ef223-0af9-48f2-bbd1-4d84dd8cb35c","system_id":"levelo_inurba_marseille","lat":43.290103,"lon":5.356114,"is_reserved":false,"is_disabled":false,"rental_uris":{"android":"levelo://app?vid=134ef223-0af9-48f2-bbd1-4d84dd8cb35c","ios":"levelo://app?vid=134ef223-0af9-48f2-bbd1-4d84dd8cb35c"},"vehicle_type_id":"4","last_reported":1690819726,"current_range_meters":31600,"station_id":"ce4bhb92rcd13ifvqen0","pricing_plan_id":"free"},{"bike_id":"703413dd-9931-4d50-bb30-d89b3c86da62","system_id":"levelo_inurba_marseille","lat":43.290104,"lon":5.356111,"is_reserved":false,"is_disabled":false,"rental_uris":{"android":"levelo://app?vid=703413dd-9931-4d50-bb30-d89b3c86da62","ios":"levelo://app?vid=703413dd-9931-4d50-bb30-d89b3c86da62"},"vehicle_type_id":"4","last_reported":1690819726,"current_range_meters":31200,"station_id":"ce4bhb92rcd13ifvqen0","pricing_plan_id":"free"},{"bike_id":"9bec12f1-125b-4485-9c50-551d64be56ca","system_id":"levelo_inurba_marseille","lat":43.290103,"lon":5.356114,"is_reserved":false,"is_disabled":false,"rental_uris":{"android":"levelo://app?vid=9bec12f1-125b-4485-9c50-551d64be56ca","ios":"levelo://app?vid=9bec12f1-125b-4485-9c50-551d64be56ca"},"vehicle_type_id":"4","last_reported":1690819726,"current_range_meters":31200,"station_id":"ce4bhb92rcd13ifvqen0","pricing_plan_id":"free"},{"bike_id":"0f210b24-a5dc-4cb2-a514-ab5dd483496d","system_id":"levelo_inurba_marseille","lat":43.290995,"lon":5.381361,"is_reserved":false,"is_disabled":false,"rental_uris":{"android":"levelo://app?vid=0f210b24-a5dc-4cb2-a514-ab5dd483496d","ios":"levelo://app?vid=0f210b24-a5dc-4cb2-a514-ab5dd483496d"},"vehicle_type_id":"4","last_reported":1690819726,"current_range_meters":19600,"station_id":"ce4bh512rcd13ifvqe2g","pricing_plan_id":"free"},{"bike_id":"05bf2cc0-c80b-4d3b-9303-5cea93148e89","system_id":"levelo_inurba_marseille","lat":43.290995,"lon":5.381361,"is_reserved":false,"is_disabled":false,"rental_uris":{"android":"levelo://app?vid=05bf2cc0-c80b-4d3b-9303-5cea93148e89","ios":"levelo://app?vid=05bf2cc0-c80b-4d3b-9303-5cea93148e89"},"vehicle_type_id":"4","last_reported":1690819726,"current_range_meters":31200,"station_id":"ce4bh512rcd13ifvqe2g","pricing_plan_id":"free"},{"bike_id":"6265c2a6-d458-4c31-bf75-661278640902","system_id":"levelo_inurba_marseille","lat":43.290995,"lon":5.381361,"is_reserved":false,"is_disabled":false,"rental_uris":{"android":"levelo://app?vid=6265c2a6-d458-4c31-bf75-661278640902","ios":"levelo://app?vid=6265c2a6-d458-4c31-bf75-661278640902"},"vehicle_type_id":"4","last_reported":1690819726,"current_range_meters":21200,"station_id":"ce4bh512rcd13ifvqe2g","pricing_plan_id":"free"},{"bike_id":"d6eda751-25f8-4c0b-a26b-40146ed2a814","system_id":"levelo_inurba_marseille","lat":43.297815,"lon":5.393548,"is_reserved":false,"is_disabled":false,"rental_uris":{"android":"levelo://app?vid=d6eda751-25f8-4c0b-a26b-40146ed2a814","ios":"levelo://app?vid=d6eda751-25f8-4c0b-a26b-40146ed2a814"},"vehicle_type_id":"4","last_reported":1690819726,"current_range_meters":29200,"station_id":"chh1huq6cuj3fo74tm60","pricing_plan_id":"free"},{"bike_id":"652579ef-afc0-41a5-8712-73ab8ab899d3","system_id":"levelo_inurba_marseille","lat":43.29783,"lon":5.39339,"is_reserved":false,"is_disabled":false,"rental_uris":{"android":"levelo://app?vid=652579ef-afc0-41a5-8712-73ab8ab899d3","ios":"levelo://app?vid=652579ef-afc0-41a5-8712-73ab8ab899d3"},"vehicle_type_id":"4","last_reported":1690819726,"current_range_meters":22400,"station_id":"chh1huq6cuj3fo74tm60","pricing_plan_id":"free"},{"bike_id":"cbb1e3f7-8cb9-4262-abef-89c6cc558eda","system_id":"levelo_inurba_marseille","lat":43.295169,"lon":5.390426,"is_reserved":false,"is_disabled":false,"rental_uris":{"android":"levelo://app?vid=cbb1e3f7-8cb9-4262-abef-89c6cc558eda","ios":"levelo://app?vid=cbb1e3f7-8cb9-4262-abef-89c6cc558eda"},"vehicle_type_id":"4","last_reported":1690819726,"current_range_meters":16000,"station_id":"ce4bh3p2rcd13ifvqdp0","pricing_plan_id":"free"},{"bike_id":"64b676f5-037a-4704-b5f6-0f9d616995ba","system_id":"levelo_inurba_marseille","lat":43.295169,"lon":5.390426,"is_reserved":false,"is_disabled":false,"rental_uris":{"android":"levelo://app?vid=64b676f5-037a-4704-b5f6-0f9d616995ba","ios":"levelo://app?vid=64b676f5-037a-4704-b5f6-0f9d616995ba"},"vehicle_type_id":"4","last_reported":1690819726,"current_range_meters":26800,"station_id":"ce4bh3p2rcd13ifvqdp0","pricing_plan_id":"free"},{"bike_id":"2af61242-98a9-4b8a-965a-e1bb3b3b9d53","system_id":"levelo_inurba_marseille","lat":43.29525,"lon":5.39054,"is_reserved":false,"is_disabled":false,"rental_uris":{"android":"levelo://app?vid=2af61242-98a9-4b8a-965a-e1bb3b3b9d53","ios":"levelo://app?vid=2af61242-98a9-4b8a-965a-e1bb3b3b9d53"},"vehicle_type_id":"4","last_reported":1690819726,"current_range_meters":29600,"station_id":"","pricing_plan_id":"free"},{"bike_id":"92a5ef8d-a3db-49fe-8f33-28324b6eb2e5","system_id":"levelo_inurba_marseille","lat":43.29024,"lon":5.38132,"is_reserved":false,"is_disabled":false,"rental_uris":{"android":"levelo://app?vid=92a5ef8d-a3db-49fe-8f33-28324b6eb2e5","ios":"levelo://app?vid=92a5ef8d-a3db-49fe-8f33-28324b6eb2e5"},"vehicle_type_id":"4","last_reported":1690819726,"current_range_meters":400,"station_id":"ce4bh4p2rcd13ifvqe1g","pricing_plan_id":"free"},{"bike_id":"7424c8a7-cd02-43f8-b997-bdb6601a2350","system_id":"levelo_inurba_marseille","lat":43.28856,"lon":5.358371,"is_reserved":false,"is_disabled":false,"rental_uris":{"android":"levelo://app?vid=7424c8a7-cd02-43f8-b997-bdb6601a2350","ios":"levelo://app?vid=7424c8a7-cd02-43f8-b997-bdb6601a2350"},"vehicle_type_id":"4","last_reported":1690819726,"current_range_meters":25600,"station_id":"ce4bhb12rcd13ifvqem0","pricing_plan_id":"free"},{"bike_id":"054df242-919c-4658-bdb9-1bda9e9a58bf","system_id":"levelo_inurba_marseille","lat":43.28856,"lon":5.358371,"is_reserved":false,"is_disabled":false,"rental_uris":{"android":"levelo://app?vid=054df242-919c-4658-bdb9-1bda9e9a58bf","ios":"levelo://app?vid=054df242-919c-4658-bdb9-1bda9e9a58bf"},"vehicle_type_id":"4","last_reported":1690819726,"current_range_meters":0,"station_id":"ce4bhb12rcd13ifvqem0","pricing_plan_id":"free"},{"bike_id":"f1d59e8f-7d4a-4d30-9391-7dcae64e2d90","system_id":"levelo_inurba_marseille","lat":43.28853,"lon":5.35842,"is_reserved":false,"is_disabled":false,"rental_uris":{"android":"levelo://app?vid=f1d59e8f-7d4a-4d30-9391-7dcae64e2d90","ios":"levelo://app?vid=f1d59e8f-7d4a-4d30-9391-7dcae64e2d90"},"vehicle_type_id":"4","last_reported":1690819726,"current_range_meters":20000,"station_id":"ce4bhb12rcd13ifvqem0","pricing_plan_id":"free"},{"bike_id":"689233fd-0863-4392-85bb-fc3c0a3dc220","system_id":"levelo_inurba_marseille","lat":43.28856,"lon":5.358371,"is_reserved":false,"is_disabled":false,"rental_uris":{"android":"levelo://app?vid=689233fd-0863-4392-85bb-fc3c0a3dc220","ios":"levelo://app?vid=689233fd-0863-4392-85bb-fc3c0a3dc220"},"vehicle_type_id":"4","last_reported":1690819726,"current_range_meters":25200,"station_id":"ce4bhb12rcd13ifvqem0","pricing_plan_id":"free"},{"bike_id":"4088308f-c33d-4a0c-8b83-fb460941414e","system_id":"levelo_inurba_marseille","lat":43.28856,"lon":5.358371,"is_reserved":false,"is_disabled":false,"rental_uris":{"android":"levelo://app?vid=4088308f-c33d-4a0c-8b83-fb460941414e","ios":"levelo://app?vid=4088308f-c33d-4a0c-8b83-fb460941414e"},"vehicle_type_id":"4","last_reported":1690819726,"current_range_meters":24400,"station_id":"ce4bhb12rcd13ifvqem0","pricing_plan_id":"free"},{"bike_id":"a23f7c0d-4b6f-4457-847f-65163471f072","system_id":"levelo_inurba_marseille","lat":43.30938,"lon":5.40138,"is_reserved":false,"is_disabled":false,"rental_uris":{"android":"levelo://app?vid=a23f7c0d-4b6f-4457-847f-65163471f072","ios":"levelo://app?vid=a23f7c0d-4b6f-4457-847f-65163471f072"},"vehicle_type_id":"4","last_reported":1690819726,"current_range_meters":22800,"station_id":"ce4bgvp2rcd13ifvqct0","pricing_plan_id":"free"},{"bike_id":"713638c2-383f-408b-a100-f46b5264c018","system_id":"levelo_inurba_marseille","lat":43.309371,"lon":5.401449,"is_reserved":false,"is_disabled":false,"rental_uris":{"android":"levelo://app?vid=713638c2-383f-408b-a100-f46b5264c018","ios":"levelo://app?vid=713638c2-383f-408b-a100-f46b5264c018"},"vehicle_type_id":"4","last_reported":1690819726,"current_range_meters":24000,"station_id":"ce4bgvp2rcd13ifvqct0","pricing_plan_id":"free"},{"bike_id":"2c6cc48a-c0f3-4cac-8822-427ae1d4bffe","system_id":"levelo_inurba_marseille","lat":43.31282,"lon":5.4017,"is_reserved":false,"is_disabled":false,"rental_uris":{"android":"levelo://app?vid=2c6cc48a-c0f3-4cac-8822-427ae1d4bffe","ios":"levelo://app?vid=2c6cc48a-c0f3-4cac-8822-427ae1d4bffe"},"vehicle_type_id":"4","last_reported":1690819726,"current_range_meters":22800,"station_id":"ce4bh092rcd13ifvqd30","pricing_plan_id":"free"},{"bike_id":"fb895056-5177-439e-b6a1-eccc2cdf2b67","system_id":"levelo_inurba_marseille","lat":43.309371,"lon":5.401449,"is_reserved":false,"is_disabled":false,"rental_uris":{"android":"levelo://app?vid=fb895056-5177-439e-b6a1-eccc2cdf2b67","ios":"levelo://app?vid=fb895056-5177-439e-b6a1-eccc2cdf2b67"},"vehicle_type_id":"4","last_reported":1690819726,"current_range_meters":0,"station_id":"ce4bgvp2rcd13ifvqct0","pricing_plan_id":"free"},{"bike_id":"633ee452-b8f0-409b-b45f-a6374b9582ca","system_id":"levelo_inurba_marseille","lat":43.306463,"lon":5.401059,"is_reserved":false,"is_disabled":false,"rental_uris":{"android":"levelo://app?vid=633ee452-b8f0-409b-b45f-a6374b9582ca","ios":"levelo://app?vid=633ee452-b8f0-409b-b45f-a6374b9582ca"},"vehicle_type_id":"4","last_reported":1690819726,"current_range_meters":31200,"station_id":"ce4bh112rcd13ifvqda0","pricing_plan_id":"free"},{"bike_id":"e4570427-9415-4d67-bb4e-bf45760ed4f9","system_id":"levelo_inurba_marseille","lat":43.30642,"lon":5.401031,"is_reserved":false,"is_disabled":false,"rental_uris":{"android":"levelo://app?vid=e4570427-9415-4d67-bb4e-bf45760ed4f9","ios":"levelo://app?vid=e4570427-9415-4d67-bb4e-bf45760ed4f9"},"vehicle_type_id":"4","last_reported":1690819726,"current_range_meters":31600,"station_id":"ce4bh112rcd13ifvqda0","pricing_plan_id":"free"},{"bike_id":"113526cb-7b4e-4a30-a299-462117fd6b3d","system_id":"levelo_inurba_marseille","lat":43.306465,"lon":5.40107,"is_reserved":false,"is_disabled":false,"rental_uris":{"android":"levelo://app?vid=113526cb-7b4e-4a30-a299-462117fd6b3d","ios":"levelo://app?vid=113526cb-7b4e-4a30-a299-462117fd6b3d"},"vehicle_type_id":"4","last_reported":1690819726,"current_range_meters":31200,"station_id":"ce4bh112rcd13ifvqda0","pricing_plan_id":"free"},{"bike_id":"0a82e53c-894b-4ea9-8f67-672e74da643a","system_id":"levelo_inurba_marseille","lat":43.30642,"lon":5.401031,"is_reserved":false,"is_disabled":false,"rental_uris":{"android":"levelo://app?vid=0a82e53c-894b-4ea9-8f67-672e74da643a","ios":"levelo://app?vid=0a82e53c-894b-4ea9-8f67-672e74da643a"},"vehicle_type_id":"4","last_reported":1690819726,"current_range_meters":31200,"station_id":"ce4bh112rcd13ifvqda0","pricing_plan_id":"free"},{"bike_id":"05697a0e-e058-4668-82b1-82e2252d3c73","system_id":"levelo_inurba_marseille","lat":43.306473,"lon":5.401092,"is_reserved":false,"is_disabled":false,"rental_uris":{"android":"levelo://app?vid=05697a0e-e058-4668-82b1-82e2252d3c73","ios":"levelo://app?vid=05697a0e-e058-4668-82b1-82e2252d3c73"},"vehicle_type_id":"4","last_reported":1690819726,"current_range_meters":29200,"station_id":"ce4bhq92rcd13ifvqhkg","pricing_plan_id":"free"},{"bike_id":"1e12c4fa-4545-44ca-88fb-d9b258d37764","system_id":"levelo_inurba_marseille","lat":43.301117,"lon":5.398795,"is_reserved":false,"is_disabled":false,"rental_uris":{"android":"levelo://app?vid=1e12c4fa-4545-44ca-88fb-d9b258d37764","ios":"levelo://app?vid=1e12c4fa-4545-44ca-88fb-d9b258d37764"},"vehicle_type_id":"4","last_reported":1690819726,"current_range_meters":400,"station_id":"ce4bh0h2rcd13ifvqd40","pricing_plan_id":"free"},{"bike_id":"e61645df-88a7-45ac-9b18-52b58ec1bd0b","system_id":"levelo_inurba_marseille","lat":43.30147,"lon":5.39861,"is_reserved":false,"is_disabled":false,"rental_uris":{"android":"levelo://app?vid=e61645df-88a7-45ac-9b18-52b58ec1bd0b","ios":"levelo://app?vid=e61645df-88a7-45ac-9b18-52b58ec1bd0b"},"vehicle_type_id":"4","last_reported":1690819726,"current_range_meters":18400,"station_id":"ce4bh0h2rcd13ifvqd40","pricing_plan_id":"free"},{"bike_id":"2c5c4a80-6ef2-4eb3-8713-f62e03ac6940","system_id":"levelo_inurba_marseille","lat":43.301117,"lon":5.398795,"is_reserved":false,"is_disabled":false,"rental_uris":{"android":"levelo://app?vid=2c5c4a80-6ef2-4eb3-8713-f62e03ac6940","ios":"levelo://app?vid=2c5c4a80-6ef2-4eb3-8713-f62e03ac6940"},"vehicle_type_id":"4","last_reported":1690819726,"current_range_meters":17600,"station_id":"ce4bh0h2rcd13ifvqd40","pricing_plan_id":"free"},{"bike_id":"2cd67e80-7cb6-4d56-9b1a-84824fd41465","system_id":"levelo_inurba_marseille","lat":43.301117,"lon":5.398795,"is_reserved":false,"is_disabled":false,"rental_uris":{"android":"levelo://app?vid=2cd67e80-7cb6-4d56-9b1a-84824fd41465","ios":"levelo://app?vid=2cd67e80-7cb6-4d56-9b1a-84824fd41465"},"vehicle_type_id":"4","last_reported":1690819726,"current_range_meters":12800,"station_id":"ce4bh0h2rcd13ifvqd40","pricing_plan_id":"free"},{"bike_id":"4b6476da-8597-45ff-9188-6413eac680f7","system_id":"levelo_inurba_marseille","lat":43.30152,"lon":5.39878,"is_reserved":false,"is_disabled":false,"rental_uris":{"android":"levelo://app?vid=4b6476da-8597-45ff-9188-6413eac680f7","ios":"levelo://app?vid=4b6476da-8597-45ff-9188-6413eac680f7"},"vehicle_type_id":"4","last_reported":1690819726,"current_range_meters":31200,"station_id":"","pricing_plan_id":"free"},{"bike_id":"413ba369-1e2d-441a-b04b-86052e2af304","system_id":"levelo_inurba_marseille","lat":43.301117,"lon":5.398795,"is_reserved":false,"is_disabled":false,"rental_uris":{"android":"levelo://app?vid=413ba369-1e2d-441a-b04b-86052e2af304","ios":"levelo://app?vid=413ba369-1e2d-441a-b04b-86052e2af304"},"vehicle_type_id":"4","last_reported":1690819726,"current_range_meters":0,"station_id":"ce4bh0h2rcd13ifvqd40","pricing_plan_id":"free"},{"bike_id":"b3950e44-9680-465f-8bc5-2d4642151d2d","system_id":"levelo_inurba_marseille","lat":43.31407,"lon":5.40262,"is_reserved":false,"is_disabled":false,"rental_uris":{"android":"levelo://app?vid=b3950e44-9680-465f-8bc5-2d4642151d2d","ios":"levelo://app?vid=b3950e44-9680-465f-8bc5-2d4642151d2d"},"vehicle_type_id":"4","last_reported":1690819726,"current_range_meters":23600,"station_id":"","pricing_plan_id":"free"},{"bike_id":"75199276-b705-4ad7-b6a9-49aeaa84628a","system_id":"levelo_inurba_marseille","lat":43.286593,"lon":5.363346,"is_reserved":false,"is_disabled":false,"rental_uris":{"android":"levelo://app?vid=75199276-b705-4ad7-b6a9-49aeaa84628a","ios":"levelo://app?vid=75199276-b705-4ad7-b6a9-49aeaa84628a"},"vehicle_type_id":"4","last_reported":1690819726,"current_range_meters":31200,"station_id":"ce4bhah2rcd13ifvqej0","pricing_plan_id":"free"},{"bike_id":"c28191a8-e9df-4a94-a9cc-64ab55c8cde8","system_id":"levelo_inurba_marseille","lat":43.286591,"lon":5.363346,"is_reserved":false,"is_disabled":false,"rental_uris":{"android":"levelo://app?vid=c28191a8-e9df-4a94-a9cc-64ab55c8cde8","ios":"levelo://app?vid=c28191a8-e9df-4a94-a9cc-64ab55c8cde8"},"vehicle_type_id":"4","last_reported":1690819726,"current_range_meters":31600,"station_id":"ce4bhah2rcd13ifvqej0","pricing_plan_id":"free"},{"bike_id":"c2ccf7ba-74c8-46f5-bedc-5a02aeaa2121","system_id":"levelo_inurba_marseille","lat":43.286961,"lon":5.373785,"is_reserved":false,"is_disabled":false,"rental_uris":{"android":"levelo://app?vid=c2ccf7ba-74c8-46f5-bedc-5a02aeaa2121","ios":"levelo://app?vid=c2ccf7ba-74c8-46f5-bedc-5a02aeaa2121"},"vehicle_type_id":"4","last_reported":1690819726,"current_range_meters":18400,"station_id":"ce4bh3p2rcd13ifvqdq0","pricing_plan_id":"free"},{"bike_id":"489d5fe0-9b00-4f42-aec9-a78575776d11","system_id":"levelo_inurba_marseille","lat":43.295196,"lon":5.39397,"is_reserved":false,"is_disabled":false,"rental_uris":{"android":"levelo://app?vid=489d5fe0-9b00-4f42-aec9-a78575776d11","ios":"levelo://app?vid=489d5fe0-9b00-4f42-aec9-a78575776d11"},"vehicle_type_id":"4","last_reported":1690819726,"current_range_meters":30000,"station_id":"ce4bh292rcd13ifvqdf0","pricing_plan_id":"free"},{"bike_id":"fa4fe1a1-ff65-41e7-943b-220730adf2d1","system_id":"levelo_inurba_marseille","lat":43.295196,"lon":5.39397,"is_reserved":false,"is_disabled":false,"rental_uris":{"android":"levelo://app?vid=fa4fe1a1-ff65-41e7-943b-220730adf2d1","ios":"levelo://app?vid=fa4fe1a1-ff65-41e7-943b-220730adf2d1"},"vehicle_type_id":"4","last_reported":1690819726,"current_range_meters":30400,"station_id":"ce4bh292rcd13ifvqdf0","pricing_plan_id":"free"},{"bike_id":"15a26b92-ecda-45a1-a54d-ef9c8f3c13be","system_id":"levelo_inurba_marseille","lat":43.295196,"lon":5.39397,"is_reserved":false,"is_disabled":false,"rental_uris":{"android":"levelo://app?vid=15a26b92-ecda-45a1-a54d-ef9c8f3c13be","ios":"levelo://app?vid=15a26b92-ecda-45a1-a54d-ef9c8f3c13be"},"vehicle_type_id":"4","last_reported":1690819726,"current_range_meters":31200,"station_id":"ce4bh292rcd13ifvqdf0","pricing_plan_id":"free"},{"bike_id":"e5251bb8-9bf8-43a4-b07b-f9ae76605894","system_id":"levelo_inurba_marseille","lat":43.295196,"lon":5.39397,"is_reserved":false,"is_disabled":false,"rental_uris":{"android":"levelo://app?vid=e5251bb8-9bf8-43a4-b07b-f9ae76605894","ios":"levelo://app?vid=e5251bb8-9bf8-43a4-b07b-f9ae76605894"},"vehicle_type_id":"4","last_reported":1690819726,"current_range_meters":27600,"station_id":"ce4bh292rcd13ifvqdf0","pricing_plan_id":"free"},{"bike_id":"9e07e751-fcf4-41be-8b9a-452d83cb7aa7","system_id":"levelo_inurba_marseille","lat":43.295196,"lon":5.39397,"is_reserved":false,"is_disabled":false,"rental_uris":{"android":"levelo://app?vid=9e07e751-fcf4-41be-8b9a-452d83cb7aa7","ios":"levelo://app?vid=9e07e751-fcf4-41be-8b9a-452d83cb7aa7"},"vehicle_type_id":"4","last_reported":1690819726,"current_range_meters":20800,"station_id":"ce4bh292rcd13ifvqdf0","pricing_plan_id":"free"},{"bike_id":"dc32480c-54fb-4132-bf3e-71e4bafd3ce8","system_id":"levelo_inurba_marseille","lat":43.302759,"lon":5.400793,"is_reserved":false,"is_disabled":false,"rental_uris":{"android":"levelo://app?vid=dc32480c-54fb-4132-bf3e-71e4bafd3ce8","ios":"levelo://app?vid=dc32480c-54fb-4132-bf3e-71e4bafd3ce8"},"vehicle_type_id":"4","last_reported":1690819726,"current_range_meters":29200,"station_id":"ce4bgvh2rcd13ifvqcs0","pricing_plan_id":"free"},{"bike_id":"907b49d3-406a-4ead-afb1-43ec3be39387","system_id":"levelo_inurba_marseille","lat":43.295196,"lon":5.39397,"is_reserved":false,"is_disabled":false,"rental_uris":{"android":"levelo://app?vid=907b49d3-406a-4ead-afb1-43ec3be39387","ios":"levelo://app?vid=907b49d3-406a-4ead-afb1-43ec3be39387"},"vehicle_type_id":"4","last_reported":1690819726,"current_range_meters":13600,"station_id":"ce4bh292rcd13ifvqdf0","pricing_plan_id":"free"},{"bike_id":"50a57859-e91e-4685-86d2-a80904a4eeef","system_id":"levelo_inurba_marseille","lat":43.29032,"lon":5.38646,"is_reserved":false,"is_disabled":false,"rental_uris":{"android":"levelo://app?vid=50a57859-e91e-4685-86d2-a80904a4eeef","ios":"levelo://app?vid=50a57859-e91e-4685-86d2-a80904a4eeef"},"vehicle_type_id":"4","last_reported":1690819726,"current_range_meters":20000,"station_id":"","pricing_plan_id":"free"},{"bike_id":"e9b26366-fc24-4c96-bff1-eab79f931199","system_id":"levelo_inurba_marseille","lat":43.30247,"lon":5.4006,"is_reserved":false,"is_disabled":false,"rental_uris":{"android":"levelo://app?vid=e9b26366-fc24-4c96-bff1-eab79f931199","ios":"levelo://app?vid=e9b26366-fc24-4c96-bff1-eab79f931199"},"vehicle_type_id":"4","last_reported":1690819726,"current_range_meters":0,"station_id":"ce4bgvh2rcd13ifvqcs0","pricing_plan_id":"free"},{"bike_id":"2cf64e15-4114-4331-99f8-2c5709011c12","system_id":"levelo_inurba_marseille","lat":43.290345,"lon":5.38646,"is_reserved":false,"is_disabled":false,"rental_uris":{"android":"levelo://app?vid=2cf64e15-4114-4331-99f8-2c5709011c12","ios":"levelo://app?vid=2cf64e15-4114-4331-99f8-2c5709011c12"},"vehicle_type_id":"4","last_reported":1690819726,"current_range_meters":10000,"station_id":"ce4bh4p2rcd13ifvqe0g","pricing_plan_id":"free"},{"bike_id":"0cfea3de-1027-4c0e-af97-b43e3260f944","system_id":"levelo_inurba_marseille","lat":43.30258,"lon":5.4008,"is_reserved":false,"is_disabled":false,"rental_uris":{"android":"levelo://app?vid=0cfea3de-1027-4c0e-af97-b43e3260f944","ios":"levelo://app?vid=0cfea3de-1027-4c0e-af97-b43e3260f944"},"vehicle_type_id":"4","last_reported":1690819726,"current_range_meters":8000,"station_id":"ce4bgvh2rcd13ifvqcs0","pricing_plan_id":"free"},{"bike_id":"63f9ecc7-33e8-49f0-b369-525276d814eb","system_id":"levelo_inurba_marseille","lat":43.286039,"lon":5.370679,"is_reserved":false,"is_disabled":false,"rental_uris":{"android":"levelo://app?vid=63f9ecc7-33e8-49f0-b369-525276d814eb","ios":"levelo://app?vid=63f9ecc7-33e8-49f0-b369-525276d814eb"},"vehicle_type_id":"4","last_reported":1690819726,"current_range_meters":31200,"station_id":"ce4bht12rcd13ifvqi60","pricing_plan_id":"free"},{"bike_id":"bcf5f451-72a9-4c27-8d20-5194c2991fdb","system_id":"levelo_inurba_marseille","lat":43.302759,"lon":5.400793,"is_reserved":false,"is_disabled":false,"rental_uris":{"android":"levelo://app?vid=bcf5f451-72a9-4c27-8d20-5194c2991fdb","ios":"levelo://app?vid=bcf5f451-72a9-4c27-8d20-5194c2991fdb"},"vehicle_type_id":"4","last_reported":1690819726,"current_range_meters":31200,"station_id":"ce4bgvh2rcd13ifvqcs0","pricing_plan_id":"free"},{"bike_id":"055b2603-dd4e-4245-8bb6-e83964a1f7dc","system_id":"levelo_inurba_marseille","lat":43.286039,"lon":5.370681,"is_reserved":false,"is_disabled":false,"rental_uris":{"android":"levelo://app?vid=055b2603-dd4e-4245-8bb6-e83964a1f7dc","ios":"levelo://app?vid=055b2603-dd4e-4245-8bb6-e83964a1f7dc"},"vehicle_type_id":"4","last_reported":1690819726,"current_range_meters":5600,"station_id":"ce4bht12rcd13ifvqi60","pricing_plan_id":"free"},{"bike_id":"dffbbb1e-4efe-4f89-a62c-66736c5582e0","system_id":"levelo_inurba_marseille","lat":43.286039,"lon":5.370681,"is_reserved":false,"is_disabled":false,"rental_uris":{"android":"levelo://app?vid=dffbbb1e-4efe-4f89-a62c-66736c5582e0","ios":"levelo://app?vid=dffbbb1e-4efe-4f89-a62c-66736c5582e0"},"vehicle_type_id":"4","last_reported":1690819726,"current_range_meters":31200,"station_id":"ce4bht12rcd13ifvqi60","pricing_plan_id":"free"},{"bike_id":"dc3a4fca-0b22-42d8-8a29-5f9ab22c7a08","system_id":"levelo_inurba_marseille","lat":43.286039,"lon":5.370679,"is_reserved":false,"is_disabled":false,"rental_uris":{"android":"levelo://app?vid=dc3a4fca-0b22-42d8-8a29-5f9ab22c7a08","ios":"levelo://app?vid=dc3a4fca-0b22-42d8-8a29-5f9ab22c7a08"},"vehicle_type_id":"4","last_reported":1690819726,"current_range_meters":25200,"station_id":"ce4bht12rcd13ifvqi60","pricing_plan_id":"free"},{"bike_id":"fb953f10-6340-4c69-8795-45bfe1a492e2","system_id":"levelo_inurba_marseille","lat":43.28609,"lon":5.37068,"is_reserved":false,"is_disabled":false,"rental_uris":{"android":"levelo://app?vid=fb953f10-6340-4c69-8795-45bfe1a492e2","ios":"levelo://app?vid=fb953f10-6340-4c69-8795-45bfe1a492e2"},"vehicle_type_id":"4","last_reported":1690819726,"current_range_meters":20400,"station_id":"ce4bht12rcd13ifvqi60","pricing_plan_id":"free"},{"bike_id":"2935bf46-b581-4f15-b008-7019118ec59b","system_id":"levelo_inurba_marseille","lat":43.286039,"lon":5.370681,"is_reserved":false,"is_disabled":false,"rental_uris":{"android":"levelo://app?vid=2935bf46-b581-4f15-b008-7019118ec59b","ios":"levelo://app?vid=2935bf46-b581-4f15-b008-7019118ec59b"},"vehicle_type_id":"4","last_reported":1690819726,"current_range_meters":22800,"station_id":"ce4bht12rcd13ifvqi60","pricing_plan_id":"free"},{"bike_id":"343d7dd2-c91f-4a41-b9e6-25e114012205","system_id":"levelo_inurba_marseille","lat":43.31651,"lon":5.40425,"is_reserved":false,"is_disabled":false,"rental_uris":{"android":"levelo://app?vid=343d7dd2-c91f-4a41-b9e6-25e114012205","ios":"levelo://app?vid=343d7dd2-c91f-4a41-b9e6-25e114012205"},"vehicle_type_id":"4","last_reported":1690819726,"current_range_meters":31200,"station_id":"","pricing_plan_id":"free"},{"bike_id":"631459f1-2952-4301-bd95-06c1d29762c5","system_id":"levelo_inurba_marseille","lat":43.316523,"lon":5.404367,"is_reserved":false,"is_disabled":false,"rental_uris":{"android":"levelo://app?vid=631459f1-2952-4301-bd95-06c1d29762c5","ios":"levelo://app?vid=631459f1-2952-4301-bd95-06c1d29762c5"},"vehicle_type_id":"4","last_reported":1690819726,"current_range_meters":29200,"station_id":"ce4bh012rcd13ifvqd00","pricing_plan_id":"free"},{"bike_id":"43851695-5d9d-4534-acde-91e1fd520d0b","system_id":"levelo_inurba_marseille","lat":43.317015,"lon":5.404182,"is_reserved":false,"is_disabled":false,"rental_uris":{"android":"levelo://app?vid=43851695-5d9d-4534-acde-91e1fd520d0b","ios":"levelo://app?vid=43851695-5d9d-4534-acde-91e1fd520d0b"},"vehicle_type_id":"4","last_reported":1690819726,"current_range_meters":18800,"station_id":"ce4bh012rcd13ifvqd00","pricing_plan_id":"free"},{"bike_id":"4cd3c046-5634-43a4-88de-f24bcbb0ca3d","system_id":"levelo_inurba_marseille","lat":43.316523,"lon":5.404367,"is_reserved":false,"is_disabled":false,"rental_uris":{"android":"levelo://app?vid=4cd3c046-5634-43a4-88de-f24bcbb0ca3d","ios":"levelo://app?vid=4cd3c046-5634-43a4-88de-f24bcbb0ca3d"},"vehicle_type_id":"4","last_reported":1690819726,"current_range_meters":30800,"station_id":"ce4bh012rcd13ifvqd00","pricing_plan_id":"free"},{"bike_id":"dc1978b6-d9d1-485f-a5d8-c506c2fcabcf","system_id":"levelo_inurba_marseille","lat":43.31651,"lon":5.40433,"is_reserved":false,"is_disabled":false,"rental_uris":{"android":"levelo://app?vid=dc1978b6-d9d1-485f-a5d8-c506c2fcabcf","ios":"levelo://app?vid=dc1978b6-d9d1-485f-a5d8-c506c2fcabcf"},"vehicle_type_id":"4","last_reported":1690819726,"current_range_meters":24800,"station_id":"ce4bh012rcd13ifvqd00","pricing_plan_id":"free"},{"bike_id":"1033df37-7e8b-41e7-83be-2ee957c910d4","system_id":"levelo_inurba_marseille","lat":43.31653,"lon":5.40433,"is_reserved":false,"is_disabled":false,"rental_uris":{"android":"levelo://app?vid=1033df37-7e8b-41e7-83be-2ee957c910d4","ios":"levelo://app?vid=1033df37-7e8b-41e7-83be-2ee957c910d4"},"vehicle_type_id":"4","last_reported":1690819726,"current_range_meters":10400,"station_id":"ce4bh012rcd13ifvqd00","pricing_plan_id":"free"},{"bike_id":"54729caf-c9fb-4366-88c1-90579a86765b","system_id":"levelo_inurba_marseille","lat":43.3165,"lon":5.40434,"is_reserved":false,"is_disabled":false,"rental_uris":{"android":"levelo://app?vid=54729caf-c9fb-4366-88c1-90579a86765b","ios":"levelo://app?vid=54729caf-c9fb-4366-88c1-90579a86765b"},"vehicle_type_id":"4","last_reported":1690819726,"current_range_meters":18400,"station_id":"ce4bh012rcd13ifvqd00","pricing_plan_id":"free"},{"bike_id":"9784408d-580d-423a-b285-d641301b875b","system_id":"levelo_inurba_marseille","lat":43.31652,"lon":5.40435,"is_reserved":false,"is_disabled":false,"rental_uris":{"android":"levelo://app?vid=9784408d-580d-423a-b285-d641301b875b","ios":"levelo://app?vid=9784408d-580d-423a-b285-d641301b875b"},"vehicle_type_id":"4","last_reported":1690819726,"current_range_meters":28400,"station_id":"ce4bh012rcd13ifvqd00","pricing_plan_id":"free"},{"bike_id":"aeee1a69-5ea8-46b6-a77a-f8d3e4f3d119","system_id":"levelo_inurba_marseille","lat":43.3166,"lon":5.40434,"is_reserved":false,"is_disabled":false,"rental_uris":{"android":"levelo://app?vid=aeee1a69-5ea8-46b6-a77a-f8d3e4f3d119","ios":"levelo://app?vid=aeee1a69-5ea8-46b6-a77a-f8d3e4f3d119"},"vehicle_type_id":"4","last_reported":1690819726,"current_range_meters":28400,"station_id":"ce4bh012rcd13ifvqd00","pricing_plan_id":"free"},{"bike_id":"b836f974-c3db-4776-9cd8-f1290a5cef6b","system_id":"levelo_inurba_marseille","lat":43.31657,"lon":5.40437,"is_reserved":false,"is_disabled":false,"rental_uris":{"android":"levelo://app?vid=b836f974-c3db-4776-9cd8-f1290a5cef6b","ios":"levelo://app?vid=b836f974-c3db-4776-9cd8-f1290a5cef6b"},"vehicle_type_id":"4","last_reported":1690819726,"current_range_meters":31200,"station_id":"ce4bh012rcd13ifvqd00","pricing_plan_id":"free"},{"bike_id":"8d9b48d7-7a63-4e54-9159-26ab8980c8b7","system_id":"levelo_inurba_marseille","lat":43.31658,"lon":5.40438,"is_reserved":false,"is_disabled":false,"rental_uris":{"android":"levelo://app?vid=8d9b48d7-7a63-4e54-9159-26ab8980c8b7","ios":"levelo://app?vid=8d9b48d7-7a63-4e54-9159-26ab8980c8b7"},"vehicle_type_id":"4","last_reported":1690819726,"current_range_meters":18400,"station_id":"ce4bh012rcd13ifvqd00","pricing_plan_id":"free"},{"bike_id":"9ad382df-9d25-4371-9a06-4fcb2ef283d2","system_id":"levelo_inurba_marseille","lat":43.294314,"lon":5.397498,"is_reserved":false,"is_disabled":false,"rental_uris":{"android":"levelo://app?vid=9ad382df-9d25-4371-9a06-4fcb2ef283d2","ios":"levelo://app?vid=9ad382df-9d25-4371-9a06-4fcb2ef283d2"},"vehicle_type_id":"4","last_reported":1690819726,"current_range_meters":16800,"station_id":"ce4bh3h2rcd13ifvqdo0","pricing_plan_id":"free"},{"bike_id":"712624e8-ab56-4d7c-ae8e-29277ad43c7b","system_id":"levelo_inurba_marseille","lat":43.284538,"lon":5.358657,"is_reserved":false,"is_disabled":false,"rental_uris":{"android":"levelo://app?vid=712624e8-ab56-4d7c-ae8e-29277ad43c7b","ios":"levelo://app?vid=712624e8-ab56-4d7c-ae8e-29277ad43c7b"},"vehicle_type_id":"4","last_reported":1690819726,"current_range_meters":14400,"station_id":"ce4bhah2rcd13ifvqei0","pricing_plan_id":"free"},{"bike_id":"82cabb6d-b6a0-4307-a95a-f7edb03aa6a2","system_id":"levelo_inurba_marseille","lat":43.294314,"lon":5.397498,"is_reserved":false,"is_disabled":false,"rental_uris":{"android":"levelo://app?vid=82cabb6d-b6a0-4307-a95a-f7edb03aa6a2","ios":"levelo://app?vid=82cabb6d-b6a0-4307-a95a-f7edb03aa6a2"},"vehicle_type_id":"4","last_reported":1690819726,"current_range_meters":14800,"station_id":"ce4bh3h2rcd13ifvqdo0","pricing_plan_id":"free"},{"bike_id":"cf189cc5-8af2-45ad-bf6e-8cc9a3513def","system_id":"levelo_inurba_marseille","lat":43.285848,"lon":5.350787,"is_reserved":false,"is_disabled":false,"rental_uris":{"android":"levelo://app?vid=cf189cc5-8af2-45ad-bf6e-8cc9a3513def","ios":"levelo://app?vid=cf189cc5-8af2-45ad-bf6e-8cc9a3513def"},"vehicle_type_id":"4","last_reported":1690819726,"current_range_meters":30400,"station_id":"ce4bhch2rcd13ifvqeug","pricing_plan_id":"free"},{"bike_id":"588d74bf-8500-4146-b703-89abad4422a4","system_id":"levelo_inurba_marseille","lat":43.2862,"lon":5.35102,"is_reserved":false,"is_disabled":false,"rental_uris":{"android":"levelo://app?vid=588d74bf-8500-4146-b703-89abad4422a4","ios":"levelo://app?vid=588d74bf-8500-4146-b703-89abad4422a4"},"vehicle_type_id":"4","last_reported":1690819726,"current_range_meters":26800,"station_id":"ce4bhch2rcd13ifvqeug","pricing_plan_id":"free"},{"bike_id":"fff7eb4c-67f5-4e2a-8214-4fc53aee5a3a","system_id":"levelo_inurba_marseille","lat":43.28618,"lon":5.35108,"is_reserved":false,"is_disabled":false,"rental_uris":{"android":"levelo://app?vid=fff7eb4c-67f5-4e2a-8214-4fc53aee5a3a","ios":"levelo://app?vid=fff7eb4c-67f5-4e2a-8214-4fc53aee5a3a"},"vehicle_type_id":"4","last_reported":1690819726,"current_range_meters":4800,"station_id":"ce4bhch2rcd13ifvqeug","pricing_plan_id":"free"},{"bike_id":"83122d50-c58f-4b6f-96c4-f7cbc383d873","system_id":"levelo_inurba_marseille","lat":43.285848,"lon":5.350787,"is_reserved":false,"is_disabled":false,"rental_uris":{"android":"levelo://app?vid=83122d50-c58f-4b6f-96c4-f7cbc383d873","ios":"levelo://app?vid=83122d50-c58f-4b6f-96c4-f7cbc383d873"},"vehicle_type_id":"4","last_reported":1690819726,"current_range_meters":20400,"station_id":"ce4bhch2rcd13ifvqeug","pricing_plan_id":"free"},{"bike_id":"39ea4603-6817-4a5b-9f4a-535802ac49bf","system_id":"levelo_inurba_marseille","lat":43.285848,"lon":5.350787,"is_reserved":false,"is_disabled":false,"rental_uris":{"android":"levelo://app?vid=39ea4603-6817-4a5b-9f4a-535802ac49bf","ios":"levelo://app?vid=39ea4603-6817-4a5b-9f4a-535802ac49bf"},"vehicle_type_id":"4","last_reported":1690819726,"current_range_meters":0,"station_id":"ce4bhch2rcd13ifvqeug","pricing_plan_id":"free"},{"bike_id":"3ff4cb1d-cf97-4ce2-b7af-2df2b5ba4c2b","system_id":"levelo_inurba_marseille","lat":43.285848,"lon":5.350787,"is_reserved":false,"is_disabled":false,"rental_uris":{"android":"levelo://app?vid=3ff4cb1d-cf97-4ce2-b7af-2df2b5ba4c2b","ios":"levelo://app?vid=3ff4cb1d-cf97-4ce2-b7af-2df2b5ba4c2b"},"vehicle_type_id":"4","last_reported":1690819726,"current_range_meters":30400,"station_id":"ce4bhch2rcd13ifvqeug","pricing_plan_id":"free"},{"bike_id":"5b112069-dd75-4a1c-a0d8-84fb8f414b25","system_id":"levelo_inurba_marseille","lat":43.285848,"lon":5.350787,"is_reserved":false,"is_disabled":false,"rental_uris":{"android":"levelo://app?vid=5b112069-dd75-4a1c-a0d8-84fb8f414b25","ios":"levelo://app?vid=5b112069-dd75-4a1c-a0d8-84fb8f414b25"},"vehicle_type_id":"4","last_reported":1690819726,"current_range_meters":20400,"station_id":"ce4bhch2rcd13ifvqeug","pricing_plan_id":"free"},{"bike_id":"bdcdee81-653a-4dbe-abc1-e479b71c2fc6","system_id":"levelo_inurba_marseille","lat":43.283998,"lon":5.375062,"is_reserved":false,"is_disabled":false,"rental_uris":{"android":"levelo://app?vid=bdcdee81-653a-4dbe-abc1-e479b71c2fc6","ios":"levelo://app?vid=bdcdee81-653a-4dbe-abc1-e479b71c2fc6"},"vehicle_type_id":"4","last_reported":1690819726,"current_range_meters":12000,"station_id":"ce4bh412rcd13ifvqds0","pricing_plan_id":"free"},{"bike_id":"df31c1cf-9570-4284-a3b8-654adcb5b29a","system_id":"levelo_inurba_marseille","lat":43.295713,"lon":5.399639,"is_reserved":false,"is_disabled":false,"rental_uris":{"android":"levelo://app?vid=df31c1cf-9570-4284-a3b8-654adcb5b29a","ios":"levelo://app?vid=df31c1cf-9570-4284-a3b8-654adcb5b29a"},"vehicle_type_id":"4","last_reported":1690819726,"current_range_meters":29600,"station_id":"ce4bh312rcd13ifvqdj0","pricing_plan_id":"free"},{"bike_id":"1d845d6a-d68f-47ea-8bae-bd3157a54c97","system_id":"levelo_inurba_marseille","lat":43.283998,"lon":5.375062,"is_reserved":false,"is_disabled":false,"rental_uris":{"android":"levelo://app?vid=1d845d6a-d68f-47ea-8bae-bd3157a54c97","ios":"levelo://app?vid=1d845d6a-d68f-47ea-8bae-bd3157a54c97"},"vehicle_type_id":"4","last_reported":1690819726,"current_range_meters":25200,"station_id":"ce4bh412rcd13ifvqds0","pricing_plan_id":"free"},{"bike_id":"a2eb9791-aa1b-4d4f-8771-ec4caa2e8c74","system_id":"levelo_inurba_marseille","lat":43.283998,"lon":5.375062,"is_reserved":false,"is_disabled":false,"rental_uris":{"android":"levelo://app?vid=a2eb9791-aa1b-4d4f-8771-ec4caa2e8c74","ios":"levelo://app?vid=a2eb9791-aa1b-4d4f-8771-ec4caa2e8c74"},"vehicle_type_id":"4","last_reported":1690819726,"current_range_meters":23200,"station_id":"ce4bh412rcd13ifvqds0","pricing_plan_id":"free"},{"bike_id":"485713b2-b9cf-4954-a33b-6b9a9e827fa5","system_id":"levelo_inurba_marseille","lat":43.286595,"lon":5.386795,"is_reserved":false,"is_disabled":false,"rental_uris":{"android":"levelo://app?vid=485713b2-b9cf-4954-a33b-6b9a9e827fa5","ios":"levelo://app?vid=485713b2-b9cf-4954-a33b-6b9a9e827fa5"},"vehicle_type_id":"4","last_reported":1690819726,"current_range_meters":26400,"station_id":"ce4bh492rcd13ifvqdug","pricing_plan_id":"free"},{"bike_id":"514de078-4913-4260-91e5-cc04cdb5ca00","system_id":"levelo_inurba_marseille","lat":43.289468,"lon":5.363719,"is_reserved":false,"is_disabled":false,"rental_uris":{"android":"levelo://app?vid=514de078-4913-4260-91e5-cc04cdb5ca00","ios":"levelo://app?vid=514de078-4913-4260-91e5-cc04cdb5ca00"},"vehicle_type_id":"4","last_reported":1690819726,"current_range_meters":30000,"station_id":"ce4bhc92rcd13ifvqetg","pricing_plan_id":"free"},{"bike_id":"b35b35ac-779a-433f-a286-0b05a9e80c7f","system_id":"levelo_inurba_marseille","lat":43.337168,"lon":5.391825,"is_reserved":false,"is_disabled":false,"rental_uris":{"android":"levelo://app?vid=b35b35ac-779a-433f-a286-0b05a9e80c7f","ios":"levelo://app?vid=b35b35ac-779a-433f-a286-0b05a9e80c7f"},"vehicle_type_id":"4","last_reported":1690819726,"current_range_meters":20000,"station_id":"ce4bhr92rcd13ifvqhsg","pricing_plan_id":"free"},{"bike_id":"999c88c7-8488-41d0-a9d7-6a1c426f1e00","system_id":"levelo_inurba_marseille","lat":43.323464,"lon":5.406297,"is_reserved":false,"is_disabled":false,"rental_uris":{"android":"levelo://app?vid=999c88c7-8488-41d0-a9d7-6a1c426f1e00","ios":"levelo://app?vid=999c88c7-8488-41d0-a9d7-6a1c426f1e00"},"vehicle_type_id":"4","last_reported":1690819726,"current_range_meters":25200,"station_id":"ce4bhq92rcd13ifvqhjg","pricing_plan_id":"free"},{"bike_id":"8deb2c34-4e7b-4556-9b7e-0c2271cdd2bd","system_id":"levelo_inurba_marseille","lat":43.323464,"lon":5.406297,"is_reserved":false,"is_disabled":false,"rental_uris":{"android":"levelo://app?vid=8deb2c34-4e7b-4556-9b7e-0c2271cdd2bd","ios":"levelo://app?vid=8deb2c34-4e7b-4556-9b7e-0c2271cdd2bd"},"vehicle_type_id":"4","last_reported":1690819726,"current_range_meters":27600,"station_id":"ce4bhq92rcd13ifvqhjg","pricing_plan_id":"free"},{"bike_id":"a412b8a9-b41c-49ef-8bda-be4d266dcbd2","system_id":"levelo_inurba_marseille","lat":43.32345,"lon":5.40624,"is_reserved":false,"is_disabled":false,"rental_uris":{"android":"levelo://app?vid=a412b8a9-b41c-49ef-8bda-be4d266dcbd2","ios":"levelo://app?vid=a412b8a9-b41c-49ef-8bda-be4d266dcbd2"},"vehicle_type_id":"4","last_reported":1690819726,"current_range_meters":4400,"station_id":"ce4bhq92rcd13ifvqhjg","pricing_plan_id":"free"},{"bike_id":"dbada9f9-e33c-4a7d-ab43-1cac4e571e70","system_id":"levelo_inurba_marseille","lat":43.284787,"lon":5.384116,"is_reserved":false,"is_disabled":false,"rental_uris":{"android":"levelo://app?vid=dbada9f9-e33c-4a7d-ab43-1cac4e571e70","ios":"levelo://app?vid=dbada9f9-e33c-4a7d-ab43-1cac4e571e70"},"vehicle_type_id":"4","last_reported":1690819726,"current_range_meters":30800,"station_id":"ce4bh512rcd13ifvqe3g","pricing_plan_id":"free"},{"bike_id":"a27866a1-3ac9-40b0-b697-4778022f3bf9","system_id":"levelo_inurba_marseille","lat":43.298,"lon":5.40408,"is_reserved":false,"is_disabled":false,"rental_uris":{"android":"levelo://app?vid=a27866a1-3ac9-40b0-b697-4778022f3bf9","ios":"levelo://app?vid=a27866a1-3ac9-40b0-b697-4778022f3bf9"},"vehicle_type_id":"4","last_reported":1690819726,"current_range_meters":17200,"station_id":"","pricing_plan_id":"free"},{"bike_id":"c4b72fef-d9c1-4299-a363-8eb0c38bebf4","system_id":"levelo_inurba_marseille","lat":43.29795,"lon":5.4041,"is_reserved":false,"is_disabled":false,"rental_uris":{"android":"levelo://app?vid=c4b72fef-d9c1-4299-a363-8eb0c38bebf4","ios":"levelo://app?vid=c4b72fef-d9c1-4299-a363-8eb0c38bebf4"},"vehicle_type_id":"4","last_reported":1690819726,"current_range_meters":18000,"station_id":"","pricing_plan_id":"free"},{"bike_id":"a4eb377c-d9f6-446b-b712-2295ecb04d95","system_id":"levelo_inurba_marseille","lat":43.28426,"lon":5.34995,"is_reserved":false,"is_disabled":false,"rental_uris":{"android":"levelo://app?vid=a4eb377c-d9f6-446b-b712-2295ecb04d95","ios":"levelo://app?vid=a4eb377c-d9f6-446b-b712-2295ecb04d95"},"vehicle_type_id":"4","last_reported":1690819726,"current_range_meters":26000,"station_id":"ce4bhbh2rcd13ifvqepg","pricing_plan_id":"free"},{"bike_id":"9e000755-a935-477c-bb6a-2762a55fe67a","system_id":"levelo_inurba_marseille","lat":43.284219,"lon":5.3497,"is_reserved":false,"is_disabled":false,"rental_uris":{"android":"levelo://app?vid=9e000755-a935-477c-bb6a-2762a55fe67a","ios":"levelo://app?vid=9e000755-a935-477c-bb6a-2762a55fe67a"},"vehicle_type_id":"4","last_reported":1690819726,"current_range_meters":31200,"station_id":"ce4bhbh2rcd13ifvqepg","pricing_plan_id":"free"},{"bike_id":"e378fa3b-7f4e-40cf-8eac-1aa10fd209a5","system_id":"levelo_inurba_marseille","lat":43.28423,"lon":5.34995,"is_reserved":false,"is_disabled":false,"rental_uris":{"android":"levelo://app?vid=e378fa3b-7f4e-40cf-8eac-1aa10fd209a5","ios":"levelo://app?vid=e378fa3b-7f4e-40cf-8eac-1aa10fd209a5"},"vehicle_type_id":"4","last_reported":1690819726,"current_range_meters":14000,"station_id":"ce4bhbh2rcd13ifvqepg","pricing_plan_id":"free"},{"bike_id":"854b0e4d-3b9e-4a12-8178-11079f48a524","system_id":"levelo_inurba_marseille","lat":43.284219,"lon":5.3497,"is_reserved":false,"is_disabled":false,"rental_uris":{"android":"levelo://app?vid=854b0e4d-3b9e-4a12-8178-11079f48a524","ios":"levelo://app?vid=854b0e4d-3b9e-4a12-8178-11079f48a524"},"vehicle_type_id":"4","last_reported":1690819726,"current_range_meters":30800,"station_id":"ce4bhbh2rcd13ifvqepg","pricing_plan_id":"free"},{"bike_id":"7b605329-df4a-4a7e-be36-c44376a2c941","system_id":"levelo_inurba_marseille","lat":43.284219,"lon":5.3497,"is_reserved":false,"is_disabled":false,"rental_uris":{"android":"levelo://app?vid=7b605329-df4a-4a7e-be36-c44376a2c941","ios":"levelo://app?vid=7b605329-df4a-4a7e-be36-c44376a2c941"},"vehicle_type_id":"4","last_reported":1690819726,"current_range_meters":26800,"station_id":"ce4bhbh2rcd13ifvqepg","pricing_plan_id":"free"},{"bike_id":"c70af024-d021-4e44-bdbf-b5da8f3a0f2e","system_id":"levelo_inurba_marseille","lat":43.284219,"lon":5.3497,"is_reserved":false,"is_disabled":false,"rental_uris":{"android":"levelo://app?vid=c70af024-d021-4e44-bdbf-b5da8f3a0f2e","ios":"levelo://app?vid=c70af024-d021-4e44-bdbf-b5da8f3a0f2e"},"vehicle_type_id":"4","last_reported":1690819726,"current_range_meters":16800,"station_id":"ce4bhbh2rcd13ifvqepg","pricing_plan_id":"free"},{"bike_id":"b1426cc0-8658-441b-b589-3a2c3c4f6ed8","system_id":"levelo_inurba_marseille","lat":43.2842,"lon":5.34992,"is_reserved":false,"is_disabled":false,"rental_uris":{"android":"levelo://app?vid=b1426cc0-8658-441b-b589-3a2c3c4f6ed8","ios":"levelo://app?vid=b1426cc0-8658-441b-b589-3a2c3c4f6ed8"},"vehicle_type_id":"4","last_reported":1690819726,"current_range_meters":26000,"station_id":"ce4bhbh2rcd13ifvqepg","pricing_plan_id":"free"},{"bike_id":"d5b35f69-b146-413b-b20d-9ba0b6fe9bea","system_id":"levelo_inurba_marseille","lat":43.2842,"lon":5.34986,"is_reserved":false,"is_disabled":false,"rental_uris":{"android":"levelo://app?vid=d5b35f69-b146-413b-b20d-9ba0b6fe9bea","ios":"levelo://app?vid=d5b35f69-b146-413b-b20d-9ba0b6fe9bea"},"vehicle_type_id":"4","last_reported":1690819726,"current_range_meters":3600,"station_id":"ce4bhbh2rcd13ifvqepg","pricing_plan_id":"free"},{"bike_id":"fdf483a8-83bf-46f7-a41d-af6aa8841cc3","system_id":"levelo_inurba_marseille","lat":43.284219,"lon":5.3497,"is_reserved":false,"is_disabled":false,"rental_uris":{"android":"levelo://app?vid=fdf483a8-83bf-46f7-a41d-af6aa8841cc3","ios":"levelo://app?vid=fdf483a8-83bf-46f7-a41d-af6aa8841cc3"},"vehicle_type_id":"4","last_reported":1690819726,"current_range_meters":25600,"station_id":"ce4bhbh2rcd13ifvqepg","pricing_plan_id":"free"},{"bike_id":"815c0615-7f31-43c5-b21d-46ca60f3a71f","system_id":"levelo_inurba_marseille","lat":43.28417,"lon":5.34993,"is_reserved":false,"is_disabled":false,"rental_uris":{"android":"levelo://app?vid=815c0615-7f31-43c5-b21d-46ca60f3a71f","ios":"levelo://app?vid=815c0615-7f31-43c5-b21d-46ca60f3a71f"},"vehicle_type_id":"4","last_reported":1690819726,"current_range_meters":13600,"station_id":"ce4bhbh2rcd13ifvqepg","pricing_plan_id":"free"},{"bike_id":"eba6efca-2799-4904-8e85-c43dcdcbe81f","system_id":"levelo_inurba_marseille","lat":43.28416,"lon":5.34989,"is_reserved":false,"is_disabled":false,"rental_uris":{"android":"levelo://app?vid=eba6efca-2799-4904-8e85-c43dcdcbe81f","ios":"levelo://app?vid=eba6efca-2799-4904-8e85-c43dcdcbe81f"},"vehicle_type_id":"4","last_reported":1690819726,"current_range_meters":30400,"station_id":"ce4bhbh2rcd13ifvqepg","pricing_plan_id":"free"},{"bike_id":"e7189c5b-70a6-4655-ab7c-50bc17c37eed","system_id":"levelo_inurba_marseille","lat":43.28419,"lon":5.34977,"is_reserved":false,"is_disabled":false,"rental_uris":{"android":"levelo://app?vid=e7189c5b-70a6-4655-ab7c-50bc17c37eed","ios":"levelo://app?vid=e7189c5b-70a6-4655-ab7c-50bc17c37eed"},"vehicle_type_id":"4","last_reported":1690819726,"current_range_meters":23600,"station_id":"ce4bhbh2rcd13ifvqepg","pricing_plan_id":"free"},{"bike_id":"65fdf848-31d0-434c-9330-39bc6cddc577","system_id":"levelo_inurba_marseille","lat":43.28418,"lon":5.3498,"is_reserved":false,"is_disabled":false,"rental_uris":{"android":"levelo://app?vid=65fdf848-31d0-434c-9330-39bc6cddc577","ios":"levelo://app?vid=65fdf848-31d0-434c-9330-39bc6cddc577"},"vehicle_type_id":"4","last_reported":1690819726,"current_range_meters":3600,"station_id":"ce4bhbh2rcd13ifvqepg","pricing_plan_id":"free"},{"bike_id":"a2521efe-0bbe-444d-a7cf-cc11ef9e375b","system_id":"levelo_inurba_marseille","lat":43.284219,"lon":5.3497,"is_reserved":false,"is_disabled":false,"rental_uris":{"android":"levelo://app?vid=a2521efe-0bbe-444d-a7cf-cc11ef9e375b","ios":"levelo://app?vid=a2521efe-0bbe-444d-a7cf-cc11ef9e375b"},"vehicle_type_id":"4","last_reported":1690819726,"current_range_meters":29200,"station_id":"ce4bhbh2rcd13ifvqepg","pricing_plan_id":"free"},{"bike_id":"4a674481-3a4e-4aaf-af1c-1b43c3d2ac9c","system_id":"levelo_inurba_marseille","lat":43.28416,"lon":5.34985,"is_reserved":false,"is_disabled":false,"rental_uris":{"android":"levelo://app?vid=4a674481-3a4e-4aaf-af1c-1b43c3d2ac9c","ios":"levelo://app?vid=4a674481-3a4e-4aaf-af1c-1b43c3d2ac9c"},"vehicle_type_id":"4","last_reported":1690819726,"current_range_meters":28800,"station_id":"ce4bhbh2rcd13ifvqepg","pricing_plan_id":"free"},{"bike_id":"5a33efeb-5151-4702-8fd3-a17d80ec88f0","system_id":"levelo_inurba_marseille","lat":43.284217,"lon":5.349697,"is_reserved":false,"is_disabled":false,"rental_uris":{"android":"levelo://app?vid=5a33efeb-5151-4702-8fd3-a17d80ec88f0","ios":"levelo://app?vid=5a33efeb-5151-4702-8fd3-a17d80ec88f0"},"vehicle_type_id":"4","last_reported":1690819726,"current_range_meters":19600,"station_id":"ce4bhbh2rcd13ifvqepg","pricing_plan_id":"free"},{"bike_id":"16e3e812-3e9b-4717-9a0c-30ce507459a2","system_id":"levelo_inurba_marseille","lat":43.284217,"lon":5.349697,"is_reserved":false,"is_disabled":false,"rental_uris":{"android":"levelo://app?vid=16e3e812-3e9b-4717-9a0c-30ce507459a2","ios":"levelo://app?vid=16e3e812-3e9b-4717-9a0c-30ce507459a2"},"vehicle_type_id":"4","last_reported":1690819726,"current_range_meters":20400,"station_id":"ce4bhbh2rcd13ifvqepg","pricing_plan_id":"free"},{"bike_id":"2fa9f4c1-01a1-4582-9199-49807ff01ab6","system_id":"levelo_inurba_marseille","lat":43.28415,"lon":5.34983,"is_reserved":false,"is_disabled":false,"rental_uris":{"android":"levelo://app?vid=2fa9f4c1-01a1-4582-9199-49807ff01ab6","ios":"levelo://app?vid=2fa9f4c1-01a1-4582-9199-49807ff01ab6"},"vehicle_type_id":"4","last_reported":1690819726,"current_range_meters":17600,"station_id":"ce4bhbh2rcd13ifvqepg","pricing_plan_id":"free"},{"bike_id":"168b0302-1a0c-4ce0-a0d9-0b6a721a22c3","system_id":"levelo_inurba_marseille","lat":43.28408,"lon":5.34995,"is_reserved":false,"is_disabled":false,"rental_uris":{"android":"levelo://app?vid=168b0302-1a0c-4ce0-a0d9-0b6a721a22c3","ios":"levelo://app?vid=168b0302-1a0c-4ce0-a0d9-0b6a721a22c3"},"vehicle_type_id":"4","last_reported":1690819726,"current_range_meters":25600,"station_id":"ce4bhbh2rcd13ifvqepg","pricing_plan_id":"free"},{"bike_id":"8e1558db-6ba6-44da-b6a4-f89e70b3445b","system_id":"levelo_inurba_marseille","lat":43.28407,"lon":5.34991,"is_reserved":false,"is_disabled":false,"rental_uris":{"android":"levelo://app?vid=8e1558db-6ba6-44da-b6a4-f89e70b3445b","ios":"levelo://app?vid=8e1558db-6ba6-44da-b6a4-f89e70b3445b"},"vehicle_type_id":"4","last_reported":1690819726,"current_range_meters":31200,"station_id":"ce4bhbh2rcd13ifvqepg","pricing_plan_id":"free"},{"bike_id":"310116e4-c066-4845-b90e-d028b7280339","system_id":"levelo_inurba_marseille","lat":43.282754,"lon":5.350519,"is_reserved":false,"is_disabled":false,"rental_uris":{"android":"levelo://app?vid=310116e4-c066-4845-b90e-d028b7280339","ios":"levelo://app?vid=310116e4-c066-4845-b90e-d028b7280339"},"vehicle_type_id":"4","last_reported":1690819726,"current_range_meters":31600,"station_id":"ce4bhbp2rcd13ifvqerg","pricing_plan_id":"free"},{"bike_id":"4676ec36-83b5-4520-a3e4-f6b448a38e32","system_id":"levelo_inurba_marseille","lat":43.282744,"lon":5.350533,"is_reserved":false,"is_disabled":false,"rental_uris":{"android":"levelo://app?vid=4676ec36-83b5-4520-a3e4-f6b448a38e32","ios":"levelo://app?vid=4676ec36-83b5-4520-a3e4-f6b448a38e32"},"vehicle_type_id":"4","last_reported":1690819726,"current_range_meters":17200,"station_id":"ce4bhbp2rcd13ifvqerg","pricing_plan_id":"free"},{"bike_id":"8ef21db6-2598-47c6-8bb7-df2410c6fdf8","system_id":"levelo_inurba_marseille","lat":43.28278,"lon":5.35068,"is_reserved":false,"is_disabled":false,"rental_uris":{"android":"levelo://app?vid=8ef21db6-2598-47c6-8bb7-df2410c6fdf8","ios":"levelo://app?vid=8ef21db6-2598-47c6-8bb7-df2410c6fdf8"},"vehicle_type_id":"4","last_reported":1690819726,"current_range_meters":25200,"station_id":"ce4bhbp2rcd13ifvqerg","pricing_plan_id":"free"},{"bike_id":"f8918a0f-8cb2-4274-8b04-ce343bfaf116","system_id":"levelo_inurba_marseille","lat":43.282754,"lon":5.350519,"is_reserved":false,"is_disabled":false,"rental_uris":{"android":"levelo://app?vid=f8918a0f-8cb2-4274-8b04-ce343bfaf116","ios":"levelo://app?vid=f8918a0f-8cb2-4274-8b04-ce343bfaf116"},"vehicle_type_id":"4","last_reported":1690819726,"current_range_meters":14400,"station_id":"ce4bhbp2rcd13ifvqerg","pricing_plan_id":"free"},{"bike_id":"705fdd0a-aa7c-4720-ae65-5a0c624010b7","system_id":"levelo_inurba_marseille","lat":43.282754,"lon":5.350519,"is_reserved":false,"is_disabled":false,"rental_uris":{"android":"levelo://app?vid=705fdd0a-aa7c-4720-ae65-5a0c624010b7","ios":"levelo://app?vid=705fdd0a-aa7c-4720-ae65-5a0c624010b7"},"vehicle_type_id":"4","last_reported":1690819726,"current_range_meters":22400,"station_id":"ce4bhbp2rcd13ifvqerg","pricing_plan_id":"free"},{"bike_id":"c8c8f6df-ed9a-4796-8a21-fc037f2f624c","system_id":"levelo_inurba_marseille","lat":43.282754,"lon":5.350519,"is_reserved":false,"is_disabled":false,"rental_uris":{"android":"levelo://app?vid=c8c8f6df-ed9a-4796-8a21-fc037f2f624c","ios":"levelo://app?vid=c8c8f6df-ed9a-4796-8a21-fc037f2f624c"},"vehicle_type_id":"4","last_reported":1690819726,"current_range_meters":23200,"station_id":"ce4bhbp2rcd13ifvqerg","pricing_plan_id":"free"},{"bike_id":"af05b1f3-c2aa-477f-a1b5-0fff70ced42b","system_id":"levelo_inurba_marseille","lat":43.282754,"lon":5.350519,"is_reserved":false,"is_disabled":false,"rental_uris":{"android":"levelo://app?vid=af05b1f3-c2aa-477f-a1b5-0fff70ced42b","ios":"levelo://app?vid=af05b1f3-c2aa-477f-a1b5-0fff70ced42b"},"vehicle_type_id":"4","last_reported":1690819726,"current_range_meters":17200,"station_id":"ce4bhbp2rcd13ifvqerg","pricing_plan_id":"free"},{"bike_id":"dddc02e4-5ff7-4dfe-80e8-0aa9c8241af0","system_id":"levelo_inurba_marseille","lat":43.282744,"lon":5.350533,"is_reserved":false,"is_disabled":false,"rental_uris":{"android":"levelo://app?vid=dddc02e4-5ff7-4dfe-80e8-0aa9c8241af0","ios":"levelo://app?vid=dddc02e4-5ff7-4dfe-80e8-0aa9c8241af0"},"vehicle_type_id":"4","last_reported":1690819726,"current_range_meters":3200,"station_id":"ce4bhbp2rcd13ifvqerg","pricing_plan_id":"free"},{"bike_id":"1fe7b53e-db39-4fd3-8e1a-d6532501b1a8","system_id":"levelo_inurba_marseille","lat":43.280382,"lon":5.369291,"is_reserved":false,"is_disabled":false,"rental_uris":{"android":"levelo://app?vid=1fe7b53e-db39-4fd3-8e1a-d6532501b1a8","ios":"levelo://app?vid=1fe7b53e-db39-4fd3-8e1a-d6532501b1a8"},"vehicle_type_id":"4","last_reported":1690819726,"current_range_meters":20000,"station_id":"ce4bha12rcd13ifvqef0","pricing_plan_id":"free"},{"bike_id":"96751007-2cf4-4589-bbde-b138e8aaf8fa","system_id":"levelo_inurba_marseille","lat":43.28039,"lon":5.369297,"is_reserved":false,"is_disabled":false,"rental_uris":{"android":"levelo://app?vid=96751007-2cf4-4589-bbde-b138e8aaf8fa","ios":"levelo://app?vid=96751007-2cf4-4589-bbde-b138e8aaf8fa"},"vehicle_type_id":"4","last_reported":1690819726,"current_range_meters":24400,"station_id":"ce4bha12rcd13ifvqef0","pricing_plan_id":"free"},{"bike_id":"ef84567a-3537-4313-b3b7-89acc275e8e3","system_id":"levelo_inurba_marseille","lat":43.28039,"lon":5.369297,"is_reserved":false,"is_disabled":false,"rental_uris":{"android":"levelo://app?vid=ef84567a-3537-4313-b3b7-89acc275e8e3","ios":"levelo://app?vid=ef84567a-3537-4313-b3b7-89acc275e8e3"},"vehicle_type_id":"4","last_reported":1690819726,"current_range_meters":8400,"station_id":"ce4bha12rcd13ifvqef0","pricing_plan_id":"free"},{"bike_id":"c67fd003-011a-42e2-85f2-2714de5997e4","system_id":"levelo_inurba_marseille","lat":43.32502,"lon":5.40824,"is_reserved":false,"is_disabled":false,"rental_uris":{"android":"levelo://app?vid=c67fd003-011a-42e2-85f2-2714de5997e4","ios":"levelo://app?vid=c67fd003-011a-42e2-85f2-2714de5997e4"},"vehicle_type_id":"4","last_reported":1690819726,"current_range_meters":800,"station_id":"","pricing_plan_id":"free"},{"bike_id":"d4669878-0efa-4e2d-8684-a054305ddfd4","system_id":"levelo_inurba_marseille","lat":43.290412,"lon":5.399633,"is_reserved":false,"is_disabled":false,"rental_uris":{"android":"levelo://app?vid=d4669878-0efa-4e2d-8684-a054305ddfd4","ios":"levelo://app?vid=d4669878-0efa-4e2d-8684-a054305ddfd4"},"vehicle_type_id":"4","last_reported":1690819726,"current_range_meters":400,"station_id":"ce4bh392rcd13ifvqdm0","pricing_plan_id":"free"},{"bike_id":"e3a9b181-8f29-4740-a4c0-cd09d29baa31","system_id":"levelo_inurba_marseille","lat":43.28115,"lon":5.37843,"is_reserved":false,"is_disabled":false,"rental_uris":{"android":"levelo://app?vid=e3a9b181-8f29-4740-a4c0-cd09d29baa31","ios":"levelo://app?vid=e3a9b181-8f29-4740-a4c0-cd09d29baa31"},"vehicle_type_id":"4","last_reported":1690819726,"current_range_meters":0,"station_id":"ce4bha12rcd13ifvqee0","pricing_plan_id":"free"},{"bike_id":"722ace43-8ac7-47c6-99b2-7bc85001fbe0","system_id":"levelo_inurba_marseille","lat":43.29041,"lon":5.399634,"is_reserved":false,"is_disabled":false,"rental_uris":{"android":"levelo://app?vid=722ace43-8ac7-47c6-99b2-7bc85001fbe0","ios":"levelo://app?vid=722ace43-8ac7-47c6-99b2-7bc85001fbe0"},"vehicle_type_id":"4","last_reported":1690819726,"current_range_meters":15200,"station_id":"ce4bh392rcd13ifvqdm0","pricing_plan_id":"free"},{"bike_id":"bc536c19-4ce7-4287-8992-e61b34573a12","system_id":"levelo_inurba_marseille","lat":43.28573,"lon":5.394992,"is_reserved":false,"is_disabled":false,"rental_uris":{"android":"levelo://app?vid=bc536c19-4ce7-4287-8992-e61b34573a12","ios":"levelo://app?vid=bc536c19-4ce7-4287-8992-e61b34573a12"},"vehicle_type_id":"4","last_reported":1690819726,"current_range_meters":28400,"station_id":"ce4bh292rcd13ifvqdg0","pricing_plan_id":"free"},{"bike_id":"fd4167c9-ff76-4486-bcdf-22171ee243e7","system_id":"levelo_inurba_marseille","lat":43.279087,"lon":5.380114,"is_reserved":false,"is_disabled":false,"rental_uris":{"android":"levelo://app?vid=fd4167c9-ff76-4486-bcdf-22171ee243e7","ios":"levelo://app?vid=fd4167c9-ff76-4486-bcdf-22171ee243e7"},"vehicle_type_id":"4","last_reported":1690819726,"current_range_meters":27600,"station_id":"ce4bhf92rcd13ifvqf50","pricing_plan_id":"free"},{"bike_id":"da74851f-183f-4ed8-bc32-44e1d656b516","system_id":"levelo_inurba_marseille","lat":43.32095,"lon":5.41512,"is_reserved":false,"is_disabled":false,"rental_uris":{"android":"levelo://app?vid=da74851f-183f-4ed8-bc32-44e1d656b516","ios":"levelo://app?vid=da74851f-183f-4ed8-bc32-44e1d656b516"},"vehicle_type_id":"4","last_reported":1690819726,"current_range_meters":14400,"station_id":"","pricing_plan_id":"free"},{"bike_id":"e9fbe7f4-c376-4a74-9a01-c2dfa71d30c2","system_id":"levelo_inurba_marseille","lat":43.3209,"lon":5.41514,"is_reserved":false,"is_disabled":false,"rental_uris":{"android":"levelo://app?vid=e9fbe7f4-c376-4a74-9a01-c2dfa71d30c2","ios":"levelo://app?vid=e9fbe7f4-c376-4a74-9a01-c2dfa71d30c2"},"vehicle_type_id":"4","last_reported":1690819726,"current_range_meters":10800,"station_id":"","pricing_plan_id":"free"},{"bike_id":"20c79c44-1bcd-496c-832a-784532f14f6b","system_id":"levelo_inurba_marseille","lat":43.299579,"lon":5.413255,"is_reserved":false,"is_disabled":false,"rental_uris":{"android":"levelo://app?vid=20c79c44-1bcd-496c-832a-784532f14f6b","ios":"levelo://app?vid=20c79c44-1bcd-496c-832a-784532f14f6b"},"vehicle_type_id":"4","last_reported":1690819726,"current_range_meters":29200,"station_id":"ce4bhp12rcd13ifvqh9g","pricing_plan_id":"free"},{"bike_id":"0d5a71b9-d75d-43c8-8eb2-6d80b6e2cdaa","system_id":"levelo_inurba_marseille","lat":43.29957,"lon":5.4132,"is_reserved":false,"is_disabled":false,"rental_uris":{"android":"levelo://app?vid=0d5a71b9-d75d-43c8-8eb2-6d80b6e2cdaa","ios":"levelo://app?vid=0d5a71b9-d75d-43c8-8eb2-6d80b6e2cdaa"},"vehicle_type_id":"4","last_reported":1690819726,"current_range_meters":14400,"station_id":"","pricing_plan_id":"free"},{"bike_id":"aecbda5e-d59c-4f97-9451-a8170faa207d","system_id":"levelo_inurba_marseille","lat":43.29961,"lon":5.41324,"is_reserved":false,"is_disabled":false,"rental_uris":{"android":"levelo://app?vid=aecbda5e-d59c-4f97-9451-a8170faa207d","ios":"levelo://app?vid=aecbda5e-d59c-4f97-9451-a8170faa207d"},"vehicle_type_id":"4","last_reported":1690819726,"current_range_meters":30000,"station_id":"ce4bhp12rcd13ifvqh9g","pricing_plan_id":"free"},{"bike_id":"976d98c6-63f1-4ba3-999a-cc3da67f1911","system_id":"levelo_inurba_marseille","lat":43.320045,"lon":5.415048,"is_reserved":false,"is_disabled":false,"rental_uris":{"android":"levelo://app?vid=976d98c6-63f1-4ba3-999a-cc3da67f1911","ios":"levelo://app?vid=976d98c6-63f1-4ba3-999a-cc3da67f1911"},"vehicle_type_id":"4","last_reported":1690819726,"current_range_meters":31200,"station_id":"ce4bhq92rcd13ifvqhkg","pricing_plan_id":"free"},{"bike_id":"34dcb79c-8404-4505-97df-9145e67bd949","system_id":"levelo_inurba_marseille","lat":43.320045,"lon":5.415048,"is_reserved":false,"is_disabled":false,"rental_uris":{"android":"levelo://app?vid=34dcb79c-8404-4505-97df-9145e67bd949","ios":"levelo://app?vid=34dcb79c-8404-4505-97df-9145e67bd949"},"vehicle_type_id":"4","last_reported":1690819726,"current_range_meters":31200,"station_id":"ce4bhq92rcd13ifvqhkg","pricing_plan_id":"free"},{"bike_id":"a83641df-02c6-43b3-a930-d0b8645d646c","system_id":"levelo_inurba_marseille","lat":43.320045,"lon":5.415048,"is_reserved":false,"is_disabled":false,"rental_uris":{"android":"levelo://app?vid=a83641df-02c6-43b3-a930-d0b8645d646c","ios":"levelo://app?vid=a83641df-02c6-43b3-a930-d0b8645d646c"},"vehicle_type_id":"4","last_reported":1690819726,"current_range_meters":31200,"station_id":"ce4bhq92rcd13ifvqhkg","pricing_plan_id":"free"},{"bike_id":"f137f491-7530-4fe8-8ff4-ae0073a079ab","system_id":"levelo_inurba_marseille","lat":43.320045,"lon":5.415046,"is_reserved":false,"is_disabled":false,"rental_uris":{"android":"levelo://app?vid=f137f491-7530-4fe8-8ff4-ae0073a079ab","ios":"levelo://app?vid=f137f491-7530-4fe8-8ff4-ae0073a079ab"},"vehicle_type_id":"4","last_reported":1690819726,"current_range_meters":30400,"station_id":"ce4bhq92rcd13ifvqhkg","pricing_plan_id":"free"},{"bike_id":"457b862a-d2bf-4997-9466-7897fe4cbcf2","system_id":"levelo_inurba_marseille","lat":43.320045,"lon":5.415048,"is_reserved":false,"is_disabled":false,"rental_uris":{"android":"levelo://app?vid=457b862a-d2bf-4997-9466-7897fe4cbcf2","ios":"levelo://app?vid=457b862a-d2bf-4997-9466-7897fe4cbcf2"},"vehicle_type_id":"4","last_reported":1690819726,"current_range_meters":31200,"station_id":"ce4bhq92rcd13ifvqhkg","pricing_plan_id":"free"},{"bike_id":"7885a749-54cd-41a5-b37d-86cc48ce6158","system_id":"levelo_inurba_marseille","lat":43.320045,"lon":5.415046,"is_reserved":false,"is_disabled":false,"rental_uris":{"android":"levelo://app?vid=7885a749-54cd-41a5-b37d-86cc48ce6158","ios":"levelo://app?vid=7885a749-54cd-41a5-b37d-86cc48ce6158"},"vehicle_type_id":"4","last_reported":1690819726,"current_range_meters":31200,"station_id":"ce4bhq92rcd13ifvqhkg","pricing_plan_id":"free"},{"bike_id":"d53e0ea0-c946-45f9-a572-6c73a3d85693","system_id":"levelo_inurba_marseille","lat":43.320045,"lon":5.415046,"is_reserved":false,"is_disabled":false,"rental_uris":{"android":"levelo://app?vid=d53e0ea0-c946-45f9-a572-6c73a3d85693","ios":"levelo://app?vid=d53e0ea0-c946-45f9-a572-6c73a3d85693"},"vehicle_type_id":"4","last_reported":1690819726,"current_range_meters":31200,"station_id":"ce4bhq92rcd13ifvqhkg","pricing_plan_id":"free"},{"bike_id":"eabb31a6-60be-4887-84eb-b75b70c09d6b","system_id":"levelo_inurba_marseille","lat":43.320045,"lon":5.415046,"is_reserved":false,"is_disabled":false,"rental_uris":{"android":"levelo://app?vid=eabb31a6-60be-4887-84eb-b75b70c09d6b","ios":"levelo://app?vid=eabb31a6-60be-4887-84eb-b75b70c09d6b"},"vehicle_type_id":"4","last_reported":1690819726,"current_range_meters":28000,"station_id":"ce4bhq92rcd13ifvqhkg","pricing_plan_id":"free"},{"bike_id":"43fc2cbc-a8d5-477d-8b21-310476b6f11a","system_id":"levelo_inurba_marseille","lat":43.320045,"lon":5.415048,"is_reserved":false,"is_disabled":false,"rental_uris":{"android":"levelo://app?vid=43fc2cbc-a8d5-477d-8b21-310476b6f11a","ios":"levelo://app?vid=43fc2cbc-a8d5-477d-8b21-310476b6f11a"},"vehicle_type_id":"4","last_reported":1690819726,"current_range_meters":31200,"station_id":"ce4bhq92rcd13ifvqhkg","pricing_plan_id":"free"},{"bike_id":"c327718a-8fe6-4791-a349-aba0f8f94e82","system_id":"levelo_inurba_marseille","lat":43.279742,"lon":5.38744,"is_reserved":false,"is_disabled":false,"rental_uris":{"android":"levelo://app?vid=c327718a-8fe6-4791-a349-aba0f8f94e82","ios":"levelo://app?vid=c327718a-8fe6-4791-a349-aba0f8f94e82"},"vehicle_type_id":"4","last_reported":1690819726,"current_range_meters":31200,"station_id":"ce4bhg12rcd13ifvqf80","pricing_plan_id":"free"},{"bike_id":"82b3907a-b3a3-4b4a-90d6-c828d5d56d8d","system_id":"levelo_inurba_marseille","lat":43.320045,"lon":5.415046,"is_reserved":false,"is_disabled":false,"rental_uris":{"android":"levelo://app?vid=82b3907a-b3a3-4b4a-90d6-c828d5d56d8d","ios":"levelo://app?vid=82b3907a-b3a3-4b4a-90d6-c828d5d56d8d"},"vehicle_type_id":"4","last_reported":1690819726,"current_range_meters":31200,"station_id":"ce4bhq92rcd13ifvqhkg","pricing_plan_id":"free"},{"bike_id":"d58c0b09-2e3f-4b15-88b5-df804bbeb215","system_id":"levelo_inurba_marseille","lat":43.292571,"lon":5.409107,"is_reserved":false,"is_disabled":false,"rental_uris":{"android":"levelo://app?vid=d58c0b09-2e3f-4b15-88b5-df804bbeb215","ios":"levelo://app?vid=d58c0b09-2e3f-4b15-88b5-df804bbeb215"},"vehicle_type_id":"4","last_reported":1690819726,"current_range_meters":2000,"station_id":"ce4bh192rcd13ifvqdc0","pricing_plan_id":"free"},{"bike_id":"abf108e5-2ee3-472f-99f3-fa08d5f4f04d","system_id":"levelo_inurba_marseille","lat":43.292571,"lon":5.409107,"is_reserved":false,"is_disabled":false,"rental_uris":{"android":"levelo://app?vid=abf108e5-2ee3-472f-99f3-fa08d5f4f04d","ios":"levelo://app?vid=abf108e5-2ee3-472f-99f3-fa08d5f4f04d"},"vehicle_type_id":"4","last_reported":1690819726,"current_range_meters":22400,"station_id":"ce4bh192rcd13ifvqdc0","pricing_plan_id":"free"},{"bike_id":"ead8ec09-4ae6-4d86-97dd-1d82bdf525b8","system_id":"levelo_inurba_marseille","lat":43.292571,"lon":5.409107,"is_reserved":false,"is_disabled":false,"rental_uris":{"android":"levelo://app?vid=ead8ec09-4ae6-4d86-97dd-1d82bdf525b8","ios":"levelo://app?vid=ead8ec09-4ae6-4d86-97dd-1d82bdf525b8"},"vehicle_type_id":"4","last_reported":1690819726,"current_range_meters":10800,"station_id":"ce4bh192rcd13ifvqdc0","pricing_plan_id":"free"},{"bike_id":"0df39ba9-eb3e-4435-b1a0-153f61136022","system_id":"levelo_inurba_marseille","lat":43.2762,"lon":5.36117,"is_reserved":false,"is_disabled":false,"rental_uris":{"android":"levelo://app?vid=0df39ba9-eb3e-4435-b1a0-153f61136022","ios":"levelo://app?vid=0df39ba9-eb3e-4435-b1a0-153f61136022"},"vehicle_type_id":"4","last_reported":1690819726,"current_range_meters":12000,"station_id":"ce4bgj92rcd13ifvqbe0","pricing_plan_id":"free"},{"bike_id":"532eebc3-b526-425a-88a9-6d2ee932f020","system_id":"levelo_inurba_marseille","lat":43.27618,"lon":5.361009,"is_reserved":false,"is_disabled":false,"rental_uris":{"android":"levelo://app?vid=532eebc3-b526-425a-88a9-6d2ee932f020","ios":"levelo://app?vid=532eebc3-b526-425a-88a9-6d2ee932f020"},"vehicle_type_id":"4","last_reported":1690819726,"current_range_meters":31200,"station_id":"ce4bgj92rcd13ifvqbe0","pricing_plan_id":"free"},{"bike_id":"b9b3c616-a96b-4c56-8dbd-e46380818684","system_id":"levelo_inurba_marseille","lat":43.32531,"lon":5.41455,"is_reserved":false,"is_disabled":false,"rental_uris":{"android":"levelo://app?vid=b9b3c616-a96b-4c56-8dbd-e46380818684","ios":"levelo://app?vid=b9b3c616-a96b-4c56-8dbd-e46380818684"},"vehicle_type_id":"4","last_reported":1690819726,"current_range_meters":23200,"station_id":"ce4bhq12rcd13ifvqhhg","pricing_plan_id":"free"},{"bike_id":"5fbefdf2-179f-4afb-8e3a-25f33ca2c490","system_id":"levelo_inurba_marseille","lat":43.32526,"lon":5.41459,"is_reserved":false,"is_disabled":false,"rental_uris":{"android":"levelo://app?vid=5fbefdf2-179f-4afb-8e3a-25f33ca2c490","ios":"levelo://app?vid=5fbefdf2-179f-4afb-8e3a-25f33ca2c490"},"vehicle_type_id":"4","last_reported":1690819726,"current_range_meters":400,"station_id":"ce4bhq12rcd13ifvqhhg","pricing_plan_id":"free"},{"bike_id":"b0dfa439-dff3-4db2-95e3-db5fc1298f0b","system_id":"levelo_inurba_marseille","lat":43.280784,"lon":5.396622,"is_reserved":false,"is_disabled":false,"rental_uris":{"android":"levelo://app?vid=b0dfa439-dff3-4db2-95e3-db5fc1298f0b","ios":"levelo://app?vid=b0dfa439-dff3-4db2-95e3-db5fc1298f0b"},"vehicle_type_id":"4","last_reported":1690819726,"current_range_meters":20800,"station_id":"ce4bho12rcd13ifvqh2g","pricing_plan_id":"free"},{"bike_id":"8457c629-b534-4654-a6c8-4224b847dbb7","system_id":"levelo_inurba_marseille","lat":43.303837,"lon":5.418724,"is_reserved":false,"is_disabled":false,"rental_uris":{"android":"levelo://app?vid=8457c629-b534-4654-a6c8-4224b847dbb7","ios":"levelo://app?vid=8457c629-b534-4654-a6c8-4224b847dbb7"},"vehicle_type_id":"4","last_reported":1690819726,"current_range_meters":31200,"station_id":"ce4bhop2rcd13ifvqh7g","pricing_plan_id":"free"},{"bike_id":"6f94f31e-de52-4304-98b4-490329bb064e","system_id":"levelo_inurba_marseille","lat":43.278399,"lon":5.392139,"is_reserved":false,"is_disabled":false,"rental_uris":{"android":"levelo://app?vid=6f94f31e-de52-4304-98b4-490329bb064e","ios":"levelo://app?vid=6f94f31e-de52-4304-98b4-490329bb064e"},"vehicle_type_id":"4","last_reported":1690819726,"current_range_meters":22400,"station_id":"ce4bhjp2rcd13ifvqga0","pricing_plan_id":"free"},{"bike_id":"b36ae10e-d6d8-48e1-a73a-cf6a3efe7596","system_id":"levelo_inurba_marseille","lat":43.273613,"lon":5.362705,"is_reserved":false,"is_disabled":false,"rental_uris":{"android":"levelo://app?vid=b36ae10e-d6d8-48e1-a73a-cf6a3efe7596","ios":"levelo://app?vid=b36ae10e-d6d8-48e1-a73a-cf6a3efe7596"},"vehicle_type_id":"4","last_reported":1690819726,"current_range_meters":7600,"station_id":"ce4bhbh2rcd13ifvqeo0","pricing_plan_id":"free"},{"bike_id":"96d6007d-d66c-405c-a1f5-eecdfe1d08f3","system_id":"levelo_inurba_marseille","lat":43.27386,"lon":5.36281,"is_reserved":false,"is_disabled":false,"rental_uris":{"android":"levelo://app?vid=96d6007d-d66c-405c-a1f5-eecdfe1d08f3","ios":"levelo://app?vid=96d6007d-d66c-405c-a1f5-eecdfe1d08f3"},"vehicle_type_id":"4","last_reported":1690819726,"current_range_meters":0,"station_id":"ce4bhbh2rcd13ifvqeo0","pricing_plan_id":"free"},{"bike_id":"714e1bed-2162-442a-a9ff-558d8796fa85","system_id":"levelo_inurba_marseille","lat":43.273613,"lon":5.362705,"is_reserved":false,"is_disabled":false,"rental_uris":{"android":"levelo://app?vid=714e1bed-2162-442a-a9ff-558d8796fa85","ios":"levelo://app?vid=714e1bed-2162-442a-a9ff-558d8796fa85"},"vehicle_type_id":"4","last_reported":1690819726,"current_range_meters":4000,"station_id":"ce4bhbh2rcd13ifvqeo0","pricing_plan_id":"free"},