{"last_updated":1677359185,"ttl":30,"version":"2.2","data":{"bikes":[{"bike_id":"e6bc9468-5d85-4c6c-99c3-64210d66f291","system_id":"levelo_inurba_marseille","lat":43.31238,"lon":5.3685,"is_reserved":false,"is_disabled":false,"rental_uris":{"android":"levelo://app?vid=e6bc9468-5d85-4c6c-99c3-64210d66f291","ios":"levelo://app?vid=e6bc9468-5d85-4c6c-99c3-64210d66f291"},"vehicle_type_id":"4","last_reported":1677359186,"current_range_meters":22400,"station_id":"","pricing_plan_id":"free"},{"bike_id":"43932b1a-6f52-44e7-9c74-00fa27b5dfbc","system_id":"levelo_inurba_marseille","lat":43.312273,"lon":5.368515,"is_reserved":false,"is_disabled":false,"rental_uris":{"android":"levelo://app?vid=43932b1a-6f52-44e7-9c74-00fa27b5dfbc","ios":"levelo://app?vid=43932b1a-6f52-44e7-9c74-00fa27b5dfbc"},"vehicle_type_id":"4","last_reported":1677359186,"current_range_meters":400,"station_id":"ce4bgl92rcd13ifvqbq0","pricing_plan_id":"free"},{"bike_id":"6a6f17c9-1ba6-4b81-9108-109396c25bab","system_id":"levelo_inurba_marseille","lat":43.30909,"lon":5.36756,"is_reserved":false,"is_disabled":false,"rental_uris":{"android":"levelo://app?vid=6a6f17c9-1ba6-4b81-9108-109396c25bab","ios":"levelo://app?vid=6a6f17c9-1ba6-4b81-9108-109396c25bab"},"vehicle_type_id":"4","last_reported":1677359186,"current_range_meters":15600,"station_id":"ce4bh012rcd13ifvqd00","pricing_plan_id":"free"},{"bike_id":"7dfd4d7a-e63d-4de4-8b5d-176371824ce3","system_id":"levelo_inurba_marseille","lat":43.309076,"lon":5.368465,"is_reserved":false,"is_disabled":false,"rental_uris":{"android":"levelo://app?vid=7dfd4d7a-e63d-4de4-8b5d-176371824ce3","ios":"levelo://app?vid=7dfd4d7a-e63d-4de4-8b5d-176371824ce3"},"vehicle_type_id":"4","last_reported":1677359186,"current_range_meters":23200,"station_id":"ce4bgn92rcd13ifvqbvg","pricing_plan_id":"free"},{"bike_id":"5ea69f84-8a8a-45ed-b338-2cfa50eaf2ed","system_id":"levelo_inurba_marseille","lat":43.309076,"lon":5.368465,"is_reserved":false,"is_disabled":false,"rental_uris":{"android":"levelo://app?vid=5ea69f84-8a8a-45ed-b338-2cfa50eaf2ed","ios":"levelo://app?vid=5ea69f84-8a8a-45ed-b338-2cfa50eaf2ed"},"vehicle_type_id":"4","last_reported":1677359186,"current_range_meters":4400,"station_id":"ce4bgn92rcd13ifvqbvg","pricing_plan_id":"free"},{"bike_id":"12968513-37ef-418e-8ac9-a50a21d84b0d","system_id":"levelo_inurba_marseille","lat":43.309076,"lon":5.368465,"is_reserved":false,"is_disabled":false,"rental_uris":{"android":"levelo://app?vid=12968513-37ef-418e-8ac9-a50a21d84b0d","ios":"levelo://app?vid=12968513-37ef-418e-8ac9-a50a21d84b0d"},"vehicle_type_id":"4","last_reported":1677359186,"current_range_meters":30000,"station_id":"ce4bgn92rcd13ifvqbvg","pricing_plan_id":"free"},{"bike_id":"6708c961-11a6-478e-b1f9-e59d05dfbab9","system_id":"levelo_inurba_marseille","lat":43.309076,"lon":5.368465,"is_reserved":false,"is_disabled":false,"rental_uris":{"android":"levelo://app?vid=6708c961-11a6-478e-b1f9-e59d05dfbab9","ios":"levelo://app?vid=6708c961-11a6-478e-b1f9-e59d05dfbab9"},"vehicle_type_id":"4","last_reported":1677359186,"current_range_meters":14800,"station_id":"ce4bgn92rcd13ifvqbvg","pricing_plan_id":"free"},{"bike_id":"4af4e4c1-d414-416a-a747-389d0bb81785","system_id":"levelo_inurba_marseille","lat":43.309076,"lon":5.368465,"is_reserved":false,"is_disabled":false,"rental_uris":{"android":"levelo://app?vid=4af4e4c1-d414-416a-a747-389d0bb81785","ios":"levelo://app?vid=4af4e4c1-d414-416a-a747-389d0bb81785"},"vehicle_type_id":"4","last_reported":1677359186,"current_range_meters":31200,"station_id":"ce4bgn92rcd13ifvqbvg","pricing_plan_id":"free"},{"bike_id":"7d87f035-42bb-4244-839f-4cb181cbfab9","system_id":"levelo_inurba_marseille","lat":43.309076,"lon":5.368465,"is_reserved":false,"is_disabled":false,"rental_uris":{"android":"levelo://app?vid=7d87f035-42bb-4244-839f-4cb181cbfab9","ios":"levelo://app?vid=7d87f035-42bb-4244-839f-4cb181cbfab9"},"vehicle_type_id":"4","last_reported":1677359186,"current_range_meters":8400,"station_id":"ce4bgn92rcd13ifvqbvg","pricing_plan_id":"free"},{"bike_id":"ea20a36e-46e7-49d3-bfb0-98adfa8c79d1","system_id":"levelo_inurba_marseille","lat":43.314811,"lon":5.373103,"is_reserved":false,"is_disabled":false,"rental_uris":{"android":"levelo://app?vid=ea20a36e-46e7-49d3-bfb0-98adfa8c79d1","ios":"levelo://app?vid=ea20a36e-46e7-49d3-bfb0-98adfa8c79d1"},"vehicle_type_id":"4","last_reported":1677359186,"current_range_meters":25600,"station_id":"ce4bgt12rcd13ifvqcd0","pricing_plan_id":"free"},{"bike_id":"c44c5d3d-82dc-4ea8-8b13-4dee7205ea0f","system_id":"levelo_inurba_marseille","lat":43.314811,"lon":5.373103,"is_reserved":false,"is_disabled":false,"rental_uris":{"android":"levelo://app?vid=c44c5d3d-82dc-4ea8-8b13-4dee7205ea0f","ios":"levelo://app?vid=c44c5d3d-82dc-4ea8-8b13-4dee7205ea0f"},"vehicle_type_id":"4","last_reported":1677359186,"current_range_meters":20400,"station_id":"ce4bgt12rcd13ifvqcd0","pricing_plan_id":"free"},{"bike_id":"ceb392d7-9f5f-428b-8ac9-0c53c18aa0ec","system_id":"levelo_inurba_marseille","lat":43.314811,"lon":5.373103,"is_reserved":false,"is_disabled":false,"rental_uris":{"android":"levelo://app?vid=ceb392d7-9f5f-428b-8ac9-0c53c18aa0ec","ios":"levelo://app?vid=ceb392d7-9f5f-428b-8ac9-0c53c18aa0ec"},"vehicle_type_id":"4","last_reported":1677359186,"current_range_meters":4400,"station_id":"ce4bgt12rcd13ifvqcd0","pricing_plan_id":"free"},{"bike_id":"634fbe71-2b95-4a18-abfe-aec8694e3e7e","system_id":"levelo_inurba_marseille","lat":43.314811,"lon":5.373103,"is_reserved":false,"is_disabled":false,"rental_uris":{"android":"levelo://app?vid=634fbe71-2b95-4a18-abfe-aec8694e3e7e","ios":"levelo://app?vid=634fbe71-2b95-4a18-abfe-aec8694e3e7e"},"vehicle_type_id":"4","last_reported":1677359186,"current_range_meters":0,"station_id":"ce4bgt12rcd13ifvqcd0","pricing_plan_id":"free"},{"bike_id":"fb27ff8e-3dd6-4de5-ab0d-8e6d7bfc3fde","system_id":"levelo_inurba_marseille","lat":43.314811,"lon":5.373103,"is_reserved":false,"is_disabled":false,"rental_uris":{"android":"levelo://app?vid=fb27ff8e-3dd6-4de5-ab0d-8e6d7bfc3fde","ios":"levelo://app?vid=fb27ff8e-3dd6-4de5-ab0d-8e6d7bfc3fde"},"vehicle_type_id":"4","last_reported":1677359186,"current_range_meters":8400,"station_id":"ce4bgt12rcd13ifvqcd0","pricing_plan_id":"free"},{"bike_id":"5f196673-b131-4e13-8a66-3f0501b1b94f","system_id":"levelo_inurba_marseille","lat":43.31491,"lon":5.37307,"is_reserved":false,"is_disabled":false,"rental_uris":{"android":"levelo://app?vid=5f196673-b131-4e13-8a66-3f0501b1b94f","ios":"levelo://app?vid=5f196673-b131-4e13-8a66-3f0501b1b94f"},"vehicle_type_id":"4","last_reported":1677359186,"current_range_meters":13200,"station_id":"","pricing_plan_id":"free"},{"bike_id":"41a36e8f-5ba3-48aa-a9a5-bb178f5effed","system_id":"levelo_inurba_marseille","lat":43.314915,"lon":5.373115,"is_reserved":false,"is_disabled":false,"rental_uris":{"android":"levelo://app?vid=41a36e8f-5ba3-48aa-a9a5-bb178f5effed","ios":"levelo://app?vid=41a36e8f-5ba3-48aa-a9a5-bb178f5effed"},"vehicle_type_id":"4","last_reported":1677359186,"current_range_meters":400,"station_id":"","pricing_plan_id":"free"},{"bike_id":"5328abba-f6d9-4f20-bf67-ca914c1fea54","system_id":"levelo_inurba_marseille","lat":43.308614,"lon":5.372098,"is_reserved":false,"is_disabled":false,"rental_uris":{"android":"levelo://app?vid=5328abba-f6d9-4f20-bf67-ca914c1fea54","ios":"levelo://app?vid=5328abba-f6d9-4f20-bf67-ca914c1fea54"},"vehicle_type_id":"4","last_reported":1677359186,"current_range_meters":12800,"station_id":"ce4bguh2rcd13ifvqckg","pricing_plan_id":"free"},{"bike_id":"e8186cbc-3731-4be2-b99b-d54b82ef15bd","system_id":"levelo_inurba_marseille","lat":43.308614,"lon":5.372098,"is_reserved":false,"is_disabled":false,"rental_uris":{"android":"levelo://app?vid=e8186cbc-3731-4be2-b99b-d54b82ef15bd","ios":"levelo://app?vid=e8186cbc-3731-4be2-b99b-d54b82ef15bd"},"vehicle_type_id":"4","last_reported":1677359186,"current_range_meters":4400,"station_id":"ce4bguh2rcd13ifvqckg","pricing_plan_id":"free"},{"bike_id":"68d8e95b-af0e-435e-ade1-8de3250855e6","system_id":"levelo_inurba_marseille","lat":43.30607,"lon":5.37228,"is_reserved":false,"is_disabled":false,"rental_uris":{"android":"levelo://app?vid=68d8e95b-af0e-435e-ade1-8de3250855e6","ios":"levelo://app?vid=68d8e95b-af0e-435e-ade1-8de3250855e6"},"vehicle_type_id":"4","last_reported":1677359186,"current_range_meters":7200,"station_id":"","pricing_plan_id":"free"},{"bike_id":"4e7c24b5-9242-41f5-9778-cd55ab68ab93","system_id":"levelo_inurba_marseille","lat":43.316944,"lon":5.376581,"is_reserved":false,"is_disabled":false,"rental_uris":{"android":"levelo://app?vid=4e7c24b5-9242-41f5-9778-cd55ab68ab93","ios":"levelo://app?vid=4e7c24b5-9242-41f5-9778-cd55ab68ab93"},"vehicle_type_id":"4","last_reported":1677359186,"current_range_meters":0,"station_id":"","pricing_plan_id":"free"},{"bike_id":"2ba43bd1-aa5f-4c41-a0d1-e2a72428517a","system_id":"levelo_inurba_marseille","lat":43.317055,"lon":5.377448,"is_reserved":false,"is_disabled":false,"rental_uris":{"android":"levelo://app?vid=2ba43bd1-aa5f-4c41-a0d1-e2a72428517a","ios":"levelo://app?vid=2ba43bd1-aa5f-4c41-a0d1-e2a72428517a"},"vehicle_type_id":"4","last_reported":1677359186,"current_range_meters":29600,"station_id":"","pricing_plan_id":"free"},{"bike_id":"1175f3d2-7d88-4393-a11e-512ccb9c8ff8","system_id":"levelo_inurba_marseille","lat":43.319063,"lon":5.375353,"is_reserved":false,"is_disabled":false,"rental_uris":{"android":"levelo://app?vid=1175f3d2-7d88-4393-a11e-512ccb9c8ff8","ios":"levelo://app?vid=1175f3d2-7d88-4393-a11e-512ccb9c8ff8"},"vehicle_type_id":"4","last_reported":1677359186,"current_range_meters":0,"station_id":"","pricing_plan_id":"free"},{"bike_id":"a149c288-daa6-4edb-899e-d71521da3d39","system_id":"levelo_inurba_marseille","lat":43.317075,"lon":5.377367,"is_reserved":false,"is_disabled":false,"rental_uris":{"android":"levelo://app?vid=a149c288-daa6-4edb-899e-d71521da3d39","ios":"levelo://app?vid=a149c288-daa6-4edb-899e-d71521da3d39"},"vehicle_type_id":"4","last_reported":1677359186,"current_range_meters":28400,"station_id":"ce4bgth2rcd13ifvqch0","pricing_plan_id":"free"},{"bike_id":"8b5f69cd-cdd6-47ee-8e48-580b6f5c1b20","system_id":"levelo_inurba_marseille","lat":43.3174,"lon":5.3777,"is_reserved":false,"is_disabled":false,"rental_uris":{"android":"levelo://app?vid=8b5f69cd-cdd6-47ee-8e48-580b6f5c1b20","ios":"levelo://app?vid=8b5f69cd-cdd6-47ee-8e48-580b6f5c1b20"},"vehicle_type_id":"4","last_reported":1677359186,"current_range_meters":18000,"station_id":"","pricing_plan_id":"free"},{"bike_id":"16686684-d80d-414d-a3fd-521620ed8b81","system_id":"levelo_inurba_marseille","lat":43.301939,"lon":5.366286,"is_reserved":false,"is_disabled":false,"rental_uris":{"android":"levelo://app?vid=16686684-d80d-414d-a3fd-521620ed8b81","ios":"levelo://app?vid=16686684-d80d-414d-a3fd-521620ed8b81"},"vehicle_type_id":"4","last_reported":1677359186,"current_range_meters":4000,"station_id":"ce4bgrh2rcd13ifvqc8g","pricing_plan_id":"free"},{"bike_id":"0251094a-fe55-463e-9812-bb8c28ef5592","system_id":"levelo_inurba_marseille","lat":43.301939,"lon":5.366286,"is_reserved":false,"is_disabled":false,"rental_uris":{"android":"levelo://app?vid=0251094a-fe55-463e-9812-bb8c28ef5592","ios":"levelo://app?vid=0251094a-fe55-463e-9812-bb8c28ef5592"},"vehicle_type_id":"4","last_reported":1677359186,"current_range_meters":11200,"station_id":"ce4bgrh2rcd13ifvqc8g","pricing_plan_id":"free"},{"bike_id":"84c72b33-995c-41db-9ea4-1032f4c3f9d9","system_id":"levelo_inurba_marseille","lat":43.301939,"lon":5.366286,"is_reserved":false,"is_disabled":false,"rental_uris":{"android":"levelo://app?vid=84c72b33-995c-41db-9ea4-1032f4c3f9d9","ios":"levelo://app?vid=84c72b33-995c-41db-9ea4-1032f4c3f9d9"},"vehicle_type_id":"4","last_reported":1677359186,"current_range_meters":14400,"station_id":"ce4bgrh2rcd13ifvqc8g","pricing_plan_id":"free"},{"bike_id":"be007542-e9bd-4106-9429-2dfeee1dcaf0","system_id":"levelo_inurba_marseille","lat":43.301939,"lon":5.366286,"is_reserved":false,"is_disabled":false,"rental_uris":{"android":"levelo://app?vid=be007542-e9bd-4106-9429-2dfeee1dcaf0","ios":"levelo://app?vid=be007542-e9bd-4106-9429-2dfeee1dcaf0"},"vehicle_type_id":"4","last_reported":1677359186,"current_range_meters":20800,"station_id":"ce4bgrh2rcd13ifvqc8g","pricing_plan_id":"free"},{"bike_id":"4352ac52-01cb-472f-bf7c-16fa51a339b2","system_id":"levelo_inurba_marseille","lat":43.301939,"lon":5.366286,"is_reserved":false,"is_disabled":false,"rental_uris":{"android":"levelo://app?vid=4352ac52-01cb-472f-bf7c-16fa51a339b2","ios":"levelo://app?vid=4352ac52-01cb-472f-bf7c-16fa51a339b2"},"vehicle_type_id":"4","last_reported":1677359186,"current_range_meters":17600,"station_id":"ce4bgrh2rcd13ifvqc8g","pricing_plan_id":"free"},{"bike_id":"1a1af4d7-01e9-48cf-840d-1eebd5e7e70c","system_id":"levelo_inurba_marseille","lat":43.301939,"lon":5.366286,"is_reserved":false,"is_disabled":false,"rental_uris":{"android":"levelo://app?vid=1a1af4d7-01e9-48cf-840d-1eebd5e7e70c","ios":"levelo://app?vid=1a1af4d7-01e9-48cf-840d-1eebd5e7e70c"},"vehicle_type_id":"4","last_reported":1677359186,"current_range_meters":19200,"station_id":"ce4bgrh2rcd13ifvqc8g","pricing_plan_id":"free"},{"bike_id":"1f1371b1-2468-49d3-85dd-86536e4f0aa2","system_id":"levelo_inurba_marseille","lat":43.301939,"lon":5.366286,"is_reserved":false,"is_disabled":false,"rental_uris":{"android":"levelo://app?vid=1f1371b1-2468-49d3-85dd-86536e4f0aa2","ios":"levelo://app?vid=1f1371b1-2468-49d3-85dd-86536e4f0aa2"},"vehicle_type_id":"4","last_reported":1677359186,"current_range_meters":2000,"station_id":"ce4bgrh2rcd13ifvqc8g","pricing_plan_id":"free"},{"bike_id":"6a08fd4d-df42-4b31-947c-7649b9f4a576","system_id":"levelo_inurba_marseille","lat":43.301939,"lon":5.366286,"is_reserved":false,"is_disabled":false,"rental_uris":{"android":"levelo://app?vid=6a08fd4d-df42-4b31-947c-7649b9f4a576","ios":"levelo://app?vid=6a08fd4d-df42-4b31-947c-7649b9f4a576"},"vehicle_type_id":"4","last_reported":1677359186,"current_range_meters":28800,"station_id":"ce4bgrh2rcd13ifvqc8g","pricing_plan_id":"free"},{"bike_id":"5f1dfe38-b8d5-4e67-8340-6b6f8c472aea","system_id":"levelo_inurba_marseille","lat":43.301939,"lon":5.366286,"is_reserved":false,"is_disabled":false,"rental_uris":{"android":"levelo://app?vid=5f1dfe38-b8d5-4e67-8340-6b6f8c472aea","ios":"levelo://app?vid=5f1dfe38-b8d5-4e67-8340-6b6f8c472aea"},"vehicle_type_id":"4","last_reported":1677359186,"current_range_meters":28000,"station_id":"ce4bgrh2rcd13ifvqc8g","pricing_plan_id":"free"},{"bike_id":"550e2dfe-7661-4a2a-9c97-41a1cfc2eb37","system_id":"levelo_inurba_marseille","lat":43.301939,"lon":5.366286,"is_reserved":false,"is_disabled":false,"rental_uris":{"android":"levelo://app?vid=550e2dfe-7661-4a2a-9c97-41a1cfc2eb37","ios":"levelo://app?vid=550e2dfe-7661-4a2a-9c97-41a1cfc2eb37"},"vehicle_type_id":"4","last_reported":1677359186,"current_range_meters":0,"station_id":"ce4bgrh2rcd13ifvqc8g","pricing_plan_id":"free"},{"bike_id":"7b8f73ab-2561-428b-991b-9b3b851110cb","system_id":"levelo_inurba_marseille","lat":43.308012,"lon":5.381511,"is_reserved":false,"is_disabled":false,"rental_uris":{"android":"levelo://app?vid=7b8f73ab-2561-428b-991b-9b3b851110cb","ios":"levelo://app?vid=7b8f73ab-2561-428b-991b-9b3b851110cb"},"vehicle_type_id":"4","last_reported":1677359186,"current_range_meters":8400,"station_id":"ce4bgt12rcd13ifvqce0","pricing_plan_id":"free"},{"bike_id":"45d53d44-897b-411f-9449-1d3375813071","system_id":"levelo_inurba_marseille","lat":43.308012,"lon":5.381511,"is_reserved":false,"is_disabled":false,"rental_uris":{"android":"levelo://app?vid=45d53d44-897b-411f-9449-1d3375813071","ios":"levelo://app?vid=45d53d44-897b-411f-9449-1d3375813071"},"vehicle_type_id":"4","last_reported":1677359186,"current_range_meters":4800,"station_id":"ce4bgt12rcd13ifvqce0","pricing_plan_id":"free"},{"bike_id":"2f52d693-b29d-4d63-b678-770f3aed710d","system_id":"levelo_inurba_marseille","lat":43.308012,"lon":5.381511,"is_reserved":false,"is_disabled":false,"rental_uris":{"android":"levelo://app?vid=2f52d693-b29d-4d63-b678-770f3aed710d","ios":"levelo://app?vid=2f52d693-b29d-4d63-b678-770f3aed710d"},"vehicle_type_id":"4","last_reported":1677359186,"current_range_meters":800,"station_id":"ce4bgt12rcd13ifvqce0","pricing_plan_id":"free"},{"bike_id":"e554ad01-43fc-4af3-9845-896081a2dbd5","system_id":"levelo_inurba_marseille","lat":43.308012,"lon":5.381511,"is_reserved":false,"is_disabled":false,"rental_uris":{"android":"levelo://app?vid=e554ad01-43fc-4af3-9845-896081a2dbd5","ios":"levelo://app?vid=e554ad01-43fc-4af3-9845-896081a2dbd5"},"vehicle_type_id":"4","last_reported":1677359186,"current_range_meters":23600,"station_id":"ce4bgt12rcd13ifvqce0","pricing_plan_id":"free"},{"bike_id":"916f2137-6b42-4ed2-bc72-e888660cb6d5","system_id":"levelo_inurba_marseille","lat":43.304606,"lon":5.379026,"is_reserved":false,"is_disabled":false,"rental_uris":{"android":"levelo://app?vid=916f2137-6b42-4ed2-bc72-e888660cb6d5","ios":"levelo://app?vid=916f2137-6b42-4ed2-bc72-e888660cb6d5"},"vehicle_type_id":"4","last_reported":1677359186,"current_range_meters":8000,"station_id":"ce4bgup2rcd13ifvqcn0","pricing_plan_id":"free"},{"bike_id":"2dd18b61-2b24-4346-bea4-33641244099b","system_id":"levelo_inurba_marseille","lat":43.301429,"lon":5.37413,"is_reserved":false,"is_disabled":false,"rental_uris":{"android":"levelo://app?vid=2dd18b61-2b24-4346-bea4-33641244099b","ios":"levelo://app?vid=2dd18b61-2b24-4346-bea4-33641244099b"},"vehicle_type_id":"4","last_reported":1677359186,"current_range_meters":9600,"station_id":"ce4bgs92rcd13ifvqcc0","pricing_plan_id":"free"},{"bike_id":"3abf536a-5e63-4486-96ef-278b8b54a617","system_id":"levelo_inurba_marseille","lat":43.301429,"lon":5.37413,"is_reserved":false,"is_disabled":false,"rental_uris":{"android":"levelo://app?vid=3abf536a-5e63-4486-96ef-278b8b54a617","ios":"levelo://app?vid=3abf536a-5e63-4486-96ef-278b8b54a617"},"vehicle_type_id":"4","last_reported":1677359186,"current_range_meters":5200,"station_id":"ce4bgs92rcd13ifvqcc0","pricing_plan_id":"free"},{"bike_id":"b5104934-024b-4b51-ac9d-4323219470b6","system_id":"levelo_inurba_marseille","lat":43.313571,"lon":5.384829,"is_reserved":false,"is_disabled":false,"rental_uris":{"android":"levelo://app?vid=b5104934-024b-4b51-ac9d-4323219470b6","ios":"levelo://app?vid=b5104934-024b-4b51-ac9d-4323219470b6"},"vehicle_type_id":"4","last_reported":1677359186,"current_range_meters":14400,"station_id":"ce4bgt92rcd13ifvqcf0","pricing_plan_id":"free"},{"bike_id":"5fc40874-2556-4551-a67a-0e08e015cbdc","system_id":"levelo_inurba_marseille","lat":43.313571,"lon":5.384829,"is_reserved":false,"is_disabled":false,"rental_uris":{"android":"levelo://app?vid=5fc40874-2556-4551-a67a-0e08e015cbdc","ios":"levelo://app?vid=5fc40874-2556-4551-a67a-0e08e015cbdc"},"vehicle_type_id":"4","last_reported":1677359186,"current_range_meters":16800,"station_id":"ce4bgt92rcd13ifvqcf0","pricing_plan_id":"free"},{"bike_id":"7fce9bc7-f5f7-49a8-87f0-e16abe13293c","system_id":"levelo_inurba_marseille","lat":43.313571,"lon":5.384829,"is_reserved":false,"is_disabled":false,"rental_uris":{"android":"levelo://app?vid=7fce9bc7-f5f7-49a8-87f0-e16abe13293c","ios":"levelo://app?vid=7fce9bc7-f5f7-49a8-87f0-e16abe13293c"},"vehicle_type_id":"4","last_reported":1677359186,"current_range_meters":7200,"station_id":"ce4bgt92rcd13ifvqcf0","pricing_plan_id":"free"},{"bike_id":"c85e724d-33f3-48d6-a0f7-58f7c570a382","system_id":"levelo_inurba_marseille","lat":43.313571,"lon":5.384829,"is_reserved":false,"is_disabled":false,"rental_uris":{"android":"levelo://app?vid=c85e724d-33f3-48d6-a0f7-58f7c570a382","ios":"levelo://app?vid=c85e724d-33f3-48d6-a0f7-58f7c570a382"},"vehicle_type_id":"4","last_reported":1677359186,"current_range_meters":18800,"station_id":"ce4bgt92rcd13ifvqcf0","pricing_plan_id":"free"},{"bike_id":"99f7e0cb-080c-406a-963c-200f1ba29635","system_id":"levelo_inurba_marseille","lat":43.313571,"lon":5.384829,"is_reserved":false,"is_disabled":false,"rental_uris":{"android":"levelo://app?vid=99f7e0cb-080c-406a-963c-200f1ba29635","ios":"levelo://app?vid=99f7e0cb-080c-406a-963c-200f1ba29635"},"vehicle_type_id":"4","last_reported":1677359186,"current_range_meters":14400,"station_id":"ce4bgt92rcd13ifvqcf0","pricing_plan_id":"free"},{"bike_id":"682b838c-0edc-4745-92f0-9a2a68267e89","system_id":"levelo_inurba_marseille","lat":43.313571,"lon":5.384829,"is_reserved":false,"is_disabled":false,"rental_uris":{"android":"levelo://app?vid=682b838c-0edc-4745-92f0-9a2a68267e89","ios":"levelo://app?vid=682b838c-0edc-4745-92f0-9a2a68267e89"},"vehicle_type_id":"4","last_reported":1677359186,"current_range_meters":0,"station_id":"ce4bgt92rcd13ifvqcf0","pricing_plan_id":"free"},{"bike_id":"c206b564-2e9b-4a16-bd6d-8b8f94496151","system_id":"levelo_inurba_marseille","lat":43.298433,"lon":5.362774,"is_reserved":false,"is_disabled":false,"rental_uris":{"android":"levelo://app?vid=c206b564-2e9b-4a16-bd6d-8b8f94496151","ios":"levelo://app?vid=c206b564-2e9b-4a16-bd6d-8b8f94496151"},"vehicle_type_id":"4","last_reported":1677359186,"current_range_meters":31600,"station_id":"ce4bgpp2rcd13ifvqc3g","pricing_plan_id":"free"},{"bike_id":"de8f0124-661e-442b-861a-9f9d653e3415","system_id":"levelo_inurba_marseille","lat":43.305364,"lon":5.384119,"is_reserved":false,"is_disabled":false,"rental_uris":{"android":"levelo://app?vid=de8f0124-661e-442b-861a-9f9d653e3415","ios":"levelo://app?vid=de8f0124-661e-442b-861a-9f9d653e3415"},"vehicle_type_id":"4","last_reported":1677359186,"current_range_meters":13600,"station_id":"ce4bgg92rcd13ifvqb30","pricing_plan_id":"free"},{"bike_id":"c34d9359-7f76-40b3-8fcf-20b2858ff9b7","system_id":"levelo_inurba_marseille","lat":43.29848,"lon":5.36286,"is_reserved":false,"is_disabled":false,"rental_uris":{"android":"levelo://app?vid=c34d9359-7f76-40b3-8fcf-20b2858ff9b7","ios":"levelo://app?vid=c34d9359-7f76-40b3-8fcf-20b2858ff9b7"},"vehicle_type_id":"4","last_reported":1677359186,"current_range_meters":26800,"station_id":"","pricing_plan_id":"free"},{"bike_id":"2eb3ad4b-37cb-4a81-94c0-a9b9851ba695","system_id":"levelo_inurba_marseille","lat":43.298433,"lon":5.362774,"is_reserved":false,"is_disabled":false,"rental_uris":{"android":"levelo://app?vid=2eb3ad4b-37cb-4a81-94c0-a9b9851ba695","ios":"levelo://app?vid=2eb3ad4b-37cb-4a81-94c0-a9b9851ba695"},"vehicle_type_id":"4","last_reported":1677359186,"current_range_meters":21200,"station_id":"ce4bgpp2rcd13ifvqc3g","pricing_plan_id":"free"},{"bike_id":"7b0fd652-a395-4217-ba66-b2058b3e2c03","system_id":"levelo_inurba_marseille","lat":43.298433,"lon":5.362774,"is_reserved":false,"is_disabled":false,"rental_uris":{"android":"levelo://app?vid=7b0fd652-a395-4217-ba66-b2058b3e2c03","ios":"levelo://app?vid=7b0fd652-a395-4217-ba66-b2058b3e2c03"},"vehicle_type_id":"4","last_reported":1677359186,"current_range_meters":25200,"station_id":"ce4bgpp2rcd13ifvqc3g","pricing_plan_id":"free"},{"bike_id":"dd481308-6964-42ad-aa0e-c64861b2f32c","system_id":"levelo_inurba_marseille","lat":43.29844,"lon":5.36275,"is_reserved":false,"is_disabled":false,"rental_uris":{"android":"levelo://app?vid=dd481308-6964-42ad-aa0e-c64861b2f32c","ios":"levelo://app?vid=dd481308-6964-42ad-aa0e-c64861b2f32c"},"vehicle_type_id":"4","last_reported":1677359186,"current_range_meters":11600,"station_id":"","pricing_plan_id":"free"},{"bike_id":"bc89541d-5d53-4f3c-bf53-8fbfa9b94172","system_id":"levelo_inurba_marseille","lat":43.298433,"lon":5.362774,"is_reserved":false,"is_disabled":false,"rental_uris":{"android":"levelo://app?vid=bc89541d-5d53-4f3c-bf53-8fbfa9b94172","ios":"levelo://app?vid=bc89541d-5d53-4f3c-bf53-8fbfa9b94172"},"vehicle_type_id":"4","last_reported":1677359186,"current_range_meters":17600,"station_id":"ce4bgpp2rcd13ifvqc3g","pricing_plan_id":"free"},{"bike_id":"a7fb55fd-2bde-4750-9736-75729598dbb0","system_id":"levelo_inurba_marseille","lat":43.298433,"lon":5.362774,"is_reserved":false,"is_disabled":false,"rental_uris":{"android":"levelo://app?vid=a7fb55fd-2bde-4750-9736-75729598dbb0","ios":"levelo://app?vid=a7fb55fd-2bde-4750-9736-75729598dbb0"},"vehicle_type_id":"4","last_reported":1677359186,"current_range_meters":31600,"station_id":"ce4bgpp2rcd13ifvqc3g","pricing_plan_id":"free"},{"bike_id":"8acc8726-5569-4ea9-b1ed-e0c317081a70","system_id":"levelo_inurba_marseille","lat":43.29841,"lon":5.36268,"is_reserved":false,"is_disabled":false,"rental_uris":{"android":"levelo://app?vid=8acc8726-5569-4ea9-b1ed-e0c317081a70","ios":"levelo://app?vid=8acc8726-5569-4ea9-b1ed-e0c317081a70"},"vehicle_type_id":"4","last_reported":1677359186,"current_range_meters":28800,"station_id":"","pricing_plan_id":"free"},{"bike_id":"4cb17a48-51b0-469f-9b56-d23f1c60d955","system_id":"levelo_inurba_marseille","lat":43.298433,"lon":5.362774,"is_reserved":false,"is_disabled":false,"rental_uris":{"android":"levelo://app?vid=4cb17a48-51b0-469f-9b56-d23f1c60d955","ios":"levelo://app?vid=4cb17a48-51b0-469f-9b56-d23f1c60d955"},"vehicle_type_id":"4","last_reported":1677359186,"current_range_meters":7200,"station_id":"ce4bgpp2rcd13ifvqc3g","pricing_plan_id":"free"},{"bike_id":"d654ec34-145b-4b11-96f0-79df6e61d985","system_id":"levelo_inurba_marseille","lat":43.29841,"lon":5.36263,"is_reserved":false,"is_disabled":false,"rental_uris":{"android":"levelo://app?vid=d654ec34-145b-4b11-96f0-79df6e61d985","ios":"levelo://app?vid=d654ec34-145b-4b11-96f0-79df6e61d985"},"vehicle_type_id":"4","last_reported":1677359186,"current_range_meters":27200,"station_id":"","pricing_plan_id":"free"},{"bike_id":"8c6f6e3a-b48d-4c43-a480-a35f8f9f7578","system_id":"levelo_inurba_marseille","lat":43.305315,"lon":5.384315,"is_reserved":false,"is_disabled":false,"rental_uris":{"android":"levelo://app?vid=8c6f6e3a-b48d-4c43-a480-a35f8f9f7578","ios":"levelo://app?vid=8c6f6e3a-b48d-4c43-a480-a35f8f9f7578"},"vehicle_type_id":"4","last_reported":1677359186,"current_range_meters":31600,"station_id":"ce4bgg92rcd13ifvqb30","pricing_plan_id":"free"},{"bike_id":"b528343a-5283-4b54-89a4-9ff9027c59d6","system_id":"levelo_inurba_marseille","lat":43.311722,"lon":5.387247,"is_reserved":false,"is_disabled":false,"rental_uris":{"android":"levelo://app?vid=b528343a-5283-4b54-89a4-9ff9027c59d6","ios":"levelo://app?vid=b528343a-5283-4b54-89a4-9ff9027c59d6"},"vehicle_type_id":"4","last_reported":1677359186,"current_range_meters":28800,"station_id":"ce4bgv12rcd13ifvqcp0","pricing_plan_id":"free"},{"bike_id":"fb7c1281-44b6-48f3-a05f-cc21e6fd009b","system_id":"levelo_inurba_marseille","lat":43.328371,"lon":5.366909,"is_reserved":false,"is_disabled":false,"rental_uris":{"android":"levelo://app?vid=fb7c1281-44b6-48f3-a05f-cc21e6fd009b","ios":"levelo://app?vid=fb7c1281-44b6-48f3-a05f-cc21e6fd009b"},"vehicle_type_id":"4","last_reported":1677359186,"current_range_meters":15600,"station_id":"ce4bhs92rcd13ifvqi0g","pricing_plan_id":"free"},{"bike_id":"e6b3f4ea-1861-433c-a8e8-62d731ab80e1","system_id":"levelo_inurba_marseille","lat":43.328371,"lon":5.366909,"is_reserved":false,"is_disabled":false,"rental_uris":{"android":"levelo://app?vid=e6b3f4ea-1861-433c-a8e8-62d731ab80e1","ios":"levelo://app?vid=e6b3f4ea-1861-433c-a8e8-62d731ab80e1"},"vehicle_type_id":"4","last_reported":1677359186,"current_range_meters":22000,"station_id":"ce4bhs92rcd13ifvqi0g","pricing_plan_id":"free"},{"bike_id":"197af0d6-5467-4203-a676-cdf599dc91a3","system_id":"levelo_inurba_marseille","lat":43.328371,"lon":5.366909,"is_reserved":false,"is_disabled":false,"rental_uris":{"android":"levelo://app?vid=197af0d6-5467-4203-a676-cdf599dc91a3","ios":"levelo://app?vid=197af0d6-5467-4203-a676-cdf599dc91a3"},"vehicle_type_id":"4","last_reported":1677359186,"current_range_meters":24400,"station_id":"ce4bhs92rcd13ifvqi0g","pricing_plan_id":"free"},{"bike_id":"b0fdd08f-ad1c-4f07-8737-19a1b8e7f7a3","system_id":"levelo_inurba_marseille","lat":43.328371,"lon":5.366909,"is_reserved":false,"is_disabled":false,"rental_uris":{"android":"levelo://app?vid=b0fdd08f-ad1c-4f07-8737-19a1b8e7f7a3","ios":"levelo://app?vid=b0fdd08f-ad1c-4f07-8737-19a1b8e7f7a3"},"vehicle_type_id":"4","last_reported":1677359186,"current_range_meters":8000,"station_id":"ce4bhs92rcd13ifvqi0g","pricing_plan_id":"free"},{"bike_id":"bc69dcbf-c5e7-473e-9c3a-5cb1899b37fd","system_id":"levelo_inurba_marseille","lat":43.328371,"lon":5.366909,"is_reserved":false,"is_disabled":false,"rental_uris":{"android":"levelo://app?vid=bc69dcbf-c5e7-473e-9c3a-5cb1899b37fd","ios":"levelo://app?vid=bc69dcbf-c5e7-473e-9c3a-5cb1899b37fd"},"vehicle_type_id":"4","last_reported":1677359186,"current_range_meters":9600,"station_id":"ce4bhs92rcd13ifvqi0g","pricing_plan_id":"free"},{"bike_id":"37b329ef-726b-45ed-8520-2998c5c0e83b","system_id":"levelo_inurba_marseille","lat":43.328371,"lon":5.366909,"is_reserved":false,"is_disabled":false,"rental_uris":{"android":"levelo://app?vid=37b329ef-726b-45ed-8520-2998c5c0e83b","ios":"levelo://app?vid=37b329ef-726b-45ed-8520-2998c5c0e83b"},"vehicle_type_id":"4","last_reported":1677359186,"current_range_meters":14000,"station_id":"ce4bhs92rcd13ifvqi0g","pricing_plan_id":"free"},{"bike_id":"1d264247-bd52-4a78-bfd0-64324839d730","system_id":"levelo_inurba_marseille","lat":43.328371,"lon":5.366909,"is_reserved":false,"is_disabled":false,"rental_uris":{"android":"levelo://app?vid=1d264247-bd52-4a78-bfd0-64324839d730","ios":"levelo://app?vid=1d264247-bd52-4a78-bfd0-64324839d730"},"vehicle_type_id":"4","last_reported":1677359186,"current_range_meters":10800,"station_id":"ce4bhs92rcd13ifvqi0g","pricing_plan_id":"free"},{"bike_id":"bc9c1b55-928c-4fce-a6ef-d6a72636c5c8","system_id":"levelo_inurba_marseille","lat":43.328371,"lon":5.366909,"is_reserved":false,"is_disabled":false,"rental_uris":{"android":"levelo://app?vid=bc9c1b55-928c-4fce-a6ef-d6a72636c5c8","ios":"levelo://app?vid=bc9c1b55-928c-4fce-a6ef-d6a72636c5c8"},"vehicle_type_id":"4","last_reported":1677359186,"current_range_meters":1200,"station_id":"ce4bhs92rcd13ifvqi0g","pricing_plan_id":"free"},{"bike_id":"ebd11181-84a3-47b4-8b2e-bf6d389cfbcd","system_id":"levelo_inurba_marseille","lat":43.328371,"lon":5.366909,"is_reserved":false,"is_disabled":false,"rental_uris":{"android":"levelo://app?vid=ebd11181-84a3-47b4-8b2e-bf6d389cfbcd","ios":"levelo://app?vid=ebd11181-84a3-47b4-8b2e-bf6d389cfbcd"},"vehicle_type_id":"4","last_reported":1677359186,"current_range_meters":18000,"station_id":"ce4bhs92rcd13ifvqi0g","pricing_plan_id":"free"},{"bike_id":"45ea00c2-1072-4a0b-acc6-56898a9f5178","system_id":"levelo_inurba_marseille","lat":43.328371,"lon":5.366909,"is_reserved":false,"is_disabled":false,"rental_uris":{"android":"levelo://app?vid=45ea00c2-1072-4a0b-acc6-56898a9f5178","ios":"levelo://app?vid=45ea00c2-1072-4a0b-acc6-56898a9f5178"},"vehicle_type_id":"4","last_reported":1677359186,"current_range_meters":17600,"station_id":"ce4bhs92rcd13ifvqi0g","pricing_plan_id":"free"},{"bike_id":"52f5446f-7797-46b6-81be-14f4f341e138","system_id":"levelo_inurba_marseille","lat":43.328371,"lon":5.366909,"is_reserved":false,"is_disabled":false,"rental_uris":{"android":"levelo://app?vid=52f5446f-7797-46b6-81be-14f4f341e138","ios":"levelo://app?vid=52f5446f-7797-46b6-81be-14f4f341e138"},"vehicle_type_id":"4","last_reported":1677359186,"current_range_meters":19200,"station_id":"ce4bhs92rcd13ifvqi0g","pricing_plan_id":"free"},{"bike_id":"ea0e675a-6b3e-4aac-812d-51d81478604c","system_id":"levelo_inurba_marseille","lat":43.328371,"lon":5.366909,"is_reserved":false,"is_disabled":false,"rental_uris":{"android":"levelo://app?vid=ea0e675a-6b3e-4aac-812d-51d81478604c","ios":"levelo://app?vid=ea0e675a-6b3e-4aac-812d-51d81478604c"},"vehicle_type_id":"4","last_reported":1677359186,"current_range_meters":0,"station_id":"ce4bhs92rcd13ifvqi0g","pricing_plan_id":"free"},{"bike_id":"5cd0d56e-3930-4325-861a-0696713a85d5","system_id":"levelo_inurba_marseille","lat":43.29573,"lon":5.367355,"is_reserved":false,"is_disabled":false,"rental_uris":{"android":"levelo://app?vid=5cd0d56e-3930-4325-861a-0696713a85d5","ios":"levelo://app?vid=5cd0d56e-3930-4325-861a-0696713a85d5"},"vehicle_type_id":"4","last_reported":1677359186,"current_range_meters":9200,"station_id":"ce4bgph2rcd13ifvqc2g","pricing_plan_id":"free"},{"bike_id":"c4d25b6d-d0fb-4871-80d0-7fe7a1a69ffd","system_id":"levelo_inurba_marseille","lat":43.301429,"lon":5.37413,"is_reserved":false,"is_disabled":false,"rental_uris":{"android":"levelo://app?vid=c4d25b6d-d0fb-4871-80d0-7fe7a1a69ffd","ios":"levelo://app?vid=c4d25b6d-d0fb-4871-80d0-7fe7a1a69ffd"},"vehicle_type_id":"4","last_reported":1677359186,"current_range_meters":6000,"station_id":"ce4bgs92rcd13ifvqcc0","pricing_plan_id":"free"},{"bike_id":"3dc8733a-8712-4db6-960d-bb025c2b0d83","system_id":"levelo_inurba_marseille","lat":43.309589,"lon":5.390258,"is_reserved":false,"is_disabled":false,"rental_uris":{"android":"levelo://app?vid=3dc8733a-8712-4db6-960d-bb025c2b0d83","ios":"levelo://app?vid=3dc8733a-8712-4db6-960d-bb025c2b0d83"},"vehicle_type_id":"4","last_reported":1677359186,"current_range_meters":4400,"station_id":"ce4bgup2rcd13ifvqco0","pricing_plan_id":"free"},{"bike_id":"f91fce90-fd56-474b-aa55-1144672cc6d9","system_id":"levelo_inurba_marseille","lat":43.299028,"lon":5.381509,"is_reserved":false,"is_disabled":false,"rental_uris":{"android":"levelo://app?vid=f91fce90-fd56-474b-aa55-1144672cc6d9","ios":"levelo://app?vid=f91fce90-fd56-474b-aa55-1144672cc6d9"},"vehicle_type_id":"4","last_reported":1677359186,"current_range_meters":23600,"station_id":"ce4bgj12rcd13ifvqbc0","pricing_plan_id":"free"},{"bike_id":"b308beae-2fde-46ca-abff-40fe15f67673","system_id":"levelo_inurba_marseille","lat":43.299028,"lon":5.381509,"is_reserved":false,"is_disabled":false,"rental_uris":{"android":"levelo://app?vid=b308beae-2fde-46ca-abff-40fe15f67673","ios":"levelo://app?vid=b308beae-2fde-46ca-abff-40fe15f67673"},"vehicle_type_id":"4","last_reported":1677359186,"current_range_meters":8800,"station_id":"ce4bgj12rcd13ifvqbc0","pricing_plan_id":"free"},{"bike_id":"5ae85c05-a8e1-4768-854d-09c265713f88","system_id":"levelo_inurba_marseille","lat":43.299028,"lon":5.381509,"is_reserved":false,"is_disabled":false,"rental_uris":{"android":"levelo://app?vid=5ae85c05-a8e1-4768-854d-09c265713f88","ios":"levelo://app?vid=5ae85c05-a8e1-4768-854d-09c265713f88"},"vehicle_type_id":"4","last_reported":1677359186,"current_range_meters":31600,"station_id":"ce4bgj12rcd13ifvqbc0","pricing_plan_id":"free"},{"bike_id":"8a55470f-fba2-4c9b-bf0c-4716988ff4bc","system_id":"levelo_inurba_marseille","lat":43.299028,"lon":5.381509,"is_reserved":false,"is_disabled":false,"rental_uris":{"android":"levelo://app?vid=8a55470f-fba2-4c9b-bf0c-4716988ff4bc","ios":"levelo://app?vid=8a55470f-fba2-4c9b-bf0c-4716988ff4bc"},"vehicle_type_id":"4","last_reported":1677359186,"current_range_meters":31600,"station_id":"ce4bgj12rcd13ifvqbc0","pricing_plan_id":"free"},{"bike_id":"5663270b-2716-4ab6-980e-429515c52785","system_id":"levelo_inurba_marseille","lat":43.317557,"lon":5.390173,"is_reserved":false,"is_disabled":false,"rental_uris":{"android":"levelo://app?vid=5663270b-2716-4ab6-980e-429515c52785","ios":"levelo://app?vid=5663270b-2716-4ab6-980e-429515c52785"},"vehicle_type_id":"4","last_reported":1677359186,"current_range_meters":9600,"station_id":"ce4bhqp2rcd13ifvqhng","pricing_plan_id":"free"},{"bike_id":"2462aeb6-1704-4631-ace6-35607356d0b8","system_id":"levelo_inurba_marseille","lat":43.31767,"lon":5.390138,"is_reserved":false,"is_disabled":false,"rental_uris":{"android":"levelo://app?vid=2462aeb6-1704-4631-ace6-35607356d0b8","ios":"levelo://app?vid=2462aeb6-1704-4631-ace6-35607356d0b8"},"vehicle_type_id":"4","last_reported":1677359186,"current_range_meters":20800,"station_id":"ce4bhqp2rcd13ifvqhng","pricing_plan_id":"free"},{"bike_id":"b89171df-5f7e-4a7d-9c17-57c3788b09bb","system_id":"levelo_inurba_marseille","lat":43.317557,"lon":5.390173,"is_reserved":false,"is_disabled":false,"rental_uris":{"android":"levelo://app?vid=b89171df-5f7e-4a7d-9c17-57c3788b09bb","ios":"levelo://app?vid=b89171df-5f7e-4a7d-9c17-57c3788b09bb"},"vehicle_type_id":"4","last_reported":1677359186,"current_range_meters":14400,"station_id":"ce4bhqp2rcd13ifvqhng","pricing_plan_id":"free"},{"bike_id":"1a2b00bc-908a-4a86-9ee9-b40d16f29e0d","system_id":"levelo_inurba_marseille","lat":43.317557,"lon":5.390173,"is_reserved":false,"is_disabled":false,"rental_uris":{"android":"levelo://app?vid=1a2b00bc-908a-4a86-9ee9-b40d16f29e0d","ios":"levelo://app?vid=1a2b00bc-908a-4a86-9ee9-b40d16f29e0d"},"vehicle_type_id":"4","last_reported":1677359186,"current_range_meters":14000,"station_id":"ce4bhqp2rcd13ifvqhng","pricing_plan_id":"free"},{"bike_id":"87772f18-9dab-44b7-9a12-4ef0c7d43669","system_id":"levelo_inurba_marseille","lat":43.31759,"lon":5.390176,"is_reserved":false,"is_disabled":false,"rental_uris":{"android":"levelo://app?vid=87772f18-9dab-44b7-9a12-4ef0c7d43669","ios":"levelo://app?vid=87772f18-9dab-44b7-9a12-4ef0c7d43669"},"vehicle_type_id":"4","last_reported":1677359186,"current_range_meters":18000,"station_id":"ce4bhqp2rcd13ifvqhng","pricing_plan_id":"free"},{"bike_id":"f9a9e3f9-6e1a-4198-9a72-588053242598","system_id":"levelo_inurba_marseille","lat":43.317585,"lon":5.390208,"is_reserved":false,"is_disabled":false,"rental_uris":{"android":"levelo://app?vid=f9a9e3f9-6e1a-4198-9a72-588053242598","ios":"levelo://app?vid=f9a9e3f9-6e1a-4198-9a72-588053242598"},"vehicle_type_id":"4","last_reported":1677359186,"current_range_meters":22800,"station_id":"ce4bhqp2rcd13ifvqhng","pricing_plan_id":"free"},{"bike_id":"e243036c-cce6-42ac-8687-d275e78800c7","system_id":"levelo_inurba_marseille","lat":43.31755,"lon":5.39023,"is_reserved":false,"is_disabled":false,"rental_uris":{"android":"levelo://app?vid=e243036c-cce6-42ac-8687-d275e78800c7","ios":"levelo://app?vid=e243036c-cce6-42ac-8687-d275e78800c7"},"vehicle_type_id":"4","last_reported":1677359186,"current_range_meters":18800,"station_id":"ce4bhqp2rcd13ifvqhng","pricing_plan_id":"free"},{"bike_id":"599496d7-56e1-4a76-8768-f04cd9ef75e3","system_id":"levelo_inurba_marseille","lat":43.317569,"lon":5.39024,"is_reserved":false,"is_disabled":false,"rental_uris":{"android":"levelo://app?vid=599496d7-56e1-4a76-8768-f04cd9ef75e3","ios":"levelo://app?vid=599496d7-56e1-4a76-8768-f04cd9ef75e3"},"vehicle_type_id":"4","last_reported":1677359186,"current_range_meters":11600,"station_id":"ce4bhqp2rcd13ifvqhng","pricing_plan_id":"free"},{"bike_id":"56955d58-cc25-4579-ac0c-68c935580609","system_id":"levelo_inurba_marseille","lat":43.29807,"lon":5.38088,"is_reserved":false,"is_disabled":false,"rental_uris":{"android":"levelo://app?vid=56955d58-cc25-4579-ac0c-68c935580609","ios":"levelo://app?vid=56955d58-cc25-4579-ac0c-68c935580609"},"vehicle_type_id":"4","last_reported":1677359186,"current_range_meters":11200,"station_id":"","pricing_plan_id":"free"},{"bike_id":"0c4c1528-1a96-4374-a586-3155e7b3a880","system_id":"levelo_inurba_marseille","lat":43.29804,"lon":5.38084,"is_reserved":false,"is_disabled":false,"rental_uris":{"android":"levelo://app?vid=0c4c1528-1a96-4374-a586-3155e7b3a880","ios":"levelo://app?vid=0c4c1528-1a96-4374-a586-3155e7b3a880"},"vehicle_type_id":"4","last_reported":1677359186,"current_range_meters":8400,"station_id":"","pricing_plan_id":"free"},{"bike_id":"0cdfc193-5d11-4e50-b2f7-d9514b0139c5","system_id":"levelo_inurba_marseille","lat":43.298045,"lon":5.38089,"is_reserved":false,"is_disabled":false,"rental_uris":{"android":"levelo://app?vid=0cdfc193-5d11-4e50-b2f7-d9514b0139c5","ios":"levelo://app?vid=0cdfc193-5d11-4e50-b2f7-d9514b0139c5"},"vehicle_type_id":"4","last_reported":1677359186,"current_range_meters":6800,"station_id":"","pricing_plan_id":"free"},{"bike_id":"c54d884a-45e9-4314-8e65-a74e7f3b5bdc","system_id":"levelo_inurba_marseille","lat":43.298037,"lon":5.381066,"is_reserved":false,"is_disabled":false,"rental_uris":{"android":"levelo://app?vid=c54d884a-45e9-4314-8e65-a74e7f3b5bdc","ios":"levelo://app?vid=c54d884a-45e9-4314-8e65-a74e7f3b5bdc"},"vehicle_type_id":"4","last_reported":1677359186,"current_range_meters":6400,"station_id":"ce4bgip2rcd13ifvqbb0","pricing_plan_id":"free"},{"bike_id":"d6efa3ac-537b-44d5-95cd-358e566ecdf3","system_id":"levelo_inurba_marseille","lat":43.298037,"lon":5.381066,"is_reserved":false,"is_disabled":false,"rental_uris":{"android":"levelo://app?vid=d6efa3ac-537b-44d5-95cd-358e566ecdf3","ios":"levelo://app?vid=d6efa3ac-537b-44d5-95cd-358e566ecdf3"},"vehicle_type_id":"4","last_reported":1677359186,"current_range_meters":14400,"station_id":"ce4bgip2rcd13ifvqbb0","pricing_plan_id":"free"},{"bike_id":"e408a675-9508-46e1-8c1d-9e61a9217429","system_id":"levelo_inurba_marseille","lat":43.29572,"lon":5.37505,"is_reserved":false,"is_disabled":false,"rental_uris":{"android":"levelo://app?vid=e408a675-9508-46e1-8c1d-9e61a9217429","ios":"levelo://app?vid=e408a675-9508-46e1-8c1d-9e61a9217429"},"vehicle_type_id":"4","last_reported":1677359186,"current_range_meters":25200,"station_id":"","pricing_plan_id":"free"},{"bike_id":"8783627d-7494-4aac-8a16-961bd92e7f26","system_id":"levelo_inurba_marseille","lat":43.298037,"lon":5.381066,"is_reserved":false,"is_disabled":false,"rental_uris":{"android":"levelo://app?vid=8783627d-7494-4aac-8a16-961bd92e7f26","ios":"levelo://app?vid=8783627d-7494-4aac-8a16-961bd92e7f26"},"vehicle_type_id":"4","last_reported":1677359186,"current_range_meters":26400,"station_id":"ce4bgip2rcd13ifvqbb0","pricing_plan_id":"free"},{"bike_id":"39cd3186-fe56-48c8-b958-57e137689403","system_id":"levelo_inurba_marseille","lat":43.298037,"lon":5.381066,"is_reserved":false,"is_disabled":false,"rental_uris":{"android":"levelo://app?vid=39cd3186-fe56-48c8-b958-57e137689403","ios":"levelo://app?vid=39cd3186-fe56-48c8-b958-57e137689403"},"vehicle_type_id":"4","last_reported":1677359186,"current_range_meters":0,"station_id":"ce4bgip2rcd13ifvqbb0","pricing_plan_id":"free"},{"bike_id":"377d8fe9-48d5-4f87-9e61-918da13e1805","system_id":"levelo_inurba_marseille","lat":43.296217,"lon":5.37712,"is_reserved":false,"is_disabled":false,"rental_uris":{"android":"levelo://app?vid=377d8fe9-48d5-4f87-9e61-918da13e1805","ios":"levelo://app?vid=377d8fe9-48d5-4f87-9e61-918da13e1805"},"vehicle_type_id":"4","last_reported":1677359186,"current_range_meters":8000,"station_id":"","pricing_plan_id":"free"},{"bike_id":"6629f9c3-ea8b-4741-b0b0-8a45f3f7ace2","system_id":"levelo_inurba_marseille","lat":43.29619,"lon":5.37729,"is_reserved":false,"is_disabled":false,"rental_uris":{"android":"levelo://app?vid=6629f9c3-ea8b-4741-b0b0-8a45f3f7ace2","ios":"levelo://app?vid=6629f9c3-ea8b-4741-b0b0-8a45f3f7ace2"},"vehicle_type_id":"4","last_reported":1677359186,"current_range_meters":29600,"station_id":"","pricing_plan_id":"free"},{"bike_id":"f13d1922-a735-4994-b532-0a9008937170","system_id":"levelo_inurba_marseille","lat":43.295279,"lon":5.375048,"is_reserved":false,"is_disabled":false,"rental_uris":{"android":"levelo://app?vid=f13d1922-a735-4994-b532-0a9008937170","ios":"levelo://app?vid=f13d1922-a735-4994-b532-0a9008937170"},"vehicle_type_id":"4","last_reported":1677359186,"current_range_meters":4000,"station_id":"ce4bgkp2rcd13ifvqbmg","pricing_plan_id":"free"},{"bike_id":"da95e8b3-c6c5-43d3-9026-567d0f7c4629","system_id":"levelo_inurba_marseille","lat":43.295213,"lon":5.37509,"is_reserved":false,"is_disabled":false,"rental_uris":{"android":"levelo://app?vid=da95e8b3-c6c5-43d3-9026-567d0f7c4629","ios":"levelo://app?vid=da95e8b3-c6c5-43d3-9026-567d0f7c4629"},"vehicle_type_id":"4","last_reported":1677359186,"current_range_meters":25600,"station_id":"","pricing_plan_id":"free"},{"bike_id":"2a49910c-3ed8-4103-aa66-407d82c9c65b","system_id":"levelo_inurba_marseille","lat":43.32367,"lon":5.388836,"is_reserved":false,"is_disabled":false,"rental_uris":{"android":"levelo://app?vid=2a49910c-3ed8-4103-aa66-407d82c9c65b","ios":"levelo://app?vid=2a49910c-3ed8-4103-aa66-407d82c9c65b"},"vehicle_type_id":"4","last_reported":1677359186,"current_range_meters":14000,"station_id":"ce4bhqp2rcd13ifvqhog","pricing_plan_id":"free"},{"bike_id":"28776fb4-0ae8-44dc-b7d7-08dc007fcbf7","system_id":"levelo_inurba_marseille","lat":43.32367,"lon":5.388836,"is_reserved":false,"is_disabled":false,"rental_uris":{"android":"levelo://app?vid=28776fb4-0ae8-44dc-b7d7-08dc007fcbf7","ios":"levelo://app?vid=28776fb4-0ae8-44dc-b7d7-08dc007fcbf7"},"vehicle_type_id":"4","last_reported":1677359186,"current_range_meters":14000,"station_id":"ce4bhqp2rcd13ifvqhog","pricing_plan_id":"free"},{"bike_id":"4735e82d-bbe8-42b2-a67c-e92248e4784c","system_id":"levelo_inurba_marseille","lat":43.32367,"lon":5.388836,"is_reserved":false,"is_disabled":false,"rental_uris":{"android":"levelo://app?vid=4735e82d-bbe8-42b2-a67c-e92248e4784c","ios":"levelo://app?vid=4735e82d-bbe8-42b2-a67c-e92248e4784c"},"vehicle_type_id":"4","last_reported":1677359186,"current_range_meters":1600,"station_id":"ce4bhqp2rcd13ifvqhog","pricing_plan_id":"free"},{"bike_id":"ea8bdd10-4bc6-49ce-8fb6-cf808ec64aaf","system_id":"levelo_inurba_marseille","lat":43.32367,"lon":5.388836,"is_reserved":false,"is_disabled":false,"rental_uris":{"android":"levelo://app?vid=ea8bdd10-4bc6-49ce-8fb6-cf808ec64aaf","ios":"levelo://app?vid=ea8bdd10-4bc6-49ce-8fb6-cf808ec64aaf"},"vehicle_type_id":"4","last_reported":1677359186,"current_range_meters":24800,"station_id":"ce4bhqp2rcd13ifvqhog","pricing_plan_id":"free"},{"bike_id":"28b099a1-5913-444c-972c-14da9e033704","system_id":"levelo_inurba_marseille","lat":43.32367,"lon":5.388836,"is_reserved":false,"is_disabled":false,"rental_uris":{"android":"levelo://app?vid=28b099a1-5913-444c-972c-14da9e033704","ios":"levelo://app?vid=28b099a1-5913-444c-972c-14da9e033704"},"vehicle_type_id":"4","last_reported":1677359186,"current_range_meters":20000,"station_id":"ce4bhqp2rcd13ifvqhog","pricing_plan_id":"free"},{"bike_id":"f453c687-7c1d-47c7-9222-bd062c3e7ed6","system_id":"levelo_inurba_marseille","lat":43.32367,"lon":5.388836,"is_reserved":false,"is_disabled":false,"rental_uris":{"android":"levelo://app?vid=f453c687-7c1d-47c7-9222-bd062c3e7ed6","ios":"levelo://app?vid=f453c687-7c1d-47c7-9222-bd062c3e7ed6"},"vehicle_type_id":"4","last_reported":1677359186,"current_range_meters":3200,"station_id":"ce4bhqp2rcd13ifvqhog","pricing_plan_id":"free"},{"bike_id":"b0e467e3-64f5-4407-92e3-08ad49e4d550","system_id":"levelo_inurba_marseille","lat":43.32367,"lon":5.388836,"is_reserved":false,"is_disabled":false,"rental_uris":{"android":"levelo://app?vid=b0e467e3-64f5-4407-92e3-08ad49e4d550","ios":"levelo://app?vid=b0e467e3-64f5-4407-92e3-08ad49e4d550"},"vehicle_type_id":"4","last_reported":1677359186,"current_range_meters":18400,"station_id":"ce4bhqp2rcd13ifvqhog","pricing_plan_id":"free"},{"bike_id":"3988895e-fc8a-48c3-81bd-783ac9a24d5e","system_id":"levelo_inurba_marseille","lat":43.32363,"lon":5.38886,"is_reserved":false,"is_disabled":false,"rental_uris":{"android":"levelo://app?vid=3988895e-fc8a-48c3-81bd-783ac9a24d5e","ios":"levelo://app?vid=3988895e-fc8a-48c3-81bd-783ac9a24d5e"},"vehicle_type_id":"4","last_reported":1677359186,"current_range_meters":18800,"station_id":"","pricing_plan_id":"free"},{"bike_id":"23aee82b-940e-4b7a-9da3-eac043665492","system_id":"levelo_inurba_marseille","lat":43.32367,"lon":5.388836,"is_reserved":false,"is_disabled":false,"rental_uris":{"android":"levelo://app?vid=23aee82b-940e-4b7a-9da3-eac043665492","ios":"levelo://app?vid=23aee82b-940e-4b7a-9da3-eac043665492"},"vehicle_type_id":"4","last_reported":1677359186,"current_range_meters":29200,"station_id":"ce4bhqp2rcd13ifvqhog","pricing_plan_id":"free"},{"bike_id":"bca13de0-db2d-44a3-bb73-4d8f4cf973e4","system_id":"levelo_inurba_marseille","lat":43.32367,"lon":5.388836,"is_reserved":false,"is_disabled":false,"rental_uris":{"android":"levelo://app?vid=bca13de0-db2d-44a3-bb73-4d8f4cf973e4","ios":"levelo://app?vid=bca13de0-db2d-44a3-bb73-4d8f4cf973e4"},"vehicle_type_id":"4","last_reported":1677359186,"current_range_meters":26800,"station_id":"ce4bhqp2rcd13ifvqhog","pricing_plan_id":"free"},{"bike_id":"c61d9dc0-cddc-4070-982f-47a717757a21","system_id":"levelo_inurba_marseille","lat":43.32367,"lon":5.388836,"is_reserved":false,"is_disabled":false,"rental_uris":{"android":"levelo://app?vid=c61d9dc0-cddc-4070-982f-47a717757a21","ios":"levelo://app?vid=c61d9dc0-cddc-4070-982f-47a717757a21"},"vehicle_type_id":"4","last_reported":1677359186,"current_range_meters":16800,"station_id":"ce4bhqp2rcd13ifvqhog","pricing_plan_id":"free"},{"bike_id":"7a0840c5-cf4c-47d9-b114-4f8a03e1f171","system_id":"levelo_inurba_marseille","lat":43.29389,"lon":5.37301,"is_reserved":false,"is_disabled":false,"rental_uris":{"android":"levelo://app?vid=7a0840c5-cf4c-47d9-b114-4f8a03e1f171","ios":"levelo://app?vid=7a0840c5-cf4c-47d9-b114-4f8a03e1f171"},"vehicle_type_id":"4","last_reported":1677359186,"current_range_meters":12800,"station_id":"","pricing_plan_id":"free"},{"bike_id":"b11777e5-6592-4a32-9271-8fd7fb345e14","system_id":"levelo_inurba_marseille","lat":43.32367,"lon":5.388836,"is_reserved":false,"is_disabled":false,"rental_uris":{"android":"levelo://app?vid=b11777e5-6592-4a32-9271-8fd7fb345e14","ios":"levelo://app?vid=b11777e5-6592-4a32-9271-8fd7fb345e14"},"vehicle_type_id":"4","last_reported":1677359186,"current_range_meters":11600,"station_id":"ce4bhqp2rcd13ifvqhog","pricing_plan_id":"free"},{"bike_id":"7732c9e6-d0fb-48a8-ade1-eb60968a6d8a","system_id":"levelo_inurba_marseille","lat":43.293009,"lon":5.374584,"is_reserved":false,"is_disabled":false,"rental_uris":{"android":"levelo://app?vid=7732c9e6-d0fb-48a8-ade1-eb60968a6d8a","ios":"levelo://app?vid=7732c9e6-d0fb-48a8-ade1-eb60968a6d8a"},"vehicle_type_id":"4","last_reported":1677359186,"current_range_meters":18000,"station_id":"ce4bgi12rcd13ifvqb70","pricing_plan_id":"free"},{"bike_id":"2a107060-247a-4844-af86-097dce20e4b0","system_id":"levelo_inurba_marseille","lat":43.293009,"lon":5.374584,"is_reserved":false,"is_disabled":false,"rental_uris":{"android":"levelo://app?vid=2a107060-247a-4844-af86-097dce20e4b0","ios":"levelo://app?vid=2a107060-247a-4844-af86-097dce20e4b0"},"vehicle_type_id":"4","last_reported":1677359186,"current_range_meters":11600,"station_id":"ce4bgi12rcd13ifvqb70","pricing_plan_id":"free"},{"bike_id":"92118e43-de46-4390-bf27-dbc87d2edbe1","system_id":"levelo_inurba_marseille","lat":43.30602,"lon":5.39353,"is_reserved":false,"is_disabled":false,"rental_uris":{"android":"levelo://app?vid=92118e43-de46-4390-bf27-dbc87d2edbe1","ios":"levelo://app?vid=92118e43-de46-4390-bf27-dbc87d2edbe1"},"vehicle_type_id":"4","last_reported":1677359186,"current_range_meters":20800,"station_id":"ce4bh0p2rcd13ifvqd80","pricing_plan_id":"free"},{"bike_id":"893eaec1-de23-49a0-9a15-1f59fb4c9138","system_id":"levelo_inurba_marseille","lat":43.293009,"lon":5.374584,"is_reserved":false,"is_disabled":false,"rental_uris":{"android":"levelo://app?vid=893eaec1-de23-49a0-9a15-1f59fb4c9138","ios":"levelo://app?vid=893eaec1-de23-49a0-9a15-1f59fb4c9138"},"vehicle_type_id":"4","last_reported":1677359186,"current_range_meters":6400,"station_id":"ce4bgi12rcd13ifvqb70","pricing_plan_id":"free"},{"bike_id":"760936d3-cde0-48db-9700-ea47db57de2b","system_id":"levelo_inurba_marseille","lat":43.306077,"lon":5.393587,"is_reserved":false,"is_disabled":false,"rental_uris":{"android":"levelo://app?vid=760936d3-cde0-48db-9700-ea47db57de2b","ios":"levelo://app?vid=760936d3-cde0-48db-9700-ea47db57de2b"},"vehicle_type_id":"4","last_reported":1677359186,"current_range_meters":20400,"station_id":"ce4bh0p2rcd13ifvqd80","pricing_plan_id":"free"},{"bike_id":"927df60d-0e63-4ae4-bc69-d3558dfc4ac9","system_id":"levelo_inurba_marseille","lat":43.305994,"lon":5.393687,"is_reserved":false,"is_disabled":false,"rental_uris":{"android":"levelo://app?vid=927df60d-0e63-4ae4-bc69-d3558dfc4ac9","ios":"levelo://app?vid=927df60d-0e63-4ae4-bc69-d3558dfc4ac9"},"vehicle_type_id":"4","last_reported":1677359186,"current_range_meters":800,"station_id":"ce4bh0p2rcd13ifvqd80","pricing_plan_id":"free"},{"bike_id":"76725cb8-82db-4b22-b536-3afa51e23527","system_id":"levelo_inurba_marseille","lat":43.293009,"lon":5.374584,"is_reserved":false,"is_disabled":false,"rental_uris":{"android":"levelo://app?vid=76725cb8-82db-4b22-b536-3afa51e23527","ios":"levelo://app?vid=76725cb8-82db-4b22-b536-3afa51e23527"},"vehicle_type_id":"4","last_reported":1677359186,"current_range_meters":12000,"station_id":"ce4bgi12rcd13ifvqb70","pricing_plan_id":"free"},{"bike_id":"87bb9746-caf6-452e-8db4-94e53896937c","system_id":"levelo_inurba_marseille","lat":43.30594,"lon":5.39354,"is_reserved":false,"is_disabled":false,"rental_uris":{"android":"levelo://app?vid=87bb9746-caf6-452e-8db4-94e53896937c","ios":"levelo://app?vid=87bb9746-caf6-452e-8db4-94e53896937c"},"vehicle_type_id":"4","last_reported":1677359186,"current_range_meters":4400,"station_id":"ce4bh0p2rcd13ifvqd80","pricing_plan_id":"free"},{"bike_id":"1100632c-8db8-4717-9b17-f1dfba904b32","system_id":"levelo_inurba_marseille","lat":43.305994,"lon":5.393687,"is_reserved":false,"is_disabled":false,"rental_uris":{"android":"levelo://app?vid=1100632c-8db8-4717-9b17-f1dfba904b32","ios":"levelo://app?vid=1100632c-8db8-4717-9b17-f1dfba904b32"},"vehicle_type_id":"4","last_reported":1677359186,"current_range_meters":31600,"station_id":"ce4bh0p2rcd13ifvqd80","pricing_plan_id":"free"},{"bike_id":"32bb9934-dbc1-46c0-a6f6-74e426e2bf79","system_id":"levelo_inurba_marseille","lat":43.293009,"lon":5.374584,"is_reserved":false,"is_disabled":false,"rental_uris":{"android":"levelo://app?vid=32bb9934-dbc1-46c0-a6f6-74e426e2bf79","ios":"levelo://app?vid=32bb9934-dbc1-46c0-a6f6-74e426e2bf79"},"vehicle_type_id":"4","last_reported":1677359186,"current_range_meters":27200,"station_id":"ce4bgi12rcd13ifvqb70","pricing_plan_id":"free"},{"bike_id":"8884ffdb-e382-4e61-90e9-99c285b157ab","system_id":"levelo_inurba_marseille","lat":43.305994,"lon":5.393687,"is_reserved":false,"is_disabled":false,"rental_uris":{"android":"levelo://app?vid=8884ffdb-e382-4e61-90e9-99c285b157ab","ios":"levelo://app?vid=8884ffdb-e382-4e61-90e9-99c285b157ab"},"vehicle_type_id":"4","last_reported":1677359186,"current_range_meters":31200,"station_id":"ce4bh0p2rcd13ifvqd80","pricing_plan_id":"free"},{"bike_id":"c9e4381a-3e37-468c-83cf-4a23dcea7517","system_id":"levelo_inurba_marseille","lat":43.305994,"lon":5.393687,"is_reserved":false,"is_disabled":false,"rental_uris":{"android":"levelo://app?vid=c9e4381a-3e37-468c-83cf-4a23dcea7517","ios":"levelo://app?vid=c9e4381a-3e37-468c-83cf-4a23dcea7517"},"vehicle_type_id":"4","last_reported":1677359186,"current_range_meters":8400,"station_id":"ce4bh0p2rcd13ifvqd80","pricing_plan_id":"free"},{"bike_id":"8e141ab0-26f6-4870-8280-64847b4ea617","system_id":"levelo_inurba_marseille","lat":43.30601,"lon":5.39361,"is_reserved":false,"is_disabled":false,"rental_uris":{"android":"levelo://app?vid=8e141ab0-26f6-4870-8280-64847b4ea617","ios":"levelo://app?vid=8e141ab0-26f6-4870-8280-64847b4ea617"},"vehicle_type_id":"4","last_reported":1677359186,"current_range_meters":16000,"station_id":"ce4bh0p2rcd13ifvqd80","pricing_plan_id":"free"},{"bike_id":"9b5a3d61-f61c-4ac3-be08-93eb4c8553ab","system_id":"levelo_inurba_marseille","lat":43.305994,"lon":5.393687,"is_reserved":false,"is_disabled":false,"rental_uris":{"android":"levelo://app?vid=9b5a3d61-f61c-4ac3-be08-93eb4c8553ab","ios":"levelo://app?vid=9b5a3d61-f61c-4ac3-be08-93eb4c8553ab"},"vehicle_type_id":"4","last_reported":1677359186,"current_range_meters":29600,"station_id":"ce4bh0p2rcd13ifvqd80","pricing_plan_id":"free"},{"bike_id":"285448db-fc69-41eb-bf71-ecded1f126a2","system_id":"levelo_inurba_marseille","lat":43.293009,"lon":5.374584,"is_reserved":false,"is_disabled":false,"rental_uris":{"android":"levelo://app?vid=285448db-fc69-41eb-bf71-ecded1f126a2","ios":"levelo://app?vid=285448db-fc69-41eb-bf71-ecded1f126a2"},"vehicle_type_id":"4","last_reported":1677359186,"current_range_meters":7600,"station_id":"ce4bgi12rcd13ifvqb70","pricing_plan_id":"free"},{"bike_id":"a6285072-a00d-496e-af28-dd3c629bd74d","system_id":"levelo_inurba_marseille","lat":43.293009,"lon":5.374584,"is_reserved":false,"is_disabled":false,"rental_uris":{"android":"levelo://app?vid=a6285072-a00d-496e-af28-dd3c629bd74d","ios":"levelo://app?vid=a6285072-a00d-496e-af28-dd3c629bd74d"},"vehicle_type_id":"4","last_reported":1677359186,"current_range_meters":26400,"station_id":"ce4bgi12rcd13ifvqb70","pricing_plan_id":"free"},{"bike_id":"7361fd18-c02f-41a6-bd42-c0a94bd12c2b","system_id":"levelo_inurba_marseille","lat":43.30592,"lon":5.39359,"is_reserved":false,"is_disabled":false,"rental_uris":{"android":"levelo://app?vid=7361fd18-c02f-41a6-bd42-c0a94bd12c2b","ios":"levelo://app?vid=7361fd18-c02f-41a6-bd42-c0a94bd12c2b"},"vehicle_type_id":"4","last_reported":1677359186,"current_range_meters":0,"station_id":"ce4bh0p2rcd13ifvqd80","pricing_plan_id":"free"},{"bike_id":"fea6a02c-c5ae-46ac-965b-7f3d4dc79468","system_id":"levelo_inurba_marseille","lat":43.305994,"lon":5.393687,"is_reserved":false,"is_disabled":false,"rental_uris":{"android":"levelo://app?vid=fea6a02c-c5ae-46ac-965b-7f3d4dc79468","ios":"levelo://app?vid=fea6a02c-c5ae-46ac-965b-7f3d4dc79468"},"vehicle_type_id":"4","last_reported":1677359186,"current_range_meters":31600,"station_id":"ce4bh0p2rcd13ifvqd80","pricing_plan_id":"free"},{"bike_id":"cf8644be-5587-40fb-9815-e0bea64700d9","system_id":"levelo_inurba_marseille","lat":43.306,"lon":5.39367,"is_reserved":false,"is_disabled":false,"rental_uris":{"android":"levelo://app?vid=cf8644be-5587-40fb-9815-e0bea64700d9","ios":"levelo://app?vid=cf8644be-5587-40fb-9815-e0bea64700d9"},"vehicle_type_id":"4","last_reported":1677359186,"current_range_meters":30400,"station_id":"ce4bh0p2rcd13ifvqd80","pricing_plan_id":"free"},{"bike_id":"b0bcd968-0d0c-45cf-8b08-0a65858c146d","system_id":"levelo_inurba_marseille","lat":43.293009,"lon":5.374584,"is_reserved":false,"is_disabled":false,"rental_uris":{"android":"levelo://app?vid=b0bcd968-0d0c-45cf-8b08-0a65858c146d","ios":"levelo://app?vid=b0bcd968-0d0c-45cf-8b08-0a65858c146d"},"vehicle_type_id":"4","last_reported":1677359186,"current_range_meters":4000,"station_id":"ce4bgi12rcd13ifvqb70","pricing_plan_id":"free"},{"bike_id":"3987ce44-1761-4d15-a37d-dec0cb41315a","system_id":"levelo_inurba_marseille","lat":43.305994,"lon":5.393687,"is_reserved":false,"is_disabled":false,"rental_uris":{"android":"levelo://app?vid=3987ce44-1761-4d15-a37d-dec0cb41315a","ios":"levelo://app?vid=3987ce44-1761-4d15-a37d-dec0cb41315a"},"vehicle_type_id":"4","last_reported":1677359186,"current_range_meters":24400,"station_id":"ce4bh0p2rcd13ifvqd80","pricing_plan_id":"free"},{"bike_id":"97046cbd-229f-4644-b1a3-fa4a3757793b","system_id":"levelo_inurba_marseille","lat":43.2936,"lon":5.37835,"is_reserved":false,"is_disabled":false,"rental_uris":{"android":"levelo://app?vid=97046cbd-229f-4644-b1a3-fa4a3757793b","ios":"levelo://app?vid=97046cbd-229f-4644-b1a3-fa4a3757793b"},"vehicle_type_id":"4","last_reported":1677359186,"current_range_meters":22400,"station_id":"ce4bgjh2rcd13ifvqbf0","pricing_plan_id":"free"},{"bike_id":"e3cbfa08-56ae-429e-9d77-772aa4bcc417","system_id":"levelo_inurba_marseille","lat":43.291675,"lon":5.371583,"is_reserved":false,"is_disabled":false,"rental_uris":{"android":"levelo://app?vid=e3cbfa08-56ae-429e-9d77-772aa4bcc417","ios":"levelo://app?vid=e3cbfa08-56ae-429e-9d77-772aa4bcc417"},"vehicle_type_id":"4","last_reported":1677359186,"current_range_meters":4400,"station_id":"ce4bha92rcd13ifvqeh0","pricing_plan_id":"free"},{"bike_id":"aa970a6a-6746-4031-b807-07efee53daa1","system_id":"levelo_inurba_marseille","lat":43.2989,"lon":5.38908,"is_reserved":false,"is_disabled":false,"rental_uris":{"android":"levelo://app?vid=aa970a6a-6746-4031-b807-07efee53daa1","ios":"levelo://app?vid=aa970a6a-6746-4031-b807-07efee53daa1"},"vehicle_type_id":"4","last_reported":1677359186,"current_range_meters":7200,"station_id":"","pricing_plan_id":"free"},{"bike_id":"8f7aa0a8-b916-4363-8898-8e5f14298fc3","system_id":"levelo_inurba_marseille","lat":43.298764,"lon":5.388973,"is_reserved":false,"is_disabled":false,"rental_uris":{"android":"levelo://app?vid=8f7aa0a8-b916-4363-8898-8e5f14298fc3","ios":"levelo://app?vid=8f7aa0a8-b916-4363-8898-8e5f14298fc3"},"vehicle_type_id":"4","last_reported":1677359186,"current_range_meters":20400,"station_id":"ce4bh392rcd13ifvqdl0","pricing_plan_id":"free"},{"bike_id":"a653781e-ca05-4451-ad16-1fab7a550211","system_id":"levelo_inurba_marseille","lat":43.298764,"lon":5.388973,"is_reserved":false,"is_disabled":false,"rental_uris":{"android":"levelo://app?vid=a653781e-ca05-4451-ad16-1fab7a550211","ios":"levelo://app?vid=a653781e-ca05-4451-ad16-1fab7a550211"},"vehicle_type_id":"4","last_reported":1677359186,"current_range_meters":18400,"station_id":"ce4bh392rcd13ifvqdl0","pricing_plan_id":"free"},{"bike_id":"04e2b5ea-9354-4e02-a33d-9699aa2aa07d","system_id":"levelo_inurba_marseille","lat":43.298764,"lon":5.388973,"is_reserved":false,"is_disabled":false,"rental_uris":{"android":"levelo://app?vid=04e2b5ea-9354-4e02-a33d-9699aa2aa07d","ios":"levelo://app?vid=04e2b5ea-9354-4e02-a33d-9699aa2aa07d"},"vehicle_type_id":"4","last_reported":1677359186,"current_range_meters":30000,"station_id":"ce4bh392rcd13ifvqdl0","pricing_plan_id":"free"},{"bike_id":"16c3a06b-aeba-461e-a4fe-2f419aef6a74","system_id":"levelo_inurba_marseille","lat":43.298764,"lon":5.388973,"is_reserved":false,"is_disabled":false,"rental_uris":{"android":"levelo://app?vid=16c3a06b-aeba-461e-a4fe-2f419aef6a74","ios":"levelo://app?vid=16c3a06b-aeba-461e-a4fe-2f419aef6a74"},"vehicle_type_id":"4","last_reported":1677359186,"current_range_meters":8400,"station_id":"ce4bh392rcd13ifvqdl0","pricing_plan_id":"free"},{"bike_id":"418d1fef-98c0-4791-b893-087928100d70","system_id":"levelo_inurba_marseille","lat":43.298764,"lon":5.388973,"is_reserved":false,"is_disabled":false,"rental_uris":{"android":"levelo://app?vid=418d1fef-98c0-4791-b893-087928100d70","ios":"levelo://app?vid=418d1fef-98c0-4791-b893-087928100d70"},"vehicle_type_id":"4","last_reported":1677359186,"current_range_meters":1600,"station_id":"ce4bh392rcd13ifvqdl0","pricing_plan_id":"free"},{"bike_id":"0fdb37de-b5d9-45b2-87bd-a8d01d6ce140","system_id":"levelo_inurba_marseille","lat":43.29872,"lon":5.38908,"is_reserved":false,"is_disabled":false,"rental_uris":{"android":"levelo://app?vid=0fdb37de-b5d9-45b2-87bd-a8d01d6ce140","ios":"levelo://app?vid=0fdb37de-b5d9-45b2-87bd-a8d01d6ce140"},"vehicle_type_id":"4","last_reported":1677359186,"current_range_meters":12400,"station_id":"ce4bh392rcd13ifvqdl0","pricing_plan_id":"free"},{"bike_id":"5200ad86-3315-49a8-9296-5c464de3b0b3","system_id":"levelo_inurba_marseille","lat":43.313291,"lon":5.396838,"is_reserved":false,"is_disabled":false,"rental_uris":{"android":"levelo://app?vid=5200ad86-3315-49a8-9296-5c464de3b0b3","ios":"levelo://app?vid=5200ad86-3315-49a8-9296-5c464de3b0b3"},"vehicle_type_id":"4","last_reported":1677359186,"current_range_meters":12000,"station_id":"ce4bgvp2rcd13ifvqcu0","pricing_plan_id":"free"},{"bike_id":"961765aa-f3ff-4fd2-a7bb-a6c8fbbd863f","system_id":"levelo_inurba_marseille","lat":43.313291,"lon":5.396838,"is_reserved":false,"is_disabled":false,"rental_uris":{"android":"levelo://app?vid=961765aa-f3ff-4fd2-a7bb-a6c8fbbd863f","ios":"levelo://app?vid=961765aa-f3ff-4fd2-a7bb-a6c8fbbd863f"},"vehicle_type_id":"4","last_reported":1677359186,"current_range_meters":30800,"station_id":"ce4bgvp2rcd13ifvqcu0","pricing_plan_id":"free"},{"bike_id":"d11247b4-fec6-405d-b4b5-958e9786120f","system_id":"levelo_inurba_marseille","lat":43.313291,"lon":5.396838,"is_reserved":false,"is_disabled":false,"rental_uris":{"android":"levelo://app?vid=d11247b4-fec6-405d-b4b5-958e9786120f","ios":"levelo://app?vid=d11247b4-fec6-405d-b4b5-958e9786120f"},"vehicle_type_id":"4","last_reported":1677359186,"current_range_meters":4000,"station_id":"ce4bgvp2rcd13ifvqcu0","pricing_plan_id":"free"},{"bike_id":"23800d89-413b-4bf8-accf-d84e06235c58","system_id":"levelo_inurba_marseille","lat":43.313291,"lon":5.396838,"is_reserved":false,"is_disabled":false,"rental_uris":{"android":"levelo://app?vid=23800d89-413b-4bf8-accf-d84e06235c58","ios":"levelo://app?vid=23800d89-413b-4bf8-accf-d84e06235c58"},"vehicle_type_id":"4","last_reported":1677359186,"current_range_meters":10800,"station_id":"ce4bgvp2rcd13ifvqcu0","pricing_plan_id":"free"},{"bike_id":"2175bd7f-fb1b-4ee0-9630-74a77f7c2dcc","system_id":"levelo_inurba_marseille","lat":43.31326,"lon":5.39692,"is_reserved":false,"is_disabled":false,"rental_uris":{"android":"levelo://app?vid=2175bd7f-fb1b-4ee0-9630-74a77f7c2dcc","ios":"levelo://app?vid=2175bd7f-fb1b-4ee0-9630-74a77f7c2dcc"},"vehicle_type_id":"4","last_reported":1677359186,"current_range_meters":13600,"station_id":"ce4bgvp2rcd13ifvqcu0","pricing_plan_id":"free"},{"bike_id":"165da05e-1c15-4fea-9390-eaa4f733d273","system_id":"levelo_inurba_marseille","lat":43.313291,"lon":5.396838,"is_reserved":false,"is_disabled":false,"rental_uris":{"android":"levelo://app?vid=165da05e-1c15-4fea-9390-eaa4f733d273","ios":"levelo://app?vid=165da05e-1c15-4fea-9390-eaa4f733d273"},"vehicle_type_id":"4","last_reported":1677359186,"current_range_meters":24400,"station_id":"ce4bgvp2rcd13ifvqcu0","pricing_plan_id":"free"},{"bike_id":"1cf152d3-b827-4881-bce7-15a3bb411e1a","system_id":"levelo_inurba_marseille","lat":43.313291,"lon":5.396838,"is_reserved":false,"is_disabled":false,"rental_uris":{"android":"levelo://app?vid=1cf152d3-b827-4881-bce7-15a3bb411e1a","ios":"levelo://app?vid=1cf152d3-b827-4881-bce7-15a3bb411e1a"},"vehicle_type_id":"4","last_reported":1677359186,"current_range_meters":7600,"station_id":"ce4bgvp2rcd13ifvqcu0","pricing_plan_id":"free"},{"bike_id":"fb717975-3a60-4215-8e0c-021726a972e3","system_id":"levelo_inurba_marseille","lat":43.29529,"lon":5.385581,"is_reserved":false,"is_disabled":false,"rental_uris":{"android":"levelo://app?vid=fb717975-3a60-4215-8e0c-021726a972e3","ios":"levelo://app?vid=fb717975-3a60-4215-8e0c-021726a972e3"},"vehicle_type_id":"4","last_reported":1677359186,"current_range_meters":4800,"station_id":"ce4bgih2rcd13ifvqba0","pricing_plan_id":"free"},{"bike_id":"acd92e58-0bc8-407f-80c2-4c48e124d5de","system_id":"levelo_inurba_marseille","lat":43.29533,"lon":5.38537,"is_reserved":false,"is_disabled":false,"rental_uris":{"android":"levelo://app?vid=acd92e58-0bc8-407f-80c2-4c48e124d5de","ios":"levelo://app?vid=acd92e58-0bc8-407f-80c2-4c48e124d5de"},"vehicle_type_id":"4","last_reported":1677359186,"current_range_meters":29600,"station_id":"ce4bgih2rcd13ifvqba0","pricing_plan_id":"free"},{"bike_id":"d7fc917a-9f69-4c43-82bf-7cf578a7cdcf","system_id":"levelo_inurba_marseille","lat":43.29533,"lon":5.38539,"is_reserved":false,"is_disabled":false,"rental_uris":{"android":"levelo://app?vid=d7fc917a-9f69-4c43-82bf-7cf578a7cdcf","ios":"levelo://app?vid=d7fc917a-9f69-4c43-82bf-7cf578a7cdcf"},"vehicle_type_id":"4","last_reported":1677359186,"current_range_meters":30800,"station_id":"","pricing_plan_id":"free"},{"bike_id":"5946f289-6a3a-4570-ae5e-844cb5901998","system_id":"levelo_inurba_marseille","lat":43.295316,"lon":5.38538,"is_reserved":false,"is_disabled":false,"rental_uris":{"android":"levelo://app?vid=5946f289-6a3a-4570-ae5e-844cb5901998","ios":"levelo://app?vid=5946f289-6a3a-4570-ae5e-844cb5901998"},"vehicle_type_id":"4","last_reported":1677359186,"current_range_meters":1600,"station_id":"ce4bgih2rcd13ifvqba0","pricing_plan_id":"free"},{"bike_id":"4f09490e-911a-4270-aba9-c29e3a571692","system_id":"levelo_inurba_marseille","lat":43.29529,"lon":5.385581,"is_reserved":false,"is_disabled":false,"rental_uris":{"android":"levelo://app?vid=4f09490e-911a-4270-aba9-c29e3a571692","ios":"levelo://app?vid=4f09490e-911a-4270-aba9-c29e3a571692"},"vehicle_type_id":"4","last_reported":1677359186,"current_range_meters":26400,"station_id":"ce4bgih2rcd13ifvqba0","pricing_plan_id":"free"},{"bike_id":"ac9784e4-cbc0-468a-baf3-7be646c9ed64","system_id":"levelo_inurba_marseille","lat":43.29529,"lon":5.385581,"is_reserved":false,"is_disabled":false,"rental_uris":{"android":"levelo://app?vid=ac9784e4-cbc0-468a-baf3-7be646c9ed64","ios":"levelo://app?vid=ac9784e4-cbc0-468a-baf3-7be646c9ed64"},"vehicle_type_id":"4","last_reported":1677359186,"current_range_meters":28800,"station_id":"ce4bgih2rcd13ifvqba0","pricing_plan_id":"free"},{"bike_id":"9efd0f29-7dfe-48dc-a7a4-2ff9440399d3","system_id":"levelo_inurba_marseille","lat":43.29529,"lon":5.385581,"is_reserved":false,"is_disabled":false,"rental_uris":{"android":"levelo://app?vid=9efd0f29-7dfe-48dc-a7a4-2ff9440399d3","ios":"levelo://app?vid=9efd0f29-7dfe-48dc-a7a4-2ff9440399d3"},"vehicle_type_id":"4","last_reported":1677359186,"current_range_meters":4400,"station_id":"ce4bgih2rcd13ifvqba0","pricing_plan_id":"free"},{"bike_id":"425cfebd-a96e-46d0-995d-e6f108aa12ea","system_id":"levelo_inurba_marseille","lat":43.29529,"lon":5.385581,"is_reserved":false,"is_disabled":false,"rental_uris":{"android":"levelo://app?vid=425cfebd-a96e-46d0-995d-e6f108aa12ea","ios":"levelo://app?vid=425cfebd-a96e-46d0-995d-e6f108aa12ea"},"vehicle_type_id":"4","last_reported":1677359186,"current_range_meters":13200,"station_id":"ce4bgih2rcd13ifvqba0","pricing_plan_id":"free"},{"bike_id":"51089444-db3c-456d-8fb0-37a14deb8eb5","system_id":"levelo_inurba_marseille","lat":43.29532,"lon":5.38543,"is_reserved":false,"is_disabled":false,"rental_uris":{"android":"levelo://app?vid=51089444-db3c-456d-8fb0-37a14deb8eb5","ios":"levelo://app?vid=51089444-db3c-456d-8fb0-37a14deb8eb5"},"vehicle_type_id":"4","last_reported":1677359186,"current_range_meters":14400,"station_id":"ce4bgih2rcd13ifvqba0","pricing_plan_id":"free"},{"bike_id":"cb5fccbf-4ab8-4c0a-8028-c452961dab59","system_id":"levelo_inurba_marseille","lat":43.29529,"lon":5.385581,"is_reserved":false,"is_disabled":false,"rental_uris":{"android":"levelo://app?vid=cb5fccbf-4ab8-4c0a-8028-c452961dab59","ios":"levelo://app?vid=cb5fccbf-4ab8-4c0a-8028-c452961dab59"},"vehicle_type_id":"4","last_reported":1677359186,"current_range_meters":25200,"station_id":"ce4bgih2rcd13ifvqba0","pricing_plan_id":"free"},{"bike_id":"0c45793a-78f2-4e9e-9034-df07451b76ca","system_id":"levelo_inurba_marseille","lat":43.29529,"lon":5.385581,"is_reserved":false,"is_disabled":false,"rental_uris":{"android":"levelo://app?vid=0c45793a-78f2-4e9e-9034-df07451b76ca","ios":"levelo://app?vid=0c45793a-78f2-4e9e-9034-df07451b76ca"},"vehicle_type_id":"4","last_reported":1677359186,"current_range_meters":10000,"station_id":"ce4bgih2rcd13ifvqba0","pricing_plan_id":"free"},{"bike_id":"1095911a-459c-4e02-93f4-9096e93a81e3","system_id":"levelo_inurba_marseille","lat":43.29529,"lon":5.385581,"is_reserved":false,"is_disabled":false,"rental_uris":{"android":"levelo://app?vid=1095911a-459c-4e02-93f4-9096e93a81e3","ios":"levelo://app?vid=1095911a-459c-4e02-93f4-9096e93a81e3"},"vehicle_type_id":"4","last_reported":1677359186,"current_range_meters":22800,"station_id":"ce4bgih2rcd13ifvqba0","pricing_plan_id":"free"},{"bike_id":"0c1416c7-8313-42c3-ab86-cd8c72b19112","system_id":"levelo_inurba_marseille","lat":43.29529,"lon":5.385581,"is_reserved":false,"is_disabled":false,"rental_uris":{"android":"levelo://app?vid=0c1416c7-8313-42c3-ab86-cd8c72b19112","ios":"levelo://app?vid=0c1416c7-8313-42c3-ab86-cd8c72b19112"},"vehicle_type_id":"4","last_reported":1677359186,"current_range_meters":19600,"station_id":"ce4bgih2rcd13ifvqba0","pricing_plan_id":"free"},{"bike_id":"4054061a-dc57-44ff-a965-86c606c93c23","system_id":"levelo_inurba_marseille","lat":43.29529,"lon":5.385581,"is_reserved":false,"is_disabled":false,"rental_uris":{"android":"levelo://app?vid=4054061a-dc57-44ff-a965-86c606c93c23","ios":"levelo://app?vid=4054061a-dc57-44ff-a965-86c606c93c23"},"vehicle_type_id":"4","last_reported":1677359186,"current_range_meters":10400,"station_id":"ce4bgih2rcd13ifvqba0","pricing_plan_id":"free"},{"bike_id":"125b2558-3546-4826-9011-04a097f6c3c6","system_id":"levelo_inurba_marseille","lat":43.29529,"lon":5.385581,"is_reserved":false,"is_disabled":false,"rental_uris":{"android":"levelo://app?vid=125b2558-3546-4826-9011-04a097f6c3c6","ios":"levelo://app?vid=125b2558-3546-4826-9011-04a097f6c3c6"},"vehicle_type_id":"4","last_reported":1677359186,"current_range_meters":2400,"station_id":"ce4bgih2rcd13ifvqba0","pricing_plan_id":"free"},{"bike_id":"62602b01-4686-4419-986b-44e7aae7a708","system_id":"levelo_inurba_marseille","lat":43.29529,"lon":5.385581,"is_reserved":false,"is_disabled":false,"rental_uris":{"android":"levelo://app?vid=62602b01-4686-4419-986b-44e7aae7a708","ios":"levelo://app?vid=62602b01-4686-4419-986b-44e7aae7a708"},"vehicle_type_id":"4","last_reported":1677359186,"current_range_meters":31200,"station_id":"ce4bgih2rcd13ifvqba0","pricing_plan_id":"free"},{"bike_id":"da5fd3d9-b255-41bf-9a9e-9359c7e883fd","system_id":"levelo_inurba_marseille","lat":43.29529,"lon":5.385581,"is_reserved":false,"is_disabled":false,"rental_uris":{"android":"levelo://app?vid=da5fd3d9-b255-41bf-9a9e-9359c7e883fd","ios":"levelo://app?vid=da5fd3d9-b255-41bf-9a9e-9359c7e883fd"},"vehicle_type_id":"4","last_reported":1677359186,"current_range_meters":8800,"station_id":"ce4bgih2rcd13ifvqba0","pricing_plan_id":"free"},{"bike_id":"68c4725f-97e8-49e9-94ec-9fcf4485150b","system_id":"levelo_inurba_marseille","lat":43.302008,"lon":5.394694,"is_reserved":false,"is_disabled":false,"rental_uris":{"android":"levelo://app?vid=68c4725f-97e8-49e9-94ec-9fcf4485150b","ios":"levelo://app?vid=68c4725f-97e8-49e9-94ec-9fcf4485150b"},"vehicle_type_id":"4","last_reported":1677359186,"current_range_meters":16800,"station_id":"ce4bh0p2rcd13ifvqd70","pricing_plan_id":"free"},{"bike_id":"dddd9930-a7f0-4059-a622-e8aacc775136","system_id":"levelo_inurba_marseille","lat":43.290624,"lon":5.359245,"is_reserved":false,"is_disabled":false,"rental_uris":{"android":"levelo://app?vid=dddd9930-a7f0-4059-a622-e8aacc775136","ios":"levelo://app?vid=dddd9930-a7f0-4059-a622-e8aacc775136"},"vehicle_type_id":"4","last_reported":1677359186,"current_range_meters":13200,"station_id":"ce4bha92rcd13ifvqeg0","pricing_plan_id":"free"},{"bike_id":"28344d51-a7c9-4959-bd17-80c009f878bb","system_id":"levelo_inurba_marseille","lat":43.290323,"lon":5.375505,"is_reserved":false,"is_disabled":false,"rental_uris":{"android":"levelo://app?vid=28344d51-a7c9-4959-bd17-80c009f878bb","ios":"levelo://app?vid=28344d51-a7c9-4959-bd17-80c009f878bb"},"vehicle_type_id":"4","last_reported":1677359186,"current_range_meters":0,"station_id":"ce4bh692rcd13ifvqe90","pricing_plan_id":"free"},{"bike_id":"c7b01df3-0d30-455d-939e-e0024c015feb","system_id":"levelo_inurba_marseille","lat":43.29267,"lon":5.38441,"is_reserved":false,"is_disabled":false,"rental_uris":{"android":"levelo://app?vid=c7b01df3-0d30-455d-939e-e0024c015feb","ios":"levelo://app?vid=c7b01df3-0d30-455d-939e-e0024c015feb"},"vehicle_type_id":"4","last_reported":1677359186,"current_range_meters":17600,"station_id":"ce4bh692rcd13ifvqea0","pricing_plan_id":"free"},{"bike_id":"2d241117-b6c9-473f-98e1-fbd7fdc75c5d","system_id":"levelo_inurba_marseille","lat":43.292644,"lon":5.384257,"is_reserved":false,"is_disabled":false,"rental_uris":{"android":"levelo://app?vid=2d241117-b6c9-473f-98e1-fbd7fdc75c5d","ios":"levelo://app?vid=2d241117-b6c9-473f-98e1-fbd7fdc75c5d"},"vehicle_type_id":"4","last_reported":1677359186,"current_range_meters":30400,"station_id":"ce4bh692rcd13ifvqea0","pricing_plan_id":"free"},{"bike_id":"851d57b6-7ad8-4ef7-bb9a-eed388b60176","system_id":"levelo_inurba_marseille","lat":43.292644,"lon":5.384257,"is_reserved":false,"is_disabled":false,"rental_uris":{"android":"levelo://app?vid=851d57b6-7ad8-4ef7-bb9a-eed388b60176","ios":"levelo://app?vid=851d57b6-7ad8-4ef7-bb9a-eed388b60176"},"vehicle_type_id":"4","last_reported":1677359186,"current_range_meters":18000,"station_id":"ce4bh692rcd13ifvqea0","pricing_plan_id":"free"},{"bike_id":"a5d88055-7f8e-47a8-9794-90c23749660e","system_id":"levelo_inurba_marseille","lat":43.292644,"lon":5.384257,"is_reserved":false,"is_disabled":false,"rental_uris":{"android":"levelo://app?vid=a5d88055-7f8e-47a8-9794-90c23749660e","ios":"levelo://app?vid=a5d88055-7f8e-47a8-9794-90c23749660e"},"vehicle_type_id":"4","last_reported":1677359186,"current_range_meters":31200,"station_id":"ce4bh692rcd13ifvqea0","pricing_plan_id":"free"},{"bike_id":"41ad126a-225b-41cf-9092-ce0b11fa7b36","system_id":"levelo_inurba_marseille","lat":43.29263,"lon":5.38435,"is_reserved":false,"is_disabled":false,"rental_uris":{"android":"levelo://app?vid=41ad126a-225b-41cf-9092-ce0b11fa7b36","ios":"levelo://app?vid=41ad126a-225b-41cf-9092-ce0b11fa7b36"},"vehicle_type_id":"4","last_reported":1677359186,"current_range_meters":4800,"station_id":"ce4bh692rcd13ifvqea0","pricing_plan_id":"free"},{"bike_id":"fce376f5-fc87-4acd-abdb-9821884e89b6","system_id":"levelo_inurba_marseille","lat":43.292644,"lon":5.384257,"is_reserved":false,"is_disabled":false,"rental_uris":{"android":"levelo://app?vid=fce376f5-fc87-4acd-abdb-9821884e89b6","ios":"levelo://app?vid=fce376f5-fc87-4acd-abdb-9821884e89b6"},"vehicle_type_id":"4","last_reported":1677359186,"current_range_meters":26800,"station_id":"ce4bh692rcd13ifvqea0","pricing_plan_id":"free"},{"bike_id":"e9349c2d-dced-47c4-9902-51b84dd70ad5","system_id":"levelo_inurba_marseille","lat":43.292644,"lon":5.384257,"is_reserved":false,"is_disabled":false,"rental_uris":{"android":"levelo://app?vid=e9349c2d-dced-47c4-9902-51b84dd70ad5","ios":"levelo://app?vid=e9349c2d-dced-47c4-9902-51b84dd70ad5"},"vehicle_type_id":"4","last_reported":1677359186,"current_range_meters":13600,"station_id":"ce4bh692rcd13ifvqea0","pricing_plan_id":"free"},{"bike_id":"0baac4b4-eba2-426e-ba92-91fa0208956a","system_id":"levelo_inurba_marseille","lat":43.29262,"lon":5.384335,"is_reserved":false,"is_disabled":false,"rental_uris":{"android":"levelo://app?vid=0baac4b4-eba2-426e-ba92-91fa0208956a","ios":"levelo://app?vid=0baac4b4-eba2-426e-ba92-91fa0208956a"},"vehicle_type_id":"4","last_reported":1677359186,"current_range_meters":5200,"station_id":"ce4bh692rcd13ifvqea0","pricing_plan_id":"free"},{"bike_id":"439d3cf8-f87f-4a45-a485-2d44c10adabd","system_id":"levelo_inurba_marseille","lat":43.292644,"lon":5.384257,"is_reserved":false,"is_disabled":false,"rental_uris":{"android":"levelo://app?vid=439d3cf8-f87f-4a45-a485-2d44c10adabd","ios":"levelo://app?vid=439d3cf8-f87f-4a45-a485-2d44c10adabd"},"vehicle_type_id":"4","last_reported":1677359186,"current_range_meters":22000,"station_id":"ce4bh692rcd13ifvqea0","pricing_plan_id":"free"},{"bike_id":"d8352cf5-28e3-4ae3-8625-a27a8511e508","system_id":"levelo_inurba_marseille","lat":43.29262,"lon":5.38435,"is_reserved":false,"is_disabled":false,"rental_uris":{"android":"levelo://app?vid=d8352cf5-28e3-4ae3-8625-a27a8511e508","ios":"levelo://app?vid=d8352cf5-28e3-4ae3-8625-a27a8511e508"},"vehicle_type_id":"4","last_reported":1677359186,"current_range_meters":12000,"station_id":"ce4bh692rcd13ifvqea0","pricing_plan_id":"free"},{"bike_id":"95c8a24a-7125-4b93-8543-f1618029aed5","system_id":"levelo_inurba_marseille","lat":43.29263,"lon":5.384378,"is_reserved":false,"is_disabled":false,"rental_uris":{"android":"levelo://app?vid=95c8a24a-7125-4b93-8543-f1618029aed5","ios":"levelo://app?vid=95c8a24a-7125-4b93-8543-f1618029aed5"},"vehicle_type_id":"4","last_reported":1677359186,"current_range_meters":28800,"station_id":"","pricing_plan_id":"free"},{"bike_id":"191c7be4-d19c-4671-8fe0-888945de6b27","system_id":"levelo_inurba_marseille","lat":43.292644,"lon":5.384257,"is_reserved":false,"is_disabled":false,"rental_uris":{"android":"levelo://app?vid=191c7be4-d19c-4671-8fe0-888945de6b27","ios":"levelo://app?vid=191c7be4-d19c-4671-8fe0-888945de6b27"},"vehicle_type_id":"4","last_reported":1677359186,"current_range_meters":23600,"station_id":"ce4bh692rcd13ifvqea0","pricing_plan_id":"free"},{"bike_id":"480bd594-16f0-44c0-80f4-519958442aad","system_id":"levelo_inurba_marseille","lat":43.292644,"lon":5.384257,"is_reserved":false,"is_disabled":false,"rental_uris":{"android":"levelo://app?vid=480bd594-16f0-44c0-80f4-519958442aad","ios":"levelo://app?vid=480bd594-16f0-44c0-80f4-519958442aad"},"vehicle_type_id":"4","last_reported":1677359186,"current_range_meters":28800,"station_id":"ce4bh692rcd13ifvqea0","pricing_plan_id":"free"},{"bike_id":"7ecd4a0f-3be8-4cd0-92e3-424e0eacd58b","system_id":"levelo_inurba_marseille","lat":43.2926,"lon":5.38434,"is_reserved":false,"is_disabled":false,"rental_uris":{"android":"levelo://app?vid=7ecd4a0f-3be8-4cd0-92e3-424e0eacd58b","ios":"levelo://app?vid=7ecd4a0f-3be8-4cd0-92e3-424e0eacd58b"},"vehicle_type_id":"4","last_reported":1677359186,"current_range_meters":4800,"station_id":"ce4bh692rcd13ifvqea0","pricing_plan_id":"free"},{"bike_id":"0c1ce02b-5ea1-4d89-a13f-ecc139640e5c","system_id":"levelo_inurba_marseille","lat":43.2926,"lon":5.38434,"is_reserved":false,"is_disabled":false,"rental_uris":{"android":"levelo://app?vid=0c1ce02b-5ea1-4d89-a13f-ecc139640e5c","ios":"levelo://app?vid=0c1ce02b-5ea1-4d89-a13f-ecc139640e5c"},"vehicle_type_id":"4","last_reported":1677359186,"current_range_meters":14400,"station_id":"ce4bh692rcd13ifvqea0","pricing_plan_id":"free"},{"bike_id":"b4239bcc-b3e6-4844-ba8d-5dd4001206c9","system_id":"levelo_inurba_marseille","lat":43.292644,"lon":5.384257,"is_reserved":false,"is_disabled":false,"rental_uris":{"android":"levelo://app?vid=b4239bcc-b3e6-4844-ba8d-5dd4001206c9","ios":"levelo://app?vid=b4239bcc-b3e6-4844-ba8d-5dd4001206c9"},"vehicle_type_id":"4","last_reported":1677359186,"current_range_meters":17200,"station_id":"ce4bh692rcd13ifvqea0","pricing_plan_id":"free"},{"bike_id":"6bb407d4-e428-4134-bcfd-629613bb2ebb","system_id":"levelo_inurba_marseille","lat":43.292644,"lon":5.384257,"is_reserved":false,"is_disabled":false,"rental_uris":{"android":"levelo://app?vid=6bb407d4-e428-4134-bcfd-629613bb2ebb","ios":"levelo://app?vid=6bb407d4-e428-4134-bcfd-629613bb2ebb"},"vehicle_type_id":"4","last_reported":1677359186,"current_range_meters":31600,"station_id":"ce4bh692rcd13ifvqea0","pricing_plan_id":"free"},{"bike_id":"0e964c4f-5609-46fd-ba52-77e16ae054c2","system_id":"levelo_inurba_marseille","lat":43.292644,"lon":5.384257,"is_reserved":false,"is_disabled":false,"rental_uris":{"android":"levelo://app?vid=0e964c4f-5609-46fd-ba52-77e16ae054c2","ios":"levelo://app?vid=0e964c4f-5609-46fd-ba52-77e16ae054c2"},"vehicle_type_id":"4","last_reported":1677359186,"current_range_meters":31200,"station_id":"ce4bh692rcd13ifvqea0","pricing_plan_id":"free"},{"bike_id":"baaae4c2-38dc-4724-ad7f-56dc322b1e02","system_id":"levelo_inurba_marseille","lat":43.292644,"lon":5.384257,"is_reserved":false,"is_disabled":false,"rental_uris":{"android":"levelo://app?vid=baaae4c2-38dc-4724-ad7f-56dc322b1e02","ios":"levelo://app?vid=baaae4c2-38dc-4724-ad7f-56dc322b1e02"},"vehicle_type_id":"4","last_reported":1677359186,"current_range_meters":9600,"station_id":"ce4bh692rcd13ifvqea0","pricing_plan_id":"free"},{"bike_id":"9a0b37df-8c42-4ab6-8548-9adf7df23e87","system_id":"levelo_inurba_marseille","lat":43.292644,"lon":5.384257,"is_reserved":false,"is_disabled":false,"rental_uris":{"android":"levelo://app?vid=9a0b37df-8c42-4ab6-8548-9adf7df23e87","ios":"levelo://app?vid=9a0b37df-8c42-4ab6-8548-9adf7df23e87"},"vehicle_type_id":"4","last_reported":1677359186,"current_range_meters":25200,"station_id":"ce4bh692rcd13ifvqea0","pricing_plan_id":"free"},{"bike_id":"dc0ef231-aee0-413e-9f0c-5a9455ea9c1c","system_id":"levelo_inurba_marseille","lat":43.292627,"lon":5.38442,"is_reserved":false,"is_disabled":false,"rental_uris":{"android":"levelo://app?vid=dc0ef231-aee0-413e-9f0c-5a9455ea9c1c","ios":"levelo://app?vid=dc0ef231-aee0-413e-9f0c-5a9455ea9c1c"},"vehicle_type_id":"4","last_reported":1677359186,"current_range_meters":21200,"station_id":"ce4bh692rcd13ifvqea0","pricing_plan_id":"free"},{"bike_id":"51e939e7-690e-4d59-b791-f8ca22b98753","system_id":"levelo_inurba_marseille","lat":43.292607,"lon":5.384377,"is_reserved":false,"is_disabled":false,"rental_uris":{"android":"levelo://app?vid=51e939e7-690e-4d59-b791-f8ca22b98753","ios":"levelo://app?vid=51e939e7-690e-4d59-b791-f8ca22b98753"},"vehicle_type_id":"4","last_reported":1677359186,"current_range_meters":12000,"station_id":"ce4bh692rcd13ifvqea0","pricing_plan_id":"free"},{"bike_id":"109bd3cc-5ccc-44d5-bb98-7be72364744b","system_id":"levelo_inurba_marseille","lat":43.292605,"lon":5.38438,"is_reserved":false,"is_disabled":false,"rental_uris":{"android":"levelo://app?vid=109bd3cc-5ccc-44d5-bb98-7be72364744b","ios":"levelo://app?vid=109bd3cc-5ccc-44d5-bb98-7be72364744b"},"vehicle_type_id":"4","last_reported":1677359186,"current_range_meters":18800,"station_id":"ce4bh692rcd13ifvqea0","pricing_plan_id":"free"},{"bike_id":"64db3a09-e407-4cc7-bb40-38c3f6a2ed0e","system_id":"levelo_inurba_marseille","lat":43.2926,"lon":5.38438,"is_reserved":false,"is_disabled":false,"rental_uris":{"android":"levelo://app?vid=64db3a09-e407-4cc7-bb40-38c3f6a2ed0e","ios":"levelo://app?vid=64db3a09-e407-4cc7-bb40-38c3f6a2ed0e"},"vehicle_type_id":"4","last_reported":1677359186,"current_range_meters":6400,"station_id":"ce4bh692rcd13ifvqea0","pricing_plan_id":"free"},{"bike_id":"036cbfbe-a4fa-48b9-97ed-7692155967ff","system_id":"levelo_inurba_marseille","lat":43.292644,"lon":5.384257,"is_reserved":false,"is_disabled":false,"rental_uris":{"android":"levelo://app?vid=036cbfbe-a4fa-48b9-97ed-7692155967ff","ios":"levelo://app?vid=036cbfbe-a4fa-48b9-97ed-7692155967ff"},"vehicle_type_id":"4","last_reported":1677359186,"current_range_meters":800,"station_id":"ce4bh692rcd13ifvqea0","pricing_plan_id":"free"},{"bike_id":"ce5e51e5-c769-4fa6-965b-b6f223865c60","system_id":"levelo_inurba_marseille","lat":43.29257,"lon":5.38433,"is_reserved":false,"is_disabled":false,"rental_uris":{"android":"levelo://app?vid=ce5e51e5-c769-4fa6-965b-b6f223865c60","ios":"levelo://app?vid=ce5e51e5-c769-4fa6-965b-b6f223865c60"},"vehicle_type_id":"4","last_reported":1677359186,"current_range_meters":2400,"station_id":"","pricing_plan_id":"free"},{"bike_id":"d912230c-9ed6-47db-bd91-f802b60c5e35","system_id":"levelo_inurba_marseille","lat":43.292623,"lon":5.384447,"is_reserved":false,"is_disabled":false,"rental_uris":{"android":"levelo://app?vid=d912230c-9ed6-47db-bd91-f802b60c5e35","ios":"levelo://app?vid=d912230c-9ed6-47db-bd91-f802b60c5e35"},"vehicle_type_id":"4","last_reported":1677359186,"current_range_meters":9600,"station_id":"ce4bh692rcd13ifvqea0","pricing_plan_id":"free"},{"bike_id":"a286f0fd-4f96-40df-871b-a7e8afb1c8df","system_id":"levelo_inurba_marseille","lat":43.2926,"lon":5.3844,"is_reserved":false,"is_disabled":false,"rental_uris":{"android":"levelo://app?vid=a286f0fd-4f96-40df-871b-a7e8afb1c8df","ios":"levelo://app?vid=a286f0fd-4f96-40df-871b-a7e8afb1c8df"},"vehicle_type_id":"4","last_reported":1677359186,"current_range_meters":8800,"station_id":"ce4bh692rcd13ifvqea0","pricing_plan_id":"free"},{"bike_id":"f9107c29-670b-4049-947f-01b1adb41f99","system_id":"levelo_inurba_marseille","lat":43.292644,"lon":5.384257,"is_reserved":false,"is_disabled":false,"rental_uris":{"android":"levelo://app?vid=f9107c29-670b-4049-947f-01b1adb41f99","ios":"levelo://app?vid=f9107c29-670b-4049-947f-01b1adb41f99"},"vehicle_type_id":"4","last_reported":1677359186,"current_range_meters":12800,"station_id":"ce4bh692rcd13ifvqea0","pricing_plan_id":"free"},{"bike_id":"128819f1-9e49-4c67-897e-7f5f78d9e4f3","system_id":"levelo_inurba_marseille","lat":43.292583,"lon":5.384407,"is_reserved":false,"is_disabled":false,"rental_uris":{"android":"levelo://app?vid=128819f1-9e49-4c67-897e-7f5f78d9e4f3","ios":"levelo://app?vid=128819f1-9e49-4c67-897e-7f5f78d9e4f3"},"vehicle_type_id":"4","last_reported":1677359186,"current_range_meters":3200,"station_id":"","pricing_plan_id":"free"},{"bike_id":"bd38917c-c448-45ef-9d7c-d8dacb318224","system_id":"levelo_inurba_marseille","lat":43.292644,"lon":5.384257,"is_reserved":false,"is_disabled":false,"rental_uris":{"android":"levelo://app?vid=bd38917c-c448-45ef-9d7c-d8dacb318224","ios":"levelo://app?vid=bd38917c-c448-45ef-9d7c-d8dacb318224"},"vehicle_type_id":"4","last_reported":1677359186,"current_range_meters":26800,"station_id":"ce4bh692rcd13ifvqea0","pricing_plan_id":"free"},{"bike_id":"436160ab-d5b5-44df-bc4b-08b8c277b9b8","system_id":"levelo_inurba_marseille","lat":43.29257,"lon":5.38441,"is_reserved":false,"is_disabled":false,"rental_uris":{"android":"levelo://app?vid=436160ab-d5b5-44df-bc4b-08b8c277b9b8","ios":"levelo://app?vid=436160ab-d5b5-44df-bc4b-08b8c277b9b8"},"vehicle_type_id":"4","last_reported":1677359186,"current_range_meters":27600,"station_id":"ce4bh692rcd13ifvqea0","pricing_plan_id":"free"},{"bike_id":"b7431bfd-d510-4766-ab64-43f4b08bac68","system_id":"levelo_inurba_marseille","lat":43.292644,"lon":5.384257,"is_reserved":false,"is_disabled":false,"rental_uris":{"android":"levelo://app?vid=b7431bfd-d510-4766-ab64-43f4b08bac68","ios":"levelo://app?vid=b7431bfd-d510-4766-ab64-43f4b08bac68"},"vehicle_type_id":"4","last_reported":1677359186,"current_range_meters":28400,"station_id":"ce4bh692rcd13ifvqea0","pricing_plan_id":"free"},{"bike_id":"11e032fc-f9ae-4a1b-8340-0031672a4f69","system_id":"levelo_inurba_marseille","lat":43.292644,"lon":5.384257,"is_reserved":false,"is_disabled":false,"rental_uris":{"android":"levelo://app?vid=11e032fc-f9ae-4a1b-8340-0031672a4f69","ios":"levelo://app?vid=11e032fc-f9ae-4a1b-8340-0031672a4f69"},"vehicle_type_id":"4","last_reported":1677359186,"current_range_meters":30400,"station_id":"ce4bh692rcd13ifvqea0","pricing_plan_id":"free"},{"bike_id":"6d64b5f7-6cfa-46ed-95ce-6b96258e097e","system_id":"levelo_inurba_marseille","lat":43.292644,"lon":5.384257,"is_reserved":false,"is_disabled":false,"rental_uris":{"android":"levelo://app?vid=6d64b5f7-6cfa-46ed-95ce-6b96258e097e","ios":"levelo://app?vid=6d64b5f7-6cfa-46ed-95ce-6b96258e097e"},"vehicle_type_id":"4","last_reported":1677359186,"current_range_meters":16400,"station_id":"ce4bh692rcd13ifvqea0","pricing_plan_id":"free"},{"bike_id":"3c876443-7e8f-4e70-acfc-469d9b0e8b3e","system_id":"levelo_inurba_marseille","lat":43.29255,"lon":5.384433,"is_reserved":false,"is_disabled":false,"rental_uris":{"android":"levelo://app?vid=3c876443-7e8f-4e70-acfc-469d9b0e8b3e","ios":"levelo://app?vid=3c876443-7e8f-4e70-acfc-469d9b0e8b3e"},"vehicle_type_id":"4","last_reported":1677359186,"current_range_meters":4800,"station_id":"","pricing_plan_id":"free"},{"bike_id":"0925cf84-77d7-4d6c-925a-5b61d352e742","system_id":"levelo_inurba_marseille","lat":43.33029,"lon":5.38919,"is_reserved":false,"is_disabled":false,"rental_uris":{"android":"levelo://app?vid=0925cf84-77d7-4d6c-925a-5b61d352e742","ios":"levelo://app?vid=0925cf84-77d7-4d6c-925a-5b61d352e742"},"vehicle_type_id":"4","last_reported":1677359186,"current_range_meters":28800,"station_id":"ce4bhr92rcd13ifvqhrg","pricing_plan_id":"free"},{"bike_id":"3ba821fc-3587-4c55-ac4e-9e6c1727f494","system_id":"levelo_inurba_marseille","lat":43.330442,"lon":5.389148,"is_reserved":false,"is_disabled":false,"rental_uris":{"android":"levelo://app?vid=3ba821fc-3587-4c55-ac4e-9e6c1727f494","ios":"levelo://app?vid=3ba821fc-3587-4c55-ac4e-9e6c1727f494"},"vehicle_type_id":"4","last_reported":1677359186,"current_range_meters":17600,"station_id":"ce4bhr92rcd13ifvqhrg","pricing_plan_id":"free"},{"bike_id":"78d54cf5-9503-486e-90a1-743cf3cf28a2","system_id":"levelo_inurba_marseille","lat":43.33039,"lon":5.38917,"is_reserved":false,"is_disabled":false,"rental_uris":{"android":"levelo://app?vid=78d54cf5-9503-486e-90a1-743cf3cf28a2","ios":"levelo://app?vid=78d54cf5-9503-486e-90a1-743cf3cf28a2"},"vehicle_type_id":"4","last_reported":1677359186,"current_range_meters":23200,"station_id":"ce4bhr92rcd13ifvqhrg","pricing_plan_id":"free"},{"bike_id":"6eff16cf-b95f-4647-917b-82ba5d44eb74","system_id":"levelo_inurba_marseille","lat":43.3304,"lon":5.38916,"is_reserved":false,"is_disabled":false,"rental_uris":{"android":"levelo://app?vid=6eff16cf-b95f-4647-917b-82ba5d44eb74","ios":"levelo://app?vid=6eff16cf-b95f-4647-917b-82ba5d44eb74"},"vehicle_type_id":"4","last_reported":1677359186,"current_range_meters":24800,"station_id":"ce4bhr92rcd13ifvqhrg","pricing_plan_id":"free"},{"bike_id":"395d9b35-52f5-411a-944d-07ae513be6d0","system_id":"levelo_inurba_marseille","lat":43.330442,"lon":5.389148,"is_reserved":false,"is_disabled":false,"rental_uris":{"android":"levelo://app?vid=395d9b35-52f5-411a-944d-07ae513be6d0","ios":"levelo://app?vid=395d9b35-52f5-411a-944d-07ae513be6d0"},"vehicle_type_id":"4","last_reported":1677359186,"current_range_meters":20400,"station_id":"ce4bhr92rcd13ifvqhrg","pricing_plan_id":"free"},{"bike_id":"2b863f53-57c1-44f7-b7c8-600df4e99549","system_id":"levelo_inurba_marseille","lat":43.33046,"lon":5.389096,"is_reserved":false,"is_disabled":false,"rental_uris":{"android":"levelo://app?vid=2b863f53-57c1-44f7-b7c8-600df4e99549","ios":"levelo://app?vid=2b863f53-57c1-44f7-b7c8-600df4e99549"},"vehicle_type_id":"4","last_reported":1677359186,"current_range_meters":23200,"station_id":"ce4bhr92rcd13ifvqhrg","pricing_plan_id":"free"},{"bike_id":"8461d0f6-110a-4de9-b117-fd3aa336038d","system_id":"levelo_inurba_marseille","lat":43.3304,"lon":5.38919,"is_reserved":false,"is_disabled":false,"rental_uris":{"android":"levelo://app?vid=8461d0f6-110a-4de9-b117-fd3aa336038d","ios":"levelo://app?vid=8461d0f6-110a-4de9-b117-fd3aa336038d"},"vehicle_type_id":"4","last_reported":1677359186,"current_range_meters":27600,"station_id":"ce4bhr92rcd13ifvqhrg","pricing_plan_id":"free"},{"bike_id":"d18b8f8c-a421-4dbf-a7dd-6c439f04d5b7","system_id":"levelo_inurba_marseille","lat":43.33046,"lon":5.3891,"is_reserved":false,"is_disabled":false,"rental_uris":{"android":"levelo://app?vid=d18b8f8c-a421-4dbf-a7dd-6c439f04d5b7","ios":"levelo://app?vid=d18b8f8c-a421-4dbf-a7dd-6c439f04d5b7"},"vehicle_type_id":"4","last_reported":1677359186,"current_range_meters":24400,"station_id":"ce4bhr92rcd13ifvqhrg","pricing_plan_id":"free"},{"bike_id":"15c5e29d-d5d9-413a-81f9-91860e739b12","system_id":"levelo_inurba_marseille","lat":43.330442,"lon":5.389148,"is_reserved":false,"is_disabled":false,"rental_uris":{"android":"levelo://app?vid=15c5e29d-d5d9-413a-81f9-91860e739b12","ios":"levelo://app?vid=15c5e29d-d5d9-413a-81f9-91860e739b12"},"vehicle_type_id":"4","last_reported":1677359186,"current_range_meters":7600,"station_id":"ce4bhr92rcd13ifvqhrg","pricing_plan_id":"free"},{"bike_id":"d73198b9-dd98-4b25-b2a5-422f72f2ac2a","system_id":"levelo_inurba_marseille","lat":43.330442,"lon":5.389148,"is_reserved":false,"is_disabled":false,"rental_uris":{"android":"levelo://app?vid=d73198b9-dd98-4b25-b2a5-422f72f2ac2a","ios":"levelo://app?vid=d73198b9-dd98-4b25-b2a5-422f72f2ac2a"},"vehicle_type_id":"4","last_reported":1677359186,"current_range_meters":8400,"station_id":"ce4bhr92rcd13ifvqhrg","pricing_plan_id":"free"},{"bike_id":"1d865dd6-ff67-4c9d-99dc-5d97286d7632","system_id":"levelo_inurba_marseille","lat":43.330442,"lon":5.389148,"is_reserved":false,"is_disabled":false,"rental_uris":{"android":"levelo://app?vid=1d865dd6-ff67-4c9d-99dc-5d97286d7632","ios":"levelo://app?vid=1d865dd6-ff67-4c9d-99dc-5d97286d7632"},"vehicle_type_id":"4","last_reported":1677359186,"current_range_meters":27200,"station_id":"ce4bhr92rcd13ifvqhrg","pricing_plan_id":"free"},{"bike_id":"8cc8f183-c3b4-4bfa-91ca-5093726b7cc1","system_id":"levelo_inurba_marseille","lat":43.33047,"lon":5.3891,"is_reserved":false,"is_disabled":false,"rental_uris":{"android":"levelo://app?vid=8cc8f183-c3b4-4bfa-91ca-5093726b7cc1","ios":"levelo://app?vid=8cc8f183-c3b4-4bfa-91ca-5093726b7cc1"},"vehicle_type_id":"4","last_reported":1677359186,"current_range_meters":21600,"station_id":"ce4bhr92rcd13ifvqhrg","pricing_plan_id":"free"},{"bike_id":"dc7005b4-0ad4-4588-84be-cdf49e6b3034","system_id":"levelo_inurba_marseille","lat":43.330451,"lon":5.389129,"is_reserved":false,"is_disabled":false,"rental_uris":{"android":"levelo://app?vid=dc7005b4-0ad4-4588-84be-cdf49e6b3034","ios":"levelo://app?vid=dc7005b4-0ad4-4588-84be-cdf49e6b3034"},"vehicle_type_id":"4","last_reported":1677359186,"current_range_meters":12000,"station_id":"ce4bhr92rcd13ifvqhrg","pricing_plan_id":"free"},{"bike_id":"be71a320-75a7-41b6-8bdb-d0d2bb66a24f","system_id":"levelo_inurba_marseille","lat":43.33046,"lon":5.38912,"is_reserved":false,"is_disabled":false,"rental_uris":{"android":"levelo://app?vid=be71a320-75a7-41b6-8bdb-d0d2bb66a24f","ios":"levelo://app?vid=be71a320-75a7-41b6-8bdb-d0d2bb66a24f"},"vehicle_type_id":"4","last_reported":1677359186,"current_range_meters":20000,"station_id":"ce4bhr92rcd13ifvqhrg","pricing_plan_id":"free"},{"bike_id":"5501c4b9-f6e9-465e-ab63-aa699ee9e63d","system_id":"levelo_inurba_marseille","lat":43.33047,"lon":5.38911,"is_reserved":false,"is_disabled":false,"rental_uris":{"android":"levelo://app?vid=5501c4b9-f6e9-465e-ab63-aa699ee9e63d","ios":"levelo://app?vid=5501c4b9-f6e9-465e-ab63-aa699ee9e63d"},"vehicle_type_id":"4","last_reported":1677359186,"current_range_meters":28800,"station_id":"ce4bhr92rcd13ifvqhrg","pricing_plan_id":"free"},{"bike_id":"0058f929-a4f4-406f-b23b-9a33c244f448","system_id":"levelo_inurba_marseille","lat":43.33046,"lon":5.38913,"is_reserved":false,"is_disabled":false,"rental_uris":{"android":"levelo://app?vid=0058f929-a4f4-406f-b23b-9a33c244f448","ios":"levelo://app?vid=0058f929-a4f4-406f-b23b-9a33c244f448"},"vehicle_type_id":"4","last_reported":1677359186,"current_range_meters":16000,"station_id":"ce4bhr92rcd13ifvqhrg","pricing_plan_id":"free"},{"bike_id":"32dd0ea3-ccb7-4190-bcff-ac3eb04fd5f2","system_id":"levelo_inurba_marseille","lat":43.330442,"lon":5.389148,"is_reserved":false,"is_disabled":false,"rental_uris":{"android":"levelo://app?vid=32dd0ea3-ccb7-4190-bcff-ac3eb04fd5f2","ios":"levelo://app?vid=32dd0ea3-ccb7-4190-bcff-ac3eb04fd5f2"},"vehicle_type_id":"4","last_reported":1677359186,"current_range_meters":25600,"station_id":"ce4bhr92rcd13ifvqhrg","pricing_plan_id":"free"},{"bike_id":"3865cb84-cc40-40a3-80b0-00a7b1446131","system_id":"levelo_inurba_marseille","lat":43.33039,"lon":5.38924,"is_reserved":false,"is_disabled":false,"rental_uris":{"android":"levelo://app?vid=3865cb84-cc40-40a3-80b0-00a7b1446131","ios":"levelo://app?vid=3865cb84-cc40-40a3-80b0-00a7b1446131"},"vehicle_type_id":"4","last_reported":1677359186,"current_range_meters":29200,"station_id":"ce4bhr92rcd13ifvqhrg","pricing_plan_id":"free"},{"bike_id":"e8b96989-a206-4e6e-96de-45ccb611757d","system_id":"levelo_inurba_marseille","lat":43.330463,"lon":5.389141,"is_reserved":false,"is_disabled":false,"rental_uris":{"android":"levelo://app?vid=e8b96989-a206-4e6e-96de-45ccb611757d","ios":"levelo://app?vid=e8b96989-a206-4e6e-96de-45ccb611757d"},"vehicle_type_id":"4","last_reported":1677359186,"current_range_meters":23600,"station_id":"ce4bhr92rcd13ifvqhrg","pricing_plan_id":"free"},{"bike_id":"39b8c3a8-bf9d-4e69-aaa8-f6ed0b40ab72","system_id":"levelo_inurba_marseille","lat":43.330469,"lon":5.389133,"is_reserved":false,"is_disabled":false,"rental_uris":{"android":"levelo://app?vid=39b8c3a8-bf9d-4e69-aaa8-f6ed0b40ab72","ios":"levelo://app?vid=39b8c3a8-bf9d-4e69-aaa8-f6ed0b40ab72"},"vehicle_type_id":"4","last_reported":1677359186,"current_range_meters":20800,"station_id":"ce4bhr92rcd13ifvqhrg","pricing_plan_id":"free"},{"bike_id":"c5eaa6e5-2655-43e0-a4d8-28a8044276cf","system_id":"levelo_inurba_marseille","lat":43.330442,"lon":5.389148,"is_reserved":false,"is_disabled":false,"rental_uris":{"android":"levelo://app?vid=c5eaa6e5-2655-43e0-a4d8-28a8044276cf","ios":"levelo://app?vid=c5eaa6e5-2655-43e0-a4d8-28a8044276cf"},"vehicle_type_id":"4","last_reported":1677359186,"current_range_meters":8800,"station_id":"ce4bhr92rcd13ifvqhrg","pricing_plan_id":"free"},{"bike_id":"505d1333-12e8-4c53-85df-319b762b0fc5","system_id":"levelo_inurba_marseille","lat":43.33042,"lon":5.38922,"is_reserved":false,"is_disabled":false,"rental_uris":{"android":"levelo://app?vid=505d1333-12e8-4c53-85df-319b762b0fc5","ios":"levelo://app?vid=505d1333-12e8-4c53-85df-319b762b0fc5"},"vehicle_type_id":"4","last_reported":1677359186,"current_range_meters":18800,"station_id":"ce4bhr92rcd13ifvqhrg","pricing_plan_id":"free"},