{"last_updated":1738325798,"ttl":60,"version":"2.2","data":{"bikes":[{"bike_id":"56219279-1c5e-4efe-819b-8ac0b6caa470","system_id":"levelo_inurba_marseille","lat":43.30346,"lon":5.41881,"is_reserved":false,"is_disabled":false,"rental_uris":{"android":"levelo://app?vid=56219279-1c5e-4efe-819b-8ac0b6caa470","ios":"levelo://app?vid=56219279-1c5e-4efe-819b-8ac0b6caa470"},"vehicle_type_id":"4","last_reported":1738325798,"current_range_meters":38800,"station_id":"ce4bhop2rcd13ifvqh7g","pricing_plan_id":"cebpf4jnsgd1na2vs0mg"},{"bike_id":"31270426-539a-44d7-942e-c2e16893d54c","system_id":"levelo_inurba_marseille","lat":43.29572,"lon":5.37516,"is_reserved":false,"is_disabled":false,"rental_uris":{"android":"levelo://app?vid=31270426-539a-44d7-942e-c2e16893d54c","ios":"levelo://app?vid=31270426-539a-44d7-942e-c2e16893d54c"},"vehicle_type_id":"4","last_reported":1738325798,"current_range_meters":36800,"station_id":"ce4bgh92rcd13ifvqb50","pricing_plan_id":"cebpf4jnsgd1na2vs0mg"},{"bike_id":"93094f84-a713-481d-aa11-d90ef6294f04","system_id":"levelo_inurba_marseille","lat":43.32047,"lon":5.41537,"is_reserved":false,"is_disabled":false,"rental_uris":{"android":"levelo://app?vid=93094f84-a713-481d-aa11-d90ef6294f04","ios":"levelo://app?vid=93094f84-a713-481d-aa11-d90ef6294f04"},"vehicle_type_id":"4","last_reported":1738325798,"current_range_meters":35200,"station_id":"ce4bhq92rcd13ifvqhkg","pricing_plan_id":"cebpf4jnsgd1na2vs0mg"},{"bike_id":"af2c35d1-2444-41c5-8dfa-778a63a41e71","system_id":"levelo_inurba_marseille","lat":43.25732,"lon":5.411,"is_reserved":false,"is_disabled":false,"rental_uris":{"android":"levelo://app?vid=af2c35d1-2444-41c5-8dfa-778a63a41e71","ios":"levelo://app?vid=af2c35d1-2444-41c5-8dfa-778a63a41e71"},"vehicle_type_id":"4","last_reported":1738325798,"current_range_meters":38800,"station_id":"ce4bhkp2rcd13ifvqgd0","pricing_plan_id":"cebpf4jnsgd1na2vs0mg"},{"bike_id":"d42b0c69-9626-4ddd-bbc8-94b58bd5e801","system_id":"levelo_inurba_marseille","lat":43.29304,"lon":5.37452,"is_reserved":false,"is_disabled":false,"rental_uris":{"android":"levelo://app?vid=d42b0c69-9626-4ddd-bbc8-94b58bd5e801","ios":"levelo://app?vid=d42b0c69-9626-4ddd-bbc8-94b58bd5e801"},"vehicle_type_id":"4","last_reported":1738325798,"current_range_meters":38400,"station_id":"ce4bgi12rcd13ifvqb70","pricing_plan_id":"cebpf4jnsgd1na2vs0mg"},{"bike_id":"23790f80-161e-45c6-894a-af4959fd5c84","system_id":"levelo_inurba_marseille","lat":43.295295,"lon":5.39045,"is_reserved":false,"is_disabled":false,"rental_uris":{"android":"levelo://app?vid=23790f80-161e-45c6-894a-af4959fd5c84","ios":"levelo://app?vid=23790f80-161e-45c6-894a-af4959fd5c84"},"vehicle_type_id":"4","last_reported":1738325798,"current_range_meters":32800,"station_id":"ce4bh3p2rcd13ifvqdp0","pricing_plan_id":"cebpf4jnsgd1na2vs0mg"},{"bike_id":"76f77e28-c071-4cc7-af8e-15772cec19ca","system_id":"levelo_inurba_marseille","lat":43.2439,"lon":5.37058,"is_reserved":false,"is_disabled":false,"rental_uris":{"android":"levelo://app?vid=76f77e28-c071-4cc7-af8e-15772cec19ca","ios":"levelo://app?vid=76f77e28-c071-4cc7-af8e-15772cec19ca"},"vehicle_type_id":"4","last_reported":1738325798,"current_range_meters":38400,"station_id":"ce4bhhh2rcd13ifvqfk0","pricing_plan_id":"cebpf4jnsgd1na2vs0mg"},{"bike_id":"75d4efb3-e002-46ff-8d79-679bbf0317a3","system_id":"levelo_inurba_marseille","lat":43.30414,"lon":5.41298,"is_reserved":false,"is_disabled":true,"rental_uris":{"android":"levelo://app?vid=75d4efb3-e002-46ff-8d79-679bbf0317a3","ios":"levelo://app?vid=75d4efb3-e002-46ff-8d79-679bbf0317a3"},"vehicle_type_id":"4","last_reported":1738325798,"current_range_meters":4800,"station_id":"ce4bhop2rcd13ifvqh8g","pricing_plan_id":"cebpf4jnsgd1na2vs0mg"},{"bike_id":"f7f8117f-03ef-415e-85c6-2eeaf165e4f2","system_id":"levelo_inurba_marseille","lat":43.26236,"lon":5.40483,"is_reserved":false,"is_disabled":true,"rental_uris":{"android":"levelo://app?vid=f7f8117f-03ef-415e-85c6-2eeaf165e4f2","ios":"levelo://app?vid=f7f8117f-03ef-415e-85c6-2eeaf165e4f2"},"vehicle_type_id":"4","last_reported":1738325798,"current_range_meters":22800,"station_id":"ce4bhmh2rcd13ifvqgmg","pricing_plan_id":"cebpf4jnsgd1na2vs0mg"},{"bike_id":"b226f0ea-c8db-477c-878a-c529b72ecaba","system_id":"levelo_inurba_marseille","lat":43.32039,"lon":5.41557,"is_reserved":false,"is_disabled":false,"rental_uris":{"android":"levelo://app?vid=b226f0ea-c8db-477c-878a-c529b72ecaba","ios":"levelo://app?vid=b226f0ea-c8db-477c-878a-c529b72ecaba"},"vehicle_type_id":"4","last_reported":1738325798,"current_range_meters":25200,"station_id":"ce4bhq92rcd13ifvqhkg","pricing_plan_id":"cebpf4jnsgd1na2vs0mg"},{"bike_id":"685704c5-16c7-46eb-9c61-d2af1e48f785","system_id":"levelo_inurba_marseille","lat":43.273,"lon":5.39114,"is_reserved":false,"is_disabled":false,"rental_uris":{"android":"levelo://app?vid=685704c5-16c7-46eb-9c61-d2af1e48f785","ios":"levelo://app?vid=685704c5-16c7-46eb-9c61-d2af1e48f785"},"vehicle_type_id":"4","last_reported":1738325798,"current_range_meters":28400,"station_id":"ce4bhgp2rcd13ifvqfe0","pricing_plan_id":"cebpf4jnsgd1na2vs0mg"},{"bike_id":"d2f395e1-e127-4ad6-82b8-ac587e8025a7","system_id":"levelo_inurba_marseille","lat":43.3203,"lon":5.4157,"is_reserved":false,"is_disabled":false,"rental_uris":{"android":"levelo://app?vid=d2f395e1-e127-4ad6-82b8-ac587e8025a7","ios":"levelo://app?vid=d2f395e1-e127-4ad6-82b8-ac587e8025a7"},"vehicle_type_id":"4","last_reported":1738325798,"current_range_meters":27600,"station_id":"ce4bhq92rcd13ifvqhkg","pricing_plan_id":"cebpf4jnsgd1na2vs0mg"},{"bike_id":"f7f14a57-2fe5-4b12-ab22-3a831f2db309","system_id":"levelo_inurba_marseille","lat":43.27204,"lon":5.39167,"is_reserved":false,"is_disabled":false,"rental_uris":{"android":"levelo://app?vid=f7f14a57-2fe5-4b12-ab22-3a831f2db309","ios":"levelo://app?vid=f7f14a57-2fe5-4b12-ab22-3a831f2db309"},"vehicle_type_id":"4","last_reported":1738325798,"current_range_meters":36400,"station_id":"ce4bhhp2rcd13ifvqfm0","pricing_plan_id":"cebpf4jnsgd1na2vs0mg"},{"bike_id":"5288b697-1d1a-4c5e-b196-c2c2b6778b4f","system_id":"levelo_inurba_marseille","lat":43.27306,"lon":5.39128,"is_reserved":false,"is_disabled":false,"rental_uris":{"android":"levelo://app?vid=5288b697-1d1a-4c5e-b196-c2c2b6778b4f","ios":"levelo://app?vid=5288b697-1d1a-4c5e-b196-c2c2b6778b4f"},"vehicle_type_id":"4","last_reported":1738325798,"current_range_meters":32000,"station_id":"ce4bhgp2rcd13ifvqfe0","pricing_plan_id":"cebpf4jnsgd1na2vs0mg"},{"bike_id":"1df28a9d-7680-4a3f-b4e9-902ab93d9181","system_id":"levelo_inurba_marseille","lat":43.28347,"lon":5.38108,"is_reserved":false,"is_disabled":false,"rental_uris":{"android":"levelo://app?vid=1df28a9d-7680-4a3f-b4e9-902ab93d9181","ios":"levelo://app?vid=1df28a9d-7680-4a3f-b4e9-902ab93d9181"},"vehicle_type_id":"4","last_reported":1738325798,"current_range_meters":4400,"station_id":"ce4bh412rcd13ifvqdr0","pricing_plan_id":"cebpf4jnsgd1na2vs0mg"},{"bike_id":"8126c25c-c3a2-4cdd-a2e4-d380d215e724","system_id":"levelo_inurba_marseille","lat":43.268037,"lon":5.402673,"is_reserved":false,"is_disabled":true,"rental_uris":{"android":"levelo://app?vid=8126c25c-c3a2-4cdd-a2e4-d380d215e724","ios":"levelo://app?vid=8126c25c-c3a2-4cdd-a2e4-d380d215e724"},"vehicle_type_id":"4","last_reported":1738325798,"current_range_meters":24400,"station_id":"ce501612rcd8frsf0b60","pricing_plan_id":"cebpf4jnsgd1na2vs0mg"},{"bike_id":"fa3194bc-cba3-4a81-849e-221c6763ff5b","system_id":"levelo_inurba_marseille","lat":43.29509,"lon":5.37516,"is_reserved":false,"is_disabled":false,"rental_uris":{"android":"levelo://app?vid=fa3194bc-cba3-4a81-849e-221c6763ff5b","ios":"levelo://app?vid=fa3194bc-cba3-4a81-849e-221c6763ff5b"},"vehicle_type_id":"4","last_reported":1738325798,"current_range_meters":38000,"station_id":"ce4bgkp2rcd13ifvqbmg","pricing_plan_id":"cebpf4jnsgd1na2vs0mg"},{"bike_id":"dcb8c9fe-4642-4078-b7fa-07855e9d5fab","system_id":"levelo_inurba_marseille","lat":43.27811,"lon":5.40724,"is_reserved":false,"is_disabled":false,"rental_uris":{"android":"levelo://app?vid=dcb8c9fe-4642-4078-b7fa-07855e9d5fab","ios":"levelo://app?vid=dcb8c9fe-4642-4078-b7fa-07855e9d5fab"},"vehicle_type_id":"4","last_reported":1738325798,"current_range_meters":37600,"station_id":"ce4bhnh2rcd13ifvqgtg","pricing_plan_id":"cebpf4jnsgd1na2vs0mg"},{"bike_id":"534c086f-4419-4511-a4ca-a912a0401085","system_id":"levelo_inurba_marseille","lat":43.25869,"lon":5.39895,"is_reserved":false,"is_disabled":true,"rental_uris":{"android":"levelo://app?vid=534c086f-4419-4511-a4ca-a912a0401085","ios":"levelo://app?vid=534c086f-4419-4511-a4ca-a912a0401085"},"vehicle_type_id":"4","last_reported":1738325798,"current_range_meters":0,"station_id":"ce4bhl92rcd13ifvqghg","pricing_plan_id":"cebpf4jnsgd1na2vs0mg"},{"bike_id":"45c36d39-be96-4b78-92d3-f3f06ecc3969","system_id":"levelo_inurba_marseille","lat":43.30145,"lon":5.37401,"is_reserved":false,"is_disabled":false,"rental_uris":{"android":"levelo://app?vid=45c36d39-be96-4b78-92d3-f3f06ecc3969","ios":"levelo://app?vid=45c36d39-be96-4b78-92d3-f3f06ecc3969"},"vehicle_type_id":"4","last_reported":1738325798,"current_range_meters":38800,"station_id":"ce4bgs92rcd13ifvqcc0","pricing_plan_id":"cebpf4jnsgd1na2vs0mg"},{"bike_id":"1fbf3f20-0930-4b85-8900-561217e5a0eb","system_id":"levelo_inurba_marseille","lat":43.30417,"lon":5.41286,"is_reserved":false,"is_disabled":false,"rental_uris":{"android":"levelo://app?vid=1fbf3f20-0930-4b85-8900-561217e5a0eb","ios":"levelo://app?vid=1fbf3f20-0930-4b85-8900-561217e5a0eb"},"vehicle_type_id":"4","last_reported":1738325798,"current_range_meters":28000,"station_id":"ce4bhop2rcd13ifvqh8g","pricing_plan_id":"cebpf4jnsgd1na2vs0mg"},{"bike_id":"0ed8a6c6-eadb-4bd0-a58f-0b8be240ba0c","system_id":"levelo_inurba_marseille","lat":43.27839,"lon":5.40732,"is_reserved":false,"is_disabled":false,"rental_uris":{"android":"levelo://app?vid=0ed8a6c6-eadb-4bd0-a58f-0b8be240ba0c","ios":"levelo://app?vid=0ed8a6c6-eadb-4bd0-a58f-0b8be240ba0c"},"vehicle_type_id":"4","last_reported":1738325798,"current_range_meters":26800,"station_id":"ce4bhnh2rcd13ifvqgtg","pricing_plan_id":"cebpf4jnsgd1na2vs0mg"},{"bike_id":"94cdd133-d625-46b8-8118-8a4ffac6f004","system_id":"levelo_inurba_marseille","lat":43.30542,"lon":5.36562,"is_reserved":false,"is_disabled":false,"rental_uris":{"android":"levelo://app?vid=94cdd133-d625-46b8-8118-8a4ffac6f004","ios":"levelo://app?vid=94cdd133-d625-46b8-8118-8a4ffac6f004"},"vehicle_type_id":"4","last_reported":1738325798,"current_range_meters":6800,"station_id":"ce4bgs12rcd13ifvqcag","pricing_plan_id":"cebpf4jnsgd1na2vs0mg"},{"bike_id":"93df7b93-bd44-4f48-9008-f5bad7152cc2","system_id":"levelo_inurba_marseille","lat":43.30161,"lon":5.38094,"is_reserved":false,"is_disabled":false,"rental_uris":{"android":"levelo://app?vid=93df7b93-bd44-4f48-9008-f5bad7152cc2","ios":"levelo://app?vid=93df7b93-bd44-4f48-9008-f5bad7152cc2"},"vehicle_type_id":"4","last_reported":1738325798,"current_range_meters":16000,"station_id":"ce4bgjp2rcd13ifvqbh0","pricing_plan_id":"cebpf4jnsgd1na2vs0mg"},{"bike_id":"760878ca-623c-4100-80e2-020b141e74cd","system_id":"levelo_inurba_marseille","lat":43.25088,"lon":5.39539,"is_reserved":false,"is_disabled":false,"rental_uris":{"android":"levelo://app?vid=760878ca-623c-4100-80e2-020b141e74cd","ios":"levelo://app?vid=760878ca-623c-4100-80e2-020b141e74cd"},"vehicle_type_id":"4","last_reported":1738325798,"current_range_meters":30800,"station_id":"ce4bhm12rcd13ifvqgkg","pricing_plan_id":"cebpf4jnsgd1na2vs0mg"},{"bike_id":"befe1838-b5eb-4db0-aeea-9ea02214eae7","system_id":"levelo_inurba_marseille","lat":43.25083,"lon":5.39507,"is_reserved":false,"is_disabled":false,"rental_uris":{"android":"levelo://app?vid=befe1838-b5eb-4db0-aeea-9ea02214eae7","ios":"levelo://app?vid=befe1838-b5eb-4db0-aeea-9ea02214eae7"},"vehicle_type_id":"4","last_reported":1738325798,"current_range_meters":33200,"station_id":"ce4bhm12rcd13ifvqgkg","pricing_plan_id":"cebpf4jnsgd1na2vs0mg"},{"bike_id":"87a944b6-b747-4e8d-9fd2-32e03749f766","system_id":"levelo_inurba_marseille","lat":43.2815,"lon":5.42647,"is_reserved":false,"is_disabled":false,"rental_uris":{"android":"levelo://app?vid=87a944b6-b747-4e8d-9fd2-32e03749f766","ios":"levelo://app?vid=87a944b6-b747-4e8d-9fd2-32e03749f766"},"vehicle_type_id":"4","last_reported":1738325798,"current_range_meters":35600,"station_id":"ce4bhnh2rcd13ifvqgug","pricing_plan_id":"cebpf4jnsgd1na2vs0mg"},{"bike_id":"a2c2f7f6-53e1-41aa-a1bb-36c8d98a1715","system_id":"levelo_inurba_marseille","lat":43.27811,"lon":5.40719,"is_reserved":false,"is_disabled":false,"rental_uris":{"android":"levelo://app?vid=a2c2f7f6-53e1-41aa-a1bb-36c8d98a1715","ios":"levelo://app?vid=a2c2f7f6-53e1-41aa-a1bb-36c8d98a1715"},"vehicle_type_id":"4","last_reported":1738325798,"current_range_meters":38800,"station_id":"ce4bhnh2rcd13ifvqgtg","pricing_plan_id":"cebpf4jnsgd1na2vs0mg"},{"bike_id":"ab0ec696-ce2c-4f7f-a964-2e9c9f313854","system_id":"levelo_inurba_marseille","lat":43.239649,"lon":5.366294,"is_reserved":false,"is_disabled":false,"rental_uris":{"android":"levelo://app?vid=ab0ec696-ce2c-4f7f-a964-2e9c9f313854","ios":"levelo://app?vid=ab0ec696-ce2c-4f7f-a964-2e9c9f313854"},"vehicle_type_id":"4","last_reported":1738325798,"current_range_meters":28800,"station_id":"ce4bhi12rcd13ifvqfp0","pricing_plan_id":"cebpf4jnsgd1na2vs0mg"},{"bike_id":"bcacb149-eeb9-4514-bf67-78450f6b196d","system_id":"levelo_inurba_marseille","lat":43.27814,"lon":5.40713,"is_reserved":false,"is_disabled":false,"rental_uris":{"android":"levelo://app?vid=bcacb149-eeb9-4514-bf67-78450f6b196d","ios":"levelo://app?vid=bcacb149-eeb9-4514-bf67-78450f6b196d"},"vehicle_type_id":"4","last_reported":1738325798,"current_range_meters":8400,"station_id":"ce4bhnh2rcd13ifvqgtg","pricing_plan_id":"cebpf4jnsgd1na2vs0mg"},{"bike_id":"e99c90aa-e079-42e2-a963-1534829ba9c7","system_id":"levelo_inurba_marseille","lat":43.26217,"lon":5.3744,"is_reserved":false,"is_disabled":false,"rental_uris":{"android":"levelo://app?vid=e99c90aa-e079-42e2-a963-1534829ba9c7","ios":"levelo://app?vid=e99c90aa-e079-42e2-a963-1534829ba9c7"},"vehicle_type_id":"4","last_reported":1738325798,"current_range_meters":32000,"station_id":"ce4bhgp2rcd13ifvqfc0","pricing_plan_id":"cebpf4jnsgd1na2vs0mg"},{"bike_id":"5a8949fc-eed8-49a6-b976-62341b8ff21e","system_id":"levelo_inurba_marseille","lat":43.27962,"lon":5.3871,"is_reserved":false,"is_disabled":true,"rental_uris":{"android":"levelo://app?vid=5a8949fc-eed8-49a6-b976-62341b8ff21e","ios":"levelo://app?vid=5a8949fc-eed8-49a6-b976-62341b8ff21e"},"vehicle_type_id":"4","last_reported":1738325798,"current_range_meters":0,"station_id":"ce4bhg12rcd13ifvqf80","pricing_plan_id":"cebpf4jnsgd1na2vs0mg"},{"bike_id":"472815ce-dd78-4e4c-82e8-cea31da48d22","system_id":"levelo_inurba_marseille","lat":43.33747,"lon":5.39183,"is_reserved":false,"is_disabled":false,"rental_uris":{"android":"levelo://app?vid=472815ce-dd78-4e4c-82e8-cea31da48d22","ios":"levelo://app?vid=472815ce-dd78-4e4c-82e8-cea31da48d22"},"vehicle_type_id":"4","last_reported":1738325798,"current_range_meters":39200,"station_id":"ce4bhr92rcd13ifvqhsg","pricing_plan_id":"cebpf4jnsgd1na2vs0mg"},{"bike_id":"cc47836a-b908-432f-8e0e-2f793407f141","system_id":"levelo_inurba_marseille","lat":43.22926,"lon":5.35379,"is_reserved":false,"is_disabled":false,"rental_uris":{"android":"levelo://app?vid=cc47836a-b908-432f-8e0e-2f793407f141","ios":"levelo://app?vid=cc47836a-b908-432f-8e0e-2f793407f141"},"vehicle_type_id":"4","last_reported":1738325798,"current_range_meters":10000,"station_id":"cpo3532slgdg3j2ikp40","pricing_plan_id":"cebpf4jnsgd1na2vs0mg"},{"bike_id":"ee9cc113-6e5a-46a8-b11d-a15c8fe2ba81","system_id":"levelo_inurba_marseille","lat":43.28958,"lon":5.36634,"is_reserved":false,"is_disabled":false,"rental_uris":{"android":"levelo://app?vid=ee9cc113-6e5a-46a8-b11d-a15c8fe2ba81","ios":"levelo://app?vid=ee9cc113-6e5a-46a8-b11d-a15c8fe2ba81"},"vehicle_type_id":"4","last_reported":1738325798,"current_range_meters":34800,"station_id":"ce4bhap2rcd13ifvqek0","pricing_plan_id":"cebpf4jnsgd1na2vs0mg"},{"bike_id":"f6afaadc-8a64-4520-9e68-285b035334db","system_id":"levelo_inurba_marseille","lat":43.30536,"lon":5.36715,"is_reserved":false,"is_disabled":false,"rental_uris":{"android":"levelo://app?vid=f6afaadc-8a64-4520-9e68-285b035334db","ios":"levelo://app?vid=f6afaadc-8a64-4520-9e68-285b035334db"},"vehicle_type_id":"4","last_reported":1738325798,"current_range_meters":38800,"station_id":"ce4bgrp2rcd13ifvqc9g","pricing_plan_id":"cebpf4jnsgd1na2vs0mg"},{"bike_id":"5a1bb493-68d5-4de9-9c56-97596f42676e","system_id":"levelo_inurba_marseille","lat":43.287194,"lon":5.360818,"is_reserved":false,"is_disabled":false,"rental_uris":{"android":"levelo://app?vid=5a1bb493-68d5-4de9-9c56-97596f42676e","ios":"levelo://app?vid=5a1bb493-68d5-4de9-9c56-97596f42676e"},"vehicle_type_id":"4","last_reported":1738325798,"current_range_meters":30000,"station_id":"cki0cbj6b192h4jlfktg","pricing_plan_id":"cebpf4jnsgd1na2vs0mg"},{"bike_id":"3506206d-f2e7-43f6-8376-78965d88c4f1","system_id":"levelo_inurba_marseille","lat":43.24178,"lon":5.39737,"is_reserved":false,"is_disabled":false,"rental_uris":{"android":"levelo://app?vid=3506206d-f2e7-43f6-8376-78965d88c4f1","ios":"levelo://app?vid=3506206d-f2e7-43f6-8376-78965d88c4f1"},"vehicle_type_id":"4","last_reported":1738325798,"current_range_meters":24000,"station_id":"ce4bhn12rcd13ifvqgpg","pricing_plan_id":"cebpf4jnsgd1na2vs0mg"},{"bike_id":"31a9aeb6-9871-446a-bcea-b29b49af83f9","system_id":"levelo_inurba_marseille","lat":43.28708,"lon":5.39991,"is_reserved":false,"is_disabled":false,"rental_uris":{"android":"levelo://app?vid=31a9aeb6-9871-446a-bcea-b29b49af83f9","ios":"levelo://app?vid=31a9aeb6-9871-446a-bcea-b29b49af83f9"},"vehicle_type_id":"4","last_reported":1738325798,"current_range_meters":29600,"station_id":"ce4bho92rcd13ifvqh3g","pricing_plan_id":"cebpf4jnsgd1na2vs0mg"},{"bike_id":"7fbc607b-e12b-47bd-a53f-1c18ac62adfd","system_id":"levelo_inurba_marseille","lat":43.27824,"lon":5.40723,"is_reserved":false,"is_disabled":false,"rental_uris":{"android":"levelo://app?vid=7fbc607b-e12b-47bd-a53f-1c18ac62adfd","ios":"levelo://app?vid=7fbc607b-e12b-47bd-a53f-1c18ac62adfd"},"vehicle_type_id":"4","last_reported":1738325798,"current_range_meters":33600,"station_id":"ce4bhnh2rcd13ifvqgtg","pricing_plan_id":"cebpf4jnsgd1na2vs0mg"},{"bike_id":"735cf356-6ca7-4c83-bf25-d301ccde8042","system_id":"levelo_inurba_marseille","lat":43.27176,"lon":5.40979,"is_reserved":false,"is_disabled":false,"rental_uris":{"android":"levelo://app?vid=735cf356-6ca7-4c83-bf25-d301ccde8042","ios":"levelo://app?vid=735cf356-6ca7-4c83-bf25-d301ccde8042"},"vehicle_type_id":"4","last_reported":1738325798,"current_range_meters":26000,"station_id":"ce4bhl12rcd13ifvqgf0","pricing_plan_id":"cebpf4jnsgd1na2vs0mg"},{"bike_id":"f34fcd93-0f66-400a-8f07-aa08bfa23861","system_id":"levelo_inurba_marseille","lat":43.25954,"lon":5.40896,"is_reserved":false,"is_disabled":false,"rental_uris":{"android":"levelo://app?vid=f34fcd93-0f66-400a-8f07-aa08bfa23861","ios":"levelo://app?vid=f34fcd93-0f66-400a-8f07-aa08bfa23861"},"vehicle_type_id":"4","last_reported":1738325798,"current_range_meters":38000,"station_id":"ce4bhm92rcd13ifvqglg","pricing_plan_id":"cebpf4jnsgd1na2vs0mg"},{"bike_id":"abeaed77-608d-47ae-b8e4-a2e36704ed2c","system_id":"levelo_inurba_marseille","lat":43.27053,"lon":5.40263,"is_reserved":false,"is_disabled":false,"rental_uris":{"android":"levelo://app?vid=abeaed77-608d-47ae-b8e4-a2e36704ed2c","ios":"levelo://app?vid=abeaed77-608d-47ae-b8e4-a2e36704ed2c"},"vehicle_type_id":"4","last_reported":1738325798,"current_range_meters":38000,"station_id":"ce4bhk92rcd13ifvqgc0","pricing_plan_id":"cebpf4jnsgd1na2vs0mg"},{"bike_id":"606053f9-3da2-4594-b4df-8e24b5fa812c","system_id":"levelo_inurba_marseille","lat":43.26928,"lon":5.40266,"is_reserved":false,"is_disabled":false,"rental_uris":{"android":"levelo://app?vid=606053f9-3da2-4594-b4df-8e24b5fa812c","ios":"levelo://app?vid=606053f9-3da2-4594-b4df-8e24b5fa812c"},"vehicle_type_id":"4","last_reported":1738325798,"current_range_meters":37600,"station_id":"cjm6bp8fraef2m0cb0m0","pricing_plan_id":"cebpf4jnsgd1na2vs0mg"},{"bike_id":"3cb9eeb6-9c4b-4c95-b8ef-98cc8c9e975f","system_id":"levelo_inurba_marseille","lat":43.28395,"lon":5.34979,"is_reserved":false,"is_disabled":false,"rental_uris":{"android":"levelo://app?vid=3cb9eeb6-9c4b-4c95-b8ef-98cc8c9e975f","ios":"levelo://app?vid=3cb9eeb6-9c4b-4c95-b8ef-98cc8c9e975f"},"vehicle_type_id":"4","last_reported":1738325798,"current_range_meters":24400,"station_id":"ce4bhbh2rcd13ifvqepg","pricing_plan_id":"cebpf4jnsgd1na2vs0mg"},{"bike_id":"7bf0b083-5d7a-408e-adaa-18c38cfadd6e","system_id":"levelo_inurba_marseille","lat":43.22935,"lon":5.35398,"is_reserved":false,"is_disabled":false,"rental_uris":{"android":"levelo://app?vid=7bf0b083-5d7a-408e-adaa-18c38cfadd6e","ios":"levelo://app?vid=7bf0b083-5d7a-408e-adaa-18c38cfadd6e"},"vehicle_type_id":"4","last_reported":1738325798,"current_range_meters":12000,"station_id":"cpo3532slgdg3j2ikp40","pricing_plan_id":"cebpf4jnsgd1na2vs0mg"},{"bike_id":"fd69539a-dda7-40ef-bf30-e4e00f851bd2","system_id":"levelo_inurba_marseille","lat":43.27332,"lon":5.39104,"is_reserved":false,"is_disabled":false,"rental_uris":{"android":"levelo://app?vid=fd69539a-dda7-40ef-bf30-e4e00f851bd2","ios":"levelo://app?vid=fd69539a-dda7-40ef-bf30-e4e00f851bd2"},"vehicle_type_id":"4","last_reported":1738325798,"current_range_meters":23200,"station_id":"ce4bhgp2rcd13ifvqfe0","pricing_plan_id":"cebpf4jnsgd1na2vs0mg"},{"bike_id":"db14cd8a-5ba9-45f6-b197-f717b13b5230","system_id":"levelo_inurba_marseille","lat":43.29856,"lon":5.36267,"is_reserved":false,"is_disabled":false,"rental_uris":{"android":"levelo://app?vid=db14cd8a-5ba9-45f6-b197-f717b13b5230","ios":"levelo://app?vid=db14cd8a-5ba9-45f6-b197-f717b13b5230"},"vehicle_type_id":"4","last_reported":1738325798,"current_range_meters":38800,"station_id":"ce4bgpp2rcd13ifvqc3g","pricing_plan_id":"cebpf4jnsgd1na2vs0mg"},{"bike_id":"808232f1-e991-4dd8-8765-6f4f5aba4517","system_id":"levelo_inurba_marseille","lat":43.3361,"lon":5.40991,"is_reserved":false,"is_disabled":true,"rental_uris":{"android":"levelo://app?vid=808232f1-e991-4dd8-8765-6f4f5aba4517","ios":"levelo://app?vid=808232f1-e991-4dd8-8765-6f4f5aba4517"},"vehicle_type_id":"4","last_reported":1738325798,"current_range_meters":400,"station_id":"ce4bhqh2rcd13ifvqhmg","pricing_plan_id":"cebpf4jnsgd1na2vs0mg"},{"bike_id":"dfb0d048-462c-4973-beea-996d21c7e80e","system_id":"levelo_inurba_marseille","lat":43.27945,"lon":5.41037,"is_reserved":false,"is_disabled":false,"rental_uris":{"android":"levelo://app?vid=dfb0d048-462c-4973-beea-996d21c7e80e","ios":"levelo://app?vid=dfb0d048-462c-4973-beea-996d21c7e80e"},"vehicle_type_id":"4","last_reported":1738325798,"current_range_meters":11600,"station_id":"ce4bhnp2rcd13ifvqh0g","pricing_plan_id":"cebpf4jnsgd1na2vs0mg"},{"bike_id":"10d31094-e8d4-4e9d-bf6f-3c654bea52c2","system_id":"levelo_inurba_marseille","lat":43.28173,"lon":5.42648,"is_reserved":false,"is_disabled":false,"rental_uris":{"android":"levelo://app?vid=10d31094-e8d4-4e9d-bf6f-3c654bea52c2","ios":"levelo://app?vid=10d31094-e8d4-4e9d-bf6f-3c654bea52c2"},"vehicle_type_id":"4","last_reported":1738325798,"current_range_meters":5600,"station_id":"ce4bhnh2rcd13ifvqgug","pricing_plan_id":"cebpf4jnsgd1na2vs0mg"},{"bike_id":"74ebbe3e-0a80-470a-a0c9-04c2d8d3fe8b","system_id":"levelo_inurba_marseille","lat":43.26686,"lon":5.38269,"is_reserved":false,"is_disabled":false,"rental_uris":{"android":"levelo://app?vid=74ebbe3e-0a80-470a-a0c9-04c2d8d3fe8b","ios":"levelo://app?vid=74ebbe3e-0a80-470a-a0c9-04c2d8d3fe8b"},"vehicle_type_id":"4","last_reported":1738325798,"current_range_meters":24800,"station_id":"ce4bhg92rcd13ifvqf90","pricing_plan_id":"cebpf4jnsgd1na2vs0mg"},{"bike_id":"0d0813fa-cc8c-457d-80e7-eddc6728ce08","system_id":"levelo_inurba_marseille","lat":43.2799,"lon":5.38783,"is_reserved":false,"is_disabled":false,"rental_uris":{"android":"levelo://app?vid=0d0813fa-cc8c-457d-80e7-eddc6728ce08","ios":"levelo://app?vid=0d0813fa-cc8c-457d-80e7-eddc6728ce08"},"vehicle_type_id":"4","last_reported":1738325798,"current_range_meters":38800,"station_id":"ce4bhg12rcd13ifvqf80","pricing_plan_id":"cebpf4jnsgd1na2vs0mg"},{"bike_id":"9f7cbc3c-6e0b-4442-8c70-64c0b2a1452e","system_id":"levelo_inurba_marseille","lat":43.23057,"lon":5.35493,"is_reserved":false,"is_disabled":false,"rental_uris":{"android":"levelo://app?vid=9f7cbc3c-6e0b-4442-8c70-64c0b2a1452e","ios":"levelo://app?vid=9f7cbc3c-6e0b-4442-8c70-64c0b2a1452e"},"vehicle_type_id":"4","last_reported":1738325798,"current_range_meters":8400,"station_id":"cpo3342slgdg3j2ifvpg","pricing_plan_id":"cebpf4jnsgd1na2vs0mg"},{"bike_id":"c8a3a0ed-dff2-4f3c-87dc-2e6b47b1ad28","system_id":"levelo_inurba_marseille","lat":43.337444,"lon":5.374475,"is_reserved":false,"is_disabled":true,"rental_uris":{"android":"levelo://app?vid=c8a3a0ed-dff2-4f3c-87dc-2e6b47b1ad28","ios":"levelo://app?vid=c8a3a0ed-dff2-4f3c-87dc-2e6b47b1ad28"},"vehicle_type_id":"4","last_reported":1738325798,"current_range_meters":0,"station_id":"","pricing_plan_id":"cebpf4jnsgd1na2vs0mg"},{"bike_id":"2b629e47-f7e8-4994-a15b-398f7a9ab2e3","system_id":"levelo_inurba_marseille","lat":43.29569,"lon":5.39967,"is_reserved":false,"is_disabled":false,"rental_uris":{"android":"levelo://app?vid=2b629e47-f7e8-4994-a15b-398f7a9ab2e3","ios":"levelo://app?vid=2b629e47-f7e8-4994-a15b-398f7a9ab2e3"},"vehicle_type_id":"4","last_reported":1738325798,"current_range_meters":35200,"station_id":"ce4bh312rcd13ifvqdj0","pricing_plan_id":"cebpf4jnsgd1na2vs0mg"},{"bike_id":"8425304e-dbc1-49ba-8e0a-58a172c4aaad","system_id":"levelo_inurba_marseille","lat":43.30107,"lon":5.39083,"is_reserved":false,"is_disabled":false,"rental_uris":{"android":"levelo://app?vid=8425304e-dbc1-49ba-8e0a-58a172c4aaad","ios":"levelo://app?vid=8425304e-dbc1-49ba-8e0a-58a172c4aaad"},"vehicle_type_id":"4","last_reported":1738325798,"current_range_meters":34000,"station_id":"ce4bh192rcd13ifvqdb0","pricing_plan_id":"cebpf4jnsgd1na2vs0mg"},{"bike_id":"7247902a-635d-4f06-9cf7-f11e089c2d38","system_id":"levelo_inurba_marseille","lat":43.26935,"lon":5.40256,"is_reserved":false,"is_disabled":false,"rental_uris":{"android":"levelo://app?vid=7247902a-635d-4f06-9cf7-f11e089c2d38","ios":"levelo://app?vid=7247902a-635d-4f06-9cf7-f11e089c2d38"},"vehicle_type_id":"4","last_reported":1738325798,"current_range_meters":37600,"station_id":"cjm6bp8fraef2m0cb0m0","pricing_plan_id":"cebpf4jnsgd1na2vs0mg"},{"bike_id":"b9dfdd12-ed8d-4873-9fc8-0a1849f2020b","system_id":"levelo_inurba_marseille","lat":43.26804,"lon":5.40271,"is_reserved":false,"is_disabled":false,"rental_uris":{"android":"levelo://app?vid=b9dfdd12-ed8d-4873-9fc8-0a1849f2020b","ios":"levelo://app?vid=b9dfdd12-ed8d-4873-9fc8-0a1849f2020b"},"vehicle_type_id":"4","last_reported":1738325798,"current_range_meters":37600,"station_id":"ce501612rcd8frsf0b60","pricing_plan_id":"cebpf4jnsgd1na2vs0mg"},{"bike_id":"78e1bc18-d7b0-4aef-8fa5-842bfface35a","system_id":"levelo_inurba_marseille","lat":43.26676,"lon":5.38266,"is_reserved":false,"is_disabled":false,"rental_uris":{"android":"levelo://app?vid=78e1bc18-d7b0-4aef-8fa5-842bfface35a","ios":"levelo://app?vid=78e1bc18-d7b0-4aef-8fa5-842bfface35a"},"vehicle_type_id":"4","last_reported":1738325798,"current_range_meters":38800,"station_id":"ce4bhg92rcd13ifvqf90","pricing_plan_id":"cebpf4jnsgd1na2vs0mg"},{"bike_id":"67bc6512-e550-4b02-a35f-fa00a80893a2","system_id":"levelo_inurba_marseille","lat":43.30926,"lon":5.37297,"is_reserved":false,"is_disabled":false,"rental_uris":{"android":"levelo://app?vid=67bc6512-e550-4b02-a35f-fa00a80893a2","ios":"levelo://app?vid=67bc6512-e550-4b02-a35f-fa00a80893a2"},"vehicle_type_id":"4","last_reported":1738325798,"current_range_meters":30800,"station_id":"","pricing_plan_id":"cebpf4jnsgd1na2vs0mg"},{"bike_id":"90394fde-9bd5-4f98-b24e-2ccaeea0ffdc","system_id":"levelo_inurba_marseille","lat":43.27835,"lon":5.40723,"is_reserved":false,"is_disabled":false,"rental_uris":{"android":"levelo://app?vid=90394fde-9bd5-4f98-b24e-2ccaeea0ffdc","ios":"levelo://app?vid=90394fde-9bd5-4f98-b24e-2ccaeea0ffdc"},"vehicle_type_id":"4","last_reported":1738325798,"current_range_meters":28400,"station_id":"ce4bhnh2rcd13ifvqgtg","pricing_plan_id":"cebpf4jnsgd1na2vs0mg"},{"bike_id":"32802d31-82e5-49aa-928e-45336ddb5e58","system_id":"levelo_inurba_marseille","lat":43.25006,"lon":5.38928,"is_reserved":false,"is_disabled":false,"rental_uris":{"android":"levelo://app?vid=32802d31-82e5-49aa-928e-45336ddb5e58","ios":"levelo://app?vid=32802d31-82e5-49aa-928e-45336ddb5e58"},"vehicle_type_id":"4","last_reported":1738325798,"current_range_meters":38800,"station_id":"ce4bhgp2rcd13ifvqfd0","pricing_plan_id":"cebpf4jnsgd1na2vs0mg"},{"bike_id":"d06240a3-8895-42e8-9212-5c068d44e9d2","system_id":"levelo_inurba_marseille","lat":43.28634,"lon":5.35098,"is_reserved":false,"is_disabled":false,"rental_uris":{"android":"levelo://app?vid=d06240a3-8895-42e8-9212-5c068d44e9d2","ios":"levelo://app?vid=d06240a3-8895-42e8-9212-5c068d44e9d2"},"vehicle_type_id":"4","last_reported":1738325798,"current_range_meters":26800,"station_id":"ce4bhch2rcd13ifvqeug","pricing_plan_id":"cebpf4jnsgd1na2vs0mg"},{"bike_id":"eb74d691-c4bd-4a11-a4e4-127630105a8b","system_id":"levelo_inurba_marseille","lat":43.30133,"lon":5.37412,"is_reserved":false,"is_disabled":false,"rental_uris":{"android":"levelo://app?vid=eb74d691-c4bd-4a11-a4e4-127630105a8b","ios":"levelo://app?vid=eb74d691-c4bd-4a11-a4e4-127630105a8b"},"vehicle_type_id":"4","last_reported":1738325798,"current_range_meters":28400,"station_id":"ce4bgs92rcd13ifvqcc0","pricing_plan_id":"cebpf4jnsgd1na2vs0mg"},{"bike_id":"a730ad96-1643-4b28-8bdb-7f33f046a999","system_id":"levelo_inurba_marseille","lat":43.30139,"lon":5.37407,"is_reserved":false,"is_disabled":false,"rental_uris":{"android":"levelo://app?vid=a730ad96-1643-4b28-8bdb-7f33f046a999","ios":"levelo://app?vid=a730ad96-1643-4b28-8bdb-7f33f046a999"},"vehicle_type_id":"4","last_reported":1738325798,"current_range_meters":38800,"station_id":"ce4bgs92rcd13ifvqcc0","pricing_plan_id":"cebpf4jnsgd1na2vs0mg"},{"bike_id":"a7e1bb12-c60b-445a-9547-4b41c03d5f68","system_id":"levelo_inurba_marseille","lat":43.28131,"lon":5.42646,"is_reserved":false,"is_disabled":true,"rental_uris":{"android":"levelo://app?vid=a7e1bb12-c60b-445a-9547-4b41c03d5f68","ios":"levelo://app?vid=a7e1bb12-c60b-445a-9547-4b41c03d5f68"},"vehicle_type_id":"4","last_reported":1738325798,"current_range_meters":0,"station_id":"ce4bhnh2rcd13ifvqgug","pricing_plan_id":"cebpf4jnsgd1na2vs0mg"},{"bike_id":"82939823-9bd7-4577-858e-b98b3f29bf76","system_id":"levelo_inurba_marseille","lat":43.28618,"lon":5.35106,"is_reserved":false,"is_disabled":false,"rental_uris":{"android":"levelo://app?vid=82939823-9bd7-4577-858e-b98b3f29bf76","ios":"levelo://app?vid=82939823-9bd7-4577-858e-b98b3f29bf76"},"vehicle_type_id":"4","last_reported":1738325798,"current_range_meters":38800,"station_id":"ce4bhch2rcd13ifvqeug","pricing_plan_id":"cebpf4jnsgd1na2vs0mg"},{"bike_id":"0d0eefef-63b5-4557-addb-cac3f528bd64","system_id":"levelo_inurba_marseille","lat":43.313493,"lon":5.367241,"is_reserved":false,"is_disabled":false,"rental_uris":{"android":"levelo://app?vid=0d0eefef-63b5-4557-addb-cac3f528bd64","ios":"levelo://app?vid=0d0eefef-63b5-4557-addb-cac3f528bd64"},"vehicle_type_id":"4","last_reported":1738325798,"current_range_meters":22800,"station_id":"ce4bgr92rcd13ifvqc6g","pricing_plan_id":"cebpf4jnsgd1na2vs0mg"},{"bike_id":"5205852f-6edf-4302-a25f-6f31410d7a7c","system_id":"levelo_inurba_marseille","lat":43.32736,"lon":5.39252,"is_reserved":false,"is_disabled":false,"rental_uris":{"android":"levelo://app?vid=5205852f-6edf-4302-a25f-6f31410d7a7c","ios":"levelo://app?vid=5205852f-6edf-4302-a25f-6f31410d7a7c"},"vehicle_type_id":"4","last_reported":1738325798,"current_range_meters":6800,"station_id":"","pricing_plan_id":"cebpf4jnsgd1na2vs0mg"},{"bike_id":"a36de8bd-2e3e-4fb2-8780-295adcb078f0","system_id":"levelo_inurba_marseille","lat":43.26557,"lon":5.37316,"is_reserved":false,"is_disabled":false,"rental_uris":{"android":"levelo://app?vid=a36de8bd-2e3e-4fb2-8780-295adcb078f0","ios":"levelo://app?vid=a36de8bd-2e3e-4fb2-8780-295adcb078f0"},"vehicle_type_id":"4","last_reported":1738325798,"current_range_meters":32800,"station_id":"ce4bhg12rcd13ifvqf70","pricing_plan_id":"cebpf4jnsgd1na2vs0mg"},{"bike_id":"9838cc78-2b53-49d3-ae13-82df62c4fd64","system_id":"levelo_inurba_marseille","lat":43.28412,"lon":5.40934,"is_reserved":false,"is_disabled":true,"rental_uris":{"android":"levelo://app?vid=9838cc78-2b53-49d3-ae13-82df62c4fd64","ios":"levelo://app?vid=9838cc78-2b53-49d3-ae13-82df62c4fd64"},"vehicle_type_id":"4","last_reported":1738325798,"current_range_meters":0,"station_id":"","pricing_plan_id":"cebpf4jnsgd1na2vs0mg"},{"bike_id":"5ce6b42a-5d43-4d16-b34c-0410affa1292","system_id":"levelo_inurba_marseille","lat":43.30144,"lon":5.37412,"is_reserved":false,"is_disabled":false,"rental_uris":{"android":"levelo://app?vid=5ce6b42a-5d43-4d16-b34c-0410affa1292","ios":"levelo://app?vid=5ce6b42a-5d43-4d16-b34c-0410affa1292"},"vehicle_type_id":"4","last_reported":1738325798,"current_range_meters":34800,"station_id":"ce4bgs92rcd13ifvqcc0","pricing_plan_id":"cebpf4jnsgd1na2vs0mg"},{"bike_id":"854af2bc-199a-435b-a3aa-e3342f13d2e2","system_id":"levelo_inurba_marseille","lat":43.30596,"lon":5.39363,"is_reserved":false,"is_disabled":false,"rental_uris":{"android":"levelo://app?vid=854af2bc-199a-435b-a3aa-e3342f13d2e2","ios":"levelo://app?vid=854af2bc-199a-435b-a3aa-e3342f13d2e2"},"vehicle_type_id":"4","last_reported":1738325798,"current_range_meters":27600,"station_id":"ce4bh0p2rcd13ifvqd80","pricing_plan_id":"cebpf4jnsgd1na2vs0mg"},{"bike_id":"a6b336c6-34d6-4b26-bccf-abefa3771ff1","system_id":"levelo_inurba_marseille","lat":43.23155,"lon":5.43717,"is_reserved":false,"is_disabled":false,"rental_uris":{"android":"levelo://app?vid=a6b336c6-34d6-4b26-bccf-abefa3771ff1","ios":"levelo://app?vid=a6b336c6-34d6-4b26-bccf-abefa3771ff1"},"vehicle_type_id":"4","last_reported":1738325798,"current_range_meters":38000,"station_id":"ce4bhmp2rcd13ifvqgog","pricing_plan_id":"cebpf4jnsgd1na2vs0mg"},{"bike_id":"9f6c79b2-892b-47dd-b852-741b9f20e95f","system_id":"levelo_inurba_marseille","lat":43.251,"lon":5.39522,"is_reserved":false,"is_disabled":false,"rental_uris":{"android":"levelo://app?vid=9f6c79b2-892b-47dd-b852-741b9f20e95f","ios":"levelo://app?vid=9f6c79b2-892b-47dd-b852-741b9f20e95f"},"vehicle_type_id":"4","last_reported":1738325798,"current_range_meters":39200,"station_id":"ce4bhm12rcd13ifvqgkg","pricing_plan_id":"cebpf4jnsgd1na2vs0mg"},{"bike_id":"471eca08-401e-4a75-bc9a-3f015ab502d6","system_id":"levelo_inurba_marseille","lat":43.29557,"lon":5.42293,"is_reserved":false,"is_disabled":false,"rental_uris":{"android":"levelo://app?vid=471eca08-401e-4a75-bc9a-3f015ab502d6","ios":"levelo://app?vid=471eca08-401e-4a75-bc9a-3f015ab502d6"},"vehicle_type_id":"4","last_reported":1738325798,"current_range_meters":38800,"station_id":"ce4bhph2rcd13ifvqhdg","pricing_plan_id":"cebpf4jnsgd1na2vs0mg"},{"bike_id":"3d3683d0-6fa2-4625-8b79-882bbb185c30","system_id":"levelo_inurba_marseille","lat":43.32288,"lon":5.38261,"is_reserved":false,"is_disabled":false,"rental_uris":{"android":"levelo://app?vid=3d3683d0-6fa2-4625-8b79-882bbb185c30","ios":"levelo://app?vid=3d3683d0-6fa2-4625-8b79-882bbb185c30"},"vehicle_type_id":"4","last_reported":1738325798,"current_range_meters":28000,"station_id":"ce4bhr12rcd13ifvqhqg","pricing_plan_id":"cebpf4jnsgd1na2vs0mg"},{"bike_id":"ad81921c-60b2-4219-864c-95e11d18e554","system_id":"levelo_inurba_marseille","lat":43.28607,"lon":5.37062,"is_reserved":false,"is_disabled":false,"rental_uris":{"android":"levelo://app?vid=ad81921c-60b2-4219-864c-95e11d18e554","ios":"levelo://app?vid=ad81921c-60b2-4219-864c-95e11d18e554"},"vehicle_type_id":"4","last_reported":1738325798,"current_range_meters":32400,"station_id":"ce4bht12rcd13ifvqi60","pricing_plan_id":"cebpf4jnsgd1na2vs0mg"},{"bike_id":"976a519e-e041-4be0-a8ce-cf32f3f91c5d","system_id":"levelo_inurba_marseille","lat":43.30595,"lon":5.36683,"is_reserved":false,"is_disabled":false,"rental_uris":{"android":"levelo://app?vid=976a519e-e041-4be0-a8ce-cf32f3f91c5d","ios":"levelo://app?vid=976a519e-e041-4be0-a8ce-cf32f3f91c5d"},"vehicle_type_id":"4","last_reported":1738325798,"current_range_meters":8800,"station_id":"ce4bgrp2rcd13ifvqc9g","pricing_plan_id":"cebpf4jnsgd1na2vs0mg"},{"bike_id":"2075b347-2b77-4bfa-bb4b-bf833dcc8261","system_id":"levelo_inurba_marseille","lat":43.32047,"lon":5.41542,"is_reserved":false,"is_disabled":false,"rental_uris":{"android":"levelo://app?vid=2075b347-2b77-4bfa-bb4b-bf833dcc8261","ios":"levelo://app?vid=2075b347-2b77-4bfa-bb4b-bf833dcc8261"},"vehicle_type_id":"4","last_reported":1738325798,"current_range_meters":22800,"station_id":"ce4bhq92rcd13ifvqhkg","pricing_plan_id":"cebpf4jnsgd1na2vs0mg"},{"bike_id":"6e6e45f2-e416-4f48-9ebc-6a73a2332ac9","system_id":"levelo_inurba_marseille","lat":43.29522,"lon":5.39055,"is_reserved":false,"is_disabled":false,"rental_uris":{"android":"levelo://app?vid=6e6e45f2-e416-4f48-9ebc-6a73a2332ac9","ios":"levelo://app?vid=6e6e45f2-e416-4f48-9ebc-6a73a2332ac9"},"vehicle_type_id":"4","last_reported":1738325798,"current_range_meters":38800,"station_id":"ce4bh3p2rcd13ifvqdp0","pricing_plan_id":"cebpf4jnsgd1na2vs0mg"},{"bike_id":"f875e245-6ec8-4e5f-94bc-96f5e491b3d3","system_id":"levelo_inurba_marseille","lat":43.32034,"lon":5.41573,"is_reserved":false,"is_disabled":false,"rental_uris":{"android":"levelo://app?vid=f875e245-6ec8-4e5f-94bc-96f5e491b3d3","ios":"levelo://app?vid=f875e245-6ec8-4e5f-94bc-96f5e491b3d3"},"vehicle_type_id":"4","last_reported":1738325798,"current_range_meters":39200,"station_id":"ce4bhq92rcd13ifvqhkg","pricing_plan_id":"cebpf4jnsgd1na2vs0mg"},{"bike_id":"81cbfe48-6e1a-420c-8b24-7c4f1fab9886","system_id":"levelo_inurba_marseille","lat":43.27189,"lon":5.40978,"is_reserved":false,"is_disabled":false,"rental_uris":{"android":"levelo://app?vid=81cbfe48-6e1a-420c-8b24-7c4f1fab9886","ios":"levelo://app?vid=81cbfe48-6e1a-420c-8b24-7c4f1fab9886"},"vehicle_type_id":"4","last_reported":1738325798,"current_range_meters":35200,"station_id":"ce4bhl12rcd13ifvqgf0","pricing_plan_id":"cebpf4jnsgd1na2vs0mg"},{"bike_id":"d979d8d2-ec65-47af-9229-e4270aab279a","system_id":"levelo_inurba_marseille","lat":43.23079,"lon":5.35514,"is_reserved":false,"is_disabled":false,"rental_uris":{"android":"levelo://app?vid=d979d8d2-ec65-47af-9229-e4270aab279a","ios":"levelo://app?vid=d979d8d2-ec65-47af-9229-e4270aab279a"},"vehicle_type_id":"4","last_reported":1738325798,"current_range_meters":9600,"station_id":"cpo3342slgdg3j2ifvpg","pricing_plan_id":"cebpf4jnsgd1na2vs0mg"},{"bike_id":"e49ab897-8296-4f9b-a5a9-b69f5087041d","system_id":"levelo_inurba_marseille","lat":43.26059,"lon":5.394,"is_reserved":false,"is_disabled":false,"rental_uris":{"android":"levelo://app?vid=e49ab897-8296-4f9b-a5a9-b69f5087041d","ios":"levelo://app?vid=e49ab897-8296-4f9b-a5a9-b69f5087041d"},"vehicle_type_id":"4","last_reported":1738325798,"current_range_meters":12000,"station_id":"ce4bhh92rcd13ifvqfj0","pricing_plan_id":"cebpf4jnsgd1na2vs0mg"},{"bike_id":"f10d9b40-8520-41ee-b039-cd6e7d066065","system_id":"levelo_inurba_marseille","lat":43.262318,"lon":5.374572,"is_reserved":false,"is_disabled":false,"rental_uris":{"android":"levelo://app?vid=f10d9b40-8520-41ee-b039-cd6e7d066065","ios":"levelo://app?vid=f10d9b40-8520-41ee-b039-cd6e7d066065"},"vehicle_type_id":"4","last_reported":1738325798,"current_range_meters":33200,"station_id":"ce4bhgp2rcd13ifvqfc0","pricing_plan_id":"cebpf4jnsgd1na2vs0mg"},{"bike_id":"9c97cd0b-2242-4a0b-978a-e717457ec296","system_id":"levelo_inurba_marseille","lat":43.30952,"lon":5.39033,"is_reserved":false,"is_disabled":false,"rental_uris":{"android":"levelo://app?vid=9c97cd0b-2242-4a0b-978a-e717457ec296","ios":"levelo://app?vid=9c97cd0b-2242-4a0b-978a-e717457ec296"},"vehicle_type_id":"4","last_reported":1738325798,"current_range_meters":30000,"station_id":"ce4bgup2rcd13ifvqco0","pricing_plan_id":"cebpf4jnsgd1na2vs0mg"},{"bike_id":"8f982301-5907-46b6-b1e8-1b8abf5c682a","system_id":"levelo_inurba_marseille","lat":43.26187,"lon":5.37452,"is_reserved":false,"is_disabled":false,"rental_uris":{"android":"levelo://app?vid=8f982301-5907-46b6-b1e8-1b8abf5c682a","ios":"levelo://app?vid=8f982301-5907-46b6-b1e8-1b8abf5c682a"},"vehicle_type_id":"4","last_reported":1738325798,"current_range_meters":35200,"station_id":"ce4bhgp2rcd13ifvqfc0","pricing_plan_id":"cebpf4jnsgd1na2vs0mg"},{"bike_id":"efe7056c-0b9c-4a4c-83d6-452434e2f890","system_id":"levelo_inurba_marseille","lat":43.2694,"lon":5.3892,"is_reserved":false,"is_disabled":false,"rental_uris":{"android":"levelo://app?vid=efe7056c-0b9c-4a4c-83d6-452434e2f890","ios":"levelo://app?vid=efe7056c-0b9c-4a4c-83d6-452434e2f890"},"vehicle_type_id":"4","last_reported":1738325798,"current_range_meters":23200,"station_id":"ce4bhhh2rcd13ifvqfl0","pricing_plan_id":"cebpf4jnsgd1na2vs0mg"},{"bike_id":"b9814b0d-1963-4a0e-81e7-4c81821f0fcf","system_id":"levelo_inurba_marseille","lat":43.30602,"lon":5.39361,"is_reserved":false,"is_disabled":false,"rental_uris":{"android":"levelo://app?vid=b9814b0d-1963-4a0e-81e7-4c81821f0fcf","ios":"levelo://app?vid=b9814b0d-1963-4a0e-81e7-4c81821f0fcf"},"vehicle_type_id":"4","last_reported":1738325798,"current_range_meters":27600,"station_id":"ce4bh0p2rcd13ifvqd80","pricing_plan_id":"cebpf4jnsgd1na2vs0mg"},{"bike_id":"7d6260ec-6d8c-4d5b-8950-1a493871014c","system_id":"levelo_inurba_marseille","lat":43.29902,"lon":5.43689,"is_reserved":false,"is_disabled":false,"rental_uris":{"android":"levelo://app?vid=7d6260ec-6d8c-4d5b-8950-1a493871014c","ios":"levelo://app?vid=7d6260ec-6d8c-4d5b-8950-1a493871014c"},"vehicle_type_id":"4","last_reported":1738325798,"current_range_meters":30000,"station_id":"ce4bhpp2rcd13ifvqhfg","pricing_plan_id":"cebpf4jnsgd1na2vs0mg"},{"bike_id":"1b91759c-57a8-4292-83bf-b6dd4cd08d36","system_id":"levelo_inurba_marseille","lat":43.27218,"lon":5.39189,"is_reserved":false,"is_disabled":true,"rental_uris":{"android":"levelo://app?vid=1b91759c-57a8-4292-83bf-b6dd4cd08d36","ios":"levelo://app?vid=1b91759c-57a8-4292-83bf-b6dd4cd08d36"},"vehicle_type_id":"4","last_reported":1738325798,"current_range_meters":6400,"station_id":"","pricing_plan_id":"cebpf4jnsgd1na2vs0mg"},{"bike_id":"1b6fd190-21fa-4758-93db-00b7057d89a9","system_id":"levelo_inurba_marseille","lat":43.25742,"lon":5.41129,"is_reserved":false,"is_disabled":false,"rental_uris":{"android":"levelo://app?vid=1b6fd190-21fa-4758-93db-00b7057d89a9","ios":"levelo://app?vid=1b6fd190-21fa-4758-93db-00b7057d89a9"},"vehicle_type_id":"4","last_reported":1738325798,"current_range_meters":34800,"station_id":"ce4bhkp2rcd13ifvqgd0","pricing_plan_id":"cebpf4jnsgd1na2vs0mg"},{"bike_id":"cbd8e521-170f-40de-8051-a654a0ce8f65","system_id":"levelo_inurba_marseille","lat":43.28943,"lon":5.36643,"is_reserved":false,"is_disabled":true,"rental_uris":{"android":"levelo://app?vid=cbd8e521-170f-40de-8051-a654a0ce8f65","ios":"levelo://app?vid=cbd8e521-170f-40de-8051-a654a0ce8f65"},"vehicle_type_id":"4","last_reported":1738325798,"current_range_meters":6800,"station_id":"ce4bhap2rcd13ifvqek0","pricing_plan_id":"cebpf4jnsgd1na2vs0mg"},{"bike_id":"88ea8e3d-4d06-4474-946e-eb7a343f3d23","system_id":"levelo_inurba_marseille","lat":43.30599,"lon":5.39348,"is_reserved":false,"is_disabled":false,"rental_uris":{"android":"levelo://app?vid=88ea8e3d-4d06-4474-946e-eb7a343f3d23","ios":"levelo://app?vid=88ea8e3d-4d06-4474-946e-eb7a343f3d23"},"vehicle_type_id":"4","last_reported":1738325798,"current_range_meters":25600,"station_id":"ce4bh0p2rcd13ifvqd80","pricing_plan_id":"cebpf4jnsgd1na2vs0mg"},{"bike_id":"f146f9df-aaf6-4155-b1e2-b24e483edca4","system_id":"levelo_inurba_marseille","lat":43.23962,"lon":5.36635,"is_reserved":false,"is_disabled":false,"rental_uris":{"android":"levelo://app?vid=f146f9df-aaf6-4155-b1e2-b24e483edca4","ios":"levelo://app?vid=f146f9df-aaf6-4155-b1e2-b24e483edca4"},"vehicle_type_id":"4","last_reported":1738325798,"current_range_meters":12800,"station_id":"ce4bhi12rcd13ifvqfp0","pricing_plan_id":"cebpf4jnsgd1na2vs0mg"},{"bike_id":"d8b1c3f9-ff6e-4179-8423-4ba0d2a2af0e","system_id":"levelo_inurba_marseille","lat":43.33733,"lon":5.39173,"is_reserved":false,"is_disabled":false,"rental_uris":{"android":"levelo://app?vid=d8b1c3f9-ff6e-4179-8423-4ba0d2a2af0e","ios":"levelo://app?vid=d8b1c3f9-ff6e-4179-8423-4ba0d2a2af0e"},"vehicle_type_id":"4","last_reported":1738325798,"current_range_meters":39200,"station_id":"ce4bhr92rcd13ifvqhsg","pricing_plan_id":"cebpf4jnsgd1na2vs0mg"},{"bike_id":"73db254b-03b8-4dd8-82aa-f225f5300a46","system_id":"levelo_inurba_marseille","lat":43.27941,"lon":5.41046,"is_reserved":false,"is_disabled":false,"rental_uris":{"android":"levelo://app?vid=73db254b-03b8-4dd8-82aa-f225f5300a46","ios":"levelo://app?vid=73db254b-03b8-4dd8-82aa-f225f5300a46"},"vehicle_type_id":"4","last_reported":1738325798,"current_range_meters":20000,"station_id":"ce4bhnp2rcd13ifvqh0g","pricing_plan_id":"cebpf4jnsgd1na2vs0mg"},{"bike_id":"a47443ab-ca28-4d83-93da-7a5b88e02b62","system_id":"levelo_inurba_marseille","lat":43.31758,"lon":5.39015,"is_reserved":false,"is_disabled":false,"rental_uris":{"android":"levelo://app?vid=a47443ab-ca28-4d83-93da-7a5b88e02b62","ios":"levelo://app?vid=a47443ab-ca28-4d83-93da-7a5b88e02b62"},"vehicle_type_id":"4","last_reported":1738325798,"current_range_meters":3200,"station_id":"ce4bhqp2rcd13ifvqhng","pricing_plan_id":"cebpf4jnsgd1na2vs0mg"},{"bike_id":"165e3b0d-7743-4294-bc7c-13df3cfe9383","system_id":"levelo_inurba_marseille","lat":43.27214,"lon":5.39192,"is_reserved":false,"is_disabled":true,"rental_uris":{"android":"levelo://app?vid=165e3b0d-7743-4294-bc7c-13df3cfe9383","ios":"levelo://app?vid=165e3b0d-7743-4294-bc7c-13df3cfe9383"},"vehicle_type_id":"4","last_reported":1738325798,"current_range_meters":37600,"station_id":"ce4bhhp2rcd13ifvqfm0","pricing_plan_id":"cebpf4jnsgd1na2vs0mg"},{"bike_id":"37a316fb-b3fd-47c4-b337-ae3ed2613770","system_id":"levelo_inurba_marseille","lat":43.25855,"lon":5.39916,"is_reserved":false,"is_disabled":false,"rental_uris":{"android":"levelo://app?vid=37a316fb-b3fd-47c4-b337-ae3ed2613770","ios":"levelo://app?vid=37a316fb-b3fd-47c4-b337-ae3ed2613770"},"vehicle_type_id":"4","last_reported":1738325798,"current_range_meters":38800,"station_id":"ce4bhl92rcd13ifvqghg","pricing_plan_id":"cebpf4jnsgd1na2vs0mg"},{"bike_id":"dc0e0253-99ae-4c4a-bac3-1d90baffc7ed","system_id":"levelo_inurba_marseille","lat":43.27827,"lon":5.40711,"is_reserved":false,"is_disabled":false,"rental_uris":{"android":"levelo://app?vid=dc0e0253-99ae-4c4a-bac3-1d90baffc7ed","ios":"levelo://app?vid=dc0e0253-99ae-4c4a-bac3-1d90baffc7ed"},"vehicle_type_id":"4","last_reported":1738325798,"current_range_meters":20000,"station_id":"ce4bhnh2rcd13ifvqgtg","pricing_plan_id":"cebpf4jnsgd1na2vs0mg"},{"bike_id":"2580d306-77b7-4282-a171-e2b55107cb46","system_id":"levelo_inurba_marseille","lat":43.29301,"lon":5.37462,"is_reserved":false,"is_disabled":false,"rental_uris":{"android":"levelo://app?vid=2580d306-77b7-4282-a171-e2b55107cb46","ios":"levelo://app?vid=2580d306-77b7-4282-a171-e2b55107cb46"},"vehicle_type_id":"4","last_reported":1738325798,"current_range_meters":39200,"station_id":"ce4bgi12rcd13ifvqb70","pricing_plan_id":"cebpf4jnsgd1na2vs0mg"},{"bike_id":"987d394c-f4fd-420b-a640-a44b12cfb998","system_id":"levelo_inurba_marseille","lat":43.27218,"lon":5.39187,"is_reserved":false,"is_disabled":false,"rental_uris":{"android":"levelo://app?vid=987d394c-f4fd-420b-a640-a44b12cfb998","ios":"levelo://app?vid=987d394c-f4fd-420b-a640-a44b12cfb998"},"vehicle_type_id":"4","last_reported":1738325798,"current_range_meters":38800,"station_id":"ce4bhhp2rcd13ifvqfm0","pricing_plan_id":"cebpf4jnsgd1na2vs0mg"},{"bike_id":"ee2f7bfb-3705-464e-83a9-c7d8ae9c26d7","system_id":"levelo_inurba_marseille","lat":43.30313,"lon":5.36915,"is_reserved":false,"is_disabled":false,"rental_uris":{"android":"levelo://app?vid=ee2f7bfb-3705-464e-83a9-c7d8ae9c26d7","ios":"levelo://app?vid=ee2f7bfb-3705-464e-83a9-c7d8ae9c26d7"},"vehicle_type_id":"4","last_reported":1738325798,"current_range_meters":19600,"station_id":"ce4bgqh2rcd13ifvqc5g","pricing_plan_id":"cebpf4jnsgd1na2vs0mg"},{"bike_id":"64da5886-583b-417b-8e64-4a744c925343","system_id":"levelo_inurba_marseille","lat":43.29288,"lon":5.36842,"is_reserved":false,"is_disabled":false,"rental_uris":{"android":"levelo://app?vid=64da5886-583b-417b-8e64-4a744c925343","ios":"levelo://app?vid=64da5886-583b-417b-8e64-4a744c925343"},"vehicle_type_id":"4","last_reported":1738325798,"current_range_meters":24400,"station_id":"ce4bhbp2rcd13ifvqesg","pricing_plan_id":"cebpf4jnsgd1na2vs0mg"},{"bike_id":"1dec9efd-4980-4fe7-9942-03afb846a5e9","system_id":"levelo_inurba_marseille","lat":43.259396,"lon":5.409047,"is_reserved":false,"is_disabled":false,"rental_uris":{"android":"levelo://app?vid=1dec9efd-4980-4fe7-9942-03afb846a5e9","ios":"levelo://app?vid=1dec9efd-4980-4fe7-9942-03afb846a5e9"},"vehicle_type_id":"4","last_reported":1738325798,"current_range_meters":8800,"station_id":"ce4bhm92rcd13ifvqglg","pricing_plan_id":"cebpf4jnsgd1na2vs0mg"},{"bike_id":"92da4d26-0347-4329-a990-2cee2c00956b","system_id":"levelo_inurba_marseille","lat":43.26687,"lon":5.38289,"is_reserved":false,"is_disabled":false,"rental_uris":{"android":"levelo://app?vid=92da4d26-0347-4329-a990-2cee2c00956b","ios":"levelo://app?vid=92da4d26-0347-4329-a990-2cee2c00956b"},"vehicle_type_id":"4","last_reported":1738325798,"current_range_meters":16000,"station_id":"ce4bhg92rcd13ifvqf90","pricing_plan_id":"cebpf4jnsgd1na2vs0mg"},{"bike_id":"e88eb1f3-8ae0-45d5-b478-7fa0e88e8228","system_id":"levelo_inurba_marseille","lat":43.32294,"lon":5.38284,"is_reserved":false,"is_disabled":false,"rental_uris":{"android":"levelo://app?vid=e88eb1f3-8ae0-45d5-b478-7fa0e88e8228","ios":"levelo://app?vid=e88eb1f3-8ae0-45d5-b478-7fa0e88e8228"},"vehicle_type_id":"4","last_reported":1738325798,"current_range_meters":36400,"station_id":"ce4bhr12rcd13ifvqhqg","pricing_plan_id":"cebpf4jnsgd1na2vs0mg"},{"bike_id":"894a32b3-18a4-4c18-9fde-49f13cb686d6","system_id":"levelo_inurba_marseille","lat":43.27071,"lon":5.42284,"is_reserved":false,"is_disabled":false,"rental_uris":{"android":"levelo://app?vid=894a32b3-18a4-4c18-9fde-49f13cb686d6","ios":"levelo://app?vid=894a32b3-18a4-4c18-9fde-49f13cb686d6"},"vehicle_type_id":"4","last_reported":1738325798,"current_range_meters":7200,"station_id":"ce4bhk92rcd13ifvqgb0","pricing_plan_id":"cebpf4jnsgd1na2vs0mg"},{"bike_id":"39fda13f-0f56-4d84-bd3a-f99078c8032f","system_id":"levelo_inurba_marseille","lat":43.29871,"lon":5.36281,"is_reserved":false,"is_disabled":true,"rental_uris":{"android":"levelo://app?vid=39fda13f-0f56-4d84-bd3a-f99078c8032f","ios":"levelo://app?vid=39fda13f-0f56-4d84-bd3a-f99078c8032f"},"vehicle_type_id":"4","last_reported":1738325798,"current_range_meters":38800,"station_id":"ce4bgpp2rcd13ifvqc3g","pricing_plan_id":"cebpf4jnsgd1na2vs0mg"},{"bike_id":"a429eace-25dd-4914-b5c4-dc7866c3227a","system_id":"levelo_inurba_marseille","lat":43.2862,"lon":5.35111,"is_reserved":false,"is_disabled":false,"rental_uris":{"android":"levelo://app?vid=a429eace-25dd-4914-b5c4-dc7866c3227a","ios":"levelo://app?vid=a429eace-25dd-4914-b5c4-dc7866c3227a"},"vehicle_type_id":"4","last_reported":1738325798,"current_range_meters":30800,"station_id":"ce4bhch2rcd13ifvqeug","pricing_plan_id":"cebpf4jnsgd1na2vs0mg"},{"bike_id":"5419cc44-aa20-4356-a268-3d350eb2e261","system_id":"levelo_inurba_marseille","lat":43.26957,"lon":5.38644,"is_reserved":false,"is_disabled":false,"rental_uris":{"android":"levelo://app?vid=5419cc44-aa20-4356-a268-3d350eb2e261","ios":"levelo://app?vid=5419cc44-aa20-4356-a268-3d350eb2e261"},"vehicle_type_id":"4","last_reported":1738325798,"current_range_meters":27600,"station_id":"ce4bhh92rcd13ifvqfh0","pricing_plan_id":"cebpf4jnsgd1na2vs0mg"},{"bike_id":"d093521b-61a1-435b-9e7f-caa6f434f660","system_id":"levelo_inurba_marseille","lat":43.30594,"lon":5.39364,"is_reserved":false,"is_disabled":false,"rental_uris":{"android":"levelo://app?vid=d093521b-61a1-435b-9e7f-caa6f434f660","ios":"levelo://app?vid=d093521b-61a1-435b-9e7f-caa6f434f660"},"vehicle_type_id":"4","last_reported":1738325798,"current_range_meters":28400,"station_id":"ce4bh0p2rcd13ifvqd80","pricing_plan_id":"cebpf4jnsgd1na2vs0mg"},{"bike_id":"91f481b3-84ce-4cf7-944f-1b494608c070","system_id":"levelo_inurba_marseille","lat":43.26055,"lon":5.39399,"is_reserved":false,"is_disabled":false,"rental_uris":{"android":"levelo://app?vid=91f481b3-84ce-4cf7-944f-1b494608c070","ios":"levelo://app?vid=91f481b3-84ce-4cf7-944f-1b494608c070"},"vehicle_type_id":"4","last_reported":1738325798,"current_range_meters":37600,"station_id":"ce4bhh92rcd13ifvqfj0","pricing_plan_id":"cebpf4jnsgd1na2vs0mg"},{"bike_id":"64cc8768-bd97-4948-ab7a-b158c90df482","system_id":"levelo_inurba_marseille","lat":43.31682,"lon":5.40488,"is_reserved":false,"is_disabled":true,"rental_uris":{"android":"levelo://app?vid=64cc8768-bd97-4948-ab7a-b158c90df482","ios":"levelo://app?vid=64cc8768-bd97-4948-ab7a-b158c90df482"},"vehicle_type_id":"4","last_reported":1738325798,"current_range_meters":19600,"station_id":"ce4bh012rcd13ifvqd00","pricing_plan_id":"cebpf4jnsgd1na2vs0mg"},{"bike_id":"b264bcc4-dfb8-42b2-b861-820c0ddb02ad","system_id":"levelo_inurba_marseille","lat":43.30945,"lon":5.39033,"is_reserved":false,"is_disabled":false,"rental_uris":{"android":"levelo://app?vid=b264bcc4-dfb8-42b2-b861-820c0ddb02ad","ios":"levelo://app?vid=b264bcc4-dfb8-42b2-b861-820c0ddb02ad"},"vehicle_type_id":"4","last_reported":1738325798,"current_range_meters":38800,"station_id":"ce4bgup2rcd13ifvqco0","pricing_plan_id":"cebpf4jnsgd1na2vs0mg"},{"bike_id":"a4fb97fb-6b92-4fa7-928c-33307daa2e86","system_id":"levelo_inurba_marseille","lat":43.31486,"lon":5.37296,"is_reserved":false,"is_disabled":false,"rental_uris":{"android":"levelo://app?vid=a4fb97fb-6b92-4fa7-928c-33307daa2e86","ios":"levelo://app?vid=a4fb97fb-6b92-4fa7-928c-33307daa2e86"},"vehicle_type_id":"4","last_reported":1738325798,"current_range_meters":38400,"station_id":"ce4bgt12rcd13ifvqcd0","pricing_plan_id":"cebpf4jnsgd1na2vs0mg"},{"bike_id":"2125c853-fec5-4b7f-9cc1-7d4128611209","system_id":"levelo_inurba_marseille","lat":43.30461,"lon":5.37895,"is_reserved":false,"is_disabled":false,"rental_uris":{"android":"levelo://app?vid=2125c853-fec5-4b7f-9cc1-7d4128611209","ios":"levelo://app?vid=2125c853-fec5-4b7f-9cc1-7d4128611209"},"vehicle_type_id":"4","last_reported":1738325798,"current_range_meters":30000,"station_id":"ce4bgup2rcd13ifvqcn0","pricing_plan_id":"cebpf4jnsgd1na2vs0mg"},{"bike_id":"e76772ad-4d7b-4743-aa72-133535f3d9df","system_id":"levelo_inurba_marseille","lat":43.296239,"lon":5.377045,"is_reserved":false,"is_disabled":true,"rental_uris":{"android":"levelo://app?vid=e76772ad-4d7b-4743-aa72-133535f3d9df","ios":"levelo://app?vid=e76772ad-4d7b-4743-aa72-133535f3d9df"},"vehicle_type_id":"4","last_reported":1738325798,"current_range_meters":0,"station_id":"","pricing_plan_id":"cebpf4jnsgd1na2vs0mg"},{"bike_id":"bbd9f5df-03c1-4998-810f-64b402aa9000","system_id":"levelo_inurba_marseille","lat":43.27974,"lon":5.38698,"is_reserved":false,"is_disabled":false,"rental_uris":{"android":"levelo://app?vid=bbd9f5df-03c1-4998-810f-64b402aa9000","ios":"levelo://app?vid=bbd9f5df-03c1-4998-810f-64b402aa9000"},"vehicle_type_id":"4","last_reported":1738325798,"current_range_meters":39200,"station_id":"ce4bhg12rcd13ifvqf80","pricing_plan_id":"cebpf4jnsgd1na2vs0mg"},{"bike_id":"ab2c796a-c23b-4a3a-9534-777b873d6a05","system_id":"levelo_inurba_marseille","lat":43.24158,"lon":5.36427,"is_reserved":false,"is_disabled":false,"rental_uris":{"android":"levelo://app?vid=ab2c796a-c23b-4a3a-9534-777b873d6a05","ios":"levelo://app?vid=ab2c796a-c23b-4a3a-9534-777b873d6a05"},"vehicle_type_id":"4","last_reported":1738325798,"current_range_meters":36800,"station_id":"cpo36qri1sfpv3e86is0","pricing_plan_id":"cebpf4jnsgd1na2vs0mg"},{"bike_id":"ab4028d4-d1f1-4508-84a0-60dff9317f88","system_id":"levelo_inurba_marseille","lat":43.27376,"lon":5.36247,"is_reserved":false,"is_disabled":false,"rental_uris":{"android":"levelo://app?vid=ab4028d4-d1f1-4508-84a0-60dff9317f88","ios":"levelo://app?vid=ab4028d4-d1f1-4508-84a0-60dff9317f88"},"vehicle_type_id":"4","last_reported":1738325798,"current_range_meters":14000,"station_id":"ce4bhbh2rcd13ifvqeo0","pricing_plan_id":"cebpf4jnsgd1na2vs0mg"},{"bike_id":"85ca8d8a-081f-4d45-8c06-cff34a7646af","system_id":"levelo_inurba_marseille","lat":43.29259,"lon":5.38451,"is_reserved":false,"is_disabled":false,"rental_uris":{"android":"levelo://app?vid=85ca8d8a-081f-4d45-8c06-cff34a7646af","ios":"levelo://app?vid=85ca8d8a-081f-4d45-8c06-cff34a7646af"},"vehicle_type_id":"4","last_reported":1738325798,"current_range_meters":28400,"station_id":"ce4bh692rcd13ifvqea0","pricing_plan_id":"cebpf4jnsgd1na2vs0mg"},{"bike_id":"58feef8f-17b5-470d-8151-c7a13f0dbe24","system_id":"levelo_inurba_marseille","lat":43.28423,"lon":5.37524,"is_reserved":false,"is_disabled":true,"rental_uris":{"android":"levelo://app?vid=58feef8f-17b5-470d-8151-c7a13f0dbe24","ios":"levelo://app?vid=58feef8f-17b5-470d-8151-c7a13f0dbe24"},"vehicle_type_id":"4","last_reported":1738325798,"current_range_meters":800,"station_id":"ce4bh412rcd13ifvqds0","pricing_plan_id":"cebpf4jnsgd1na2vs0mg"},{"bike_id":"88770893-5eb9-47ad-ba95-96f4476bc368","system_id":"levelo_inurba_marseille","lat":43.29377,"lon":5.37839,"is_reserved":false,"is_disabled":false,"rental_uris":{"android":"levelo://app?vid=88770893-5eb9-47ad-ba95-96f4476bc368","ios":"levelo://app?vid=88770893-5eb9-47ad-ba95-96f4476bc368"},"vehicle_type_id":"4","last_reported":1738325798,"current_range_meters":26800,"station_id":"ce4bgjh2rcd13ifvqbf0","pricing_plan_id":"cebpf4jnsgd1na2vs0mg"},{"bike_id":"9bfb3bca-0d21-44b9-a0d0-eca905133ea5","system_id":"levelo_inurba_marseille","lat":43.25113,"lon":5.4032,"is_reserved":false,"is_disabled":false,"rental_uris":{"android":"levelo://app?vid=9bfb3bca-0d21-44b9-a0d0-eca905133ea5","ios":"levelo://app?vid=9bfb3bca-0d21-44b9-a0d0-eca905133ea5"},"vehicle_type_id":"4","last_reported":1738325798,"current_range_meters":22800,"station_id":"ce4bhlh2rcd13ifvqgig","pricing_plan_id":"cebpf4jnsgd1na2vs0mg"},{"bike_id":"59c84c8c-f740-4013-8df2-50bb9ed0c76d","system_id":"levelo_inurba_marseille","lat":43.25093,"lon":5.39531,"is_reserved":false,"is_disabled":false,"rental_uris":{"android":"levelo://app?vid=59c84c8c-f740-4013-8df2-50bb9ed0c76d","ios":"levelo://app?vid=59c84c8c-f740-4013-8df2-50bb9ed0c76d"},"vehicle_type_id":"4","last_reported":1738325798,"current_range_meters":39200,"station_id":"ce4bhm12rcd13ifvqgkg","pricing_plan_id":"cebpf4jnsgd1na2vs0mg"},{"bike_id":"d7123e37-9e59-427b-b913-7dc09c78c039","system_id":"levelo_inurba_marseille","lat":43.28705,"lon":5.39992,"is_reserved":false,"is_disabled":false,"rental_uris":{"android":"levelo://app?vid=d7123e37-9e59-427b-b913-7dc09c78c039","ios":"levelo://app?vid=d7123e37-9e59-427b-b913-7dc09c78c039"},"vehicle_type_id":"4","last_reported":1738325798,"current_range_meters":17600,"station_id":"ce4bho92rcd13ifvqh3g","pricing_plan_id":"cebpf4jnsgd1na2vs0mg"},{"bike_id":"b3f9d40e-c6c3-4e70-a1cf-be32056d433c","system_id":"levelo_inurba_marseille","lat":43.24399,"lon":5.37066,"is_reserved":false,"is_disabled":false,"rental_uris":{"android":"levelo://app?vid=b3f9d40e-c6c3-4e70-a1cf-be32056d433c","ios":"levelo://app?vid=b3f9d40e-c6c3-4e70-a1cf-be32056d433c"},"vehicle_type_id":"4","last_reported":1738325798,"current_range_meters":31200,"station_id":"ce4bhhh2rcd13ifvqfk0","pricing_plan_id":"cebpf4jnsgd1na2vs0mg"},{"bike_id":"d9ed5303-640c-4034-8a17-1ad90548a427","system_id":"levelo_inurba_marseille","lat":43.25119,"lon":5.39496,"is_reserved":false,"is_disabled":false,"rental_uris":{"android":"levelo://app?vid=d9ed5303-640c-4034-8a17-1ad90548a427","ios":"levelo://app?vid=d9ed5303-640c-4034-8a17-1ad90548a427"},"vehicle_type_id":"4","last_reported":1738325798,"current_range_meters":39200,"station_id":"ce4bhm12rcd13ifvqgkg","pricing_plan_id":"cebpf4jnsgd1na2vs0mg"},{"bike_id":"fc2dee61-6a5e-41ce-a75c-e2029dcb39bc","system_id":"levelo_inurba_marseille","lat":43.26559,"lon":5.37283,"is_reserved":false,"is_disabled":false,"rental_uris":{"android":"levelo://app?vid=fc2dee61-6a5e-41ce-a75c-e2029dcb39bc","ios":"levelo://app?vid=fc2dee61-6a5e-41ce-a75c-e2029dcb39bc"},"vehicle_type_id":"4","last_reported":1738325798,"current_range_meters":14000,"station_id":"ce4bhg12rcd13ifvqf70","pricing_plan_id":"cebpf4jnsgd1na2vs0mg"},{"bike_id":"f099780e-5154-4312-b743-b1d2c1afb968","system_id":"levelo_inurba_marseille","lat":43.30888,"lon":5.372,"is_reserved":false,"is_disabled":false,"rental_uris":{"android":"levelo://app?vid=f099780e-5154-4312-b743-b1d2c1afb968","ios":"levelo://app?vid=f099780e-5154-4312-b743-b1d2c1afb968"},"vehicle_type_id":"4","last_reported":1738325798,"current_range_meters":38800,"station_id":"ce4bguh2rcd13ifvqckg","pricing_plan_id":"cebpf4jnsgd1na2vs0mg"},{"bike_id":"9e339c3c-213c-4c74-b9a0-6668fa8e92c3","system_id":"levelo_inurba_marseille","lat":43.2927,"lon":5.36867,"is_reserved":false,"is_disabled":false,"rental_uris":{"android":"levelo://app?vid=9e339c3c-213c-4c74-b9a0-6668fa8e92c3","ios":"levelo://app?vid=9e339c3c-213c-4c74-b9a0-6668fa8e92c3"},"vehicle_type_id":"4","last_reported":1738325798,"current_range_meters":32800,"station_id":"ce4bhbp2rcd13ifvqesg","pricing_plan_id":"cebpf4jnsgd1na2vs0mg"},{"bike_id":"986eaebb-e8f5-43d4-8464-2e81a57414e8","system_id":"levelo_inurba_marseille","lat":43.29387,"lon":5.37857,"is_reserved":false,"is_disabled":false,"rental_uris":{"android":"levelo://app?vid=986eaebb-e8f5-43d4-8464-2e81a57414e8","ios":"levelo://app?vid=986eaebb-e8f5-43d4-8464-2e81a57414e8"},"vehicle_type_id":"4","last_reported":1738325798,"current_range_meters":20400,"station_id":"ce4bgjh2rcd13ifvqbf0","pricing_plan_id":"cebpf4jnsgd1na2vs0mg"},{"bike_id":"6495d327-1755-40f7-a8d7-5c825451b09b","system_id":"levelo_inurba_marseille","lat":43.27076,"lon":5.42277,"is_reserved":false,"is_disabled":false,"rental_uris":{"android":"levelo://app?vid=6495d327-1755-40f7-a8d7-5c825451b09b","ios":"levelo://app?vid=6495d327-1755-40f7-a8d7-5c825451b09b"},"vehicle_type_id":"4","last_reported":1738325798,"current_range_meters":6400,"station_id":"ce4bhk92rcd13ifvqgb0","pricing_plan_id":"cebpf4jnsgd1na2vs0mg"},{"bike_id":"e8e1f7c6-d773-4c38-bfcc-4a6d773355ce","system_id":"levelo_inurba_marseille","lat":43.22947,"lon":5.35377,"is_reserved":false,"is_disabled":false,"rental_uris":{"android":"levelo://app?vid=e8e1f7c6-d773-4c38-bfcc-4a6d773355ce","ios":"levelo://app?vid=e8e1f7c6-d773-4c38-bfcc-4a6d773355ce"},"vehicle_type_id":"4","last_reported":1738325798,"current_range_meters":38800,"station_id":"cpo3532slgdg3j2ikp40","pricing_plan_id":"cebpf4jnsgd1na2vs0mg"},{"bike_id":"57b7807f-dadf-4a68-98f3-8bb7398bbe27","system_id":"levelo_inurba_marseille","lat":43.269356,"lon":5.402489,"is_reserved":false,"is_disabled":false,"rental_uris":{"android":"levelo://app?vid=57b7807f-dadf-4a68-98f3-8bb7398bbe27","ios":"levelo://app?vid=57b7807f-dadf-4a68-98f3-8bb7398bbe27"},"vehicle_type_id":"4","last_reported":1738325798,"current_range_meters":23200,"station_id":"cjm6bp8fraef2m0cb0m0","pricing_plan_id":"cebpf4jnsgd1na2vs0mg"},{"bike_id":"bb438f6b-f724-49c7-a98f-0e463136ff95","system_id":"levelo_inurba_marseille","lat":43.28413,"lon":5.37521,"is_reserved":false,"is_disabled":false,"rental_uris":{"android":"levelo://app?vid=bb438f6b-f724-49c7-a98f-0e463136ff95","ios":"levelo://app?vid=bb438f6b-f724-49c7-a98f-0e463136ff95"},"vehicle_type_id":"4","last_reported":1738325798,"current_range_meters":30000,"station_id":"ce4bh412rcd13ifvqds0","pricing_plan_id":"cebpf4jnsgd1na2vs0mg"},{"bike_id":"7daf76e8-5c3e-445f-bd78-77374b52bf3e","system_id":"levelo_inurba_marseille","lat":43.27552,"lon":5.38426,"is_reserved":false,"is_disabled":false,"rental_uris":{"android":"levelo://app?vid=7daf76e8-5c3e-445f-bd78-77374b52bf3e","ios":"levelo://app?vid=7daf76e8-5c3e-445f-bd78-77374b52bf3e"},"vehicle_type_id":"4","last_reported":1738325798,"current_range_meters":24000,"station_id":"ce4bhh92rcd13ifvqfi0","pricing_plan_id":"cebpf4jnsgd1na2vs0mg"},{"bike_id":"e3d8a223-fb6b-449d-8e45-ad3295748cda","system_id":"levelo_inurba_marseille","lat":43.29578,"lon":5.38142,"is_reserved":false,"is_disabled":false,"rental_uris":{"android":"levelo://app?vid=e3d8a223-fb6b-449d-8e45-ad3295748cda","ios":"levelo://app?vid=e3d8a223-fb6b-449d-8e45-ad3295748cda"},"vehicle_type_id":"4","last_reported":1738325798,"current_range_meters":35600,"station_id":"ce4bgl12rcd13ifvqbo0","pricing_plan_id":"cebpf4jnsgd1na2vs0mg"},{"bike_id":"1fc37a54-f4a6-4308-a315-8ddd8fcfbc9f","system_id":"levelo_inurba_marseille","lat":43.2952,"lon":5.37495,"is_reserved":false,"is_disabled":false,"rental_uris":{"android":"levelo://app?vid=1fc37a54-f4a6-4308-a315-8ddd8fcfbc9f","ios":"levelo://app?vid=1fc37a54-f4a6-4308-a315-8ddd8fcfbc9f"},"vehicle_type_id":"4","last_reported":1738325798,"current_range_meters":20800,"station_id":"ce4bgkp2rcd13ifvqbmg","pricing_plan_id":"cebpf4jnsgd1na2vs0mg"},{"bike_id":"27756180-5468-46e7-b2c9-c0f1b399c906","system_id":"levelo_inurba_marseille","lat":43.27954,"lon":5.41046,"is_reserved":false,"is_disabled":false,"rental_uris":{"android":"levelo://app?vid=27756180-5468-46e7-b2c9-c0f1b399c906","ios":"levelo://app?vid=27756180-5468-46e7-b2c9-c0f1b399c906"},"vehicle_type_id":"4","last_reported":1738325798,"current_range_meters":23200,"station_id":"ce4bhnp2rcd13ifvqh0g","pricing_plan_id":"cebpf4jnsgd1na2vs0mg"},{"bike_id":"de1813f4-44ef-456f-9b4c-749914e29e87","system_id":"levelo_inurba_marseille","lat":43.29687,"lon":5.37302,"is_reserved":false,"is_disabled":false,"rental_uris":{"android":"levelo://app?vid=de1813f4-44ef-456f-9b4c-749914e29e87","ios":"levelo://app?vid=de1813f4-44ef-456f-9b4c-749914e29e87"},"vehicle_type_id":"4","last_reported":1738325798,"current_range_meters":38000,"station_id":"ce4bgk12rcd13ifvqbj0","pricing_plan_id":"cebpf4jnsgd1na2vs0mg"},{"bike_id":"60335d1b-4a92-46bd-8eca-dffb02768c78","system_id":"levelo_inurba_marseille","lat":43.24999,"lon":5.38938,"is_reserved":false,"is_disabled":false,"rental_uris":{"android":"levelo://app?vid=60335d1b-4a92-46bd-8eca-dffb02768c78","ios":"levelo://app?vid=60335d1b-4a92-46bd-8eca-dffb02768c78"},"vehicle_type_id":"4","last_reported":1738325798,"current_range_meters":16400,"station_id":"ce4bhgp2rcd13ifvqfd0","pricing_plan_id":"cebpf4jnsgd1na2vs0mg"},{"bike_id":"60911234-26e8-4f42-acbb-88b4c360ca2e","system_id":"levelo_inurba_marseille","lat":43.25013,"lon":5.38937,"is_reserved":false,"is_disabled":false,"rental_uris":{"android":"levelo://app?vid=60911234-26e8-4f42-acbb-88b4c360ca2e","ios":"levelo://app?vid=60911234-26e8-4f42-acbb-88b4c360ca2e"},"vehicle_type_id":"4","last_reported":1738325798,"current_range_meters":31200,"station_id":"ce4bhgp2rcd13ifvqfd0","pricing_plan_id":"cebpf4jnsgd1na2vs0mg"},{"bike_id":"093c8b06-fbb3-4475-8115-69d3af51a857","system_id":"levelo_inurba_marseille","lat":43.30683,"lon":5.38161,"is_reserved":false,"is_disabled":false,"rental_uris":{"android":"levelo://app?vid=093c8b06-fbb3-4475-8115-69d3af51a857","ios":"levelo://app?vid=093c8b06-fbb3-4475-8115-69d3af51a857"},"vehicle_type_id":"4","last_reported":1738325798,"current_range_meters":30400,"station_id":"ce4bgg92rcd13ifvqb30","pricing_plan_id":"cebpf4jnsgd1na2vs0mg"},{"bike_id":"070218cf-5f55-4a87-b307-d0bbb1caf6f4","system_id":"levelo_inurba_marseille","lat":43.23193,"lon":5.39978,"is_reserved":false,"is_disabled":false,"rental_uris":{"android":"levelo://app?vid=070218cf-5f55-4a87-b307-d0bbb1caf6f4","ios":"levelo://app?vid=070218cf-5f55-4a87-b307-d0bbb1caf6f4"},"vehicle_type_id":"4","last_reported":1738325798,"current_range_meters":39200,"station_id":"ce4bhn12rcd13ifvqgqg","pricing_plan_id":"cebpf4jnsgd1na2vs0mg"},{"bike_id":"67a20db5-1af9-4a76-a805-2bdbc502bbc2","system_id":"levelo_inurba_marseille","lat":43.29796,"lon":5.38111,"is_reserved":false,"is_disabled":false,"rental_uris":{"android":"levelo://app?vid=67a20db5-1af9-4a76-a805-2bdbc502bbc2","ios":"levelo://app?vid=67a20db5-1af9-4a76-a805-2bdbc502bbc2"},"vehicle_type_id":"4","last_reported":1738325798,"current_range_meters":2800,"station_id":"ce4bgip2rcd13ifvqbb0","pricing_plan_id":"cebpf4jnsgd1na2vs0mg"},{"bike_id":"71f34f72-d3b7-46a5-9bd4-1fe057b3152f","system_id":"levelo_inurba_marseille","lat":43.2294,"lon":5.35386,"is_reserved":false,"is_disabled":false,"rental_uris":{"android":"levelo://app?vid=71f34f72-d3b7-46a5-9bd4-1fe057b3152f","ios":"levelo://app?vid=71f34f72-d3b7-46a5-9bd4-1fe057b3152f"},"vehicle_type_id":"4","last_reported":1738325798,"current_range_meters":38800,"station_id":"cpo3532slgdg3j2ikp40","pricing_plan_id":"cebpf4jnsgd1na2vs0mg"},{"bike_id":"90445bf2-7643-45b5-b4a4-c3dfe9771bc9","system_id":"levelo_inurba_marseille","lat":43.31357,"lon":5.36708,"is_reserved":false,"is_disabled":false,"rental_uris":{"android":"levelo://app?vid=90445bf2-7643-45b5-b4a4-c3dfe9771bc9","ios":"levelo://app?vid=90445bf2-7643-45b5-b4a4-c3dfe9771bc9"},"vehicle_type_id":"4","last_reported":1738325798,"current_range_meters":38800,"station_id":"ce4bgr92rcd13ifvqc6g","pricing_plan_id":"cebpf4jnsgd1na2vs0mg"},{"bike_id":"20029bdd-9f9c-4ff9-86e4-5ba6ed30f46a","system_id":"levelo_inurba_marseille","lat":43.23148,"lon":5.43705,"is_reserved":false,"is_disabled":true,"rental_uris":{"android":"levelo://app?vid=20029bdd-9f9c-4ff9-86e4-5ba6ed30f46a","ios":"levelo://app?vid=20029bdd-9f9c-4ff9-86e4-5ba6ed30f46a"},"vehicle_type_id":"4","last_reported":1738325798,"current_range_meters":0,"station_id":"ce4bhmp2rcd13ifvqgog","pricing_plan_id":"cebpf4jnsgd1na2vs0mg"},{"bike_id":"9a420f87-7d7e-4781-b326-9c09400ca210","system_id":"levelo_inurba_marseille","lat":43.26216,"lon":5.37446,"is_reserved":false,"is_disabled":false,"rental_uris":{"android":"levelo://app?vid=9a420f87-7d7e-4781-b326-9c09400ca210","ios":"levelo://app?vid=9a420f87-7d7e-4781-b326-9c09400ca210"},"vehicle_type_id":"4","last_reported":1738325798,"current_range_meters":38800,"station_id":"ce4bhgp2rcd13ifvqfc0","pricing_plan_id":"cebpf4jnsgd1na2vs0mg"},{"bike_id":"3d4b3e0a-4326-4344-bb72-09251a157a11","system_id":"levelo_inurba_marseille","lat":43.30547,"lon":5.36545,"is_reserved":false,"is_disabled":true,"rental_uris":{"android":"levelo://app?vid=3d4b3e0a-4326-4344-bb72-09251a157a11","ios":"levelo://app?vid=3d4b3e0a-4326-4344-bb72-09251a157a11"},"vehicle_type_id":"4","last_reported":1738325798,"current_range_meters":34800,"station_id":"ce4bgs12rcd13ifvqcag","pricing_plan_id":"cebpf4jnsgd1na2vs0mg"},{"bike_id":"f259c60b-7ccd-4f59-b54b-010f7b46aeda","system_id":"levelo_inurba_marseille","lat":43.29258,"lon":5.38442,"is_reserved":false,"is_disabled":false,"rental_uris":{"android":"levelo://app?vid=f259c60b-7ccd-4f59-b54b-010f7b46aeda","ios":"levelo://app?vid=f259c60b-7ccd-4f59-b54b-010f7b46aeda"},"vehicle_type_id":"4","last_reported":1738325798,"current_range_meters":39200,"station_id":"ce4bh692rcd13ifvqea0","pricing_plan_id":"cebpf4jnsgd1na2vs0mg"},{"bike_id":"c7b7d5dc-fcd4-4974-ac80-02e658adb2bb","system_id":"levelo_inurba_marseille","lat":43.30131,"lon":5.38119,"is_reserved":false,"is_disabled":false,"rental_uris":{"android":"levelo://app?vid=c7b7d5dc-fcd4-4974-ac80-02e658adb2bb","ios":"levelo://app?vid=c7b7d5dc-fcd4-4974-ac80-02e658adb2bb"},"vehicle_type_id":"4","last_reported":1738325798,"current_range_meters":38800,"station_id":"ce4bgjp2rcd13ifvqbh0","pricing_plan_id":"cebpf4jnsgd1na2vs0mg"},{"bike_id":"7a8503ce-2278-4768-90d1-b87e022c42c6","system_id":"levelo_inurba_marseille","lat":43.28614,"lon":5.35114,"is_reserved":false,"is_disabled":false,"rental_uris":{"android":"levelo://app?vid=7a8503ce-2278-4768-90d1-b87e022c42c6","ios":"levelo://app?vid=7a8503ce-2278-4768-90d1-b87e022c42c6"},"vehicle_type_id":"4","last_reported":1738325798,"current_range_meters":35600,"station_id":"ce4bhch2rcd13ifvqeug","pricing_plan_id":"cebpf4jnsgd1na2vs0mg"},{"bike_id":"77982fa2-73f6-4a85-bb7c-67126c76cf24","system_id":"levelo_inurba_marseille","lat":43.30159,"lon":5.38075,"is_reserved":false,"is_disabled":false,"rental_uris":{"android":"levelo://app?vid=77982fa2-73f6-4a85-bb7c-67126c76cf24","ios":"levelo://app?vid=77982fa2-73f6-4a85-bb7c-67126c76cf24"},"vehicle_type_id":"4","last_reported":1738325798,"current_range_meters":38800,"station_id":"ce4bgjp2rcd13ifvqbh0","pricing_plan_id":"cebpf4jnsgd1na2vs0mg"},{"bike_id":"45fd4a2a-a5dc-4b7e-962f-4641aedb60dd","system_id":"levelo_inurba_marseille","lat":43.279851,"lon":5.416671,"is_reserved":false,"is_disabled":false,"rental_uris":{"android":"levelo://app?vid=45fd4a2a-a5dc-4b7e-962f-4641aedb60dd","ios":"levelo://app?vid=45fd4a2a-a5dc-4b7e-962f-4641aedb60dd"},"vehicle_type_id":"4","last_reported":1738325798,"current_range_meters":38800,"station_id":"ce4bho12rcd13ifvqh1g","pricing_plan_id":"cebpf4jnsgd1na2vs0mg"},{"bike_id":"bbd37f25-b511-4ba3-9ad8-9c3bb19bb776","system_id":"levelo_inurba_marseille","lat":43.30303,"lon":5.36912,"is_reserved":false,"is_disabled":false,"rental_uris":{"android":"levelo://app?vid=bbd37f25-b511-4ba3-9ad8-9c3bb19bb776","ios":"levelo://app?vid=bbd37f25-b511-4ba3-9ad8-9c3bb19bb776"},"vehicle_type_id":"4","last_reported":1738325798,"current_range_meters":18000,"station_id":"ce4bgqh2rcd13ifvqc5g","pricing_plan_id":"cebpf4jnsgd1na2vs0mg"},{"bike_id":"a390460d-094c-490b-9c7c-7388bb9593c6","system_id":"levelo_inurba_marseille","lat":43.31106,"lon":5.37778,"is_reserved":false,"is_disabled":false,"rental_uris":{"android":"levelo://app?vid=a390460d-094c-490b-9c7c-7388bb9593c6","ios":"levelo://app?vid=a390460d-094c-490b-9c7c-7388bb9593c6"},"vehicle_type_id":"4","last_reported":1738325798,"current_range_meters":35600,"station_id":"ce4bgt92rcd13ifvqcg0","pricing_plan_id":"cebpf4jnsgd1na2vs0mg"},{"bike_id":"3388de07-63e7-4f0f-a28f-4753adf55e62","system_id":"levelo_inurba_marseille","lat":43.29596,"lon":5.36743,"is_reserved":false,"is_disabled":false,"rental_uris":{"android":"levelo://app?vid=3388de07-63e7-4f0f-a28f-4753adf55e62","ios":"levelo://app?vid=3388de07-63e7-4f0f-a28f-4753adf55e62"},"vehicle_type_id":"4","last_reported":1738325798,"current_range_meters":38800,"station_id":"ce4bgph2rcd13ifvqc2g","pricing_plan_id":"cebpf4jnsgd1na2vs0mg"},{"bike_id":"4d213e19-460b-4ffc-abf2-31a900d6c917","system_id":"levelo_inurba_marseille","lat":43.27614,"lon":5.36101,"is_reserved":false,"is_disabled":false,"rental_uris":{"android":"levelo://app?vid=4d213e19-460b-4ffc-abf2-31a900d6c917","ios":"levelo://app?vid=4d213e19-460b-4ffc-abf2-31a900d6c917"},"vehicle_type_id":"4","last_reported":1738325798,"current_range_meters":38000,"station_id":"ce4bgj92rcd13ifvqbe0","pricing_plan_id":"cebpf4jnsgd1na2vs0mg"},{"bike_id":"95aee25f-5c57-4ea4-ae9b-fd75ffb2acea","system_id":"levelo_inurba_marseille","lat":43.23197,"lon":5.40012,"is_reserved":false,"is_disabled":false,"rental_uris":{"android":"levelo://app?vid=95aee25f-5c57-4ea4-ae9b-fd75ffb2acea","ios":"levelo://app?vid=95aee25f-5c57-4ea4-ae9b-fd75ffb2acea"},"vehicle_type_id":"4","last_reported":1738325798,"current_range_meters":21600,"station_id":"ce4bhn12rcd13ifvqgqg","pricing_plan_id":"cebpf4jnsgd1na2vs0mg"},{"bike_id":"71b2ab8e-54d3-4665-bd04-fb5b65cbe9f5","system_id":"levelo_inurba_marseille","lat":43.27559,"lon":5.38424,"is_reserved":false,"is_disabled":false,"rental_uris":{"android":"levelo://app?vid=71b2ab8e-54d3-4665-bd04-fb5b65cbe9f5","ios":"levelo://app?vid=71b2ab8e-54d3-4665-bd04-fb5b65cbe9f5"},"vehicle_type_id":"4","last_reported":1738325798,"current_range_meters":38400,"station_id":"ce4bhh92rcd13ifvqfi0","pricing_plan_id":"cebpf4jnsgd1na2vs0mg"},{"bike_id":"528fe304-774b-4f5e-99b0-3a6df52f7bd5","system_id":"levelo_inurba_marseille","lat":43.26902,"lon":5.40271,"is_reserved":false,"is_disabled":false,"rental_uris":{"android":"levelo://app?vid=528fe304-774b-4f5e-99b0-3a6df52f7bd5","ios":"levelo://app?vid=528fe304-774b-4f5e-99b0-3a6df52f7bd5"},"vehicle_type_id":"4","last_reported":1738325798,"current_range_meters":25200,"station_id":"","pricing_plan_id":"cebpf4jnsgd1na2vs0mg"},{"bike_id":"74bbf25b-daf9-4fbc-a438-369e7efaf29c","system_id":"levelo_inurba_marseille","lat":43.29794,"lon":5.37103,"is_reserved":false,"is_disabled":false,"rental_uris":{"android":"levelo://app?vid=74bbf25b-daf9-4fbc-a438-369e7efaf29c","ios":"levelo://app?vid=74bbf25b-daf9-4fbc-a438-369e7efaf29c"},"vehicle_type_id":"4","last_reported":1738325798,"current_range_meters":35200,"station_id":"ce4bgop2rcd13ifvqc1g","pricing_plan_id":"cebpf4jnsgd1na2vs0mg"},{"bike_id":"0f7c70b6-5d6b-46fa-8bd3-5f07fec357ba","system_id":"levelo_inurba_marseille","lat":43.29975,"lon":5.37171,"is_reserved":false,"is_disabled":false,"rental_uris":{"android":"levelo://app?vid=0f7c70b6-5d6b-46fa-8bd3-5f07fec357ba","ios":"levelo://app?vid=0f7c70b6-5d6b-46fa-8bd3-5f07fec357ba"},"vehicle_type_id":"4","last_reported":1738325798,"current_range_meters":27200,"station_id":"ce4bgr92rcd13ifvqc7g","pricing_plan_id":"cebpf4jnsgd1na2vs0mg"},{"bike_id":"c29efa44-984d-4c76-ab5f-60fe4a87f1bb","system_id":"levelo_inurba_marseille","lat":43.266865,"lon":5.382775,"is_reserved":false,"is_disabled":true,"rental_uris":{"android":"levelo://app?vid=c29efa44-984d-4c76-ab5f-60fe4a87f1bb","ios":"levelo://app?vid=c29efa44-984d-4c76-ab5f-60fe4a87f1bb"},"vehicle_type_id":"4","last_reported":1738325798,"current_range_meters":38400,"station_id":"ce4bhg92rcd13ifvqf90","pricing_plan_id":"cebpf4jnsgd1na2vs0mg"},{"bike_id":"330f9dea-f269-4de9-9310-c0c0b967dd74","system_id":"levelo_inurba_marseille","lat":43.28925,"lon":5.36405,"is_reserved":false,"is_disabled":false,"rental_uris":{"android":"levelo://app?vid=330f9dea-f269-4de9-9310-c0c0b967dd74","ios":"levelo://app?vid=330f9dea-f269-4de9-9310-c0c0b967dd74"},"vehicle_type_id":"4","last_reported":1738325798,"current_range_meters":26000,"station_id":"ce4bhc92rcd13ifvqetg","pricing_plan_id":"cebpf4jnsgd1na2vs0mg"},{"bike_id":"ba1e8d7d-8e09-46a6-9069-ea3c3d66b9d2","system_id":"levelo_inurba_marseille","lat":43.30307,"lon":5.36898,"is_reserved":false,"is_disabled":false,"rental_uris":{"android":"levelo://app?vid=ba1e8d7d-8e09-46a6-9069-ea3c3d66b9d2","ios":"levelo://app?vid=ba1e8d7d-8e09-46a6-9069-ea3c3d66b9d2"},"vehicle_type_id":"4","last_reported":1738325798,"current_range_meters":38800,"station_id":"ce4bgqh2rcd13ifvqc5g","pricing_plan_id":"cebpf4jnsgd1na2vs0mg"},{"bike_id":"e36db202-a0c5-4337-b881-dbba49b15e2b","system_id":"levelo_inurba_marseille","lat":43.23963,"lon":5.36628,"is_reserved":false,"is_disabled":false,"rental_uris":{"android":"levelo://app?vid=e36db202-a0c5-4337-b881-dbba49b15e2b","ios":"levelo://app?vid=e36db202-a0c5-4337-b881-dbba49b15e2b"},"vehicle_type_id":"4","last_reported":1738325798,"current_range_meters":20400,"station_id":"ce4bhi12rcd13ifvqfp0","pricing_plan_id":"cebpf4jnsgd1na2vs0mg"},{"bike_id":"bd8a828d-e634-4034-9cac-55889d5bbfa5","system_id":"levelo_inurba_marseille","lat":43.28164,"lon":5.42684,"is_reserved":false,"is_disabled":false,"rental_uris":{"android":"levelo://app?vid=bd8a828d-e634-4034-9cac-55889d5bbfa5","ios":"levelo://app?vid=bd8a828d-e634-4034-9cac-55889d5bbfa5"},"vehicle_type_id":"4","last_reported":1738325798,"current_range_meters":26800,"station_id":"ce4bhnh2rcd13ifvqgug","pricing_plan_id":"cebpf4jnsgd1na2vs0mg"},{"bike_id":"25350506-d4e6-4d3b-ab63-9a6f3ed46479","system_id":"levelo_inurba_marseille","lat":43.293,"lon":5.37461,"is_reserved":false,"is_disabled":false,"rental_uris":{"android":"levelo://app?vid=25350506-d4e6-4d3b-ab63-9a6f3ed46479","ios":"levelo://app?vid=25350506-d4e6-4d3b-ab63-9a6f3ed46479"},"vehicle_type_id":"4","last_reported":1738325798,"current_range_meters":28000,"station_id":"ce4bgi12rcd13ifvqb70","pricing_plan_id":"cebpf4jnsgd1na2vs0mg"},{"bike_id":"cb11708a-6ae4-4d5b-8a2d-75ad9d11c3ae","system_id":"levelo_inurba_marseille","lat":43.31714,"lon":5.43711,"is_reserved":false,"is_disabled":false,"rental_uris":{"android":"levelo://app?vid=cb11708a-6ae4-4d5b-8a2d-75ad9d11c3ae","ios":"levelo://app?vid=cb11708a-6ae4-4d5b-8a2d-75ad9d11c3ae"},"vehicle_type_id":"4","last_reported":1738325798,"current_range_meters":38000,"station_id":"ce4bhp92rcd13ifvqhcg","pricing_plan_id":"cebpf4jnsgd1na2vs0mg"},{"bike_id":"f9d35a32-65b2-4842-bd83-8cbe10324274","system_id":"levelo_inurba_marseille","lat":43.2862,"lon":5.35117,"is_reserved":false,"is_disabled":false,"rental_uris":{"android":"levelo://app?vid=f9d35a32-65b2-4842-bd83-8cbe10324274","ios":"levelo://app?vid=f9d35a32-65b2-4842-bd83-8cbe10324274"},"vehicle_type_id":"4","last_reported":1738325798,"current_range_meters":12800,"station_id":"ce4bhch2rcd13ifvqeug","pricing_plan_id":"cebpf4jnsgd1na2vs0mg"},{"bike_id":"e737d6b4-980a-4244-b0b6-85b0751595d1","system_id":"levelo_inurba_marseille","lat":43.32053,"lon":5.4153,"is_reserved":false,"is_disabled":false,"rental_uris":{"android":"levelo://app?vid=e737d6b4-980a-4244-b0b6-85b0751595d1","ios":"levelo://app?vid=e737d6b4-980a-4244-b0b6-85b0751595d1"},"vehicle_type_id":"4","last_reported":1738325798,"current_range_meters":36400,"station_id":"ce4bhq92rcd13ifvqhkg","pricing_plan_id":"cebpf4jnsgd1na2vs0mg"},{"bike_id":"3d0eaec4-aa84-4f4f-a04b-6702d19d8fba","system_id":"levelo_inurba_marseille","lat":43.25498,"lon":5.37652,"is_reserved":false,"is_disabled":false,"rental_uris":{"android":"levelo://app?vid=3d0eaec4-aa84-4f4f-a04b-6702d19d8fba","ios":"levelo://app?vid=3d0eaec4-aa84-4f4f-a04b-6702d19d8fba"},"vehicle_type_id":"4","last_reported":1738325798,"current_range_meters":24400,"station_id":"ce4bhh12rcd13ifvqff0","pricing_plan_id":"cebpf4jnsgd1na2vs0mg"},{"bike_id":"457ad50f-75bb-4bf6-91bf-3c28cb123cd1","system_id":"levelo_inurba_marseille","lat":43.29899,"lon":5.39742,"is_reserved":false,"is_disabled":false,"rental_uris":{"android":"levelo://app?vid=457ad50f-75bb-4bf6-91bf-3c28cb123cd1","ios":"levelo://app?vid=457ad50f-75bb-4bf6-91bf-3c28cb123cd1"},"vehicle_type_id":"4","last_reported":1738325798,"current_range_meters":38800,"station_id":"ce4bh0h2rcd13ifvqd50","pricing_plan_id":"cebpf4jnsgd1na2vs0mg"},{"bike_id":"48070e15-4184-4f5b-8ec9-9014522d7f04","system_id":"levelo_inurba_marseille","lat":43.30489,"lon":5.379,"is_reserved":false,"is_disabled":false,"rental_uris":{"android":"levelo://app?vid=48070e15-4184-4f5b-8ec9-9014522d7f04","ios":"levelo://app?vid=48070e15-4184-4f5b-8ec9-9014522d7f04"},"vehicle_type_id":"4","last_reported":1738325798,"current_range_meters":23200,"station_id":"ce4bgup2rcd13ifvqcn0","pricing_plan_id":"cebpf4jnsgd1na2vs0mg"},{"bike_id":"759c4a02-5987-4b3a-a60a-471843eb4b79","system_id":"levelo_inurba_marseille","lat":43.25149,"lon":5.40433,"is_reserved":false,"is_disabled":true,"rental_uris":{"android":"levelo://app?vid=759c4a02-5987-4b3a-a60a-471843eb4b79","ios":"levelo://app?vid=759c4a02-5987-4b3a-a60a-471843eb4b79"},"vehicle_type_id":"4","last_reported":1738325798,"current_range_meters":0,"station_id":"ce4bhlh2rcd13ifvqgig","pricing_plan_id":"cebpf4jnsgd1na2vs0mg"},{"bike_id":"1045c39d-9f42-4b09-96ab-0331c7bf14c9","system_id":"levelo_inurba_marseille","lat":43.29568,"lon":5.36744,"is_reserved":false,"is_disabled":false,"rental_uris":{"android":"levelo://app?vid=1045c39d-9f42-4b09-96ab-0331c7bf14c9","ios":"levelo://app?vid=1045c39d-9f42-4b09-96ab-0331c7bf14c9"},"vehicle_type_id":"4","last_reported":1738325798,"current_range_meters":38800,"station_id":"ce4bgph2rcd13ifvqc2g","pricing_plan_id":"cebpf4jnsgd1na2vs0mg"},{"bike_id":"ad3cdf25-9963-4fac-b030-f249efcede1b","system_id":"levelo_inurba_marseille","lat":43.24392,"lon":5.37062,"is_reserved":false,"is_disabled":false,"rental_uris":{"android":"levelo://app?vid=ad3cdf25-9963-4fac-b030-f249efcede1b","ios":"levelo://app?vid=ad3cdf25-9963-4fac-b030-f249efcede1b"},"vehicle_type_id":"4","last_reported":1738325798,"current_range_meters":22000,"station_id":"ce4bhhh2rcd13ifvqfk0","pricing_plan_id":"cebpf4jnsgd1na2vs0mg"},{"bike_id":"0ed39a79-e831-4aa5-ab3f-13a3ae3a3ee8","system_id":"levelo_inurba_marseille","lat":43.30542,"lon":5.36551,"is_reserved":false,"is_disabled":false,"rental_uris":{"android":"levelo://app?vid=0ed39a79-e831-4aa5-ab3f-13a3ae3a3ee8","ios":"levelo://app?vid=0ed39a79-e831-4aa5-ab3f-13a3ae3a3ee8"},"vehicle_type_id":"4","last_reported":1738325798,"current_range_meters":4000,"station_id":"ce4bgs12rcd13ifvqcag","pricing_plan_id":"cebpf4jnsgd1na2vs0mg"},{"bike_id":"56d6b97f-30a2-4c2a-8be6-a12a9fc19507","system_id":"levelo_inurba_marseille","lat":43.31753,"lon":5.39034,"is_reserved":false,"is_disabled":false,"rental_uris":{"android":"levelo://app?vid=56d6b97f-30a2-4c2a-8be6-a12a9fc19507","ios":"levelo://app?vid=56d6b97f-30a2-4c2a-8be6-a12a9fc19507"},"vehicle_type_id":"4","last_reported":1738325798,"current_range_meters":14000,"station_id":"ce4bhqp2rcd13ifvqhng","pricing_plan_id":"cebpf4jnsgd1na2vs0mg"},{"bike_id":"e7a8ab92-781b-454c-983c-b704077182bf","system_id":"levelo_inurba_marseille","lat":43.30031,"lon":5.41399,"is_reserved":false,"is_disabled":true,"rental_uris":{"android":"levelo://app?vid=e7a8ab92-781b-454c-983c-b704077182bf","ios":"levelo://app?vid=e7a8ab92-781b-454c-983c-b704077182bf"},"vehicle_type_id":"4","last_reported":1738325798,"current_range_meters":11600,"station_id":"","pricing_plan_id":"cebpf4jnsgd1na2vs0mg"},{"bike_id":"4a1e9f62-bab4-41dd-a460-5c9b1a6299cf","system_id":"levelo_inurba_marseille","lat":43.29582,"lon":5.36745,"is_reserved":false,"is_disabled":false,"rental_uris":{"android":"levelo://app?vid=4a1e9f62-bab4-41dd-a460-5c9b1a6299cf","ios":"levelo://app?vid=4a1e9f62-bab4-41dd-a460-5c9b1a6299cf"},"vehicle_type_id":"4","last_reported":1738325798,"current_range_meters":38800,"station_id":"ce4bgph2rcd13ifvqc2g","pricing_plan_id":"cebpf4jnsgd1na2vs0mg"},{"bike_id":"d2a61873-58f7-4bc8-abeb-3ce8c1c55c8d","system_id":"levelo_inurba_marseille","lat":43.27172,"lon":5.40996,"is_reserved":false,"is_disabled":false,"rental_uris":{"android":"levelo://app?vid=d2a61873-58f7-4bc8-abeb-3ce8c1c55c8d","ios":"levelo://app?vid=d2a61873-58f7-4bc8-abeb-3ce8c1c55c8d"},"vehicle_type_id":"4","last_reported":1738325798,"current_range_meters":12400,"station_id":"ce4bhl12rcd13ifvqgf0","pricing_plan_id":"cebpf4jnsgd1na2vs0mg"},{"bike_id":"9fc4ad26-bc17-43f5-82a4-d01ffffb34a0","system_id":"levelo_inurba_marseille","lat":43.27813,"lon":5.40717,"is_reserved":false,"is_disabled":false,"rental_uris":{"android":"levelo://app?vid=9fc4ad26-bc17-43f5-82a4-d01ffffb34a0","ios":"levelo://app?vid=9fc4ad26-bc17-43f5-82a4-d01ffffb34a0"},"vehicle_type_id":"4","last_reported":1738325798,"current_range_meters":12000,"station_id":"ce4bhnh2rcd13ifvqgtg","pricing_plan_id":"cebpf4jnsgd1na2vs0mg"},{"bike_id":"b61407a7-d93a-47a9-ae07-fdf92f9b0164","system_id":"levelo_inurba_marseille","lat":43.27621,"lon":5.36106,"is_reserved":false,"is_disabled":true,"rental_uris":{"android":"levelo://app?vid=b61407a7-d93a-47a9-ae07-fdf92f9b0164","ios":"levelo://app?vid=b61407a7-d93a-47a9-ae07-fdf92f9b0164"},"vehicle_type_id":"4","last_reported":1738325798,"current_range_meters":0,"station_id":"","pricing_plan_id":"cebpf4jnsgd1na2vs0mg"},{"bike_id":"4513872b-8c8e-44b3-b254-8fad0c767d47","system_id":"levelo_inurba_marseille","lat":43.24555,"lon":5.39532,"is_reserved":false,"is_disabled":false,"rental_uris":{"android":"levelo://app?vid=4513872b-8c8e-44b3-b254-8fad0c767d47","ios":"levelo://app?vid=4513872b-8c8e-44b3-b254-8fad0c767d47"},"vehicle_type_id":"4","last_reported":1738325798,"current_range_meters":38000,"station_id":"ce4bhlp2rcd13ifvqgjg","pricing_plan_id":"cebpf4jnsgd1na2vs0mg"},{"bike_id":"cfbb5204-c0e4-43d6-b3e4-9696e0ec11e8","system_id":"levelo_inurba_marseille","lat":43.25117,"lon":5.39524,"is_reserved":false,"is_disabled":false,"rental_uris":{"android":"levelo://app?vid=cfbb5204-c0e4-43d6-b3e4-9696e0ec11e8","ios":"levelo://app?vid=cfbb5204-c0e4-43d6-b3e4-9696e0ec11e8"},"vehicle_type_id":"4","last_reported":1738325798,"current_range_meters":11200,"station_id":"ce4bhm12rcd13ifvqgkg","pricing_plan_id":"cebpf4jnsgd1na2vs0mg"},{"bike_id":"8382186f-0d25-40e6-beca-2632cc8590f2","system_id":"levelo_inurba_marseille","lat":43.29542,"lon":5.42284,"is_reserved":false,"is_disabled":false,"rental_uris":{"android":"levelo://app?vid=8382186f-0d25-40e6-beca-2632cc8590f2","ios":"levelo://app?vid=8382186f-0d25-40e6-beca-2632cc8590f2"},"vehicle_type_id":"4","last_reported":1738325798,"current_range_meters":38000,"station_id":"ce4bhph2rcd13ifvqhdg","pricing_plan_id":"cebpf4jnsgd1na2vs0mg"},{"bike_id":"2c0b7118-bbc4-45ab-8e66-46d9bf6de98d","system_id":"levelo_inurba_marseille","lat":43.27071,"lon":5.40267,"is_reserved":false,"is_disabled":false,"rental_uris":{"android":"levelo://app?vid=2c0b7118-bbc4-45ab-8e66-46d9bf6de98d","ios":"levelo://app?vid=2c0b7118-bbc4-45ab-8e66-46d9bf6de98d"},"vehicle_type_id":"4","last_reported":1738325798,"current_range_meters":36800,"station_id":"ce4bhk92rcd13ifvqgc0","pricing_plan_id":"cebpf4jnsgd1na2vs0mg"},{"bike_id":"c1b0031c-0b33-4123-83c2-b2b98b0fce27","system_id":"levelo_inurba_marseille","lat":43.29624,"lon":5.37169,"is_reserved":false,"is_disabled":false,"rental_uris":{"android":"levelo://app?vid=c1b0031c-0b33-4123-83c2-b2b98b0fce27","ios":"levelo://app?vid=c1b0031c-0b33-4123-83c2-b2b98b0fce27"},"vehicle_type_id":"4","last_reported":1738325798,"current_range_meters":38000,"station_id":"ce4bgnh2rcd13ifvqc0g","pricing_plan_id":"cebpf4jnsgd1na2vs0mg"},{"bike_id":"6a3cbb9f-8663-4702-ab2f-57714697fccd","system_id":"levelo_inurba_marseille","lat":43.30168,"lon":5.37424,"is_reserved":false,"is_disabled":false,"rental_uris":{"android":"levelo://app?vid=6a3cbb9f-8663-4702-ab2f-57714697fccd","ios":"levelo://app?vid=6a3cbb9f-8663-4702-ab2f-57714697fccd"},"vehicle_type_id":"4","last_reported":1738325798,"current_range_meters":28800,"station_id":"ce4bgs92rcd13ifvqcc0","pricing_plan_id":"cebpf4jnsgd1na2vs0mg"},{"bike_id":"c1642703-8a0f-4fb8-8bfc-7a9e87351105","system_id":"levelo_inurba_marseille","lat":43.25587,"lon":5.38233,"is_reserved":false,"is_disabled":false,"rental_uris":{"android":"levelo://app?vid=c1642703-8a0f-4fb8-8bfc-7a9e87351105","ios":"levelo://app?vid=c1642703-8a0f-4fb8-8bfc-7a9e87351105"},"vehicle_type_id":"4","last_reported":1738325798,"current_range_meters":36400,"station_id":"ce4bhih2rcd13ifvqfs0","pricing_plan_id":"cebpf4jnsgd1na2vs0mg"},{"bike_id":"6cbf0a4e-38d6-47e5-9674-7835ff03a77f","system_id":"levelo_inurba_marseille","lat":43.29935,"lon":5.36528,"is_reserved":false,"is_disabled":false,"rental_uris":{"android":"levelo://app?vid=6cbf0a4e-38d6-47e5-9674-7835ff03a77f","ios":"levelo://app?vid=6cbf0a4e-38d6-47e5-9674-7835ff03a77f"},"vehicle_type_id":"4","last_reported":1738325798,"current_range_meters":23200,"station_id":"ce4bgm92rcd13ifvqbr0","pricing_plan_id":"cebpf4jnsgd1na2vs0mg"},{"bike_id":"06e06068-324c-48d4-ae4f-92db15d786f3","system_id":"levelo_inurba_marseille","lat":43.31485,"lon":5.37311,"is_reserved":false,"is_disabled":false,"rental_uris":{"android":"levelo://app?vid=06e06068-324c-48d4-ae4f-92db15d786f3","ios":"levelo://app?vid=06e06068-324c-48d4-ae4f-92db15d786f3"},"vehicle_type_id":"4","last_reported":1738325798,"current_range_meters":13600,"station_id":"ce4bgt12rcd13ifvqcd0","pricing_plan_id":"cebpf4jnsgd1na2vs0mg"},{"bike_id":"32d9a329-7366-4eb8-8d55-73b5c99c70c3","system_id":"levelo_inurba_marseille","lat":43.23195,"lon":5.35547,"is_reserved":false,"is_disabled":false,"rental_uris":{"android":"levelo://app?vid=32d9a329-7366-4eb8-8d55-73b5c99c70c3","ios":"levelo://app?vid=32d9a329-7366-4eb8-8d55-73b5c99c70c3"},"vehicle_type_id":"4","last_reported":1738325798,"current_range_meters":38800,"station_id":"ce4bhu92rcd13ifvqi70","pricing_plan_id":"cebpf4jnsgd1na2vs0mg"},{"bike_id":"02bfa719-4438-4195-a898-992607a63086","system_id":"levelo_inurba_marseille","lat":43.32351,"lon":5.38891,"is_reserved":false,"is_disabled":false,"rental_uris":{"android":"levelo://app?vid=02bfa719-4438-4195-a898-992607a63086","ios":"levelo://app?vid=02bfa719-4438-4195-a898-992607a63086"},"vehicle_type_id":"4","last_reported":1738325798,"current_range_meters":24800,"station_id":"ce4bhqp2rcd13ifvqhog","pricing_plan_id":"cebpf4jnsgd1na2vs0mg"},{"bike_id":"d7861766-e988-4bfb-97ef-8827400e38fd","system_id":"levelo_inurba_marseille","lat":43.23197,"lon":5.39981,"is_reserved":false,"is_disabled":false,"rental_uris":{"android":"levelo://app?vid=d7861766-e988-4bfb-97ef-8827400e38fd","ios":"levelo://app?vid=d7861766-e988-4bfb-97ef-8827400e38fd"},"vehicle_type_id":"4","last_reported":1738325798,"current_range_meters":39200,"station_id":"ce4bhn12rcd13ifvqgqg","pricing_plan_id":"cebpf4jnsgd1na2vs0mg"},{"bike_id":"0a2fd205-d616-4064-aa75-d4d529957d90","system_id":"levelo_inurba_marseille","lat":43.230653,"lon":5.355113,"is_reserved":false,"is_disabled":false,"rental_uris":{"android":"levelo://app?vid=0a2fd205-d616-4064-aa75-d4d529957d90","ios":"levelo://app?vid=0a2fd205-d616-4064-aa75-d4d529957d90"},"vehicle_type_id":"4","last_reported":1738325798,"current_range_meters":21600,"station_id":"cpo3342slgdg3j2ifvpg","pricing_plan_id":"cebpf4jnsgd1na2vs0mg"},{"bike_id":"ae2467d5-e440-4969-af46-8ffa89049d5b","system_id":"levelo_inurba_marseille","lat":43.28612,"lon":5.35105,"is_reserved":false,"is_disabled":false,"rental_uris":{"android":"levelo://app?vid=ae2467d5-e440-4969-af46-8ffa89049d5b","ios":"levelo://app?vid=ae2467d5-e440-4969-af46-8ffa89049d5b"},"vehicle_type_id":"4","last_reported":1738325798,"current_range_meters":37600,"station_id":"ce4bhch2rcd13ifvqeug","pricing_plan_id":"cebpf4jnsgd1na2vs0mg"},{"bike_id":"d3555a00-aebd-4cd5-b0cb-1da00d423369","system_id":"levelo_inurba_marseille","lat":43.30465,"lon":5.38212,"is_reserved":false,"is_disabled":false,"rental_uris":{"android":"levelo://app?vid=d3555a00-aebd-4cd5-b0cb-1da00d423369","ios":"levelo://app?vid=d3555a00-aebd-4cd5-b0cb-1da00d423369"},"vehicle_type_id":"4","last_reported":1738325798,"current_range_meters":17200,"station_id":"","pricing_plan_id":"cebpf4jnsgd1na2vs0mg"},{"bike_id":"94931f21-350d-4566-8bea-491f51e9a25d","system_id":"levelo_inurba_marseille","lat":43.26961,"lon":5.38888,"is_reserved":false,"is_disabled":false,"rental_uris":{"android":"levelo://app?vid=94931f21-350d-4566-8bea-491f51e9a25d","ios":"levelo://app?vid=94931f21-350d-4566-8bea-491f51e9a25d"},"vehicle_type_id":"4","last_reported":1738325798,"current_range_meters":38800,"station_id":"","pricing_plan_id":"cebpf4jnsgd1na2vs0mg"},{"bike_id":"851692c4-6ece-4a71-ba19-f442921d2278","system_id":"levelo_inurba_marseille","lat":43.29896,"lon":5.43664,"is_reserved":false,"is_disabled":false,"rental_uris":{"android":"levelo://app?vid=851692c4-6ece-4a71-ba19-f442921d2278","ios":"levelo://app?vid=851692c4-6ece-4a71-ba19-f442921d2278"},"vehicle_type_id":"4","last_reported":1738325798,"current_range_meters":37600,"station_id":"ce4bhpp2rcd13ifvqhfg","pricing_plan_id":"cebpf4jnsgd1na2vs0mg"},{"bike_id":"2dcea597-6175-45f7-be3e-2ee0705f08d3","system_id":"levelo_inurba_marseille","lat":43.2694,"lon":5.38919,"is_reserved":false,"is_disabled":false,"rental_uris":{"android":"levelo://app?vid=2dcea597-6175-45f7-be3e-2ee0705f08d3","ios":"levelo://app?vid=2dcea597-6175-45f7-be3e-2ee0705f08d3"},"vehicle_type_id":"4","last_reported":1738325798,"current_range_meters":38800,"station_id":"ce4bhhh2rcd13ifvqfl0","pricing_plan_id":"cebpf4jnsgd1na2vs0mg"},{"bike_id":"803e03d8-7d2e-4feb-ac46-774902d16dee","system_id":"levelo_inurba_marseille","lat":43.33759,"lon":5.37451,"is_reserved":false,"is_disabled":true,"rental_uris":{"android":"levelo://app?vid=803e03d8-7d2e-4feb-ac46-774902d16dee","ios":"levelo://app?vid=803e03d8-7d2e-4feb-ac46-774902d16dee"},"vehicle_type_id":"4","last_reported":1738325798,"current_range_meters":37600,"station_id":"","pricing_plan_id":"cebpf4jnsgd1na2vs0mg"},{"bike_id":"baa29b07-c929-4791-93f4-403cf3c9ae74","system_id":"levelo_inurba_marseille","lat":43.29922,"lon":5.37476,"is_reserved":false,"is_disabled":false,"rental_uris":{"android":"levelo://app?vid=baa29b07-c929-4791-93f4-403cf3c9ae74","ios":"levelo://app?vid=baa29b07-c929-4791-93f4-403cf3c9ae74"},"vehicle_type_id":"4","last_reported":1738325798,"current_range_meters":18000,"station_id":"ce4bgjh2rcd13ifvqbg0","pricing_plan_id":"cebpf4jnsgd1na2vs0mg"},{"bike_id":"1ecb4748-efce-4413-add5-a69f34ad7b53","system_id":"levelo_inurba_marseille","lat":43.30321,"lon":5.40442,"is_reserved":false,"is_disabled":false,"rental_uris":{"android":"levelo://app?vid=1ecb4748-efce-4413-add5-a69f34ad7b53","ios":"levelo://app?vid=1ecb4748-efce-4413-add5-a69f34ad7b53"},"vehicle_type_id":"4","last_reported":1738325798,"current_range_meters":17600,"station_id":"ce4bh012rcd13ifvqd10","pricing_plan_id":"cebpf4jnsgd1na2vs0mg"},{"bike_id":"e5def705-2dc3-43ec-a3a2-c128c99d624f","system_id":"levelo_inurba_marseille","lat":43.29533,"lon":5.38546,"is_reserved":false,"is_disabled":false,"rental_uris":{"android":"levelo://app?vid=e5def705-2dc3-43ec-a3a2-c128c99d624f","ios":"levelo://app?vid=e5def705-2dc3-43ec-a3a2-c128c99d624f"},"vehicle_type_id":"4","last_reported":1738325798,"current_range_meters":19600,"station_id":"ce4bgih2rcd13ifvqba0","pricing_plan_id":"cebpf4jnsgd1na2vs0mg"},{"bike_id":"dc573196-33ef-4275-9d66-f58d3ad63513","system_id":"levelo_inurba_marseille","lat":43.27073,"lon":5.42281,"is_reserved":false,"is_disabled":false,"rental_uris":{"android":"levelo://app?vid=dc573196-33ef-4275-9d66-f58d3ad63513","ios":"levelo://app?vid=dc573196-33ef-4275-9d66-f58d3ad63513"},"vehicle_type_id":"4","last_reported":1738325798,"current_range_meters":11200,"station_id":"ce4bhk92rcd13ifvqgb0","pricing_plan_id":"cebpf4jnsgd1na2vs0mg"},{"bike_id":"f0014efe-59be-4c6a-b455-e28e23b4487f","system_id":"levelo_inurba_marseille","lat":43.2783,"lon":5.40739,"is_reserved":false,"is_disabled":false,"rental_uris":{"android":"levelo://app?vid=f0014efe-59be-4c6a-b455-e28e23b4487f","ios":"levelo://app?vid=f0014efe-59be-4c6a-b455-e28e23b4487f"},"vehicle_type_id":"4","last_reported":1738325798,"current_range_meters":30400,"station_id":"ce4bhnh2rcd13ifvqgtg","pricing_plan_id":"cebpf4jnsgd1na2vs0mg"},{"bike_id":"f0fe694a-a86b-4087-9f29-87ad2ef34bfa","system_id":"levelo_inurba_marseille","lat":43.28634,"lon":5.35106,"is_reserved":false,"is_disabled":false,"rental_uris":{"android":"levelo://app?vid=f0fe694a-a86b-4087-9f29-87ad2ef34bfa","ios":"levelo://app?vid=f0fe694a-a86b-4087-9f29-87ad2ef34bfa"},"vehicle_type_id":"4","last_reported":1738325798,"current_range_meters":24400,"station_id":"ce4bhch2rcd13ifvqeug","pricing_plan_id":"cebpf4jnsgd1na2vs0mg"},{"bike_id":"6337d338-3511-4993-ada0-12102998e834","system_id":"levelo_inurba_marseille","lat":43.230632,"lon":5.35492,"is_reserved":false,"is_disabled":false,"rental_uris":{"android":"levelo://app?vid=6337d338-3511-4993-ada0-12102998e834","ios":"levelo://app?vid=6337d338-3511-4993-ada0-12102998e834"},"vehicle_type_id":"4","last_reported":1738325798,"current_range_meters":16000,"station_id":"cpo3342slgdg3j2ifvpg","pricing_plan_id":"cebpf4jnsgd1na2vs0mg"},{"bike_id":"fe003c8d-49c9-48fb-b04d-8f90aac5a3e9","system_id":"levelo_inurba_marseille","lat":43.24995,"lon":5.3894,"is_reserved":false,"is_disabled":false,"rental_uris":{"android":"levelo://app?vid=fe003c8d-49c9-48fb-b04d-8f90aac5a3e9","ios":"levelo://app?vid=fe003c8d-49c9-48fb-b04d-8f90aac5a3e9"},"vehicle_type_id":"4","last_reported":1738325798,"current_range_meters":35200,"station_id":"ce4bhgp2rcd13ifvqfd0","pricing_plan_id":"cebpf4jnsgd1na2vs0mg"},{"bike_id":"be1f1446-b184-4667-ae21-4a57f26429a4","system_id":"levelo_inurba_marseille","lat":43.28572,"lon":5.39497,"is_reserved":false,"is_disabled":false,"rental_uris":{"android":"levelo://app?vid=be1f1446-b184-4667-ae21-4a57f26429a4","ios":"levelo://app?vid=be1f1446-b184-4667-ae21-4a57f26429a4"},"vehicle_type_id":"4","last_reported":1738325798,"current_range_meters":35600,"station_id":"ce4bh292rcd13ifvqdg0","pricing_plan_id":"cebpf4jnsgd1na2vs0mg"},