{"last_updated":1739185647,"ttl":60,"version":"2.2","data":{"bikes":[{"bike_id":"9b232bcd-84e3-4ef9-b08f-211b12d665ca","system_id":"levelo_inurba_marseille","lat":43.29862,"lon":5.36297,"is_reserved":false,"is_disabled":false,"rental_uris":{"android":"levelo://app?vid=9b232bcd-84e3-4ef9-b08f-211b12d665ca","ios":"levelo://app?vid=9b232bcd-84e3-4ef9-b08f-211b12d665ca"},"vehicle_type_id":"4","last_reported":1739185647,"current_range_meters":30000,"station_id":"ce4bgpp2rcd13ifvqc3g","pricing_plan_id":"cebpf4jnsgd1na2vs0mg"},{"bike_id":"42d66cff-1b5d-4b97-843e-1f79b17066a7","system_id":"levelo_inurba_marseille","lat":43.303246,"lon":5.404402,"is_reserved":false,"is_disabled":false,"rental_uris":{"android":"levelo://app?vid=42d66cff-1b5d-4b97-843e-1f79b17066a7","ios":"levelo://app?vid=42d66cff-1b5d-4b97-843e-1f79b17066a7"},"vehicle_type_id":"4","last_reported":1739185647,"current_range_meters":16000,"station_id":"ce4bh012rcd13ifvqd10","pricing_plan_id":"cebpf4jnsgd1na2vs0mg"},{"bike_id":"dc69b6ce-4f29-41fc-bb71-87b19b25f9f1","system_id":"levelo_inurba_marseille","lat":43.30475,"lon":5.37914,"is_reserved":false,"is_disabled":false,"rental_uris":{"android":"levelo://app?vid=dc69b6ce-4f29-41fc-bb71-87b19b25f9f1","ios":"levelo://app?vid=dc69b6ce-4f29-41fc-bb71-87b19b25f9f1"},"vehicle_type_id":"4","last_reported":1739185647,"current_range_meters":13600,"station_id":"ce4bgup2rcd13ifvqcn0","pricing_plan_id":"cebpf4jnsgd1na2vs0mg"},{"bike_id":"9144fded-e5c8-4434-a033-6a7428b34557","system_id":"levelo_inurba_marseille","lat":43.23953,"lon":5.36645,"is_reserved":false,"is_disabled":false,"rental_uris":{"android":"levelo://app?vid=9144fded-e5c8-4434-a033-6a7428b34557","ios":"levelo://app?vid=9144fded-e5c8-4434-a033-6a7428b34557"},"vehicle_type_id":"4","last_reported":1739185647,"current_range_meters":8400,"station_id":"ce4bhi12rcd13ifvqfp0","pricing_plan_id":"cebpf4jnsgd1na2vs0mg"},{"bike_id":"cfd52737-4bdd-4656-ace1-4b393564196e","system_id":"levelo_inurba_marseille","lat":43.26481,"lon":5.39558,"is_reserved":false,"is_disabled":true,"rental_uris":{"android":"levelo://app?vid=cfd52737-4bdd-4656-ace1-4b393564196e","ios":"levelo://app?vid=cfd52737-4bdd-4656-ace1-4b393564196e"},"vehicle_type_id":"4","last_reported":1739185647,"current_range_meters":5600,"station_id":"ce4bhi12rcd13ifvqfq0","pricing_plan_id":"cebpf4jnsgd1na2vs0mg"},{"bike_id":"222ed28d-f68c-48a1-8141-246ac0d9571f","system_id":"levelo_inurba_marseille","lat":43.30151,"lon":5.37416,"is_reserved":false,"is_disabled":false,"rental_uris":{"android":"levelo://app?vid=222ed28d-f68c-48a1-8141-246ac0d9571f","ios":"levelo://app?vid=222ed28d-f68c-48a1-8141-246ac0d9571f"},"vehicle_type_id":"4","last_reported":1739185647,"current_range_meters":38000,"station_id":"ce4bgs92rcd13ifvqcc0","pricing_plan_id":"cebpf4jnsgd1na2vs0mg"},{"bike_id":"cd0ebd4f-6385-4615-8d6b-6b3cfeed5bc2","system_id":"levelo_inurba_marseille","lat":43.26789,"lon":5.39423,"is_reserved":false,"is_disabled":false,"rental_uris":{"android":"levelo://app?vid=cd0ebd4f-6385-4615-8d6b-6b3cfeed5bc2","ios":"levelo://app?vid=cd0ebd4f-6385-4615-8d6b-6b3cfeed5bc2"},"vehicle_type_id":"4","last_reported":1739185647,"current_range_meters":38800,"station_id":"ce4bhh12rcd13ifvqfg0","pricing_plan_id":"cebpf4jnsgd1na2vs0mg"},{"bike_id":"c821a5a7-7d37-4ed1-9337-8dde6a7c2aeb","system_id":"levelo_inurba_marseille","lat":43.32081,"lon":5.41539,"is_reserved":false,"is_disabled":false,"rental_uris":{"android":"levelo://app?vid=c821a5a7-7d37-4ed1-9337-8dde6a7c2aeb","ios":"levelo://app?vid=c821a5a7-7d37-4ed1-9337-8dde6a7c2aeb"},"vehicle_type_id":"4","last_reported":1739185647,"current_range_meters":38800,"station_id":"ce4bhq92rcd13ifvqhkg","pricing_plan_id":"cebpf4jnsgd1na2vs0mg"},{"bike_id":"ceb4f42b-4e2d-4180-924f-a68210d62481","system_id":"levelo_inurba_marseille","lat":43.26033,"lon":5.37565,"is_reserved":false,"is_disabled":false,"rental_uris":{"android":"levelo://app?vid=ceb4f42b-4e2d-4180-924f-a68210d62481","ios":"levelo://app?vid=ceb4f42b-4e2d-4180-924f-a68210d62481"},"vehicle_type_id":"4","last_reported":1739185647,"current_range_meters":38800,"station_id":"ce4bhgh2rcd13ifvqfa0","pricing_plan_id":"cebpf4jnsgd1na2vs0mg"},{"bike_id":"0654d2df-4cd5-4cdb-90ac-551a205da9d1","system_id":"levelo_inurba_marseille","lat":43.2953,"lon":5.40085,"is_reserved":false,"is_disabled":false,"rental_uris":{"android":"levelo://app?vid=0654d2df-4cd5-4cdb-90ac-551a205da9d1","ios":"levelo://app?vid=0654d2df-4cd5-4cdb-90ac-551a205da9d1"},"vehicle_type_id":"4","last_reported":1739185647,"current_range_meters":23200,"station_id":"","pricing_plan_id":"cebpf4jnsgd1na2vs0mg"},{"bike_id":"952ab6ee-c71f-431a-a116-28c771dc3a24","system_id":"levelo_inurba_marseille","lat":43.27931,"lon":5.41038,"is_reserved":false,"is_disabled":true,"rental_uris":{"android":"levelo://app?vid=952ab6ee-c71f-431a-a116-28c771dc3a24","ios":"levelo://app?vid=952ab6ee-c71f-431a-a116-28c771dc3a24"},"vehicle_type_id":"4","last_reported":1739185647,"current_range_meters":0,"station_id":"ce4bhnp2rcd13ifvqh0g","pricing_plan_id":"cebpf4jnsgd1na2vs0mg"},{"bike_id":"d2ca646d-6c43-44e0-9ebb-f44c4b2c8ad4","system_id":"levelo_inurba_marseille","lat":43.33614,"lon":5.41033,"is_reserved":false,"is_disabled":false,"rental_uris":{"android":"levelo://app?vid=d2ca646d-6c43-44e0-9ebb-f44c4b2c8ad4","ios":"levelo://app?vid=d2ca646d-6c43-44e0-9ebb-f44c4b2c8ad4"},"vehicle_type_id":"4","last_reported":1739185647,"current_range_meters":18800,"station_id":"ce4bhqh2rcd13ifvqhmg","pricing_plan_id":"cebpf4jnsgd1na2vs0mg"},{"bike_id":"666c88b7-919a-45fe-b6a0-eceee0aaa826","system_id":"levelo_inurba_marseille","lat":43.30948,"lon":5.39048,"is_reserved":false,"is_disabled":false,"rental_uris":{"android":"levelo://app?vid=666c88b7-919a-45fe-b6a0-eceee0aaa826","ios":"levelo://app?vid=666c88b7-919a-45fe-b6a0-eceee0aaa826"},"vehicle_type_id":"4","last_reported":1739185647,"current_range_meters":10000,"station_id":"","pricing_plan_id":"cebpf4jnsgd1na2vs0mg"},{"bike_id":"dc3d08fc-10d7-48db-9b08-700191c05140","system_id":"levelo_inurba_marseille","lat":43.31697,"lon":5.40474,"is_reserved":false,"is_disabled":false,"rental_uris":{"android":"levelo://app?vid=dc3d08fc-10d7-48db-9b08-700191c05140","ios":"levelo://app?vid=dc3d08fc-10d7-48db-9b08-700191c05140"},"vehicle_type_id":"4","last_reported":1739185647,"current_range_meters":39200,"station_id":"ce4bh012rcd13ifvqd00","pricing_plan_id":"cebpf4jnsgd1na2vs0mg"},{"bike_id":"5914660b-319d-4352-a61c-05c50a2afe1d","system_id":"levelo_inurba_marseille","lat":43.24661,"lon":5.38172,"is_reserved":false,"is_disabled":false,"rental_uris":{"android":"levelo://app?vid=5914660b-319d-4352-a61c-05c50a2afe1d","ios":"levelo://app?vid=5914660b-319d-4352-a61c-05c50a2afe1d"},"vehicle_type_id":"4","last_reported":1739185647,"current_range_meters":38800,"station_id":"ce4bhih2rcd13ifvqfr0","pricing_plan_id":"cebpf4jnsgd1na2vs0mg"},{"bike_id":"f65fd210-0eee-483d-9358-a299c163c8fd","system_id":"levelo_inurba_marseille","lat":43.31695,"lon":5.40468,"is_reserved":false,"is_disabled":false,"rental_uris":{"android":"levelo://app?vid=f65fd210-0eee-483d-9358-a299c163c8fd","ios":"levelo://app?vid=f65fd210-0eee-483d-9358-a299c163c8fd"},"vehicle_type_id":"4","last_reported":1739185647,"current_range_meters":39200,"station_id":"ce4bh012rcd13ifvqd00","pricing_plan_id":"cebpf4jnsgd1na2vs0mg"},{"bike_id":"c428e530-758e-4257-a45d-284cf698b93d","system_id":"levelo_inurba_marseille","lat":43.27201,"lon":5.39185,"is_reserved":false,"is_disabled":false,"rental_uris":{"android":"levelo://app?vid=c428e530-758e-4257-a45d-284cf698b93d","ios":"levelo://app?vid=c428e530-758e-4257-a45d-284cf698b93d"},"vehicle_type_id":"4","last_reported":1739185647,"current_range_meters":22000,"station_id":"ce4bhhp2rcd13ifvqfm0","pricing_plan_id":"cebpf4jnsgd1na2vs0mg"},{"bike_id":"8f12390c-af69-4862-a0d2-362d8c813fa9","system_id":"levelo_inurba_marseille","lat":43.29878,"lon":5.39743,"is_reserved":false,"is_disabled":false,"rental_uris":{"android":"levelo://app?vid=8f12390c-af69-4862-a0d2-362d8c813fa9","ios":"levelo://app?vid=8f12390c-af69-4862-a0d2-362d8c813fa9"},"vehicle_type_id":"4","last_reported":1739185647,"current_range_meters":39200,"station_id":"ce4bh0h2rcd13ifvqd50","pricing_plan_id":"cebpf4jnsgd1na2vs0mg"},{"bike_id":"27b79768-bfb5-4acf-aea3-498440a8fca1","system_id":"levelo_inurba_marseille","lat":43.30957,"lon":5.39067,"is_reserved":false,"is_disabled":false,"rental_uris":{"android":"levelo://app?vid=27b79768-bfb5-4acf-aea3-498440a8fca1","ios":"levelo://app?vid=27b79768-bfb5-4acf-aea3-498440a8fca1"},"vehicle_type_id":"4","last_reported":1739185647,"current_range_meters":11200,"station_id":"","pricing_plan_id":"cebpf4jnsgd1na2vs0mg"},{"bike_id":"7997428c-3fb5-43eb-8b41-6fd0852fe719","system_id":"levelo_inurba_marseille","lat":43.30527,"lon":5.36714,"is_reserved":false,"is_disabled":false,"rental_uris":{"android":"levelo://app?vid=7997428c-3fb5-43eb-8b41-6fd0852fe719","ios":"levelo://app?vid=7997428c-3fb5-43eb-8b41-6fd0852fe719"},"vehicle_type_id":"4","last_reported":1739185647,"current_range_meters":28800,"station_id":"ce4bgrp2rcd13ifvqc9g","pricing_plan_id":"cebpf4jnsgd1na2vs0mg"},{"bike_id":"73e1ccc6-56be-4f76-b8b9-cf13350c3c38","system_id":"levelo_inurba_marseille","lat":43.28155,"lon":5.42653,"is_reserved":false,"is_disabled":false,"rental_uris":{"android":"levelo://app?vid=73e1ccc6-56be-4f76-b8b9-cf13350c3c38","ios":"levelo://app?vid=73e1ccc6-56be-4f76-b8b9-cf13350c3c38"},"vehicle_type_id":"4","last_reported":1739185647,"current_range_meters":38800,"station_id":"ce4bhnh2rcd13ifvqgug","pricing_plan_id":"cebpf4jnsgd1na2vs0mg"},{"bike_id":"734ad8ef-8f3b-4a01-b800-99f2e0cd8cb3","system_id":"levelo_inurba_marseille","lat":43.28587,"lon":5.36741,"is_reserved":false,"is_disabled":false,"rental_uris":{"android":"levelo://app?vid=734ad8ef-8f3b-4a01-b800-99f2e0cd8cb3","ios":"levelo://app?vid=734ad8ef-8f3b-4a01-b800-99f2e0cd8cb3"},"vehicle_type_id":"4","last_reported":1739185647,"current_range_meters":19200,"station_id":"","pricing_plan_id":"cebpf4jnsgd1na2vs0mg"},{"bike_id":"ab477c97-eb80-4558-9f73-598dbf16e965","system_id":"levelo_inurba_marseille","lat":43.295948,"lon":5.36745,"is_reserved":false,"is_disabled":false,"rental_uris":{"android":"levelo://app?vid=ab477c97-eb80-4558-9f73-598dbf16e965","ios":"levelo://app?vid=ab477c97-eb80-4558-9f73-598dbf16e965"},"vehicle_type_id":"4","last_reported":1739185647,"current_range_meters":12400,"station_id":"ce4bgph2rcd13ifvqc2g","pricing_plan_id":"cebpf4jnsgd1na2vs0mg"},{"bike_id":"076c0651-d5f8-4904-be2b-80257efd1318","system_id":"levelo_inurba_marseille","lat":43.29883,"lon":5.3627,"is_reserved":false,"is_disabled":false,"rental_uris":{"android":"levelo://app?vid=076c0651-d5f8-4904-be2b-80257efd1318","ios":"levelo://app?vid=076c0651-d5f8-4904-be2b-80257efd1318"},"vehicle_type_id":"4","last_reported":1739185647,"current_range_meters":38800,"station_id":"ce4bgpp2rcd13ifvqc3g","pricing_plan_id":"cebpf4jnsgd1na2vs0mg"},{"bike_id":"bf1166a6-6d02-4b59-a461-8ee8d9697ddf","system_id":"levelo_inurba_marseille","lat":43.2396,"lon":5.36684,"is_reserved":false,"is_disabled":false,"rental_uris":{"android":"levelo://app?vid=bf1166a6-6d02-4b59-a461-8ee8d9697ddf","ios":"levelo://app?vid=bf1166a6-6d02-4b59-a461-8ee8d9697ddf"},"vehicle_type_id":"4","last_reported":1739185647,"current_range_meters":37600,"station_id":"ce4bhi12rcd13ifvqfp0","pricing_plan_id":"cebpf4jnsgd1na2vs0mg"},{"bike_id":"aa225991-345f-42dc-a7e3-708559444558","system_id":"levelo_inurba_marseille","lat":43.26188,"lon":5.37461,"is_reserved":false,"is_disabled":false,"rental_uris":{"android":"levelo://app?vid=aa225991-345f-42dc-a7e3-708559444558","ios":"levelo://app?vid=aa225991-345f-42dc-a7e3-708559444558"},"vehicle_type_id":"4","last_reported":1739185647,"current_range_meters":22800,"station_id":"ce4bhgp2rcd13ifvqfc0","pricing_plan_id":"cebpf4jnsgd1na2vs0mg"},{"bike_id":"991cdeab-79e0-4775-91e7-8704c21b3bff","system_id":"levelo_inurba_marseille","lat":43.28569,"lon":5.39516,"is_reserved":false,"is_disabled":false,"rental_uris":{"android":"levelo://app?vid=991cdeab-79e0-4775-91e7-8704c21b3bff","ios":"levelo://app?vid=991cdeab-79e0-4775-91e7-8704c21b3bff"},"vehicle_type_id":"4","last_reported":1739185647,"current_range_meters":38800,"station_id":"ce4bh292rcd13ifvqdg0","pricing_plan_id":"cebpf4jnsgd1na2vs0mg"},{"bike_id":"f724196f-aefe-4fe0-afe8-cbd3b18deab1","system_id":"levelo_inurba_marseille","lat":43.24816,"lon":5.37457,"is_reserved":false,"is_disabled":false,"rental_uris":{"android":"levelo://app?vid=f724196f-aefe-4fe0-afe8-cbd3b18deab1","ios":"levelo://app?vid=f724196f-aefe-4fe0-afe8-cbd3b18deab1"},"vehicle_type_id":"4","last_reported":1739185647,"current_range_meters":38800,"station_id":"ce4bhgh2rcd13ifvqfb0","pricing_plan_id":"cebpf4jnsgd1na2vs0mg"},{"bike_id":"65a7c23e-796e-448a-9c20-43066b092b67","system_id":"levelo_inurba_marseille","lat":43.23957,"lon":5.36672,"is_reserved":false,"is_disabled":false,"rental_uris":{"android":"levelo://app?vid=65a7c23e-796e-448a-9c20-43066b092b67","ios":"levelo://app?vid=65a7c23e-796e-448a-9c20-43066b092b67"},"vehicle_type_id":"4","last_reported":1739185647,"current_range_meters":26000,"station_id":"ce4bhi12rcd13ifvqfp0","pricing_plan_id":"cebpf4jnsgd1na2vs0mg"},{"bike_id":"caa5df8d-7e03-466c-a218-989234e1b71c","system_id":"levelo_inurba_marseille","lat":43.32382,"lon":5.36782,"is_reserved":false,"is_disabled":false,"rental_uris":{"android":"levelo://app?vid=caa5df8d-7e03-466c-a218-989234e1b71c","ios":"levelo://app?vid=caa5df8d-7e03-466c-a218-989234e1b71c"},"vehicle_type_id":"4","last_reported":1739185647,"current_range_meters":33200,"station_id":"ce4bhsh2rcd13ifvqi2g","pricing_plan_id":"cebpf4jnsgd1na2vs0mg"},{"bike_id":"a729ba28-c073-4dc7-aac2-2f030ac6b8e2","system_id":"levelo_inurba_marseille","lat":43.25817,"lon":5.39435,"is_reserved":false,"is_disabled":false,"rental_uris":{"android":"levelo://app?vid=a729ba28-c073-4dc7-aac2-2f030ac6b8e2","ios":"levelo://app?vid=a729ba28-c073-4dc7-aac2-2f030ac6b8e2"},"vehicle_type_id":"4","last_reported":1739185647,"current_range_meters":39200,"station_id":"ce4bhip2rcd13ifvqft0","pricing_plan_id":"cebpf4jnsgd1na2vs0mg"},{"bike_id":"2d6a2e4c-47bb-4bf8-8e22-1e9c987f8b16","system_id":"levelo_inurba_marseille","lat":43.239615,"lon":5.366389,"is_reserved":false,"is_disabled":false,"rental_uris":{"android":"levelo://app?vid=2d6a2e4c-47bb-4bf8-8e22-1e9c987f8b16","ios":"levelo://app?vid=2d6a2e4c-47bb-4bf8-8e22-1e9c987f8b16"},"vehicle_type_id":"4","last_reported":1739185647,"current_range_meters":38000,"station_id":"ce4bhi12rcd13ifvqfp0","pricing_plan_id":"cebpf4jnsgd1na2vs0mg"},{"bike_id":"a807e1ce-738e-4dba-93a9-7189502bcc40","system_id":"levelo_inurba_marseille","lat":43.2901,"lon":5.35611,"is_reserved":false,"is_disabled":false,"rental_uris":{"android":"levelo://app?vid=a807e1ce-738e-4dba-93a9-7189502bcc40","ios":"levelo://app?vid=a807e1ce-738e-4dba-93a9-7189502bcc40"},"vehicle_type_id":"4","last_reported":1739185647,"current_range_meters":28400,"station_id":"ce4bhb92rcd13ifvqen0","pricing_plan_id":"cebpf4jnsgd1na2vs0mg"},{"bike_id":"7dcbe0b9-0e25-410c-a9e9-55d48978ea00","system_id":"levelo_inurba_marseille","lat":43.32476,"lon":5.36579,"is_reserved":false,"is_disabled":false,"rental_uris":{"android":"levelo://app?vid=7dcbe0b9-0e25-410c-a9e9-55d48978ea00","ios":"levelo://app?vid=7dcbe0b9-0e25-410c-a9e9-55d48978ea00"},"vehicle_type_id":"4","last_reported":1739185647,"current_range_meters":38800,"station_id":"ce4bhs12rcd13ifvqhvg","pricing_plan_id":"cebpf4jnsgd1na2vs0mg"},{"bike_id":"a0522417-36fc-4abc-b26e-481d978b4ac9","system_id":"levelo_inurba_marseille","lat":43.29371,"lon":5.37867,"is_reserved":false,"is_disabled":false,"rental_uris":{"android":"levelo://app?vid=a0522417-36fc-4abc-b26e-481d978b4ac9","ios":"levelo://app?vid=a0522417-36fc-4abc-b26e-481d978b4ac9"},"vehicle_type_id":"4","last_reported":1739185647,"current_range_meters":37600,"station_id":"ce4bgjh2rcd13ifvqbf0","pricing_plan_id":"cebpf4jnsgd1na2vs0mg"},{"bike_id":"3ba26bce-5451-4186-8570-150535f6ec60","system_id":"levelo_inurba_marseille","lat":43.29194,"lon":5.35807,"is_reserved":false,"is_disabled":false,"rental_uris":{"android":"levelo://app?vid=3ba26bce-5451-4186-8570-150535f6ec60","ios":"levelo://app?vid=3ba26bce-5451-4186-8570-150535f6ec60"},"vehicle_type_id":"4","last_reported":1739185647,"current_range_meters":38400,"station_id":"ce4bhb12rcd13ifvqel0","pricing_plan_id":"cebpf4jnsgd1na2vs0mg"},{"bike_id":"01af4737-3c1f-41a4-a87e-b77078df4a8c","system_id":"levelo_inurba_marseille","lat":43.27887,"lon":5.38004,"is_reserved":false,"is_disabled":false,"rental_uris":{"android":"levelo://app?vid=01af4737-3c1f-41a4-a87e-b77078df4a8c","ios":"levelo://app?vid=01af4737-3c1f-41a4-a87e-b77078df4a8c"},"vehicle_type_id":"4","last_reported":1739185647,"current_range_meters":35600,"station_id":"ce4bhf92rcd13ifvqf50","pricing_plan_id":"cebpf4jnsgd1na2vs0mg"},{"bike_id":"f7664c8b-6032-41b2-9355-bc31c4ae36c6","system_id":"levelo_inurba_marseille","lat":43.30916,"lon":5.36871,"is_reserved":false,"is_disabled":false,"rental_uris":{"android":"levelo://app?vid=f7664c8b-6032-41b2-9355-bc31c4ae36c6","ios":"levelo://app?vid=f7664c8b-6032-41b2-9355-bc31c4ae36c6"},"vehicle_type_id":"4","last_reported":1739185647,"current_range_meters":38800,"station_id":"ce4bgn92rcd13ifvqbvg","pricing_plan_id":"cebpf4jnsgd1na2vs0mg"},{"bike_id":"3420ba21-9d1f-4078-b5f0-2db9b8324718","system_id":"levelo_inurba_marseille","lat":43.26212,"lon":5.37443,"is_reserved":false,"is_disabled":false,"rental_uris":{"android":"levelo://app?vid=3420ba21-9d1f-4078-b5f0-2db9b8324718","ios":"levelo://app?vid=3420ba21-9d1f-4078-b5f0-2db9b8324718"},"vehicle_type_id":"4","last_reported":1739185647,"current_range_meters":30400,"station_id":"ce4bhgp2rcd13ifvqfc0","pricing_plan_id":"cebpf4jnsgd1na2vs0mg"},{"bike_id":"e6b3befe-3540-4486-bbb2-b37e93074af5","system_id":"levelo_inurba_marseille","lat":43.28108,"lon":5.37845,"is_reserved":false,"is_disabled":false,"rental_uris":{"android":"levelo://app?vid=e6b3befe-3540-4486-bbb2-b37e93074af5","ios":"levelo://app?vid=e6b3befe-3540-4486-bbb2-b37e93074af5"},"vehicle_type_id":"4","last_reported":1739185647,"current_range_meters":26000,"station_id":"ce4bha12rcd13ifvqee0","pricing_plan_id":"cebpf4jnsgd1na2vs0mg"},{"bike_id":"eeada6f9-bc17-47bf-a657-75c63cc565ad","system_id":"levelo_inurba_marseille","lat":43.28996,"lon":5.35629,"is_reserved":false,"is_disabled":false,"rental_uris":{"android":"levelo://app?vid=eeada6f9-bc17-47bf-a657-75c63cc565ad","ios":"levelo://app?vid=eeada6f9-bc17-47bf-a657-75c63cc565ad"},"vehicle_type_id":"4","last_reported":1739185647,"current_range_meters":36000,"station_id":"ce4bhb92rcd13ifvqen0","pricing_plan_id":"cebpf4jnsgd1na2vs0mg"},{"bike_id":"2ebd233c-fd15-4f13-9700-c155c053523f","system_id":"levelo_inurba_marseille","lat":43.257182,"lon":5.41063,"is_reserved":false,"is_disabled":false,"rental_uris":{"android":"levelo://app?vid=2ebd233c-fd15-4f13-9700-c155c053523f","ios":"levelo://app?vid=2ebd233c-fd15-4f13-9700-c155c053523f"},"vehicle_type_id":"4","last_reported":1739185647,"current_range_meters":38800,"station_id":"ce4bhkp2rcd13ifvqgd0","pricing_plan_id":"cebpf4jnsgd1na2vs0mg"},{"bike_id":"3cec9b73-5754-4090-b335-cfb9fae89528","system_id":"levelo_inurba_marseille","lat":43.30469,"lon":5.3791,"is_reserved":false,"is_disabled":false,"rental_uris":{"android":"levelo://app?vid=3cec9b73-5754-4090-b335-cfb9fae89528","ios":"levelo://app?vid=3cec9b73-5754-4090-b335-cfb9fae89528"},"vehicle_type_id":"4","last_reported":1739185647,"current_range_meters":28400,"station_id":"ce4bgup2rcd13ifvqcn0","pricing_plan_id":"cebpf4jnsgd1na2vs0mg"},{"bike_id":"be380a6b-c9c9-4b46-8385-5a09eaa3ab35","system_id":"levelo_inurba_marseille","lat":43.27067,"lon":5.42275,"is_reserved":false,"is_disabled":false,"rental_uris":{"android":"levelo://app?vid=be380a6b-c9c9-4b46-8385-5a09eaa3ab35","ios":"levelo://app?vid=be380a6b-c9c9-4b46-8385-5a09eaa3ab35"},"vehicle_type_id":"4","last_reported":1739185647,"current_range_meters":39200,"station_id":"ce4bhk92rcd13ifvqgb0","pricing_plan_id":"cebpf4jnsgd1na2vs0mg"},{"bike_id":"633dfc8d-39ad-49bc-ade6-ac7444d212b7","system_id":"levelo_inurba_marseille","lat":43.27077,"lon":5.42278,"is_reserved":false,"is_disabled":false,"rental_uris":{"android":"levelo://app?vid=633dfc8d-39ad-49bc-ade6-ac7444d212b7","ios":"levelo://app?vid=633dfc8d-39ad-49bc-ade6-ac7444d212b7"},"vehicle_type_id":"4","last_reported":1739185647,"current_range_meters":38800,"station_id":"ce4bhk92rcd13ifvqgb0","pricing_plan_id":"cebpf4jnsgd1na2vs0mg"},{"bike_id":"e3754be0-a936-4ca0-a876-8936c8812fa0","system_id":"levelo_inurba_marseille","lat":43.30955,"lon":5.39073,"is_reserved":false,"is_disabled":false,"rental_uris":{"android":"levelo://app?vid=e3754be0-a936-4ca0-a876-8936c8812fa0","ios":"levelo://app?vid=e3754be0-a936-4ca0-a876-8936c8812fa0"},"vehicle_type_id":"4","last_reported":1739185647,"current_range_meters":24000,"station_id":"","pricing_plan_id":"cebpf4jnsgd1na2vs0mg"},{"bike_id":"54ddf2fc-fce8-4cb8-8609-f406fe89a9b2","system_id":"levelo_inurba_marseille","lat":43.24995,"lon":5.38943,"is_reserved":false,"is_disabled":false,"rental_uris":{"android":"levelo://app?vid=54ddf2fc-fce8-4cb8-8609-f406fe89a9b2","ios":"levelo://app?vid=54ddf2fc-fce8-4cb8-8609-f406fe89a9b2"},"vehicle_type_id":"4","last_reported":1739185647,"current_range_meters":8000,"station_id":"ce4bhgp2rcd13ifvqfd0","pricing_plan_id":"cebpf4jnsgd1na2vs0mg"},{"bike_id":"116e6d43-ae1a-4341-bd58-d920378b3c51","system_id":"levelo_inurba_marseille","lat":43.281,"lon":5.37851,"is_reserved":false,"is_disabled":false,"rental_uris":{"android":"levelo://app?vid=116e6d43-ae1a-4341-bd58-d920378b3c51","ios":"levelo://app?vid=116e6d43-ae1a-4341-bd58-d920378b3c51"},"vehicle_type_id":"4","last_reported":1739185647,"current_range_meters":28400,"station_id":"ce4bha12rcd13ifvqee0","pricing_plan_id":"cebpf4jnsgd1na2vs0mg"},{"bike_id":"bd8ca020-fda8-4805-b382-496c28d5da7f","system_id":"levelo_inurba_marseille","lat":43.30947,"lon":5.39069,"is_reserved":false,"is_disabled":true,"rental_uris":{"android":"levelo://app?vid=bd8ca020-fda8-4805-b382-496c28d5da7f","ios":"levelo://app?vid=bd8ca020-fda8-4805-b382-496c28d5da7f"},"vehicle_type_id":"4","last_reported":1739185647,"current_range_meters":20800,"station_id":"","pricing_plan_id":"cebpf4jnsgd1na2vs0mg"},{"bike_id":"2ba197c5-59fe-4a9c-ba96-b1806efdcd97","system_id":"levelo_inurba_marseille","lat":43.24185,"lon":5.39728,"is_reserved":false,"is_disabled":false,"rental_uris":{"android":"levelo://app?vid=2ba197c5-59fe-4a9c-ba96-b1806efdcd97","ios":"levelo://app?vid=2ba197c5-59fe-4a9c-ba96-b1806efdcd97"},"vehicle_type_id":"4","last_reported":1739185647,"current_range_meters":38800,"station_id":"ce4bhn12rcd13ifvqgpg","pricing_plan_id":"cebpf4jnsgd1na2vs0mg"},{"bike_id":"1d9b9c9d-363a-40b7-904e-bb37859e7849","system_id":"levelo_inurba_marseille","lat":43.24815,"lon":5.3746,"is_reserved":false,"is_disabled":false,"rental_uris":{"android":"levelo://app?vid=1d9b9c9d-363a-40b7-904e-bb37859e7849","ios":"levelo://app?vid=1d9b9c9d-363a-40b7-904e-bb37859e7849"},"vehicle_type_id":"4","last_reported":1739185647,"current_range_meters":20000,"station_id":"ce4bhgh2rcd13ifvqfb0","pricing_plan_id":"cebpf4jnsgd1na2vs0mg"},{"bike_id":"54447e38-6339-405e-9429-46cb3f7c09bc","system_id":"levelo_inurba_marseille","lat":43.30549,"lon":5.36685,"is_reserved":false,"is_disabled":false,"rental_uris":{"android":"levelo://app?vid=54447e38-6339-405e-9429-46cb3f7c09bc","ios":"levelo://app?vid=54447e38-6339-405e-9429-46cb3f7c09bc"},"vehicle_type_id":"4","last_reported":1739185647,"current_range_meters":30400,"station_id":"ce4bgrp2rcd13ifvqc9g","pricing_plan_id":"cebpf4jnsgd1na2vs0mg"},{"bike_id":"4aa3357b-7da5-4cd1-9c68-56ab75c8d392","system_id":"levelo_inurba_marseille","lat":43.28125,"lon":5.40528,"is_reserved":false,"is_disabled":false,"rental_uris":{"android":"levelo://app?vid=4aa3357b-7da5-4cd1-9c68-56ab75c8d392","ios":"levelo://app?vid=4aa3357b-7da5-4cd1-9c68-56ab75c8d392"},"vehicle_type_id":"4","last_reported":1739185647,"current_range_meters":21600,"station_id":"","pricing_plan_id":"cebpf4jnsgd1na2vs0mg"},{"bike_id":"a4049c4b-18af-4027-8124-7ed16b53be77","system_id":"levelo_inurba_marseille","lat":43.301561,"lon":5.380922,"is_reserved":false,"is_disabled":false,"rental_uris":{"android":"levelo://app?vid=a4049c4b-18af-4027-8124-7ed16b53be77","ios":"levelo://app?vid=a4049c4b-18af-4027-8124-7ed16b53be77"},"vehicle_type_id":"4","last_reported":1739185647,"current_range_meters":27200,"station_id":"","pricing_plan_id":"cebpf4jnsgd1na2vs0mg"},{"bike_id":"84b5c754-1a02-460d-afaa-5fd471a637c2","system_id":"levelo_inurba_marseille","lat":43.27055,"lon":5.40267,"is_reserved":false,"is_disabled":false,"rental_uris":{"android":"levelo://app?vid=84b5c754-1a02-460d-afaa-5fd471a637c2","ios":"levelo://app?vid=84b5c754-1a02-460d-afaa-5fd471a637c2"},"vehicle_type_id":"4","last_reported":1739185647,"current_range_meters":28400,"station_id":"ce4bhk92rcd13ifvqgc0","pricing_plan_id":"cebpf4jnsgd1na2vs0mg"},{"bike_id":"fb5a704f-a51b-458c-a6e9-f5586a789b94","system_id":"levelo_inurba_marseille","lat":43.24174,"lon":5.36409,"is_reserved":false,"is_disabled":false,"rental_uris":{"android":"levelo://app?vid=fb5a704f-a51b-458c-a6e9-f5586a789b94","ios":"levelo://app?vid=fb5a704f-a51b-458c-a6e9-f5586a789b94"},"vehicle_type_id":"4","last_reported":1739185647,"current_range_meters":30000,"station_id":"cpo36qri1sfpv3e86is0","pricing_plan_id":"cebpf4jnsgd1na2vs0mg"},{"bike_id":"8e48750f-8571-4505-9265-6955445b96c6","system_id":"levelo_inurba_marseille","lat":43.31246,"lon":5.36857,"is_reserved":false,"is_disabled":false,"rental_uris":{"android":"levelo://app?vid=8e48750f-8571-4505-9265-6955445b96c6","ios":"levelo://app?vid=8e48750f-8571-4505-9265-6955445b96c6"},"vehicle_type_id":"4","last_reported":1739185647,"current_range_meters":30000,"station_id":"ce4bgl92rcd13ifvqbq0","pricing_plan_id":"cebpf4jnsgd1na2vs0mg"},{"bike_id":"541b615b-e2ed-4faa-a27c-db4332c7fc44","system_id":"levelo_inurba_marseille","lat":43.26484,"lon":5.39551,"is_reserved":false,"is_disabled":false,"rental_uris":{"android":"levelo://app?vid=541b615b-e2ed-4faa-a27c-db4332c7fc44","ios":"levelo://app?vid=541b615b-e2ed-4faa-a27c-db4332c7fc44"},"vehicle_type_id":"4","last_reported":1739185647,"current_range_meters":38800,"station_id":"ce4bhi12rcd13ifvqfq0","pricing_plan_id":"cebpf4jnsgd1na2vs0mg"},{"bike_id":"4042ee3c-a2ee-40fd-bead-55344a5d803b","system_id":"levelo_inurba_marseille","lat":43.30159,"lon":5.38085,"is_reserved":false,"is_disabled":false,"rental_uris":{"android":"levelo://app?vid=4042ee3c-a2ee-40fd-bead-55344a5d803b","ios":"levelo://app?vid=4042ee3c-a2ee-40fd-bead-55344a5d803b"},"vehicle_type_id":"4","last_reported":1739185647,"current_range_meters":30400,"station_id":"ce4bgjp2rcd13ifvqbh0","pricing_plan_id":"cebpf4jnsgd1na2vs0mg"},{"bike_id":"8c64cd34-b552-4f0e-a31b-b0421037571a","system_id":"levelo_inurba_marseille","lat":43.29425,"lon":5.38621,"is_reserved":false,"is_disabled":true,"rental_uris":{"android":"levelo://app?vid=8c64cd34-b552-4f0e-a31b-b0421037571a","ios":"levelo://app?vid=8c64cd34-b552-4f0e-a31b-b0421037571a"},"vehicle_type_id":"4","last_reported":1739185647,"current_range_meters":34000,"station_id":"ce4bh2h2rcd13ifvqdh0","pricing_plan_id":"cebpf4jnsgd1na2vs0mg"},{"bike_id":"6104b12a-9d02-4baf-987c-541466586146","system_id":"levelo_inurba_marseille","lat":43.29008,"lon":5.35615,"is_reserved":false,"is_disabled":false,"rental_uris":{"android":"levelo://app?vid=6104b12a-9d02-4baf-987c-541466586146","ios":"levelo://app?vid=6104b12a-9d02-4baf-987c-541466586146"},"vehicle_type_id":"4","last_reported":1739185647,"current_range_meters":38800,"station_id":"ce4bhb92rcd13ifvqen0","pricing_plan_id":"cebpf4jnsgd1na2vs0mg"},{"bike_id":"61b62a5a-5bc2-487b-b92d-7b20142491cd","system_id":"levelo_inurba_marseille","lat":43.28704,"lon":5.39989,"is_reserved":false,"is_disabled":false,"rental_uris":{"android":"levelo://app?vid=61b62a5a-5bc2-487b-b92d-7b20142491cd","ios":"levelo://app?vid=61b62a5a-5bc2-487b-b92d-7b20142491cd"},"vehicle_type_id":"4","last_reported":1739185647,"current_range_meters":38800,"station_id":"ce4bho92rcd13ifvqh3g","pricing_plan_id":"cebpf4jnsgd1na2vs0mg"},{"bike_id":"b5135d91-2dbc-4326-bda2-20e06e74cbe2","system_id":"levelo_inurba_marseille","lat":43.29584,"lon":5.37026,"is_reserved":false,"is_disabled":true,"rental_uris":{"android":"levelo://app?vid=b5135d91-2dbc-4326-bda2-20e06e74cbe2","ios":"levelo://app?vid=b5135d91-2dbc-4326-bda2-20e06e74cbe2"},"vehicle_type_id":"4","last_reported":1739185647,"current_range_meters":12000,"station_id":"","pricing_plan_id":"cebpf4jnsgd1na2vs0mg"},{"bike_id":"167cf25b-6766-480f-a5ed-9c09e9c92509","system_id":"levelo_inurba_marseille","lat":43.26698,"lon":5.38277,"is_reserved":false,"is_disabled":false,"rental_uris":{"android":"levelo://app?vid=167cf25b-6766-480f-a5ed-9c09e9c92509","ios":"levelo://app?vid=167cf25b-6766-480f-a5ed-9c09e9c92509"},"vehicle_type_id":"4","last_reported":1739185647,"current_range_meters":39200,"station_id":"ce4bhg92rcd13ifvqf90","pricing_plan_id":"cebpf4jnsgd1na2vs0mg"},{"bike_id":"bb1bab95-412e-41ba-879a-c483b6ec0924","system_id":"levelo_inurba_marseille","lat":43.27829,"lon":5.4073,"is_reserved":false,"is_disabled":false,"rental_uris":{"android":"levelo://app?vid=bb1bab95-412e-41ba-879a-c483b6ec0924","ios":"levelo://app?vid=bb1bab95-412e-41ba-879a-c483b6ec0924"},"vehicle_type_id":"4","last_reported":1739185647,"current_range_meters":38400,"station_id":"ce4bhnh2rcd13ifvqgtg","pricing_plan_id":"cebpf4jnsgd1na2vs0mg"},{"bike_id":"57c8f955-25c7-41fd-8227-f09191fef8ad","system_id":"levelo_inurba_marseille","lat":43.31333,"lon":5.36741,"is_reserved":false,"is_disabled":false,"rental_uris":{"android":"levelo://app?vid=57c8f955-25c7-41fd-8227-f09191fef8ad","ios":"levelo://app?vid=57c8f955-25c7-41fd-8227-f09191fef8ad"},"vehicle_type_id":"4","last_reported":1739185647,"current_range_meters":36800,"station_id":"ce4bgr92rcd13ifvqc6g","pricing_plan_id":"cebpf4jnsgd1na2vs0mg"},{"bike_id":"d7b38d8a-d747-4eed-a466-e3cdc14f11dd","system_id":"levelo_inurba_marseille","lat":43.3245,"lon":5.36597,"is_reserved":false,"is_disabled":false,"rental_uris":{"android":"levelo://app?vid=d7b38d8a-d747-4eed-a466-e3cdc14f11dd","ios":"levelo://app?vid=d7b38d8a-d747-4eed-a466-e3cdc14f11dd"},"vehicle_type_id":"4","last_reported":1739185647,"current_range_meters":38800,"station_id":"ce4bhs12rcd13ifvqhvg","pricing_plan_id":"cebpf4jnsgd1na2vs0mg"},{"bike_id":"949cd191-9119-49eb-bc24-843ba8cd25c5","system_id":"levelo_inurba_marseille","lat":43.29527,"lon":5.38548,"is_reserved":false,"is_disabled":false,"rental_uris":{"android":"levelo://app?vid=949cd191-9119-49eb-bc24-843ba8cd25c5","ios":"levelo://app?vid=949cd191-9119-49eb-bc24-843ba8cd25c5"},"vehicle_type_id":"4","last_reported":1739185647,"current_range_meters":25600,"station_id":"ce4bgih2rcd13ifvqba0","pricing_plan_id":"cebpf4jnsgd1na2vs0mg"},{"bike_id":"9ee17cc6-94b6-42f9-a180-22e25ec3ed8d","system_id":"levelo_inurba_marseille","lat":43.28702,"lon":5.37402,"is_reserved":false,"is_disabled":false,"rental_uris":{"android":"levelo://app?vid=9ee17cc6-94b6-42f9-a180-22e25ec3ed8d","ios":"levelo://app?vid=9ee17cc6-94b6-42f9-a180-22e25ec3ed8d"},"vehicle_type_id":"4","last_reported":1739185647,"current_range_meters":39200,"station_id":"ce4bh3p2rcd13ifvqdq0","pricing_plan_id":"cebpf4jnsgd1na2vs0mg"},{"bike_id":"b30bb279-db30-4851-99d2-8db60359713f","system_id":"levelo_inurba_marseille","lat":43.23175,"lon":5.4373,"is_reserved":false,"is_disabled":false,"rental_uris":{"android":"levelo://app?vid=b30bb279-db30-4851-99d2-8db60359713f","ios":"levelo://app?vid=b30bb279-db30-4851-99d2-8db60359713f"},"vehicle_type_id":"4","last_reported":1739185647,"current_range_meters":25200,"station_id":"ce4bhmp2rcd13ifvqgog","pricing_plan_id":"cebpf4jnsgd1na2vs0mg"},{"bike_id":"84dabfe0-d972-4b71-87a7-c5d4ca9a6e13","system_id":"levelo_inurba_marseille","lat":43.25011,"lon":5.38932,"is_reserved":false,"is_disabled":false,"rental_uris":{"android":"levelo://app?vid=84dabfe0-d972-4b71-87a7-c5d4ca9a6e13","ios":"levelo://app?vid=84dabfe0-d972-4b71-87a7-c5d4ca9a6e13"},"vehicle_type_id":"4","last_reported":1739185647,"current_range_meters":24800,"station_id":"ce4bhgp2rcd13ifvqfd0","pricing_plan_id":"cebpf4jnsgd1na2vs0mg"},{"bike_id":"b9153e81-48d2-4ee4-b7ec-7f253fee4cd1","system_id":"levelo_inurba_marseille","lat":43.250083,"lon":5.38933,"is_reserved":false,"is_disabled":false,"rental_uris":{"android":"levelo://app?vid=b9153e81-48d2-4ee4-b7ec-7f253fee4cd1","ios":"levelo://app?vid=b9153e81-48d2-4ee4-b7ec-7f253fee4cd1"},"vehicle_type_id":"4","last_reported":1739185647,"current_range_meters":24000,"station_id":"ce4bhgp2rcd13ifvqfd0","pricing_plan_id":"cebpf4jnsgd1na2vs0mg"},{"bike_id":"8f9c655f-09d9-433c-880c-6a0bd2d1b600","system_id":"levelo_inurba_marseille","lat":43.3361,"lon":5.41028,"is_reserved":false,"is_disabled":false,"rental_uris":{"android":"levelo://app?vid=8f9c655f-09d9-433c-880c-6a0bd2d1b600","ios":"levelo://app?vid=8f9c655f-09d9-433c-880c-6a0bd2d1b600"},"vehicle_type_id":"4","last_reported":1739185647,"current_range_meters":30800,"station_id":"ce4bhqh2rcd13ifvqhmg","pricing_plan_id":"cebpf4jnsgd1na2vs0mg"},{"bike_id":"4913b8b5-d6bb-4003-9626-2e55d74c370d","system_id":"levelo_inurba_marseille","lat":43.23954,"lon":5.36593,"is_reserved":false,"is_disabled":false,"rental_uris":{"android":"levelo://app?vid=4913b8b5-d6bb-4003-9626-2e55d74c370d","ios":"levelo://app?vid=4913b8b5-d6bb-4003-9626-2e55d74c370d"},"vehicle_type_id":"4","last_reported":1739185647,"current_range_meters":38400,"station_id":"ce4bhi12rcd13ifvqfp0","pricing_plan_id":"cebpf4jnsgd1na2vs0mg"},{"bike_id":"5fdb6860-5ee3-463b-aea0-6848b9ff5ddc","system_id":"levelo_inurba_marseille","lat":43.26289,"lon":5.40481,"is_reserved":false,"is_disabled":false,"rental_uris":{"android":"levelo://app?vid=5fdb6860-5ee3-463b-aea0-6848b9ff5ddc","ios":"levelo://app?vid=5fdb6860-5ee3-463b-aea0-6848b9ff5ddc"},"vehicle_type_id":"4","last_reported":1739185647,"current_range_meters":18800,"station_id":"ce4bhmh2rcd13ifvqgmg","pricing_plan_id":"cebpf4jnsgd1na2vs0mg"},{"bike_id":"a0f38a2d-991d-47ec-8a68-ef22bb9d88ec","system_id":"levelo_inurba_marseille","lat":43.30542,"lon":5.36709,"is_reserved":false,"is_disabled":false,"rental_uris":{"android":"levelo://app?vid=a0f38a2d-991d-47ec-8a68-ef22bb9d88ec","ios":"levelo://app?vid=a0f38a2d-991d-47ec-8a68-ef22bb9d88ec"},"vehicle_type_id":"4","last_reported":1739185647,"current_range_meters":37600,"station_id":"ce4bgrp2rcd13ifvqc9g","pricing_plan_id":"cebpf4jnsgd1na2vs0mg"},{"bike_id":"12a6ecc7-a3a8-4f76-bbdf-c051b566d610","system_id":"levelo_inurba_marseille","lat":43.31864,"lon":5.40745,"is_reserved":false,"is_disabled":false,"rental_uris":{"android":"levelo://app?vid=12a6ecc7-a3a8-4f76-bbdf-c051b566d610","ios":"levelo://app?vid=12a6ecc7-a3a8-4f76-bbdf-c051b566d610"},"vehicle_type_id":"4","last_reported":1739185647,"current_range_meters":38000,"station_id":"ce4bhq12rcd13ifvqhig","pricing_plan_id":"cebpf4jnsgd1na2vs0mg"},{"bike_id":"0ccae692-16fa-48e3-88e0-236b5491d838","system_id":"levelo_inurba_marseille","lat":43.3375,"lon":5.39182,"is_reserved":false,"is_disabled":false,"rental_uris":{"android":"levelo://app?vid=0ccae692-16fa-48e3-88e0-236b5491d838","ios":"levelo://app?vid=0ccae692-16fa-48e3-88e0-236b5491d838"},"vehicle_type_id":"4","last_reported":1739185647,"current_range_meters":39200,"station_id":"ce4bhr92rcd13ifvqhsg","pricing_plan_id":"cebpf4jnsgd1na2vs0mg"},{"bike_id":"3387e857-76e8-4fc1-a1cf-94655f3cc3c6","system_id":"levelo_inurba_marseille","lat":43.239589,"lon":5.366268,"is_reserved":false,"is_disabled":false,"rental_uris":{"android":"levelo://app?vid=3387e857-76e8-4fc1-a1cf-94655f3cc3c6","ios":"levelo://app?vid=3387e857-76e8-4fc1-a1cf-94655f3cc3c6"},"vehicle_type_id":"4","last_reported":1739185647,"current_range_meters":24400,"station_id":"ce4bhi12rcd13ifvqfp0","pricing_plan_id":"cebpf4jnsgd1na2vs0mg"},{"bike_id":"ca330563-6e43-42e3-a473-ca0403faecc5","system_id":"levelo_inurba_marseille","lat":43.30465,"lon":5.37909,"is_reserved":false,"is_disabled":false,"rental_uris":{"android":"levelo://app?vid=ca330563-6e43-42e3-a473-ca0403faecc5","ios":"levelo://app?vid=ca330563-6e43-42e3-a473-ca0403faecc5"},"vehicle_type_id":"4","last_reported":1739185647,"current_range_meters":28800,"station_id":"ce4bgup2rcd13ifvqcn0","pricing_plan_id":"cebpf4jnsgd1na2vs0mg"},{"bike_id":"e9e87b7d-a8c8-4f59-bb3b-cf4a3356c998","system_id":"levelo_inurba_marseille","lat":43.26196,"lon":5.37448,"is_reserved":false,"is_disabled":false,"rental_uris":{"android":"levelo://app?vid=e9e87b7d-a8c8-4f59-bb3b-cf4a3356c998","ios":"levelo://app?vid=e9e87b7d-a8c8-4f59-bb3b-cf4a3356c998"},"vehicle_type_id":"4","last_reported":1739185647,"current_range_meters":14800,"station_id":"ce4bhgp2rcd13ifvqfc0","pricing_plan_id":"cebpf4jnsgd1na2vs0mg"},{"bike_id":"f9170ddb-ab95-49f3-8e6f-09d0804279db","system_id":"levelo_inurba_marseille","lat":43.29011,"lon":5.35609,"is_reserved":false,"is_disabled":false,"rental_uris":{"android":"levelo://app?vid=f9170ddb-ab95-49f3-8e6f-09d0804279db","ios":"levelo://app?vid=f9170ddb-ab95-49f3-8e6f-09d0804279db"},"vehicle_type_id":"4","last_reported":1739185647,"current_range_meters":39200,"station_id":"ce4bhb92rcd13ifvqen0","pricing_plan_id":"cebpf4jnsgd1na2vs0mg"},{"bike_id":"7a849bda-7c44-4b3e-befe-45b60441252c","system_id":"levelo_inurba_marseille","lat":43.34147,"lon":5.40876,"is_reserved":false,"is_disabled":false,"rental_uris":{"android":"levelo://app?vid=7a849bda-7c44-4b3e-befe-45b60441252c","ios":"levelo://app?vid=7a849bda-7c44-4b3e-befe-45b60441252c"},"vehicle_type_id":"4","last_reported":1739185647,"current_range_meters":39200,"station_id":"ce4bhqh2rcd13ifvqhlg","pricing_plan_id":"cebpf4jnsgd1na2vs0mg"},{"bike_id":"45bb24a1-0c85-41c1-81d0-60806ea0d3e6","system_id":"levelo_inurba_marseille","lat":43.27168,"lon":5.41008,"is_reserved":false,"is_disabled":false,"rental_uris":{"android":"levelo://app?vid=45bb24a1-0c85-41c1-81d0-60806ea0d3e6","ios":"levelo://app?vid=45bb24a1-0c85-41c1-81d0-60806ea0d3e6"},"vehicle_type_id":"4","last_reported":1739185647,"current_range_meters":13600,"station_id":"ce4bhl12rcd13ifvqgf0","pricing_plan_id":"cebpf4jnsgd1na2vs0mg"},{"bike_id":"96fe1668-af51-4478-b65e-c78b039aaaeb","system_id":"levelo_inurba_marseille","lat":43.29545,"lon":5.37505,"is_reserved":false,"is_disabled":true,"rental_uris":{"android":"levelo://app?vid=96fe1668-af51-4478-b65e-c78b039aaaeb","ios":"levelo://app?vid=96fe1668-af51-4478-b65e-c78b039aaaeb"},"vehicle_type_id":"4","last_reported":1739185647,"current_range_meters":28000,"station_id":"ce4bgkp2rcd13ifvqbmg","pricing_plan_id":"cebpf4jnsgd1na2vs0mg"},{"bike_id":"9ef3ef24-bb77-4d32-bf44-decc200b23a8","system_id":"levelo_inurba_marseille","lat":43.25728,"lon":5.41113,"is_reserved":false,"is_disabled":false,"rental_uris":{"android":"levelo://app?vid=9ef3ef24-bb77-4d32-bf44-decc200b23a8","ios":"levelo://app?vid=9ef3ef24-bb77-4d32-bf44-decc200b23a8"},"vehicle_type_id":"4","last_reported":1739185647,"current_range_meters":39200,"station_id":"ce4bhkp2rcd13ifvqgd0","pricing_plan_id":"cebpf4jnsgd1na2vs0mg"},{"bike_id":"c396b743-cb15-4d1e-b90a-fbd81e5de246","system_id":"levelo_inurba_marseille","lat":43.274,"lon":5.39427,"is_reserved":false,"is_disabled":false,"rental_uris":{"android":"levelo://app?vid=c396b743-cb15-4d1e-b90a-fbd81e5de246","ios":"levelo://app?vid=c396b743-cb15-4d1e-b90a-fbd81e5de246"},"vehicle_type_id":"4","last_reported":1739185647,"current_range_meters":39200,"station_id":"ce4bhdp2rcd13ifvqf20","pricing_plan_id":"cebpf4jnsgd1na2vs0mg"},{"bike_id":"3c9626da-748b-4b35-85f7-dfda4f6a3ac6","system_id":"levelo_inurba_marseille","lat":43.27055,"lon":5.42282,"is_reserved":false,"is_disabled":false,"rental_uris":{"android":"levelo://app?vid=3c9626da-748b-4b35-85f7-dfda4f6a3ac6","ios":"levelo://app?vid=3c9626da-748b-4b35-85f7-dfda4f6a3ac6"},"vehicle_type_id":"4","last_reported":1739185647,"current_range_meters":23200,"station_id":"ce4bhk92rcd13ifvqgb0","pricing_plan_id":"cebpf4jnsgd1na2vs0mg"},{"bike_id":"5eb59fd4-34c7-4030-bbe2-18e35f7c6137","system_id":"levelo_inurba_marseille","lat":43.27551,"lon":5.38447,"is_reserved":false,"is_disabled":false,"rental_uris":{"android":"levelo://app?vid=5eb59fd4-34c7-4030-bbe2-18e35f7c6137","ios":"levelo://app?vid=5eb59fd4-34c7-4030-bbe2-18e35f7c6137"},"vehicle_type_id":"4","last_reported":1739185647,"current_range_meters":16000,"station_id":"ce4bhh92rcd13ifvqfi0","pricing_plan_id":"cebpf4jnsgd1na2vs0mg"},{"bike_id":"f67b7531-6c63-4f46-a9d4-4fdf588facb0","system_id":"levelo_inurba_marseille","lat":43.27874,"lon":5.40597,"is_reserved":false,"is_disabled":true,"rental_uris":{"android":"levelo://app?vid=f67b7531-6c63-4f46-a9d4-4fdf588facb0","ios":"levelo://app?vid=f67b7531-6c63-4f46-a9d4-4fdf588facb0"},"vehicle_type_id":"4","last_reported":1739185647,"current_range_meters":0,"station_id":"","pricing_plan_id":"cebpf4jnsgd1na2vs0mg"},{"bike_id":"9e133e15-f351-45ea-a2c6-98ce5b979e09","system_id":"levelo_inurba_marseille","lat":43.29573,"lon":5.39973,"is_reserved":false,"is_disabled":false,"rental_uris":{"android":"levelo://app?vid=9e133e15-f351-45ea-a2c6-98ce5b979e09","ios":"levelo://app?vid=9e133e15-f351-45ea-a2c6-98ce5b979e09"},"vehicle_type_id":"4","last_reported":1739185647,"current_range_meters":38000,"station_id":"ce4bh312rcd13ifvqdj0","pricing_plan_id":"cebpf4jnsgd1na2vs0mg"},{"bike_id":"bd5b64f0-ff05-4c51-946e-2c1ecb2e857a","system_id":"levelo_inurba_marseille","lat":43.23134,"lon":5.43705,"is_reserved":false,"is_disabled":false,"rental_uris":{"android":"levelo://app?vid=bd5b64f0-ff05-4c51-946e-2c1ecb2e857a","ios":"levelo://app?vid=bd5b64f0-ff05-4c51-946e-2c1ecb2e857a"},"vehicle_type_id":"4","last_reported":1739185647,"current_range_meters":18800,"station_id":"ce4bhmp2rcd13ifvqgog","pricing_plan_id":"cebpf4jnsgd1na2vs0mg"},{"bike_id":"12682116-5b03-451f-8959-a61259ce6758","system_id":"levelo_inurba_marseille","lat":43.31179,"lon":5.38721,"is_reserved":false,"is_disabled":false,"rental_uris":{"android":"levelo://app?vid=12682116-5b03-451f-8959-a61259ce6758","ios":"levelo://app?vid=12682116-5b03-451f-8959-a61259ce6758"},"vehicle_type_id":"4","last_reported":1739185647,"current_range_meters":30000,"station_id":"ce4bgv12rcd13ifvqcp0","pricing_plan_id":"cebpf4jnsgd1na2vs0mg"},{"bike_id":"09293aaa-6dc6-47d3-8c81-a7b0c85148a9","system_id":"levelo_inurba_marseille","lat":43.2407,"lon":5.37745,"is_reserved":false,"is_disabled":false,"rental_uris":{"android":"levelo://app?vid=09293aaa-6dc6-47d3-8c81-a7b0c85148a9","ios":"levelo://app?vid=09293aaa-6dc6-47d3-8c81-a7b0c85148a9"},"vehicle_type_id":"4","last_reported":1739185647,"current_range_meters":24000,"station_id":"ce4bhnp2rcd13ifvqgvg","pricing_plan_id":"cebpf4jnsgd1na2vs0mg"},{"bike_id":"74dda318-1b0b-46a6-82cc-20741b70a914","system_id":"levelo_inurba_marseille","lat":43.29295,"lon":5.3746,"is_reserved":false,"is_disabled":true,"rental_uris":{"android":"levelo://app?vid=74dda318-1b0b-46a6-82cc-20741b70a914","ios":"levelo://app?vid=74dda318-1b0b-46a6-82cc-20741b70a914"},"vehicle_type_id":"4","last_reported":1739185647,"current_range_meters":16800,"station_id":"ce4bgi12rcd13ifvqb70","pricing_plan_id":"cebpf4jnsgd1na2vs0mg"},{"bike_id":"0a1c5630-0c4c-4470-919a-ffcc781572fa","system_id":"levelo_inurba_marseille","lat":43.24662,"lon":5.38168,"is_reserved":false,"is_disabled":false,"rental_uris":{"android":"levelo://app?vid=0a1c5630-0c4c-4470-919a-ffcc781572fa","ios":"levelo://app?vid=0a1c5630-0c4c-4470-919a-ffcc781572fa"},"vehicle_type_id":"4","last_reported":1739185647,"current_range_meters":3600,"station_id":"ce4bhih2rcd13ifvqfr0","pricing_plan_id":"cebpf4jnsgd1na2vs0mg"},{"bike_id":"9e0a99c1-5ad2-48c7-930b-ed41b317d8a2","system_id":"levelo_inurba_marseille","lat":43.301543,"lon":5.380831,"is_reserved":false,"is_disabled":false,"rental_uris":{"android":"levelo://app?vid=9e0a99c1-5ad2-48c7-930b-ed41b317d8a2","ios":"levelo://app?vid=9e0a99c1-5ad2-48c7-930b-ed41b317d8a2"},"vehicle_type_id":"4","last_reported":1739185647,"current_range_meters":38400,"station_id":"ce4bgjp2rcd13ifvqbh0","pricing_plan_id":"cebpf4jnsgd1na2vs0mg"},{"bike_id":"f87cf2c6-5770-4992-b912-55c935f47d38","system_id":"levelo_inurba_marseille","lat":43.28713,"lon":5.38686,"is_reserved":false,"is_disabled":false,"rental_uris":{"android":"levelo://app?vid=f87cf2c6-5770-4992-b912-55c935f47d38","ios":"levelo://app?vid=f87cf2c6-5770-4992-b912-55c935f47d38"},"vehicle_type_id":"4","last_reported":1739185647,"current_range_meters":29600,"station_id":"ce4bh492rcd13ifvqdug","pricing_plan_id":"cebpf4jnsgd1na2vs0mg"},{"bike_id":"028e5bc2-b679-4b6c-a013-843d23405193","system_id":"levelo_inurba_marseille","lat":43.28706,"lon":5.37399,"is_reserved":false,"is_disabled":false,"rental_uris":{"android":"levelo://app?vid=028e5bc2-b679-4b6c-a013-843d23405193","ios":"levelo://app?vid=028e5bc2-b679-4b6c-a013-843d23405193"},"vehicle_type_id":"4","last_reported":1739185647,"current_range_meters":38000,"station_id":"ce4bh3p2rcd13ifvqdq0","pricing_plan_id":"cebpf4jnsgd1na2vs0mg"},{"bike_id":"ddcc94dc-8585-4cb1-af05-471cf80b9b38","system_id":"levelo_inurba_marseille","lat":43.32475,"lon":5.36568,"is_reserved":false,"is_disabled":false,"rental_uris":{"android":"levelo://app?vid=ddcc94dc-8585-4cb1-af05-471cf80b9b38","ios":"levelo://app?vid=ddcc94dc-8585-4cb1-af05-471cf80b9b38"},"vehicle_type_id":"4","last_reported":1739185647,"current_range_meters":38800,"station_id":"ce4bhs12rcd13ifvqhvg","pricing_plan_id":"cebpf4jnsgd1na2vs0mg"},{"bike_id":"5c7479b7-7263-4b4c-a3b1-0d7fb0f411f8","system_id":"levelo_inurba_marseille","lat":43.3032,"lon":5.40447,"is_reserved":false,"is_disabled":true,"rental_uris":{"android":"levelo://app?vid=5c7479b7-7263-4b4c-a3b1-0d7fb0f411f8","ios":"levelo://app?vid=5c7479b7-7263-4b4c-a3b1-0d7fb0f411f8"},"vehicle_type_id":"4","last_reported":1739185647,"current_range_meters":33200,"station_id":"ce4bh012rcd13ifvqd10","pricing_plan_id":"cebpf4jnsgd1na2vs0mg"},{"bike_id":"22d30eac-91ea-431b-ab34-f7e1aa7ee45e","system_id":"levelo_inurba_marseille","lat":43.31704,"lon":5.40465,"is_reserved":false,"is_disabled":false,"rental_uris":{"android":"levelo://app?vid=22d30eac-91ea-431b-ab34-f7e1aa7ee45e","ios":"levelo://app?vid=22d30eac-91ea-431b-ab34-f7e1aa7ee45e"},"vehicle_type_id":"4","last_reported":1739185647,"current_range_meters":22000,"station_id":"ce4bh012rcd13ifvqd00","pricing_plan_id":"cebpf4jnsgd1na2vs0mg"},{"bike_id":"5dec2fdf-46a6-4d2a-a8dd-9a8ec1a948d3","system_id":"levelo_inurba_marseille","lat":43.23185,"lon":5.35583,"is_reserved":false,"is_disabled":false,"rental_uris":{"android":"levelo://app?vid=5dec2fdf-46a6-4d2a-a8dd-9a8ec1a948d3","ios":"levelo://app?vid=5dec2fdf-46a6-4d2a-a8dd-9a8ec1a948d3"},"vehicle_type_id":"4","last_reported":1739185647,"current_range_meters":38000,"station_id":"ce4bhu92rcd13ifvqi70","pricing_plan_id":"cebpf4jnsgd1na2vs0mg"},{"bike_id":"d7a26be3-3eb7-4470-b83d-ff84360e9b18","system_id":"levelo_inurba_marseille","lat":43.273042,"lon":5.390982,"is_reserved":false,"is_disabled":false,"rental_uris":{"android":"levelo://app?vid=d7a26be3-3eb7-4470-b83d-ff84360e9b18","ios":"levelo://app?vid=d7a26be3-3eb7-4470-b83d-ff84360e9b18"},"vehicle_type_id":"4","last_reported":1739185647,"current_range_meters":38800,"station_id":"ce4bhgp2rcd13ifvqfe0","pricing_plan_id":"cebpf4jnsgd1na2vs0mg"},{"bike_id":"81960883-85a0-4112-9d15-25f83998d8ff","system_id":"levelo_inurba_marseille","lat":43.29308,"lon":5.3717,"is_reserved":false,"is_disabled":false,"rental_uris":{"android":"levelo://app?vid=81960883-85a0-4112-9d15-25f83998d8ff","ios":"levelo://app?vid=81960883-85a0-4112-9d15-25f83998d8ff"},"vehicle_type_id":"4","last_reported":1739185647,"current_range_meters":39200,"station_id":"ce4bgh92rcd13ifvqb40","pricing_plan_id":"cebpf4jnsgd1na2vs0mg"},{"bike_id":"ba1a5220-ad16-42c4-8f84-c122c65e5feb","system_id":"levelo_inurba_marseille","lat":43.25821,"lon":5.39458,"is_reserved":false,"is_disabled":false,"rental_uris":{"android":"levelo://app?vid=ba1a5220-ad16-42c4-8f84-c122c65e5feb","ios":"levelo://app?vid=ba1a5220-ad16-42c4-8f84-c122c65e5feb"},"vehicle_type_id":"4","last_reported":1739185647,"current_range_meters":39200,"station_id":"ce4bhip2rcd13ifvqft0","pricing_plan_id":"cebpf4jnsgd1na2vs0mg"},{"bike_id":"7d7bd838-4cb6-4abe-a1fb-e7fd298b7c21","system_id":"levelo_inurba_marseille","lat":43.27176,"lon":5.41004,"is_reserved":false,"is_disabled":false,"rental_uris":{"android":"levelo://app?vid=7d7bd838-4cb6-4abe-a1fb-e7fd298b7c21","ios":"levelo://app?vid=7d7bd838-4cb6-4abe-a1fb-e7fd298b7c21"},"vehicle_type_id":"4","last_reported":1739185647,"current_range_meters":25200,"station_id":"ce4bhl12rcd13ifvqgf0","pricing_plan_id":"cebpf4jnsgd1na2vs0mg"},{"bike_id":"5c55719c-bf56-4316-adc3-30111af87656","system_id":"levelo_inurba_marseille","lat":43.23061,"lon":5.35494,"is_reserved":false,"is_disabled":false,"rental_uris":{"android":"levelo://app?vid=5c55719c-bf56-4316-adc3-30111af87656","ios":"levelo://app?vid=5c55719c-bf56-4316-adc3-30111af87656"},"vehicle_type_id":"4","last_reported":1739185647,"current_range_meters":38400,"station_id":"cpo3342slgdg3j2ifvpg","pricing_plan_id":"cebpf4jnsgd1na2vs0mg"},{"bike_id":"c2b542d5-20ee-4d02-a9e4-f66e0540bcfb","system_id":"levelo_inurba_marseille","lat":43.24181,"lon":5.39742,"is_reserved":false,"is_disabled":false,"rental_uris":{"android":"levelo://app?vid=c2b542d5-20ee-4d02-a9e4-f66e0540bcfb","ios":"levelo://app?vid=c2b542d5-20ee-4d02-a9e4-f66e0540bcfb"},"vehicle_type_id":"4","last_reported":1739185647,"current_range_meters":38800,"station_id":"ce4bhn12rcd13ifvqgpg","pricing_plan_id":"cebpf4jnsgd1na2vs0mg"},{"bike_id":"921532fe-4dc7-4d46-904d-c2be86caee52","system_id":"levelo_inurba_marseille","lat":43.30491,"lon":5.37904,"is_reserved":false,"is_disabled":false,"rental_uris":{"android":"levelo://app?vid=921532fe-4dc7-4d46-904d-c2be86caee52","ios":"levelo://app?vid=921532fe-4dc7-4d46-904d-c2be86caee52"},"vehicle_type_id":"4","last_reported":1739185647,"current_range_meters":18000,"station_id":"ce4bgup2rcd13ifvqcn0","pricing_plan_id":"cebpf4jnsgd1na2vs0mg"},{"bike_id":"09c31386-f401-4677-9c8f-6f7f5f2c4890","system_id":"levelo_inurba_marseille","lat":43.23946,"lon":5.3666,"is_reserved":false,"is_disabled":false,"rental_uris":{"android":"levelo://app?vid=09c31386-f401-4677-9c8f-6f7f5f2c4890","ios":"levelo://app?vid=09c31386-f401-4677-9c8f-6f7f5f2c4890"},"vehicle_type_id":"4","last_reported":1739185647,"current_range_meters":16800,"station_id":"ce4bhi12rcd13ifvqfp0","pricing_plan_id":"cebpf4jnsgd1na2vs0mg"},{"bike_id":"387f62f2-7ff0-42c6-9bd7-464493172742","system_id":"levelo_inurba_marseille","lat":43.243936,"lon":5.370589,"is_reserved":false,"is_disabled":false,"rental_uris":{"android":"levelo://app?vid=387f62f2-7ff0-42c6-9bd7-464493172742","ios":"levelo://app?vid=387f62f2-7ff0-42c6-9bd7-464493172742"},"vehicle_type_id":"4","last_reported":1739185647,"current_range_meters":29600,"station_id":"ce4bhhh2rcd13ifvqfk0","pricing_plan_id":"cebpf4jnsgd1na2vs0mg"},{"bike_id":"70804fbe-b550-4515-88c1-663e84c1470b","system_id":"levelo_inurba_marseille","lat":43.26791,"lon":5.39403,"is_reserved":false,"is_disabled":false,"rental_uris":{"android":"levelo://app?vid=70804fbe-b550-4515-88c1-663e84c1470b","ios":"levelo://app?vid=70804fbe-b550-4515-88c1-663e84c1470b"},"vehicle_type_id":"4","last_reported":1739185647,"current_range_meters":39200,"station_id":"ce4bhh12rcd13ifvqfg0","pricing_plan_id":"cebpf4jnsgd1na2vs0mg"},{"bike_id":"985ea620-1838-4cc4-9f45-6622855b2de9","system_id":"levelo_inurba_marseille","lat":43.279911,"lon":5.400284,"is_reserved":false,"is_disabled":false,"rental_uris":{"android":"levelo://app?vid=985ea620-1838-4cc4-9f45-6622855b2de9","ios":"levelo://app?vid=985ea620-1838-4cc4-9f45-6622855b2de9"},"vehicle_type_id":"4","last_reported":1739185647,"current_range_meters":36400,"station_id":"ce4bho92rcd13ifvqh4g","pricing_plan_id":"cebpf4jnsgd1na2vs0mg"},{"bike_id":"b62dea62-0007-4bca-a1b0-d88bfab77dea","system_id":"levelo_inurba_marseille","lat":43.32449,"lon":5.36577,"is_reserved":false,"is_disabled":false,"rental_uris":{"android":"levelo://app?vid=b62dea62-0007-4bca-a1b0-d88bfab77dea","ios":"levelo://app?vid=b62dea62-0007-4bca-a1b0-d88bfab77dea"},"vehicle_type_id":"4","last_reported":1739185647,"current_range_meters":26800,"station_id":"ce4bhs12rcd13ifvqhvg","pricing_plan_id":"cebpf4jnsgd1na2vs0mg"},{"bike_id":"88d7d662-c0d3-417f-85e8-dc4e95cea20c","system_id":"levelo_inurba_marseille","lat":43.30549,"lon":5.36543,"is_reserved":false,"is_disabled":false,"rental_uris":{"android":"levelo://app?vid=88d7d662-c0d3-417f-85e8-dc4e95cea20c","ios":"levelo://app?vid=88d7d662-c0d3-417f-85e8-dc4e95cea20c"},"vehicle_type_id":"4","last_reported":1739185647,"current_range_meters":38000,"station_id":"ce4bgs12rcd13ifvqcag","pricing_plan_id":"cebpf4jnsgd1na2vs0mg"},{"bike_id":"2814bbe5-b1fa-4e49-abb0-0e028b067ac9","system_id":"levelo_inurba_marseille","lat":43.28476,"lon":5.38417,"is_reserved":false,"is_disabled":false,"rental_uris":{"android":"levelo://app?vid=2814bbe5-b1fa-4e49-abb0-0e028b067ac9","ios":"levelo://app?vid=2814bbe5-b1fa-4e49-abb0-0e028b067ac9"},"vehicle_type_id":"4","last_reported":1739185647,"current_range_meters":36400,"station_id":"ce4bh512rcd13ifvqe3g","pricing_plan_id":"cebpf4jnsgd1na2vs0mg"},{"bike_id":"8ef414b5-1be8-420d-8c67-1b3ca68a38fc","system_id":"levelo_inurba_marseille","lat":43.30945,"lon":5.39053,"is_reserved":false,"is_disabled":false,"rental_uris":{"android":"levelo://app?vid=8ef414b5-1be8-420d-8c67-1b3ca68a38fc","ios":"levelo://app?vid=8ef414b5-1be8-420d-8c67-1b3ca68a38fc"},"vehicle_type_id":"4","last_reported":1739185647,"current_range_meters":37600,"station_id":"","pricing_plan_id":"cebpf4jnsgd1na2vs0mg"},{"bike_id":"d97e4e37-ae66-4cfd-bb7f-464bcf9b6378","system_id":"levelo_inurba_marseille","lat":43.27997,"lon":5.40012,"is_reserved":false,"is_disabled":false,"rental_uris":{"android":"levelo://app?vid=d97e4e37-ae66-4cfd-bb7f-464bcf9b6378","ios":"levelo://app?vid=d97e4e37-ae66-4cfd-bb7f-464bcf9b6378"},"vehicle_type_id":"4","last_reported":1739185647,"current_range_meters":38800,"station_id":"ce4bho92rcd13ifvqh4g","pricing_plan_id":"cebpf4jnsgd1na2vs0mg"},{"bike_id":"c07725ed-0527-46d6-b17c-99fd5891c3a0","system_id":"levelo_inurba_marseille","lat":43.26698,"lon":5.38272,"is_reserved":false,"is_disabled":false,"rental_uris":{"android":"levelo://app?vid=c07725ed-0527-46d6-b17c-99fd5891c3a0","ios":"levelo://app?vid=c07725ed-0527-46d6-b17c-99fd5891c3a0"},"vehicle_type_id":"4","last_reported":1739185647,"current_range_meters":38800,"station_id":"ce4bhg92rcd13ifvqf90","pricing_plan_id":"cebpf4jnsgd1na2vs0mg"},{"bike_id":"6f2c96b5-8b55-47a9-8003-452561cb51d9","system_id":"levelo_inurba_marseille","lat":43.24652,"lon":5.389,"is_reserved":false,"is_disabled":false,"rental_uris":{"android":"levelo://app?vid=6f2c96b5-8b55-47a9-8003-452561cb51d9","ios":"levelo://app?vid=6f2c96b5-8b55-47a9-8003-452561cb51d9"},"vehicle_type_id":"4","last_reported":1739185647,"current_range_meters":39200,"station_id":"ce4bhg12rcd13ifvqf60","pricing_plan_id":"cebpf4jnsgd1na2vs0mg"},{"bike_id":"22a5c6e1-bb6b-4333-8051-e7583e5afc36","system_id":"levelo_inurba_marseille","lat":43.29437,"lon":5.39758,"is_reserved":false,"is_disabled":true,"rental_uris":{"android":"levelo://app?vid=22a5c6e1-bb6b-4333-8051-e7583e5afc36","ios":"levelo://app?vid=22a5c6e1-bb6b-4333-8051-e7583e5afc36"},"vehicle_type_id":"4","last_reported":1739185647,"current_range_meters":38800,"station_id":"","pricing_plan_id":"cebpf4jnsgd1na2vs0mg"},{"bike_id":"e922a998-68bd-49a9-b7e7-19716fa09a9c","system_id":"levelo_inurba_marseille","lat":43.29982,"lon":5.37188,"is_reserved":false,"is_disabled":false,"rental_uris":{"android":"levelo://app?vid=e922a998-68bd-49a9-b7e7-19716fa09a9c","ios":"levelo://app?vid=e922a998-68bd-49a9-b7e7-19716fa09a9c"},"vehicle_type_id":"4","last_reported":1739185647,"current_range_meters":39200,"station_id":"ce4bgr92rcd13ifvqc7g","pricing_plan_id":"cebpf4jnsgd1na2vs0mg"},{"bike_id":"7e10599f-7191-4c2e-911a-ee929ae4367a","system_id":"levelo_inurba_marseille","lat":43.30889,"lon":5.37194,"is_reserved":false,"is_disabled":false,"rental_uris":{"android":"levelo://app?vid=7e10599f-7191-4c2e-911a-ee929ae4367a","ios":"levelo://app?vid=7e10599f-7191-4c2e-911a-ee929ae4367a"},"vehicle_type_id":"4","last_reported":1739185647,"current_range_meters":38400,"station_id":"ce4bguh2rcd13ifvqckg","pricing_plan_id":"cebpf4jnsgd1na2vs0mg"},{"bike_id":"fdade5cc-f296-482b-bdab-dfbd9c557d3b","system_id":"levelo_inurba_marseille","lat":43.27419,"lon":5.39402,"is_reserved":false,"is_disabled":false,"rental_uris":{"android":"levelo://app?vid=fdade5cc-f296-482b-bdab-dfbd9c557d3b","ios":"levelo://app?vid=fdade5cc-f296-482b-bdab-dfbd9c557d3b"},"vehicle_type_id":"4","last_reported":1739185647,"current_range_meters":38800,"station_id":"ce4bhdp2rcd13ifvqf20","pricing_plan_id":"cebpf4jnsgd1na2vs0mg"},{"bike_id":"fd7f60dd-1b52-46f9-9b6b-de4b0fe7477f","system_id":"levelo_inurba_marseille","lat":43.27075,"lon":5.42278,"is_reserved":false,"is_disabled":false,"rental_uris":{"android":"levelo://app?vid=fd7f60dd-1b52-46f9-9b6b-de4b0fe7477f","ios":"levelo://app?vid=fd7f60dd-1b52-46f9-9b6b-de4b0fe7477f"},"vehicle_type_id":"4","last_reported":1739185647,"current_range_meters":30000,"station_id":"ce4bhk92rcd13ifvqgb0","pricing_plan_id":"cebpf4jnsgd1na2vs0mg"},{"bike_id":"3d7ea517-bb3a-4669-a95c-9ae4f8a9521d","system_id":"levelo_inurba_marseille","lat":43.30541,"lon":5.36708,"is_reserved":false,"is_disabled":false,"rental_uris":{"android":"levelo://app?vid=3d7ea517-bb3a-4669-a95c-9ae4f8a9521d","ios":"levelo://app?vid=3d7ea517-bb3a-4669-a95c-9ae4f8a9521d"},"vehicle_type_id":"4","last_reported":1739185647,"current_range_meters":28800,"station_id":"ce4bgrp2rcd13ifvqc9g","pricing_plan_id":"cebpf4jnsgd1na2vs0mg"},{"bike_id":"f79b8401-e625-4dba-a673-e27899b6331f","system_id":"levelo_inurba_marseille","lat":43.30541,"lon":5.36526,"is_reserved":false,"is_disabled":false,"rental_uris":{"android":"levelo://app?vid=f79b8401-e625-4dba-a673-e27899b6331f","ios":"levelo://app?vid=f79b8401-e625-4dba-a673-e27899b6331f"},"vehicle_type_id":"4","last_reported":1739185647,"current_range_meters":23200,"station_id":"ce4bgs12rcd13ifvqcag","pricing_plan_id":"cebpf4jnsgd1na2vs0mg"},{"bike_id":"4e61d234-e693-405c-b383-d9be03579127","system_id":"levelo_inurba_marseille","lat":43.25114,"lon":5.40323,"is_reserved":false,"is_disabled":false,"rental_uris":{"android":"levelo://app?vid=4e61d234-e693-405c-b383-d9be03579127","ios":"levelo://app?vid=4e61d234-e693-405c-b383-d9be03579127"},"vehicle_type_id":"4","last_reported":1739185647,"current_range_meters":4400,"station_id":"ce4bhlh2rcd13ifvqgig","pricing_plan_id":"cebpf4jnsgd1na2vs0mg"},{"bike_id":"35718970-6a10-41ea-96ff-2dd3a80d5379","system_id":"levelo_inurba_marseille","lat":43.2503,"lon":5.38966,"is_reserved":false,"is_disabled":false,"rental_uris":{"android":"levelo://app?vid=35718970-6a10-41ea-96ff-2dd3a80d5379","ios":"levelo://app?vid=35718970-6a10-41ea-96ff-2dd3a80d5379"},"vehicle_type_id":"4","last_reported":1739185647,"current_range_meters":35200,"station_id":"","pricing_plan_id":"cebpf4jnsgd1na2vs0mg"},{"bike_id":"da2e8b2b-5044-402a-8c5e-166581e48aed","system_id":"levelo_inurba_marseille","lat":43.29281,"lon":5.37446,"is_reserved":false,"is_disabled":false,"rental_uris":{"android":"levelo://app?vid=da2e8b2b-5044-402a-8c5e-166581e48aed","ios":"levelo://app?vid=da2e8b2b-5044-402a-8c5e-166581e48aed"},"vehicle_type_id":"4","last_reported":1739185647,"current_range_meters":39200,"station_id":"ce4bgi12rcd13ifvqb70","pricing_plan_id":"cebpf4jnsgd1na2vs0mg"},{"bike_id":"7df69033-6285-41e0-8505-96ddd692cd66","system_id":"levelo_inurba_marseille","lat":43.29029,"lon":5.3812,"is_reserved":false,"is_disabled":false,"rental_uris":{"android":"levelo://app?vid=7df69033-6285-41e0-8505-96ddd692cd66","ios":"levelo://app?vid=7df69033-6285-41e0-8505-96ddd692cd66"},"vehicle_type_id":"4","last_reported":1739185647,"current_range_meters":38800,"station_id":"ce4bh4p2rcd13ifvqe1g","pricing_plan_id":"cebpf4jnsgd1na2vs0mg"},{"bike_id":"e9c6f64c-19d3-4482-b40d-850849da22a2","system_id":"levelo_inurba_marseille","lat":43.30148,"lon":5.38092,"is_reserved":false,"is_disabled":false,"rental_uris":{"android":"levelo://app?vid=e9c6f64c-19d3-4482-b40d-850849da22a2","ios":"levelo://app?vid=e9c6f64c-19d3-4482-b40d-850849da22a2"},"vehicle_type_id":"4","last_reported":1739185647,"current_range_meters":38800,"station_id":"ce4bgjp2rcd13ifvqbh0","pricing_plan_id":"cebpf4jnsgd1na2vs0mg"},{"bike_id":"1d875a95-d30d-47bc-935e-6d3a47d3d570","system_id":"levelo_inurba_marseille","lat":43.27188,"lon":5.41009,"is_reserved":false,"is_disabled":false,"rental_uris":{"android":"levelo://app?vid=1d875a95-d30d-47bc-935e-6d3a47d3d570","ios":"levelo://app?vid=1d875a95-d30d-47bc-935e-6d3a47d3d570"},"vehicle_type_id":"4","last_reported":1739185647,"current_range_meters":38000,"station_id":"ce4bhl12rcd13ifvqgf0","pricing_plan_id":"cebpf4jnsgd1na2vs0mg"},{"bike_id":"a14ecdf5-f159-4bb8-94d9-d14724235785","system_id":"levelo_inurba_marseille","lat":43.2722,"lon":5.39185,"is_reserved":false,"is_disabled":false,"rental_uris":{"android":"levelo://app?vid=a14ecdf5-f159-4bb8-94d9-d14724235785","ios":"levelo://app?vid=a14ecdf5-f159-4bb8-94d9-d14724235785"},"vehicle_type_id":"4","last_reported":1739185647,"current_range_meters":39200,"station_id":"ce4bhhp2rcd13ifvqfm0","pricing_plan_id":"cebpf4jnsgd1na2vs0mg"},{"bike_id":"9da2535f-e77c-4f48-aae1-c197f0a0daad","system_id":"levelo_inurba_marseille","lat":43.27996,"lon":5.41667,"is_reserved":false,"is_disabled":false,"rental_uris":{"android":"levelo://app?vid=9da2535f-e77c-4f48-aae1-c197f0a0daad","ios":"levelo://app?vid=9da2535f-e77c-4f48-aae1-c197f0a0daad"},"vehicle_type_id":"4","last_reported":1739185647,"current_range_meters":38400,"station_id":"ce4bho12rcd13ifvqh1g","pricing_plan_id":"cebpf4jnsgd1na2vs0mg"},{"bike_id":"d7353ff9-efe3-4c60-b7ef-d3fb5f0bedbe","system_id":"levelo_inurba_marseille","lat":43.29002,"lon":5.35607,"is_reserved":false,"is_disabled":false,"rental_uris":{"android":"levelo://app?vid=d7353ff9-efe3-4c60-b7ef-d3fb5f0bedbe","ios":"levelo://app?vid=d7353ff9-efe3-4c60-b7ef-d3fb5f0bedbe"},"vehicle_type_id":"4","last_reported":1739185647,"current_range_meters":36400,"station_id":"ce4bhb92rcd13ifvqen0","pricing_plan_id":"cebpf4jnsgd1na2vs0mg"},{"bike_id":"9350105e-5de9-4797-8fd4-6aba342f0a59","system_id":"levelo_inurba_marseille","lat":43.30152,"lon":5.38088,"is_reserved":false,"is_disabled":false,"rental_uris":{"android":"levelo://app?vid=9350105e-5de9-4797-8fd4-6aba342f0a59","ios":"levelo://app?vid=9350105e-5de9-4797-8fd4-6aba342f0a59"},"vehicle_type_id":"4","last_reported":1739185647,"current_range_meters":8400,"station_id":"ce4bgjp2rcd13ifvqbh0","pricing_plan_id":"cebpf4jnsgd1na2vs0mg"},{"bike_id":"cde18094-5b15-4c6f-83b6-54cc57fe62f0","system_id":"levelo_inurba_marseille","lat":43.29282,"lon":5.37443,"is_reserved":false,"is_disabled":false,"rental_uris":{"android":"levelo://app?vid=cde18094-5b15-4c6f-83b6-54cc57fe62f0","ios":"levelo://app?vid=cde18094-5b15-4c6f-83b6-54cc57fe62f0"},"vehicle_type_id":"4","last_reported":1739185647,"current_range_meters":36400,"station_id":"ce4bgi12rcd13ifvqb70","pricing_plan_id":"cebpf4jnsgd1na2vs0mg"},{"bike_id":"eca0a8f8-8f0e-41e8-a928-fcaa19fa662a","system_id":"levelo_inurba_marseille","lat":43.30277,"lon":5.377072,"is_reserved":false,"is_disabled":false,"rental_uris":{"android":"levelo://app?vid=eca0a8f8-8f0e-41e8-a928-fcaa19fa662a","ios":"levelo://app?vid=eca0a8f8-8f0e-41e8-a928-fcaa19fa662a"},"vehicle_type_id":"4","last_reported":1739185647,"current_range_meters":39200,"station_id":"ce4bguh2rcd13ifvqcj0","pricing_plan_id":"cebpf4jnsgd1na2vs0mg"},{"bike_id":"29c9ba85-0135-4611-af6c-b8dee113d319","system_id":"levelo_inurba_marseille","lat":43.26948,"lon":5.38634,"is_reserved":false,"is_disabled":false,"rental_uris":{"android":"levelo://app?vid=29c9ba85-0135-4611-af6c-b8dee113d319","ios":"levelo://app?vid=29c9ba85-0135-4611-af6c-b8dee113d319"},"vehicle_type_id":"4","last_reported":1739185647,"current_range_meters":38000,"station_id":"ce4bhh92rcd13ifvqfh0","pricing_plan_id":"cebpf4jnsgd1na2vs0mg"},{"bike_id":"e2591219-46ca-4e83-8410-431cb2d3962e","system_id":"levelo_inurba_marseille","lat":43.30541,"lon":5.36703,"is_reserved":false,"is_disabled":false,"rental_uris":{"android":"levelo://app?vid=e2591219-46ca-4e83-8410-431cb2d3962e","ios":"levelo://app?vid=e2591219-46ca-4e83-8410-431cb2d3962e"},"vehicle_type_id":"4","last_reported":1739185647,"current_range_meters":28800,"station_id":"ce4bgrp2rcd13ifvqc9g","pricing_plan_id":"cebpf4jnsgd1na2vs0mg"},{"bike_id":"929cdf3a-55fb-4be2-8ffe-9d92cc0cf594","system_id":"levelo_inurba_marseille","lat":43.309,"lon":5.37191,"is_reserved":false,"is_disabled":false,"rental_uris":{"android":"levelo://app?vid=929cdf3a-55fb-4be2-8ffe-9d92cc0cf594","ios":"levelo://app?vid=929cdf3a-55fb-4be2-8ffe-9d92cc0cf594"},"vehicle_type_id":"4","last_reported":1739185647,"current_range_meters":36400,"station_id":"ce4bguh2rcd13ifvqckg","pricing_plan_id":"cebpf4jnsgd1na2vs0mg"},{"bike_id":"36428f2e-0efe-4963-97cd-156909322e5e","system_id":"levelo_inurba_marseille","lat":43.27993,"lon":5.40026,"is_reserved":false,"is_disabled":false,"rental_uris":{"android":"levelo://app?vid=36428f2e-0efe-4963-97cd-156909322e5e","ios":"levelo://app?vid=36428f2e-0efe-4963-97cd-156909322e5e"},"vehicle_type_id":"4","last_reported":1739185647,"current_range_meters":15200,"station_id":"ce4bho92rcd13ifvqh4g","pricing_plan_id":"cebpf4jnsgd1na2vs0mg"},{"bike_id":"db467166-9e3b-4f46-afe7-275e574fa527","system_id":"levelo_inurba_marseille","lat":43.23148,"lon":5.43728,"is_reserved":false,"is_disabled":false,"rental_uris":{"android":"levelo://app?vid=db467166-9e3b-4f46-afe7-275e574fa527","ios":"levelo://app?vid=db467166-9e3b-4f46-afe7-275e574fa527"},"vehicle_type_id":"4","last_reported":1739185647,"current_range_meters":38000,"station_id":"ce4bhmp2rcd13ifvqgog","pricing_plan_id":"cebpf4jnsgd1na2vs0mg"},{"bike_id":"fa4c38ca-1434-4334-ba91-f023c5f1d2dc","system_id":"levelo_inurba_marseille","lat":43.30296,"lon":5.36907,"is_reserved":false,"is_disabled":false,"rental_uris":{"android":"levelo://app?vid=fa4c38ca-1434-4334-ba91-f023c5f1d2dc","ios":"levelo://app?vid=fa4c38ca-1434-4334-ba91-f023c5f1d2dc"},"vehicle_type_id":"4","last_reported":1739185647,"current_range_meters":9200,"station_id":"ce4bgqh2rcd13ifvqc5g","pricing_plan_id":"cebpf4jnsgd1na2vs0mg"},{"bike_id":"6d5d3b2b-985b-48af-b146-edaaa90e6d1a","system_id":"levelo_inurba_marseille","lat":43.29589,"lon":5.37524,"is_reserved":false,"is_disabled":false,"rental_uris":{"android":"levelo://app?vid=6d5d3b2b-985b-48af-b146-edaaa90e6d1a","ios":"levelo://app?vid=6d5d3b2b-985b-48af-b146-edaaa90e6d1a"},"vehicle_type_id":"4","last_reported":1739185647,"current_range_meters":30800,"station_id":"ce4bgh92rcd13ifvqb50","pricing_plan_id":"cebpf4jnsgd1na2vs0mg"},{"bike_id":"40655dd3-a432-4ed7-a38a-b1243facaa3d","system_id":"levelo_inurba_marseille","lat":43.25003,"lon":5.38943,"is_reserved":false,"is_disabled":false,"rental_uris":{"android":"levelo://app?vid=40655dd3-a432-4ed7-a38a-b1243facaa3d","ios":"levelo://app?vid=40655dd3-a432-4ed7-a38a-b1243facaa3d"},"vehicle_type_id":"4","last_reported":1739185647,"current_range_meters":38800,"station_id":"ce4bhgp2rcd13ifvqfd0","pricing_plan_id":"cebpf4jnsgd1na2vs0mg"},{"bike_id":"34e6fa33-0c41-4468-852d-1827f4da05c9","system_id":"levelo_inurba_marseille","lat":43.249969,"lon":5.389292,"is_reserved":false,"is_disabled":false,"rental_uris":{"android":"levelo://app?vid=34e6fa33-0c41-4468-852d-1827f4da05c9","ios":"levelo://app?vid=34e6fa33-0c41-4468-852d-1827f4da05c9"},"vehicle_type_id":"4","last_reported":1739185647,"current_range_meters":38800,"station_id":"ce4bhgp2rcd13ifvqfd0","pricing_plan_id":"cebpf4jnsgd1na2vs0mg"},{"bike_id":"c5789181-d252-4c46-b75d-908f3a6a38fe","system_id":"levelo_inurba_marseille","lat":43.33738,"lon":5.39201,"is_reserved":false,"is_disabled":false,"rental_uris":{"android":"levelo://app?vid=c5789181-d252-4c46-b75d-908f3a6a38fe","ios":"levelo://app?vid=c5789181-d252-4c46-b75d-908f3a6a38fe"},"vehicle_type_id":"4","last_reported":1739185647,"current_range_meters":39200,"station_id":"ce4bhr92rcd13ifvqhsg","pricing_plan_id":"cebpf4jnsgd1na2vs0mg"},{"bike_id":"513c52f6-6493-44b1-9b3c-6e43c361d765","system_id":"levelo_inurba_marseille","lat":43.30003,"lon":5.37182,"is_reserved":false,"is_disabled":false,"rental_uris":{"android":"levelo://app?vid=513c52f6-6493-44b1-9b3c-6e43c361d765","ios":"levelo://app?vid=513c52f6-6493-44b1-9b3c-6e43c361d765"},"vehicle_type_id":"4","last_reported":1739185647,"current_range_meters":38800,"station_id":"ce4bgr92rcd13ifvqc7g","pricing_plan_id":"cebpf4jnsgd1na2vs0mg"},{"bike_id":"e8fccad8-f933-4850-9026-ed5e91df6b9f","system_id":"levelo_inurba_marseille","lat":43.27578,"lon":5.38422,"is_reserved":false,"is_disabled":false,"rental_uris":{"android":"levelo://app?vid=e8fccad8-f933-4850-9026-ed5e91df6b9f","ios":"levelo://app?vid=e8fccad8-f933-4850-9026-ed5e91df6b9f"},"vehicle_type_id":"4","last_reported":1739185647,"current_range_meters":36800,"station_id":"ce4bhh92rcd13ifvqfi0","pricing_plan_id":"cebpf4jnsgd1na2vs0mg"},{"bike_id":"64d81ec7-3e38-4641-a45d-cb257f5c4aed","system_id":"levelo_inurba_marseille","lat":43.27815,"lon":5.40711,"is_reserved":false,"is_disabled":false,"rental_uris":{"android":"levelo://app?vid=64d81ec7-3e38-4641-a45d-cb257f5c4aed","ios":"levelo://app?vid=64d81ec7-3e38-4641-a45d-cb257f5c4aed"},"vehicle_type_id":"4","last_reported":1739185647,"current_range_meters":39200,"station_id":"ce4bhnh2rcd13ifvqgtg","pricing_plan_id":"cebpf4jnsgd1na2vs0mg"},{"bike_id":"332a6544-34c1-4f62-9647-569a46cafec7","system_id":"levelo_inurba_marseille","lat":43.2768,"lon":5.38926,"is_reserved":false,"is_disabled":false,"rental_uris":{"android":"levelo://app?vid=332a6544-34c1-4f62-9647-569a46cafec7","ios":"levelo://app?vid=332a6544-34c1-4f62-9647-569a46cafec7"},"vehicle_type_id":"4","last_reported":1739185647,"current_range_meters":25200,"station_id":"ce4bhi12rcd13ifvqfo0","pricing_plan_id":"cebpf4jnsgd1na2vs0mg"},{"bike_id":"172343ba-5115-46fc-9e2e-684ae01d319f","system_id":"levelo_inurba_marseille","lat":43.30283,"lon":5.37723,"is_reserved":false,"is_disabled":false,"rental_uris":{"android":"levelo://app?vid=172343ba-5115-46fc-9e2e-684ae01d319f","ios":"levelo://app?vid=172343ba-5115-46fc-9e2e-684ae01d319f"},"vehicle_type_id":"4","last_reported":1739185647,"current_range_meters":14400,"station_id":"ce4bguh2rcd13ifvqcj0","pricing_plan_id":"cebpf4jnsgd1na2vs0mg"},{"bike_id":"212a6d7a-801d-490a-bada-935623e604e1","system_id":"levelo_inurba_marseille","lat":43.31711,"lon":5.40466,"is_reserved":false,"is_disabled":false,"rental_uris":{"android":"levelo://app?vid=212a6d7a-801d-490a-bada-935623e604e1","ios":"levelo://app?vid=212a6d7a-801d-490a-bada-935623e604e1"},"vehicle_type_id":"4","last_reported":1739185647,"current_range_meters":38800,"station_id":"ce4bh012rcd13ifvqd00","pricing_plan_id":"cebpf4jnsgd1na2vs0mg"},{"bike_id":"7e28cc8e-1e8a-4d6a-aa69-38cf725ceec2","system_id":"levelo_inurba_marseille","lat":43.29261,"lon":5.3844,"is_reserved":false,"is_disabled":true,"rental_uris":{"android":"levelo://app?vid=7e28cc8e-1e8a-4d6a-aa69-38cf725ceec2","ios":"levelo://app?vid=7e28cc8e-1e8a-4d6a-aa69-38cf725ceec2"},"vehicle_type_id":"4","last_reported":1739185647,"current_range_meters":15200,"station_id":"ce4bh692rcd13ifvqea0","pricing_plan_id":"cebpf4jnsgd1na2vs0mg"},{"bike_id":"bc4abc58-0169-44e7-a2dd-d4fa4a8b4eb9","system_id":"levelo_inurba_marseille","lat":43.24185,"lon":5.39737,"is_reserved":false,"is_disabled":false,"rental_uris":{"android":"levelo://app?vid=bc4abc58-0169-44e7-a2dd-d4fa4a8b4eb9","ios":"levelo://app?vid=bc4abc58-0169-44e7-a2dd-d4fa4a8b4eb9"},"vehicle_type_id":"4","last_reported":1739185647,"current_range_meters":17200,"station_id":"ce4bhn12rcd13ifvqgpg","pricing_plan_id":"cebpf4jnsgd1na2vs0mg"},{"bike_id":"82e3a3d7-ff9f-49fd-b359-ad91d0d59537","system_id":"levelo_inurba_marseille","lat":43.27315,"lon":5.39118,"is_reserved":false,"is_disabled":false,"rental_uris":{"android":"levelo://app?vid=82e3a3d7-ff9f-49fd-b359-ad91d0d59537","ios":"levelo://app?vid=82e3a3d7-ff9f-49fd-b359-ad91d0d59537"},"vehicle_type_id":"4","last_reported":1739185647,"current_range_meters":37600,"station_id":"ce4bhgp2rcd13ifvqfe0","pricing_plan_id":"cebpf4jnsgd1na2vs0mg"},{"bike_id":"fa27ac95-8045-4d94-a718-1abd16e21e15","system_id":"levelo_inurba_marseille","lat":43.2557,"lon":5.38221,"is_reserved":false,"is_disabled":false,"rental_uris":{"android":"levelo://app?vid=fa27ac95-8045-4d94-a718-1abd16e21e15","ios":"levelo://app?vid=fa27ac95-8045-4d94-a718-1abd16e21e15"},"vehicle_type_id":"4","last_reported":1739185647,"current_range_meters":25600,"station_id":"ce4bhih2rcd13ifvqfs0","pricing_plan_id":"cebpf4jnsgd1na2vs0mg"},{"bike_id":"880ce712-c0f5-4aaf-8504-50bcf653db47","system_id":"levelo_inurba_marseille","lat":43.24817,"lon":5.37454,"is_reserved":false,"is_disabled":false,"rental_uris":{"android":"levelo://app?vid=880ce712-c0f5-4aaf-8504-50bcf653db47","ios":"levelo://app?vid=880ce712-c0f5-4aaf-8504-50bcf653db47"},"vehicle_type_id":"4","last_reported":1739185647,"current_range_meters":25200,"station_id":"ce4bhgh2rcd13ifvqfb0","pricing_plan_id":"cebpf4jnsgd1na2vs0mg"},{"bike_id":"9acc70fb-d762-48df-8fa6-8444b3c0d5eb","system_id":"levelo_inurba_marseille","lat":43.2841,"lon":5.37529,"is_reserved":false,"is_disabled":false,"rental_uris":{"android":"levelo://app?vid=9acc70fb-d762-48df-8fa6-8444b3c0d5eb","ios":"levelo://app?vid=9acc70fb-d762-48df-8fa6-8444b3c0d5eb"},"vehicle_type_id":"4","last_reported":1739185647,"current_range_meters":4800,"station_id":"ce4bh412rcd13ifvqds0","pricing_plan_id":"cebpf4jnsgd1na2vs0mg"},{"bike_id":"926e6c21-b72f-4ae5-a8a1-f8c20c9e713b","system_id":"levelo_inurba_marseille","lat":43.317,"lon":5.40472,"is_reserved":false,"is_disabled":false,"rental_uris":{"android":"levelo://app?vid=926e6c21-b72f-4ae5-a8a1-f8c20c9e713b","ios":"levelo://app?vid=926e6c21-b72f-4ae5-a8a1-f8c20c9e713b"},"vehicle_type_id":"4","last_reported":1739185647,"current_range_meters":9600,"station_id":"ce4bh012rcd13ifvqd00","pricing_plan_id":"cebpf4jnsgd1na2vs0mg"},{"bike_id":"656b3b3b-ebfa-4345-b7c9-9eedd9381155","system_id":"levelo_inurba_marseille","lat":43.30802,"lon":5.40009,"is_reserved":false,"is_disabled":false,"rental_uris":{"android":"levelo://app?vid=656b3b3b-ebfa-4345-b7c9-9eedd9381155","ios":"levelo://app?vid=656b3b3b-ebfa-4345-b7c9-9eedd9381155"},"vehicle_type_id":"4","last_reported":1739185647,"current_range_meters":8400,"station_id":"","pricing_plan_id":"cebpf4jnsgd1na2vs0mg"},{"bike_id":"fc34dd4a-8401-4452-b28c-284b4c758b9c","system_id":"levelo_inurba_marseille","lat":43.28414,"lon":5.34993,"is_reserved":false,"is_disabled":false,"rental_uris":{"android":"levelo://app?vid=fc34dd4a-8401-4452-b28c-284b4c758b9c","ios":"levelo://app?vid=fc34dd4a-8401-4452-b28c-284b4c758b9c"},"vehicle_type_id":"4","last_reported":1739185647,"current_range_meters":6800,"station_id":"ce4bhbh2rcd13ifvqepg","pricing_plan_id":"cebpf4jnsgd1na2vs0mg"},{"bike_id":"f9e55283-5235-4bc8-9981-1a11a4d30820","system_id":"levelo_inurba_marseille","lat":43.30144,"lon":5.3742,"is_reserved":false,"is_disabled":false,"rental_uris":{"android":"levelo://app?vid=f9e55283-5235-4bc8-9981-1a11a4d30820","ios":"levelo://app?vid=f9e55283-5235-4bc8-9981-1a11a4d30820"},"vehicle_type_id":"4","last_reported":1739185647,"current_range_meters":38400,"station_id":"ce4bgs92rcd13ifvqcc0","pricing_plan_id":"cebpf4jnsgd1na2vs0mg"},{"bike_id":"f9ec8a41-50bd-48e3-a9c3-1936ef8a8e37","system_id":"levelo_inurba_marseille","lat":43.26955,"lon":5.38668,"is_reserved":false,"is_disabled":false,"rental_uris":{"android":"levelo://app?vid=f9ec8a41-50bd-48e3-a9c3-1936ef8a8e37","ios":"levelo://app?vid=f9ec8a41-50bd-48e3-a9c3-1936ef8a8e37"},"vehicle_type_id":"4","last_reported":1739185647,"current_range_meters":38800,"station_id":"ce4bhh92rcd13ifvqfh0","pricing_plan_id":"cebpf4jnsgd1na2vs0mg"},{"bike_id":"0aac5c3b-a9f3-4414-8736-ac488c1a20d1","system_id":"levelo_inurba_marseille","lat":43.27495,"lon":5.42454,"is_reserved":false,"is_disabled":false,"rental_uris":{"android":"levelo://app?vid=0aac5c3b-a9f3-4414-8736-ac488c1a20d1","ios":"levelo://app?vid=0aac5c3b-a9f3-4414-8736-ac488c1a20d1"},"vehicle_type_id":"4","last_reported":1739185647,"current_range_meters":38800,"station_id":"ce4bho92rcd13ifvqh3g","pricing_plan_id":"cebpf4jnsgd1na2vs0mg"},{"bike_id":"60a94b8f-3937-4317-be48-6880cd0d146b","system_id":"levelo_inurba_marseille","lat":43.29843,"lon":5.36265,"is_reserved":false,"is_disabled":false,"rental_uris":{"android":"levelo://app?vid=60a94b8f-3937-4317-be48-6880cd0d146b","ios":"levelo://app?vid=60a94b8f-3937-4317-be48-6880cd0d146b"},"vehicle_type_id":"4","last_reported":1739185647,"current_range_meters":33600,"station_id":"ce4bgpp2rcd13ifvqc3g","pricing_plan_id":"cebpf4jnsgd1na2vs0mg"},{"bike_id":"3f4ed027-7d8a-4bd5-a262-698a07451af5","system_id":"levelo_inurba_marseille","lat":43.30466,"lon":5.37915,"is_reserved":false,"is_disabled":false,"rental_uris":{"android":"levelo://app?vid=3f4ed027-7d8a-4bd5-a262-698a07451af5","ios":"levelo://app?vid=3f4ed027-7d8a-4bd5-a262-698a07451af5"},"vehicle_type_id":"4","last_reported":1739185647,"current_range_meters":22400,"station_id":"ce4bgup2rcd13ifvqcn0","pricing_plan_id":"cebpf4jnsgd1na2vs0mg"},{"bike_id":"73fd26ff-a2cc-4ad2-bcdd-b2aeb01aa0e5","system_id":"levelo_inurba_marseille","lat":43.29855,"lon":5.39723,"is_reserved":false,"is_disabled":false,"rental_uris":{"android":"levelo://app?vid=73fd26ff-a2cc-4ad2-bcdd-b2aeb01aa0e5","ios":"levelo://app?vid=73fd26ff-a2cc-4ad2-bcdd-b2aeb01aa0e5"},"vehicle_type_id":"4","last_reported":1739185647,"current_range_meters":27600,"station_id":"ce4bh0h2rcd13ifvqd50","pricing_plan_id":"cebpf4jnsgd1na2vs0mg"},{"bike_id":"fdb11b92-1db5-4787-9aa8-18c8a6795242","system_id":"levelo_inurba_marseille","lat":43.30474,"lon":5.37911,"is_reserved":false,"is_disabled":false,"rental_uris":{"android":"levelo://app?vid=fdb11b92-1db5-4787-9aa8-18c8a6795242","ios":"levelo://app?vid=fdb11b92-1db5-4787-9aa8-18c8a6795242"},"vehicle_type_id":"4","last_reported":1739185647,"current_range_meters":38800,"station_id":"ce4bgup2rcd13ifvqcn0","pricing_plan_id":"cebpf4jnsgd1na2vs0mg"},{"bike_id":"d481498f-a9b6-4137-868b-00a09b45ae84","system_id":"levelo_inurba_marseille","lat":43.29651,"lon":5.37301,"is_reserved":false,"is_disabled":false,"rental_uris":{"android":"levelo://app?vid=d481498f-a9b6-4137-868b-00a09b45ae84","ios":"levelo://app?vid=d481498f-a9b6-4137-868b-00a09b45ae84"},"vehicle_type_id":"4","last_reported":1739185647,"current_range_meters":37600,"station_id":"ce4bgk12rcd13ifvqbj0","pricing_plan_id":"cebpf4jnsgd1na2vs0mg"},{"bike_id":"a5a14ac8-8c40-406c-865a-09ed98e25470","system_id":"levelo_inurba_marseille","lat":43.23195,"lon":5.35549,"is_reserved":false,"is_disabled":false,"rental_uris":{"android":"levelo://app?vid=a5a14ac8-8c40-406c-865a-09ed98e25470","ios":"levelo://app?vid=a5a14ac8-8c40-406c-865a-09ed98e25470"},"vehicle_type_id":"4","last_reported":1739185647,"current_range_meters":9600,"station_id":"ce4bhu92rcd13ifvqi70","pricing_plan_id":"cebpf4jnsgd1na2vs0mg"},{"bike_id":"9d7240fb-8e21-4950-bea4-7cd7d1bcedc2","system_id":"levelo_inurba_marseille","lat":43.28163,"lon":5.42663,"is_reserved":false,"is_disabled":false,"rental_uris":{"android":"levelo://app?vid=9d7240fb-8e21-4950-bea4-7cd7d1bcedc2","ios":"levelo://app?vid=9d7240fb-8e21-4950-bea4-7cd7d1bcedc2"},"vehicle_type_id":"4","last_reported":1739185647,"current_range_meters":18800,"station_id":"ce4bhnh2rcd13ifvqgug","pricing_plan_id":"cebpf4jnsgd1na2vs0mg"},{"bike_id":"87f55178-b221-4f5a-9b43-4df846d42ec8","system_id":"levelo_inurba_marseille","lat":43.32273,"lon":5.3829,"is_reserved":false,"is_disabled":false,"rental_uris":{"android":"levelo://app?vid=87f55178-b221-4f5a-9b43-4df846d42ec8","ios":"levelo://app?vid=87f55178-b221-4f5a-9b43-4df846d42ec8"},"vehicle_type_id":"4","last_reported":1739185647,"current_range_meters":39200,"station_id":"ce4bhr12rcd13ifvqhqg","pricing_plan_id":"cebpf4jnsgd1na2vs0mg"},{"bike_id":"81baaf39-712c-42e3-882e-3d2884ca6a9c","system_id":"levelo_inurba_marseille","lat":43.27948,"lon":5.41055,"is_reserved":false,"is_disabled":false,"rental_uris":{"android":"levelo://app?vid=81baaf39-712c-42e3-882e-3d2884ca6a9c","ios":"levelo://app?vid=81baaf39-712c-42e3-882e-3d2884ca6a9c"},"vehicle_type_id":"4","last_reported":1739185647,"current_range_meters":26000,"station_id":"ce4bhnp2rcd13ifvqh0g","pricing_plan_id":"cebpf4jnsgd1na2vs0mg"},{"bike_id":"021f83ba-14b3-49e1-8052-42c33a3fd8f9","system_id":"levelo_inurba_marseille","lat":43.27939,"lon":5.41073,"is_reserved":false,"is_disabled":false,"rental_uris":{"android":"levelo://app?vid=021f83ba-14b3-49e1-8052-42c33a3fd8f9","ios":"levelo://app?vid=021f83ba-14b3-49e1-8052-42c33a3fd8f9"},"vehicle_type_id":"4","last_reported":1739185647,"current_range_meters":38800,"station_id":"ce4bhnp2rcd13ifvqh0g","pricing_plan_id":"cebpf4jnsgd1na2vs0mg"},{"bike_id":"0fd62752-7cb6-47dd-9477-dfc63d3192bb","system_id":"levelo_inurba_marseille","lat":43.27209,"lon":5.39179,"is_reserved":false,"is_disabled":false,"rental_uris":{"android":"levelo://app?vid=0fd62752-7cb6-47dd-9477-dfc63d3192bb","ios":"levelo://app?vid=0fd62752-7cb6-47dd-9477-dfc63d3192bb"},"vehicle_type_id":"4","last_reported":1739185647,"current_range_meters":38800,"station_id":"ce4bhhp2rcd13ifvqfm0","pricing_plan_id":"cebpf4jnsgd1na2vs0mg"},{"bike_id":"e6c05e2e-bbb7-4cd4-bee9-b7ba62e98696","system_id":"levelo_inurba_marseille","lat":43.27803,"lon":5.40711,"is_reserved":false,"is_disabled":false,"rental_uris":{"android":"levelo://app?vid=e6c05e2e-bbb7-4cd4-bee9-b7ba62e98696","ios":"levelo://app?vid=e6c05e2e-bbb7-4cd4-bee9-b7ba62e98696"},"vehicle_type_id":"4","last_reported":1739185647,"current_range_meters":33200,"station_id":"ce4bhnh2rcd13ifvqgtg","pricing_plan_id":"cebpf4jnsgd1na2vs0mg"},{"bike_id":"59db9156-837c-4bef-bdf0-6cb05d00fb23","system_id":"levelo_inurba_marseille","lat":43.2417,"lon":5.36378,"is_reserved":false,"is_disabled":false,"rental_uris":{"android":"levelo://app?vid=59db9156-837c-4bef-bdf0-6cb05d00fb23","ios":"levelo://app?vid=59db9156-837c-4bef-bdf0-6cb05d00fb23"},"vehicle_type_id":"4","last_reported":1739185647,"current_range_meters":19200,"station_id":"cpo36qri1sfpv3e86is0","pricing_plan_id":"cebpf4jnsgd1na2vs0mg"},{"bike_id":"86f518ee-9ada-41ed-8a82-0382259ca8c9","system_id":"levelo_inurba_marseille","lat":43.29959,"lon":5.37177,"is_reserved":false,"is_disabled":false,"rental_uris":{"android":"levelo://app?vid=86f518ee-9ada-41ed-8a82-0382259ca8c9","ios":"levelo://app?vid=86f518ee-9ada-41ed-8a82-0382259ca8c9"},"vehicle_type_id":"4","last_reported":1739185647,"current_range_meters":37600,"station_id":"ce4bgr92rcd13ifvqc7g","pricing_plan_id":"cebpf4jnsgd1na2vs0mg"},{"bike_id":"6ebc0ceb-49d6-4c6e-baa3-b526c8531466","system_id":"levelo_inurba_marseille","lat":43.30151,"lon":5.38089,"is_reserved":false,"is_disabled":false,"rental_uris":{"android":"levelo://app?vid=6ebc0ceb-49d6-4c6e-baa3-b526c8531466","ios":"levelo://app?vid=6ebc0ceb-49d6-4c6e-baa3-b526c8531466"},"vehicle_type_id":"4","last_reported":1739185647,"current_range_meters":36000,"station_id":"ce4bgjp2rcd13ifvqbh0","pricing_plan_id":"cebpf4jnsgd1na2vs0mg"},{"bike_id":"b076fa3f-36af-4c2e-a402-7d3bedee5d6e","system_id":"levelo_inurba_marseille","lat":43.29687,"lon":5.37301,"is_reserved":false,"is_disabled":false,"rental_uris":{"android":"levelo://app?vid=b076fa3f-36af-4c2e-a402-7d3bedee5d6e","ios":"levelo://app?vid=b076fa3f-36af-4c2e-a402-7d3bedee5d6e"},"vehicle_type_id":"4","last_reported":1739185647,"current_range_meters":38800,"station_id":"ce4bgk12rcd13ifvqbj0","pricing_plan_id":"cebpf4jnsgd1na2vs0mg"},{"bike_id":"e6dc9bdf-237c-47b7-ab28-1a867206a3b1","system_id":"levelo_inurba_marseille","lat":43.3014,"lon":5.38113,"is_reserved":false,"is_disabled":true,"rental_uris":{"android":"levelo://app?vid=e6dc9bdf-237c-47b7-ab28-1a867206a3b1","ios":"levelo://app?vid=e6dc9bdf-237c-47b7-ab28-1a867206a3b1"},"vehicle_type_id":"4","last_reported":1739185647,"current_range_meters":22400,"station_id":"ce4bgjp2rcd13ifvqbh0","pricing_plan_id":"cebpf4jnsgd1na2vs0mg"},{"bike_id":"fdf8b042-2819-4822-aa92-429475857d28","system_id":"levelo_inurba_marseille","lat":43.29014,"lon":5.38658,"is_reserved":false,"is_disabled":false,"rental_uris":{"android":"levelo://app?vid=fdf8b042-2819-4822-aa92-429475857d28","ios":"levelo://app?vid=fdf8b042-2819-4822-aa92-429475857d28"},"vehicle_type_id":"4","last_reported":1739185647,"current_range_meters":20800,"station_id":"ce4bh4p2rcd13ifvqe0g","pricing_plan_id":"cebpf4jnsgd1na2vs0mg"},{"bike_id":"9b5a527a-ef6b-49c5-b166-8d1a6e5fb72e","system_id":"levelo_inurba_marseille","lat":43.28478,"lon":5.38424,"is_reserved":false,"is_disabled":false,"rental_uris":{"android":"levelo://app?vid=9b5a527a-ef6b-49c5-b166-8d1a6e5fb72e","ios":"levelo://app?vid=9b5a527a-ef6b-49c5-b166-8d1a6e5fb72e"},"vehicle_type_id":"4","last_reported":1739185647,"current_range_meters":8800,"station_id":"ce4bh512rcd13ifvqe3g","pricing_plan_id":"cebpf4jnsgd1na2vs0mg"},{"bike_id":"9c3ed8fb-7268-418c-ac09-3f255c9e9b5e","system_id":"levelo_inurba_marseille","lat":43.280334,"lon":5.369539,"is_reserved":false,"is_disabled":false,"rental_uris":{"android":"levelo://app?vid=9c3ed8fb-7268-418c-ac09-3f255c9e9b5e","ios":"levelo://app?vid=9c3ed8fb-7268-418c-ac09-3f255c9e9b5e"},"vehicle_type_id":"4","last_reported":1739185647,"current_range_meters":33600,"station_id":"ce4bha12rcd13ifvqef0","pricing_plan_id":"cebpf4jnsgd1na2vs0mg"},{"bike_id":"76c178be-0199-42dd-8ee7-b52fa81b7f4e","system_id":"levelo_inurba_marseille","lat":43.29261,"lon":5.3844,"is_reserved":false,"is_disabled":false,"rental_uris":{"android":"levelo://app?vid=76c178be-0199-42dd-8ee7-b52fa81b7f4e","ios":"levelo://app?vid=76c178be-0199-42dd-8ee7-b52fa81b7f4e"},"vehicle_type_id":"4","last_reported":1739185647,"current_range_meters":28800,"station_id":"ce4bh692rcd13ifvqea0","pricing_plan_id":"cebpf4jnsgd1na2vs0mg"},{"bike_id":"c91fa3f3-a774-43d0-92fe-010e57bc5d25","system_id":"levelo_inurba_marseille","lat":43.26183,"lon":5.3746,"is_reserved":false,"is_disabled":false,"rental_uris":{"android":"levelo://app?vid=c91fa3f3-a774-43d0-92fe-010e57bc5d25","ios":"levelo://app?vid=c91fa3f3-a774-43d0-92fe-010e57bc5d25"},"vehicle_type_id":"4","last_reported":1739185647,"current_range_meters":7200,"station_id":"ce4bhgp2rcd13ifvqfc0","pricing_plan_id":"cebpf4jnsgd1na2vs0mg"},{"bike_id":"277b6126-0441-4bd1-a1f0-147e7c5fd945","system_id":"levelo_inurba_marseille","lat":43.26038,"lon":5.37553,"is_reserved":false,"is_disabled":false,"rental_uris":{"android":"levelo://app?vid=277b6126-0441-4bd1-a1f0-147e7c5fd945","ios":"levelo://app?vid=277b6126-0441-4bd1-a1f0-147e7c5fd945"},"vehicle_type_id":"4","last_reported":1739185647,"current_range_meters":38800,"station_id":"ce4bhgh2rcd13ifvqfa0","pricing_plan_id":"cebpf4jnsgd1na2vs0mg"},{"bike_id":"7ea82992-a69c-4a24-9e15-13a7cbb440a8","system_id":"levelo_inurba_marseille","lat":43.30592,"lon":5.39361,"is_reserved":false,"is_disabled":false,"rental_uris":{"android":"levelo://app?vid=7ea82992-a69c-4a24-9e15-13a7cbb440a8","ios":"levelo://app?vid=7ea82992-a69c-4a24-9e15-13a7cbb440a8"},"vehicle_type_id":"4","last_reported":1739185647,"current_range_meters":11600,"station_id":"ce4bh0p2rcd13ifvqd80","pricing_plan_id":"cebpf4jnsgd1na2vs0mg"},{"bike_id":"7e706de0-ad0d-4701-9c39-a6ff7b0a507a","system_id":"levelo_inurba_marseille","lat":43.29537,"lon":5.37514,"is_reserved":false,"is_disabled":true,"rental_uris":{"android":"levelo://app?vid=7e706de0-ad0d-4701-9c39-a6ff7b0a507a","ios":"levelo://app?vid=7e706de0-ad0d-4701-9c39-a6ff7b0a507a"},"vehicle_type_id":"4","last_reported":1739185647,"current_range_meters":39200,"station_id":"ce4bgkp2rcd13ifvqbmg","pricing_plan_id":"cebpf4jnsgd1na2vs0mg"},{"bike_id":"e0668dc4-b635-4db8-9d9b-275cae297a6f","system_id":"levelo_inurba_marseille","lat":43.30313,"lon":5.39211,"is_reserved":false,"is_disabled":true,"rental_uris":{"android":"levelo://app?vid=e0668dc4-b635-4db8-9d9b-275cae297a6f","ios":"levelo://app?vid=e0668dc4-b635-4db8-9d9b-275cae297a6f"},"vehicle_type_id":"4","last_reported":1739185647,"current_range_meters":36800,"station_id":"ce4bgkh2rcd13ifvqbk0","pricing_plan_id":"cebpf4jnsgd1na2vs0mg"},{"bike_id":"023da4ba-3275-433f-9c20-6aa1fe5c1824","system_id":"levelo_inurba_marseille","lat":43.24067,"lon":5.37749,"is_reserved":false,"is_disabled":false,"rental_uris":{"android":"levelo://app?vid=023da4ba-3275-433f-9c20-6aa1fe5c1824","ios":"levelo://app?vid=023da4ba-3275-433f-9c20-6aa1fe5c1824"},"vehicle_type_id":"4","last_reported":1739185647,"current_range_meters":30400,"station_id":"ce4bhnp2rcd13ifvqgvg","pricing_plan_id":"cebpf4jnsgd1na2vs0mg"},{"bike_id":"5c4011be-9b33-43c9-a6d1-d3816c99eeee","system_id":"levelo_inurba_marseille","lat":43.24672,"lon":5.38165,"is_reserved":false,"is_disabled":false,"rental_uris":{"android":"levelo://app?vid=5c4011be-9b33-43c9-a6d1-d3816c99eeee","ios":"levelo://app?vid=5c4011be-9b33-43c9-a6d1-d3816c99eeee"},"vehicle_type_id":"4","last_reported":1739185647,"current_range_meters":12400,"station_id":"ce4bhih2rcd13ifvqfr0","pricing_plan_id":"cebpf4jnsgd1na2vs0mg"},{"bike_id":"355d50d7-d2e4-4ce2-b36b-d7abd8fc54de","system_id":"levelo_inurba_marseille","lat":43.3044,"lon":5.39743,"is_reserved":false,"is_disabled":false,"rental_uris":{"android":"levelo://app?vid=355d50d7-d2e4-4ce2-b36b-d7abd8fc54de","ios":"levelo://app?vid=355d50d7-d2e4-4ce2-b36b-d7abd8fc54de"},"vehicle_type_id":"4","last_reported":1739185647,"current_range_meters":8800,"station_id":"ce4bh092rcd13ifvqd20","pricing_plan_id":"cebpf4jnsgd1na2vs0mg"},{"bike_id":"03dc0a60-23d6-429c-a406-0c86a8f516e4","system_id":"levelo_inurba_marseille","lat":43.24199,"lon":5.39735,"is_reserved":false,"is_disabled":false,"rental_uris":{"android":"levelo://app?vid=03dc0a60-23d6-429c-a406-0c86a8f516e4","ios":"levelo://app?vid=03dc0a60-23d6-429c-a406-0c86a8f516e4"},"vehicle_type_id":"4","last_reported":1739185647,"current_range_meters":30000,"station_id":"ce4bhn12rcd13ifvqgpg","pricing_plan_id":"cebpf4jnsgd1na2vs0mg"},{"bike_id":"81893632-bbf0-4b82-8508-db8ff6759956","system_id":"levelo_inurba_marseille","lat":43.25817,"lon":5.39438,"is_reserved":false,"is_disabled":false,"rental_uris":{"android":"levelo://app?vid=81893632-bbf0-4b82-8508-db8ff6759956","ios":"levelo://app?vid=81893632-bbf0-4b82-8508-db8ff6759956"},"vehicle_type_id":"4","last_reported":1739185647,"current_range_meters":38800,"station_id":"ce4bhip2rcd13ifvqft0","pricing_plan_id":"cebpf4jnsgd1na2vs0mg"},{"bike_id":"498ea1ef-ccff-4684-8a1c-6f890d8f9bfa","system_id":"levelo_inurba_marseille","lat":43.26945,"lon":5.40262,"is_reserved":false,"is_disabled":false,"rental_uris":{"android":"levelo://app?vid=498ea1ef-ccff-4684-8a1c-6f890d8f9bfa","ios":"levelo://app?vid=498ea1ef-ccff-4684-8a1c-6f890d8f9bfa"},"vehicle_type_id":"4","last_reported":1739185647,"current_range_meters":34000,"station_id":"cjm6bp8fraef2m0cb0m0","pricing_plan_id":"cebpf4jnsgd1na2vs0mg"},{"bike_id":"5d153fb8-c265-4a6c-ab64-1863b21e42fd","system_id":"levelo_inurba_marseille","lat":43.29301,"lon":5.37154,"is_reserved":false,"is_disabled":false,"rental_uris":{"android":"levelo://app?vid=5d153fb8-c265-4a6c-ab64-1863b21e42fd","ios":"levelo://app?vid=5d153fb8-c265-4a6c-ab64-1863b21e42fd"},"vehicle_type_id":"4","last_reported":1739185647,"current_range_meters":38800,"station_id":"ce4bgh92rcd13ifvqb40","pricing_plan_id":"cebpf4jnsgd1na2vs0mg"},{"bike_id":"0d250775-b1d2-47f4-b5cf-b6a04af7615e","system_id":"levelo_inurba_marseille","lat":43.27383,"lon":5.3626,"is_reserved":false,"is_disabled":false,"rental_uris":{"android":"levelo://app?vid=0d250775-b1d2-47f4-b5cf-b6a04af7615e","ios":"levelo://app?vid=0d250775-b1d2-47f4-b5cf-b6a04af7615e"},"vehicle_type_id":"4","last_reported":1739185647,"current_range_meters":32400,"station_id":"ce4bhbh2rcd13ifvqeo0","pricing_plan_id":"cebpf4jnsgd1na2vs0mg"},{"bike_id":"0326d8ff-e3b3-4160-8912-5d60451b8b69","system_id":"levelo_inurba_marseille","lat":43.31884,"lon":5.4075,"is_reserved":false,"is_disabled":false,"rental_uris":{"android":"levelo://app?vid=0326d8ff-e3b3-4160-8912-5d60451b8b69","ios":"levelo://app?vid=0326d8ff-e3b3-4160-8912-5d60451b8b69"},"vehicle_type_id":"4","last_reported":1739185647,"current_range_meters":13600,"station_id":"ce4bhq12rcd13ifvqhig","pricing_plan_id":"cebpf4jnsgd1na2vs0mg"},{"bike_id":"56b96f84-4e0c-4d01-882b-bb088a4694e1","system_id":"levelo_inurba_marseille","lat":43.29046,"lon":5.38651,"is_reserved":false,"is_disabled":false,"rental_uris":{"android":"levelo://app?vid=56b96f84-4e0c-4d01-882b-bb088a4694e1","ios":"levelo://app?vid=56b96f84-4e0c-4d01-882b-bb088a4694e1"},"vehicle_type_id":"4","last_reported":1739185647,"current_range_meters":36800,"station_id":"ce4bh4p2rcd13ifvqe0g","pricing_plan_id":"cebpf4jnsgd1na2vs0mg"},{"bike_id":"adc44bc8-5d0f-4846-b9b6-46a8dd0978e5","system_id":"levelo_inurba_marseille","lat":43.2985,"lon":5.36277,"is_reserved":false,"is_disabled":false,"rental_uris":{"android":"levelo://app?vid=adc44bc8-5d0f-4846-b9b6-46a8dd0978e5","ios":"levelo://app?vid=adc44bc8-5d0f-4846-b9b6-46a8dd0978e5"},"vehicle_type_id":"4","last_reported":1739185647,"current_range_meters":39200,"station_id":"ce4bgpp2rcd13ifvqc3g","pricing_plan_id":"cebpf4jnsgd1na2vs0mg"},{"bike_id":"b4b067d7-705d-49f6-a25c-21b77de29c09","system_id":"levelo_inurba_marseille","lat":43.29707,"lon":5.36617,"is_reserved":false,"is_disabled":false,"rental_uris":{"android":"levelo://app?vid=b4b067d7-705d-49f6-a25c-21b77de29c09","ios":"levelo://app?vid=b4b067d7-705d-49f6-a25c-21b77de29c09"},"vehicle_type_id":"4","last_reported":1739185647,"current_range_meters":22800,"station_id":"ce4bgn12rcd13ifvqbt0","pricing_plan_id":"cebpf4jnsgd1na2vs0mg"},{"bike_id":"f8c443c9-9449-42c3-8097-84fbe4b4af1a","system_id":"levelo_inurba_marseille","lat":43.30885,"lon":5.39665,"is_reserved":false,"is_disabled":false,"rental_uris":{"android":"levelo://app?vid=f8c443c9-9449-42c3-8097-84fbe4b4af1a","ios":"levelo://app?vid=f8c443c9-9449-42c3-8097-84fbe4b4af1a"},"vehicle_type_id":"4","last_reported":1739185647,"current_range_meters":8800,"station_id":"ce4bh012rcd13ifvqcv0","pricing_plan_id":"cebpf4jnsgd1na2vs0mg"},{"bike_id":"1dd9bb3b-aa02-4555-8bde-4641fd01ee8b","system_id":"levelo_inurba_marseille","lat":43.29623,"lon":5.37729,"is_reserved":false,"is_disabled":false,"rental_uris":{"android":"levelo://app?vid=1dd9bb3b-aa02-4555-8bde-4641fd01ee8b","ios":"levelo://app?vid=1dd9bb3b-aa02-4555-8bde-4641fd01ee8b"},"vehicle_type_id":"4","last_reported":1739185647,"current_range_meters":34800,"station_id":"ce4bgi92rcd13ifvqb90","pricing_plan_id":"cebpf4jnsgd1na2vs0mg"},{"bike_id":"ffe0f4ec-452b-455a-97e3-ecc9f5ed121c","system_id":"levelo_inurba_marseille","lat":43.29864,"lon":5.38912,"is_reserved":false,"is_disabled":true,"rental_uris":{"android":"levelo://app?vid=ffe0f4ec-452b-455a-97e3-ecc9f5ed121c","ios":"levelo://app?vid=ffe0f4ec-452b-455a-97e3-ecc9f5ed121c"},"vehicle_type_id":"4","last_reported":1739185647,"current_range_meters":29600,"station_id":"ce4bh392rcd13ifvqdl0","pricing_plan_id":"cebpf4jnsgd1na2vs0mg"},{"bike_id":"734ea90b-1add-4a3a-aa69-5d9bc7894166","system_id":"levelo_inurba_marseille","lat":43.27494,"lon":5.42461,"is_reserved":false,"is_disabled":false,"rental_uris":{"android":"levelo://app?vid=734ea90b-1add-4a3a-aa69-5d9bc7894166","ios":"levelo://app?vid=734ea90b-1add-4a3a-aa69-5d9bc7894166"},"vehicle_type_id":"4","last_reported":1739185647,"current_range_meters":38800,"station_id":"ce4bhn92rcd13ifvqgrg","pricing_plan_id":"cebpf4jnsgd1na2vs0mg"},{"bike_id":"32f6c601-a72a-4c71-9e21-052cdde19362","system_id":"levelo_inurba_marseille","lat":43.31715,"lon":5.43714,"is_reserved":false,"is_disabled":false,"rental_uris":{"android":"levelo://app?vid=32f6c601-a72a-4c71-9e21-052cdde19362","ios":"levelo://app?vid=32f6c601-a72a-4c71-9e21-052cdde19362"},"vehicle_type_id":"4","last_reported":1739185647,"current_range_meters":11600,"station_id":"ce4bhp92rcd13ifvqhcg","pricing_plan_id":"cebpf4jnsgd1na2vs0mg"},{"bike_id":"c67e0445-185c-433e-9de3-eab4000a0102","system_id":"levelo_inurba_marseille","lat":43.30603,"lon":5.37246,"is_reserved":false,"is_disabled":false,"rental_uris":{"android":"levelo://app?vid=c67e0445-185c-433e-9de3-eab4000a0102","ios":"levelo://app?vid=c67e0445-185c-433e-9de3-eab4000a0102"},"vehicle_type_id":"4","last_reported":1739185647,"current_range_meters":38800,"station_id":"ce4bgqh2rcd13ifvqc4g","pricing_plan_id":"cebpf4jnsgd1na2vs0mg"},{"bike_id":"8dc59ba4-6f4d-457e-8cb5-61d174a52f2b","system_id":"levelo_inurba_marseille","lat":43.29192,"lon":5.35811,"is_reserved":false,"is_disabled":false,"rental_uris":{"android":"levelo://app?vid=8dc59ba4-6f4d-457e-8cb5-61d174a52f2b","ios":"levelo://app?vid=8dc59ba4-6f4d-457e-8cb5-61d174a52f2b"},"vehicle_type_id":"4","last_reported":1739185647,"current_range_meters":35200,"station_id":"ce4bhb12rcd13ifvqel0","pricing_plan_id":"cebpf4jnsgd1na2vs0mg"},{"bike_id":"d51f1456-524e-490c-84b1-302d3f32c03d","system_id":"levelo_inurba_marseille","lat":43.31131,"lon":5.38261,"is_reserved":false,"is_disabled":false,"rental_uris":{"android":"levelo://app?vid=d51f1456-524e-490c-84b1-302d3f32c03d","ios":"levelo://app?vid=d51f1456-524e-490c-84b1-302d3f32c03d"},"vehicle_type_id":"4","last_reported":1739185647,"current_range_meters":26000,"station_id":"","pricing_plan_id":"cebpf4jnsgd1na2vs0mg"},{"bike_id":"e7665040-11b9-43d5-bc0e-705359b7d230","system_id":"levelo_inurba_marseille","lat":43.27064,"lon":5.42283,"is_reserved":false,"is_disabled":false,"rental_uris":{"android":"levelo://app?vid=e7665040-11b9-43d5-bc0e-705359b7d230","ios":"levelo://app?vid=e7665040-11b9-43d5-bc0e-705359b7d230"},"vehicle_type_id":"4","last_reported":1739185647,"current_range_meters":28400,"station_id":"ce4bhk92rcd13ifvqgb0","pricing_plan_id":"cebpf4jnsgd1na2vs0mg"},{"bike_id":"1541e89c-161d-489b-8f03-8c9b1e3e14e8","system_id":"levelo_inurba_marseille","lat":43.30947,"lon":5.39052,"is_reserved":false,"is_disabled":false,"rental_uris":{"android":"levelo://app?vid=1541e89c-161d-489b-8f03-8c9b1e3e14e8","ios":"levelo://app?vid=1541e89c-161d-489b-8f03-8c9b1e3e14e8"},"vehicle_type_id":"4","last_reported":1739185647,"current_range_meters":32400,"station_id":"","pricing_plan_id":"cebpf4jnsgd1na2vs0mg"},{"bike_id":"c69e4116-c710-4ae9-be0b-a5cba8f3897c","system_id":"levelo_inurba_marseille","lat":43.30948,"lon":5.39056,"is_reserved":false,"is_disabled":false,"rental_uris":{"android":"levelo://app?vid=c69e4116-c710-4ae9-be0b-a5cba8f3897c","ios":"levelo://app?vid=c69e4116-c710-4ae9-be0b-a5cba8f3897c"},"vehicle_type_id":"4","last_reported":1739185647,"current_range_meters":27600,"station_id":"","pricing_plan_id":"cebpf4jnsgd1na2vs0mg"},{"bike_id":"0e657d52-6085-42f9-a6ba-8303d443e56d","system_id":"levelo_inurba_marseille","lat":43.28271,"lon":5.35077,"is_reserved":false,"is_disabled":false,"rental_uris":{"android":"levelo://app?vid=0e657d52-6085-42f9-a6ba-8303d443e56d","ios":"levelo://app?vid=0e657d52-6085-42f9-a6ba-8303d443e56d"},"vehicle_type_id":"4","last_reported":1739185647,"current_range_meters":32000,"station_id":"ce4bhbp2rcd13ifvqerg","pricing_plan_id":"cebpf4jnsgd1na2vs0mg"},{"bike_id":"869ea3a5-73a8-428c-b8af-5d6108a30a40","system_id":"levelo_inurba_marseille","lat":43.30469,"lon":5.37915,"is_reserved":false,"is_disabled":false,"rental_uris":{"android":"levelo://app?vid=869ea3a5-73a8-428c-b8af-5d6108a30a40","ios":"levelo://app?vid=869ea3a5-73a8-428c-b8af-5d6108a30a40"},"vehicle_type_id":"4","last_reported":1739185647,"current_range_meters":22800,"station_id":"ce4bgup2rcd13ifvqcn0","pricing_plan_id":"cebpf4jnsgd1na2vs0mg"},