{"last_updated":1746987177,"ttl":60,"version":"2.2","data":{"bikes":[{"bike_id":"df39ca98-9252-4ddd-866a-23d9f482c501","system_id":"levelo_inurba_marseille","lat":43.28657,"lon":5.36348,"is_reserved":false,"is_disabled":true,"rental_uris":{"android":"levelo://app?vid=df39ca98-9252-4ddd-866a-23d9f482c501","ios":"levelo://app?vid=df39ca98-9252-4ddd-866a-23d9f482c501"},"vehicle_type_id":"4","last_reported":1746987177,"current_range_meters":2800,"station_id":"ce4bhah2rcd13ifvqej0","pricing_plan_id":"cebpf4jnsgd1na2vs0mg"},{"bike_id":"a2c63fe2-1a4c-4119-974b-15d485603b06","system_id":"levelo_inurba_marseille","lat":43.28092,"lon":5.36851,"is_reserved":false,"is_disabled":false,"rental_uris":{"android":"levelo://app?vid=a2c63fe2-1a4c-4119-974b-15d485603b06","ios":"levelo://app?vid=a2c63fe2-1a4c-4119-974b-15d485603b06"},"vehicle_type_id":"4","last_reported":1746987177,"current_range_meters":2800,"station_id":"","pricing_plan_id":"cebpf4jnsgd1na2vs0mg"},{"bike_id":"18d0b301-fcf0-422b-a999-9677b51d5f38","system_id":"levelo_inurba_marseille","lat":43.2922,"lon":5.36034,"is_reserved":false,"is_disabled":false,"rental_uris":{"android":"levelo://app?vid=18d0b301-fcf0-422b-a999-9677b51d5f38","ios":"levelo://app?vid=18d0b301-fcf0-422b-a999-9677b51d5f38"},"vehicle_type_id":"4","last_reported":1746987177,"current_range_meters":2800,"station_id":"ce4bhbh2rcd13ifvqeqg","pricing_plan_id":"cebpf4jnsgd1na2vs0mg"},{"bike_id":"4abecfdf-019b-4468-8b66-b8b50eaa80ac","system_id":"levelo_inurba_marseille","lat":43.31055,"lon":5.37055,"is_reserved":false,"is_disabled":false,"rental_uris":{"android":"levelo://app?vid=4abecfdf-019b-4468-8b66-b8b50eaa80ac","ios":"levelo://app?vid=4abecfdf-019b-4468-8b66-b8b50eaa80ac"},"vehicle_type_id":"4","last_reported":1746987177,"current_range_meters":2800,"station_id":"","pricing_plan_id":"cebpf4jnsgd1na2vs0mg"},{"bike_id":"1b62b9cc-edac-4e57-b82c-dd21ed5c21e0","system_id":"levelo_inurba_marseille","lat":43.28663,"lon":5.38672,"is_reserved":false,"is_disabled":false,"rental_uris":{"android":"levelo://app?vid=1b62b9cc-edac-4e57-b82c-dd21ed5c21e0","ios":"levelo://app?vid=1b62b9cc-edac-4e57-b82c-dd21ed5c21e0"},"vehicle_type_id":"4","last_reported":1746987177,"current_range_meters":2800,"station_id":"ce4bh492rcd13ifvqdug","pricing_plan_id":"cebpf4jnsgd1na2vs0mg"},{"bike_id":"f58f4d84-8406-416e-8d84-3bfd9930213e","system_id":"levelo_inurba_marseille","lat":43.29852,"lon":5.36288,"is_reserved":false,"is_disabled":false,"rental_uris":{"android":"levelo://app?vid=f58f4d84-8406-416e-8d84-3bfd9930213e","ios":"levelo://app?vid=f58f4d84-8406-416e-8d84-3bfd9930213e"},"vehicle_type_id":"4","last_reported":1746987177,"current_range_meters":3200,"station_id":"ce4bgpp2rcd13ifvqc3g","pricing_plan_id":"cebpf4jnsgd1na2vs0mg"},{"bike_id":"edd2343b-9f79-421d-8b36-6c1c228254bd","system_id":"levelo_inurba_marseille","lat":43.324775,"lon":5.42279,"is_reserved":false,"is_disabled":false,"rental_uris":{"android":"levelo://app?vid=edd2343b-9f79-421d-8b36-6c1c228254bd","ios":"levelo://app?vid=edd2343b-9f79-421d-8b36-6c1c228254bd"},"vehicle_type_id":"4","last_reported":1746987177,"current_range_meters":3200,"station_id":"","pricing_plan_id":"cebpf4jnsgd1na2vs0mg"},{"bike_id":"1d42b5f7-97f8-4ceb-ae7d-7685be0bb6ac","system_id":"levelo_inurba_marseille","lat":43.30306,"lon":5.36885,"is_reserved":false,"is_disabled":false,"rental_uris":{"android":"levelo://app?vid=1d42b5f7-97f8-4ceb-ae7d-7685be0bb6ac","ios":"levelo://app?vid=1d42b5f7-97f8-4ceb-ae7d-7685be0bb6ac"},"vehicle_type_id":"4","last_reported":1746987177,"current_range_meters":3200,"station_id":"ce4bgqh2rcd13ifvqc5g","pricing_plan_id":"cebpf4jnsgd1na2vs0mg"},{"bike_id":"2692680e-f4e3-408f-ab8a-ee8c7857367f","system_id":"levelo_inurba_marseille","lat":43.29366,"lon":5.37864,"is_reserved":false,"is_disabled":false,"rental_uris":{"android":"levelo://app?vid=2692680e-f4e3-408f-ab8a-ee8c7857367f","ios":"levelo://app?vid=2692680e-f4e3-408f-ab8a-ee8c7857367f"},"vehicle_type_id":"4","last_reported":1746987177,"current_range_meters":3200,"station_id":"","pricing_plan_id":"cebpf4jnsgd1na2vs0mg"},{"bike_id":"fce62765-66cd-4496-a4e9-fa5b0f78c2a9","system_id":"levelo_inurba_marseille","lat":43.31127,"lon":5.37754,"is_reserved":false,"is_disabled":false,"rental_uris":{"android":"levelo://app?vid=fce62765-66cd-4496-a4e9-fa5b0f78c2a9","ios":"levelo://app?vid=fce62765-66cd-4496-a4e9-fa5b0f78c2a9"},"vehicle_type_id":"4","last_reported":1746987177,"current_range_meters":4000,"station_id":"ce4bgt92rcd13ifvqcg0","pricing_plan_id":"cebpf4jnsgd1na2vs0mg"},{"bike_id":"dfe92893-f380-4ec5-a774-a56d7ce3a6a5","system_id":"levelo_inurba_marseille","lat":43.26789,"lon":5.39411,"is_reserved":false,"is_disabled":false,"rental_uris":{"android":"levelo://app?vid=dfe92893-f380-4ec5-a774-a56d7ce3a6a5","ios":"levelo://app?vid=dfe92893-f380-4ec5-a774-a56d7ce3a6a5"},"vehicle_type_id":"4","last_reported":1746987177,"current_range_meters":3600,"station_id":"ce4bhh12rcd13ifvqfg0","pricing_plan_id":"cebpf4jnsgd1na2vs0mg"},{"bike_id":"3f0e842f-9c22-4437-9d4a-9ad6798062c7","system_id":"levelo_inurba_marseille","lat":43.2649,"lon":5.395724,"is_reserved":false,"is_disabled":false,"rental_uris":{"android":"levelo://app?vid=3f0e842f-9c22-4437-9d4a-9ad6798062c7","ios":"levelo://app?vid=3f0e842f-9c22-4437-9d4a-9ad6798062c7"},"vehicle_type_id":"4","last_reported":1746987177,"current_range_meters":4000,"station_id":"ce4bhjp2rcd13ifvqga0","pricing_plan_id":"cebpf4jnsgd1na2vs0mg"},{"bike_id":"cd6546e6-3605-4585-b3ed-abc355b2654c","system_id":"levelo_inurba_marseille","lat":43.27832,"lon":5.39205,"is_reserved":false,"is_disabled":false,"rental_uris":{"android":"levelo://app?vid=cd6546e6-3605-4585-b3ed-abc355b2654c","ios":"levelo://app?vid=cd6546e6-3605-4585-b3ed-abc355b2654c"},"vehicle_type_id":"4","last_reported":1746987177,"current_range_meters":4000,"station_id":"ce4bhjp2rcd13ifvqga0","pricing_plan_id":"cebpf4jnsgd1na2vs0mg"},{"bike_id":"e9042771-6ed4-4882-acf7-5bb547ea6ad2","system_id":"levelo_inurba_marseille","lat":43.29526,"lon":5.3905,"is_reserved":false,"is_disabled":false,"rental_uris":{"android":"levelo://app?vid=e9042771-6ed4-4882-acf7-5bb547ea6ad2","ios":"levelo://app?vid=e9042771-6ed4-4882-acf7-5bb547ea6ad2"},"vehicle_type_id":"4","last_reported":1746987177,"current_range_meters":4400,"station_id":"ce4bh3p2rcd13ifvqdp0","pricing_plan_id":"cebpf4jnsgd1na2vs0mg"},{"bike_id":"897e0690-e7fa-4c84-8eec-8b0804230ce5","system_id":"levelo_inurba_marseille","lat":43.28932,"lon":5.38397,"is_reserved":false,"is_disabled":false,"rental_uris":{"android":"levelo://app?vid=897e0690-e7fa-4c84-8eec-8b0804230ce5","ios":"levelo://app?vid=897e0690-e7fa-4c84-8eec-8b0804230ce5"},"vehicle_type_id":"4","last_reported":1746987177,"current_range_meters":4400,"station_id":"ce4bh612rcd13ifvqe6g","pricing_plan_id":"cebpf4jnsgd1na2vs0mg"},{"bike_id":"642de6fc-62a8-4800-b8cc-7ba8f3d03af9","system_id":"levelo_inurba_marseille","lat":43.29197,"lon":5.39325,"is_reserved":false,"is_disabled":false,"rental_uris":{"android":"levelo://app?vid=642de6fc-62a8-4800-b8cc-7ba8f3d03af9","ios":"levelo://app?vid=642de6fc-62a8-4800-b8cc-7ba8f3d03af9"},"vehicle_type_id":"4","last_reported":1746987177,"current_range_meters":4800,"station_id":"ce4bh192rcd13ifvqdd0","pricing_plan_id":"cebpf4jnsgd1na2vs0mg"},{"bike_id":"eb2c321a-5bfd-4d10-8326-4bb9500e415d","system_id":"levelo_inurba_marseille","lat":43.29985,"lon":5.37434,"is_reserved":false,"is_disabled":false,"rental_uris":{"android":"levelo://app?vid=eb2c321a-5bfd-4d10-8326-4bb9500e415d","ios":"levelo://app?vid=eb2c321a-5bfd-4d10-8326-4bb9500e415d"},"vehicle_type_id":"4","last_reported":1746987177,"current_range_meters":4800,"station_id":"","pricing_plan_id":"cebpf4jnsgd1na2vs0mg"},{"bike_id":"ed6ed046-fd12-4703-8ece-d31e0d4b2147","system_id":"levelo_inurba_marseille","lat":43.29185,"lon":5.35809,"is_reserved":false,"is_disabled":false,"rental_uris":{"android":"levelo://app?vid=ed6ed046-fd12-4703-8ece-d31e0d4b2147","ios":"levelo://app?vid=ed6ed046-fd12-4703-8ece-d31e0d4b2147"},"vehicle_type_id":"4","last_reported":1746987177,"current_range_meters":4800,"station_id":"ce4bhb12rcd13ifvqel0","pricing_plan_id":"cebpf4jnsgd1na2vs0mg"},{"bike_id":"adf4eba1-ee7c-4eba-bef0-fcd664d62003","system_id":"levelo_inurba_marseille","lat":43.28664,"lon":5.38673,"is_reserved":false,"is_disabled":false,"rental_uris":{"android":"levelo://app?vid=adf4eba1-ee7c-4eba-bef0-fcd664d62003","ios":"levelo://app?vid=adf4eba1-ee7c-4eba-bef0-fcd664d62003"},"vehicle_type_id":"4","last_reported":1746987177,"current_range_meters":4800,"station_id":"ce4bh492rcd13ifvqdug","pricing_plan_id":"cebpf4jnsgd1na2vs0mg"},{"bike_id":"b07c3576-77ee-49cd-bd12-6cba331ee523","system_id":"levelo_inurba_marseille","lat":43.29003,"lon":5.35616,"is_reserved":false,"is_disabled":true,"rental_uris":{"android":"levelo://app?vid=b07c3576-77ee-49cd-bd12-6cba331ee523","ios":"levelo://app?vid=b07c3576-77ee-49cd-bd12-6cba331ee523"},"vehicle_type_id":"4","last_reported":1746987177,"current_range_meters":6000,"station_id":"ce4bhb92rcd13ifvqen0","pricing_plan_id":"cebpf4jnsgd1na2vs0mg"},{"bike_id":"959b7d58-889e-458e-baa5-f63635f464de","system_id":"levelo_inurba_marseille","lat":43.29006,"lon":5.35611,"is_reserved":false,"is_disabled":false,"rental_uris":{"android":"levelo://app?vid=959b7d58-889e-458e-baa5-f63635f464de","ios":"levelo://app?vid=959b7d58-889e-458e-baa5-f63635f464de"},"vehicle_type_id":"4","last_reported":1746987177,"current_range_meters":5600,"station_id":"ce4bhb92rcd13ifvqen0","pricing_plan_id":"cebpf4jnsgd1na2vs0mg"},{"bike_id":"7c6022b4-2e42-44ea-8a07-6234d8f4d32c","system_id":"levelo_inurba_marseille","lat":43.2952,"lon":5.39405,"is_reserved":false,"is_disabled":false,"rental_uris":{"android":"levelo://app?vid=7c6022b4-2e42-44ea-8a07-6234d8f4d32c","ios":"levelo://app?vid=7c6022b4-2e42-44ea-8a07-6234d8f4d32c"},"vehicle_type_id":"4","last_reported":1746987177,"current_range_meters":5600,"station_id":"ce4bh292rcd13ifvqdf0","pricing_plan_id":"cebpf4jnsgd1na2vs0mg"},{"bike_id":"65574d2f-b6de-4662-8bdf-f4d483cd0208","system_id":"levelo_inurba_marseille","lat":43.2887,"lon":5.35919,"is_reserved":false,"is_disabled":false,"rental_uris":{"android":"levelo://app?vid=65574d2f-b6de-4662-8bdf-f4d483cd0208","ios":"levelo://app?vid=65574d2f-b6de-4662-8bdf-f4d483cd0208"},"vehicle_type_id":"4","last_reported":1746987177,"current_range_meters":6000,"station_id":"","pricing_plan_id":"cebpf4jnsgd1na2vs0mg"},{"bike_id":"e890cd41-1b81-4edc-9da4-3f7eabad83bb","system_id":"levelo_inurba_marseille","lat":43.29189,"lon":5.39319,"is_reserved":false,"is_disabled":false,"rental_uris":{"android":"levelo://app?vid=e890cd41-1b81-4edc-9da4-3f7eabad83bb","ios":"levelo://app?vid=e890cd41-1b81-4edc-9da4-3f7eabad83bb"},"vehicle_type_id":"4","last_reported":1746987177,"current_range_meters":6000,"station_id":"ce4bh192rcd13ifvqdd0","pricing_plan_id":"cebpf4jnsgd1na2vs0mg"},{"bike_id":"7b255db5-2b88-47ba-8872-0454a585f8c7","system_id":"levelo_inurba_marseille","lat":43.28112,"lon":5.37826,"is_reserved":false,"is_disabled":false,"rental_uris":{"android":"levelo://app?vid=7b255db5-2b88-47ba-8872-0454a585f8c7","ios":"levelo://app?vid=7b255db5-2b88-47ba-8872-0454a585f8c7"},"vehicle_type_id":"4","last_reported":1746987177,"current_range_meters":5600,"station_id":"ce4bha12rcd13ifvqee0","pricing_plan_id":"cebpf4jnsgd1na2vs0mg"},{"bike_id":"60a8580a-02f2-4b75-99e2-a571122fa28a","system_id":"levelo_inurba_marseille","lat":43.30914,"lon":5.36846,"is_reserved":false,"is_disabled":false,"rental_uris":{"android":"levelo://app?vid=60a8580a-02f2-4b75-99e2-a571122fa28a","ios":"levelo://app?vid=60a8580a-02f2-4b75-99e2-a571122fa28a"},"vehicle_type_id":"4","last_reported":1746987177,"current_range_meters":6000,"station_id":"ce4bgn92rcd13ifvqbvg","pricing_plan_id":"cebpf4jnsgd1na2vs0mg"},{"bike_id":"19b25a0e-718e-484c-b273-f0dcb738896c","system_id":"levelo_inurba_marseille","lat":43.289974,"lon":5.356292,"is_reserved":false,"is_disabled":true,"rental_uris":{"android":"levelo://app?vid=19b25a0e-718e-484c-b273-f0dcb738896c","ios":"levelo://app?vid=19b25a0e-718e-484c-b273-f0dcb738896c"},"vehicle_type_id":"4","last_reported":1746987177,"current_range_meters":6000,"station_id":"ce4bhb92rcd13ifvqen0","pricing_plan_id":"cebpf4jnsgd1na2vs0mg"},{"bike_id":"a894cd6b-66a4-498b-ac04-8adc4ffb88c2","system_id":"levelo_inurba_marseille","lat":43.299675,"lon":5.384928,"is_reserved":false,"is_disabled":false,"rental_uris":{"android":"levelo://app?vid=a894cd6b-66a4-498b-ac04-8adc4ffb88c2","ios":"levelo://app?vid=a894cd6b-66a4-498b-ac04-8adc4ffb88c2"},"vehicle_type_id":"4","last_reported":1746987177,"current_range_meters":6400,"station_id":"ce4bgj92rcd13ifvqbd0","pricing_plan_id":"cebpf4jnsgd1na2vs0mg"},{"bike_id":"814c300d-d261-4866-b022-44e7c5159380","system_id":"levelo_inurba_marseille","lat":43.24163,"lon":5.36422,"is_reserved":false,"is_disabled":true,"rental_uris":{"android":"levelo://app?vid=814c300d-d261-4866-b022-44e7c5159380","ios":"levelo://app?vid=814c300d-d261-4866-b022-44e7c5159380"},"vehicle_type_id":"4","last_reported":1746987177,"current_range_meters":6400,"station_id":"cpo36qri1sfpv3e86is0","pricing_plan_id":"cebpf4jnsgd1na2vs0mg"},{"bike_id":"4c786945-e549-40bd-882e-b4312392fd7a","system_id":"levelo_inurba_marseille","lat":43.326845,"lon":5.40852,"is_reserved":false,"is_disabled":false,"rental_uris":{"android":"levelo://app?vid=4c786945-e549-40bd-882e-b4312392fd7a","ios":"levelo://app?vid=4c786945-e549-40bd-882e-b4312392fd7a"},"vehicle_type_id":"4","last_reported":1746987177,"current_range_meters":6400,"station_id":"ce4bhpp2rcd13ifvqhgg","pricing_plan_id":"cebpf4jnsgd1na2vs0mg"},{"bike_id":"d99afe62-41a1-4367-a50e-55727c42a2a5","system_id":"levelo_inurba_marseille","lat":43.28706,"lon":5.39982,"is_reserved":false,"is_disabled":false,"rental_uris":{"android":"levelo://app?vid=d99afe62-41a1-4367-a50e-55727c42a2a5","ios":"levelo://app?vid=d99afe62-41a1-4367-a50e-55727c42a2a5"},"vehicle_type_id":"4","last_reported":1746987177,"current_range_meters":6400,"station_id":"ce4bho92rcd13ifvqh3g","pricing_plan_id":"cebpf4jnsgd1na2vs0mg"},{"bike_id":"06587e68-878a-442a-819f-e8f268c0d376","system_id":"levelo_inurba_marseille","lat":43.2844,"lon":5.39199,"is_reserved":false,"is_disabled":false,"rental_uris":{"android":"levelo://app?vid=06587e68-878a-442a-819f-e8f268c0d376","ios":"levelo://app?vid=06587e68-878a-442a-819f-e8f268c0d376"},"vehicle_type_id":"4","last_reported":1746987177,"current_range_meters":6400,"station_id":"ce4bhoh2rcd13ifvqh5g","pricing_plan_id":"cebpf4jnsgd1na2vs0mg"},{"bike_id":"886946a6-be35-441a-843b-36bb234b7240","system_id":"levelo_inurba_marseille","lat":43.29226,"lon":5.36038,"is_reserved":false,"is_disabled":false,"rental_uris":{"android":"levelo://app?vid=886946a6-be35-441a-843b-36bb234b7240","ios":"levelo://app?vid=886946a6-be35-441a-843b-36bb234b7240"},"vehicle_type_id":"4","last_reported":1746987177,"current_range_meters":6800,"station_id":"ce4bhbh2rcd13ifvqeqg","pricing_plan_id":"cebpf4jnsgd1na2vs0mg"},{"bike_id":"628967ca-4bba-462f-a1e2-257eed4fcbab","system_id":"levelo_inurba_marseille","lat":43.2993,"lon":5.36556,"is_reserved":false,"is_disabled":false,"rental_uris":{"android":"levelo://app?vid=628967ca-4bba-462f-a1e2-257eed4fcbab","ios":"levelo://app?vid=628967ca-4bba-462f-a1e2-257eed4fcbab"},"vehicle_type_id":"4","last_reported":1746987177,"current_range_meters":6800,"station_id":"ce4bgm92rcd13ifvqbr0","pricing_plan_id":"cebpf4jnsgd1na2vs0mg"},{"bike_id":"064b7a01-949f-4a59-8b33-d8f880296e1b","system_id":"levelo_inurba_marseille","lat":43.29002,"lon":5.35619,"is_reserved":false,"is_disabled":false,"rental_uris":{"android":"levelo://app?vid=064b7a01-949f-4a59-8b33-d8f880296e1b","ios":"levelo://app?vid=064b7a01-949f-4a59-8b33-d8f880296e1b"},"vehicle_type_id":"4","last_reported":1746987177,"current_range_meters":7200,"station_id":"ce4bhb92rcd13ifvqen0","pricing_plan_id":"cebpf4jnsgd1na2vs0mg"},{"bike_id":"fa1d5772-8b0c-466e-9618-5d6aa9b39ba6","system_id":"levelo_inurba_marseille","lat":43.27564,"lon":5.38418,"is_reserved":false,"is_disabled":false,"rental_uris":{"android":"levelo://app?vid=fa1d5772-8b0c-466e-9618-5d6aa9b39ba6","ios":"levelo://app?vid=fa1d5772-8b0c-466e-9618-5d6aa9b39ba6"},"vehicle_type_id":"4","last_reported":1746987177,"current_range_meters":7200,"station_id":"ce4bhh92rcd13ifvqfi0","pricing_plan_id":"cebpf4jnsgd1na2vs0mg"},{"bike_id":"860718ad-712e-41cb-87c9-98e59aeee158","system_id":"levelo_inurba_marseille","lat":43.298445,"lon":5.362898,"is_reserved":false,"is_disabled":false,"rental_uris":{"android":"levelo://app?vid=860718ad-712e-41cb-87c9-98e59aeee158","ios":"levelo://app?vid=860718ad-712e-41cb-87c9-98e59aeee158"},"vehicle_type_id":"4","last_reported":1746987177,"current_range_meters":7200,"station_id":"ce4bgpp2rcd13ifvqc3g","pricing_plan_id":"cebpf4jnsgd1na2vs0mg"},{"bike_id":"d2032ed6-5759-4405-882d-16b5408c8bf2","system_id":"levelo_inurba_marseille","lat":43.3249,"lon":5.36565,"is_reserved":false,"is_disabled":false,"rental_uris":{"android":"levelo://app?vid=d2032ed6-5759-4405-882d-16b5408c8bf2","ios":"levelo://app?vid=d2032ed6-5759-4405-882d-16b5408c8bf2"},"vehicle_type_id":"4","last_reported":1746987177,"current_range_meters":7200,"station_id":"ce4bhs12rcd13ifvqhvg","pricing_plan_id":"cebpf4jnsgd1na2vs0mg"},{"bike_id":"28dc1990-3232-49c1-b6cc-551dc9a23a45","system_id":"levelo_inurba_marseille","lat":43.31118,"lon":5.37767,"is_reserved":false,"is_disabled":false,"rental_uris":{"android":"levelo://app?vid=28dc1990-3232-49c1-b6cc-551dc9a23a45","ios":"levelo://app?vid=28dc1990-3232-49c1-b6cc-551dc9a23a45"},"vehicle_type_id":"4","last_reported":1746987177,"current_range_meters":7200,"station_id":"ce4bgt92rcd13ifvqcg0","pricing_plan_id":"cebpf4jnsgd1na2vs0mg"},{"bike_id":"b3454c54-eabe-4e38-8911-b34d637bccec","system_id":"levelo_inurba_marseille","lat":43.22508,"lon":5.34786,"is_reserved":false,"is_disabled":false,"rental_uris":{"android":"levelo://app?vid=b3454c54-eabe-4e38-8911-b34d637bccec","ios":"levelo://app?vid=b3454c54-eabe-4e38-8911-b34d637bccec"},"vehicle_type_id":"4","last_reported":1746987177,"current_range_meters":8000,"station_id":"st_cvj5dfep6f1abm77gieg","pricing_plan_id":"cebpf4jnsgd1na2vs0mg"},{"bike_id":"864b00ee-77cf-4a20-a25b-7a6c38f28405","system_id":"levelo_inurba_marseille","lat":43.30822,"lon":5.3791,"is_reserved":false,"is_disabled":false,"rental_uris":{"android":"levelo://app?vid=864b00ee-77cf-4a20-a25b-7a6c38f28405","ios":"levelo://app?vid=864b00ee-77cf-4a20-a25b-7a6c38f28405"},"vehicle_type_id":"4","last_reported":1746987177,"current_range_meters":8000,"station_id":"","pricing_plan_id":"cebpf4jnsgd1na2vs0mg"},{"bike_id":"ce7aa05f-da49-45fd-a6f9-3b61f5c708eb","system_id":"levelo_inurba_marseille","lat":43.31702,"lon":5.37653,"is_reserved":false,"is_disabled":false,"rental_uris":{"android":"levelo://app?vid=ce7aa05f-da49-45fd-a6f9-3b61f5c708eb","ios":"levelo://app?vid=ce7aa05f-da49-45fd-a6f9-3b61f5c708eb"},"vehicle_type_id":"4","last_reported":1746987177,"current_range_meters":8000,"station_id":"","pricing_plan_id":"cebpf4jnsgd1na2vs0mg"},{"bike_id":"f878e430-1234-4893-95a8-28457c8f282e","system_id":"levelo_inurba_marseille","lat":43.27492,"lon":5.42446,"is_reserved":false,"is_disabled":false,"rental_uris":{"android":"levelo://app?vid=f878e430-1234-4893-95a8-28457c8f282e","ios":"levelo://app?vid=f878e430-1234-4893-95a8-28457c8f282e"},"vehicle_type_id":"4","last_reported":1746987177,"current_range_meters":8000,"station_id":"ce4bhn92rcd13ifvqgrg","pricing_plan_id":"cebpf4jnsgd1na2vs0mg"},{"bike_id":"255dce07-5016-40d1-91e1-6fb98472ed8b","system_id":"levelo_inurba_marseille","lat":43.29629,"lon":5.40599,"is_reserved":false,"is_disabled":false,"rental_uris":{"android":"levelo://app?vid=255dce07-5016-40d1-91e1-6fb98472ed8b","ios":"levelo://app?vid=255dce07-5016-40d1-91e1-6fb98472ed8b"},"vehicle_type_id":"4","last_reported":1746987177,"current_range_meters":14400,"station_id":"ce4bh0h2rcd13ifvqd60","pricing_plan_id":"cebpf4jnsgd1na2vs0mg"},{"bike_id":"90699213-8274-436f-bb67-aab198828d40","system_id":"levelo_inurba_marseille","lat":43.32396,"lon":5.4064,"is_reserved":false,"is_disabled":false,"rental_uris":{"android":"levelo://app?vid=90699213-8274-436f-bb67-aab198828d40","ios":"levelo://app?vid=90699213-8274-436f-bb67-aab198828d40"},"vehicle_type_id":"4","last_reported":1746987177,"current_range_meters":8000,"station_id":"","pricing_plan_id":"cebpf4jnsgd1na2vs0mg"},{"bike_id":"2c17018c-2069-4e6d-8dae-86334d1808de","system_id":"levelo_inurba_marseille","lat":43.31326,"lon":5.39693,"is_reserved":false,"is_disabled":false,"rental_uris":{"android":"levelo://app?vid=2c17018c-2069-4e6d-8dae-86334d1808de","ios":"levelo://app?vid=2c17018c-2069-4e6d-8dae-86334d1808de"},"vehicle_type_id":"4","last_reported":1746987177,"current_range_meters":8000,"station_id":"ce4bgvp2rcd13ifvqcu0","pricing_plan_id":"cebpf4jnsgd1na2vs0mg"},{"bike_id":"970bc967-a04a-4d9e-b876-2a91b3292183","system_id":"levelo_inurba_marseille","lat":43.30374,"lon":5.42483,"is_reserved":false,"is_disabled":false,"rental_uris":{"android":"levelo://app?vid=970bc967-a04a-4d9e-b876-2a91b3292183","ios":"levelo://app?vid=970bc967-a04a-4d9e-b876-2a91b3292183"},"vehicle_type_id":"4","last_reported":1746987177,"current_range_meters":8000,"station_id":"ce4bhoh2rcd13ifvqh6g","pricing_plan_id":"cebpf4jnsgd1na2vs0mg"},{"bike_id":"d758f6f6-ef3e-4a66-af41-982854e7512f","system_id":"levelo_inurba_marseille","lat":43.2848,"lon":5.38421,"is_reserved":false,"is_disabled":false,"rental_uris":{"android":"levelo://app?vid=d758f6f6-ef3e-4a66-af41-982854e7512f","ios":"levelo://app?vid=d758f6f6-ef3e-4a66-af41-982854e7512f"},"vehicle_type_id":"4","last_reported":1746987177,"current_range_meters":8000,"station_id":"ce4bh512rcd13ifvqe3g","pricing_plan_id":"cebpf4jnsgd1na2vs0mg"},{"bike_id":"892f86a1-71d4-41c6-806f-3eba21044a43","system_id":"levelo_inurba_marseille","lat":43.28946,"lon":5.36393,"is_reserved":false,"is_disabled":false,"rental_uris":{"android":"levelo://app?vid=892f86a1-71d4-41c6-806f-3eba21044a43","ios":"levelo://app?vid=892f86a1-71d4-41c6-806f-3eba21044a43"},"vehicle_type_id":"4","last_reported":1746987177,"current_range_meters":8000,"station_id":"ce4bhc92rcd13ifvqetg","pricing_plan_id":"cebpf4jnsgd1na2vs0mg"},{"bike_id":"9602d6f6-ad1c-483a-8fab-9f407b13eb53","system_id":"levelo_inurba_marseille","lat":43.29077,"lon":5.37149,"is_reserved":false,"is_disabled":false,"rental_uris":{"android":"levelo://app?vid=9602d6f6-ad1c-483a-8fab-9f407b13eb53","ios":"levelo://app?vid=9602d6f6-ad1c-483a-8fab-9f407b13eb53"},"vehicle_type_id":"4","last_reported":1746987177,"current_range_meters":8000,"station_id":"ce4bh5p2rcd13ifvqe4g","pricing_plan_id":"cebpf4jnsgd1na2vs0mg"},{"bike_id":"c1804f9f-9f2d-4342-98f5-bc656b529f81","system_id":"levelo_inurba_marseille","lat":43.27069,"lon":5.42278,"is_reserved":false,"is_disabled":false,"rental_uris":{"android":"levelo://app?vid=c1804f9f-9f2d-4342-98f5-bc656b529f81","ios":"levelo://app?vid=c1804f9f-9f2d-4342-98f5-bc656b529f81"},"vehicle_type_id":"4","last_reported":1746987177,"current_range_meters":8000,"station_id":"ce4bhk92rcd13ifvqgb0","pricing_plan_id":"cebpf4jnsgd1na2vs0mg"},{"bike_id":"48b73517-8a40-4b3f-aad3-968dd3319f04","system_id":"levelo_inurba_marseille","lat":43.317074,"lon":5.436966,"is_reserved":false,"is_disabled":false,"rental_uris":{"android":"levelo://app?vid=48b73517-8a40-4b3f-aad3-968dd3319f04","ios":"levelo://app?vid=48b73517-8a40-4b3f-aad3-968dd3319f04"},"vehicle_type_id":"4","last_reported":1746987177,"current_range_meters":8400,"station_id":"ce4bhp92rcd13ifvqhcg","pricing_plan_id":"cebpf4jnsgd1na2vs0mg"},{"bike_id":"1a48c3d0-a386-45b7-98dd-68ffe3d7e81e","system_id":"levelo_inurba_marseille","lat":43.28266,"lon":5.35061,"is_reserved":false,"is_disabled":false,"rental_uris":{"android":"levelo://app?vid=1a48c3d0-a386-45b7-98dd-68ffe3d7e81e","ios":"levelo://app?vid=1a48c3d0-a386-45b7-98dd-68ffe3d7e81e"},"vehicle_type_id":"4","last_reported":1746987177,"current_range_meters":8400,"station_id":"ce4bhbp2rcd13ifvqerg","pricing_plan_id":"cebpf4jnsgd1na2vs0mg"},{"bike_id":"f1f47090-376e-489a-b9ad-7bf5f4813c6a","system_id":"levelo_inurba_marseille","lat":43.29714,"lon":5.3769,"is_reserved":false,"is_disabled":true,"rental_uris":{"android":"levelo://app?vid=f1f47090-376e-489a-b9ad-7bf5f4813c6a","ios":"levelo://app?vid=f1f47090-376e-489a-b9ad-7bf5f4813c6a"},"vehicle_type_id":"4","last_reported":1746987177,"current_range_meters":8400,"station_id":"ce4bgkh2rcd13ifvqbl0","pricing_plan_id":"cebpf4jnsgd1na2vs0mg"},{"bike_id":"51c0357f-b343-4e95-90b3-ee760f6db5df","system_id":"levelo_inurba_marseille","lat":43.279997,"lon":5.400264,"is_reserved":false,"is_disabled":false,"rental_uris":{"android":"levelo://app?vid=51c0357f-b343-4e95-90b3-ee760f6db5df","ios":"levelo://app?vid=51c0357f-b343-4e95-90b3-ee760f6db5df"},"vehicle_type_id":"4","last_reported":1746987177,"current_range_meters":8400,"station_id":"ce4bho92rcd13ifvqh4g","pricing_plan_id":"cebpf4jnsgd1na2vs0mg"},{"bike_id":"1b9a2201-5a9d-428c-97ea-52494fbf864c","system_id":"levelo_inurba_marseille","lat":43.28727,"lon":5.36082,"is_reserved":false,"is_disabled":false,"rental_uris":{"android":"levelo://app?vid=1b9a2201-5a9d-428c-97ea-52494fbf864c","ios":"levelo://app?vid=1b9a2201-5a9d-428c-97ea-52494fbf864c"},"vehicle_type_id":"4","last_reported":1746987177,"current_range_meters":8400,"station_id":"cki0cbj6b192h4jlfktg","pricing_plan_id":"cebpf4jnsgd1na2vs0mg"},{"bike_id":"c83f06b8-a7ba-4a77-b771-3b14582ba8a8","system_id":"levelo_inurba_marseille","lat":43.273269,"lon":5.392673,"is_reserved":false,"is_disabled":false,"rental_uris":{"android":"levelo://app?vid=c83f06b8-a7ba-4a77-b771-3b14582ba8a8","ios":"levelo://app?vid=c83f06b8-a7ba-4a77-b771-3b14582ba8a8"},"vehicle_type_id":"4","last_reported":1746987177,"current_range_meters":8800,"station_id":"ce4bhnh2rcd13ifvqgtg","pricing_plan_id":"cebpf4jnsgd1na2vs0mg"},{"bike_id":"ba28b25e-7432-4e5a-962d-e952fc53bbcd","system_id":"levelo_inurba_marseille","lat":43.26234,"lon":5.40451,"is_reserved":false,"is_disabled":false,"rental_uris":{"android":"levelo://app?vid=ba28b25e-7432-4e5a-962d-e952fc53bbcd","ios":"levelo://app?vid=ba28b25e-7432-4e5a-962d-e952fc53bbcd"},"vehicle_type_id":"4","last_reported":1746987177,"current_range_meters":8800,"station_id":"ce4bhmh2rcd13ifvqgmg","pricing_plan_id":"cebpf4jnsgd1na2vs0mg"},{"bike_id":"1a8c5979-df27-4311-8539-1e92d29e8b6b","system_id":"levelo_inurba_marseille","lat":43.293,"lon":5.37458,"is_reserved":false,"is_disabled":false,"rental_uris":{"android":"levelo://app?vid=1a8c5979-df27-4311-8539-1e92d29e8b6b","ios":"levelo://app?vid=1a8c5979-df27-4311-8539-1e92d29e8b6b"},"vehicle_type_id":"4","last_reported":1746987177,"current_range_meters":8800,"station_id":"ce4bgi12rcd13ifvqb70","pricing_plan_id":"cebpf4jnsgd1na2vs0mg"},{"bike_id":"41f43e05-d897-45ff-8bad-32a9a60e29b8","system_id":"levelo_inurba_marseille","lat":43.30287,"lon":5.36579,"is_reserved":false,"is_disabled":false,"rental_uris":{"android":"levelo://app?vid=41f43e05-d897-45ff-8bad-32a9a60e29b8","ios":"levelo://app?vid=41f43e05-d897-45ff-8bad-32a9a60e29b8"},"vehicle_type_id":"4","last_reported":1746987177,"current_range_meters":8800,"station_id":"","pricing_plan_id":"cebpf4jnsgd1na2vs0mg"},{"bike_id":"146b9858-e985-494b-b10b-d427d4983922","system_id":"levelo_inurba_marseille","lat":43.30252,"lon":5.40086,"is_reserved":false,"is_disabled":false,"rental_uris":{"android":"levelo://app?vid=146b9858-e985-494b-b10b-d427d4983922","ios":"levelo://app?vid=146b9858-e985-494b-b10b-d427d4983922"},"vehicle_type_id":"4","last_reported":1746987177,"current_range_meters":9200,"station_id":"ce4bgvh2rcd13ifvqcs0","pricing_plan_id":"cebpf4jnsgd1na2vs0mg"},{"bike_id":"fc2577e7-1497-425b-9d4f-ab8d7dc843c6","system_id":"levelo_inurba_marseille","lat":43.33771,"lon":5.37485,"is_reserved":false,"is_disabled":false,"rental_uris":{"android":"levelo://app?vid=fc2577e7-1497-425b-9d4f-ab8d7dc843c6","ios":"levelo://app?vid=fc2577e7-1497-425b-9d4f-ab8d7dc843c6"},"vehicle_type_id":"4","last_reported":1746987177,"current_range_meters":9200,"station_id":"","pricing_plan_id":"cebpf4jnsgd1na2vs0mg"},{"bike_id":"2971b827-9785-4491-8bd3-0669abb0a96d","system_id":"levelo_inurba_marseille","lat":43.25496,"lon":5.37648,"is_reserved":false,"is_disabled":false,"rental_uris":{"android":"levelo://app?vid=2971b827-9785-4491-8bd3-0669abb0a96d","ios":"levelo://app?vid=2971b827-9785-4491-8bd3-0669abb0a96d"},"vehicle_type_id":"4","last_reported":1746987177,"current_range_meters":9200,"station_id":"ce4bhh12rcd13ifvqff0","pricing_plan_id":"cebpf4jnsgd1na2vs0mg"},{"bike_id":"cf06a58c-6b90-4ee6-b7ff-5b33ec523703","system_id":"levelo_inurba_marseille","lat":43.28594,"lon":5.41278,"is_reserved":false,"is_disabled":false,"rental_uris":{"android":"levelo://app?vid=cf06a58c-6b90-4ee6-b7ff-5b33ec523703","ios":"levelo://app?vid=cf06a58c-6b90-4ee6-b7ff-5b33ec523703"},"vehicle_type_id":"4","last_reported":1746987177,"current_range_meters":9200,"station_id":"","pricing_plan_id":"cebpf4jnsgd1na2vs0mg"},{"bike_id":"f94a608b-eff8-4b09-8dd3-491fc8352b94","system_id":"levelo_inurba_marseille","lat":43.29034,"lon":5.37557,"is_reserved":false,"is_disabled":false,"rental_uris":{"android":"levelo://app?vid=f94a608b-eff8-4b09-8dd3-491fc8352b94","ios":"levelo://app?vid=f94a608b-eff8-4b09-8dd3-491fc8352b94"},"vehicle_type_id":"4","last_reported":1746987177,"current_range_meters":9200,"station_id":"ce4bh692rcd13ifvqe90","pricing_plan_id":"cebpf4jnsgd1na2vs0mg"},{"bike_id":"3aa75863-fce6-4b94-9f5b-9c0ad58d1acf","system_id":"levelo_inurba_marseille","lat":43.24196,"lon":5.36382,"is_reserved":false,"is_disabled":false,"rental_uris":{"android":"levelo://app?vid=3aa75863-fce6-4b94-9f5b-9c0ad58d1acf","ios":"levelo://app?vid=3aa75863-fce6-4b94-9f5b-9c0ad58d1acf"},"vehicle_type_id":"4","last_reported":1746987177,"current_range_meters":9200,"station_id":"cpo36qri1sfpv3e86is0","pricing_plan_id":"cebpf4jnsgd1na2vs0mg"},{"bike_id":"910f58e1-bc11-4d4a-be16-a826726f8216","system_id":"levelo_inurba_marseille","lat":43.290403,"lon":5.359199,"is_reserved":false,"is_disabled":true,"rental_uris":{"android":"levelo://app?vid=910f58e1-bc11-4d4a-be16-a826726f8216","ios":"levelo://app?vid=910f58e1-bc11-4d4a-be16-a826726f8216"},"vehicle_type_id":"4","last_reported":1746987177,"current_range_meters":9200,"station_id":"ce4bha92rcd13ifvqeg0","pricing_plan_id":"cebpf4jnsgd1na2vs0mg"},{"bike_id":"97060313-beba-4199-9c8b-6f90e478e0f2","system_id":"levelo_inurba_marseille","lat":43.29708,"lon":5.37693,"is_reserved":false,"is_disabled":false,"rental_uris":{"android":"levelo://app?vid=97060313-beba-4199-9c8b-6f90e478e0f2","ios":"levelo://app?vid=97060313-beba-4199-9c8b-6f90e478e0f2"},"vehicle_type_id":"4","last_reported":1746987177,"current_range_meters":9200,"station_id":"ce4bgkh2rcd13ifvqbl0","pricing_plan_id":"cebpf4jnsgd1na2vs0mg"},{"bike_id":"4be526c1-c099-4e56-8476-6a072fafda70","system_id":"levelo_inurba_marseille","lat":43.25122,"lon":5.4033,"is_reserved":false,"is_disabled":false,"rental_uris":{"android":"levelo://app?vid=4be526c1-c099-4e56-8476-6a072fafda70","ios":"levelo://app?vid=4be526c1-c099-4e56-8476-6a072fafda70"},"vehicle_type_id":"4","last_reported":1746987177,"current_range_meters":9200,"station_id":"ce4bhlh2rcd13ifvqgig","pricing_plan_id":"cebpf4jnsgd1na2vs0mg"},{"bike_id":"42f37acb-de74-48fc-88ca-88f7dee25da8","system_id":"levelo_inurba_marseille","lat":43.30148,"lon":5.39857,"is_reserved":false,"is_disabled":false,"rental_uris":{"android":"levelo://app?vid=42f37acb-de74-48fc-88ca-88f7dee25da8","ios":"levelo://app?vid=42f37acb-de74-48fc-88ca-88f7dee25da8"},"vehicle_type_id":"4","last_reported":1746987177,"current_range_meters":9600,"station_id":"ce4bh0h2rcd13ifvqd40","pricing_plan_id":"cebpf4jnsgd1na2vs0mg"},{"bike_id":"5d616a98-f6a1-4789-a02d-abb0d20dd49c","system_id":"levelo_inurba_marseille","lat":43.23192,"lon":5.39987,"is_reserved":false,"is_disabled":true,"rental_uris":{"android":"levelo://app?vid=5d616a98-f6a1-4789-a02d-abb0d20dd49c","ios":"levelo://app?vid=5d616a98-f6a1-4789-a02d-abb0d20dd49c"},"vehicle_type_id":"4","last_reported":1746987177,"current_range_meters":9600,"station_id":"ce4bhn12rcd13ifvqgqg","pricing_plan_id":"cebpf4jnsgd1na2vs0mg"},{"bike_id":"b1d961de-65c2-4db5-ad9c-d5042d62e39f","system_id":"levelo_inurba_marseille","lat":43.28677,"lon":5.38675,"is_reserved":false,"is_disabled":false,"rental_uris":{"android":"levelo://app?vid=b1d961de-65c2-4db5-ad9c-d5042d62e39f","ios":"levelo://app?vid=b1d961de-65c2-4db5-ad9c-d5042d62e39f"},"vehicle_type_id":"4","last_reported":1746987177,"current_range_meters":9600,"station_id":"ce4bh492rcd13ifvqdug","pricing_plan_id":"cebpf4jnsgd1na2vs0mg"},{"bike_id":"1bf6c47b-f857-48d1-ac73-82e77b7b3f7f","system_id":"levelo_inurba_marseille","lat":43.284088,"lon":5.37502,"is_reserved":false,"is_disabled":false,"rental_uris":{"android":"levelo://app?vid=1bf6c47b-f857-48d1-ac73-82e77b7b3f7f","ios":"levelo://app?vid=1bf6c47b-f857-48d1-ac73-82e77b7b3f7f"},"vehicle_type_id":"4","last_reported":1746987177,"current_range_meters":9600,"station_id":"ce4bh412rcd13ifvqds0","pricing_plan_id":"cebpf4jnsgd1na2vs0mg"},{"bike_id":"9c23fc7b-17f9-4988-b5f3-b4d571b5736b","system_id":"levelo_inurba_marseille","lat":43.24803,"lon":5.37455,"is_reserved":false,"is_disabled":false,"rental_uris":{"android":"levelo://app?vid=9c23fc7b-17f9-4988-b5f3-b4d571b5736b","ios":"levelo://app?vid=9c23fc7b-17f9-4988-b5f3-b4d571b5736b"},"vehicle_type_id":"4","last_reported":1746987177,"current_range_meters":9600,"station_id":"ce4bhgh2rcd13ifvqfb0","pricing_plan_id":"cebpf4jnsgd1na2vs0mg"},{"bike_id":"6d705489-d3d5-4e12-a28e-5d7bb8b109f3","system_id":"levelo_inurba_marseille","lat":43.26822,"lon":5.42772,"is_reserved":false,"is_disabled":false,"rental_uris":{"android":"levelo://app?vid=6d705489-d3d5-4e12-a28e-5d7bb8b109f3","ios":"levelo://app?vid=6d705489-d3d5-4e12-a28e-5d7bb8b109f3"},"vehicle_type_id":"4","last_reported":1746987177,"current_range_meters":10000,"station_id":"","pricing_plan_id":"cebpf4jnsgd1na2vs0mg"},{"bike_id":"31ea7b84-e641-4ddd-996f-3ef7f2f3be79","system_id":"levelo_inurba_marseille","lat":43.2893,"lon":5.36639,"is_reserved":false,"is_disabled":false,"rental_uris":{"android":"levelo://app?vid=31ea7b84-e641-4ddd-996f-3ef7f2f3be79","ios":"levelo://app?vid=31ea7b84-e641-4ddd-996f-3ef7f2f3be79"},"vehicle_type_id":"4","last_reported":1746987177,"current_range_meters":9600,"station_id":"ce4bhap2rcd13ifvqek0","pricing_plan_id":"cebpf4jnsgd1na2vs0mg"},{"bike_id":"395a93c8-7392-49be-9985-c8818c2b72ac","system_id":"levelo_inurba_marseille","lat":43.305143,"lon":5.366093,"is_reserved":false,"is_disabled":false,"rental_uris":{"android":"levelo://app?vid=395a93c8-7392-49be-9985-c8818c2b72ac","ios":"levelo://app?vid=395a93c8-7392-49be-9985-c8818c2b72ac"},"vehicle_type_id":"4","last_reported":1746987177,"current_range_meters":10000,"station_id":"","pricing_plan_id":"cebpf4jnsgd1na2vs0mg"},{"bike_id":"a02ff3d0-dabc-4f80-a7ca-75d2665902bc","system_id":"levelo_inurba_marseille","lat":43.28397,"lon":5.37514,"is_reserved":false,"is_disabled":false,"rental_uris":{"android":"levelo://app?vid=a02ff3d0-dabc-4f80-a7ca-75d2665902bc","ios":"levelo://app?vid=a02ff3d0-dabc-4f80-a7ca-75d2665902bc"},"vehicle_type_id":"4","last_reported":1746987177,"current_range_meters":10000,"station_id":"ce4bh412rcd13ifvqds0","pricing_plan_id":"cebpf4jnsgd1na2vs0mg"},{"bike_id":"38fd2285-da0e-4f6a-be1d-f6c2112df572","system_id":"levelo_inurba_marseille","lat":43.28661,"lon":5.36344,"is_reserved":false,"is_disabled":true,"rental_uris":{"android":"levelo://app?vid=38fd2285-da0e-4f6a-be1d-f6c2112df572","ios":"levelo://app?vid=38fd2285-da0e-4f6a-be1d-f6c2112df572"},"vehicle_type_id":"4","last_reported":1746987177,"current_range_meters":10000,"station_id":"ce4bhah2rcd13ifvqej0","pricing_plan_id":"cebpf4jnsgd1na2vs0mg"},{"bike_id":"feb1cf29-ef99-45b8-af12-4e71ee7d2301","system_id":"levelo_inurba_marseille","lat":43.26064,"lon":5.39397,"is_reserved":false,"is_disabled":false,"rental_uris":{"android":"levelo://app?vid=feb1cf29-ef99-45b8-af12-4e71ee7d2301","ios":"levelo://app?vid=feb1cf29-ef99-45b8-af12-4e71ee7d2301"},"vehicle_type_id":"4","last_reported":1746987177,"current_range_meters":9600,"station_id":"ce4bhh92rcd13ifvqfj0","pricing_plan_id":"cebpf4jnsgd1na2vs0mg"},{"bike_id":"5074160f-fd3c-4ff5-8b26-8f97977d264e","system_id":"levelo_inurba_marseille","lat":43.297764,"lon":5.380921,"is_reserved":false,"is_disabled":true,"rental_uris":{"android":"levelo://app?vid=5074160f-fd3c-4ff5-8b26-8f97977d264e","ios":"levelo://app?vid=5074160f-fd3c-4ff5-8b26-8f97977d264e"},"vehicle_type_id":"4","last_reported":1746987177,"current_range_meters":10000,"station_id":"ce4bgip2rcd13ifvqbb0","pricing_plan_id":"cebpf4jnsgd1na2vs0mg"},{"bike_id":"ea5bc97f-c2f6-4506-91ba-bd72989576b6","system_id":"levelo_inurba_marseille","lat":43.285329,"lon":5.384226,"is_reserved":false,"is_disabled":false,"rental_uris":{"android":"levelo://app?vid=ea5bc97f-c2f6-4506-91ba-bd72989576b6","ios":"levelo://app?vid=ea5bc97f-c2f6-4506-91ba-bd72989576b6"},"vehicle_type_id":"4","last_reported":1746987177,"current_range_meters":10000,"station_id":"ce4bh512rcd13ifvqe3g","pricing_plan_id":"cebpf4jnsgd1na2vs0mg"},{"bike_id":"16051df7-8af9-408d-8f66-42690c5a2544","system_id":"levelo_inurba_marseille","lat":43.28701,"lon":5.39995,"is_reserved":false,"is_disabled":false,"rental_uris":{"android":"levelo://app?vid=16051df7-8af9-408d-8f66-42690c5a2544","ios":"levelo://app?vid=16051df7-8af9-408d-8f66-42690c5a2544"},"vehicle_type_id":"4","last_reported":1746987177,"current_range_meters":10000,"station_id":"ce4bho92rcd13ifvqh3g","pricing_plan_id":"cebpf4jnsgd1na2vs0mg"},{"bike_id":"e2434f42-8ebb-4eed-a218-d21bf35b3735","system_id":"levelo_inurba_marseille","lat":43.29778,"lon":5.3812,"is_reserved":false,"is_disabled":true,"rental_uris":{"android":"levelo://app?vid=e2434f42-8ebb-4eed-a218-d21bf35b3735","ios":"levelo://app?vid=e2434f42-8ebb-4eed-a218-d21bf35b3735"},"vehicle_type_id":"4","last_reported":1746987177,"current_range_meters":10800,"station_id":"ce4bgip2rcd13ifvqbb0","pricing_plan_id":"cebpf4jnsgd1na2vs0mg"},{"bike_id":"f166b45f-849e-4370-baf2-367fb5d6710e","system_id":"levelo_inurba_marseille","lat":43.29277,"lon":5.36846,"is_reserved":false,"is_disabled":false,"rental_uris":{"android":"levelo://app?vid=f166b45f-849e-4370-baf2-367fb5d6710e","ios":"levelo://app?vid=f166b45f-849e-4370-baf2-367fb5d6710e"},"vehicle_type_id":"4","last_reported":1746987177,"current_range_meters":10800,"station_id":"ce4bhbp2rcd13ifvqesg","pricing_plan_id":"cebpf4jnsgd1na2vs0mg"},{"bike_id":"ba2892e2-153e-463b-8749-4139446daebd","system_id":"levelo_inurba_marseille","lat":43.29028,"lon":5.38152,"is_reserved":false,"is_disabled":false,"rental_uris":{"android":"levelo://app?vid=ba2892e2-153e-463b-8749-4139446daebd","ios":"levelo://app?vid=ba2892e2-153e-463b-8749-4139446daebd"},"vehicle_type_id":"4","last_reported":1746987177,"current_range_meters":10800,"station_id":"ce4bh4p2rcd13ifvqe1g","pricing_plan_id":"cebpf4jnsgd1na2vs0mg"},{"bike_id":"6663a384-abed-48bd-861f-d563c5fcecd4","system_id":"levelo_inurba_marseille","lat":43.284349,"lon":5.349913,"is_reserved":false,"is_disabled":true,"rental_uris":{"android":"levelo://app?vid=6663a384-abed-48bd-861f-d563c5fcecd4","ios":"levelo://app?vid=6663a384-abed-48bd-861f-d563c5fcecd4"},"vehicle_type_id":"4","last_reported":1746987177,"current_range_meters":10800,"station_id":"ce4bhbh2rcd13ifvqepg","pricing_plan_id":"cebpf4jnsgd1na2vs0mg"},{"bike_id":"245e2b93-c87c-42cb-9eed-7e824623802e","system_id":"levelo_inurba_marseille","lat":43.28406,"lon":5.37546,"is_reserved":false,"is_disabled":false,"rental_uris":{"android":"levelo://app?vid=245e2b93-c87c-42cb-9eed-7e824623802e","ios":"levelo://app?vid=245e2b93-c87c-42cb-9eed-7e824623802e"},"vehicle_type_id":"4","last_reported":1746987177,"current_range_meters":10800,"station_id":"ce4bh412rcd13ifvqds0","pricing_plan_id":"cebpf4jnsgd1na2vs0mg"},{"bike_id":"082c1f9f-4719-4cfe-b34a-37cfa3666b2e","system_id":"levelo_inurba_marseille","lat":43.287184,"lon":5.399895,"is_reserved":false,"is_disabled":true,"rental_uris":{"android":"levelo://app?vid=082c1f9f-4719-4cfe-b34a-37cfa3666b2e","ios":"levelo://app?vid=082c1f9f-4719-4cfe-b34a-37cfa3666b2e"},"vehicle_type_id":"4","last_reported":1746987177,"current_range_meters":10800,"station_id":"ce4bho92rcd13ifvqh3g","pricing_plan_id":"cebpf4jnsgd1na2vs0mg"},{"bike_id":"ac754be4-9e6a-4394-8db1-1077f1394b37","system_id":"levelo_inurba_marseille","lat":43.29275,"lon":5.36839,"is_reserved":false,"is_disabled":false,"rental_uris":{"android":"levelo://app?vid=ac754be4-9e6a-4394-8db1-1077f1394b37","ios":"levelo://app?vid=ac754be4-9e6a-4394-8db1-1077f1394b37"},"vehicle_type_id":"4","last_reported":1746987177,"current_range_meters":10800,"station_id":"ce4bhbp2rcd13ifvqesg","pricing_plan_id":"cebpf4jnsgd1na2vs0mg"},{"bike_id":"89df6b85-19a9-49e9-b653-ca412c85f5d8","system_id":"levelo_inurba_marseille","lat":43.29099,"lon":5.3813,"is_reserved":false,"is_disabled":false,"rental_uris":{"android":"levelo://app?vid=89df6b85-19a9-49e9-b653-ca412c85f5d8","ios":"levelo://app?vid=89df6b85-19a9-49e9-b653-ca412c85f5d8"},"vehicle_type_id":"4","last_reported":1746987177,"current_range_meters":10800,"station_id":"ce4bh512rcd13ifvqe2g","pricing_plan_id":"cebpf4jnsgd1na2vs0mg"},{"bike_id":"95c07f58-992e-486e-9e01-f8c38af93653","system_id":"levelo_inurba_marseille","lat":43.305406,"lon":5.366886,"is_reserved":false,"is_disabled":true,"rental_uris":{"android":"levelo://app?vid=95c07f58-992e-486e-9e01-f8c38af93653","ios":"levelo://app?vid=95c07f58-992e-486e-9e01-f8c38af93653"},"vehicle_type_id":"4","last_reported":1746987177,"current_range_meters":10800,"station_id":"ce4bgrp2rcd13ifvqc9g","pricing_plan_id":"cebpf4jnsgd1na2vs0mg"},{"bike_id":"1c72975b-a289-4145-ad87-8adff7e2599d","system_id":"levelo_inurba_marseille","lat":43.28452,"lon":5.35881,"is_reserved":false,"is_disabled":false,"rental_uris":{"android":"levelo://app?vid=1c72975b-a289-4145-ad87-8adff7e2599d","ios":"levelo://app?vid=1c72975b-a289-4145-ad87-8adff7e2599d"},"vehicle_type_id":"4","last_reported":1746987177,"current_range_meters":10800,"station_id":"ce4bhah2rcd13ifvqei0","pricing_plan_id":"cebpf4jnsgd1na2vs0mg"},{"bike_id":"07ffa4f1-182f-4286-b0df-1e8e4502ad09","system_id":"levelo_inurba_marseille","lat":43.32487,"lon":5.36561,"is_reserved":false,"is_disabled":false,"rental_uris":{"android":"levelo://app?vid=07ffa4f1-182f-4286-b0df-1e8e4502ad09","ios":"levelo://app?vid=07ffa4f1-182f-4286-b0df-1e8e4502ad09"},"vehicle_type_id":"4","last_reported":1746987177,"current_range_meters":10800,"station_id":"ce4bhs12rcd13ifvqhvg","pricing_plan_id":"cebpf4jnsgd1na2vs0mg"},{"bike_id":"d83b7170-8eed-47c1-b0ec-1140d3a45dea","system_id":"levelo_inurba_marseille","lat":43.30824,"lon":5.4352,"is_reserved":false,"is_disabled":false,"rental_uris":{"android":"levelo://app?vid=d83b7170-8eed-47c1-b0ec-1140d3a45dea","ios":"levelo://app?vid=d83b7170-8eed-47c1-b0ec-1140d3a45dea"},"vehicle_type_id":"4","last_reported":1746987177,"current_range_meters":10800,"station_id":"ce4bhph2rcd13ifvqheg","pricing_plan_id":"cebpf4jnsgd1na2vs0mg"},{"bike_id":"c4165c1d-949c-4da3-af59-7f12a8697043","system_id":"levelo_inurba_marseille","lat":43.290727,"lon":5.371657,"is_reserved":false,"is_disabled":false,"rental_uris":{"android":"levelo://app?vid=c4165c1d-949c-4da3-af59-7f12a8697043","ios":"levelo://app?vid=c4165c1d-949c-4da3-af59-7f12a8697043"},"vehicle_type_id":"4","last_reported":1746987177,"current_range_meters":10800,"station_id":"ce4bh5p2rcd13ifvqe4g","pricing_plan_id":"cebpf4jnsgd1na2vs0mg"},{"bike_id":"efc0a0d5-a353-4db4-9aad-8fb20bd2a998","system_id":"levelo_inurba_marseille","lat":43.25733,"lon":5.41106,"is_reserved":false,"is_disabled":false,"rental_uris":{"android":"levelo://app?vid=efc0a0d5-a353-4db4-9aad-8fb20bd2a998","ios":"levelo://app?vid=efc0a0d5-a353-4db4-9aad-8fb20bd2a998"},"vehicle_type_id":"4","last_reported":1746987177,"current_range_meters":11200,"station_id":"ce4bhkp2rcd13ifvqgd0","pricing_plan_id":"cebpf4jnsgd1na2vs0mg"},{"bike_id":"a1121b36-b5cd-4dda-96ef-13a3dfaa55e1","system_id":"levelo_inurba_marseille","lat":43.301401,"lon":5.387791,"is_reserved":false,"is_disabled":false,"rental_uris":{"android":"levelo://app?vid=a1121b36-b5cd-4dda-96ef-13a3dfaa55e1","ios":"levelo://app?vid=a1121b36-b5cd-4dda-96ef-13a3dfaa55e1"},"vehicle_type_id":"4","last_reported":1746987177,"current_range_meters":11200,"station_id":"","pricing_plan_id":"cebpf4jnsgd1na2vs0mg"},{"bike_id":"d781856e-a078-46fa-af25-06aca1247578","system_id":"levelo_inurba_marseille","lat":43.29682,"lon":5.37302,"is_reserved":false,"is_disabled":false,"rental_uris":{"android":"levelo://app?vid=d781856e-a078-46fa-af25-06aca1247578","ios":"levelo://app?vid=d781856e-a078-46fa-af25-06aca1247578"},"vehicle_type_id":"4","last_reported":1746987177,"current_range_meters":11200,"station_id":"ce4bgk12rcd13ifvqbj0","pricing_plan_id":"cebpf4jnsgd1na2vs0mg"},{"bike_id":"6232e170-20b2-4c8e-b360-2aff5a6b417f","system_id":"levelo_inurba_marseille","lat":43.28464,"lon":5.35883,"is_reserved":false,"is_disabled":false,"rental_uris":{"android":"levelo://app?vid=6232e170-20b2-4c8e-b360-2aff5a6b417f","ios":"levelo://app?vid=6232e170-20b2-4c8e-b360-2aff5a6b417f"},"vehicle_type_id":"4","last_reported":1746987177,"current_range_meters":11200,"station_id":"ce4bhah2rcd13ifvqei0","pricing_plan_id":"cebpf4jnsgd1na2vs0mg"},{"bike_id":"c33c979d-9903-40dc-a17f-25ccdad88704","system_id":"levelo_inurba_marseille","lat":43.29522,"lon":5.39404,"is_reserved":false,"is_disabled":true,"rental_uris":{"android":"levelo://app?vid=c33c979d-9903-40dc-a17f-25ccdad88704","ios":"levelo://app?vid=c33c979d-9903-40dc-a17f-25ccdad88704"},"vehicle_type_id":"4","last_reported":1746987177,"current_range_meters":11200,"station_id":"ce4bh292rcd13ifvqdf0","pricing_plan_id":"cebpf4jnsgd1na2vs0mg"},{"bike_id":"22fb3b40-9b99-4376-8c2a-da9c2e16d702","system_id":"levelo_inurba_marseille","lat":43.29019,"lon":5.38149,"is_reserved":false,"is_disabled":false,"rental_uris":{"android":"levelo://app?vid=22fb3b40-9b99-4376-8c2a-da9c2e16d702","ios":"levelo://app?vid=22fb3b40-9b99-4376-8c2a-da9c2e16d702"},"vehicle_type_id":"4","last_reported":1746987177,"current_range_meters":11200,"station_id":"ce4bh4p2rcd13ifvqe1g","pricing_plan_id":"cebpf4jnsgd1na2vs0mg"},{"bike_id":"f9d16859-c623-411e-bbcb-c426981ab6d7","system_id":"levelo_inurba_marseille","lat":43.263411,"lon":5.388915,"is_reserved":false,"is_disabled":false,"rental_uris":{"android":"levelo://app?vid=f9d16859-c623-411e-bbcb-c426981ab6d7","ios":"levelo://app?vid=f9d16859-c623-411e-bbcb-c426981ab6d7"},"vehicle_type_id":"4","last_reported":1746987177,"current_range_meters":11600,"station_id":"ce4bhe12rcd13ifvqf30","pricing_plan_id":"cebpf4jnsgd1na2vs0mg"},{"bike_id":"386e2f9e-776b-4ba8-9e45-dfb18675a145","system_id":"levelo_inurba_marseille","lat":43.28869,"lon":5.35832,"is_reserved":false,"is_disabled":false,"rental_uris":{"android":"levelo://app?vid=386e2f9e-776b-4ba8-9e45-dfb18675a145","ios":"levelo://app?vid=386e2f9e-776b-4ba8-9e45-dfb18675a145"},"vehicle_type_id":"4","last_reported":1746987177,"current_range_meters":11600,"station_id":"ce4bhb12rcd13ifvqem0","pricing_plan_id":"cebpf4jnsgd1na2vs0mg"},{"bike_id":"3ee007b4-701a-43a3-a268-87c67c8eea49","system_id":"levelo_inurba_marseille","lat":43.26248,"lon":5.40455,"is_reserved":false,"is_disabled":false,"rental_uris":{"android":"levelo://app?vid=3ee007b4-701a-43a3-a268-87c67c8eea49","ios":"levelo://app?vid=3ee007b4-701a-43a3-a268-87c67c8eea49"},"vehicle_type_id":"4","last_reported":1746987177,"current_range_meters":11600,"station_id":"ce4bhmh2rcd13ifvqgmg","pricing_plan_id":"cebpf4jnsgd1na2vs0mg"},{"bike_id":"ff829981-66c6-4d37-ac5d-e02df060ab24","system_id":"levelo_inurba_marseille","lat":43.31879,"lon":5.40737,"is_reserved":false,"is_disabled":false,"rental_uris":{"android":"levelo://app?vid=ff829981-66c6-4d37-ac5d-e02df060ab24","ios":"levelo://app?vid=ff829981-66c6-4d37-ac5d-e02df060ab24"},"vehicle_type_id":"4","last_reported":1746987177,"current_range_meters":11600,"station_id":"ce4bhq12rcd13ifvqhig","pricing_plan_id":"cebpf4jnsgd1na2vs0mg"},{"bike_id":"f2724e16-636e-4b8a-8692-f1a13178ed70","system_id":"levelo_inurba_marseille","lat":43.29574,"lon":5.37511,"is_reserved":false,"is_disabled":false,"rental_uris":{"android":"levelo://app?vid=f2724e16-636e-4b8a-8692-f1a13178ed70","ios":"levelo://app?vid=f2724e16-636e-4b8a-8692-f1a13178ed70"},"vehicle_type_id":"4","last_reported":1746987177,"current_range_meters":11200,"station_id":"ce4bgh92rcd13ifvqb50","pricing_plan_id":"cebpf4jnsgd1na2vs0mg"},{"bike_id":"093772c5-fb44-482c-a0c3-8501aa31b989","system_id":"levelo_inurba_marseille","lat":43.29893,"lon":5.43651,"is_reserved":false,"is_disabled":false,"rental_uris":{"android":"levelo://app?vid=093772c5-fb44-482c-a0c3-8501aa31b989","ios":"levelo://app?vid=093772c5-fb44-482c-a0c3-8501aa31b989"},"vehicle_type_id":"4","last_reported":1746987177,"current_range_meters":11600,"station_id":"ce4bhpp2rcd13ifvqhfg","pricing_plan_id":"cebpf4jnsgd1na2vs0mg"},{"bike_id":"82ba524e-66ad-45c9-be20-143fe7665cf8","system_id":"levelo_inurba_marseille","lat":43.26779,"lon":5.39415,"is_reserved":false,"is_disabled":false,"rental_uris":{"android":"levelo://app?vid=82ba524e-66ad-45c9-be20-143fe7665cf8","ios":"levelo://app?vid=82ba524e-66ad-45c9-be20-143fe7665cf8"},"vehicle_type_id":"4","last_reported":1746987177,"current_range_meters":11600,"station_id":"ce4bhh12rcd13ifvqfg0","pricing_plan_id":"cebpf4jnsgd1na2vs0mg"},{"bike_id":"0e71bd13-085a-48d1-a691-59a2792789eb","system_id":"levelo_inurba_marseille","lat":43.26491,"lon":5.39545,"is_reserved":false,"is_disabled":false,"rental_uris":{"android":"levelo://app?vid=0e71bd13-085a-48d1-a691-59a2792789eb","ios":"levelo://app?vid=0e71bd13-085a-48d1-a691-59a2792789eb"},"vehicle_type_id":"4","last_reported":1746987177,"current_range_meters":12000,"station_id":"ce4bhi12rcd13ifvqfq0","pricing_plan_id":"cebpf4jnsgd1na2vs0mg"},{"bike_id":"9ed8307a-a013-4fbf-b1d8-c17983d660a3","system_id":"levelo_inurba_marseille","lat":43.23153,"lon":5.43708,"is_reserved":false,"is_disabled":false,"rental_uris":{"android":"levelo://app?vid=9ed8307a-a013-4fbf-b1d8-c17983d660a3","ios":"levelo://app?vid=9ed8307a-a013-4fbf-b1d8-c17983d660a3"},"vehicle_type_id":"4","last_reported":1746987177,"current_range_meters":12400,"station_id":"ce4bhmp2rcd13ifvqgog","pricing_plan_id":"cebpf4jnsgd1na2vs0mg"},{"bike_id":"e7ecf296-77db-4a7a-841c-65837e73a669","system_id":"levelo_inurba_marseille","lat":43.28661,"lon":5.36346,"is_reserved":false,"is_disabled":false,"rental_uris":{"android":"levelo://app?vid=e7ecf296-77db-4a7a-841c-65837e73a669","ios":"levelo://app?vid=e7ecf296-77db-4a7a-841c-65837e73a669"},"vehicle_type_id":"4","last_reported":1746987177,"current_range_meters":12400,"station_id":"ce4bhah2rcd13ifvqej0","pricing_plan_id":"cebpf4jnsgd1na2vs0mg"},{"bike_id":"29b7d4fa-011d-45f9-a448-c4558cb490a2","system_id":"levelo_inurba_marseille","lat":43.31269,"lon":5.40175,"is_reserved":false,"is_disabled":false,"rental_uris":{"android":"levelo://app?vid=29b7d4fa-011d-45f9-a448-c4558cb490a2","ios":"levelo://app?vid=29b7d4fa-011d-45f9-a448-c4558cb490a2"},"vehicle_type_id":"4","last_reported":1746987177,"current_range_meters":12400,"station_id":"ce4bh092rcd13ifvqd30","pricing_plan_id":"cebpf4jnsgd1na2vs0mg"},{"bike_id":"99bdd88a-6c79-4c7b-9277-5e8dbca0d025","system_id":"levelo_inurba_marseille","lat":43.27068,"lon":5.42279,"is_reserved":false,"is_disabled":false,"rental_uris":{"android":"levelo://app?vid=99bdd88a-6c79-4c7b-9277-5e8dbca0d025","ios":"levelo://app?vid=99bdd88a-6c79-4c7b-9277-5e8dbca0d025"},"vehicle_type_id":"4","last_reported":1746987177,"current_range_meters":12400,"station_id":"ce4bhk92rcd13ifvqgb0","pricing_plan_id":"cebpf4jnsgd1na2vs0mg"},{"bike_id":"4071bc6b-0376-4f46-b2a9-db87b2084a00","system_id":"levelo_inurba_marseille","lat":43.282738,"lon":5.350544,"is_reserved":false,"is_disabled":true,"rental_uris":{"android":"levelo://app?vid=4071bc6b-0376-4f46-b2a9-db87b2084a00","ios":"levelo://app?vid=4071bc6b-0376-4f46-b2a9-db87b2084a00"},"vehicle_type_id":"4","last_reported":1746987177,"current_range_meters":12400,"station_id":"ce4bhbp2rcd13ifvqerg","pricing_plan_id":"cebpf4jnsgd1na2vs0mg"},{"bike_id":"2785cfe4-849f-413c-8a07-55dcfd134a8f","system_id":"levelo_inurba_marseille","lat":43.28728,"lon":5.36074,"is_reserved":false,"is_disabled":false,"rental_uris":{"android":"levelo://app?vid=2785cfe4-849f-413c-8a07-55dcfd134a8f","ios":"levelo://app?vid=2785cfe4-849f-413c-8a07-55dcfd134a8f"},"vehicle_type_id":"4","last_reported":1746987177,"current_range_meters":12000,"station_id":"cki0cbj6b192h4jlfktg","pricing_plan_id":"cebpf4jnsgd1na2vs0mg"},{"bike_id":"de608a0b-278b-468e-957e-8246fb76906b","system_id":"levelo_inurba_marseille","lat":43.279677,"lon":5.387343,"is_reserved":false,"is_disabled":true,"rental_uris":{"android":"levelo://app?vid=de608a0b-278b-468e-957e-8246fb76906b","ios":"levelo://app?vid=de608a0b-278b-468e-957e-8246fb76906b"},"vehicle_type_id":"4","last_reported":1746987177,"current_range_meters":12400,"station_id":"ce4bhg12rcd13ifvqf80","pricing_plan_id":"cebpf4jnsgd1na2vs0mg"},{"bike_id":"d65c2347-5051-44f1-8204-e9af25d9e3cd","system_id":"levelo_inurba_marseille","lat":43.29554,"lon":5.42287,"is_reserved":false,"is_disabled":false,"rental_uris":{"android":"levelo://app?vid=d65c2347-5051-44f1-8204-e9af25d9e3cd","ios":"levelo://app?vid=d65c2347-5051-44f1-8204-e9af25d9e3cd"},"vehicle_type_id":"4","last_reported":1746987177,"current_range_meters":12400,"station_id":"ce4bhph2rcd13ifvqhdg","pricing_plan_id":"cebpf4jnsgd1na2vs0mg"},{"bike_id":"19708695-a8ee-4716-9e14-a794ed2f1a40","system_id":"levelo_inurba_marseille","lat":43.26561,"lon":5.39023,"is_reserved":false,"is_disabled":false,"rental_uris":{"android":"levelo://app?vid=19708695-a8ee-4716-9e14-a794ed2f1a40","ios":"levelo://app?vid=19708695-a8ee-4716-9e14-a794ed2f1a40"},"vehicle_type_id":"4","last_reported":1746987177,"current_range_meters":13600,"station_id":"ce4bhe12rcd13ifvqf30","pricing_plan_id":"cebpf4jnsgd1na2vs0mg"},{"bike_id":"2fb64400-efcb-41b4-be92-3b33a77e43bc","system_id":"levelo_inurba_marseille","lat":43.26564,"lon":5.39011,"is_reserved":false,"is_disabled":false,"rental_uris":{"android":"levelo://app?vid=2fb64400-efcb-41b4-be92-3b33a77e43bc","ios":"levelo://app?vid=2fb64400-efcb-41b4-be92-3b33a77e43bc"},"vehicle_type_id":"4","last_reported":1746987177,"current_range_meters":13600,"station_id":"ce4bhe12rcd13ifvqf30","pricing_plan_id":"cebpf4jnsgd1na2vs0mg"},{"bike_id":"a27294a1-0ade-4ffd-bd47-778d38430125","system_id":"levelo_inurba_marseille","lat":43.23149,"lon":5.43712,"is_reserved":false,"is_disabled":false,"rental_uris":{"android":"levelo://app?vid=a27294a1-0ade-4ffd-bd47-778d38430125","ios":"levelo://app?vid=a27294a1-0ade-4ffd-bd47-778d38430125"},"vehicle_type_id":"4","last_reported":1746987177,"current_range_meters":13600,"station_id":"ce4bhmp2rcd13ifvqgog","pricing_plan_id":"cebpf4jnsgd1na2vs0mg"},{"bike_id":"590ac3bc-3483-40d8-90e6-8d9de728c11b","system_id":"levelo_inurba_marseille","lat":43.30935,"lon":5.4014,"is_reserved":false,"is_disabled":false,"rental_uris":{"android":"levelo://app?vid=590ac3bc-3483-40d8-90e6-8d9de728c11b","ios":"levelo://app?vid=590ac3bc-3483-40d8-90e6-8d9de728c11b"},"vehicle_type_id":"4","last_reported":1746987177,"current_range_meters":13600,"station_id":"ce4bgvp2rcd13ifvqct0","pricing_plan_id":"cebpf4jnsgd1na2vs0mg"},{"bike_id":"f52c819d-ca4b-4640-b458-b877db1bf990","system_id":"levelo_inurba_marseille","lat":43.2986,"lon":5.41005,"is_reserved":false,"is_disabled":false,"rental_uris":{"android":"levelo://app?vid=f52c819d-ca4b-4640-b458-b877db1bf990","ios":"levelo://app?vid=f52c819d-ca4b-4640-b458-b877db1bf990"},"vehicle_type_id":"4","last_reported":1746987177,"current_range_meters":14000,"station_id":"","pricing_plan_id":"cebpf4jnsgd1na2vs0mg"},{"bike_id":"fe8a300c-df4c-42e1-b092-cce77e5975ce","system_id":"levelo_inurba_marseille","lat":43.25729,"lon":5.4111,"is_reserved":false,"is_disabled":false,"rental_uris":{"android":"levelo://app?vid=fe8a300c-df4c-42e1-b092-cce77e5975ce","ios":"levelo://app?vid=fe8a300c-df4c-42e1-b092-cce77e5975ce"},"vehicle_type_id":"4","last_reported":1746987177,"current_range_meters":14000,"station_id":"ce4bhkp2rcd13ifvqgd0","pricing_plan_id":"cebpf4jnsgd1na2vs0mg"},{"bike_id":"7e87f756-28c4-43c2-9f2d-c9a9ad672064","system_id":"levelo_inurba_marseille","lat":43.280944,"lon":5.412475,"is_reserved":false,"is_disabled":false,"rental_uris":{"android":"levelo://app?vid=7e87f756-28c4-43c2-9f2d-c9a9ad672064","ios":"levelo://app?vid=7e87f756-28c4-43c2-9f2d-c9a9ad672064"},"vehicle_type_id":"4","last_reported":1746987177,"current_range_meters":14000,"station_id":"ce4bho12rcd13ifvqh1g","pricing_plan_id":"cebpf4jnsgd1na2vs0mg"},{"bike_id":"91c16720-63af-498f-a799-6c9da45bdc71","system_id":"levelo_inurba_marseille","lat":43.2455,"lon":5.3953,"is_reserved":false,"is_disabled":false,"rental_uris":{"android":"levelo://app?vid=91c16720-63af-498f-a799-6c9da45bdc71","ios":"levelo://app?vid=91c16720-63af-498f-a799-6c9da45bdc71"},"vehicle_type_id":"4","last_reported":1746987177,"current_range_meters":13600,"station_id":"ce4bhlp2rcd13ifvqgjg","pricing_plan_id":"cebpf4jnsgd1na2vs0mg"},{"bike_id":"cc62d2da-5a20-4806-9c3f-389790a326f5","system_id":"levelo_inurba_marseille","lat":43.244315,"lon":5.370796,"is_reserved":false,"is_disabled":true,"rental_uris":{"android":"levelo://app?vid=cc62d2da-5a20-4806-9c3f-389790a326f5","ios":"levelo://app?vid=cc62d2da-5a20-4806-9c3f-389790a326f5"},"vehicle_type_id":"4","last_reported":1746987177,"current_range_meters":14000,"station_id":"ce4bhhh2rcd13ifvqfk0","pricing_plan_id":"cebpf4jnsgd1na2vs0mg"},{"bike_id":"d423bd75-8124-4300-931a-3a51f703d4a6","system_id":"levelo_inurba_marseille","lat":43.26057,"lon":5.39389,"is_reserved":false,"is_disabled":false,"rental_uris":{"android":"levelo://app?vid=d423bd75-8124-4300-931a-3a51f703d4a6","ios":"levelo://app?vid=d423bd75-8124-4300-931a-3a51f703d4a6"},"vehicle_type_id":"4","last_reported":1746987177,"current_range_meters":14400,"station_id":"ce4bhh92rcd13ifvqfj0","pricing_plan_id":"cebpf4jnsgd1na2vs0mg"},{"bike_id":"e64b6efa-8ad8-4af7-8d4d-f16b57fe35e2","system_id":"levelo_inurba_marseille","lat":43.28614,"lon":5.37039,"is_reserved":false,"is_disabled":true,"rental_uris":{"android":"levelo://app?vid=e64b6efa-8ad8-4af7-8d4d-f16b57fe35e2","ios":"levelo://app?vid=e64b6efa-8ad8-4af7-8d4d-f16b57fe35e2"},"vehicle_type_id":"4","last_reported":1746987177,"current_range_meters":14400,"station_id":"ce4bht12rcd13ifvqi60","pricing_plan_id":"cebpf4jnsgd1na2vs0mg"},{"bike_id":"0a96b047-410f-4812-8d2d-8b206a02a2ac","system_id":"levelo_inurba_marseille","lat":43.231886,"lon":5.35556,"is_reserved":false,"is_disabled":false,"rental_uris":{"android":"levelo://app?vid=0a96b047-410f-4812-8d2d-8b206a02a2ac","ios":"levelo://app?vid=0a96b047-410f-4812-8d2d-8b206a02a2ac"},"vehicle_type_id":"4","last_reported":1746987177,"current_range_meters":14400,"station_id":"ce4bhu92rcd13ifvqi70","pricing_plan_id":"cebpf4jnsgd1na2vs0mg"},{"bike_id":"4b5f5b51-0a4d-410a-be42-b9b90271e48c","system_id":"levelo_inurba_marseille","lat":43.28726,"lon":5.37938,"is_reserved":false,"is_disabled":false,"rental_uris":{"android":"levelo://app?vid=4b5f5b51-0a4d-410a-be42-b9b90271e48c","ios":"levelo://app?vid=4b5f5b51-0a4d-410a-be42-b9b90271e48c"},"vehicle_type_id":"4","last_reported":1746987177,"current_range_meters":14400,"station_id":"ce4bh9p2rcd13ifvqec0","pricing_plan_id":"cebpf4jnsgd1na2vs0mg"},{"bike_id":"350f96e5-9d35-4552-ab8b-75cc94649a94","system_id":"levelo_inurba_marseille","lat":43.25108,"lon":5.40321,"is_reserved":false,"is_disabled":false,"rental_uris":{"android":"levelo://app?vid=350f96e5-9d35-4552-ab8b-75cc94649a94","ios":"levelo://app?vid=350f96e5-9d35-4552-ab8b-75cc94649a94"},"vehicle_type_id":"4","last_reported":1746987177,"current_range_meters":14400,"station_id":"ce4bhlh2rcd13ifvqgig","pricing_plan_id":"cebpf4jnsgd1na2vs0mg"},{"bike_id":"d769f653-2284-4ccd-8df9-03b5aebbcb34","system_id":"levelo_inurba_marseille","lat":43.2701,"lon":5.4316,"is_reserved":false,"is_disabled":false,"rental_uris":{"android":"levelo://app?vid=d769f653-2284-4ccd-8df9-03b5aebbcb34","ios":"levelo://app?vid=d769f653-2284-4ccd-8df9-03b5aebbcb34"},"vehicle_type_id":"4","last_reported":1746987177,"current_range_meters":14400,"station_id":"","pricing_plan_id":"cebpf4jnsgd1na2vs0mg"},{"bike_id":"bb890532-d822-4a76-a72c-9c235a468746","system_id":"levelo_inurba_marseille","lat":43.31114,"lon":5.3776,"is_reserved":false,"is_disabled":false,"rental_uris":{"android":"levelo://app?vid=bb890532-d822-4a76-a72c-9c235a468746","ios":"levelo://app?vid=bb890532-d822-4a76-a72c-9c235a468746"},"vehicle_type_id":"4","last_reported":1746987177,"current_range_meters":14400,"station_id":"ce4bgt92rcd13ifvqcg0","pricing_plan_id":"cebpf4jnsgd1na2vs0mg"},{"bike_id":"c0ecb153-4cfb-4cfd-9d27-87dd09e486cb","system_id":"levelo_inurba_marseille","lat":43.29092,"lon":5.38143,"is_reserved":false,"is_disabled":false,"rental_uris":{"android":"levelo://app?vid=c0ecb153-4cfb-4cfd-9d27-87dd09e486cb","ios":"levelo://app?vid=c0ecb153-4cfb-4cfd-9d27-87dd09e486cb"},"vehicle_type_id":"4","last_reported":1746987177,"current_range_meters":14400,"station_id":"ce4bh512rcd13ifvqe2g","pricing_plan_id":"cebpf4jnsgd1na2vs0mg"},{"bike_id":"9401e170-3654-4a41-bf35-9a468db0c37f","system_id":"levelo_inurba_marseille","lat":43.25107,"lon":5.40328,"is_reserved":false,"is_disabled":false,"rental_uris":{"android":"levelo://app?vid=9401e170-3654-4a41-bf35-9a468db0c37f","ios":"levelo://app?vid=9401e170-3654-4a41-bf35-9a468db0c37f"},"vehicle_type_id":"4","last_reported":1746987177,"current_range_meters":14800,"station_id":"ce4bhlh2rcd13ifvqgig","pricing_plan_id":"cebpf4jnsgd1na2vs0mg"},{"bike_id":"d3dec546-1711-47d1-9834-d0bc2038b828","system_id":"levelo_inurba_marseille","lat":43.29062,"lon":5.37175,"is_reserved":false,"is_disabled":false,"rental_uris":{"android":"levelo://app?vid=d3dec546-1711-47d1-9834-d0bc2038b828","ios":"levelo://app?vid=d3dec546-1711-47d1-9834-d0bc2038b828"},"vehicle_type_id":"4","last_reported":1746987177,"current_range_meters":14400,"station_id":"ce4bh5p2rcd13ifvqe4g","pricing_plan_id":"cebpf4jnsgd1na2vs0mg"},{"bike_id":"792ccc06-9c50-4eb3-8975-2b9bbb2aa262","system_id":"levelo_inurba_marseille","lat":43.27826,"lon":5.39209,"is_reserved":false,"is_disabled":false,"rental_uris":{"android":"levelo://app?vid=792ccc06-9c50-4eb3-8975-2b9bbb2aa262","ios":"levelo://app?vid=792ccc06-9c50-4eb3-8975-2b9bbb2aa262"},"vehicle_type_id":"4","last_reported":1746987177,"current_range_meters":15200,"station_id":"ce4bhjp2rcd13ifvqga0","pricing_plan_id":"cebpf4jnsgd1na2vs0mg"},{"bike_id":"08299423-6f53-4363-8c97-5cf0937bb9a0","system_id":"levelo_inurba_marseille","lat":43.28705,"lon":5.373744,"is_reserved":false,"is_disabled":false,"rental_uris":{"android":"levelo://app?vid=08299423-6f53-4363-8c97-5cf0937bb9a0","ios":"levelo://app?vid=08299423-6f53-4363-8c97-5cf0937bb9a0"},"vehicle_type_id":"4","last_reported":1746987177,"current_range_meters":15200,"station_id":"ce4bh3p2rcd13ifvqdq0","pricing_plan_id":"cebpf4jnsgd1na2vs0mg"},{"bike_id":"e4ac273d-3313-4bba-b262-4b551311cfb5","system_id":"levelo_inurba_marseille","lat":43.29196,"lon":5.35798,"is_reserved":false,"is_disabled":false,"rental_uris":{"android":"levelo://app?vid=e4ac273d-3313-4bba-b262-4b551311cfb5","ios":"levelo://app?vid=e4ac273d-3313-4bba-b262-4b551311cfb5"},"vehicle_type_id":"4","last_reported":1746987177,"current_range_meters":15200,"station_id":"ce4bhb12rcd13ifvqel0","pricing_plan_id":"cebpf4jnsgd1na2vs0mg"},{"bike_id":"c6e58aa3-d73b-4343-a6f3-d814914ad535","system_id":"levelo_inurba_marseille","lat":43.29006,"lon":5.35609,"is_reserved":false,"is_disabled":true,"rental_uris":{"android":"levelo://app?vid=c6e58aa3-d73b-4343-a6f3-d814914ad535","ios":"levelo://app?vid=c6e58aa3-d73b-4343-a6f3-d814914ad535"},"vehicle_type_id":"4","last_reported":1746987177,"current_range_meters":16000,"station_id":"ce4bhb92rcd13ifvqen0","pricing_plan_id":"cebpf4jnsgd1na2vs0mg"},{"bike_id":"83a5dddc-f08f-476e-a316-d0e0dfb65037","system_id":"levelo_inurba_marseille","lat":43.31692,"lon":5.424,"is_reserved":false,"is_disabled":false,"rental_uris":{"android":"levelo://app?vid=83a5dddc-f08f-476e-a316-d0e0dfb65037","ios":"levelo://app?vid=83a5dddc-f08f-476e-a316-d0e0dfb65037"},"vehicle_type_id":"4","last_reported":1746987177,"current_range_meters":16400,"station_id":"ce4bhp92rcd13ifvqhbg","pricing_plan_id":"cebpf4jnsgd1na2vs0mg"},{"bike_id":"51bc31be-aca9-4ffe-afa8-2abfd963fc7b","system_id":"levelo_inurba_marseille","lat":43.2997,"lon":5.38511,"is_reserved":false,"is_disabled":false,"rental_uris":{"android":"levelo://app?vid=51bc31be-aca9-4ffe-afa8-2abfd963fc7b","ios":"levelo://app?vid=51bc31be-aca9-4ffe-afa8-2abfd963fc7b"},"vehicle_type_id":"4","last_reported":1746987177,"current_range_meters":16400,"station_id":"ce4bgj92rcd13ifvqbd0","pricing_plan_id":"cebpf4jnsgd1na2vs0mg"},{"bike_id":"a3cfbeb5-0ed1-4c8e-8d1d-c9603b834a27","system_id":"levelo_inurba_marseille","lat":43.32266,"lon":5.40657,"is_reserved":false,"is_disabled":false,"rental_uris":{"android":"levelo://app?vid=a3cfbeb5-0ed1-4c8e-8d1d-c9603b834a27","ios":"levelo://app?vid=a3cfbeb5-0ed1-4c8e-8d1d-c9603b834a27"},"vehicle_type_id":"4","last_reported":1746987177,"current_range_meters":16400,"station_id":"","pricing_plan_id":"cebpf4jnsgd1na2vs0mg"},{"bike_id":"ab38ef62-870b-4715-a349-e205eeb08a6e","system_id":"levelo_inurba_marseille","lat":43.315182,"lon":5.37296,"is_reserved":false,"is_disabled":false,"rental_uris":{"android":"levelo://app?vid=ab38ef62-870b-4715-a349-e205eeb08a6e","ios":"levelo://app?vid=ab38ef62-870b-4715-a349-e205eeb08a6e"},"vehicle_type_id":"4","last_reported":1746987177,"current_range_meters":16400,"station_id":"ce4bhsh2rcd13ifvqi2g","pricing_plan_id":"cebpf4jnsgd1na2vs0mg"},{"bike_id":"0d1fdf85-0a49-4a04-a6c6-8afcee36936e","system_id":"levelo_inurba_marseille","lat":43.30938,"lon":5.401447,"is_reserved":false,"is_disabled":false,"rental_uris":{"android":"levelo://app?vid=0d1fdf85-0a49-4a04-a6c6-8afcee36936e","ios":"levelo://app?vid=0d1fdf85-0a49-4a04-a6c6-8afcee36936e"},"vehicle_type_id":"4","last_reported":1746987177,"current_range_meters":16400,"station_id":"ce4bgvp2rcd13ifvqct0","pricing_plan_id":"cebpf4jnsgd1na2vs0mg"},{"bike_id":"3865b2af-7812-48f0-ab0e-c0dbdc00abb7","system_id":"levelo_inurba_marseille","lat":43.2548,"lon":5.37651,"is_reserved":false,"is_disabled":false,"rental_uris":{"android":"levelo://app?vid=3865b2af-7812-48f0-ab0e-c0dbdc00abb7","ios":"levelo://app?vid=3865b2af-7812-48f0-ab0e-c0dbdc00abb7"},"vehicle_type_id":"4","last_reported":1746987177,"current_range_meters":16800,"station_id":"ce4bhh12rcd13ifvqff0","pricing_plan_id":"cebpf4jnsgd1na2vs0mg"},{"bike_id":"0fce905b-a787-4b48-abef-93cf7b93a09d","system_id":"levelo_inurba_marseille","lat":43.28667,"lon":5.38697,"is_reserved":false,"is_disabled":false,"rental_uris":{"android":"levelo://app?vid=0fce905b-a787-4b48-abef-93cf7b93a09d","ios":"levelo://app?vid=0fce905b-a787-4b48-abef-93cf7b93a09d"},"vehicle_type_id":"4","last_reported":1746987177,"current_range_meters":16800,"station_id":"ce4bh492rcd13ifvqdug","pricing_plan_id":"cebpf4jnsgd1na2vs0mg"},{"bike_id":"13fe7a8a-f0a9-4ccb-bd17-886ee87592b9","system_id":"levelo_inurba_marseille","lat":43.29257,"lon":5.40908,"is_reserved":false,"is_disabled":false,"rental_uris":{"android":"levelo://app?vid=13fe7a8a-f0a9-4ccb-bd17-886ee87592b9","ios":"levelo://app?vid=13fe7a8a-f0a9-4ccb-bd17-886ee87592b9"},"vehicle_type_id":"4","last_reported":1746987177,"current_range_meters":16800,"station_id":"ce4bh192rcd13ifvqdc0","pricing_plan_id":"cebpf4jnsgd1na2vs0mg"},{"bike_id":"77b898d6-83c3-4819-8f10-342d8faa3aa9","system_id":"levelo_inurba_marseille","lat":43.270676,"lon":5.42278,"is_reserved":false,"is_disabled":true,"rental_uris":{"android":"levelo://app?vid=77b898d6-83c3-4819-8f10-342d8faa3aa9","ios":"levelo://app?vid=77b898d6-83c3-4819-8f10-342d8faa3aa9"},"vehicle_type_id":"4","last_reported":1746987177,"current_range_meters":16800,"station_id":"ce4bhk92rcd13ifvqgb0","pricing_plan_id":"cebpf4jnsgd1na2vs0mg"},{"bike_id":"4762718c-a376-420c-be5d-ae5208641990","system_id":"levelo_inurba_marseille","lat":43.284661,"lon":5.358963,"is_reserved":false,"is_disabled":true,"rental_uris":{"android":"levelo://app?vid=4762718c-a376-420c-be5d-ae5208641990","ios":"levelo://app?vid=4762718c-a376-420c-be5d-ae5208641990"},"vehicle_type_id":"4","last_reported":1746987177,"current_range_meters":16800,"station_id":"ce4bhah2rcd13ifvqei0","pricing_plan_id":"cebpf4jnsgd1na2vs0mg"},{"bike_id":"e893cfa6-e06e-4e48-8bb1-b5441c83fddc","system_id":"levelo_inurba_marseille","lat":43.28664,"lon":5.3635,"is_reserved":false,"is_disabled":false,"rental_uris":{"android":"levelo://app?vid=e893cfa6-e06e-4e48-8bb1-b5441c83fddc","ios":"levelo://app?vid=e893cfa6-e06e-4e48-8bb1-b5441c83fddc"},"vehicle_type_id":"4","last_reported":1746987177,"current_range_meters":17200,"station_id":"ce4bhah2rcd13ifvqej0","pricing_plan_id":"cebpf4jnsgd1na2vs0mg"},{"bike_id":"bab20466-91a2-48da-af64-7d429397e36e","system_id":"levelo_inurba_marseille","lat":43.21755,"lon":5.34594,"is_reserved":false,"is_disabled":false,"rental_uris":{"android":"levelo://app?vid=bab20466-91a2-48da-af64-7d429397e36e","ios":"levelo://app?vid=bab20466-91a2-48da-af64-7d429397e36e"},"vehicle_type_id":"4","last_reported":1746987177,"current_range_meters":17200,"station_id":"st_cvj6r9ubvosntc0bgbag","pricing_plan_id":"cebpf4jnsgd1na2vs0mg"},{"bike_id":"77c20f61-b62f-4394-aae9-7704e597bbdf","system_id":"levelo_inurba_marseille","lat":43.30626,"lon":5.37205,"is_reserved":false,"is_disabled":false,"rental_uris":{"android":"levelo://app?vid=77c20f61-b62f-4394-aae9-7704e597bbdf","ios":"levelo://app?vid=77c20f61-b62f-4394-aae9-7704e597bbdf"},"vehicle_type_id":"4","last_reported":1746987177,"current_range_meters":16800,"station_id":"ce4bgqh2rcd13ifvqc4g","pricing_plan_id":"cebpf4jnsgd1na2vs0mg"},{"bike_id":"ad0bc0a9-d0b3-465d-a6ed-8b5ec394d91c","system_id":"levelo_inurba_marseille","lat":43.26787,"lon":5.39408,"is_reserved":false,"is_disabled":false,"rental_uris":{"android":"levelo://app?vid=ad0bc0a9-d0b3-465d-a6ed-8b5ec394d91c","ios":"levelo://app?vid=ad0bc0a9-d0b3-465d-a6ed-8b5ec394d91c"},"vehicle_type_id":"4","last_reported":1746987177,"current_range_meters":17200,"station_id":"ce4bhh12rcd13ifvqfg0","pricing_plan_id":"cebpf4jnsgd1na2vs0mg"},{"bike_id":"c2d26363-c111-4e54-98d2-ac34f8d787a8","system_id":"levelo_inurba_marseille","lat":43.25106,"lon":5.40398,"is_reserved":false,"is_disabled":false,"rental_uris":{"android":"levelo://app?vid=c2d26363-c111-4e54-98d2-ac34f8d787a8","ios":"levelo://app?vid=c2d26363-c111-4e54-98d2-ac34f8d787a8"},"vehicle_type_id":"4","last_reported":1746987177,"current_range_meters":17200,"station_id":"ce4bhlh2rcd13ifvqgig","pricing_plan_id":"cebpf4jnsgd1na2vs0mg"},{"bike_id":"71531b31-a54e-4243-a1cd-af259f702981","system_id":"levelo_inurba_marseille","lat":43.30131,"lon":5.38061,"is_reserved":false,"is_disabled":false,"rental_uris":{"android":"levelo://app?vid=71531b31-a54e-4243-a1cd-af259f702981","ios":"levelo://app?vid=71531b31-a54e-4243-a1cd-af259f702981"},"vehicle_type_id":"4","last_reported":1746987177,"current_range_meters":17200,"station_id":"ce4bgjp2rcd13ifvqbh0","pricing_plan_id":"cebpf4jnsgd1na2vs0mg"},{"bike_id":"d8f85698-9cc7-4fac-ba09-0118aa7df1b5","system_id":"levelo_inurba_marseille","lat":43.31364,"lon":5.38494,"is_reserved":false,"is_disabled":true,"rental_uris":{"android":"levelo://app?vid=d8f85698-9cc7-4fac-ba09-0118aa7df1b5","ios":"levelo://app?vid=d8f85698-9cc7-4fac-ba09-0118aa7df1b5"},"vehicle_type_id":"4","last_reported":1746987177,"current_range_meters":17200,"station_id":"ce4bgt92rcd13ifvqcf0","pricing_plan_id":"cebpf4jnsgd1na2vs0mg"},{"bike_id":"700a1afa-61f5-4ca5-bc83-e11f6c1ce2c0","system_id":"levelo_inurba_marseille","lat":43.27211,"lon":5.39177,"is_reserved":false,"is_disabled":false,"rental_uris":{"android":"levelo://app?vid=700a1afa-61f5-4ca5-bc83-e11f6c1ce2c0","ios":"levelo://app?vid=700a1afa-61f5-4ca5-bc83-e11f6c1ce2c0"},"vehicle_type_id":"4","last_reported":1746987177,"current_range_meters":17200,"station_id":"ce4bhhp2rcd13ifvqfm0","pricing_plan_id":"cebpf4jnsgd1na2vs0mg"},{"bike_id":"0a4dc782-e1df-48ff-81bf-b707284fe935","system_id":"levelo_inurba_marseille","lat":43.284227,"lon":5.34983,"is_reserved":false,"is_disabled":true,"rental_uris":{"android":"levelo://app?vid=0a4dc782-e1df-48ff-81bf-b707284fe935","ios":"levelo://app?vid=0a4dc782-e1df-48ff-81bf-b707284fe935"},"vehicle_type_id":"4","last_reported":1746987177,"current_range_meters":17200,"station_id":"ce4bhbh2rcd13ifvqepg","pricing_plan_id":"cebpf4jnsgd1na2vs0mg"},{"bike_id":"becd4f25-7f50-4d8c-a625-6c13415e6d62","system_id":"levelo_inurba_marseille","lat":43.2439,"lon":5.37058,"is_reserved":false,"is_disabled":false,"rental_uris":{"android":"levelo://app?vid=becd4f25-7f50-4d8c-a625-6c13415e6d62","ios":"levelo://app?vid=becd4f25-7f50-4d8c-a625-6c13415e6d62"},"vehicle_type_id":"4","last_reported":1746987177,"current_range_meters":17200,"station_id":"ce4bhhh2rcd13ifvqfk0","pricing_plan_id":"cebpf4jnsgd1na2vs0mg"},{"bike_id":"b6f0504a-f7d7-4a97-b810-e7c9e7b1c671","system_id":"levelo_inurba_marseille","lat":43.27901,"lon":5.41244,"is_reserved":false,"is_disabled":false,"rental_uris":{"android":"levelo://app?vid=b6f0504a-f7d7-4a97-b810-e7c9e7b1c671","ios":"levelo://app?vid=b6f0504a-f7d7-4a97-b810-e7c9e7b1c671"},"vehicle_type_id":"4","last_reported":1746987177,"current_range_meters":17600,"station_id":"","pricing_plan_id":"cebpf4jnsgd1na2vs0mg"},{"bike_id":"c6f94e68-7c7b-43ef-8184-27f8965ee836","system_id":"levelo_inurba_marseille","lat":43.25118,"lon":5.40312,"is_reserved":false,"is_disabled":false,"rental_uris":{"android":"levelo://app?vid=c6f94e68-7c7b-43ef-8184-27f8965ee836","ios":"levelo://app?vid=c6f94e68-7c7b-43ef-8184-27f8965ee836"},"vehicle_type_id":"4","last_reported":1746987177,"current_range_meters":17600,"station_id":"ce4bhlh2rcd13ifvqgig","pricing_plan_id":"cebpf4jnsgd1na2vs0mg"},{"bike_id":"b09f797d-3fce-43bf-b917-a18f30c79693","system_id":"levelo_inurba_marseille","lat":43.30135,"lon":5.37419,"is_reserved":false,"is_disabled":false,"rental_uris":{"android":"levelo://app?vid=b09f797d-3fce-43bf-b917-a18f30c79693","ios":"levelo://app?vid=b09f797d-3fce-43bf-b917-a18f30c79693"},"vehicle_type_id":"4","last_reported":1746987177,"current_range_meters":17600,"station_id":"ce4bgs92rcd13ifvqcc0","pricing_plan_id":"cebpf4jnsgd1na2vs0mg"},{"bike_id":"b8bf2a08-843e-45f8-a5ba-247ce347a37f","system_id":"levelo_inurba_marseille","lat":43.2608,"lon":5.39392,"is_reserved":false,"is_disabled":false,"rental_uris":{"android":"levelo://app?vid=b8bf2a08-843e-45f8-a5ba-247ce347a37f","ios":"levelo://app?vid=b8bf2a08-843e-45f8-a5ba-247ce347a37f"},"vehicle_type_id":"4","last_reported":1746987177,"current_range_meters":17600,"station_id":"ce4bhh92rcd13ifvqfj0","pricing_plan_id":"cebpf4jnsgd1na2vs0mg"},{"bike_id":"8bdd897b-8338-43e9-8919-4747f7c7cca5","system_id":"levelo_inurba_marseille","lat":43.28566,"lon":5.39495,"is_reserved":false,"is_disabled":false,"rental_uris":{"android":"levelo://app?vid=8bdd897b-8338-43e9-8919-4747f7c7cca5","ios":"levelo://app?vid=8bdd897b-8338-43e9-8919-4747f7c7cca5"},"vehicle_type_id":"4","last_reported":1746987177,"current_range_meters":17200,"station_id":"ce4bh292rcd13ifvqdg0","pricing_plan_id":"cebpf4jnsgd1na2vs0mg"},{"bike_id":"125a34ea-1949-4e89-86eb-b97a97012155","system_id":"levelo_inurba_marseille","lat":43.284102,"lon":5.375028,"is_reserved":false,"is_disabled":false,"rental_uris":{"android":"levelo://app?vid=125a34ea-1949-4e89-86eb-b97a97012155","ios":"levelo://app?vid=125a34ea-1949-4e89-86eb-b97a97012155"},"vehicle_type_id":"4","last_reported":1746987177,"current_range_meters":17600,"station_id":"ce4bh412rcd13ifvqds0","pricing_plan_id":"cebpf4jnsgd1na2vs0mg"},{"bike_id":"6f5d2398-215d-4cbb-b7cf-aec7198bd09b","system_id":"levelo_inurba_marseille","lat":43.26489,"lon":5.39545,"is_reserved":false,"is_disabled":false,"rental_uris":{"android":"levelo://app?vid=6f5d2398-215d-4cbb-b7cf-aec7198bd09b","ios":"levelo://app?vid=6f5d2398-215d-4cbb-b7cf-aec7198bd09b"},"vehicle_type_id":"4","last_reported":1746987177,"current_range_meters":17600,"station_id":"ce4bhi12rcd13ifvqfq0","pricing_plan_id":"cebpf4jnsgd1na2vs0mg"},{"bike_id":"b63e6078-9c65-41bd-aa73-a2ddabd6b5de","system_id":"levelo_inurba_marseille","lat":43.2959,"lon":5.3673,"is_reserved":false,"is_disabled":true,"rental_uris":{"android":"levelo://app?vid=b63e6078-9c65-41bd-aa73-a2ddabd6b5de","ios":"levelo://app?vid=b63e6078-9c65-41bd-aa73-a2ddabd6b5de"},"vehicle_type_id":"4","last_reported":1746987177,"current_range_meters":18000,"station_id":"ce4bgph2rcd13ifvqc2g","pricing_plan_id":"cebpf4jnsgd1na2vs0mg"},{"bike_id":"81d71cbd-58b2-4d3e-a3cb-f6288f8e0b0d","system_id":"levelo_inurba_marseille","lat":43.3111,"lon":5.37775,"is_reserved":false,"is_disabled":false,"rental_uris":{"android":"levelo://app?vid=81d71cbd-58b2-4d3e-a3cb-f6288f8e0b0d","ios":"levelo://app?vid=81d71cbd-58b2-4d3e-a3cb-f6288f8e0b0d"},"vehicle_type_id":"4","last_reported":1746987177,"current_range_meters":18000,"station_id":"ce4bgt92rcd13ifvqcg0","pricing_plan_id":"cebpf4jnsgd1na2vs0mg"},{"bike_id":"4b0c13df-1e1f-4408-a081-a19b9e0eeabd","system_id":"levelo_inurba_marseille","lat":43.31881,"lon":5.40741,"is_reserved":false,"is_disabled":false,"rental_uris":{"android":"levelo://app?vid=4b0c13df-1e1f-4408-a081-a19b9e0eeabd","ios":"levelo://app?vid=4b0c13df-1e1f-4408-a081-a19b9e0eeabd"},"vehicle_type_id":"4","last_reported":1746987177,"current_range_meters":17600,"station_id":"ce4bhq12rcd13ifvqhig","pricing_plan_id":"cebpf4jnsgd1na2vs0mg"},{"bike_id":"252d837e-8543-470e-9bdf-df576a1296e2","system_id":"levelo_inurba_marseille","lat":43.29258,"lon":5.40913,"is_reserved":false,"is_disabled":false,"rental_uris":{"android":"levelo://app?vid=252d837e-8543-470e-9bdf-df576a1296e2","ios":"levelo://app?vid=252d837e-8543-470e-9bdf-df576a1296e2"},"vehicle_type_id":"4","last_reported":1746987177,"current_range_meters":18800,"station_id":"ce4bh192rcd13ifvqdc0","pricing_plan_id":"cebpf4jnsgd1na2vs0mg"},{"bike_id":"2a2e92a8-9be2-42a0-8f8b-e8c99ed20b3a","system_id":"levelo_inurba_marseille","lat":43.23166,"lon":5.39925,"is_reserved":false,"is_disabled":false,"rental_uris":{"android":"levelo://app?vid=2a2e92a8-9be2-42a0-8f8b-e8c99ed20b3a","ios":"levelo://app?vid=2a2e92a8-9be2-42a0-8f8b-e8c99ed20b3a"},"vehicle_type_id":"4","last_reported":1746987177,"current_range_meters":18800,"station_id":"","pricing_plan_id":"cebpf4jnsgd1na2vs0mg"},{"bike_id":"651f4fae-e466-4118-81a6-0dc63fc516f9","system_id":"levelo_inurba_marseille","lat":43.2907,"lon":5.37156,"is_reserved":false,"is_disabled":false,"rental_uris":{"android":"levelo://app?vid=651f4fae-e466-4118-81a6-0dc63fc516f9","ios":"levelo://app?vid=651f4fae-e466-4118-81a6-0dc63fc516f9"},"vehicle_type_id":"4","last_reported":1746987177,"current_range_meters":18800,"station_id":"ce4bh5p2rcd13ifvqe4g","pricing_plan_id":"cebpf4jnsgd1na2vs0mg"},{"bike_id":"923bc3c8-9653-42f6-ab2d-a12cb585d499","system_id":"levelo_inurba_marseille","lat":43.29456,"lon":5.38693,"is_reserved":false,"is_disabled":false,"rental_uris":{"android":"levelo://app?vid=923bc3c8-9653-42f6-ab2d-a12cb585d499","ios":"levelo://app?vid=923bc3c8-9653-42f6-ab2d-a12cb585d499"},"vehicle_type_id":"4","last_reported":1746987177,"current_range_meters":18800,"station_id":"","pricing_plan_id":"cebpf4jnsgd1na2vs0mg"},{"bike_id":"f202ef3b-390d-4222-9c53-b7b067de17c2","system_id":"levelo_inurba_marseille","lat":43.28434,"lon":5.39202,"is_reserved":false,"is_disabled":false,"rental_uris":{"android":"levelo://app?vid=f202ef3b-390d-4222-9c53-b7b067de17c2","ios":"levelo://app?vid=f202ef3b-390d-4222-9c53-b7b067de17c2"},"vehicle_type_id":"4","last_reported":1746987177,"current_range_meters":18000,"station_id":"ce4bhoh2rcd13ifvqh5g","pricing_plan_id":"cebpf4jnsgd1na2vs0mg"},{"bike_id":"aca142bd-2716-4ee3-8c04-bd27c952c647","system_id":"levelo_inurba_marseille","lat":43.26446,"lon":5.374983,"is_reserved":false,"is_disabled":false,"rental_uris":{"android":"levelo://app?vid=aca142bd-2716-4ee3-8c04-bd27c952c647","ios":"levelo://app?vid=aca142bd-2716-4ee3-8c04-bd27c952c647"},"vehicle_type_id":"4","last_reported":1746987177,"current_range_meters":19200,"station_id":"","pricing_plan_id":"cebpf4jnsgd1na2vs0mg"},{"bike_id":"4c7a1817-8281-47c8-9ba0-5074e2906bff","system_id":"levelo_inurba_marseille","lat":43.29274,"lon":5.40131,"is_reserved":false,"is_disabled":false,"rental_uris":{"android":"levelo://app?vid=4c7a1817-8281-47c8-9ba0-5074e2906bff","ios":"levelo://app?vid=4c7a1817-8281-47c8-9ba0-5074e2906bff"},"vehicle_type_id":"4","last_reported":1746987177,"current_range_meters":19200,"station_id":"ce4bh312rcd13ifvqdk0","pricing_plan_id":"cebpf4jnsgd1na2vs0mg"},{"bike_id":"b07bfc09-4ee4-480d-951d-bf310d1d8d6c","system_id":"levelo_inurba_marseille","lat":43.32137,"lon":5.38468,"is_reserved":false,"is_disabled":false,"rental_uris":{"android":"levelo://app?vid=b07bfc09-4ee4-480d-951d-bf310d1d8d6c","ios":"levelo://app?vid=b07bfc09-4ee4-480d-951d-bf310d1d8d6c"},"vehicle_type_id":"4","last_reported":1746987177,"current_range_meters":19200,"station_id":"","pricing_plan_id":"cebpf4jnsgd1na2vs0mg"},{"bike_id":"12ce33db-0695-498b-9f78-c600a9908b36","system_id":"levelo_inurba_marseille","lat":43.28639,"lon":5.35076,"is_reserved":false,"is_disabled":true,"rental_uris":{"android":"levelo://app?vid=12ce33db-0695-498b-9f78-c600a9908b36","ios":"levelo://app?vid=12ce33db-0695-498b-9f78-c600a9908b36"},"vehicle_type_id":"4","last_reported":1746987177,"current_range_meters":19200,"station_id":"ce4bhch2rcd13ifvqeug","pricing_plan_id":"cebpf4jnsgd1na2vs0mg"},{"bike_id":"c916cc5a-b85f-49ef-bf66-b20f2c4df42f","system_id":"levelo_inurba_marseille","lat":43.30425,"lon":5.38892,"is_reserved":false,"is_disabled":false,"rental_uris":{"android":"levelo://app?vid=c916cc5a-b85f-49ef-bf66-b20f2c4df42f","ios":"levelo://app?vid=c916cc5a-b85f-49ef-bf66-b20f2c4df42f"},"vehicle_type_id":"4","last_reported":1746987177,"current_range_meters":19200,"station_id":"ce4bgk12rcd13ifvqbi0","pricing_plan_id":"cebpf4jnsgd1na2vs0mg"},{"bike_id":"0f39a0ab-9d96-4bd9-ae54-da4aa2364cde","system_id":"levelo_inurba_marseille","lat":43.29073,"lon":5.37174,"is_reserved":false,"is_disabled":false,"rental_uris":{"android":"levelo://app?vid=0f39a0ab-9d96-4bd9-ae54-da4aa2364cde","ios":"levelo://app?vid=0f39a0ab-9d96-4bd9-ae54-da4aa2364cde"},"vehicle_type_id":"4","last_reported":1746987177,"current_range_meters":19200,"station_id":"ce4bh5p2rcd13ifvqe4g","pricing_plan_id":"cebpf4jnsgd1na2vs0mg"},{"bike_id":"1aab4aa2-19b2-47ee-8a2e-43fbbfc39058","system_id":"levelo_inurba_marseille","lat":43.3014,"lon":5.38779,"is_reserved":false,"is_disabled":true,"rental_uris":{"android":"levelo://app?vid=1aab4aa2-19b2-47ee-8a2e-43fbbfc39058","ios":"levelo://app?vid=1aab4aa2-19b2-47ee-8a2e-43fbbfc39058"},"vehicle_type_id":"4","last_reported":1746987177,"current_range_meters":19200,"station_id":"ce4bghh2rcd13ifvqb60","pricing_plan_id":"cebpf4jnsgd1na2vs0mg"},{"bike_id":"95456624-0a64-422d-844e-8ad086ac57f2","system_id":"levelo_inurba_marseille","lat":43.3171,"lon":5.37746,"is_reserved":false,"is_disabled":false,"rental_uris":{"android":"levelo://app?vid=95456624-0a64-422d-844e-8ad086ac57f2","ios":"levelo://app?vid=95456624-0a64-422d-844e-8ad086ac57f2"},"vehicle_type_id":"4","last_reported":1746987177,"current_range_meters":19200,"station_id":"ce4bgth2rcd13ifvqch0","pricing_plan_id":"cebpf4jnsgd1na2vs0mg"},{"bike_id":"af0469e3-4e87-4f1c-a688-5e585240c47c","system_id":"levelo_inurba_marseille","lat":43.28941,"lon":5.36633,"is_reserved":false,"is_disabled":false,"rental_uris":{"android":"levelo://app?vid=af0469e3-4e87-4f1c-a688-5e585240c47c","ios":"levelo://app?vid=af0469e3-4e87-4f1c-a688-5e585240c47c"},"vehicle_type_id":"4","last_reported":1746987177,"current_range_meters":19600,"station_id":"ce4bhap2rcd13ifvqek0","pricing_plan_id":"cebpf4jnsgd1na2vs0mg"},{"bike_id":"2061edd0-58ee-4816-8c75-6934405f8357","system_id":"levelo_inurba_marseille","lat":43.2971,"lon":5.37698,"is_reserved":false,"is_disabled":false,"rental_uris":{"android":"levelo://app?vid=2061edd0-58ee-4816-8c75-6934405f8357","ios":"levelo://app?vid=2061edd0-58ee-4816-8c75-6934405f8357"},"vehicle_type_id":"4","last_reported":1746987177,"current_range_meters":19600,"station_id":"ce4bgkh2rcd13ifvqbl0","pricing_plan_id":"cebpf4jnsgd1na2vs0mg"},{"bike_id":"a5f88f17-c29e-47e8-8b62-d9695ae58ded","system_id":"levelo_inurba_marseille","lat":43.28028,"lon":5.36945,"is_reserved":false,"is_disabled":false,"rental_uris":{"android":"levelo://app?vid=a5f88f17-c29e-47e8-8b62-d9695ae58ded","ios":"levelo://app?vid=a5f88f17-c29e-47e8-8b62-d9695ae58ded"},"vehicle_type_id":"4","last_reported":1746987177,"current_range_meters":19600,"station_id":"ce4bha12rcd13ifvqef0","pricing_plan_id":"cebpf4jnsgd1na2vs0mg"},{"bike_id":"b5d19ffe-030c-4228-8f1c-cd1bcda95976","system_id":"levelo_inurba_marseille","lat":43.30131,"lon":5.3986,"is_reserved":false,"is_disabled":false,"rental_uris":{"android":"levelo://app?vid=b5d19ffe-030c-4228-8f1c-cd1bcda95976","ios":"levelo://app?vid=b5d19ffe-030c-4228-8f1c-cd1bcda95976"},"vehicle_type_id":"4","last_reported":1746987177,"current_range_meters":20000,"station_id":"","pricing_plan_id":"cebpf4jnsgd1na2vs0mg"},{"bike_id":"beafa0a9-b465-49eb-ad9f-c21a0b0f1663","system_id":"levelo_inurba_marseille","lat":43.30355,"lon":5.41881,"is_reserved":false,"is_disabled":false,"rental_uris":{"android":"levelo://app?vid=beafa0a9-b465-49eb-ad9f-c21a0b0f1663","ios":"levelo://app?vid=beafa0a9-b465-49eb-ad9f-c21a0b0f1663"},"vehicle_type_id":"4","last_reported":1746987177,"current_range_meters":19600,"station_id":"ce4bhop2rcd13ifvqh7g","pricing_plan_id":"cebpf4jnsgd1na2vs0mg"},{"bike_id":"b336a229-0bf1-452c-97d8-afd000b0f02e","system_id":"levelo_inurba_marseille","lat":43.3249,"lon":5.3659,"is_reserved":false,"is_disabled":false,"rental_uris":{"android":"levelo://app?vid=b336a229-0bf1-452c-97d8-afd000b0f02e","ios":"levelo://app?vid=b336a229-0bf1-452c-97d8-afd000b0f02e"},"vehicle_type_id":"4","last_reported":1746987177,"current_range_meters":20000,"station_id":"ce4bhs12rcd13ifvqhvg","pricing_plan_id":"cebpf4jnsgd1na2vs0mg"},{"bike_id":"c1a87d98-ae1b-4a96-8676-6f3473b69ff6","system_id":"levelo_inurba_marseille","lat":43.284058,"lon":5.374966,"is_reserved":false,"is_disabled":false,"rental_uris":{"android":"levelo://app?vid=c1a87d98-ae1b-4a96-8676-6f3473b69ff6","ios":"levelo://app?vid=c1a87d98-ae1b-4a96-8676-6f3473b69ff6"},"vehicle_type_id":"4","last_reported":1746987177,"current_range_meters":20000,"station_id":"ce4bh412rcd13ifvqds0","pricing_plan_id":"cebpf4jnsgd1na2vs0mg"},{"bike_id":"47974352-6740-4c3c-aa46-abada0124354","system_id":"levelo_inurba_marseille","lat":43.33609,"lon":5.410298,"is_reserved":false,"is_disabled":false,"rental_uris":{"android":"levelo://app?vid=47974352-6740-4c3c-aa46-abada0124354","ios":"levelo://app?vid=47974352-6740-4c3c-aa46-abada0124354"},"vehicle_type_id":"4","last_reported":1746987177,"current_range_meters":19600,"station_id":"ce4bhqh2rcd13ifvqhmg","pricing_plan_id":"cebpf4jnsgd1na2vs0mg"},{"bike_id":"20081bfa-1646-4524-86ca-2d006451b591","system_id":"levelo_inurba_marseille","lat":43.29568,"lon":5.37516,"is_reserved":false,"is_disabled":false,"rental_uris":{"android":"levelo://app?vid=20081bfa-1646-4524-86ca-2d006451b591","ios":"levelo://app?vid=20081bfa-1646-4524-86ca-2d006451b591"},"vehicle_type_id":"4","last_reported":1746987177,"current_range_meters":20400,"station_id":"ce4bgh92rcd13ifvqb50","pricing_plan_id":"cebpf4jnsgd1na2vs0mg"},{"bike_id":"30daf2ae-a2e8-475f-b752-72624948ffa8","system_id":"levelo_inurba_marseille","lat":43.31328,"lon":5.39688,"is_reserved":false,"is_disabled":false,"rental_uris":{"android":"levelo://app?vid=30daf2ae-a2e8-475f-b752-72624948ffa8","ios":"levelo://app?vid=30daf2ae-a2e8-475f-b752-72624948ffa8"},"vehicle_type_id":"4","last_reported":1746987177,"current_range_meters":20400,"station_id":"ce4bgvp2rcd13ifvqcu0","pricing_plan_id":"cebpf4jnsgd1na2vs0mg"},{"bike_id":"e2771d19-d6bb-431e-b255-d2db73a46a53","system_id":"levelo_inurba_marseille","lat":43.281077,"lon":5.378283,"is_reserved":false,"is_disabled":false,"rental_uris":{"android":"levelo://app?vid=e2771d19-d6bb-431e-b255-d2db73a46a53","ios":"levelo://app?vid=e2771d19-d6bb-431e-b255-d2db73a46a53"},"vehicle_type_id":"4","last_reported":1746987177,"current_range_meters":20400,"station_id":"ce4bha12rcd13ifvqee0","pricing_plan_id":"cebpf4jnsgd1na2vs0mg"},{"bike_id":"a0a7b749-df06-403a-9039-7dfe8d8079c9","system_id":"levelo_inurba_marseille","lat":43.23962,"lon":5.36649,"is_reserved":false,"is_disabled":true,"rental_uris":{"android":"levelo://app?vid=a0a7b749-df06-403a-9039-7dfe8d8079c9","ios":"levelo://app?vid=a0a7b749-df06-403a-9039-7dfe8d8079c9"},"vehicle_type_id":"4","last_reported":1746987177,"current_range_meters":20800,"station_id":"ce4bhi12rcd13ifvqfp0","pricing_plan_id":"cebpf4jnsgd1na2vs0mg"},{"bike_id":"765f70f6-e5b6-4b61-bf2e-a75d5d0d10d2","system_id":"levelo_inurba_marseille","lat":43.260626,"lon":5.39394,"is_reserved":false,"is_disabled":false,"rental_uris":{"android":"levelo://app?vid=765f70f6-e5b6-4b61-bf2e-a75d5d0d10d2","ios":"levelo://app?vid=765f70f6-e5b6-4b61-bf2e-a75d5d0d10d2"},"vehicle_type_id":"4","last_reported":1746987177,"current_range_meters":21600,"station_id":"ce4bhh92rcd13ifvqfj0","pricing_plan_id":"cebpf4jnsgd1na2vs0mg"},{"bike_id":"10d14cc9-dbb2-49bc-9fa7-eb8f1def130e","system_id":"levelo_inurba_marseille","lat":43.25867,"lon":5.39895,"is_reserved":false,"is_disabled":false,"rental_uris":{"android":"levelo://app?vid=10d14cc9-dbb2-49bc-9fa7-eb8f1def130e","ios":"levelo://app?vid=10d14cc9-dbb2-49bc-9fa7-eb8f1def130e"},"vehicle_type_id":"4","last_reported":1746987177,"current_range_meters":21600,"station_id":"ce4bhl92rcd13ifvqghg","pricing_plan_id":"cebpf4jnsgd1na2vs0mg"},{"bike_id":"8acb5c33-715c-472b-b181-6250c36ed015","system_id":"levelo_inurba_marseille","lat":43.301472,"lon":5.380864,"is_reserved":false,"is_disabled":true,"rental_uris":{"android":"levelo://app?vid=8acb5c33-715c-472b-b181-6250c36ed015","ios":"levelo://app?vid=8acb5c33-715c-472b-b181-6250c36ed015"},"vehicle_type_id":"4","last_reported":1746987177,"current_range_meters":21600,"station_id":"","pricing_plan_id":"cebpf4jnsgd1na2vs0mg"},{"bike_id":"bb1cba0c-15b5-488c-ba8f-0e5ab455000a","system_id":"levelo_inurba_marseille","lat":43.29067,"lon":5.37151,"is_reserved":false,"is_disabled":false,"rental_uris":{"android":"levelo://app?vid=bb1cba0c-15b5-488c-ba8f-0e5ab455000a","ios":"levelo://app?vid=bb1cba0c-15b5-488c-ba8f-0e5ab455000a"},"vehicle_type_id":"4","last_reported":1746987177,"current_range_meters":21600,"station_id":"ce4bh5p2rcd13ifvqe4g","pricing_plan_id":"cebpf4jnsgd1na2vs0mg"},{"bike_id":"d0d77266-b030-48e7-bb4a-e4747b4776ec","system_id":"levelo_inurba_marseille","lat":43.30135,"lon":5.39893,"is_reserved":false,"is_disabled":true,"rental_uris":{"android":"levelo://app?vid=d0d77266-b030-48e7-bb4a-e4747b4776ec","ios":"levelo://app?vid=d0d77266-b030-48e7-bb4a-e4747b4776ec"},"vehicle_type_id":"4","last_reported":1746987177,"current_range_meters":21600,"station_id":"ce4bh0h2rcd13ifvqd40","pricing_plan_id":"cebpf4jnsgd1na2vs0mg"},{"bike_id":"274428a0-f624-470d-97ad-4d677cbd848f","system_id":"levelo_inurba_marseille","lat":43.27074,"lon":5.42274,"is_reserved":false,"is_disabled":false,"rental_uris":{"android":"levelo://app?vid=274428a0-f624-470d-97ad-4d677cbd848f","ios":"levelo://app?vid=274428a0-f624-470d-97ad-4d677cbd848f"},"vehicle_type_id":"4","last_reported":1746987177,"current_range_meters":22000,"station_id":"ce4bhk92rcd13ifvqgb0","pricing_plan_id":"cebpf4jnsgd1na2vs0mg"},{"bike_id":"d9173d14-9e52-44f5-a202-f097ee66605f","system_id":"levelo_inurba_marseille","lat":43.3137,"lon":5.3849,"is_reserved":false,"is_disabled":false,"rental_uris":{"android":"levelo://app?vid=d9173d14-9e52-44f5-a202-f097ee66605f","ios":"levelo://app?vid=d9173d14-9e52-44f5-a202-f097ee66605f"},"vehicle_type_id":"4","last_reported":1746987177,"current_range_meters":22000,"station_id":"ce4bgt92rcd13ifvqcf0","pricing_plan_id":"cebpf4jnsgd1na2vs0mg"},{"bike_id":"08e85d2c-1aa8-40f4-b36d-e839792a7120","system_id":"levelo_inurba_marseille","lat":43.29291,"lon":5.37464,"is_reserved":false,"is_disabled":false,"rental_uris":{"android":"levelo://app?vid=08e85d2c-1aa8-40f4-b36d-e839792a7120","ios":"levelo://app?vid=08e85d2c-1aa8-40f4-b36d-e839792a7120"},"vehicle_type_id":"4","last_reported":1746987177,"current_range_meters":22400,"station_id":"ce4bgi12rcd13ifvqb70","pricing_plan_id":"cebpf4jnsgd1na2vs0mg"},{"bike_id":"6a4f700e-2091-4ba2-940a-dc26934d0b22","system_id":"levelo_inurba_marseille","lat":43.29259,"lon":5.37631,"is_reserved":false,"is_disabled":false,"rental_uris":{"android":"levelo://app?vid=6a4f700e-2091-4ba2-940a-dc26934d0b22","ios":"levelo://app?vid=6a4f700e-2091-4ba2-940a-dc26934d0b22"},"vehicle_type_id":"4","last_reported":1746987177,"current_range_meters":22400,"station_id":"ce4bgi12rcd13ifvqb80","pricing_plan_id":"cebpf4jnsgd1na2vs0mg"},{"bike_id":"4cdb2096-5ae7-4ff4-b6e5-5ef4d328a633","system_id":"levelo_inurba_marseille","lat":43.24386,"lon":5.37062,"is_reserved":false,"is_disabled":false,"rental_uris":{"android":"levelo://app?vid=4cdb2096-5ae7-4ff4-b6e5-5ef4d328a633","ios":"levelo://app?vid=4cdb2096-5ae7-4ff4-b6e5-5ef4d328a633"},"vehicle_type_id":"4","last_reported":1746987177,"current_range_meters":22400,"station_id":"ce4bhhh2rcd13ifvqfk0","pricing_plan_id":"cebpf4jnsgd1na2vs0mg"},{"bike_id":"4c85e1a2-283a-4040-beeb-1c0353355504","system_id":"levelo_inurba_marseille","lat":43.29793,"lon":5.38089,"is_reserved":false,"is_disabled":false,"rental_uris":{"android":"levelo://app?vid=4c85e1a2-283a-4040-beeb-1c0353355504","ios":"levelo://app?vid=4c85e1a2-283a-4040-beeb-1c0353355504"},"vehicle_type_id":"4","last_reported":1746987177,"current_range_meters":22400,"station_id":"ce4bgip2rcd13ifvqbb0","pricing_plan_id":"cebpf4jnsgd1na2vs0mg"},{"bike_id":"5d680f7e-3ec8-496c-b0d8-87910402862a","system_id":"levelo_inurba_marseille","lat":43.28941,"lon":5.36642,"is_reserved":false,"is_disabled":false,"rental_uris":{"android":"levelo://app?vid=5d680f7e-3ec8-496c-b0d8-87910402862a","ios":"levelo://app?vid=5d680f7e-3ec8-496c-b0d8-87910402862a"},"vehicle_type_id":"4","last_reported":1746987177,"current_range_meters":22800,"station_id":"ce4bhap2rcd13ifvqek0","pricing_plan_id":"cebpf4jnsgd1na2vs0mg"},{"bike_id":"80685ac8-3af1-45b2-b4ca-1aaaa4d5ce5e","system_id":"levelo_inurba_marseille","lat":43.30946,"lon":5.39027,"is_reserved":false,"is_disabled":false,"rental_uris":{"android":"levelo://app?vid=80685ac8-3af1-45b2-b4ca-1aaaa4d5ce5e","ios":"levelo://app?vid=80685ac8-3af1-45b2-b4ca-1aaaa4d5ce5e"},"vehicle_type_id":"4","last_reported":1746987177,"current_range_meters":22800,"station_id":"ce4bgup2rcd13ifvqco0","pricing_plan_id":"cebpf4jnsgd1na2vs0mg"},{"bike_id":"dcdb792d-e286-4deb-9240-b1c2f1b1a8ae","system_id":"levelo_inurba_marseille","lat":43.2784,"lon":5.3921,"is_reserved":false,"is_disabled":false,"rental_uris":{"android":"levelo://app?vid=dcdb792d-e286-4deb-9240-b1c2f1b1a8ae","ios":"levelo://app?vid=dcdb792d-e286-4deb-9240-b1c2f1b1a8ae"},"vehicle_type_id":"4","last_reported":1746987177,"current_range_meters":22800,"station_id":"ce4bhjp2rcd13ifvqga0","pricing_plan_id":"cebpf4jnsgd1na2vs0mg"},{"bike_id":"7f9abf71-8019-498c-8243-8b5ce9ff851e","system_id":"levelo_inurba_marseille","lat":43.298539,"lon":5.362953,"is_reserved":false,"is_disabled":true,"rental_uris":{"android":"levelo://app?vid=7f9abf71-8019-498c-8243-8b5ce9ff851e","ios":"levelo://app?vid=7f9abf71-8019-498c-8243-8b5ce9ff851e"},"vehicle_type_id":"4","last_reported":1746987177,"current_range_meters":22800,"station_id":"","pricing_plan_id":"cebpf4jnsgd1na2vs0mg"},{"bike_id":"fff0e4d4-39ac-48d5-99a5-85615c4a83f8","system_id":"levelo_inurba_marseille","lat":43.2997,"lon":5.39195,"is_reserved":false,"is_disabled":false,"rental_uris":{"android":"levelo://app?vid=fff0e4d4-39ac-48d5-99a5-85615c4a83f8","ios":"levelo://app?vid=fff0e4d4-39ac-48d5-99a5-85615c4a83f8"},"vehicle_type_id":"4","last_reported":1746987177,"current_range_meters":22800,"station_id":"","pricing_plan_id":"cebpf4jnsgd1na2vs0mg"},{"bike_id":"33a09955-4213-41ed-9b57-40735da17872","system_id":"levelo_inurba_marseille","lat":43.289337,"lon":5.363908,"is_reserved":false,"is_disabled":false,"rental_uris":{"android":"levelo://app?vid=33a09955-4213-41ed-9b57-40735da17872","ios":"levelo://app?vid=33a09955-4213-41ed-9b57-40735da17872"},"vehicle_type_id":"4","last_reported":1746987177,"current_range_meters":23200,"station_id":"ce4bhc92rcd13ifvqetg","pricing_plan_id":"cebpf4jnsgd1na2vs0mg"},{"bike_id":"eaffbddc-cd5f-47de-be77-ae1354d0ac5e","system_id":"levelo_inurba_marseille","lat":43.28439,"lon":5.39139,"is_reserved":false,"is_disabled":false,"rental_uris":{"android":"levelo://app?vid=eaffbddc-cd5f-47de-be77-ae1354d0ac5e","ios":"levelo://app?vid=eaffbddc-cd5f-47de-be77-ae1354d0ac5e"},"vehicle_type_id":"4","last_reported":1746987177,"current_range_meters":23200,"station_id":"","pricing_plan_id":"cebpf4jnsgd1na2vs0mg"},{"bike_id":"af870e04-8d0c-4a00-a73d-c5c448081eaf","system_id":"levelo_inurba_marseille","lat":43.29013,"lon":5.38645,"is_reserved":false,"is_disabled":true,"rental_uris":{"android":"levelo://app?vid=af870e04-8d0c-4a00-a73d-c5c448081eaf","ios":"levelo://app?vid=af870e04-8d0c-4a00-a73d-c5c448081eaf"},"vehicle_type_id":"4","last_reported":1746987177,"current_range_meters":23200,"station_id":"ce4bh4p2rcd13ifvqe0g","pricing_plan_id":"cebpf4jnsgd1na2vs0mg"},{"bike_id":"bf8ab2b3-a5b8-4b44-9ccf-e0d7e23d9454","system_id":"levelo_inurba_marseille","lat":43.284547,"lon":5.358933,"is_reserved":false,"is_disabled":false,"rental_uris":{"android":"levelo://app?vid=bf8ab2b3-a5b8-4b44-9ccf-e0d7e23d9454","ios":"levelo://app?vid=bf8ab2b3-a5b8-4b44-9ccf-e0d7e23d9454"},"vehicle_type_id":"4","last_reported":1746987177,"current_range_meters":23200,"station_id":"ce4bhah2rcd13ifvqei0","pricing_plan_id":"cebpf4jnsgd1na2vs0mg"},{"bike_id":"a546a166-3357-42b2-be14-012e05b92d7d","system_id":"levelo_inurba_marseille","lat":43.3261,"lon":5.430767,"is_reserved":false,"is_disabled":false,"rental_uris":{"android":"levelo://app?vid=a546a166-3357-42b2-be14-012e05b92d7d","ios":"levelo://app?vid=a546a166-3357-42b2-be14-012e05b92d7d"},"vehicle_type_id":"4","last_reported":1746987177,"current_range_meters":23200,"station_id":"","pricing_plan_id":"cebpf4jnsgd1na2vs0mg"},{"bike_id":"2cc6ab33-b884-4b84-8f2e-73a9d9cc1642","system_id":"levelo_inurba_marseille","lat":43.28839,"lon":5.39351,"is_reserved":false,"is_disabled":true,"rental_uris":{"android":"levelo://app?vid=2cc6ab33-b884-4b84-8f2e-73a9d9cc1642","ios":"levelo://app?vid=2cc6ab33-b884-4b84-8f2e-73a9d9cc1642"},"vehicle_type_id":"4","last_reported":1746987177,"current_range_meters":23200,"station_id":"ce4bh2p2rcd13ifvqdi0","pricing_plan_id":"cebpf4jnsgd1na2vs0mg"},{"bike_id":"f1342c4c-a94b-4654-9628-680ba7db74df","system_id":"levelo_inurba_marseille","lat":43.23191,"lon":5.35563,"is_reserved":false,"is_disabled":true,"rental_uris":{"android":"levelo://app?vid=f1342c4c-a94b-4654-9628-680ba7db74df","ios":"levelo://app?vid=f1342c4c-a94b-4654-9628-680ba7db74df"},"vehicle_type_id":"4","last_reported":1746987177,"current_range_meters":23200,"station_id":"ce4bhu92rcd13ifvqi70","pricing_plan_id":"cebpf4jnsgd1na2vs0mg"},{"bike_id":"e15abad6-91fb-4239-a558-e845c79a9bec","system_id":"levelo_inurba_marseille","lat":43.29022,"lon":5.38646,"is_reserved":false,"is_disabled":false,"rental_uris":{"android":"levelo://app?vid=e15abad6-91fb-4239-a558-e845c79a9bec","ios":"levelo://app?vid=e15abad6-91fb-4239-a558-e845c79a9bec"},"vehicle_type_id":"4","last_reported":1746987177,"current_range_meters":23200,"station_id":"ce4bh4p2rcd13ifvqe0g","pricing_plan_id":"cebpf4jnsgd1na2vs0mg"},