{"last_updated":1741788549,"ttl":60,"version":"2.2","data":{"bikes":[{"bike_id":"04a82931-4cb7-40a6-a902-5f74f0b461bb","system_id":"levelo_inurba_marseille","lat":43.27976,"lon":5.38743,"is_reserved":false,"is_disabled":false,"rental_uris":{"android":"levelo://app?vid=04a82931-4cb7-40a6-a902-5f74f0b461bb","ios":"levelo://app?vid=04a82931-4cb7-40a6-a902-5f74f0b461bb"},"vehicle_type_id":"4","last_reported":1741788550,"current_range_meters":2800,"station_id":"ce4bhg12rcd13ifvqf80","pricing_plan_id":"cebpf4jnsgd1na2vs0mg"},{"bike_id":"8c016f55-0510-4a9f-b9fb-5d7f97786455","system_id":"levelo_inurba_marseille","lat":43.27374,"lon":5.36255,"is_reserved":false,"is_disabled":false,"rental_uris":{"android":"levelo://app?vid=8c016f55-0510-4a9f-b9fb-5d7f97786455","ios":"levelo://app?vid=8c016f55-0510-4a9f-b9fb-5d7f97786455"},"vehicle_type_id":"4","last_reported":1741788550,"current_range_meters":3200,"station_id":"ce4bhbh2rcd13ifvqeo0","pricing_plan_id":"cebpf4jnsgd1na2vs0mg"},{"bike_id":"58ab44cb-0791-4ac0-bb13-67253f284627","system_id":"levelo_inurba_marseille","lat":43.30141,"lon":5.38061,"is_reserved":false,"is_disabled":false,"rental_uris":{"android":"levelo://app?vid=58ab44cb-0791-4ac0-bb13-67253f284627","ios":"levelo://app?vid=58ab44cb-0791-4ac0-bb13-67253f284627"},"vehicle_type_id":"4","last_reported":1741788550,"current_range_meters":3200,"station_id":"ce4bgjp2rcd13ifvqbh0","pricing_plan_id":"cebpf4jnsgd1na2vs0mg"},{"bike_id":"2c9727a5-a0e8-4e93-8c61-76110b7fd824","system_id":"levelo_inurba_marseille","lat":43.28079,"lon":5.39653,"is_reserved":false,"is_disabled":false,"rental_uris":{"android":"levelo://app?vid=2c9727a5-a0e8-4e93-8c61-76110b7fd824","ios":"levelo://app?vid=2c9727a5-a0e8-4e93-8c61-76110b7fd824"},"vehicle_type_id":"4","last_reported":1741788550,"current_range_meters":3600,"station_id":"ce4bho12rcd13ifvqh2g","pricing_plan_id":"cebpf4jnsgd1na2vs0mg"},{"bike_id":"4655ae61-9f01-41c1-8540-ac39b4dc6c5b","system_id":"levelo_inurba_marseille","lat":43.325413,"lon":5.414253,"is_reserved":false,"is_disabled":false,"rental_uris":{"android":"levelo://app?vid=4655ae61-9f01-41c1-8540-ac39b4dc6c5b","ios":"levelo://app?vid=4655ae61-9f01-41c1-8540-ac39b4dc6c5b"},"vehicle_type_id":"4","last_reported":1741788550,"current_range_meters":3600,"station_id":"ce4bhq12rcd13ifvqhhg","pricing_plan_id":"cebpf4jnsgd1na2vs0mg"},{"bike_id":"6a669de5-62d6-4ce7-b114-0679df715d12","system_id":"levelo_inurba_marseille","lat":43.29446,"lon":5.39747,"is_reserved":false,"is_disabled":false,"rental_uris":{"android":"levelo://app?vid=6a669de5-62d6-4ce7-b114-0679df715d12","ios":"levelo://app?vid=6a669de5-62d6-4ce7-b114-0679df715d12"},"vehicle_type_id":"4","last_reported":1741788550,"current_range_meters":3600,"station_id":"ce4bhh92rcd13ifvqfh0","pricing_plan_id":"cebpf4jnsgd1na2vs0mg"},{"bike_id":"6884cc57-6a4d-4966-afad-95e22131e2fd","system_id":"levelo_inurba_marseille","lat":43.2927,"lon":5.38425,"is_reserved":false,"is_disabled":false,"rental_uris":{"android":"levelo://app?vid=6884cc57-6a4d-4966-afad-95e22131e2fd","ios":"levelo://app?vid=6884cc57-6a4d-4966-afad-95e22131e2fd"},"vehicle_type_id":"4","last_reported":1741788550,"current_range_meters":4000,"station_id":"ce4bh692rcd13ifvqea0","pricing_plan_id":"cebpf4jnsgd1na2vs0mg"},{"bike_id":"03690356-08e9-4ea7-b9a3-8e88bf471e93","system_id":"levelo_inurba_marseille","lat":43.337444,"lon":5.374475,"is_reserved":false,"is_disabled":true,"rental_uris":{"android":"levelo://app?vid=03690356-08e9-4ea7-b9a3-8e88bf471e93","ios":"levelo://app?vid=03690356-08e9-4ea7-b9a3-8e88bf471e93"},"vehicle_type_id":"4","last_reported":1741788550,"current_range_meters":3600,"station_id":"","pricing_plan_id":"cebpf4jnsgd1na2vs0mg"},{"bike_id":"4c084d6f-cfb2-47a5-9650-69125ccb442e","system_id":"levelo_inurba_marseille","lat":43.26203,"lon":5.3793,"is_reserved":false,"is_disabled":false,"rental_uris":{"android":"levelo://app?vid=4c084d6f-cfb2-47a5-9650-69125ccb442e","ios":"levelo://app?vid=4c084d6f-cfb2-47a5-9650-69125ccb442e"},"vehicle_type_id":"4","last_reported":1741788550,"current_range_meters":4000,"station_id":"ce4bhjp2rcd13ifvqg90","pricing_plan_id":"cebpf4jnsgd1na2vs0mg"},{"bike_id":"f94b5e5f-4de8-4a47-a339-ef40eb076d0b","system_id":"levelo_inurba_marseille","lat":43.33362,"lon":5.40031,"is_reserved":false,"is_disabled":false,"rental_uris":{"android":"levelo://app?vid=f94b5e5f-4de8-4a47-a339-ef40eb076d0b","ios":"levelo://app?vid=f94b5e5f-4de8-4a47-a339-ef40eb076d0b"},"vehicle_type_id":"4","last_reported":1741788550,"current_range_meters":4000,"station_id":"","pricing_plan_id":"cebpf4jnsgd1na2vs0mg"},{"bike_id":"07d514da-daa5-4a51-ad4f-da23bea5a512","system_id":"levelo_inurba_marseille","lat":43.30543,"lon":5.36531,"is_reserved":false,"is_disabled":false,"rental_uris":{"android":"levelo://app?vid=07d514da-daa5-4a51-ad4f-da23bea5a512","ios":"levelo://app?vid=07d514da-daa5-4a51-ad4f-da23bea5a512"},"vehicle_type_id":"4","last_reported":1741788550,"current_range_meters":4000,"station_id":"ce4bgs12rcd13ifvqcag","pricing_plan_id":"cebpf4jnsgd1na2vs0mg"},{"bike_id":"d3acab28-3125-4afa-b5eb-02e807f46858","system_id":"levelo_inurba_marseille","lat":43.24182,"lon":5.39731,"is_reserved":false,"is_disabled":false,"rental_uris":{"android":"levelo://app?vid=d3acab28-3125-4afa-b5eb-02e807f46858","ios":"levelo://app?vid=d3acab28-3125-4afa-b5eb-02e807f46858"},"vehicle_type_id":"4","last_reported":1741788550,"current_range_meters":4400,"station_id":"ce4bhn12rcd13ifvqgpg","pricing_plan_id":"cebpf4jnsgd1na2vs0mg"},{"bike_id":"bf2feb02-4272-4476-92f9-9420844c4078","system_id":"levelo_inurba_marseille","lat":43.31204,"lon":5.37677,"is_reserved":false,"is_disabled":false,"rental_uris":{"android":"levelo://app?vid=bf2feb02-4272-4476-92f9-9420844c4078","ios":"levelo://app?vid=bf2feb02-4272-4476-92f9-9420844c4078"},"vehicle_type_id":"4","last_reported":1741788550,"current_range_meters":4400,"station_id":"","pricing_plan_id":"cebpf4jnsgd1na2vs0mg"},{"bike_id":"66f54796-13ff-4012-b347-54b8d5692927","system_id":"levelo_inurba_marseille","lat":43.29047,"lon":5.37569,"is_reserved":false,"is_disabled":false,"rental_uris":{"android":"levelo://app?vid=66f54796-13ff-4012-b347-54b8d5692927","ios":"levelo://app?vid=66f54796-13ff-4012-b347-54b8d5692927"},"vehicle_type_id":"4","last_reported":1741788550,"current_range_meters":4400,"station_id":"ce4bh692rcd13ifvqe90","pricing_plan_id":"cebpf4jnsgd1na2vs0mg"},{"bike_id":"d05fc3a4-59f9-4a41-aef8-79629429b54f","system_id":"levelo_inurba_marseille","lat":43.2791,"lon":5.38017,"is_reserved":false,"is_disabled":false,"rental_uris":{"android":"levelo://app?vid=d05fc3a4-59f9-4a41-aef8-79629429b54f","ios":"levelo://app?vid=d05fc3a4-59f9-4a41-aef8-79629429b54f"},"vehicle_type_id":"4","last_reported":1741788550,"current_range_meters":4800,"station_id":"ce4bhf92rcd13ifvqf50","pricing_plan_id":"cebpf4jnsgd1na2vs0mg"},{"bike_id":"8d9518e5-0926-4b9e-abac-8af637e92076","system_id":"levelo_inurba_marseille","lat":43.3249,"lon":5.36574,"is_reserved":false,"is_disabled":false,"rental_uris":{"android":"levelo://app?vid=8d9518e5-0926-4b9e-abac-8af637e92076","ios":"levelo://app?vid=8d9518e5-0926-4b9e-abac-8af637e92076"},"vehicle_type_id":"4","last_reported":1741788550,"current_range_meters":4800,"station_id":"ce4bhs12rcd13ifvqhvg","pricing_plan_id":"cebpf4jnsgd1na2vs0mg"},{"bike_id":"ab318b69-5fc6-4506-ba85-f92c401ade31","system_id":"levelo_inurba_marseille","lat":43.27373,"lon":5.36265,"is_reserved":false,"is_disabled":false,"rental_uris":{"android":"levelo://app?vid=ab318b69-5fc6-4506-ba85-f92c401ade31","ios":"levelo://app?vid=ab318b69-5fc6-4506-ba85-f92c401ade31"},"vehicle_type_id":"4","last_reported":1741788550,"current_range_meters":4800,"station_id":"ce4bhbh2rcd13ifvqeo0","pricing_plan_id":"cebpf4jnsgd1na2vs0mg"},{"bike_id":"8d148f9c-d435-4123-bd0e-8d7ebd73846f","system_id":"levelo_inurba_marseille","lat":43.27063,"lon":5.40262,"is_reserved":false,"is_disabled":true,"rental_uris":{"android":"levelo://app?vid=8d148f9c-d435-4123-bd0e-8d7ebd73846f","ios":"levelo://app?vid=8d148f9c-d435-4123-bd0e-8d7ebd73846f"},"vehicle_type_id":"4","last_reported":1741788550,"current_range_meters":4800,"station_id":"ce4bhk92rcd13ifvqgc0","pricing_plan_id":"cebpf4jnsgd1na2vs0mg"},{"bike_id":"18d9d585-821c-443c-b864-cf474a29730f","system_id":"levelo_inurba_marseille","lat":43.29026,"lon":5.3813,"is_reserved":false,"is_disabled":false,"rental_uris":{"android":"levelo://app?vid=18d9d585-821c-443c-b864-cf474a29730f","ios":"levelo://app?vid=18d9d585-821c-443c-b864-cf474a29730f"},"vehicle_type_id":"4","last_reported":1741788550,"current_range_meters":5600,"station_id":"ce4bh4p2rcd13ifvqe1g","pricing_plan_id":"cebpf4jnsgd1na2vs0mg"},{"bike_id":"7940e607-48ae-483a-8c7d-09cb918459b2","system_id":"levelo_inurba_marseille","lat":43.29514,"lon":5.40104,"is_reserved":false,"is_disabled":false,"rental_uris":{"android":"levelo://app?vid=7940e607-48ae-483a-8c7d-09cb918459b2","ios":"levelo://app?vid=7940e607-48ae-483a-8c7d-09cb918459b2"},"vehicle_type_id":"4","last_reported":1741788550,"current_range_meters":5600,"station_id":"","pricing_plan_id":"cebpf4jnsgd1na2vs0mg"},{"bike_id":"ee3470b0-a6a9-4f94-b140-463e351648db","system_id":"levelo_inurba_marseille","lat":43.24656,"lon":5.38886,"is_reserved":false,"is_disabled":false,"rental_uris":{"android":"levelo://app?vid=ee3470b0-a6a9-4f94-b140-463e351648db","ios":"levelo://app?vid=ee3470b0-a6a9-4f94-b140-463e351648db"},"vehicle_type_id":"4","last_reported":1741788550,"current_range_meters":5600,"station_id":"ce4bhg12rcd13ifvqf60","pricing_plan_id":"cebpf4jnsgd1na2vs0mg"},{"bike_id":"b451c1eb-7225-47e2-8c9f-502342fa70ba","system_id":"levelo_inurba_marseille","lat":43.29869,"lon":5.39764,"is_reserved":false,"is_disabled":false,"rental_uris":{"android":"levelo://app?vid=b451c1eb-7225-47e2-8c9f-502342fa70ba","ios":"levelo://app?vid=b451c1eb-7225-47e2-8c9f-502342fa70ba"},"vehicle_type_id":"4","last_reported":1741788550,"current_range_meters":3600,"station_id":"ce4bh0h2rcd13ifvqd50","pricing_plan_id":"cebpf4jnsgd1na2vs0mg"},{"bike_id":"bb531b91-80a5-4133-85da-7f152e7698b7","system_id":"levelo_inurba_marseille","lat":43.25129,"lon":5.40343,"is_reserved":false,"is_disabled":false,"rental_uris":{"android":"levelo://app?vid=bb531b91-80a5-4133-85da-7f152e7698b7","ios":"levelo://app?vid=bb531b91-80a5-4133-85da-7f152e7698b7"},"vehicle_type_id":"4","last_reported":1741788550,"current_range_meters":5600,"station_id":"ce4bhlh2rcd13ifvqgig","pricing_plan_id":"cebpf4jnsgd1na2vs0mg"},{"bike_id":"794b8f3f-cda0-4196-9618-5e0e95292620","system_id":"levelo_inurba_marseille","lat":43.28261,"lon":5.35089,"is_reserved":false,"is_disabled":false,"rental_uris":{"android":"levelo://app?vid=794b8f3f-cda0-4196-9618-5e0e95292620","ios":"levelo://app?vid=794b8f3f-cda0-4196-9618-5e0e95292620"},"vehicle_type_id":"4","last_reported":1741788550,"current_range_meters":5600,"station_id":"ce4bhbp2rcd13ifvqerg","pricing_plan_id":"cebpf4jnsgd1na2vs0mg"},{"bike_id":"80771939-f406-42f7-81c5-33180fd8a338","system_id":"levelo_inurba_marseille","lat":43.23193,"lon":5.35551,"is_reserved":false,"is_disabled":false,"rental_uris":{"android":"levelo://app?vid=80771939-f406-42f7-81c5-33180fd8a338","ios":"levelo://app?vid=80771939-f406-42f7-81c5-33180fd8a338"},"vehicle_type_id":"4","last_reported":1741788550,"current_range_meters":5600,"station_id":"ce4bhu92rcd13ifvqi70","pricing_plan_id":"cebpf4jnsgd1na2vs0mg"},{"bike_id":"0ae33dd2-2448-4d78-8073-c114a1c8b908","system_id":"levelo_inurba_marseille","lat":43.29925,"lon":5.37478,"is_reserved":false,"is_disabled":false,"rental_uris":{"android":"levelo://app?vid=0ae33dd2-2448-4d78-8073-c114a1c8b908","ios":"levelo://app?vid=0ae33dd2-2448-4d78-8073-c114a1c8b908"},"vehicle_type_id":"4","last_reported":1741788550,"current_range_meters":6000,"station_id":"ce4bgjh2rcd13ifvqbg0","pricing_plan_id":"cebpf4jnsgd1na2vs0mg"},{"bike_id":"9bef8293-5eb8-4085-a198-7fbcae093f1c","system_id":"levelo_inurba_marseille","lat":43.30543,"lon":5.38426,"is_reserved":false,"is_disabled":false,"rental_uris":{"android":"levelo://app?vid=9bef8293-5eb8-4085-a198-7fbcae093f1c","ios":"levelo://app?vid=9bef8293-5eb8-4085-a198-7fbcae093f1c"},"vehicle_type_id":"4","last_reported":1741788550,"current_range_meters":6000,"station_id":"ce4bgg92rcd13ifvqb30","pricing_plan_id":"cebpf4jnsgd1na2vs0mg"},{"bike_id":"1de9ef57-3e6f-4491-829e-e3f539c47e2e","system_id":"levelo_inurba_marseille","lat":43.31082,"lon":5.42434,"is_reserved":false,"is_disabled":false,"rental_uris":{"android":"levelo://app?vid=1de9ef57-3e6f-4491-829e-e3f539c47e2e","ios":"levelo://app?vid=1de9ef57-3e6f-4491-829e-e3f539c47e2e"},"vehicle_type_id":"4","last_reported":1741788550,"current_range_meters":6000,"station_id":"ce4bhp92rcd13ifvqhag","pricing_plan_id":"cebpf4jnsgd1na2vs0mg"},{"bike_id":"2a39b02c-4f6a-4f35-af2e-e9fb7ada9487","system_id":"levelo_inurba_marseille","lat":43.27953,"lon":5.41037,"is_reserved":false,"is_disabled":false,"rental_uris":{"android":"levelo://app?vid=2a39b02c-4f6a-4f35-af2e-e9fb7ada9487","ios":"levelo://app?vid=2a39b02c-4f6a-4f35-af2e-e9fb7ada9487"},"vehicle_type_id":"4","last_reported":1741788550,"current_range_meters":6000,"station_id":"ce4bhnp2rcd13ifvqh0g","pricing_plan_id":"cebpf4jnsgd1na2vs0mg"},{"bike_id":"4904789f-e6a8-4e72-8395-5aedbfb5b18c","system_id":"levelo_inurba_marseille","lat":43.30259,"lon":5.40074,"is_reserved":false,"is_disabled":false,"rental_uris":{"android":"levelo://app?vid=4904789f-e6a8-4e72-8395-5aedbfb5b18c","ios":"levelo://app?vid=4904789f-e6a8-4e72-8395-5aedbfb5b18c"},"vehicle_type_id":"4","last_reported":1741788550,"current_range_meters":6400,"station_id":"ce4bgvh2rcd13ifvqcs0","pricing_plan_id":"cebpf4jnsgd1na2vs0mg"},{"bike_id":"7897ed63-4f21-4db4-b932-6ec1073d9ede","system_id":"levelo_inurba_marseille","lat":43.25001,"lon":5.38937,"is_reserved":false,"is_disabled":false,"rental_uris":{"android":"levelo://app?vid=7897ed63-4f21-4db4-b932-6ec1073d9ede","ios":"levelo://app?vid=7897ed63-4f21-4db4-b932-6ec1073d9ede"},"vehicle_type_id":"4","last_reported":1741788550,"current_range_meters":6400,"station_id":"ce4bhgp2rcd13ifvqfd0","pricing_plan_id":"cebpf4jnsgd1na2vs0mg"},{"bike_id":"25386f2f-86b8-4ab1-beeb-c51dc41423bb","system_id":"levelo_inurba_marseille","lat":43.30097,"lon":5.39067,"is_reserved":false,"is_disabled":false,"rental_uris":{"android":"levelo://app?vid=25386f2f-86b8-4ab1-beeb-c51dc41423bb","ios":"levelo://app?vid=25386f2f-86b8-4ab1-beeb-c51dc41423bb"},"vehicle_type_id":"4","last_reported":1741788550,"current_range_meters":6400,"station_id":"ce4bh192rcd13ifvqdb0","pricing_plan_id":"cebpf4jnsgd1na2vs0mg"},{"bike_id":"cec6458d-2bf5-4cc3-b72a-8930c855e1a8","system_id":"levelo_inurba_marseille","lat":43.31091,"lon":5.42438,"is_reserved":false,"is_disabled":false,"rental_uris":{"android":"levelo://app?vid=cec6458d-2bf5-4cc3-b72a-8930c855e1a8","ios":"levelo://app?vid=cec6458d-2bf5-4cc3-b72a-8930c855e1a8"},"vehicle_type_id":"4","last_reported":1741788550,"current_range_meters":6400,"station_id":"ce4bhp92rcd13ifvqhag","pricing_plan_id":"cebpf4jnsgd1na2vs0mg"},{"bike_id":"58d1b5b3-d322-4418-97d0-3066ec3d9afc","system_id":"levelo_inurba_marseille","lat":43.23202,"lon":5.35547,"is_reserved":false,"is_disabled":false,"rental_uris":{"android":"levelo://app?vid=58d1b5b3-d322-4418-97d0-3066ec3d9afc","ios":"levelo://app?vid=58d1b5b3-d322-4418-97d0-3066ec3d9afc"},"vehicle_type_id":"4","last_reported":1741788550,"current_range_meters":6400,"station_id":"ce4bhu92rcd13ifvqi70","pricing_plan_id":"cebpf4jnsgd1na2vs0mg"},{"bike_id":"4db736b9-68d3-4f2a-9431-002ce7a44183","system_id":"levelo_inurba_marseille","lat":43.23169,"lon":5.43701,"is_reserved":false,"is_disabled":false,"rental_uris":{"android":"levelo://app?vid=4db736b9-68d3-4f2a-9431-002ce7a44183","ios":"levelo://app?vid=4db736b9-68d3-4f2a-9431-002ce7a44183"},"vehicle_type_id":"4","last_reported":1741788550,"current_range_meters":6400,"station_id":"ce4bhmp2rcd13ifvqgog","pricing_plan_id":"cebpf4jnsgd1na2vs0mg"},{"bike_id":"b9680ac6-d12e-4a12-9dd8-1396db5e067b","system_id":"levelo_inurba_marseille","lat":43.23153,"lon":5.43706,"is_reserved":false,"is_disabled":false,"rental_uris":{"android":"levelo://app?vid=b9680ac6-d12e-4a12-9dd8-1396db5e067b","ios":"levelo://app?vid=b9680ac6-d12e-4a12-9dd8-1396db5e067b"},"vehicle_type_id":"4","last_reported":1741788550,"current_range_meters":6800,"station_id":"ce4bhmp2rcd13ifvqgog","pricing_plan_id":"cebpf4jnsgd1na2vs0mg"},{"bike_id":"dcbc2f25-4ccf-45d7-a410-e14e1d7791f1","system_id":"levelo_inurba_marseille","lat":43.29078,"lon":5.37167,"is_reserved":false,"is_disabled":false,"rental_uris":{"android":"levelo://app?vid=dcbc2f25-4ccf-45d7-a410-e14e1d7791f1","ios":"levelo://app?vid=dcbc2f25-4ccf-45d7-a410-e14e1d7791f1"},"vehicle_type_id":"4","last_reported":1741788550,"current_range_meters":6800,"station_id":"ce4bh5p2rcd13ifvqe4g","pricing_plan_id":"cebpf4jnsgd1na2vs0mg"},{"bike_id":"4e4886d3-c5bf-4f71-808f-11f1460b6c96","system_id":"levelo_inurba_marseille","lat":43.2942,"lon":5.38625,"is_reserved":false,"is_disabled":false,"rental_uris":{"android":"levelo://app?vid=4e4886d3-c5bf-4f71-808f-11f1460b6c96","ios":"levelo://app?vid=4e4886d3-c5bf-4f71-808f-11f1460b6c96"},"vehicle_type_id":"4","last_reported":1741788550,"current_range_meters":6800,"station_id":"ce4bh2h2rcd13ifvqdh0","pricing_plan_id":"cebpf4jnsgd1na2vs0mg"},{"bike_id":"42796d3b-a581-4dc5-af4d-92e4a09ea3d8","system_id":"levelo_inurba_marseille","lat":43.22927,"lon":5.35377,"is_reserved":false,"is_disabled":false,"rental_uris":{"android":"levelo://app?vid=42796d3b-a581-4dc5-af4d-92e4a09ea3d8","ios":"levelo://app?vid=42796d3b-a581-4dc5-af4d-92e4a09ea3d8"},"vehicle_type_id":"4","last_reported":1741788550,"current_range_meters":6800,"station_id":"cpo3532slgdg3j2ikp40","pricing_plan_id":"cebpf4jnsgd1na2vs0mg"},{"bike_id":"554554cd-8885-4715-ac50-3cfacc65ee3e","system_id":"levelo_inurba_marseille","lat":43.289771,"lon":5.383461,"is_reserved":false,"is_disabled":false,"rental_uris":{"android":"levelo://app?vid=554554cd-8885-4715-ac50-3cfacc65ee3e","ios":"levelo://app?vid=554554cd-8885-4715-ac50-3cfacc65ee3e"},"vehicle_type_id":"4","last_reported":1741788550,"current_range_meters":6400,"station_id":"ce4bh612rcd13ifvqe6g","pricing_plan_id":"cebpf4jnsgd1na2vs0mg"},{"bike_id":"d5ae452c-178e-47c9-9430-42a5613647ed","system_id":"levelo_inurba_marseille","lat":43.27818,"lon":5.40701,"is_reserved":false,"is_disabled":false,"rental_uris":{"android":"levelo://app?vid=d5ae452c-178e-47c9-9430-42a5613647ed","ios":"levelo://app?vid=d5ae452c-178e-47c9-9430-42a5613647ed"},"vehicle_type_id":"4","last_reported":1741788550,"current_range_meters":6800,"station_id":"ce4bhnh2rcd13ifvqgtg","pricing_plan_id":"cebpf4jnsgd1na2vs0mg"},{"bike_id":"5eef5338-ff8a-466a-999e-0f162b00ff22","system_id":"levelo_inurba_marseille","lat":43.24557,"lon":5.39545,"is_reserved":false,"is_disabled":false,"rental_uris":{"android":"levelo://app?vid=5eef5338-ff8a-466a-999e-0f162b00ff22","ios":"levelo://app?vid=5eef5338-ff8a-466a-999e-0f162b00ff22"},"vehicle_type_id":"4","last_reported":1741788550,"current_range_meters":6800,"station_id":"ce4bhlp2rcd13ifvqgjg","pricing_plan_id":"cebpf4jnsgd1na2vs0mg"},{"bike_id":"a5f729d4-1f7d-4a58-adfc-2a0853ddfa53","system_id":"levelo_inurba_marseille","lat":43.28422,"lon":5.34992,"is_reserved":false,"is_disabled":false,"rental_uris":{"android":"levelo://app?vid=a5f729d4-1f7d-4a58-adfc-2a0853ddfa53","ios":"levelo://app?vid=a5f729d4-1f7d-4a58-adfc-2a0853ddfa53"},"vehicle_type_id":"4","last_reported":1741788550,"current_range_meters":7200,"station_id":"ce4bhbh2rcd13ifvqepg","pricing_plan_id":"cebpf4jnsgd1na2vs0mg"},{"bike_id":"00559a84-bfdd-4a60-a5de-01556800e8d9","system_id":"levelo_inurba_marseille","lat":43.24172,"lon":5.39721,"is_reserved":false,"is_disabled":false,"rental_uris":{"android":"levelo://app?vid=00559a84-bfdd-4a60-a5de-01556800e8d9","ios":"levelo://app?vid=00559a84-bfdd-4a60-a5de-01556800e8d9"},"vehicle_type_id":"4","last_reported":1741788550,"current_range_meters":7200,"station_id":"ce4bhn12rcd13ifvqgpg","pricing_plan_id":"cebpf4jnsgd1na2vs0mg"},{"bike_id":"241d79a7-8164-4ee5-8d3f-2565e2e0b3e8","system_id":"levelo_inurba_marseille","lat":43.31376,"lon":5.37972,"is_reserved":false,"is_disabled":false,"rental_uris":{"android":"levelo://app?vid=241d79a7-8164-4ee5-8d3f-2565e2e0b3e8","ios":"levelo://app?vid=241d79a7-8164-4ee5-8d3f-2565e2e0b3e8"},"vehicle_type_id":"4","last_reported":1741788550,"current_range_meters":7200,"station_id":"","pricing_plan_id":"cebpf4jnsgd1na2vs0mg"},{"bike_id":"839a6e1e-a21e-47db-9fad-f16dd3a0a94b","system_id":"levelo_inurba_marseille","lat":43.29603,"lon":5.38095,"is_reserved":false,"is_disabled":false,"rental_uris":{"android":"levelo://app?vid=839a6e1e-a21e-47db-9fad-f16dd3a0a94b","ios":"levelo://app?vid=839a6e1e-a21e-47db-9fad-f16dd3a0a94b"},"vehicle_type_id":"4","last_reported":1741788550,"current_range_meters":7200,"station_id":"ce4bgl12rcd13ifvqbo0","pricing_plan_id":"cebpf4jnsgd1na2vs0mg"},{"bike_id":"1bb5dae5-2cdb-43ae-b04c-dad911982ded","system_id":"levelo_inurba_marseille","lat":43.25127,"lon":5.40325,"is_reserved":false,"is_disabled":false,"rental_uris":{"android":"levelo://app?vid=1bb5dae5-2cdb-43ae-b04c-dad911982ded","ios":"levelo://app?vid=1bb5dae5-2cdb-43ae-b04c-dad911982ded"},"vehicle_type_id":"4","last_reported":1741788550,"current_range_meters":7200,"station_id":"ce4bhlh2rcd13ifvqgig","pricing_plan_id":"cebpf4jnsgd1na2vs0mg"},{"bike_id":"f640465e-8c9e-425a-8e36-08d8d5201bf6","system_id":"levelo_inurba_marseille","lat":43.231945,"lon":5.355488,"is_reserved":false,"is_disabled":false,"rental_uris":{"android":"levelo://app?vid=f640465e-8c9e-425a-8e36-08d8d5201bf6","ios":"levelo://app?vid=f640465e-8c9e-425a-8e36-08d8d5201bf6"},"vehicle_type_id":"4","last_reported":1741788550,"current_range_meters":7200,"station_id":"ce4bhu92rcd13ifvqi70","pricing_plan_id":"cebpf4jnsgd1na2vs0mg"},{"bike_id":"eb1ba1b6-2e87-45ed-8cf3-925b9709627f","system_id":"levelo_inurba_marseille","lat":43.29414,"lon":5.39304,"is_reserved":false,"is_disabled":false,"rental_uris":{"android":"levelo://app?vid=eb1ba1b6-2e87-45ed-8cf3-925b9709627f","ios":"levelo://app?vid=eb1ba1b6-2e87-45ed-8cf3-925b9709627f"},"vehicle_type_id":"4","last_reported":1741788550,"current_range_meters":8000,"station_id":"ce4bh3p2rcd13ifvqdp0","pricing_plan_id":"cebpf4jnsgd1na2vs0mg"},{"bike_id":"415e7a31-245d-4ead-9f33-dad092a04302","system_id":"levelo_inurba_marseille","lat":43.23068,"lon":5.35502,"is_reserved":false,"is_disabled":false,"rental_uris":{"android":"levelo://app?vid=415e7a31-245d-4ead-9f33-dad092a04302","ios":"levelo://app?vid=415e7a31-245d-4ead-9f33-dad092a04302"},"vehicle_type_id":"4","last_reported":1741788550,"current_range_meters":8000,"station_id":"cpo3342slgdg3j2ifvpg","pricing_plan_id":"cebpf4jnsgd1na2vs0mg"},{"bike_id":"a29958dd-70f8-4837-8cb7-03ad49fffd20","system_id":"levelo_inurba_marseille","lat":43.30536,"lon":5.36726,"is_reserved":false,"is_disabled":false,"rental_uris":{"android":"levelo://app?vid=a29958dd-70f8-4837-8cb7-03ad49fffd20","ios":"levelo://app?vid=a29958dd-70f8-4837-8cb7-03ad49fffd20"},"vehicle_type_id":"4","last_reported":1741788550,"current_range_meters":8000,"station_id":"ce4bgrp2rcd13ifvqc9g","pricing_plan_id":"cebpf4jnsgd1na2vs0mg"},{"bike_id":"c3648ee9-57b2-45f6-a80f-334cb4514b44","system_id":"levelo_inurba_marseille","lat":43.28268,"lon":5.35062,"is_reserved":false,"is_disabled":false,"rental_uris":{"android":"levelo://app?vid=c3648ee9-57b2-45f6-a80f-334cb4514b44","ios":"levelo://app?vid=c3648ee9-57b2-45f6-a80f-334cb4514b44"},"vehicle_type_id":"4","last_reported":1741788550,"current_range_meters":7200,"station_id":"ce4bhbp2rcd13ifvqerg","pricing_plan_id":"cebpf4jnsgd1na2vs0mg"},{"bike_id":"3aefe6f5-8150-4e5b-afa7-dca21edb0c1d","system_id":"levelo_inurba_marseille","lat":43.30871,"lon":5.39637,"is_reserved":false,"is_disabled":false,"rental_uris":{"android":"levelo://app?vid=3aefe6f5-8150-4e5b-afa7-dca21edb0c1d","ios":"levelo://app?vid=3aefe6f5-8150-4e5b-afa7-dca21edb0c1d"},"vehicle_type_id":"4","last_reported":1741788550,"current_range_meters":8000,"station_id":"ce4bh012rcd13ifvqcv0","pricing_plan_id":"cebpf4jnsgd1na2vs0mg"},{"bike_id":"50273356-a01a-40cd-8285-3b230fac28c3","system_id":"levelo_inurba_marseille","lat":43.26491,"lon":5.39552,"is_reserved":false,"is_disabled":false,"rental_uris":{"android":"levelo://app?vid=50273356-a01a-40cd-8285-3b230fac28c3","ios":"levelo://app?vid=50273356-a01a-40cd-8285-3b230fac28c3"},"vehicle_type_id":"4","last_reported":1741788550,"current_range_meters":8000,"station_id":"ce4bhi12rcd13ifvqfq0","pricing_plan_id":"cebpf4jnsgd1na2vs0mg"},{"bike_id":"c03732c0-fe1d-4a09-8969-b8168714cef9","system_id":"levelo_inurba_marseille","lat":43.30255,"lon":5.40068,"is_reserved":false,"is_disabled":false,"rental_uris":{"android":"levelo://app?vid=c03732c0-fe1d-4a09-8969-b8168714cef9","ios":"levelo://app?vid=c03732c0-fe1d-4a09-8969-b8168714cef9"},"vehicle_type_id":"4","last_reported":1741788550,"current_range_meters":7200,"station_id":"ce4bgvh2rcd13ifvqcs0","pricing_plan_id":"cebpf4jnsgd1na2vs0mg"},{"bike_id":"8091ba98-e234-4cbd-b6ca-94aedaf9af70","system_id":"levelo_inurba_marseille","lat":43.29937,"lon":5.36549,"is_reserved":false,"is_disabled":false,"rental_uris":{"android":"levelo://app?vid=8091ba98-e234-4cbd-b6ca-94aedaf9af70","ios":"levelo://app?vid=8091ba98-e234-4cbd-b6ca-94aedaf9af70"},"vehicle_type_id":"4","last_reported":1741788550,"current_range_meters":8000,"station_id":"ce4bgm92rcd13ifvqbr0","pricing_plan_id":"cebpf4jnsgd1na2vs0mg"},{"bike_id":"feb4b9df-ca5a-441d-8892-405597e7da99","system_id":"levelo_inurba_marseille","lat":43.23066,"lon":5.35519,"is_reserved":false,"is_disabled":false,"rental_uris":{"android":"levelo://app?vid=feb4b9df-ca5a-441d-8892-405597e7da99","ios":"levelo://app?vid=feb4b9df-ca5a-441d-8892-405597e7da99"},"vehicle_type_id":"4","last_reported":1741788550,"current_range_meters":8000,"station_id":"cpo3342slgdg3j2ifvpg","pricing_plan_id":"cebpf4jnsgd1na2vs0mg"},{"bike_id":"6ae0611d-4288-4bd6-b638-f1daf17b46f7","system_id":"levelo_inurba_marseille","lat":43.25493,"lon":5.37656,"is_reserved":false,"is_disabled":false,"rental_uris":{"android":"levelo://app?vid=6ae0611d-4288-4bd6-b638-f1daf17b46f7","ios":"levelo://app?vid=6ae0611d-4288-4bd6-b638-f1daf17b46f7"},"vehicle_type_id":"4","last_reported":1741788550,"current_range_meters":8000,"station_id":"ce4bhh12rcd13ifvqff0","pricing_plan_id":"cebpf4jnsgd1na2vs0mg"},{"bike_id":"bd083a57-3344-4c7b-89a2-90866c28b714","system_id":"levelo_inurba_marseille","lat":43.27175,"lon":5.40997,"is_reserved":false,"is_disabled":false,"rental_uris":{"android":"levelo://app?vid=bd083a57-3344-4c7b-89a2-90866c28b714","ios":"levelo://app?vid=bd083a57-3344-4c7b-89a2-90866c28b714"},"vehicle_type_id":"4","last_reported":1741788550,"current_range_meters":8400,"station_id":"ce4bhl12rcd13ifvqgf0","pricing_plan_id":"cebpf4jnsgd1na2vs0mg"},{"bike_id":"e397acdb-210a-4c1b-a11a-eb901bcb6af6","system_id":"levelo_inurba_marseille","lat":43.30566,"lon":5.36569,"is_reserved":false,"is_disabled":false,"rental_uris":{"android":"levelo://app?vid=e397acdb-210a-4c1b-a11a-eb901bcb6af6","ios":"levelo://app?vid=e397acdb-210a-4c1b-a11a-eb901bcb6af6"},"vehicle_type_id":"4","last_reported":1741788550,"current_range_meters":8400,"station_id":"ce4bgs12rcd13ifvqcag","pricing_plan_id":"cebpf4jnsgd1na2vs0mg"},{"bike_id":"de719615-1669-4913-98a4-33ed7cc256ac","system_id":"levelo_inurba_marseille","lat":43.25006,"lon":5.38942,"is_reserved":false,"is_disabled":false,"rental_uris":{"android":"levelo://app?vid=de719615-1669-4913-98a4-33ed7cc256ac","ios":"levelo://app?vid=de719615-1669-4913-98a4-33ed7cc256ac"},"vehicle_type_id":"4","last_reported":1741788550,"current_range_meters":8400,"station_id":"ce4bhgp2rcd13ifvqfd0","pricing_plan_id":"cebpf4jnsgd1na2vs0mg"},{"bike_id":"948e0535-f8ee-42aa-b3c6-de33694c2f18","system_id":"levelo_inurba_marseille","lat":43.32745,"lon":5.39246,"is_reserved":false,"is_disabled":false,"rental_uris":{"android":"levelo://app?vid=948e0535-f8ee-42aa-b3c6-de33694c2f18","ios":"levelo://app?vid=948e0535-f8ee-42aa-b3c6-de33694c2f18"},"vehicle_type_id":"4","last_reported":1741788550,"current_range_meters":8400,"station_id":"","pricing_plan_id":"cebpf4jnsgd1na2vs0mg"},{"bike_id":"14c9745d-9d86-4b92-b845-1e0a82865cbd","system_id":"levelo_inurba_marseille","lat":43.33596,"lon":5.41001,"is_reserved":false,"is_disabled":false,"rental_uris":{"android":"levelo://app?vid=14c9745d-9d86-4b92-b845-1e0a82865cbd","ios":"levelo://app?vid=14c9745d-9d86-4b92-b845-1e0a82865cbd"},"vehicle_type_id":"4","last_reported":1741788550,"current_range_meters":8400,"station_id":"ce4bhqh2rcd13ifvqhmg","pricing_plan_id":"cebpf4jnsgd1na2vs0mg"},{"bike_id":"29dcf4e5-3fc4-4240-b459-5be7b3d8998f","system_id":"levelo_inurba_marseille","lat":43.33595,"lon":5.40972,"is_reserved":false,"is_disabled":false,"rental_uris":{"android":"levelo://app?vid=29dcf4e5-3fc4-4240-b459-5be7b3d8998f","ios":"levelo://app?vid=29dcf4e5-3fc4-4240-b459-5be7b3d8998f"},"vehicle_type_id":"4","last_reported":1741788550,"current_range_meters":8400,"station_id":"","pricing_plan_id":"cebpf4jnsgd1na2vs0mg"},{"bike_id":"c162d31b-46b9-4d97-bb02-89f384506e7e","system_id":"levelo_inurba_marseille","lat":43.25731,"lon":5.41105,"is_reserved":false,"is_disabled":false,"rental_uris":{"android":"levelo://app?vid=c162d31b-46b9-4d97-bb02-89f384506e7e","ios":"levelo://app?vid=c162d31b-46b9-4d97-bb02-89f384506e7e"},"vehicle_type_id":"4","last_reported":1741788550,"current_range_meters":8400,"station_id":"ce4bhkp2rcd13ifvqgd0","pricing_plan_id":"cebpf4jnsgd1na2vs0mg"},{"bike_id":"80160602-9be5-4bff-ab04-8eb5a2c2a942","system_id":"levelo_inurba_marseille","lat":43.25885,"lon":5.39907,"is_reserved":false,"is_disabled":false,"rental_uris":{"android":"levelo://app?vid=80160602-9be5-4bff-ab04-8eb5a2c2a942","ios":"levelo://app?vid=80160602-9be5-4bff-ab04-8eb5a2c2a942"},"vehicle_type_id":"4","last_reported":1741788550,"current_range_meters":8400,"station_id":"ce4bhl92rcd13ifvqghg","pricing_plan_id":"cebpf4jnsgd1na2vs0mg"},{"bike_id":"702cb46f-b487-4fa7-bb19-ff8a8de79b57","system_id":"levelo_inurba_marseille","lat":43.26829,"lon":5.40229,"is_reserved":false,"is_disabled":false,"rental_uris":{"android":"levelo://app?vid=702cb46f-b487-4fa7-bb19-ff8a8de79b57","ios":"levelo://app?vid=702cb46f-b487-4fa7-bb19-ff8a8de79b57"},"vehicle_type_id":"4","last_reported":1741788550,"current_range_meters":8400,"station_id":"ce501612rcd8frsf0b60","pricing_plan_id":"cebpf4jnsgd1na2vs0mg"},{"bike_id":"f7c247c8-1427-4f82-9ab0-f89a78d24ab2","system_id":"levelo_inurba_marseille","lat":43.2927,"lon":5.36902,"is_reserved":false,"is_disabled":false,"rental_uris":{"android":"levelo://app?vid=f7c247c8-1427-4f82-9ab0-f89a78d24ab2","ios":"levelo://app?vid=f7c247c8-1427-4f82-9ab0-f89a78d24ab2"},"vehicle_type_id":"4","last_reported":1741788550,"current_range_meters":8400,"station_id":"ce4bhbp2rcd13ifvqesg","pricing_plan_id":"cebpf4jnsgd1na2vs0mg"},{"bike_id":"05388ace-665a-4114-a828-939b708a2589","system_id":"levelo_inurba_marseille","lat":43.23201,"lon":5.39971,"is_reserved":false,"is_disabled":false,"rental_uris":{"android":"levelo://app?vid=05388ace-665a-4114-a828-939b708a2589","ios":"levelo://app?vid=05388ace-665a-4114-a828-939b708a2589"},"vehicle_type_id":"4","last_reported":1741788550,"current_range_meters":8400,"station_id":"ce4bhn12rcd13ifvqgqg","pricing_plan_id":"cebpf4jnsgd1na2vs0mg"},{"bike_id":"e12be538-6dde-4604-98c7-f66a323a5270","system_id":"levelo_inurba_marseille","lat":43.23061,"lon":5.355,"is_reserved":false,"is_disabled":false,"rental_uris":{"android":"levelo://app?vid=e12be538-6dde-4604-98c7-f66a323a5270","ios":"levelo://app?vid=e12be538-6dde-4604-98c7-f66a323a5270"},"vehicle_type_id":"4","last_reported":1741788550,"current_range_meters":8400,"station_id":"cpo3342slgdg3j2ifvpg","pricing_plan_id":"cebpf4jnsgd1na2vs0mg"},{"bike_id":"57e37cca-bdc7-4218-826b-7149e78c606a","system_id":"levelo_inurba_marseille","lat":43.2315,"lon":5.43699,"is_reserved":false,"is_disabled":false,"rental_uris":{"android":"levelo://app?vid=57e37cca-bdc7-4218-826b-7149e78c606a","ios":"levelo://app?vid=57e37cca-bdc7-4218-826b-7149e78c606a"},"vehicle_type_id":"4","last_reported":1741788550,"current_range_meters":8400,"station_id":"ce4bhmp2rcd13ifvqgog","pricing_plan_id":"cebpf4jnsgd1na2vs0mg"},{"bike_id":"13c7d93d-4c85-4312-82b8-8fc09b384f1f","system_id":"levelo_inurba_marseille","lat":43.28416,"lon":5.34992,"is_reserved":false,"is_disabled":false,"rental_uris":{"android":"levelo://app?vid=13c7d93d-4c85-4312-82b8-8fc09b384f1f","ios":"levelo://app?vid=13c7d93d-4c85-4312-82b8-8fc09b384f1f"},"vehicle_type_id":"4","last_reported":1741788550,"current_range_meters":8800,"station_id":"ce4bhbh2rcd13ifvqepg","pricing_plan_id":"cebpf4jnsgd1na2vs0mg"},{"bike_id":"b51a0751-de40-4eb8-8c06-ed58eda7f912","system_id":"levelo_inurba_marseille","lat":43.23187,"lon":5.3999,"is_reserved":false,"is_disabled":false,"rental_uris":{"android":"levelo://app?vid=b51a0751-de40-4eb8-8c06-ed58eda7f912","ios":"levelo://app?vid=b51a0751-de40-4eb8-8c06-ed58eda7f912"},"vehicle_type_id":"4","last_reported":1741788550,"current_range_meters":8800,"station_id":"ce4bhn12rcd13ifvqgqg","pricing_plan_id":"cebpf4jnsgd1na2vs0mg"},{"bike_id":"2931d81f-abb3-45b8-9224-dc3fce2fae31","system_id":"levelo_inurba_marseille","lat":43.32371,"lon":5.36759,"is_reserved":false,"is_disabled":false,"rental_uris":{"android":"levelo://app?vid=2931d81f-abb3-45b8-9224-dc3fce2fae31","ios":"levelo://app?vid=2931d81f-abb3-45b8-9224-dc3fce2fae31"},"vehicle_type_id":"4","last_reported":1741788550,"current_range_meters":8800,"station_id":"ce4bhsh2rcd13ifvqi2g","pricing_plan_id":"cebpf4jnsgd1na2vs0mg"},{"bike_id":"97d4666e-c4ba-47a7-9327-41075a0d7383","system_id":"levelo_inurba_marseille","lat":43.30311,"lon":5.36908,"is_reserved":false,"is_disabled":false,"rental_uris":{"android":"levelo://app?vid=97d4666e-c4ba-47a7-9327-41075a0d7383","ios":"levelo://app?vid=97d4666e-c4ba-47a7-9327-41075a0d7383"},"vehicle_type_id":"4","last_reported":1741788550,"current_range_meters":8800,"station_id":"ce4bgqh2rcd13ifvqc5g","pricing_plan_id":"cebpf4jnsgd1na2vs0mg"},{"bike_id":"c1fdf776-5ff6-4f38-96ad-d3bee4a7cebb","system_id":"levelo_inurba_marseille","lat":43.23165,"lon":5.43683,"is_reserved":false,"is_disabled":false,"rental_uris":{"android":"levelo://app?vid=c1fdf776-5ff6-4f38-96ad-d3bee4a7cebb","ios":"levelo://app?vid=c1fdf776-5ff6-4f38-96ad-d3bee4a7cebb"},"vehicle_type_id":"4","last_reported":1741788550,"current_range_meters":8800,"station_id":"ce4bhmp2rcd13ifvqgog","pricing_plan_id":"cebpf4jnsgd1na2vs0mg"},{"bike_id":"bc9903e0-49cc-49f6-ae4e-94f166a0a060","system_id":"levelo_inurba_marseille","lat":43.2593,"lon":5.40895,"is_reserved":false,"is_disabled":false,"rental_uris":{"android":"levelo://app?vid=bc9903e0-49cc-49f6-ae4e-94f166a0a060","ios":"levelo://app?vid=bc9903e0-49cc-49f6-ae4e-94f166a0a060"},"vehicle_type_id":"4","last_reported":1741788550,"current_range_meters":8800,"station_id":"ce4bhm92rcd13ifvqglg","pricing_plan_id":"cebpf4jnsgd1na2vs0mg"},{"bike_id":"9101287b-43dc-4f41-8fe9-39f299913c2e","system_id":"levelo_inurba_marseille","lat":43.2593,"lon":5.40902,"is_reserved":false,"is_disabled":false,"rental_uris":{"android":"levelo://app?vid=9101287b-43dc-4f41-8fe9-39f299913c2e","ios":"levelo://app?vid=9101287b-43dc-4f41-8fe9-39f299913c2e"},"vehicle_type_id":"4","last_reported":1741788550,"current_range_meters":8800,"station_id":"ce4bhm92rcd13ifvqglg","pricing_plan_id":"cebpf4jnsgd1na2vs0mg"},{"bike_id":"0117055b-abaa-4782-a83e-c23d24cb8a2e","system_id":"levelo_inurba_marseille","lat":43.24663,"lon":5.38903,"is_reserved":false,"is_disabled":false,"rental_uris":{"android":"levelo://app?vid=0117055b-abaa-4782-a83e-c23d24cb8a2e","ios":"levelo://app?vid=0117055b-abaa-4782-a83e-c23d24cb8a2e"},"vehicle_type_id":"4","last_reported":1741788550,"current_range_meters":8800,"station_id":"ce4bhg12rcd13ifvqf60","pricing_plan_id":"cebpf4jnsgd1na2vs0mg"},{"bike_id":"d31a9b9e-c671-4c10-bfe3-fe674b86365e","system_id":"levelo_inurba_marseille","lat":43.31504,"lon":5.3729,"is_reserved":false,"is_disabled":false,"rental_uris":{"android":"levelo://app?vid=d31a9b9e-c671-4c10-bfe3-fe674b86365e","ios":"levelo://app?vid=d31a9b9e-c671-4c10-bfe3-fe674b86365e"},"vehicle_type_id":"4","last_reported":1741788550,"current_range_meters":9200,"station_id":"ce4bgt12rcd13ifvqcd0","pricing_plan_id":"cebpf4jnsgd1na2vs0mg"},{"bike_id":"97dedcc4-732f-4f19-8d54-997819cc44eb","system_id":"levelo_inurba_marseille","lat":43.22932,"lon":5.35381,"is_reserved":false,"is_disabled":false,"rental_uris":{"android":"levelo://app?vid=97dedcc4-732f-4f19-8d54-997819cc44eb","ios":"levelo://app?vid=97dedcc4-732f-4f19-8d54-997819cc44eb"},"vehicle_type_id":"4","last_reported":1741788550,"current_range_meters":9200,"station_id":"cpo3532slgdg3j2ikp40","pricing_plan_id":"cebpf4jnsgd1na2vs0mg"},{"bike_id":"82512acd-d4a4-4e69-ad68-d5bb4078ae7a","system_id":"levelo_inurba_marseille","lat":43.23975,"lon":5.36619,"is_reserved":false,"is_disabled":false,"rental_uris":{"android":"levelo://app?vid=82512acd-d4a4-4e69-ad68-d5bb4078ae7a","ios":"levelo://app?vid=82512acd-d4a4-4e69-ad68-d5bb4078ae7a"},"vehicle_type_id":"4","last_reported":1741788550,"current_range_meters":9200,"station_id":"ce4bhi12rcd13ifvqfp0","pricing_plan_id":"cebpf4jnsgd1na2vs0mg"},{"bike_id":"13038f8e-ae85-4d9c-ac24-31f2124a973b","system_id":"levelo_inurba_marseille","lat":43.24667,"lon":5.38868,"is_reserved":false,"is_disabled":false,"rental_uris":{"android":"levelo://app?vid=13038f8e-ae85-4d9c-ac24-31f2124a973b","ios":"levelo://app?vid=13038f8e-ae85-4d9c-ac24-31f2124a973b"},"vehicle_type_id":"4","last_reported":1741788550,"current_range_meters":9200,"station_id":"ce4bhg12rcd13ifvqf60","pricing_plan_id":"cebpf4jnsgd1na2vs0mg"},{"bike_id":"9880b3b3-4334-44f1-88d3-e581c8981652","system_id":"levelo_inurba_marseille","lat":43.27058,"lon":5.40267,"is_reserved":false,"is_disabled":false,"rental_uris":{"android":"levelo://app?vid=9880b3b3-4334-44f1-88d3-e581c8981652","ios":"levelo://app?vid=9880b3b3-4334-44f1-88d3-e581c8981652"},"vehicle_type_id":"4","last_reported":1741788550,"current_range_meters":9200,"station_id":"ce4bhk92rcd13ifvqgc0","pricing_plan_id":"cebpf4jnsgd1na2vs0mg"},{"bike_id":"2c895259-acfe-4f16-bf27-729fdcefecf9","system_id":"levelo_inurba_marseille","lat":43.2657,"lon":5.3901,"is_reserved":false,"is_disabled":false,"rental_uris":{"android":"levelo://app?vid=2c895259-acfe-4f16-bf27-729fdcefecf9","ios":"levelo://app?vid=2c895259-acfe-4f16-bf27-729fdcefecf9"},"vehicle_type_id":"4","last_reported":1741788550,"current_range_meters":9200,"station_id":"ce4bhe12rcd13ifvqf30","pricing_plan_id":"cebpf4jnsgd1na2vs0mg"},{"bike_id":"511a478b-16c6-4549-a89d-177a4b1ec633","system_id":"levelo_inurba_marseille","lat":43.26564,"lon":5.37298,"is_reserved":false,"is_disabled":false,"rental_uris":{"android":"levelo://app?vid=511a478b-16c6-4549-a89d-177a4b1ec633","ios":"levelo://app?vid=511a478b-16c6-4549-a89d-177a4b1ec633"},"vehicle_type_id":"4","last_reported":1741788550,"current_range_meters":9200,"station_id":"ce4bhg12rcd13ifvqf70","pricing_plan_id":"cebpf4jnsgd1na2vs0mg"},{"bike_id":"b2fc5b21-f2fc-4a3c-a55b-a07701c42425","system_id":"levelo_inurba_marseille","lat":43.30328,"lon":5.40434,"is_reserved":false,"is_disabled":false,"rental_uris":{"android":"levelo://app?vid=b2fc5b21-f2fc-4a3c-a55b-a07701c42425","ios":"levelo://app?vid=b2fc5b21-f2fc-4a3c-a55b-a07701c42425"},"vehicle_type_id":"4","last_reported":1741788550,"current_range_meters":9200,"station_id":"ce4bh012rcd13ifvqd10","pricing_plan_id":"cebpf4jnsgd1na2vs0mg"},{"bike_id":"f076f6f7-e4b4-48be-92db-c2ec27c500f6","system_id":"levelo_inurba_marseille","lat":43.23195,"lon":5.40002,"is_reserved":false,"is_disabled":false,"rental_uris":{"android":"levelo://app?vid=f076f6f7-e4b4-48be-92db-c2ec27c500f6","ios":"levelo://app?vid=f076f6f7-e4b4-48be-92db-c2ec27c500f6"},"vehicle_type_id":"4","last_reported":1741788550,"current_range_meters":9600,"station_id":"ce4bhn12rcd13ifvqgqg","pricing_plan_id":"cebpf4jnsgd1na2vs0mg"},{"bike_id":"ba18639b-98cc-4ab3-ad63-4ac259cc4916","system_id":"levelo_inurba_marseille","lat":43.239641,"lon":5.366311,"is_reserved":false,"is_disabled":false,"rental_uris":{"android":"levelo://app?vid=ba18639b-98cc-4ab3-ad63-4ac259cc4916","ios":"levelo://app?vid=ba18639b-98cc-4ab3-ad63-4ac259cc4916"},"vehicle_type_id":"4","last_reported":1741788550,"current_range_meters":9600,"station_id":"ce4bhi12rcd13ifvqfp0","pricing_plan_id":"cebpf4jnsgd1na2vs0mg"},{"bike_id":"626b92c5-6356-412a-b3dc-fb840144de03","system_id":"levelo_inurba_marseille","lat":43.30307,"lon":5.369008,"is_reserved":false,"is_disabled":false,"rental_uris":{"android":"levelo://app?vid=626b92c5-6356-412a-b3dc-fb840144de03","ios":"levelo://app?vid=626b92c5-6356-412a-b3dc-fb840144de03"},"vehicle_type_id":"4","last_reported":1741788550,"current_range_meters":4800,"station_id":"ce4bhbh2rcd13ifvqeqg","pricing_plan_id":"cebpf4jnsgd1na2vs0mg"},{"bike_id":"fe947e48-4589-4e13-b297-6b55eb6eb05f","system_id":"levelo_inurba_marseille","lat":43.31925,"lon":5.37457,"is_reserved":false,"is_disabled":false,"rental_uris":{"android":"levelo://app?vid=fe947e48-4589-4e13-b297-6b55eb6eb05f","ios":"levelo://app?vid=fe947e48-4589-4e13-b297-6b55eb6eb05f"},"vehicle_type_id":"4","last_reported":1741788550,"current_range_meters":9600,"station_id":"","pricing_plan_id":"cebpf4jnsgd1na2vs0mg"},{"bike_id":"05d562f0-893e-4df8-a77d-cbceb34d8fe1","system_id":"levelo_inurba_marseille","lat":43.23149,"lon":5.43716,"is_reserved":false,"is_disabled":false,"rental_uris":{"android":"levelo://app?vid=05d562f0-893e-4df8-a77d-cbceb34d8fe1","ios":"levelo://app?vid=05d562f0-893e-4df8-a77d-cbceb34d8fe1"},"vehicle_type_id":"4","last_reported":1741788550,"current_range_meters":9600,"station_id":"ce4bhmp2rcd13ifvqgog","pricing_plan_id":"cebpf4jnsgd1na2vs0mg"},{"bike_id":"434eb01e-2034-450f-be5a-85b3d8c4b989","system_id":"levelo_inurba_marseille","lat":43.27976,"lon":5.38744,"is_reserved":false,"is_disabled":false,"rental_uris":{"android":"levelo://app?vid=434eb01e-2034-450f-be5a-85b3d8c4b989","ios":"levelo://app?vid=434eb01e-2034-450f-be5a-85b3d8c4b989"},"vehicle_type_id":"4","last_reported":1741788550,"current_range_meters":9600,"station_id":"ce4bhg12rcd13ifvqf80","pricing_plan_id":"cebpf4jnsgd1na2vs0mg"},{"bike_id":"8dee66dd-a753-4e90-9df0-a75f60b0d66f","system_id":"levelo_inurba_marseille","lat":43.2858,"lon":5.42482,"is_reserved":false,"is_disabled":false,"rental_uris":{"android":"levelo://app?vid=8dee66dd-a753-4e90-9df0-a75f60b0d66f","ios":"levelo://app?vid=8dee66dd-a753-4e90-9df0-a75f60b0d66f"},"vehicle_type_id":"4","last_reported":1741788550,"current_range_meters":9600,"station_id":"","pricing_plan_id":"cebpf4jnsgd1na2vs0mg"},{"bike_id":"ebcd70c6-eb93-44d4-90c3-54c9dd3bc4cd","system_id":"levelo_inurba_marseille","lat":43.26561,"lon":5.37287,"is_reserved":false,"is_disabled":false,"rental_uris":{"android":"levelo://app?vid=ebcd70c6-eb93-44d4-90c3-54c9dd3bc4cd","ios":"levelo://app?vid=ebcd70c6-eb93-44d4-90c3-54c9dd3bc4cd"},"vehicle_type_id":"4","last_reported":1741788550,"current_range_meters":9600,"station_id":"ce4bhg12rcd13ifvqf70","pricing_plan_id":"cebpf4jnsgd1na2vs0mg"},{"bike_id":"6e25eb89-e5ee-42c0-8d07-5062e690a632","system_id":"levelo_inurba_marseille","lat":43.30896,"lon":5.39626,"is_reserved":false,"is_disabled":false,"rental_uris":{"android":"levelo://app?vid=6e25eb89-e5ee-42c0-8d07-5062e690a632","ios":"levelo://app?vid=6e25eb89-e5ee-42c0-8d07-5062e690a632"},"vehicle_type_id":"4","last_reported":1741788550,"current_range_meters":9600,"station_id":"ce4bh012rcd13ifvqcv0","pricing_plan_id":"cebpf4jnsgd1na2vs0mg"},{"bike_id":"fab5d3a8-c10a-4e69-8360-d850cc9f0881","system_id":"levelo_inurba_marseille","lat":43.33037,"lon":5.39022,"is_reserved":false,"is_disabled":false,"rental_uris":{"android":"levelo://app?vid=fab5d3a8-c10a-4e69-8360-d850cc9f0881","ios":"levelo://app?vid=fab5d3a8-c10a-4e69-8360-d850cc9f0881"},"vehicle_type_id":"4","last_reported":1741788550,"current_range_meters":10000,"station_id":"ce4bhr92rcd13ifvqhrg","pricing_plan_id":"cebpf4jnsgd1na2vs0mg"},{"bike_id":"45d8d7b0-29eb-4eaf-9ec9-00efd0738f1e","system_id":"levelo_inurba_marseille","lat":43.30525,"lon":5.36646,"is_reserved":false,"is_disabled":false,"rental_uris":{"android":"levelo://app?vid=45d8d7b0-29eb-4eaf-9ec9-00efd0738f1e","ios":"levelo://app?vid=45d8d7b0-29eb-4eaf-9ec9-00efd0738f1e"},"vehicle_type_id":"4","last_reported":1741788550,"current_range_meters":10000,"station_id":"","pricing_plan_id":"cebpf4jnsgd1na2vs0mg"},{"bike_id":"03fcef79-f017-4d15-a10d-891c5cd96db2","system_id":"levelo_inurba_marseille","lat":43.2304,"lon":5.35477,"is_reserved":false,"is_disabled":false,"rental_uris":{"android":"levelo://app?vid=03fcef79-f017-4d15-a10d-891c5cd96db2","ios":"levelo://app?vid=03fcef79-f017-4d15-a10d-891c5cd96db2"},"vehicle_type_id":"4","last_reported":1741788550,"current_range_meters":9600,"station_id":"cpo3342slgdg3j2ifvpg","pricing_plan_id":"cebpf4jnsgd1na2vs0mg"},{"bike_id":"f829a819-671e-4b71-9c22-56c5f8047725","system_id":"levelo_inurba_marseille","lat":43.32356,"lon":5.36761,"is_reserved":false,"is_disabled":false,"rental_uris":{"android":"levelo://app?vid=f829a819-671e-4b71-9c22-56c5f8047725","ios":"levelo://app?vid=f829a819-671e-4b71-9c22-56c5f8047725"},"vehicle_type_id":"4","last_reported":1741788550,"current_range_meters":9600,"station_id":"ce4bhsh2rcd13ifvqi2g","pricing_plan_id":"cebpf4jnsgd1na2vs0mg"},{"bike_id":"abd01563-25ee-495a-a95b-891dbf0a92ef","system_id":"levelo_inurba_marseille","lat":43.24964,"lon":5.38999,"is_reserved":false,"is_disabled":false,"rental_uris":{"android":"levelo://app?vid=abd01563-25ee-495a-a95b-891dbf0a92ef","ios":"levelo://app?vid=abd01563-25ee-495a-a95b-891dbf0a92ef"},"vehicle_type_id":"4","last_reported":1741788550,"current_range_meters":9600,"station_id":"","pricing_plan_id":"cebpf4jnsgd1na2vs0mg"},{"bike_id":"5f839482-2891-437a-9821-0361b2ec7f78","system_id":"levelo_inurba_marseille","lat":43.30426,"lon":5.38886,"is_reserved":false,"is_disabled":false,"rental_uris":{"android":"levelo://app?vid=5f839482-2891-437a-9821-0361b2ec7f78","ios":"levelo://app?vid=5f839482-2891-437a-9821-0361b2ec7f78"},"vehicle_type_id":"4","last_reported":1741788550,"current_range_meters":14800,"station_id":"ce4bgk12rcd13ifvqbi0","pricing_plan_id":"cebpf4jnsgd1na2vs0mg"},{"bike_id":"28ddcdf4-024a-4f42-80ff-fb3bac3f5f61","system_id":"levelo_inurba_marseille","lat":43.24167,"lon":5.36398,"is_reserved":false,"is_disabled":false,"rental_uris":{"android":"levelo://app?vid=28ddcdf4-024a-4f42-80ff-fb3bac3f5f61","ios":"levelo://app?vid=28ddcdf4-024a-4f42-80ff-fb3bac3f5f61"},"vehicle_type_id":"4","last_reported":1741788550,"current_range_meters":10000,"station_id":"cpo36qri1sfpv3e86is0","pricing_plan_id":"cebpf4jnsgd1na2vs0mg"},{"bike_id":"d8fc7225-0157-4f46-bfde-5e8a21a4823b","system_id":"levelo_inurba_marseille","lat":43.25841,"lon":5.39429,"is_reserved":false,"is_disabled":false,"rental_uris":{"android":"levelo://app?vid=d8fc7225-0157-4f46-bfde-5e8a21a4823b","ios":"levelo://app?vid=d8fc7225-0157-4f46-bfde-5e8a21a4823b"},"vehicle_type_id":"4","last_reported":1741788550,"current_range_meters":10000,"station_id":"ce4bhip2rcd13ifvqft0","pricing_plan_id":"cebpf4jnsgd1na2vs0mg"},{"bike_id":"a69fba24-61f1-4fed-ab85-655ea5d61129","system_id":"levelo_inurba_marseille","lat":43.29577,"lon":5.37524,"is_reserved":false,"is_disabled":false,"rental_uris":{"android":"levelo://app?vid=a69fba24-61f1-4fed-ab85-655ea5d61129","ios":"levelo://app?vid=a69fba24-61f1-4fed-ab85-655ea5d61129"},"vehicle_type_id":"4","last_reported":1741788550,"current_range_meters":10000,"station_id":"ce4bgh92rcd13ifvqb50","pricing_plan_id":"cebpf4jnsgd1na2vs0mg"},{"bike_id":"78b2cd09-81de-4253-8f12-38223b16b1e6","system_id":"levelo_inurba_marseille","lat":43.26687,"lon":5.38272,"is_reserved":false,"is_disabled":false,"rental_uris":{"android":"levelo://app?vid=78b2cd09-81de-4253-8f12-38223b16b1e6","ios":"levelo://app?vid=78b2cd09-81de-4253-8f12-38223b16b1e6"},"vehicle_type_id":"4","last_reported":1741788550,"current_range_meters":10000,"station_id":"ce4bhg92rcd13ifvqf90","pricing_plan_id":"cebpf4jnsgd1na2vs0mg"},{"bike_id":"6190eac7-4d69-4aee-8885-569caf678aef","system_id":"levelo_inurba_marseille","lat":43.25735,"lon":5.41096,"is_reserved":false,"is_disabled":false,"rental_uris":{"android":"levelo://app?vid=6190eac7-4d69-4aee-8885-569caf678aef","ios":"levelo://app?vid=6190eac7-4d69-4aee-8885-569caf678aef"},"vehicle_type_id":"4","last_reported":1741788550,"current_range_meters":10000,"station_id":"ce4bhkp2rcd13ifvqgd0","pricing_plan_id":"cebpf4jnsgd1na2vs0mg"},{"bike_id":"a4ce6389-69c8-41eb-a2cb-27e113df5153","system_id":"levelo_inurba_marseille","lat":43.28616,"lon":5.351,"is_reserved":false,"is_disabled":false,"rental_uris":{"android":"levelo://app?vid=a4ce6389-69c8-41eb-a2cb-27e113df5153","ios":"levelo://app?vid=a4ce6389-69c8-41eb-a2cb-27e113df5153"},"vehicle_type_id":"4","last_reported":1741788550,"current_range_meters":10800,"station_id":"ce4bhch2rcd13ifvqeug","pricing_plan_id":"cebpf4jnsgd1na2vs0mg"},{"bike_id":"25ec04d1-4319-400e-9b95-b0666d8c6edd","system_id":"levelo_inurba_marseille","lat":43.29417,"lon":5.38627,"is_reserved":false,"is_disabled":false,"rental_uris":{"android":"levelo://app?vid=25ec04d1-4319-400e-9b95-b0666d8c6edd","ios":"levelo://app?vid=25ec04d1-4319-400e-9b95-b0666d8c6edd"},"vehicle_type_id":"4","last_reported":1741788550,"current_range_meters":10800,"station_id":"ce4bh2h2rcd13ifvqdh0","pricing_plan_id":"cebpf4jnsgd1na2vs0mg"},{"bike_id":"5dff7e4b-00a4-4649-9663-d77c949847a1","system_id":"levelo_inurba_marseille","lat":43.24198,"lon":5.36401,"is_reserved":false,"is_disabled":false,"rental_uris":{"android":"levelo://app?vid=5dff7e4b-00a4-4649-9663-d77c949847a1","ios":"levelo://app?vid=5dff7e4b-00a4-4649-9663-d77c949847a1"},"vehicle_type_id":"4","last_reported":1741788550,"current_range_meters":10800,"station_id":"cpo36qri1sfpv3e86is0","pricing_plan_id":"cebpf4jnsgd1na2vs0mg"},{"bike_id":"9f25a6ad-433a-45b0-a0d0-4a619d769e26","system_id":"levelo_inurba_marseille","lat":43.23192,"lon":5.35556,"is_reserved":false,"is_disabled":false,"rental_uris":{"android":"levelo://app?vid=9f25a6ad-433a-45b0-a0d0-4a619d769e26","ios":"levelo://app?vid=9f25a6ad-433a-45b0-a0d0-4a619d769e26"},"vehicle_type_id":"4","last_reported":1741788550,"current_range_meters":10800,"station_id":"ce4bhu92rcd13ifvqi70","pricing_plan_id":"cebpf4jnsgd1na2vs0mg"},{"bike_id":"e4f5eaef-48ce-44e3-bb24-21023514f180","system_id":"levelo_inurba_marseille","lat":43.30086,"lon":5.39075,"is_reserved":false,"is_disabled":false,"rental_uris":{"android":"levelo://app?vid=e4f5eaef-48ce-44e3-bb24-21023514f180","ios":"levelo://app?vid=e4f5eaef-48ce-44e3-bb24-21023514f180"},"vehicle_type_id":"4","last_reported":1741788550,"current_range_meters":10800,"station_id":"ce4bh192rcd13ifvqdb0","pricing_plan_id":"cebpf4jnsgd1na2vs0mg"},{"bike_id":"ec5d08ce-934d-49b5-9a73-c20b44942d11","system_id":"levelo_inurba_marseille","lat":43.31431,"lon":5.37643,"is_reserved":false,"is_disabled":false,"rental_uris":{"android":"levelo://app?vid=ec5d08ce-934d-49b5-9a73-c20b44942d11","ios":"levelo://app?vid=ec5d08ce-934d-49b5-9a73-c20b44942d11"},"vehicle_type_id":"4","last_reported":1741788550,"current_range_meters":10800,"station_id":"","pricing_plan_id":"cebpf4jnsgd1na2vs0mg"},{"bike_id":"2d16443d-ed2e-4c48-af94-4deffe2479f1","system_id":"levelo_inurba_marseille","lat":43.25024,"lon":5.38924,"is_reserved":false,"is_disabled":false,"rental_uris":{"android":"levelo://app?vid=2d16443d-ed2e-4c48-af94-4deffe2479f1","ios":"levelo://app?vid=2d16443d-ed2e-4c48-af94-4deffe2479f1"},"vehicle_type_id":"4","last_reported":1741788550,"current_range_meters":10800,"station_id":"ce4bhgp2rcd13ifvqfd0","pricing_plan_id":"cebpf4jnsgd1na2vs0mg"},{"bike_id":"8c25ebae-476e-46e9-b505-692058b7ab14","system_id":"levelo_inurba_marseille","lat":43.29557,"lon":5.42296,"is_reserved":false,"is_disabled":false,"rental_uris":{"android":"levelo://app?vid=8c25ebae-476e-46e9-b505-692058b7ab14","ios":"levelo://app?vid=8c25ebae-476e-46e9-b505-692058b7ab14"},"vehicle_type_id":"4","last_reported":1741788550,"current_range_meters":11200,"station_id":"ce4bhph2rcd13ifvqhdg","pricing_plan_id":"cebpf4jnsgd1na2vs0mg"},{"bike_id":"0a995a9a-6122-4f4b-b298-a8b06cbca7e2","system_id":"levelo_inurba_marseille","lat":43.2501,"lon":5.38918,"is_reserved":false,"is_disabled":false,"rental_uris":{"android":"levelo://app?vid=0a995a9a-6122-4f4b-b298-a8b06cbca7e2","ios":"levelo://app?vid=0a995a9a-6122-4f4b-b298-a8b06cbca7e2"},"vehicle_type_id":"4","last_reported":1741788550,"current_range_meters":11200,"station_id":"ce4bhgp2rcd13ifvqfd0","pricing_plan_id":"cebpf4jnsgd1na2vs0mg"},{"bike_id":"3baf227d-0be9-4b96-8721-684a3fb14c35","system_id":"levelo_inurba_marseille","lat":43.31823,"lon":5.37364,"is_reserved":false,"is_disabled":false,"rental_uris":{"android":"levelo://app?vid=3baf227d-0be9-4b96-8721-684a3fb14c35","ios":"levelo://app?vid=3baf227d-0be9-4b96-8721-684a3fb14c35"},"vehicle_type_id":"4","last_reported":1741788550,"current_range_meters":11200,"station_id":"","pricing_plan_id":"cebpf4jnsgd1na2vs0mg"},{"bike_id":"13fe6d94-935d-42fe-a51f-7a8c162fd6d2","system_id":"levelo_inurba_marseille","lat":43.29571,"lon":5.39968,"is_reserved":false,"is_disabled":false,"rental_uris":{"android":"levelo://app?vid=13fe6d94-935d-42fe-a51f-7a8c162fd6d2","ios":"levelo://app?vid=13fe6d94-935d-42fe-a51f-7a8c162fd6d2"},"vehicle_type_id":"4","last_reported":1741788550,"current_range_meters":11200,"station_id":"ce4bh312rcd13ifvqdj0","pricing_plan_id":"cebpf4jnsgd1na2vs0mg"},{"bike_id":"9d12a25d-8a2c-4449-87ad-e17d1c6f58d4","system_id":"levelo_inurba_marseille","lat":43.28272,"lon":5.35071,"is_reserved":false,"is_disabled":false,"rental_uris":{"android":"levelo://app?vid=9d12a25d-8a2c-4449-87ad-e17d1c6f58d4","ios":"levelo://app?vid=9d12a25d-8a2c-4449-87ad-e17d1c6f58d4"},"vehicle_type_id":"4","last_reported":1741788550,"current_range_meters":11200,"station_id":"ce4bhbp2rcd13ifvqerg","pricing_plan_id":"cebpf4jnsgd1na2vs0mg"},{"bike_id":"5b3bfd16-0470-4fb7-b202-4bdbc648bace","system_id":"levelo_inurba_marseille","lat":43.24548,"lon":5.39533,"is_reserved":false,"is_disabled":false,"rental_uris":{"android":"levelo://app?vid=5b3bfd16-0470-4fb7-b202-4bdbc648bace","ios":"levelo://app?vid=5b3bfd16-0470-4fb7-b202-4bdbc648bace"},"vehicle_type_id":"4","last_reported":1741788550,"current_range_meters":11200,"station_id":"ce4bhlp2rcd13ifvqgjg","pricing_plan_id":"cebpf4jnsgd1na2vs0mg"},{"bike_id":"e48c7d48-351a-4a99-9eaf-5cdf788ce03d","system_id":"levelo_inurba_marseille","lat":43.287166,"lon":5.373024,"is_reserved":false,"is_disabled":false,"rental_uris":{"android":"levelo://app?vid=e48c7d48-351a-4a99-9eaf-5cdf788ce03d","ios":"levelo://app?vid=e48c7d48-351a-4a99-9eaf-5cdf788ce03d"},"vehicle_type_id":"4","last_reported":1741788550,"current_range_meters":11200,"station_id":"ce4bh3p2rcd13ifvqdq0","pricing_plan_id":"cebpf4jnsgd1na2vs0mg"},{"bike_id":"97c90864-cf36-4d7d-bb74-03296d9c21c1","system_id":"levelo_inurba_marseille","lat":43.2923,"lon":5.36073,"is_reserved":false,"is_disabled":false,"rental_uris":{"android":"levelo://app?vid=97c90864-cf36-4d7d-bb74-03296d9c21c1","ios":"levelo://app?vid=97c90864-cf36-4d7d-bb74-03296d9c21c1"},"vehicle_type_id":"4","last_reported":1741788550,"current_range_meters":11600,"station_id":"ce4bhbh2rcd13ifvqeqg","pricing_plan_id":"cebpf4jnsgd1na2vs0mg"},{"bike_id":"c7c1ce4e-10c5-4182-880f-870117bc6814","system_id":"levelo_inurba_marseille","lat":43.3254,"lon":5.41437,"is_reserved":false,"is_disabled":false,"rental_uris":{"android":"levelo://app?vid=c7c1ce4e-10c5-4182-880f-870117bc6814","ios":"levelo://app?vid=c7c1ce4e-10c5-4182-880f-870117bc6814"},"vehicle_type_id":"4","last_reported":1741788550,"current_range_meters":11600,"station_id":"ce4bhq12rcd13ifvqhhg","pricing_plan_id":"cebpf4jnsgd1na2vs0mg"},{"bike_id":"9da23732-5dcc-46ef-bb8f-0b376c6369a5","system_id":"levelo_inurba_marseille","lat":43.30094,"lon":5.3907,"is_reserved":false,"is_disabled":false,"rental_uris":{"android":"levelo://app?vid=9da23732-5dcc-46ef-bb8f-0b376c6369a5","ios":"levelo://app?vid=9da23732-5dcc-46ef-bb8f-0b376c6369a5"},"vehicle_type_id":"4","last_reported":1741788550,"current_range_meters":11200,"station_id":"ce4bh192rcd13ifvqdb0","pricing_plan_id":"cebpf4jnsgd1na2vs0mg"},{"bike_id":"2ad38e49-8cba-4044-8685-719b8bf003db","system_id":"levelo_inurba_marseille","lat":43.29191,"lon":5.39322,"is_reserved":false,"is_disabled":false,"rental_uris":{"android":"levelo://app?vid=2ad38e49-8cba-4044-8685-719b8bf003db","ios":"levelo://app?vid=2ad38e49-8cba-4044-8685-719b8bf003db"},"vehicle_type_id":"4","last_reported":1741788550,"current_range_meters":11600,"station_id":"ce4bh192rcd13ifvqdd0","pricing_plan_id":"cebpf4jnsgd1na2vs0mg"},{"bike_id":"aae180c6-e405-41f3-a0f4-2493456440f7","system_id":"levelo_inurba_marseille","lat":43.23964,"lon":5.36633,"is_reserved":false,"is_disabled":false,"rental_uris":{"android":"levelo://app?vid=aae180c6-e405-41f3-a0f4-2493456440f7","ios":"levelo://app?vid=aae180c6-e405-41f3-a0f4-2493456440f7"},"vehicle_type_id":"4","last_reported":1741788550,"current_range_meters":11600,"station_id":"ce4bhi12rcd13ifvqfp0","pricing_plan_id":"cebpf4jnsgd1na2vs0mg"},{"bike_id":"6dbc9b4a-c5a1-4dbf-a00f-5bb7462d2694","system_id":"levelo_inurba_marseille","lat":43.28103,"lon":5.39853,"is_reserved":false,"is_disabled":true,"rental_uris":{"android":"levelo://app?vid=6dbc9b4a-c5a1-4dbf-a00f-5bb7462d2694","ios":"levelo://app?vid=6dbc9b4a-c5a1-4dbf-a00f-5bb7462d2694"},"vehicle_type_id":"4","last_reported":1741788550,"current_range_meters":11600,"station_id":"","pricing_plan_id":"cebpf4jnsgd1na2vs0mg"},{"bike_id":"8afc345b-56b8-46e6-a0b1-6f81dadf6638","system_id":"levelo_inurba_marseille","lat":43.24174,"lon":5.39718,"is_reserved":false,"is_disabled":false,"rental_uris":{"android":"levelo://app?vid=8afc345b-56b8-46e6-a0b1-6f81dadf6638","ios":"levelo://app?vid=8afc345b-56b8-46e6-a0b1-6f81dadf6638"},"vehicle_type_id":"4","last_reported":1741788550,"current_range_meters":11600,"station_id":"ce4bhn12rcd13ifvqgpg","pricing_plan_id":"cebpf4jnsgd1na2vs0mg"},{"bike_id":"c5fcce11-aa8b-4817-afcd-c634c9c9fecd","system_id":"levelo_inurba_marseille","lat":43.262,"lon":5.37924,"is_reserved":false,"is_disabled":false,"rental_uris":{"android":"levelo://app?vid=c5fcce11-aa8b-4817-afcd-c634c9c9fecd","ios":"levelo://app?vid=c5fcce11-aa8b-4817-afcd-c634c9c9fecd"},"vehicle_type_id":"4","last_reported":1741788550,"current_range_meters":11600,"station_id":"ce4bhjp2rcd13ifvqg90","pricing_plan_id":"cebpf4jnsgd1na2vs0mg"},{"bike_id":"c340b547-5f38-4fc8-8a8e-2a86a6964c9e","system_id":"levelo_inurba_marseille","lat":43.28426,"lon":5.37517,"is_reserved":false,"is_disabled":false,"rental_uris":{"android":"levelo://app?vid=c340b547-5f38-4fc8-8a8e-2a86a6964c9e","ios":"levelo://app?vid=c340b547-5f38-4fc8-8a8e-2a86a6964c9e"},"vehicle_type_id":"4","last_reported":1741788550,"current_range_meters":11600,"station_id":"ce4bh412rcd13ifvqds0","pricing_plan_id":"cebpf4jnsgd1na2vs0mg"},{"bike_id":"89360bb9-bf30-438e-9152-da452160a1d7","system_id":"levelo_inurba_marseille","lat":43.30137,"lon":5.38791,"is_reserved":false,"is_disabled":true,"rental_uris":{"android":"levelo://app?vid=89360bb9-bf30-438e-9152-da452160a1d7","ios":"levelo://app?vid=89360bb9-bf30-438e-9152-da452160a1d7"},"vehicle_type_id":"4","last_reported":1741788550,"current_range_meters":12000,"station_id":"ce4bghh2rcd13ifvqb60","pricing_plan_id":"cebpf4jnsgd1na2vs0mg"},{"bike_id":"3535ef71-8b96-4af6-a2d0-158bbe029a72","system_id":"levelo_inurba_marseille","lat":43.29708,"lon":5.37706,"is_reserved":false,"is_disabled":false,"rental_uris":{"android":"levelo://app?vid=3535ef71-8b96-4af6-a2d0-158bbe029a72","ios":"levelo://app?vid=3535ef71-8b96-4af6-a2d0-158bbe029a72"},"vehicle_type_id":"4","last_reported":1741788550,"current_range_meters":11600,"station_id":"ce4bgkh2rcd13ifvqbl0","pricing_plan_id":"cebpf4jnsgd1na2vs0mg"},{"bike_id":"aa244775-584c-423e-8934-c6c29341e142","system_id":"levelo_inurba_marseille","lat":43.30592,"lon":5.39364,"is_reserved":false,"is_disabled":false,"rental_uris":{"android":"levelo://app?vid=aa244775-584c-423e-8934-c6c29341e142","ios":"levelo://app?vid=aa244775-584c-423e-8934-c6c29341e142"},"vehicle_type_id":"4","last_reported":1741788550,"current_range_meters":12000,"station_id":"ce4bh0p2rcd13ifvqd80","pricing_plan_id":"cebpf4jnsgd1na2vs0mg"},{"bike_id":"f58f191a-2e41-454a-b810-142573832a0a","system_id":"levelo_inurba_marseille","lat":43.2901,"lon":5.35611,"is_reserved":false,"is_disabled":false,"rental_uris":{"android":"levelo://app?vid=f58f191a-2e41-454a-b810-142573832a0a","ios":"levelo://app?vid=f58f191a-2e41-454a-b810-142573832a0a"},"vehicle_type_id":"4","last_reported":1741788550,"current_range_meters":11600,"station_id":"ce4bhb92rcd13ifvqen0","pricing_plan_id":"cebpf4jnsgd1na2vs0mg"},{"bike_id":"a901814a-01c8-4dae-a1e9-d1577fa2ec88","system_id":"levelo_inurba_marseille","lat":43.28727,"lon":5.37945,"is_reserved":false,"is_disabled":false,"rental_uris":{"android":"levelo://app?vid=a901814a-01c8-4dae-a1e9-d1577fa2ec88","ios":"levelo://app?vid=a901814a-01c8-4dae-a1e9-d1577fa2ec88"},"vehicle_type_id":"4","last_reported":1741788550,"current_range_meters":12400,"station_id":"ce4bh9p2rcd13ifvqec0","pricing_plan_id":"cebpf4jnsgd1na2vs0mg"},{"bike_id":"80b618f8-411f-48ab-ae4a-b1dfdfb8b4bd","system_id":"levelo_inurba_marseille","lat":43.280706,"lon":5.407472,"is_reserved":false,"is_disabled":false,"rental_uris":{"android":"levelo://app?vid=80b618f8-411f-48ab-ae4a-b1dfdfb8b4bd","ios":"levelo://app?vid=80b618f8-411f-48ab-ae4a-b1dfdfb8b4bd"},"vehicle_type_id":"4","last_reported":1741788550,"current_range_meters":12400,"station_id":"ce4bhnp2rcd13ifvqh0g","pricing_plan_id":"cebpf4jnsgd1na2vs0mg"},{"bike_id":"7372912a-1ca2-4e66-a3f6-36673a56cf29","system_id":"levelo_inurba_marseille","lat":43.30096,"lon":5.39084,"is_reserved":false,"is_disabled":false,"rental_uris":{"android":"levelo://app?vid=7372912a-1ca2-4e66-a3f6-36673a56cf29","ios":"levelo://app?vid=7372912a-1ca2-4e66-a3f6-36673a56cf29"},"vehicle_type_id":"4","last_reported":1741788550,"current_range_meters":12400,"station_id":"ce4bh192rcd13ifvqdb0","pricing_plan_id":"cebpf4jnsgd1na2vs0mg"},{"bike_id":"bda55fe6-4124-46d2-9609-b3b8d13625dd","system_id":"levelo_inurba_marseille","lat":43.30469,"lon":5.37901,"is_reserved":false,"is_disabled":false,"rental_uris":{"android":"levelo://app?vid=bda55fe6-4124-46d2-9609-b3b8d13625dd","ios":"levelo://app?vid=bda55fe6-4124-46d2-9609-b3b8d13625dd"},"vehicle_type_id":"4","last_reported":1741788550,"current_range_meters":12400,"station_id":"ce4bgup2rcd13ifvqcn0","pricing_plan_id":"cebpf4jnsgd1na2vs0mg"},{"bike_id":"c048b82f-d03c-4c51-9ef2-bdc6dd54746a","system_id":"levelo_inurba_marseille","lat":43.29906,"lon":5.37591,"is_reserved":false,"is_disabled":false,"rental_uris":{"android":"levelo://app?vid=c048b82f-d03c-4c51-9ef2-bdc6dd54746a","ios":"levelo://app?vid=c048b82f-d03c-4c51-9ef2-bdc6dd54746a"},"vehicle_type_id":"4","last_reported":1741788550,"current_range_meters":12400,"station_id":"ce4bgrh2rcd13ifvqc8g","pricing_plan_id":"cebpf4jnsgd1na2vs0mg"},{"bike_id":"c2fdc035-3896-46f1-aee2-5294a5907071","system_id":"levelo_inurba_marseille","lat":43.25006,"lon":5.38932,"is_reserved":false,"is_disabled":false,"rental_uris":{"android":"levelo://app?vid=c2fdc035-3896-46f1-aee2-5294a5907071","ios":"levelo://app?vid=c2fdc035-3896-46f1-aee2-5294a5907071"},"vehicle_type_id":"4","last_reported":1741788550,"current_range_meters":12400,"station_id":"ce4bhgp2rcd13ifvqfd0","pricing_plan_id":"cebpf4jnsgd1na2vs0mg"},{"bike_id":"3df36386-765a-4846-a741-756b7dd076ce","system_id":"levelo_inurba_marseille","lat":43.30587,"lon":5.39378,"is_reserved":false,"is_disabled":false,"rental_uris":{"android":"levelo://app?vid=3df36386-765a-4846-a741-756b7dd076ce","ios":"levelo://app?vid=3df36386-765a-4846-a741-756b7dd076ce"},"vehicle_type_id":"4","last_reported":1741788550,"current_range_meters":12400,"station_id":"ce4bh0p2rcd13ifvqd80","pricing_plan_id":"cebpf4jnsgd1na2vs0mg"},{"bike_id":"9943ca92-55f1-47b2-9044-d4f9bf1efedd","system_id":"levelo_inurba_marseille","lat":43.26811,"lon":5.40264,"is_reserved":false,"is_disabled":false,"rental_uris":{"android":"levelo://app?vid=9943ca92-55f1-47b2-9044-d4f9bf1efedd","ios":"levelo://app?vid=9943ca92-55f1-47b2-9044-d4f9bf1efedd"},"vehicle_type_id":"4","last_reported":1741788550,"current_range_meters":12800,"station_id":"ce501612rcd8frsf0b60","pricing_plan_id":"cebpf4jnsgd1na2vs0mg"},{"bike_id":"7313f8c6-bb78-4842-af7d-88e2ab21c378","system_id":"levelo_inurba_marseille","lat":43.30464,"lon":5.37904,"is_reserved":false,"is_disabled":false,"rental_uris":{"android":"levelo://app?vid=7313f8c6-bb78-4842-af7d-88e2ab21c378","ios":"levelo://app?vid=7313f8c6-bb78-4842-af7d-88e2ab21c378"},"vehicle_type_id":"4","last_reported":1741788550,"current_range_meters":12800,"station_id":"ce4bgup2rcd13ifvqcn0","pricing_plan_id":"cebpf4jnsgd1na2vs0mg"},{"bike_id":"40411095-c27d-4cff-865c-b4f834297533","system_id":"levelo_inurba_marseille","lat":43.27811,"lon":5.40711,"is_reserved":false,"is_disabled":false,"rental_uris":{"android":"levelo://app?vid=40411095-c27d-4cff-865c-b4f834297533","ios":"levelo://app?vid=40411095-c27d-4cff-865c-b4f834297533"},"vehicle_type_id":"4","last_reported":1741788550,"current_range_meters":12800,"station_id":"ce4bhnh2rcd13ifvqgtg","pricing_plan_id":"cebpf4jnsgd1na2vs0mg"},{"bike_id":"1aa26f0a-749c-474e-b4d4-5af797a5f659","system_id":"levelo_inurba_marseille","lat":43.29029,"lon":5.38645,"is_reserved":false,"is_disabled":false,"rental_uris":{"android":"levelo://app?vid=1aa26f0a-749c-474e-b4d4-5af797a5f659","ios":"levelo://app?vid=1aa26f0a-749c-474e-b4d4-5af797a5f659"},"vehicle_type_id":"4","last_reported":1741788550,"current_range_meters":12800,"station_id":"ce4bh4p2rcd13ifvqe0g","pricing_plan_id":"cebpf4jnsgd1na2vs0mg"},{"bike_id":"507011df-f005-4d08-adfc-ce7901cefcfb","system_id":"levelo_inurba_marseille","lat":43.29198,"lon":5.35807,"is_reserved":false,"is_disabled":false,"rental_uris":{"android":"levelo://app?vid=507011df-f005-4d08-adfc-ce7901cefcfb","ios":"levelo://app?vid=507011df-f005-4d08-adfc-ce7901cefcfb"},"vehicle_type_id":"4","last_reported":1741788550,"current_range_meters":13600,"station_id":"ce4bhb12rcd13ifvqel0","pricing_plan_id":"cebpf4jnsgd1na2vs0mg"},{"bike_id":"a50f4717-2e48-4067-acbd-12accc4aacaa","system_id":"levelo_inurba_marseille","lat":43.29789,"lon":5.371,"is_reserved":false,"is_disabled":false,"rental_uris":{"android":"levelo://app?vid=a50f4717-2e48-4067-acbd-12accc4aacaa","ios":"levelo://app?vid=a50f4717-2e48-4067-acbd-12accc4aacaa"},"vehicle_type_id":"4","last_reported":1741788550,"current_range_meters":12800,"station_id":"ce4bgop2rcd13ifvqc1g","pricing_plan_id":"cebpf4jnsgd1na2vs0mg"},{"bike_id":"ff511383-15e5-4f26-9c29-03dbcbc177d5","system_id":"levelo_inurba_marseille","lat":43.30143,"lon":5.38775,"is_reserved":false,"is_disabled":false,"rental_uris":{"android":"levelo://app?vid=ff511383-15e5-4f26-9c29-03dbcbc177d5","ios":"levelo://app?vid=ff511383-15e5-4f26-9c29-03dbcbc177d5"},"vehicle_type_id":"4","last_reported":1741788550,"current_range_meters":12800,"station_id":"ce4bgop2rcd13ifvqc1g","pricing_plan_id":"cebpf4jnsgd1na2vs0mg"},{"bike_id":"4ad9c640-704f-4648-a12d-b5105947d193","system_id":"levelo_inurba_marseille","lat":43.27812,"lon":5.40708,"is_reserved":false,"is_disabled":false,"rental_uris":{"android":"levelo://app?vid=4ad9c640-704f-4648-a12d-b5105947d193","ios":"levelo://app?vid=4ad9c640-704f-4648-a12d-b5105947d193"},"vehicle_type_id":"4","last_reported":1741788550,"current_range_meters":13600,"station_id":"ce4bhnh2rcd13ifvqgtg","pricing_plan_id":"cebpf4jnsgd1na2vs0mg"},{"bike_id":"4c607265-c996-4d9b-81fd-daa80dd99e32","system_id":"levelo_inurba_marseille","lat":43.28755,"lon":5.384203,"is_reserved":false,"is_disabled":false,"rental_uris":{"android":"levelo://app?vid=4c607265-c996-4d9b-81fd-daa80dd99e32","ios":"levelo://app?vid=4c607265-c996-4d9b-81fd-daa80dd99e32"},"vehicle_type_id":"4","last_reported":1741788550,"current_range_meters":13600,"station_id":"","pricing_plan_id":"cebpf4jnsgd1na2vs0mg"},{"bike_id":"a7a0bdd7-6c5f-4cdc-8471-ac7a380c269d","system_id":"levelo_inurba_marseille","lat":43.29921,"lon":5.37457,"is_reserved":false,"is_disabled":false,"rental_uris":{"android":"levelo://app?vid=a7a0bdd7-6c5f-4cdc-8471-ac7a380c269d","ios":"levelo://app?vid=a7a0bdd7-6c5f-4cdc-8471-ac7a380c269d"},"vehicle_type_id":"4","last_reported":1741788550,"current_range_meters":13600,"station_id":"ce4bgjh2rcd13ifvqbg0","pricing_plan_id":"cebpf4jnsgd1na2vs0mg"},{"bike_id":"79397302-4916-493d-9bc0-e5035ae3c476","system_id":"levelo_inurba_marseille","lat":43.22934,"lon":5.35379,"is_reserved":false,"is_disabled":false,"rental_uris":{"android":"levelo://app?vid=79397302-4916-493d-9bc0-e5035ae3c476","ios":"levelo://app?vid=79397302-4916-493d-9bc0-e5035ae3c476"},"vehicle_type_id":"4","last_reported":1741788550,"current_range_meters":13600,"station_id":"cpo3532slgdg3j2ikp40","pricing_plan_id":"cebpf4jnsgd1na2vs0mg"},{"bike_id":"aee208bf-afdb-4429-ace3-9f3c54fd1bfe","system_id":"levelo_inurba_marseille","lat":43.26218,"lon":5.37443,"is_reserved":false,"is_disabled":false,"rental_uris":{"android":"levelo://app?vid=aee208bf-afdb-4429-ace3-9f3c54fd1bfe","ios":"levelo://app?vid=aee208bf-afdb-4429-ace3-9f3c54fd1bfe"},"vehicle_type_id":"4","last_reported":1741788550,"current_range_meters":13600,"station_id":"ce4bhgp2rcd13ifvqfc0","pricing_plan_id":"cebpf4jnsgd1na2vs0mg"},{"bike_id":"57f1cf8c-f737-4049-90e1-337aabbbf0fd","system_id":"levelo_inurba_marseille","lat":43.30919,"lon":5.37198,"is_reserved":false,"is_disabled":false,"rental_uris":{"android":"levelo://app?vid=57f1cf8c-f737-4049-90e1-337aabbbf0fd","ios":"levelo://app?vid=57f1cf8c-f737-4049-90e1-337aabbbf0fd"},"vehicle_type_id":"4","last_reported":1741788550,"current_range_meters":13600,"station_id":"ce4bguh2rcd13ifvqckg","pricing_plan_id":"cebpf4jnsgd1na2vs0mg"},{"bike_id":"cae1a1ac-f174-4e64-87d8-9f9488ed34e9","system_id":"levelo_inurba_marseille","lat":43.29416,"lon":5.38627,"is_reserved":false,"is_disabled":false,"rental_uris":{"android":"levelo://app?vid=cae1a1ac-f174-4e64-87d8-9f9488ed34e9","ios":"levelo://app?vid=cae1a1ac-f174-4e64-87d8-9f9488ed34e9"},"vehicle_type_id":"4","last_reported":1741788550,"current_range_meters":13600,"station_id":"ce4bh2h2rcd13ifvqdh0","pricing_plan_id":"cebpf4jnsgd1na2vs0mg"},{"bike_id":"d102b4e9-e81b-49b6-ba97-bd718b5a9515","system_id":"levelo_inurba_marseille","lat":43.30295,"lon":5.37712,"is_reserved":false,"is_disabled":false,"rental_uris":{"android":"levelo://app?vid=d102b4e9-e81b-49b6-ba97-bd718b5a9515","ios":"levelo://app?vid=d102b4e9-e81b-49b6-ba97-bd718b5a9515"},"vehicle_type_id":"4","last_reported":1741788550,"current_range_meters":14000,"station_id":"ce4bguh2rcd13ifvqcj0","pricing_plan_id":"cebpf4jnsgd1na2vs0mg"},{"bike_id":"47fc8e5a-1c6b-4c26-82e6-fd08cf4f37b0","system_id":"levelo_inurba_marseille","lat":43.29787,"lon":5.37099,"is_reserved":false,"is_disabled":false,"rental_uris":{"android":"levelo://app?vid=47fc8e5a-1c6b-4c26-82e6-fd08cf4f37b0","ios":"levelo://app?vid=47fc8e5a-1c6b-4c26-82e6-fd08cf4f37b0"},"vehicle_type_id":"4","last_reported":1741788550,"current_range_meters":14000,"station_id":"ce4bgop2rcd13ifvqc1g","pricing_plan_id":"cebpf4jnsgd1na2vs0mg"},{"bike_id":"b2fb00b4-ac8c-4a8c-8774-c1cbbf96d297","system_id":"levelo_inurba_marseille","lat":43.2827,"lon":5.35064,"is_reserved":false,"is_disabled":false,"rental_uris":{"android":"levelo://app?vid=b2fb00b4-ac8c-4a8c-8774-c1cbbf96d297","ios":"levelo://app?vid=b2fb00b4-ac8c-4a8c-8774-c1cbbf96d297"},"vehicle_type_id":"4","last_reported":1741788550,"current_range_meters":14000,"station_id":"ce4bhbp2rcd13ifvqerg","pricing_plan_id":"cebpf4jnsgd1na2vs0mg"},{"bike_id":"c8f5a7aa-328f-49c1-a785-9624fa888d07","system_id":"levelo_inurba_marseille","lat":43.25018,"lon":5.38913,"is_reserved":false,"is_disabled":false,"rental_uris":{"android":"levelo://app?vid=c8f5a7aa-328f-49c1-a785-9624fa888d07","ios":"levelo://app?vid=c8f5a7aa-328f-49c1-a785-9624fa888d07"},"vehicle_type_id":"4","last_reported":1741788550,"current_range_meters":14000,"station_id":"ce4bhgp2rcd13ifvqfd0","pricing_plan_id":"cebpf4jnsgd1na2vs0mg"},{"bike_id":"2bd531c0-e58e-4489-8335-baa03b04c592","system_id":"levelo_inurba_marseille","lat":43.30615,"lon":5.37211,"is_reserved":false,"is_disabled":false,"rental_uris":{"android":"levelo://app?vid=2bd531c0-e58e-4489-8335-baa03b04c592","ios":"levelo://app?vid=2bd531c0-e58e-4489-8335-baa03b04c592"},"vehicle_type_id":"4","last_reported":1741788550,"current_range_meters":14000,"station_id":"ce4bgqh2rcd13ifvqc4g","pricing_plan_id":"cebpf4jnsgd1na2vs0mg"},{"bike_id":"04b6b0f6-d318-40e6-a023-347d481d621c","system_id":"levelo_inurba_marseille","lat":43.29192,"lon":5.37573,"is_reserved":false,"is_disabled":false,"rental_uris":{"android":"levelo://app?vid=04b6b0f6-d318-40e6-a023-347d481d621c","ios":"levelo://app?vid=04b6b0f6-d318-40e6-a023-347d481d621c"},"vehicle_type_id":"4","last_reported":1741788550,"current_range_meters":14400,"station_id":"","pricing_plan_id":"cebpf4jnsgd1na2vs0mg"},{"bike_id":"72de4c85-7223-490f-9219-5d9d46436df5","system_id":"levelo_inurba_marseille","lat":43.306521,"lon":5.367806,"is_reserved":false,"is_disabled":false,"rental_uris":{"android":"levelo://app?vid=72de4c85-7223-490f-9219-5d9d46436df5","ios":"levelo://app?vid=72de4c85-7223-490f-9219-5d9d46436df5"},"vehicle_type_id":"4","last_reported":1741788550,"current_range_meters":14400,"station_id":"ce4bhr92rcd13ifvqhrg","pricing_plan_id":"cebpf4jnsgd1na2vs0mg"},{"bike_id":"9a134e38-b181-4f25-a74f-5c0aa28b588e","system_id":"levelo_inurba_marseille","lat":43.28479,"lon":5.38561,"is_reserved":false,"is_disabled":false,"rental_uris":{"android":"levelo://app?vid=9a134e38-b181-4f25-a74f-5c0aa28b588e","ios":"levelo://app?vid=9a134e38-b181-4f25-a74f-5c0aa28b588e"},"vehicle_type_id":"4","last_reported":1741788550,"current_range_meters":14400,"station_id":"ce4bh8p2rcd13ifvqeb0","pricing_plan_id":"cebpf4jnsgd1na2vs0mg"},{"bike_id":"b090c9b5-c457-4bdb-a10a-0abcc6badcd7","system_id":"levelo_inurba_marseille","lat":43.3053,"lon":5.36529,"is_reserved":false,"is_disabled":false,"rental_uris":{"android":"levelo://app?vid=b090c9b5-c457-4bdb-a10a-0abcc6badcd7","ios":"levelo://app?vid=b090c9b5-c457-4bdb-a10a-0abcc6badcd7"},"vehicle_type_id":"4","last_reported":1741788550,"current_range_meters":14400,"station_id":"ce4bgs12rcd13ifvqcag","pricing_plan_id":"cebpf4jnsgd1na2vs0mg"},{"bike_id":"86fc146c-4af9-49a2-9b65-b6b8fa03c722","system_id":"levelo_inurba_marseille","lat":43.29205,"lon":5.39344,"is_reserved":false,"is_disabled":false,"rental_uris":{"android":"levelo://app?vid=86fc146c-4af9-49a2-9b65-b6b8fa03c722","ios":"levelo://app?vid=86fc146c-4af9-49a2-9b65-b6b8fa03c722"},"vehicle_type_id":"4","last_reported":1741788550,"current_range_meters":14400,"station_id":"ce4bh192rcd13ifvqdd0","pricing_plan_id":"cebpf4jnsgd1na2vs0mg"},{"bike_id":"f5a8ef44-dbcb-4eaa-aae1-66659d802509","system_id":"levelo_inurba_marseille","lat":43.30141,"lon":5.37418,"is_reserved":false,"is_disabled":false,"rental_uris":{"android":"levelo://app?vid=f5a8ef44-dbcb-4eaa-aae1-66659d802509","ios":"levelo://app?vid=f5a8ef44-dbcb-4eaa-aae1-66659d802509"},"vehicle_type_id":"4","last_reported":1741788550,"current_range_meters":14400,"station_id":"ce4bgs92rcd13ifvqcc0","pricing_plan_id":"cebpf4jnsgd1na2vs0mg"},{"bike_id":"2872f208-7a92-4283-a98c-8da021fd4c46","system_id":"levelo_inurba_marseille","lat":43.30277,"lon":5.37681,"is_reserved":false,"is_disabled":false,"rental_uris":{"android":"levelo://app?vid=2872f208-7a92-4283-a98c-8da021fd4c46","ios":"levelo://app?vid=2872f208-7a92-4283-a98c-8da021fd4c46"},"vehicle_type_id":"4","last_reported":1741788550,"current_range_meters":14400,"station_id":"ce4bguh2rcd13ifvqcj0","pricing_plan_id":"cebpf4jnsgd1na2vs0mg"},{"bike_id":"c2b9d5be-dc92-4132-9391-07177eeb1314","system_id":"levelo_inurba_marseille","lat":43.31119,"lon":5.37762,"is_reserved":false,"is_disabled":false,"rental_uris":{"android":"levelo://app?vid=c2b9d5be-dc92-4132-9391-07177eeb1314","ios":"levelo://app?vid=c2b9d5be-dc92-4132-9391-07177eeb1314"},"vehicle_type_id":"4","last_reported":1741788550,"current_range_meters":14400,"station_id":"ce4bgt92rcd13ifvqcg0","pricing_plan_id":"cebpf4jnsgd1na2vs0mg"},{"bike_id":"072ca02c-6ca0-48dc-b52f-84ede851ddb6","system_id":"levelo_inurba_marseille","lat":43.30541,"lon":5.3653,"is_reserved":false,"is_disabled":false,"rental_uris":{"android":"levelo://app?vid=072ca02c-6ca0-48dc-b52f-84ede851ddb6","ios":"levelo://app?vid=072ca02c-6ca0-48dc-b52f-84ede851ddb6"},"vehicle_type_id":"4","last_reported":1741788550,"current_range_meters":14400,"station_id":"ce4bgs12rcd13ifvqcag","pricing_plan_id":"cebpf4jnsgd1na2vs0mg"},{"bike_id":"c32eb91c-0d61-4af3-8b86-ea1d03823ab1","system_id":"levelo_inurba_marseille","lat":43.28456,"lon":5.35898,"is_reserved":false,"is_disabled":false,"rental_uris":{"android":"levelo://app?vid=c32eb91c-0d61-4af3-8b86-ea1d03823ab1","ios":"levelo://app?vid=c32eb91c-0d61-4af3-8b86-ea1d03823ab1"},"vehicle_type_id":"4","last_reported":1741788550,"current_range_meters":14400,"station_id":"ce4bhah2rcd13ifvqei0","pricing_plan_id":"cebpf4jnsgd1na2vs0mg"},{"bike_id":"287a61f4-5db6-4f57-a0d3-c1c5f0cbc09a","system_id":"levelo_inurba_marseille","lat":43.29601,"lon":5.38097,"is_reserved":false,"is_disabled":false,"rental_uris":{"android":"levelo://app?vid=287a61f4-5db6-4f57-a0d3-c1c5f0cbc09a","ios":"levelo://app?vid=287a61f4-5db6-4f57-a0d3-c1c5f0cbc09a"},"vehicle_type_id":"4","last_reported":1741788550,"current_range_meters":14800,"station_id":"ce4bgl12rcd13ifvqbo0","pricing_plan_id":"cebpf4jnsgd1na2vs0mg"},{"bike_id":"d3ac1ba6-6349-4d47-99e4-9f85d3ef1aa5","system_id":"levelo_inurba_marseille","lat":43.28503,"lon":5.36888,"is_reserved":false,"is_disabled":false,"rental_uris":{"android":"levelo://app?vid=d3ac1ba6-6349-4d47-99e4-9f85d3ef1aa5","ios":"levelo://app?vid=d3ac1ba6-6349-4d47-99e4-9f85d3ef1aa5"},"vehicle_type_id":"4","last_reported":1741788550,"current_range_meters":14800,"station_id":"","pricing_plan_id":"cebpf4jnsgd1na2vs0mg"},{"bike_id":"c1614816-7045-481d-b431-66d3df0d45cb","system_id":"levelo_inurba_marseille","lat":43.23186,"lon":5.39997,"is_reserved":false,"is_disabled":false,"rental_uris":{"android":"levelo://app?vid=c1614816-7045-481d-b431-66d3df0d45cb","ios":"levelo://app?vid=c1614816-7045-481d-b431-66d3df0d45cb"},"vehicle_type_id":"4","last_reported":1741788550,"current_range_meters":14800,"station_id":"ce4bhn12rcd13ifvqgqg","pricing_plan_id":"cebpf4jnsgd1na2vs0mg"},{"bike_id":"477af7ea-1faf-4582-a5af-9ae465ff10c5","system_id":"levelo_inurba_marseille","lat":43.329472,"lon":5.393702,"is_reserved":false,"is_disabled":false,"rental_uris":{"android":"levelo://app?vid=477af7ea-1faf-4582-a5af-9ae465ff10c5","ios":"levelo://app?vid=477af7ea-1faf-4582-a5af-9ae465ff10c5"},"vehicle_type_id":"4","last_reported":1741788550,"current_range_meters":14800,"station_id":"","pricing_plan_id":"cebpf4jnsgd1na2vs0mg"},{"bike_id":"297903bf-f6be-4d10-bca8-f606030d376b","system_id":"levelo_inurba_marseille","lat":43.31526,"lon":5.38027,"is_reserved":false,"is_disabled":false,"rental_uris":{"android":"levelo://app?vid=297903bf-f6be-4d10-bca8-f606030d376b","ios":"levelo://app?vid=297903bf-f6be-4d10-bca8-f606030d376b"},"vehicle_type_id":"4","last_reported":1741788550,"current_range_meters":14800,"station_id":"ce4bhsp2rcd13ifvqi50","pricing_plan_id":"cebpf4jnsgd1na2vs0mg"},{"bike_id":"fa8f8249-fd86-4153-9f9d-d37fdddd786e","system_id":"levelo_inurba_marseille","lat":43.28636,"lon":5.35094,"is_reserved":false,"is_disabled":false,"rental_uris":{"android":"levelo://app?vid=fa8f8249-fd86-4153-9f9d-d37fdddd786e","ios":"levelo://app?vid=fa8f8249-fd86-4153-9f9d-d37fdddd786e"},"vehicle_type_id":"4","last_reported":1741788550,"current_range_meters":14800,"station_id":"ce4bhch2rcd13ifvqeug","pricing_plan_id":"cebpf4jnsgd1na2vs0mg"},{"bike_id":"99a3f406-b0b8-4066-adb6-b7e55216ac38","system_id":"levelo_inurba_marseille","lat":43.30277,"lon":5.37688,"is_reserved":false,"is_disabled":false,"rental_uris":{"android":"levelo://app?vid=99a3f406-b0b8-4066-adb6-b7e55216ac38","ios":"levelo://app?vid=99a3f406-b0b8-4066-adb6-b7e55216ac38"},"vehicle_type_id":"4","last_reported":1741788550,"current_range_meters":14800,"station_id":"ce4bguh2rcd13ifvqcj0","pricing_plan_id":"cebpf4jnsgd1na2vs0mg"},{"bike_id":"7382db7c-ea28-4d6b-a6ac-0a5dc179880b","system_id":"levelo_inurba_marseille","lat":43.33145,"lon":5.38176,"is_reserved":false,"is_disabled":false,"rental_uris":{"android":"levelo://app?vid=7382db7c-ea28-4d6b-a6ac-0a5dc179880b","ios":"levelo://app?vid=7382db7c-ea28-4d6b-a6ac-0a5dc179880b"},"vehicle_type_id":"4","last_reported":1741788550,"current_range_meters":15200,"station_id":"","pricing_plan_id":"cebpf4jnsgd1na2vs0mg"},{"bike_id":"c63e0fba-db6f-443d-90a2-2a1f08de196a","system_id":"levelo_inurba_marseille","lat":43.2694,"lon":5.40255,"is_reserved":false,"is_disabled":false,"rental_uris":{"android":"levelo://app?vid=c63e0fba-db6f-443d-90a2-2a1f08de196a","ios":"levelo://app?vid=c63e0fba-db6f-443d-90a2-2a1f08de196a"},"vehicle_type_id":"4","last_reported":1741788550,"current_range_meters":14800,"station_id":"cjm6bp8fraef2m0cb0m0","pricing_plan_id":"cebpf4jnsgd1na2vs0mg"},{"bike_id":"abb8130c-0efc-4f1c-8e7f-7f7bfbc0b715","system_id":"levelo_inurba_marseille","lat":43.30423,"lon":5.39759,"is_reserved":false,"is_disabled":false,"rental_uris":{"android":"levelo://app?vid=abb8130c-0efc-4f1c-8e7f-7f7bfbc0b715","ios":"levelo://app?vid=abb8130c-0efc-4f1c-8e7f-7f7bfbc0b715"},"vehicle_type_id":"4","last_reported":1741788550,"current_range_meters":15200,"station_id":"ce4bh092rcd13ifvqd20","pricing_plan_id":"cebpf4jnsgd1na2vs0mg"},{"bike_id":"4301fa34-9b1e-4d03-b6a1-f19cea82e69d","system_id":"levelo_inurba_marseille","lat":43.29416,"lon":5.3863,"is_reserved":false,"is_disabled":false,"rental_uris":{"android":"levelo://app?vid=4301fa34-9b1e-4d03-b6a1-f19cea82e69d","ios":"levelo://app?vid=4301fa34-9b1e-4d03-b6a1-f19cea82e69d"},"vehicle_type_id":"4","last_reported":1741788550,"current_range_meters":15200,"station_id":"ce4bh2h2rcd13ifvqdh0","pricing_plan_id":"cebpf4jnsgd1na2vs0mg"},{"bike_id":"02ada8bc-2f52-4ae3-96ed-00202f13e7e5","system_id":"levelo_inurba_marseille","lat":43.28267,"lon":5.35076,"is_reserved":false,"is_disabled":false,"rental_uris":{"android":"levelo://app?vid=02ada8bc-2f52-4ae3-96ed-00202f13e7e5","ios":"levelo://app?vid=02ada8bc-2f52-4ae3-96ed-00202f13e7e5"},"vehicle_type_id":"4","last_reported":1741788550,"current_range_meters":15200,"station_id":"ce4bhbp2rcd13ifvqerg","pricing_plan_id":"cebpf4jnsgd1na2vs0mg"},{"bike_id":"207a727b-1250-4b39-a0ae-eb357b3541b9","system_id":"levelo_inurba_marseille","lat":43.29617,"lon":5.37728,"is_reserved":false,"is_disabled":false,"rental_uris":{"android":"levelo://app?vid=207a727b-1250-4b39-a0ae-eb357b3541b9","ios":"levelo://app?vid=207a727b-1250-4b39-a0ae-eb357b3541b9"},"vehicle_type_id":"4","last_reported":1741788550,"current_range_meters":16000,"station_id":"ce4bgi92rcd13ifvqb90","pricing_plan_id":"cebpf4jnsgd1na2vs0mg"},{"bike_id":"d1235ce3-1007-4d2d-9e28-ea39398a63a8","system_id":"levelo_inurba_marseille","lat":43.23193,"lon":5.35559,"is_reserved":false,"is_disabled":false,"rental_uris":{"android":"levelo://app?vid=d1235ce3-1007-4d2d-9e28-ea39398a63a8","ios":"levelo://app?vid=d1235ce3-1007-4d2d-9e28-ea39398a63a8"},"vehicle_type_id":"4","last_reported":1741788550,"current_range_meters":16000,"station_id":"ce4bhu92rcd13ifvqi70","pricing_plan_id":"cebpf4jnsgd1na2vs0mg"},{"bike_id":"0118782e-a9be-4c57-a3c6-f989e8d3b9bf","system_id":"levelo_inurba_marseille","lat":43.24167,"lon":5.39706,"is_reserved":false,"is_disabled":false,"rental_uris":{"android":"levelo://app?vid=0118782e-a9be-4c57-a3c6-f989e8d3b9bf","ios":"levelo://app?vid=0118782e-a9be-4c57-a3c6-f989e8d3b9bf"},"vehicle_type_id":"4","last_reported":1741788550,"current_range_meters":16000,"station_id":"ce4bhn12rcd13ifvqgpg","pricing_plan_id":"cebpf4jnsgd1na2vs0mg"},{"bike_id":"7b8b288a-1263-4bb7-b082-b8cec0e2c2c0","system_id":"levelo_inurba_marseille","lat":43.32682,"lon":5.3918,"is_reserved":false,"is_disabled":false,"rental_uris":{"android":"levelo://app?vid=7b8b288a-1263-4bb7-b082-b8cec0e2c2c0","ios":"levelo://app?vid=7b8b288a-1263-4bb7-b082-b8cec0e2c2c0"},"vehicle_type_id":"4","last_reported":1741788550,"current_range_meters":16000,"station_id":"","pricing_plan_id":"cebpf4jnsgd1na2vs0mg"},{"bike_id":"816588b3-9f81-48c0-999d-6699067e2ab5","system_id":"levelo_inurba_marseille","lat":43.27173,"lon":5.40988,"is_reserved":false,"is_disabled":false,"rental_uris":{"android":"levelo://app?vid=816588b3-9f81-48c0-999d-6699067e2ab5","ios":"levelo://app?vid=816588b3-9f81-48c0-999d-6699067e2ab5"},"vehicle_type_id":"4","last_reported":1741788550,"current_range_meters":15200,"station_id":"ce4bhl12rcd13ifvqgf0","pricing_plan_id":"cebpf4jnsgd1na2vs0mg"},{"bike_id":"ca762409-3e9b-49eb-b311-18b138aaa95f","system_id":"levelo_inurba_marseille","lat":43.33734,"lon":5.39195,"is_reserved":false,"is_disabled":false,"rental_uris":{"android":"levelo://app?vid=ca762409-3e9b-49eb-b311-18b138aaa95f","ios":"levelo://app?vid=ca762409-3e9b-49eb-b311-18b138aaa95f"},"vehicle_type_id":"4","last_reported":1741788550,"current_range_meters":16000,"station_id":"ce4bhr92rcd13ifvqhsg","pricing_plan_id":"cebpf4jnsgd1na2vs0mg"},{"bike_id":"d9ee3502-cee6-470a-9ce5-71f0e0384d68","system_id":"levelo_inurba_marseille","lat":43.2468,"lon":5.38159,"is_reserved":false,"is_disabled":false,"rental_uris":{"android":"levelo://app?vid=d9ee3502-cee6-470a-9ce5-71f0e0384d68","ios":"levelo://app?vid=d9ee3502-cee6-470a-9ce5-71f0e0384d68"},"vehicle_type_id":"4","last_reported":1741788550,"current_range_meters":16400,"station_id":"ce4bhih2rcd13ifvqfr0","pricing_plan_id":"cebpf4jnsgd1na2vs0mg"},{"bike_id":"d4df08b0-e4dd-4c4b-ac7e-66a43d848ae1","system_id":"levelo_inurba_marseille","lat":43.31228,"lon":5.36889,"is_reserved":false,"is_disabled":false,"rental_uris":{"android":"levelo://app?vid=d4df08b0-e4dd-4c4b-ac7e-66a43d848ae1","ios":"levelo://app?vid=d4df08b0-e4dd-4c4b-ac7e-66a43d848ae1"},"vehicle_type_id":"4","last_reported":1741788550,"current_range_meters":16400,"station_id":"ce4bgl92rcd13ifvqbq0","pricing_plan_id":"cebpf4jnsgd1na2vs0mg"},{"bike_id":"e85e7281-8ded-4f9f-9074-cd43c73f5f32","system_id":"levelo_inurba_marseille","lat":43.31305,"lon":5.37299,"is_reserved":false,"is_disabled":false,"rental_uris":{"android":"levelo://app?vid=e85e7281-8ded-4f9f-9074-cd43c73f5f32","ios":"levelo://app?vid=e85e7281-8ded-4f9f-9074-cd43c73f5f32"},"vehicle_type_id":"4","last_reported":1741788550,"current_range_meters":16400,"station_id":"","pricing_plan_id":"cebpf4jnsgd1na2vs0mg"},{"bike_id":"894adb72-eba3-4c31-be33-a34cdb918fbd","system_id":"levelo_inurba_marseille","lat":43.257207,"lon":5.411033,"is_reserved":false,"is_disabled":false,"rental_uris":{"android":"levelo://app?vid=894adb72-eba3-4c31-be33-a34cdb918fbd","ios":"levelo://app?vid=894adb72-eba3-4c31-be33-a34cdb918fbd"},"vehicle_type_id":"4","last_reported":1741788550,"current_range_meters":16400,"station_id":"ce4bhkp2rcd13ifvqgd0","pricing_plan_id":"cebpf4jnsgd1na2vs0mg"},{"bike_id":"a44739fe-6c4a-4d10-b7d6-ed0ad39ea565","system_id":"levelo_inurba_marseille","lat":43.28472,"lon":5.35866,"is_reserved":false,"is_disabled":false,"rental_uris":{"android":"levelo://app?vid=a44739fe-6c4a-4d10-b7d6-ed0ad39ea565","ios":"levelo://app?vid=a44739fe-6c4a-4d10-b7d6-ed0ad39ea565"},"vehicle_type_id":"4","last_reported":1741788550,"current_range_meters":16400,"station_id":"ce4bhah2rcd13ifvqei0","pricing_plan_id":"cebpf4jnsgd1na2vs0mg"},{"bike_id":"87bce613-c6ab-4578-8d5c-6a242500e7d0","system_id":"levelo_inurba_marseille","lat":43.25,"lon":5.38928,"is_reserved":false,"is_disabled":false,"rental_uris":{"android":"levelo://app?vid=87bce613-c6ab-4578-8d5c-6a242500e7d0","ios":"levelo://app?vid=87bce613-c6ab-4578-8d5c-6a242500e7d0"},"vehicle_type_id":"4","last_reported":1741788550,"current_range_meters":16800,"station_id":"ce4bhgp2rcd13ifvqfd0","pricing_plan_id":"cebpf4jnsgd1na2vs0mg"},{"bike_id":"de644c55-b60a-4283-89bd-eecd0a3f2570","system_id":"levelo_inurba_marseille","lat":43.2961,"lon":5.38108,"is_reserved":false,"is_disabled":false,"rental_uris":{"android":"levelo://app?vid=de644c55-b60a-4283-89bd-eecd0a3f2570","ios":"levelo://app?vid=de644c55-b60a-4283-89bd-eecd0a3f2570"},"vehicle_type_id":"4","last_reported":1741788550,"current_range_meters":16400,"station_id":"ce4bgl12rcd13ifvqbo0","pricing_plan_id":"cebpf4jnsgd1na2vs0mg"},{"bike_id":"c2fc0f9a-56ca-4509-8e2d-54b6b468cd50","system_id":"levelo_inurba_marseille","lat":43.23165,"lon":5.43715,"is_reserved":false,"is_disabled":false,"rental_uris":{"android":"levelo://app?vid=c2fc0f9a-56ca-4509-8e2d-54b6b468cd50","ios":"levelo://app?vid=c2fc0f9a-56ca-4509-8e2d-54b6b468cd50"},"vehicle_type_id":"4","last_reported":1741788550,"current_range_meters":16800,"station_id":"ce4bhmp2rcd13ifvqgog","pricing_plan_id":"cebpf4jnsgd1na2vs0mg"},{"bike_id":"94b30f95-19e8-4b24-809a-d279976d82ea","system_id":"levelo_inurba_marseille","lat":43.31379,"lon":5.39649,"is_reserved":false,"is_disabled":false,"rental_uris":{"android":"levelo://app?vid=94b30f95-19e8-4b24-809a-d279976d82ea","ios":"levelo://app?vid=94b30f95-19e8-4b24-809a-d279976d82ea"},"vehicle_type_id":"4","last_reported":1741788550,"current_range_meters":16800,"station_id":"","pricing_plan_id":"cebpf4jnsgd1na2vs0mg"},{"bike_id":"66ba7575-76ba-4d69-b947-c894fd7c8dd1","system_id":"levelo_inurba_marseille","lat":43.29228,"lon":5.40083,"is_reserved":false,"is_disabled":false,"rental_uris":{"android":"levelo://app?vid=66ba7575-76ba-4d69-b947-c894fd7c8dd1","ios":"levelo://app?vid=66ba7575-76ba-4d69-b947-c894fd7c8dd1"},"vehicle_type_id":"4","last_reported":1741788550,"current_range_meters":16800,"station_id":"ce4bh312rcd13ifvqdk0","pricing_plan_id":"cebpf4jnsgd1na2vs0mg"},{"bike_id":"4d2aa3b9-227a-4ede-a47f-9e7e271a7289","system_id":"levelo_inurba_marseille","lat":43.24683,"lon":5.38165,"is_reserved":false,"is_disabled":false,"rental_uris":{"android":"levelo://app?vid=4d2aa3b9-227a-4ede-a47f-9e7e271a7289","ios":"levelo://app?vid=4d2aa3b9-227a-4ede-a47f-9e7e271a7289"},"vehicle_type_id":"4","last_reported":1741788550,"current_range_meters":16800,"station_id":"ce4bhih2rcd13ifvqfr0","pricing_plan_id":"cebpf4jnsgd1na2vs0mg"},{"bike_id":"ae7fc1ea-84cd-4b37-95fa-39065213291a","system_id":"levelo_inurba_marseille","lat":43.2846,"lon":5.35891,"is_reserved":false,"is_disabled":false,"rental_uris":{"android":"levelo://app?vid=ae7fc1ea-84cd-4b37-95fa-39065213291a","ios":"levelo://app?vid=ae7fc1ea-84cd-4b37-95fa-39065213291a"},"vehicle_type_id":"4","last_reported":1741788550,"current_range_meters":16800,"station_id":"ce4bhah2rcd13ifvqei0","pricing_plan_id":"cebpf4jnsgd1na2vs0mg"},{"bike_id":"bd619a36-f1d3-4aef-bc4e-de195403abb2","system_id":"levelo_inurba_marseille","lat":43.29961,"lon":5.4133,"is_reserved":false,"is_disabled":true,"rental_uris":{"android":"levelo://app?vid=bd619a36-f1d3-4aef-bc4e-de195403abb2","ios":"levelo://app?vid=bd619a36-f1d3-4aef-bc4e-de195403abb2"},"vehicle_type_id":"4","last_reported":1741788550,"current_range_meters":16800,"station_id":"ce4bhp12rcd13ifvqh9g","pricing_plan_id":"cebpf4jnsgd1na2vs0mg"},{"bike_id":"0f926ef9-96ea-4a63-8c84-e5e414ac45a4","system_id":"levelo_inurba_marseille","lat":43.2985,"lon":5.36289,"is_reserved":false,"is_disabled":false,"rental_uris":{"android":"levelo://app?vid=0f926ef9-96ea-4a63-8c84-e5e414ac45a4","ios":"levelo://app?vid=0f926ef9-96ea-4a63-8c84-e5e414ac45a4"},"vehicle_type_id":"4","last_reported":1741788550,"current_range_meters":16800,"station_id":"ce4bgpp2rcd13ifvqc3g","pricing_plan_id":"cebpf4jnsgd1na2vs0mg"},{"bike_id":"f550acae-a478-493d-8418-eb4ab17dc323","system_id":"levelo_inurba_marseille","lat":43.25007,"lon":5.38913,"is_reserved":false,"is_disabled":false,"rental_uris":{"android":"levelo://app?vid=f550acae-a478-493d-8418-eb4ab17dc323","ios":"levelo://app?vid=f550acae-a478-493d-8418-eb4ab17dc323"},"vehicle_type_id":"4","last_reported":1741788550,"current_range_meters":16800,"station_id":"ce4bhgp2rcd13ifvqfd0","pricing_plan_id":"cebpf4jnsgd1na2vs0mg"},{"bike_id":"e67d1650-2873-44a6-9fac-3cc10b5607c6","system_id":"levelo_inurba_marseille","lat":43.31487,"lon":5.37298,"is_reserved":false,"is_disabled":false,"rental_uris":{"android":"levelo://app?vid=e67d1650-2873-44a6-9fac-3cc10b5607c6","ios":"levelo://app?vid=e67d1650-2873-44a6-9fac-3cc10b5607c6"},"vehicle_type_id":"4","last_reported":1741788550,"current_range_meters":16800,"station_id":"ce4bgt12rcd13ifvqcd0","pricing_plan_id":"cebpf4jnsgd1na2vs0mg"},{"bike_id":"a823fe98-0845-44f0-af70-a3e75e70ed04","system_id":"levelo_inurba_marseille","lat":43.2502,"lon":5.38919,"is_reserved":false,"is_disabled":false,"rental_uris":{"android":"levelo://app?vid=a823fe98-0845-44f0-af70-a3e75e70ed04","ios":"levelo://app?vid=a823fe98-0845-44f0-af70-a3e75e70ed04"},"vehicle_type_id":"4","last_reported":1741788550,"current_range_meters":17200,"station_id":"ce4bhgp2rcd13ifvqfd0","pricing_plan_id":"cebpf4jnsgd1na2vs0mg"},{"bike_id":"c50d7408-c6e5-43d8-a4d9-22a10170cd8d","system_id":"levelo_inurba_marseille","lat":43.28934,"lon":5.36645,"is_reserved":false,"is_disabled":false,"rental_uris":{"android":"levelo://app?vid=c50d7408-c6e5-43d8-a4d9-22a10170cd8d","ios":"levelo://app?vid=c50d7408-c6e5-43d8-a4d9-22a10170cd8d"},"vehicle_type_id":"4","last_reported":1741788550,"current_range_meters":17200,"station_id":"ce4bhap2rcd13ifvqek0","pricing_plan_id":"cebpf4jnsgd1na2vs0mg"},{"bike_id":"e215f50d-edda-44ce-bf9c-14ab9e49ca11","system_id":"levelo_inurba_marseille","lat":43.25716,"lon":5.41111,"is_reserved":false,"is_disabled":false,"rental_uris":{"android":"levelo://app?vid=e215f50d-edda-44ce-bf9c-14ab9e49ca11","ios":"levelo://app?vid=e215f50d-edda-44ce-bf9c-14ab9e49ca11"},"vehicle_type_id":"4","last_reported":1741788550,"current_range_meters":17200,"station_id":"ce4bhkp2rcd13ifvqgd0","pricing_plan_id":"cebpf4jnsgd1na2vs0mg"},{"bike_id":"e403288d-b468-4ea8-b33d-644efb4c82c2","system_id":"levelo_inurba_marseille","lat":43.27815,"lon":5.40735,"is_reserved":false,"is_disabled":false,"rental_uris":{"android":"levelo://app?vid=e403288d-b468-4ea8-b33d-644efb4c82c2","ios":"levelo://app?vid=e403288d-b468-4ea8-b33d-644efb4c82c2"},"vehicle_type_id":"4","last_reported":1741788550,"current_range_meters":17200,"station_id":"ce4bhnh2rcd13ifvqgtg","pricing_plan_id":"cebpf4jnsgd1na2vs0mg"},{"bike_id":"29b6a1fd-8662-4bab-a22a-4c8328ae50f3","system_id":"levelo_inurba_marseille","lat":43.30305,"lon":5.36883,"is_reserved":false,"is_disabled":false,"rental_uris":{"android":"levelo://app?vid=29b6a1fd-8662-4bab-a22a-4c8328ae50f3","ios":"levelo://app?vid=29b6a1fd-8662-4bab-a22a-4c8328ae50f3"},"vehicle_type_id":"4","last_reported":1741788550,"current_range_meters":17200,"station_id":"ce4bgqh2rcd13ifvqc5g","pricing_plan_id":"cebpf4jnsgd1na2vs0mg"},{"bike_id":"8abb5198-5755-4fd7-856b-7d54650255e3","system_id":"levelo_inurba_marseille","lat":43.31364,"lon":5.38488,"is_reserved":false,"is_disabled":false,"rental_uris":{"android":"levelo://app?vid=8abb5198-5755-4fd7-856b-7d54650255e3","ios":"levelo://app?vid=8abb5198-5755-4fd7-856b-7d54650255e3"},"vehicle_type_id":"4","last_reported":1741788550,"current_range_meters":17200,"station_id":"ce4bgt92rcd13ifvqcf0","pricing_plan_id":"cebpf4jnsgd1na2vs0mg"},{"bike_id":"512d0371-271e-4d72-8343-3471dd083230","system_id":"levelo_inurba_marseille","lat":43.2657,"lon":5.3901,"is_reserved":false,"is_disabled":false,"rental_uris":{"android":"levelo://app?vid=512d0371-271e-4d72-8343-3471dd083230","ios":"levelo://app?vid=512d0371-271e-4d72-8343-3471dd083230"},"vehicle_type_id":"4","last_reported":1741788550,"current_range_meters":17200,"station_id":"ce4bhe12rcd13ifvqf30","pricing_plan_id":"cebpf4jnsgd1na2vs0mg"},{"bike_id":"9a593208-0517-4093-9518-5f409cd25782","system_id":"levelo_inurba_marseille","lat":43.26684,"lon":5.38274,"is_reserved":false,"is_disabled":false,"rental_uris":{"android":"levelo://app?vid=9a593208-0517-4093-9518-5f409cd25782","ios":"levelo://app?vid=9a593208-0517-4093-9518-5f409cd25782"},"vehicle_type_id":"4","last_reported":1741788550,"current_range_meters":17200,"station_id":"ce4bhg92rcd13ifvqf90","pricing_plan_id":"cebpf4jnsgd1na2vs0mg"},{"bike_id":"499a491a-770b-47e1-9931-99b73485a520","system_id":"levelo_inurba_marseille","lat":43.2928,"lon":5.36847,"is_reserved":false,"is_disabled":false,"rental_uris":{"android":"levelo://app?vid=499a491a-770b-47e1-9931-99b73485a520","ios":"levelo://app?vid=499a491a-770b-47e1-9931-99b73485a520"},"vehicle_type_id":"4","last_reported":1741788550,"current_range_meters":17200,"station_id":"ce4bhbp2rcd13ifvqesg","pricing_plan_id":"cebpf4jnsgd1na2vs0mg"},{"bike_id":"0083ec0c-d199-40f8-88a9-24ed7f8d1938","system_id":"levelo_inurba_marseille","lat":43.28451,"lon":5.39198,"is_reserved":false,"is_disabled":false,"rental_uris":{"android":"levelo://app?vid=0083ec0c-d199-40f8-88a9-24ed7f8d1938","ios":"levelo://app?vid=0083ec0c-d199-40f8-88a9-24ed7f8d1938"},"vehicle_type_id":"4","last_reported":1741788550,"current_range_meters":17600,"station_id":"ce4bhoh2rcd13ifvqh5g","pricing_plan_id":"cebpf4jnsgd1na2vs0mg"},{"bike_id":"5d059a24-9b2d-4c0f-bf86-25529400725b","system_id":"levelo_inurba_marseille","lat":43.25018,"lon":5.38915,"is_reserved":false,"is_disabled":false,"rental_uris":{"android":"levelo://app?vid=5d059a24-9b2d-4c0f-bf86-25529400725b","ios":"levelo://app?vid=5d059a24-9b2d-4c0f-bf86-25529400725b"},"vehicle_type_id":"4","last_reported":1741788550,"current_range_meters":17600,"station_id":"ce4bhgp2rcd13ifvqfd0","pricing_plan_id":"cebpf4jnsgd1na2vs0mg"},{"bike_id":"03d86cf5-22a1-44db-b2ad-b2beff6203bd","system_id":"levelo_inurba_marseille","lat":43.30318,"lon":5.36903,"is_reserved":false,"is_disabled":false,"rental_uris":{"android":"levelo://app?vid=03d86cf5-22a1-44db-b2ad-b2beff6203bd","ios":"levelo://app?vid=03d86cf5-22a1-44db-b2ad-b2beff6203bd"},"vehicle_type_id":"4","last_reported":1741788550,"current_range_meters":17600,"station_id":"ce4bgqh2rcd13ifvqc5g","pricing_plan_id":"cebpf4jnsgd1na2vs0mg"},{"bike_id":"86ebc50f-8e86-4efe-a91d-10f95a308ea3","system_id":"levelo_inurba_marseille","lat":43.30887,"lon":5.39656,"is_reserved":false,"is_disabled":false,"rental_uris":{"android":"levelo://app?vid=86ebc50f-8e86-4efe-a91d-10f95a308ea3","ios":"levelo://app?vid=86ebc50f-8e86-4efe-a91d-10f95a308ea3"},"vehicle_type_id":"4","last_reported":1741788550,"current_range_meters":17600,"station_id":"ce4bh012rcd13ifvqcv0","pricing_plan_id":"cebpf4jnsgd1na2vs0mg"},{"bike_id":"997fab39-4f27-4047-ac11-cd55b275f2f3","system_id":"levelo_inurba_marseille","lat":43.26504,"lon":5.39538,"is_reserved":false,"is_disabled":false,"rental_uris":{"android":"levelo://app?vid=997fab39-4f27-4047-ac11-cd55b275f2f3","ios":"levelo://app?vid=997fab39-4f27-4047-ac11-cd55b275f2f3"},"vehicle_type_id":"4","last_reported":1741788550,"current_range_meters":17200,"station_id":"ce4bhi12rcd13ifvqfq0","pricing_plan_id":"cebpf4jnsgd1na2vs0mg"},{"bike_id":"a44a3aad-0870-4e05-b6c2-b2bbe679ecf5","system_id":"levelo_inurba_marseille","lat":43.30312,"lon":5.36879,"is_reserved":false,"is_disabled":false,"rental_uris":{"android":"levelo://app?vid=a44a3aad-0870-4e05-b6c2-b2bbe679ecf5","ios":"levelo://app?vid=a44a3aad-0870-4e05-b6c2-b2bbe679ecf5"},"vehicle_type_id":"4","last_reported":1741788550,"current_range_meters":17600,"station_id":"ce4bgqh2rcd13ifvqc5g","pricing_plan_id":"cebpf4jnsgd1na2vs0mg"},{"bike_id":"45a13d77-f108-43b1-81fe-df5d5ab8ad87","system_id":"levelo_inurba_marseille","lat":43.29847,"lon":5.36267,"is_reserved":false,"is_disabled":false,"rental_uris":{"android":"levelo://app?vid=45a13d77-f108-43b1-81fe-df5d5ab8ad87","ios":"levelo://app?vid=45a13d77-f108-43b1-81fe-df5d5ab8ad87"},