{"last_updated":1729361419,"ttl":60,"version":"2.2","data":{"bikes":[{"bike_id":"d5a816cc-3984-4eab-9f7d-2efa9e7bf5fb","system_id":"levelo_inurba_marseille","lat":43.318872,"lon":5.407411,"is_reserved":false,"is_disabled":false,"rental_uris":{"android":"levelo://app?vid=d5a816cc-3984-4eab-9f7d-2efa9e7bf5fb","ios":"levelo://app?vid=d5a816cc-3984-4eab-9f7d-2efa9e7bf5fb"},"vehicle_type_id":"4","last_reported":1729361419,"current_range_meters":3600,"station_id":"ce4bhq12rcd13ifvqhig","pricing_plan_id":"cebpf4jnsgd1na2vs0mg"},{"bike_id":"607f2cb9-1be2-423c-8012-822c83ccc693","system_id":"levelo_inurba_marseille","lat":43.29279,"lon":5.40116,"is_reserved":false,"is_disabled":false,"rental_uris":{"android":"levelo://app?vid=607f2cb9-1be2-423c-8012-822c83ccc693","ios":"levelo://app?vid=607f2cb9-1be2-423c-8012-822c83ccc693"},"vehicle_type_id":"4","last_reported":1729361419,"current_range_meters":8400,"station_id":"ce4bh312rcd13ifvqdk0","pricing_plan_id":"cebpf4jnsgd1na2vs0mg"},{"bike_id":"a9e6f1a4-fd47-42bf-8ce8-d5ea1833ee29","system_id":"levelo_inurba_marseille","lat":43.30448,"lon":5.38891,"is_reserved":false,"is_disabled":false,"rental_uris":{"android":"levelo://app?vid=a9e6f1a4-fd47-42bf-8ce8-d5ea1833ee29","ios":"levelo://app?vid=a9e6f1a4-fd47-42bf-8ce8-d5ea1833ee29"},"vehicle_type_id":"4","last_reported":1729361419,"current_range_meters":36000,"station_id":"ce4bgk12rcd13ifvqbi0","pricing_plan_id":"cebpf4jnsgd1na2vs0mg"},{"bike_id":"2c81aa85-9276-46d6-99d4-d8e7b1c0f7d3","system_id":"levelo_inurba_marseille","lat":43.29975,"lon":5.37178,"is_reserved":false,"is_disabled":false,"rental_uris":{"android":"levelo://app?vid=2c81aa85-9276-46d6-99d4-d8e7b1c0f7d3","ios":"levelo://app?vid=2c81aa85-9276-46d6-99d4-d8e7b1c0f7d3"},"vehicle_type_id":"4","last_reported":1729361419,"current_range_meters":38000,"station_id":"ce4bgr92rcd13ifvqc7g","pricing_plan_id":"cebpf4jnsgd1na2vs0mg"},{"bike_id":"114f5292-1027-47f8-b9e0-d7058fba80d5","system_id":"levelo_inurba_marseille","lat":43.302608,"lon":5.400829,"is_reserved":false,"is_disabled":false,"rental_uris":{"android":"levelo://app?vid=114f5292-1027-47f8-b9e0-d7058fba80d5","ios":"levelo://app?vid=114f5292-1027-47f8-b9e0-d7058fba80d5"},"vehicle_type_id":"4","last_reported":1729361419,"current_range_meters":24400,"station_id":"ce4bgvh2rcd13ifvqcs0","pricing_plan_id":"cebpf4jnsgd1na2vs0mg"},{"bike_id":"e0879c3f-10eb-4d3b-8053-605cb1c6310c","system_id":"levelo_inurba_marseille","lat":43.26068,"lon":5.39395,"is_reserved":false,"is_disabled":false,"rental_uris":{"android":"levelo://app?vid=e0879c3f-10eb-4d3b-8053-605cb1c6310c","ios":"levelo://app?vid=e0879c3f-10eb-4d3b-8053-605cb1c6310c"},"vehicle_type_id":"4","last_reported":1729361419,"current_range_meters":25600,"station_id":"ce4bhh92rcd13ifvqfj0","pricing_plan_id":"cebpf4jnsgd1na2vs0mg"},{"bike_id":"a8d2cfa4-d275-47c6-84f3-c214a2d8d7b4","system_id":"levelo_inurba_marseille","lat":43.314847,"lon":5.373117,"is_reserved":false,"is_disabled":false,"rental_uris":{"android":"levelo://app?vid=a8d2cfa4-d275-47c6-84f3-c214a2d8d7b4","ios":"levelo://app?vid=a8d2cfa4-d275-47c6-84f3-c214a2d8d7b4"},"vehicle_type_id":"4","last_reported":1729361419,"current_range_meters":38800,"station_id":"ce4bgt12rcd13ifvqcd0","pricing_plan_id":"cebpf4jnsgd1na2vs0mg"},{"bike_id":"2f13f52a-6108-4973-bfc2-cfe742f2b921","system_id":"levelo_inurba_marseille","lat":43.23964,"lon":5.36631,"is_reserved":false,"is_disabled":false,"rental_uris":{"android":"levelo://app?vid=2f13f52a-6108-4973-bfc2-cfe742f2b921","ios":"levelo://app?vid=2f13f52a-6108-4973-bfc2-cfe742f2b921"},"vehicle_type_id":"4","last_reported":1729361419,"current_range_meters":31200,"station_id":"ce4bhi12rcd13ifvqfp0","pricing_plan_id":"cebpf4jnsgd1na2vs0mg"},{"bike_id":"86a0be69-9901-4a51-9030-b73c1975f365","system_id":"levelo_inurba_marseille","lat":43.30416,"lon":5.41279,"is_reserved":false,"is_disabled":false,"rental_uris":{"android":"levelo://app?vid=86a0be69-9901-4a51-9030-b73c1975f365","ios":"levelo://app?vid=86a0be69-9901-4a51-9030-b73c1975f365"},"vehicle_type_id":"4","last_reported":1729361419,"current_range_meters":20000,"station_id":"ce4bhop2rcd13ifvqh8g","pricing_plan_id":"cebpf4jnsgd1na2vs0mg"},{"bike_id":"28725b73-d7fe-4862-97ae-230d0eddb948","system_id":"levelo_inurba_marseille","lat":43.31494,"lon":5.37314,"is_reserved":false,"is_disabled":false,"rental_uris":{"android":"levelo://app?vid=28725b73-d7fe-4862-97ae-230d0eddb948","ios":"levelo://app?vid=28725b73-d7fe-4862-97ae-230d0eddb948"},"vehicle_type_id":"4","last_reported":1729361419,"current_range_meters":16400,"station_id":"ce4bgt12rcd13ifvqcd0","pricing_plan_id":"cebpf4jnsgd1na2vs0mg"},{"bike_id":"474ccd54-d884-4c48-ac27-1f7190ae4438","system_id":"levelo_inurba_marseille","lat":43.33723,"lon":5.39199,"is_reserved":false,"is_disabled":false,"rental_uris":{"android":"levelo://app?vid=474ccd54-d884-4c48-ac27-1f7190ae4438","ios":"levelo://app?vid=474ccd54-d884-4c48-ac27-1f7190ae4438"},"vehicle_type_id":"4","last_reported":1729361419,"current_range_meters":11200,"station_id":"ce4bhr92rcd13ifvqhsg","pricing_plan_id":"cebpf4jnsgd1na2vs0mg"},{"bike_id":"17c699e0-fe27-4c4f-84e3-9f729350ab2e","system_id":"levelo_inurba_marseille","lat":43.29709,"lon":5.36616,"is_reserved":false,"is_disabled":false,"rental_uris":{"android":"levelo://app?vid=17c699e0-fe27-4c4f-84e3-9f729350ab2e","ios":"levelo://app?vid=17c699e0-fe27-4c4f-84e3-9f729350ab2e"},"vehicle_type_id":"4","last_reported":1729361419,"current_range_meters":18000,"station_id":"ce4bgn12rcd13ifvqbt0","pricing_plan_id":"cebpf4jnsgd1na2vs0mg"},{"bike_id":"760c49f5-20fe-4a12-800f-11e8602a9326","system_id":"levelo_inurba_marseille","lat":43.30946,"lon":5.39026,"is_reserved":false,"is_disabled":false,"rental_uris":{"android":"levelo://app?vid=760c49f5-20fe-4a12-800f-11e8602a9326","ios":"levelo://app?vid=760c49f5-20fe-4a12-800f-11e8602a9326"},"vehicle_type_id":"4","last_reported":1729361419,"current_range_meters":17600,"station_id":"ce4bgup2rcd13ifvqco0","pricing_plan_id":"cebpf4jnsgd1na2vs0mg"},{"bike_id":"276a98fe-7af5-451f-8254-68fb505ba623","system_id":"levelo_inurba_marseille","lat":43.296792,"lon":5.372862,"is_reserved":false,"is_disabled":false,"rental_uris":{"android":"levelo://app?vid=276a98fe-7af5-451f-8254-68fb505ba623","ios":"levelo://app?vid=276a98fe-7af5-451f-8254-68fb505ba623"},"vehicle_type_id":"4","last_reported":1729361419,"current_range_meters":10800,"station_id":"ce4bgk12rcd13ifvqbj0","pricing_plan_id":"cebpf4jnsgd1na2vs0mg"},{"bike_id":"2c62fdfc-8b6e-4473-872c-e8731c889e1a","system_id":"levelo_inurba_marseille","lat":43.29098,"lon":5.38123,"is_reserved":false,"is_disabled":false,"rental_uris":{"android":"levelo://app?vid=2c62fdfc-8b6e-4473-872c-e8731c889e1a","ios":"levelo://app?vid=2c62fdfc-8b6e-4473-872c-e8731c889e1a"},"vehicle_type_id":"4","last_reported":1729361419,"current_range_meters":9600,"station_id":"ce4bh512rcd13ifvqe2g","pricing_plan_id":"cebpf4jnsgd1na2vs0mg"},{"bike_id":"9076ac2c-b296-421e-ba17-5165ca432cce","system_id":"levelo_inurba_marseille","lat":43.28077,"lon":5.39662,"is_reserved":false,"is_disabled":false,"rental_uris":{"android":"levelo://app?vid=9076ac2c-b296-421e-ba17-5165ca432cce","ios":"levelo://app?vid=9076ac2c-b296-421e-ba17-5165ca432cce"},"vehicle_type_id":"4","last_reported":1729361419,"current_range_meters":35200,"station_id":"ce4bho12rcd13ifvqh2g","pricing_plan_id":"cebpf4jnsgd1na2vs0mg"},{"bike_id":"d3d055a7-f817-451e-acb1-ff2314ac0b93","system_id":"levelo_inurba_marseille","lat":43.28467,"lon":5.35891,"is_reserved":false,"is_disabled":false,"rental_uris":{"android":"levelo://app?vid=d3d055a7-f817-451e-acb1-ff2314ac0b93","ios":"levelo://app?vid=d3d055a7-f817-451e-acb1-ff2314ac0b93"},"vehicle_type_id":"4","last_reported":1729361419,"current_range_meters":0,"station_id":"ce4bhah2rcd13ifvqei0","pricing_plan_id":"cebpf4jnsgd1na2vs0mg"},{"bike_id":"f49477b5-198c-4514-b96d-0faba5fa1f9a","system_id":"levelo_inurba_marseille","lat":43.24179,"lon":5.39732,"is_reserved":false,"is_disabled":false,"rental_uris":{"android":"levelo://app?vid=f49477b5-198c-4514-b96d-0faba5fa1f9a","ios":"levelo://app?vid=f49477b5-198c-4514-b96d-0faba5fa1f9a"},"vehicle_type_id":"4","last_reported":1729361419,"current_range_meters":7200,"station_id":"ce4bhn12rcd13ifvqgpg","pricing_plan_id":"cebpf4jnsgd1na2vs0mg"},{"bike_id":"fc6e513b-da81-4d34-a427-493e42edd768","system_id":"levelo_inurba_marseille","lat":43.2954,"lon":5.39244,"is_reserved":false,"is_disabled":false,"rental_uris":{"android":"levelo://app?vid=fc6e513b-da81-4d34-a427-493e42edd768","ios":"levelo://app?vid=fc6e513b-da81-4d34-a427-493e42edd768"},"vehicle_type_id":"4","last_reported":1729361419,"current_range_meters":20400,"station_id":"","pricing_plan_id":"cebpf4jnsgd1na2vs0mg"},{"bike_id":"9771420a-a495-46be-a5a5-cf566bef5070","system_id":"levelo_inurba_marseille","lat":43.322927,"lon":5.382574,"is_reserved":false,"is_disabled":false,"rental_uris":{"android":"levelo://app?vid=9771420a-a495-46be-a5a5-cf566bef5070","ios":"levelo://app?vid=9771420a-a495-46be-a5a5-cf566bef5070"},"vehicle_type_id":"4","last_reported":1729361419,"current_range_meters":10000,"station_id":"ce4bhr12rcd13ifvqhqg","pricing_plan_id":"cebpf4jnsgd1na2vs0mg"},{"bike_id":"ecb85f99-17b9-4bf1-829c-0f61a2cf1ee6","system_id":"levelo_inurba_marseille","lat":43.2798,"lon":5.4169,"is_reserved":false,"is_disabled":false,"rental_uris":{"android":"levelo://app?vid=ecb85f99-17b9-4bf1-829c-0f61a2cf1ee6","ios":"levelo://app?vid=ecb85f99-17b9-4bf1-829c-0f61a2cf1ee6"},"vehicle_type_id":"4","last_reported":1729361419,"current_range_meters":16000,"station_id":"ce4bho12rcd13ifvqh1g","pricing_plan_id":"cebpf4jnsgd1na2vs0mg"},{"bike_id":"3b859452-15ff-46e8-8748-34d41e682c4e","system_id":"levelo_inurba_marseille","lat":43.311047,"lon":5.37827,"is_reserved":false,"is_disabled":false,"rental_uris":{"android":"levelo://app?vid=3b859452-15ff-46e8-8748-34d41e682c4e","ios":"levelo://app?vid=3b859452-15ff-46e8-8748-34d41e682c4e"},"vehicle_type_id":"4","last_reported":1729361419,"current_range_meters":24000,"station_id":"ce4bgt92rcd13ifvqcg0","pricing_plan_id":"cebpf4jnsgd1na2vs0mg"},{"bike_id":"57dd0012-e7c2-43e3-90a1-087125ac63fa","system_id":"levelo_inurba_marseille","lat":43.33753,"lon":5.37454,"is_reserved":false,"is_disabled":false,"rental_uris":{"android":"levelo://app?vid=57dd0012-e7c2-43e3-90a1-087125ac63fa","ios":"levelo://app?vid=57dd0012-e7c2-43e3-90a1-087125ac63fa"},"vehicle_type_id":"4","last_reported":1729361419,"current_range_meters":38800,"station_id":"","pricing_plan_id":"cebpf4jnsgd1na2vs0mg"},{"bike_id":"e05bf8cc-1098-4d1f-abc4-e65a1f6d6475","system_id":"levelo_inurba_marseille","lat":43.27073,"lon":5.42283,"is_reserved":false,"is_disabled":false,"rental_uris":{"android":"levelo://app?vid=e05bf8cc-1098-4d1f-abc4-e65a1f6d6475","ios":"levelo://app?vid=e05bf8cc-1098-4d1f-abc4-e65a1f6d6475"},"vehicle_type_id":"4","last_reported":1729361419,"current_range_meters":24000,"station_id":"ce4bhk92rcd13ifvqgb0","pricing_plan_id":"cebpf4jnsgd1na2vs0mg"},{"bike_id":"2ec9a1ca-493a-4bed-9351-789182640735","system_id":"levelo_inurba_marseille","lat":43.26776,"lon":5.39416,"is_reserved":false,"is_disabled":false,"rental_uris":{"android":"levelo://app?vid=2ec9a1ca-493a-4bed-9351-789182640735","ios":"levelo://app?vid=2ec9a1ca-493a-4bed-9351-789182640735"},"vehicle_type_id":"4","last_reported":1729361419,"current_range_meters":0,"station_id":"ce4bhh12rcd13ifvqfg0","pricing_plan_id":"cebpf4jnsgd1na2vs0mg"},{"bike_id":"767e812c-2ede-4e41-80b4-1f079c096513","system_id":"levelo_inurba_marseille","lat":43.30303,"lon":5.37707,"is_reserved":false,"is_disabled":false,"rental_uris":{"android":"levelo://app?vid=767e812c-2ede-4e41-80b4-1f079c096513","ios":"levelo://app?vid=767e812c-2ede-4e41-80b4-1f079c096513"},"vehicle_type_id":"4","last_reported":1729361419,"current_range_meters":33200,"station_id":"ce4bguh2rcd13ifvqcj0","pricing_plan_id":"cebpf4jnsgd1na2vs0mg"},{"bike_id":"231ef652-c859-462b-9e40-a1c2c57bdf24","system_id":"levelo_inurba_marseille","lat":43.27813,"lon":5.4071,"is_reserved":false,"is_disabled":false,"rental_uris":{"android":"levelo://app?vid=231ef652-c859-462b-9e40-a1c2c57bdf24","ios":"levelo://app?vid=231ef652-c859-462b-9e40-a1c2c57bdf24"},"vehicle_type_id":"4","last_reported":1729361419,"current_range_meters":24800,"station_id":"ce4bhnh2rcd13ifvqgtg","pricing_plan_id":"cebpf4jnsgd1na2vs0mg"},{"bike_id":"228e369e-c282-4594-bb9c-3f55e96624ce","system_id":"levelo_inurba_marseille","lat":43.27498,"lon":5.42453,"is_reserved":false,"is_disabled":false,"rental_uris":{"android":"levelo://app?vid=228e369e-c282-4594-bb9c-3f55e96624ce","ios":"levelo://app?vid=228e369e-c282-4594-bb9c-3f55e96624ce"},"vehicle_type_id":"4","last_reported":1729361419,"current_range_meters":18800,"station_id":"ce4bhn92rcd13ifvqgrg","pricing_plan_id":"cebpf4jnsgd1na2vs0mg"},{"bike_id":"a4954706-636e-4bd4-b3fc-8edafaaa98d3","system_id":"levelo_inurba_marseille","lat":43.31362,"lon":5.36698,"is_reserved":false,"is_disabled":false,"rental_uris":{"android":"levelo://app?vid=a4954706-636e-4bd4-b3fc-8edafaaa98d3","ios":"levelo://app?vid=a4954706-636e-4bd4-b3fc-8edafaaa98d3"},"vehicle_type_id":"4","last_reported":1729361419,"current_range_meters":38800,"station_id":"ce4bgr92rcd13ifvqc6g","pricing_plan_id":"cebpf4jnsgd1na2vs0mg"},{"bike_id":"62bde3ed-cfe2-45eb-b684-177d32361216","system_id":"levelo_inurba_marseille","lat":43.27059,"lon":5.40263,"is_reserved":false,"is_disabled":false,"rental_uris":{"android":"levelo://app?vid=62bde3ed-cfe2-45eb-b684-177d32361216","ios":"levelo://app?vid=62bde3ed-cfe2-45eb-b684-177d32361216"},"vehicle_type_id":"4","last_reported":1729361419,"current_range_meters":20400,"station_id":"ce4bhk92rcd13ifvqgc0","pricing_plan_id":"cebpf4jnsgd1na2vs0mg"},{"bike_id":"943fe15c-327c-4f14-b985-534cf8a2a2e2","system_id":"levelo_inurba_marseille","lat":43.33752,"lon":5.3745,"is_reserved":false,"is_disabled":false,"rental_uris":{"android":"levelo://app?vid=943fe15c-327c-4f14-b985-534cf8a2a2e2","ios":"levelo://app?vid=943fe15c-327c-4f14-b985-534cf8a2a2e2"},"vehicle_type_id":"4","last_reported":1729361419,"current_range_meters":2000,"station_id":"","pricing_plan_id":"cebpf4jnsgd1na2vs0mg"},{"bike_id":"e8e7f97f-a223-46f2-b408-b86c61a8c386","system_id":"levelo_inurba_marseille","lat":43.292755,"lon":5.401194,"is_reserved":false,"is_disabled":false,"rental_uris":{"android":"levelo://app?vid=e8e7f97f-a223-46f2-b408-b86c61a8c386","ios":"levelo://app?vid=e8e7f97f-a223-46f2-b408-b86c61a8c386"},"vehicle_type_id":"4","last_reported":1729361419,"current_range_meters":28400,"station_id":"ce4bh312rcd13ifvqdk0","pricing_plan_id":"cebpf4jnsgd1na2vs0mg"},{"bike_id":"f93f0099-6620-4112-a968-cafcbf15c9ee","system_id":"levelo_inurba_marseille","lat":43.25499,"lon":5.37653,"is_reserved":false,"is_disabled":false,"rental_uris":{"android":"levelo://app?vid=f93f0099-6620-4112-a968-cafcbf15c9ee","ios":"levelo://app?vid=f93f0099-6620-4112-a968-cafcbf15c9ee"},"vehicle_type_id":"4","last_reported":1729361419,"current_range_meters":17600,"station_id":"ce4bhh12rcd13ifvqff0","pricing_plan_id":"cebpf4jnsgd1na2vs0mg"},{"bike_id":"319e285c-82b5-439b-a7b4-0550bf15a6bf","system_id":"levelo_inurba_marseille","lat":43.24995,"lon":5.38937,"is_reserved":false,"is_disabled":false,"rental_uris":{"android":"levelo://app?vid=319e285c-82b5-439b-a7b4-0550bf15a6bf","ios":"levelo://app?vid=319e285c-82b5-439b-a7b4-0550bf15a6bf"},"vehicle_type_id":"4","last_reported":1729361419,"current_range_meters":26000,"station_id":"ce4bhgp2rcd13ifvqfd0","pricing_plan_id":"cebpf4jnsgd1na2vs0mg"},{"bike_id":"dc685923-4a33-4fe2-87cd-d3d6be1f4a42","system_id":"levelo_inurba_marseille","lat":43.28152,"lon":5.4265,"is_reserved":false,"is_disabled":false,"rental_uris":{"android":"levelo://app?vid=dc685923-4a33-4fe2-87cd-d3d6be1f4a42","ios":"levelo://app?vid=dc685923-4a33-4fe2-87cd-d3d6be1f4a42"},"vehicle_type_id":"4","last_reported":1729361419,"current_range_meters":38800,"station_id":"ce4bhnh2rcd13ifvqgug","pricing_plan_id":"cebpf4jnsgd1na2vs0mg"},{"bike_id":"b651771d-243e-41eb-977a-9aa77559716c","system_id":"levelo_inurba_marseille","lat":43.3133,"lon":5.39689,"is_reserved":false,"is_disabled":false,"rental_uris":{"android":"levelo://app?vid=b651771d-243e-41eb-977a-9aa77559716c","ios":"levelo://app?vid=b651771d-243e-41eb-977a-9aa77559716c"},"vehicle_type_id":"4","last_reported":1729361419,"current_range_meters":2000,"station_id":"ce4bgvp2rcd13ifvqcu0","pricing_plan_id":"cebpf4jnsgd1na2vs0mg"},{"bike_id":"c618d932-1e60-4191-a432-53218c63df52","system_id":"levelo_inurba_marseille","lat":43.29518,"lon":5.37451,"is_reserved":false,"is_disabled":false,"rental_uris":{"android":"levelo://app?vid=c618d932-1e60-4191-a432-53218c63df52","ios":"levelo://app?vid=c618d932-1e60-4191-a432-53218c63df52"},"vehicle_type_id":"4","last_reported":1729361419,"current_range_meters":6000,"station_id":"ce4bh392rcd13ifvqdl0","pricing_plan_id":"cebpf4jnsgd1na2vs0mg"},{"bike_id":"4ce89654-66c5-477e-814a-de5b3b6b602c","system_id":"levelo_inurba_marseille","lat":43.3248,"lon":5.36571,"is_reserved":false,"is_disabled":false,"rental_uris":{"android":"levelo://app?vid=4ce89654-66c5-477e-814a-de5b3b6b602c","ios":"levelo://app?vid=4ce89654-66c5-477e-814a-de5b3b6b602c"},"vehicle_type_id":"4","last_reported":1729361419,"current_range_meters":37600,"station_id":"ce4bhs12rcd13ifvqhvg","pricing_plan_id":"cebpf4jnsgd1na2vs0mg"},{"bike_id":"2bd1071b-efc1-4def-84b2-cf3421f83dde","system_id":"levelo_inurba_marseille","lat":43.29039,"lon":5.39962,"is_reserved":false,"is_disabled":false,"rental_uris":{"android":"levelo://app?vid=2bd1071b-efc1-4def-84b2-cf3421f83dde","ios":"levelo://app?vid=2bd1071b-efc1-4def-84b2-cf3421f83dde"},"vehicle_type_id":"4","last_reported":1729361419,"current_range_meters":6800,"station_id":"ce4bh392rcd13ifvqdm0","pricing_plan_id":"cebpf4jnsgd1na2vs0mg"},{"bike_id":"80765d0b-64ec-43c9-ba98-526a7b1f5042","system_id":"levelo_inurba_marseille","lat":43.30243,"lon":5.40087,"is_reserved":false,"is_disabled":false,"rental_uris":{"android":"levelo://app?vid=80765d0b-64ec-43c9-ba98-526a7b1f5042","ios":"levelo://app?vid=80765d0b-64ec-43c9-ba98-526a7b1f5042"},"vehicle_type_id":"4","last_reported":1729361419,"current_range_meters":38000,"station_id":"ce4bgvh2rcd13ifvqcs0","pricing_plan_id":"cebpf4jnsgd1na2vs0mg"},{"bike_id":"08309554-6591-45e9-8598-742af99ad780","system_id":"levelo_inurba_marseille","lat":43.299774,"lon":5.371734,"is_reserved":false,"is_disabled":false,"rental_uris":{"android":"levelo://app?vid=08309554-6591-45e9-8598-742af99ad780","ios":"levelo://app?vid=08309554-6591-45e9-8598-742af99ad780"},"vehicle_type_id":"4","last_reported":1729361419,"current_range_meters":9200,"station_id":"ce4bgr92rcd13ifvqc7g","pricing_plan_id":"cebpf4jnsgd1na2vs0mg"},{"bike_id":"f70d55a2-17fc-4959-b1a6-3539a99b6a87","system_id":"levelo_inurba_marseille","lat":43.26803,"lon":5.40274,"is_reserved":false,"is_disabled":false,"rental_uris":{"android":"levelo://app?vid=f70d55a2-17fc-4959-b1a6-3539a99b6a87","ios":"levelo://app?vid=f70d55a2-17fc-4959-b1a6-3539a99b6a87"},"vehicle_type_id":"4","last_reported":1729361419,"current_range_meters":29600,"station_id":"ce501612rcd8frsf0b60","pricing_plan_id":"cebpf4jnsgd1na2vs0mg"},{"bike_id":"79fc3256-8e5b-4a24-b905-f6575b6c059e","system_id":"levelo_inurba_marseille","lat":43.256989,"lon":5.399981,"is_reserved":false,"is_disabled":false,"rental_uris":{"android":"levelo://app?vid=79fc3256-8e5b-4a24-b905-f6575b6c059e","ios":"levelo://app?vid=79fc3256-8e5b-4a24-b905-f6575b6c059e"},"vehicle_type_id":"4","last_reported":1729361419,"current_range_meters":31200,"station_id":"ce4bhlh2rcd13ifvqgig","pricing_plan_id":"cebpf4jnsgd1na2vs0mg"},{"bike_id":"ff9ec1b9-fba8-4b0c-9058-c74c868e0b84","system_id":"levelo_inurba_marseille","lat":43.29892,"lon":5.38909,"is_reserved":false,"is_disabled":false,"rental_uris":{"android":"levelo://app?vid=ff9ec1b9-fba8-4b0c-9058-c74c868e0b84","ios":"levelo://app?vid=ff9ec1b9-fba8-4b0c-9058-c74c868e0b84"},"vehicle_type_id":"4","last_reported":1729361419,"current_range_meters":5600,"station_id":"ce4bh392rcd13ifvqdl0","pricing_plan_id":"cebpf4jnsgd1na2vs0mg"},{"bike_id":"1a768092-f971-4c37-b49e-c65c28a1347b","system_id":"levelo_inurba_marseille","lat":43.29868,"lon":5.39742,"is_reserved":false,"is_disabled":false,"rental_uris":{"android":"levelo://app?vid=1a768092-f971-4c37-b49e-c65c28a1347b","ios":"levelo://app?vid=1a768092-f971-4c37-b49e-c65c28a1347b"},"vehicle_type_id":"4","last_reported":1729361419,"current_range_meters":38800,"station_id":"ce4bh0h2rcd13ifvqd50","pricing_plan_id":"cebpf4jnsgd1na2vs0mg"},{"bike_id":"2ecb33ff-7750-42d6-9adf-ebdb2b8c6e40","system_id":"levelo_inurba_marseille","lat":43.30812,"lon":5.3815,"is_reserved":false,"is_disabled":false,"rental_uris":{"android":"levelo://app?vid=2ecb33ff-7750-42d6-9adf-ebdb2b8c6e40","ios":"levelo://app?vid=2ecb33ff-7750-42d6-9adf-ebdb2b8c6e40"},"vehicle_type_id":"4","last_reported":1729361419,"current_range_meters":17600,"station_id":"ce4bgt12rcd13ifvqce0","pricing_plan_id":"cebpf4jnsgd1na2vs0mg"},{"bike_id":"236f3d1e-2287-4fda-b641-a8c63ab0b77e","system_id":"levelo_inurba_marseille","lat":43.308417,"lon":5.371938,"is_reserved":false,"is_disabled":false,"rental_uris":{"android":"levelo://app?vid=236f3d1e-2287-4fda-b641-a8c63ab0b77e","ios":"levelo://app?vid=236f3d1e-2287-4fda-b641-a8c63ab0b77e"},"vehicle_type_id":"4","last_reported":1729361419,"current_range_meters":20000,"station_id":"ce4bguh2rcd13ifvqckg","pricing_plan_id":"cebpf4jnsgd1na2vs0mg"},{"bike_id":"08769619-3f21-4bc0-bfc2-be3c72fea16d","system_id":"levelo_inurba_marseille","lat":43.29333,"lon":5.38633,"is_reserved":false,"is_disabled":false,"rental_uris":{"android":"levelo://app?vid=08769619-3f21-4bc0-bfc2-be3c72fea16d","ios":"levelo://app?vid=08769619-3f21-4bc0-bfc2-be3c72fea16d"},"vehicle_type_id":"4","last_reported":1729361419,"current_range_meters":8000,"station_id":"","pricing_plan_id":"cebpf4jnsgd1na2vs0mg"},{"bike_id":"f91bb384-2101-4cf4-b893-57d2d0b12cd1","system_id":"levelo_inurba_marseille","lat":43.29424,"lon":5.38619,"is_reserved":false,"is_disabled":false,"rental_uris":{"android":"levelo://app?vid=f91bb384-2101-4cf4-b893-57d2d0b12cd1","ios":"levelo://app?vid=f91bb384-2101-4cf4-b893-57d2d0b12cd1"},"vehicle_type_id":"4","last_reported":1729361419,"current_range_meters":28400,"station_id":"ce4bh2h2rcd13ifvqdh0","pricing_plan_id":"cebpf4jnsgd1na2vs0mg"},{"bike_id":"df0764bb-73ac-46d7-903f-a26945b45d7c","system_id":"levelo_inurba_marseille","lat":43.24622,"lon":5.41608,"is_reserved":false,"is_disabled":false,"rental_uris":{"android":"levelo://app?vid=df0764bb-73ac-46d7-903f-a26945b45d7c","ios":"levelo://app?vid=df0764bb-73ac-46d7-903f-a26945b45d7c"},"vehicle_type_id":"4","last_reported":1729361419,"current_range_meters":28000,"station_id":"","pricing_plan_id":"cebpf4jnsgd1na2vs0mg"},{"bike_id":"e700e4d8-85f6-44d8-80b4-4749efe0ea4f","system_id":"levelo_inurba_marseille","lat":43.29171,"lon":5.39321,"is_reserved":false,"is_disabled":false,"rental_uris":{"android":"levelo://app?vid=e700e4d8-85f6-44d8-80b4-4749efe0ea4f","ios":"levelo://app?vid=e700e4d8-85f6-44d8-80b4-4749efe0ea4f"},"vehicle_type_id":"4","last_reported":1729361419,"current_range_meters":3200,"station_id":"ce4bh192rcd13ifvqdd0","pricing_plan_id":"cebpf4jnsgd1na2vs0mg"},{"bike_id":"c6a28eeb-ffd3-4ae2-ae1b-9c2b46a457bb","system_id":"levelo_inurba_marseille","lat":43.29172,"lon":5.37164,"is_reserved":false,"is_disabled":false,"rental_uris":{"android":"levelo://app?vid=c6a28eeb-ffd3-4ae2-ae1b-9c2b46a457bb","ios":"levelo://app?vid=c6a28eeb-ffd3-4ae2-ae1b-9c2b46a457bb"},"vehicle_type_id":"4","last_reported":1729361419,"current_range_meters":19200,"station_id":"ce4bha92rcd13ifvqeh0","pricing_plan_id":"cebpf4jnsgd1na2vs0mg"},{"bike_id":"e94d3181-8352-416f-a49b-b5f4ccd77bcf","system_id":"levelo_inurba_marseille","lat":43.24809,"lon":5.37457,"is_reserved":false,"is_disabled":false,"rental_uris":{"android":"levelo://app?vid=e94d3181-8352-416f-a49b-b5f4ccd77bcf","ios":"levelo://app?vid=e94d3181-8352-416f-a49b-b5f4ccd77bcf"},"vehicle_type_id":"4","last_reported":1729361419,"current_range_meters":25200,"station_id":"ce4bhgh2rcd13ifvqfb0","pricing_plan_id":"cebpf4jnsgd1na2vs0mg"},{"bike_id":"0239e896-9754-478d-bfef-977cfc68cd96","system_id":"levelo_inurba_marseille","lat":43.29022,"lon":5.38647,"is_reserved":false,"is_disabled":false,"rental_uris":{"android":"levelo://app?vid=0239e896-9754-478d-bfef-977cfc68cd96","ios":"levelo://app?vid=0239e896-9754-478d-bfef-977cfc68cd96"},"vehicle_type_id":"4","last_reported":1729361419,"current_range_meters":38800,"station_id":"ce4bh4p2rcd13ifvqe0g","pricing_plan_id":"cebpf4jnsgd1na2vs0mg"},{"bike_id":"636ca9f9-80fe-412e-9417-8e0d4e84bb4f","system_id":"levelo_inurba_marseille","lat":43.29868,"lon":5.39738,"is_reserved":false,"is_disabled":false,"rental_uris":{"android":"levelo://app?vid=636ca9f9-80fe-412e-9417-8e0d4e84bb4f","ios":"levelo://app?vid=636ca9f9-80fe-412e-9417-8e0d4e84bb4f"},"vehicle_type_id":"4","last_reported":1729361419,"current_range_meters":26800,"station_id":"ce4bh0h2rcd13ifvqd50","pricing_plan_id":"cebpf4jnsgd1na2vs0mg"},{"bike_id":"4665bbd6-c91f-475e-b8d2-c03efc501a05","system_id":"levelo_inurba_marseille","lat":43.26945,"lon":5.40255,"is_reserved":false,"is_disabled":false,"rental_uris":{"android":"levelo://app?vid=4665bbd6-c91f-475e-b8d2-c03efc501a05","ios":"levelo://app?vid=4665bbd6-c91f-475e-b8d2-c03efc501a05"},"vehicle_type_id":"4","last_reported":1729361419,"current_range_meters":6800,"station_id":"cjm6bp8fraef2m0cb0m0","pricing_plan_id":"cebpf4jnsgd1na2vs0mg"},{"bike_id":"9f392dda-0883-425c-a577-fe6e39747d29","system_id":"levelo_inurba_marseille","lat":43.30888,"lon":5.37205,"is_reserved":false,"is_disabled":false,"rental_uris":{"android":"levelo://app?vid=9f392dda-0883-425c-a577-fe6e39747d29","ios":"levelo://app?vid=9f392dda-0883-425c-a577-fe6e39747d29"},"vehicle_type_id":"4","last_reported":1729361419,"current_range_meters":28400,"station_id":"ce4bguh2rcd13ifvqckg","pricing_plan_id":"cebpf4jnsgd1na2vs0mg"},{"bike_id":"d065b97a-da84-4052-8ad1-2d83a4154918","system_id":"levelo_inurba_marseille","lat":43.26504,"lon":5.39541,"is_reserved":false,"is_disabled":false,"rental_uris":{"android":"levelo://app?vid=d065b97a-da84-4052-8ad1-2d83a4154918","ios":"levelo://app?vid=d065b97a-da84-4052-8ad1-2d83a4154918"},"vehicle_type_id":"4","last_reported":1729361419,"current_range_meters":30800,"station_id":"ce4bhi12rcd13ifvqfq0","pricing_plan_id":"cebpf4jnsgd1na2vs0mg"},{"bike_id":"554b1fff-c256-451e-8d14-4967b619a32e","system_id":"levelo_inurba_marseille","lat":43.240701,"lon":5.377659,"is_reserved":false,"is_disabled":false,"rental_uris":{"android":"levelo://app?vid=554b1fff-c256-451e-8d14-4967b619a32e","ios":"levelo://app?vid=554b1fff-c256-451e-8d14-4967b619a32e"},"vehicle_type_id":"4","last_reported":1729361419,"current_range_meters":3200,"station_id":"ce4bhnp2rcd13ifvqgvg","pricing_plan_id":"cebpf4jnsgd1na2vs0mg"},{"bike_id":"4e0101d1-0780-41c5-a8ba-225375e0a6bb","system_id":"levelo_inurba_marseille","lat":43.28577,"lon":5.39497,"is_reserved":false,"is_disabled":false,"rental_uris":{"android":"levelo://app?vid=4e0101d1-0780-41c5-a8ba-225375e0a6bb","ios":"levelo://app?vid=4e0101d1-0780-41c5-a8ba-225375e0a6bb"},"vehicle_type_id":"4","last_reported":1729361419,"current_range_meters":6000,"station_id":"ce4bh292rcd13ifvqdg0","pricing_plan_id":"cebpf4jnsgd1na2vs0mg"},{"bike_id":"a042fa0f-7bee-4db8-b85b-2963a81fc80f","system_id":"levelo_inurba_marseille","lat":43.29515,"lon":5.39052,"is_reserved":false,"is_disabled":false,"rental_uris":{"android":"levelo://app?vid=a042fa0f-7bee-4db8-b85b-2963a81fc80f","ios":"levelo://app?vid=a042fa0f-7bee-4db8-b85b-2963a81fc80f"},"vehicle_type_id":"4","last_reported":1729361419,"current_range_meters":8800,"station_id":"ce4bh3p2rcd13ifvqdp0","pricing_plan_id":"cebpf4jnsgd1na2vs0mg"},{"bike_id":"d0464ea9-a877-4f3b-873e-5d87eb5b976b","system_id":"levelo_inurba_marseille","lat":43.28725,"lon":5.3794,"is_reserved":false,"is_disabled":false,"rental_uris":{"android":"levelo://app?vid=d0464ea9-a877-4f3b-873e-5d87eb5b976b","ios":"levelo://app?vid=d0464ea9-a877-4f3b-873e-5d87eb5b976b"},"vehicle_type_id":"4","last_reported":1729361419,"current_range_meters":17600,"station_id":"ce4bh9p2rcd13ifvqec0","pricing_plan_id":"cebpf4jnsgd1na2vs0mg"},{"bike_id":"f2b0cda4-c097-4150-bf36-e03147385e4d","system_id":"levelo_inurba_marseille","lat":43.29865,"lon":5.39726,"is_reserved":false,"is_disabled":false,"rental_uris":{"android":"levelo://app?vid=f2b0cda4-c097-4150-bf36-e03147385e4d","ios":"levelo://app?vid=f2b0cda4-c097-4150-bf36-e03147385e4d"},"vehicle_type_id":"4","last_reported":1729361419,"current_range_meters":8800,"station_id":"ce4bh0h2rcd13ifvqd50","pricing_plan_id":"cebpf4jnsgd1na2vs0mg"},{"bike_id":"6e706dcb-6e41-41b6-a172-73765c66fdaa","system_id":"levelo_inurba_marseille","lat":43.26239,"lon":5.37591,"is_reserved":false,"is_disabled":false,"rental_uris":{"android":"levelo://app?vid=6e706dcb-6e41-41b6-a172-73765c66fdaa","ios":"levelo://app?vid=6e706dcb-6e41-41b6-a172-73765c66fdaa"},"vehicle_type_id":"4","last_reported":1729361419,"current_range_meters":37600,"station_id":"ce4bhhp2rcd13ifvqfm0","pricing_plan_id":"cebpf4jnsgd1na2vs0mg"},{"bike_id":"444961fb-b451-4bf6-8a61-0a72e8d569ac","system_id":"levelo_inurba_marseille","lat":43.31682,"lon":5.40476,"is_reserved":false,"is_disabled":false,"rental_uris":{"android":"levelo://app?vid=444961fb-b451-4bf6-8a61-0a72e8d569ac","ios":"levelo://app?vid=444961fb-b451-4bf6-8a61-0a72e8d569ac"},"vehicle_type_id":"4","last_reported":1729361419,"current_range_meters":19600,"station_id":"ce4bh012rcd13ifvqd00","pricing_plan_id":"cebpf4jnsgd1na2vs0mg"},{"bike_id":"7772d39f-5e28-445c-af91-069b0cf63793","system_id":"levelo_inurba_marseille","lat":43.33765,"lon":5.37438,"is_reserved":false,"is_disabled":false,"rental_uris":{"android":"levelo://app?vid=7772d39f-5e28-445c-af91-069b0cf63793","ios":"levelo://app?vid=7772d39f-5e28-445c-af91-069b0cf63793"},"vehicle_type_id":"4","last_reported":1729361419,"current_range_meters":8000,"station_id":"","pricing_plan_id":"cebpf4jnsgd1na2vs0mg"},{"bike_id":"f5f37ef7-9338-4326-bf60-389e14abfd75","system_id":"levelo_inurba_marseille","lat":43.32295,"lon":5.3827,"is_reserved":false,"is_disabled":false,"rental_uris":{"android":"levelo://app?vid=f5f37ef7-9338-4326-bf60-389e14abfd75","ios":"levelo://app?vid=f5f37ef7-9338-4326-bf60-389e14abfd75"},"vehicle_type_id":"4","last_reported":1729361419,"current_range_meters":37600,"station_id":"ce4bhr12rcd13ifvqhqg","pricing_plan_id":"cebpf4jnsgd1na2vs0mg"},{"bike_id":"3213665e-989c-4d22-9f5a-31c8522597dd","system_id":"levelo_inurba_marseille","lat":43.296,"lon":5.36142,"is_reserved":false,"is_disabled":false,"rental_uris":{"android":"levelo://app?vid=3213665e-989c-4d22-9f5a-31c8522597dd","ios":"levelo://app?vid=3213665e-989c-4d22-9f5a-31c8522597dd"},"vehicle_type_id":"4","last_reported":1729361419,"current_range_meters":18800,"station_id":"","pricing_plan_id":"cebpf4jnsgd1na2vs0mg"},{"bike_id":"fa84b366-00e0-473b-bfef-4941d79ad0db","system_id":"levelo_inurba_marseille","lat":43.29536,"lon":5.38557,"is_reserved":false,"is_disabled":false,"rental_uris":{"android":"levelo://app?vid=fa84b366-00e0-473b-bfef-4941d79ad0db","ios":"levelo://app?vid=fa84b366-00e0-473b-bfef-4941d79ad0db"},"vehicle_type_id":"4","last_reported":1729361419,"current_range_meters":7200,"station_id":"ce4bgih2rcd13ifvqba0","pricing_plan_id":"cebpf4jnsgd1na2vs0mg"},{"bike_id":"4d683fb7-2049-418a-bcc5-7da6fb5d0712","system_id":"levelo_inurba_marseille","lat":43.28435,"lon":5.39197,"is_reserved":false,"is_disabled":false,"rental_uris":{"android":"levelo://app?vid=4d683fb7-2049-418a-bcc5-7da6fb5d0712","ios":"levelo://app?vid=4d683fb7-2049-418a-bcc5-7da6fb5d0712"},"vehicle_type_id":"4","last_reported":1729361419,"current_range_meters":24800,"station_id":"ce4bhoh2rcd13ifvqh5g","pricing_plan_id":"cebpf4jnsgd1na2vs0mg"},{"bike_id":"af03b3ae-04e3-455d-bf10-ab74d58a264c","system_id":"levelo_inurba_marseille","lat":43.24812,"lon":5.37461,"is_reserved":false,"is_disabled":false,"rental_uris":{"android":"levelo://app?vid=af03b3ae-04e3-455d-bf10-ab74d58a264c","ios":"levelo://app?vid=af03b3ae-04e3-455d-bf10-ab74d58a264c"},"vehicle_type_id":"4","last_reported":1729361419,"current_range_meters":9200,"station_id":"ce4bhgh2rcd13ifvqfb0","pricing_plan_id":"cebpf4jnsgd1na2vs0mg"},{"bike_id":"001798f5-6ee7-4dd8-bb2a-41aa1981a5fd","system_id":"levelo_inurba_marseille","lat":43.29422,"lon":5.38626,"is_reserved":false,"is_disabled":false,"rental_uris":{"android":"levelo://app?vid=001798f5-6ee7-4dd8-bb2a-41aa1981a5fd","ios":"levelo://app?vid=001798f5-6ee7-4dd8-bb2a-41aa1981a5fd"},"vehicle_type_id":"4","last_reported":1729361419,"current_range_meters":2800,"station_id":"ce4bh2h2rcd13ifvqdh0","pricing_plan_id":"cebpf4jnsgd1na2vs0mg"},{"bike_id":"1e42383b-f76c-4d1d-bec1-164b9a512b50","system_id":"levelo_inurba_marseille","lat":43.31992,"lon":5.38162,"is_reserved":false,"is_disabled":false,"rental_uris":{"android":"levelo://app?vid=1e42383b-f76c-4d1d-bec1-164b9a512b50","ios":"levelo://app?vid=1e42383b-f76c-4d1d-bec1-164b9a512b50"},"vehicle_type_id":"4","last_reported":1729361419,"current_range_meters":23200,"station_id":"ce4bhr12rcd13ifvqhpg","pricing_plan_id":"cebpf4jnsgd1na2vs0mg"},{"bike_id":"e1ad56db-1edb-4314-b4d1-a9db40138bf3","system_id":"levelo_inurba_marseille","lat":43.28479,"lon":5.38428,"is_reserved":false,"is_disabled":false,"rental_uris":{"android":"levelo://app?vid=e1ad56db-1edb-4314-b4d1-a9db40138bf3","ios":"levelo://app?vid=e1ad56db-1edb-4314-b4d1-a9db40138bf3"},"vehicle_type_id":"4","last_reported":1729361419,"current_range_meters":8000,"station_id":"ce4bh512rcd13ifvqe3g","pricing_plan_id":"cebpf4jnsgd1na2vs0mg"},{"bike_id":"2cf61ae4-e63b-49ab-a0e4-0fb7b96428f9","system_id":"levelo_inurba_marseille","lat":43.295921,"lon":5.380982,"is_reserved":false,"is_disabled":false,"rental_uris":{"android":"levelo://app?vid=2cf61ae4-e63b-49ab-a0e4-0fb7b96428f9","ios":"levelo://app?vid=2cf61ae4-e63b-49ab-a0e4-0fb7b96428f9"},"vehicle_type_id":"4","last_reported":1729361419,"current_range_meters":12000,"station_id":"ce4bgl12rcd13ifvqbo0","pricing_plan_id":"cebpf4jnsgd1na2vs0mg"},{"bike_id":"be1a51aa-0690-41d3-a11e-a0f1a49c88e2","system_id":"levelo_inurba_marseille","lat":43.29551,"lon":5.42288,"is_reserved":false,"is_disabled":false,"rental_uris":{"android":"levelo://app?vid=be1a51aa-0690-41d3-a11e-a0f1a49c88e2","ios":"levelo://app?vid=be1a51aa-0690-41d3-a11e-a0f1a49c88e2"},"vehicle_type_id":"4","last_reported":1729361419,"current_range_meters":38000,"station_id":"ce4bhph2rcd13ifvqhdg","pricing_plan_id":"cebpf4jnsgd1na2vs0mg"},{"bike_id":"5029ee89-d4ad-4dfa-a7bf-6e1d69f78515","system_id":"levelo_inurba_marseille","lat":43.29015,"lon":5.38132,"is_reserved":false,"is_disabled":false,"rental_uris":{"android":"levelo://app?vid=5029ee89-d4ad-4dfa-a7bf-6e1d69f78515","ios":"levelo://app?vid=5029ee89-d4ad-4dfa-a7bf-6e1d69f78515"},"vehicle_type_id":"4","last_reported":1729361419,"current_range_meters":17200,"station_id":"ce4bh4p2rcd13ifvqe1g","pricing_plan_id":"cebpf4jnsgd1na2vs0mg"},{"bike_id":"5b28be2f-cc82-4704-8fab-d09bc8dbc62e","system_id":"levelo_inurba_marseille","lat":43.24858,"lon":5.38857,"is_reserved":false,"is_disabled":false,"rental_uris":{"android":"levelo://app?vid=5b28be2f-cc82-4704-8fab-d09bc8dbc62e","ios":"levelo://app?vid=5b28be2f-cc82-4704-8fab-d09bc8dbc62e"},"vehicle_type_id":"4","last_reported":1729361419,"current_range_meters":18000,"station_id":"","pricing_plan_id":"cebpf4jnsgd1na2vs0mg"},{"bike_id":"35075742-e63d-40a7-ab1e-226b8a2ce7a0","system_id":"levelo_inurba_marseille","lat":43.3172,"lon":5.42392,"is_reserved":false,"is_disabled":false,"rental_uris":{"android":"levelo://app?vid=35075742-e63d-40a7-ab1e-226b8a2ce7a0","ios":"levelo://app?vid=35075742-e63d-40a7-ab1e-226b8a2ce7a0"},"vehicle_type_id":"4","last_reported":1729361419,"current_range_meters":8800,"station_id":"ce4bhp92rcd13ifvqhbg","pricing_plan_id":"cebpf4jnsgd1na2vs0mg"},{"bike_id":"eb9726e7-8bff-4979-954a-e7952d450e21","system_id":"levelo_inurba_marseille","lat":43.33027,"lon":5.39037,"is_reserved":false,"is_disabled":false,"rental_uris":{"android":"levelo://app?vid=eb9726e7-8bff-4979-954a-e7952d450e21","ios":"levelo://app?vid=eb9726e7-8bff-4979-954a-e7952d450e21"},"vehicle_type_id":"4","last_reported":1729361419,"current_range_meters":20000,"station_id":"ce4bhr92rcd13ifvqhrg","pricing_plan_id":"cebpf4jnsgd1na2vs0mg"},{"bike_id":"132ffa73-1379-4980-a3b7-85d59942d428","system_id":"levelo_inurba_marseille","lat":43.30141,"lon":5.39865,"is_reserved":false,"is_disabled":false,"rental_uris":{"android":"levelo://app?vid=132ffa73-1379-4980-a3b7-85d59942d428","ios":"levelo://app?vid=132ffa73-1379-4980-a3b7-85d59942d428"},"vehicle_type_id":"4","last_reported":1729361419,"current_range_meters":0,"station_id":"ce4bh0h2rcd13ifvqd40","pricing_plan_id":"cebpf4jnsgd1na2vs0mg"},{"bike_id":"a50da574-03c5-475b-b6c5-e3885a5b2ef0","system_id":"levelo_inurba_marseille","lat":43.28152,"lon":5.42635,"is_reserved":false,"is_disabled":false,"rental_uris":{"android":"levelo://app?vid=a50da574-03c5-475b-b6c5-e3885a5b2ef0","ios":"levelo://app?vid=a50da574-03c5-475b-b6c5-e3885a5b2ef0"},"vehicle_type_id":"4","last_reported":1729361419,"current_range_meters":22400,"station_id":"ce4bhnh2rcd13ifvqgug","pricing_plan_id":"cebpf4jnsgd1na2vs0mg"},{"bike_id":"fac9a3a2-2dd0-4efd-afd6-73cc4f4edd9a","system_id":"levelo_inurba_marseille","lat":43.24809,"lon":5.37459,"is_reserved":false,"is_disabled":false,"rental_uris":{"android":"levelo://app?vid=fac9a3a2-2dd0-4efd-afd6-73cc4f4edd9a","ios":"levelo://app?vid=fac9a3a2-2dd0-4efd-afd6-73cc4f4edd9a"},"vehicle_type_id":"4","last_reported":1729361419,"current_range_meters":38800,"station_id":"ce4bhgh2rcd13ifvqfb0","pricing_plan_id":"cebpf4jnsgd1na2vs0mg"},{"bike_id":"8a1257e2-59b7-4feb-b3d1-382784f40499","system_id":"levelo_inurba_marseille","lat":43.27076,"lon":5.42282,"is_reserved":false,"is_disabled":false,"rental_uris":{"android":"levelo://app?vid=8a1257e2-59b7-4feb-b3d1-382784f40499","ios":"levelo://app?vid=8a1257e2-59b7-4feb-b3d1-382784f40499"},"vehicle_type_id":"4","last_reported":1729361419,"current_range_meters":14000,"station_id":"ce4bhk92rcd13ifvqgb0","pricing_plan_id":"cebpf4jnsgd1na2vs0mg"},{"bike_id":"79085ea7-873c-45f1-b488-6429934b8b77","system_id":"levelo_inurba_marseille","lat":43.29265,"lon":5.38443,"is_reserved":false,"is_disabled":false,"rental_uris":{"android":"levelo://app?vid=79085ea7-873c-45f1-b488-6429934b8b77","ios":"levelo://app?vid=79085ea7-873c-45f1-b488-6429934b8b77"},"vehicle_type_id":"4","last_reported":1729361419,"current_range_meters":35200,"station_id":"","pricing_plan_id":"cebpf4jnsgd1na2vs0mg"},{"bike_id":"c4acb46d-e12f-463b-add2-967d41165286","system_id":"levelo_inurba_marseille","lat":43.26941,"lon":5.40256,"is_reserved":false,"is_disabled":false,"rental_uris":{"android":"levelo://app?vid=c4acb46d-e12f-463b-add2-967d41165286","ios":"levelo://app?vid=c4acb46d-e12f-463b-add2-967d41165286"},"vehicle_type_id":"4","last_reported":1729361419,"current_range_meters":18800,"station_id":"cjm6bp8fraef2m0cb0m0","pricing_plan_id":"cebpf4jnsgd1na2vs0mg"},{"bike_id":"50b3be9f-3a68-4400-9c7b-874b448d2001","system_id":"levelo_inurba_marseille","lat":43.2848,"lon":5.38415,"is_reserved":false,"is_disabled":false,"rental_uris":{"android":"levelo://app?vid=50b3be9f-3a68-4400-9c7b-874b448d2001","ios":"levelo://app?vid=50b3be9f-3a68-4400-9c7b-874b448d2001"},"vehicle_type_id":"4","last_reported":1729361419,"current_range_meters":8400,"station_id":"ce4bh512rcd13ifvqe3g","pricing_plan_id":"cebpf4jnsgd1na2vs0mg"},{"bike_id":"bcd7edbc-e91d-481b-903e-559995e9a06f","system_id":"levelo_inurba_marseille","lat":43.30597,"lon":5.37229,"is_reserved":false,"is_disabled":false,"rental_uris":{"android":"levelo://app?vid=bcd7edbc-e91d-481b-903e-559995e9a06f","ios":"levelo://app?vid=bcd7edbc-e91d-481b-903e-559995e9a06f"},"vehicle_type_id":"4","last_reported":1729361419,"current_range_meters":8000,"station_id":"ce4bgqh2rcd13ifvqc4g","pricing_plan_id":"cebpf4jnsgd1na2vs0mg"},{"bike_id":"c34e2acb-3afe-4aa1-8cdb-c481d100b683","system_id":"levelo_inurba_marseille","lat":43.32485,"lon":5.36571,"is_reserved":false,"is_disabled":false,"rental_uris":{"android":"levelo://app?vid=c34e2acb-3afe-4aa1-8cdb-c481d100b683","ios":"levelo://app?vid=c34e2acb-3afe-4aa1-8cdb-c481d100b683"},"vehicle_type_id":"4","last_reported":1729361419,"current_range_meters":22800,"station_id":"ce4bhs12rcd13ifvqhvg","pricing_plan_id":"cebpf4jnsgd1na2vs0mg"},{"bike_id":"b6ac7ed9-5320-406d-a717-fc634549e153","system_id":"levelo_inurba_marseille","lat":43.33024,"lon":5.39032,"is_reserved":false,"is_disabled":false,"rental_uris":{"android":"levelo://app?vid=b6ac7ed9-5320-406d-a717-fc634549e153","ios":"levelo://app?vid=b6ac7ed9-5320-406d-a717-fc634549e153"},"vehicle_type_id":"4","last_reported":1729361419,"current_range_meters":38800,"station_id":"ce4bhr92rcd13ifvqhrg","pricing_plan_id":"cebpf4jnsgd1na2vs0mg"},{"bike_id":"d9745bea-cad6-4584-b13f-317f10c94d7a","system_id":"levelo_inurba_marseille","lat":43.28161,"lon":5.42629,"is_reserved":false,"is_disabled":false,"rental_uris":{"android":"levelo://app?vid=d9745bea-cad6-4584-b13f-317f10c94d7a","ios":"levelo://app?vid=d9745bea-cad6-4584-b13f-317f10c94d7a"},"vehicle_type_id":"4","last_reported":1729361419,"current_range_meters":9600,"station_id":"ce4bhnh2rcd13ifvqgug","pricing_plan_id":"cebpf4jnsgd1na2vs0mg"},{"bike_id":"e059cf02-c73b-4ef5-b95c-56113b64e24b","system_id":"levelo_inurba_marseille","lat":43.28479,"lon":5.38421,"is_reserved":false,"is_disabled":false,"rental_uris":{"android":"levelo://app?vid=e059cf02-c73b-4ef5-b95c-56113b64e24b","ios":"levelo://app?vid=e059cf02-c73b-4ef5-b95c-56113b64e24b"},"vehicle_type_id":"4","last_reported":1729361419,"current_range_meters":5600,"station_id":"ce4bh512rcd13ifvqe3g","pricing_plan_id":"cebpf4jnsgd1na2vs0mg"},{"bike_id":"527c47df-9dd7-4c14-b58b-1ada730877c6","system_id":"levelo_inurba_marseille","lat":43.27958,"lon":5.41559,"is_reserved":false,"is_disabled":false,"rental_uris":{"android":"levelo://app?vid=527c47df-9dd7-4c14-b58b-1ada730877c6","ios":"levelo://app?vid=527c47df-9dd7-4c14-b58b-1ada730877c6"},"vehicle_type_id":"4","last_reported":1729361419,"current_range_meters":18000,"station_id":"ce4bho92rcd13ifvqh4g","pricing_plan_id":"cebpf4jnsgd1na2vs0mg"},{"bike_id":"ec8188f5-1334-4a36-bfbc-7adb2c28d3be","system_id":"levelo_inurba_marseille","lat":43.30316,"lon":5.40442,"is_reserved":false,"is_disabled":false,"rental_uris":{"android":"levelo://app?vid=ec8188f5-1334-4a36-bfbc-7adb2c28d3be","ios":"levelo://app?vid=ec8188f5-1334-4a36-bfbc-7adb2c28d3be"},"vehicle_type_id":"4","last_reported":1729361419,"current_range_meters":38400,"station_id":"ce4bh012rcd13ifvqd10","pricing_plan_id":"cebpf4jnsgd1na2vs0mg"},{"bike_id":"38f87a81-99b0-4edf-a3df-3c29f9e447db","system_id":"levelo_inurba_marseille","lat":43.31182,"lon":5.38724,"is_reserved":false,"is_disabled":false,"rental_uris":{"android":"levelo://app?vid=38f87a81-99b0-4edf-a3df-3c29f9e447db","ios":"levelo://app?vid=38f87a81-99b0-4edf-a3df-3c29f9e447db"},"vehicle_type_id":"4","last_reported":1729361419,"current_range_meters":2000,"station_id":"ce4bgv12rcd13ifvqcp0","pricing_plan_id":"cebpf4jnsgd1na2vs0mg"},{"bike_id":"979c9729-008f-48db-b338-59c5cff0384e","system_id":"levelo_inurba_marseille","lat":43.31334,"lon":5.36739,"is_reserved":false,"is_disabled":false,"rental_uris":{"android":"levelo://app?vid=979c9729-008f-48db-b338-59c5cff0384e","ios":"levelo://app?vid=979c9729-008f-48db-b338-59c5cff0384e"},"vehicle_type_id":"4","last_reported":1729361419,"current_range_meters":38400,"station_id":"ce4bgr92rcd13ifvqc6g","pricing_plan_id":"cebpf4jnsgd1na2vs0mg"},{"bike_id":"d9b6d37b-978f-4e5c-9764-57a1ec8bd5b7","system_id":"levelo_inurba_marseille","lat":43.30438,"lon":5.38907,"is_reserved":false,"is_disabled":false,"rental_uris":{"android":"levelo://app?vid=d9b6d37b-978f-4e5c-9764-57a1ec8bd5b7","ios":"levelo://app?vid=d9b6d37b-978f-4e5c-9764-57a1ec8bd5b7"},"vehicle_type_id":"4","last_reported":1729361419,"current_range_meters":22400,"station_id":"ce4bgk12rcd13ifvqbi0","pricing_plan_id":"cebpf4jnsgd1na2vs0mg"},{"bike_id":"f2f0a1e7-8a34-47cb-af0d-a97a917de946","system_id":"levelo_inurba_marseille","lat":43.32043,"lon":5.41569,"is_reserved":false,"is_disabled":false,"rental_uris":{"android":"levelo://app?vid=f2f0a1e7-8a34-47cb-af0d-a97a917de946","ios":"levelo://app?vid=f2f0a1e7-8a34-47cb-af0d-a97a917de946"},"vehicle_type_id":"4","last_reported":1729361419,"current_range_meters":3600,"station_id":"ce4bhq92rcd13ifvqhkg","pricing_plan_id":"cebpf4jnsgd1na2vs0mg"},{"bike_id":"adb5cf3b-29f3-4414-a1a3-78d432ec0917","system_id":"levelo_inurba_marseille","lat":43.30311,"lon":5.39212,"is_reserved":false,"is_disabled":false,"rental_uris":{"android":"levelo://app?vid=adb5cf3b-29f3-4414-a1a3-78d432ec0917","ios":"levelo://app?vid=adb5cf3b-29f3-4414-a1a3-78d432ec0917"},"vehicle_type_id":"4","last_reported":1729361419,"current_range_meters":38800,"station_id":"ce4bgkh2rcd13ifvqbk0","pricing_plan_id":"cebpf4jnsgd1na2vs0mg"},{"bike_id":"91ef795e-d8fb-4f8b-8351-1cd4724fc2c6","system_id":"levelo_inurba_marseille","lat":43.30545,"lon":5.38425,"is_reserved":false,"is_disabled":false,"rental_uris":{"android":"levelo://app?vid=91ef795e-d8fb-4f8b-8351-1cd4724fc2c6","ios":"levelo://app?vid=91ef795e-d8fb-4f8b-8351-1cd4724fc2c6"},"vehicle_type_id":"4","last_reported":1729361419,"current_range_meters":3600,"station_id":"ce4bgg92rcd13ifvqb30","pricing_plan_id":"cebpf4jnsgd1na2vs0mg"},{"bike_id":"7f05e50e-9581-4da2-ac81-07b2ab34ca58","system_id":"levelo_inurba_marseille","lat":43.33022,"lon":5.39043,"is_reserved":false,"is_disabled":false,"rental_uris":{"android":"levelo://app?vid=7f05e50e-9581-4da2-ac81-07b2ab34ca58","ios":"levelo://app?vid=7f05e50e-9581-4da2-ac81-07b2ab34ca58"},"vehicle_type_id":"4","last_reported":1729361419,"current_range_meters":27200,"station_id":"ce4bhr92rcd13ifvqhrg","pricing_plan_id":"cebpf4jnsgd1na2vs0mg"},{"bike_id":"18836ffc-d6fd-4795-9b3b-fb51c040ae26","system_id":"levelo_inurba_marseille","lat":43.29526,"lon":5.3941,"is_reserved":false,"is_disabled":false,"rental_uris":{"android":"levelo://app?vid=18836ffc-d6fd-4795-9b3b-fb51c040ae26","ios":"levelo://app?vid=18836ffc-d6fd-4795-9b3b-fb51c040ae26"},"vehicle_type_id":"4","last_reported":1729361419,"current_range_meters":1600,"station_id":"ce4bh292rcd13ifvqdf0","pricing_plan_id":"cebpf4jnsgd1na2vs0mg"},{"bike_id":"9622e9b6-7680-4d8c-b64b-6ec8e8b4f930","system_id":"levelo_inurba_marseille","lat":43.29259,"lon":5.38438,"is_reserved":false,"is_disabled":false,"rental_uris":{"android":"levelo://app?vid=9622e9b6-7680-4d8c-b64b-6ec8e8b4f930","ios":"levelo://app?vid=9622e9b6-7680-4d8c-b64b-6ec8e8b4f930"},"vehicle_type_id":"4","last_reported":1729361419,"current_range_meters":29600,"station_id":"","pricing_plan_id":"cebpf4jnsgd1na2vs0mg"},{"bike_id":"a7aea0df-c7ce-439f-813a-b71c43ca758f","system_id":"levelo_inurba_marseille","lat":43.28042,"lon":5.36947,"is_reserved":false,"is_disabled":false,"rental_uris":{"android":"levelo://app?vid=a7aea0df-c7ce-439f-813a-b71c43ca758f","ios":"levelo://app?vid=a7aea0df-c7ce-439f-813a-b71c43ca758f"},"vehicle_type_id":"4","last_reported":1729361419,"current_range_meters":26000,"station_id":"ce4bha12rcd13ifvqef0","pricing_plan_id":"cebpf4jnsgd1na2vs0mg"},{"bike_id":"58b2a8af-3923-4035-8218-400aa216954a","system_id":"levelo_inurba_marseille","lat":43.25719,"lon":5.41117,"is_reserved":false,"is_disabled":false,"rental_uris":{"android":"levelo://app?vid=58b2a8af-3923-4035-8218-400aa216954a","ios":"levelo://app?vid=58b2a8af-3923-4035-8218-400aa216954a"},"vehicle_type_id":"4","last_reported":1729361419,"current_range_meters":11600,"station_id":"ce4bhkp2rcd13ifvqgd0","pricing_plan_id":"cebpf4jnsgd1na2vs0mg"},{"bike_id":"2685f81a-12a3-4029-be77-086079020269","system_id":"levelo_inurba_marseille","lat":43.29255,"lon":5.40908,"is_reserved":false,"is_disabled":false,"rental_uris":{"android":"levelo://app?vid=2685f81a-12a3-4029-be77-086079020269","ios":"levelo://app?vid=2685f81a-12a3-4029-be77-086079020269"},"vehicle_type_id":"4","last_reported":1729361419,"current_range_meters":5600,"station_id":"ce4bh192rcd13ifvqdc0","pricing_plan_id":"cebpf4jnsgd1na2vs0mg"},{"bike_id":"8a61b0d3-96ba-49fc-af75-dd8176297036","system_id":"levelo_inurba_marseille","lat":43.23958,"lon":5.36637,"is_reserved":false,"is_disabled":false,"rental_uris":{"android":"levelo://app?vid=8a61b0d3-96ba-49fc-af75-dd8176297036","ios":"levelo://app?vid=8a61b0d3-96ba-49fc-af75-dd8176297036"},"vehicle_type_id":"4","last_reported":1729361419,"current_range_meters":14000,"station_id":"ce4bhi12rcd13ifvqfp0","pricing_plan_id":"cebpf4jnsgd1na2vs0mg"},{"bike_id":"662e102f-f0fe-461d-a459-ca9da0e42db0","system_id":"levelo_inurba_marseille","lat":43.30131,"lon":5.38789,"is_reserved":false,"is_disabled":false,"rental_uris":{"android":"levelo://app?vid=662e102f-f0fe-461d-a459-ca9da0e42db0","ios":"levelo://app?vid=662e102f-f0fe-461d-a459-ca9da0e42db0"},"vehicle_type_id":"4","last_reported":1729361419,"current_range_meters":3600,"station_id":"ce4bghh2rcd13ifvqb60","pricing_plan_id":"cebpf4jnsgd1na2vs0mg"},{"bike_id":"5bf9480d-99e2-486d-8310-2cdf4c2c87ad","system_id":"levelo_inurba_marseille","lat":43.25493,"lon":5.37652,"is_reserved":false,"is_disabled":false,"rental_uris":{"android":"levelo://app?vid=5bf9480d-99e2-486d-8310-2cdf4c2c87ad","ios":"levelo://app?vid=5bf9480d-99e2-486d-8310-2cdf4c2c87ad"},"vehicle_type_id":"4","last_reported":1729361419,"current_range_meters":32800,"station_id":"ce4bhh12rcd13ifvqff0","pricing_plan_id":"cebpf4jnsgd1na2vs0mg"},{"bike_id":"b655f0e5-9f54-4337-9f8f-e40c329da075","system_id":"levelo_inurba_marseille","lat":43.29324,"lon":5.37515,"is_reserved":false,"is_disabled":false,"rental_uris":{"android":"levelo://app?vid=b655f0e5-9f54-4337-9f8f-e40c329da075","ios":"levelo://app?vid=b655f0e5-9f54-4337-9f8f-e40c329da075"},"vehicle_type_id":"4","last_reported":1729361419,"current_range_meters":6400,"station_id":"","pricing_plan_id":"cebpf4jnsgd1na2vs0mg"},{"bike_id":"0333673e-92f5-4589-9f07-3dc8921a8927","system_id":"levelo_inurba_marseille","lat":43.30807,"lon":5.38156,"is_reserved":false,"is_disabled":false,"rental_uris":{"android":"levelo://app?vid=0333673e-92f5-4589-9f07-3dc8921a8927","ios":"levelo://app?vid=0333673e-92f5-4589-9f07-3dc8921a8927"},"vehicle_type_id":"4","last_reported":1729361419,"current_range_meters":12800,"station_id":"ce4bgt12rcd13ifvqce0","pricing_plan_id":"cebpf4jnsgd1na2vs0mg"},{"bike_id":"671a10b8-d8bc-43a2-bf32-bb64e85ccd6a","system_id":"levelo_inurba_marseille","lat":43.29007,"lon":5.35609,"is_reserved":false,"is_disabled":false,"rental_uris":{"android":"levelo://app?vid=671a10b8-d8bc-43a2-bf32-bb64e85ccd6a","ios":"levelo://app?vid=671a10b8-d8bc-43a2-bf32-bb64e85ccd6a"},"vehicle_type_id":"4","last_reported":1729361419,"current_range_meters":32000,"station_id":"ce4bhb92rcd13ifvqen0","pricing_plan_id":"cebpf4jnsgd1na2vs0mg"},{"bike_id":"b511bbc8-244c-44ba-84c5-5242bbd3cc67","system_id":"levelo_inurba_marseille","lat":43.2953,"lon":5.39409,"is_reserved":false,"is_disabled":false,"rental_uris":{"android":"levelo://app?vid=b511bbc8-244c-44ba-84c5-5242bbd3cc67","ios":"levelo://app?vid=b511bbc8-244c-44ba-84c5-5242bbd3cc67"},"vehicle_type_id":"4","last_reported":1729361419,"current_range_meters":28800,"station_id":"ce4bh292rcd13ifvqdf0","pricing_plan_id":"cebpf4jnsgd1na2vs0mg"},{"bike_id":"1b22dc93-04a8-484a-811d-cb926bf68b56","system_id":"levelo_inurba_marseille","lat":43.24666,"lon":5.38167,"is_reserved":false,"is_disabled":false,"rental_uris":{"android":"levelo://app?vid=1b22dc93-04a8-484a-811d-cb926bf68b56","ios":"levelo://app?vid=1b22dc93-04a8-484a-811d-cb926bf68b56"},"vehicle_type_id":"4","last_reported":1729361419,"current_range_meters":2800,"station_id":"ce4bhih2rcd13ifvqfr0","pricing_plan_id":"cebpf4jnsgd1na2vs0mg"},{"bike_id":"49b278fa-7ba3-49ad-963c-f5eff8426cf1","system_id":"levelo_inurba_marseille","lat":43.2988,"lon":5.39733,"is_reserved":false,"is_disabled":false,"rental_uris":{"android":"levelo://app?vid=49b278fa-7ba3-49ad-963c-f5eff8426cf1","ios":"levelo://app?vid=49b278fa-7ba3-49ad-963c-f5eff8426cf1"},"vehicle_type_id":"4","last_reported":1729361419,"current_range_meters":20400,"station_id":"ce4bh0h2rcd13ifvqd50","pricing_plan_id":"cebpf4jnsgd1na2vs0mg"},{"bike_id":"1cdda1b3-d009-4a5a-a94d-39ce5597f655","system_id":"levelo_inurba_marseille","lat":43.289368,"lon":5.366441,"is_reserved":false,"is_disabled":false,"rental_uris":{"android":"levelo://app?vid=1cdda1b3-d009-4a5a-a94d-39ce5597f655","ios":"levelo://app?vid=1cdda1b3-d009-4a5a-a94d-39ce5597f655"},"vehicle_type_id":"4","last_reported":1729361419,"current_range_meters":6800,"station_id":"ce4bhap2rcd13ifvqek0","pricing_plan_id":"cebpf4jnsgd1na2vs0mg"},{"bike_id":"1a7cc6cf-d482-4fa2-a802-01fb7da337c4","system_id":"levelo_inurba_marseille","lat":43.290026,"lon":5.356405,"is_reserved":false,"is_disabled":false,"rental_uris":{"android":"levelo://app?vid=1a7cc6cf-d482-4fa2-a802-01fb7da337c4","ios":"levelo://app?vid=1a7cc6cf-d482-4fa2-a802-01fb7da337c4"},"vehicle_type_id":"4","last_reported":1729361419,"current_range_meters":37600,"station_id":"ce4bhb92rcd13ifvqen0","pricing_plan_id":"cebpf4jnsgd1na2vs0mg"},{"bike_id":"bdaf4cca-3144-4b46-87aa-d2e662c78d1a","system_id":"levelo_inurba_marseille","lat":43.30887,"lon":5.39653,"is_reserved":false,"is_disabled":false,"rental_uris":{"android":"levelo://app?vid=bdaf4cca-3144-4b46-87aa-d2e662c78d1a","ios":"levelo://app?vid=bdaf4cca-3144-4b46-87aa-d2e662c78d1a"},"vehicle_type_id":"4","last_reported":1729361419,"current_range_meters":24000,"station_id":"ce4bh012rcd13ifvqcv0","pricing_plan_id":"cebpf4jnsgd1na2vs0mg"},{"bike_id":"9933756b-7e6b-41bb-a8fb-8f790a79672d","system_id":"levelo_inurba_marseille","lat":43.24388,"lon":5.37063,"is_reserved":false,"is_disabled":false,"rental_uris":{"android":"levelo://app?vid=9933756b-7e6b-41bb-a8fb-8f790a79672d","ios":"levelo://app?vid=9933756b-7e6b-41bb-a8fb-8f790a79672d"},"vehicle_type_id":"4","last_reported":1729361419,"current_range_meters":9200,"station_id":"ce4bhhh2rcd13ifvqfk0","pricing_plan_id":"cebpf4jnsgd1na2vs0mg"},{"bike_id":"c11b0555-b997-4036-8536-79587f1a9f2e","system_id":"levelo_inurba_marseille","lat":43.27669,"lon":5.38905,"is_reserved":false,"is_disabled":false,"rental_uris":{"android":"levelo://app?vid=c11b0555-b997-4036-8536-79587f1a9f2e","ios":"levelo://app?vid=c11b0555-b997-4036-8536-79587f1a9f2e"},"vehicle_type_id":"4","last_reported":1729361419,"current_range_meters":36800,"station_id":"ce4bhi12rcd13ifvqfo0","pricing_plan_id":"cebpf4jnsgd1na2vs0mg"},{"bike_id":"1d5b50e5-5d1b-47c2-806d-38054d4340c9","system_id":"levelo_inurba_marseille","lat":43.323395,"lon":5.406078,"is_reserved":false,"is_disabled":false,"rental_uris":{"android":"levelo://app?vid=1d5b50e5-5d1b-47c2-806d-38054d4340c9","ios":"levelo://app?vid=1d5b50e5-5d1b-47c2-806d-38054d4340c9"},"vehicle_type_id":"4","last_reported":1729361419,"current_range_meters":35200,"station_id":"ce4bhq92rcd13ifvqhjg","pricing_plan_id":"cebpf4jnsgd1na2vs0mg"},{"bike_id":"b5c40a57-fde0-4b3a-8522-4717ef7108e9","system_id":"levelo_inurba_marseille","lat":43.33015,"lon":5.39057,"is_reserved":false,"is_disabled":false,"rental_uris":{"android":"levelo://app?vid=b5c40a57-fde0-4b3a-8522-4717ef7108e9","ios":"levelo://app?vid=b5c40a57-fde0-4b3a-8522-4717ef7108e9"},"vehicle_type_id":"4","last_reported":1729361419,"current_range_meters":38800,"station_id":"ce4bhr92rcd13ifvqhrg","pricing_plan_id":"cebpf4jnsgd1na2vs0mg"},{"bike_id":"3b30aa0d-56cf-49ee-9f2d-906572b38809","system_id":"levelo_inurba_marseille","lat":43.25726,"lon":5.41108,"is_reserved":false,"is_disabled":false,"rental_uris":{"android":"levelo://app?vid=3b30aa0d-56cf-49ee-9f2d-906572b38809","ios":"levelo://app?vid=3b30aa0d-56cf-49ee-9f2d-906572b38809"},"vehicle_type_id":"4","last_reported":1729361419,"current_range_meters":3600,"station_id":"ce4bhkp2rcd13ifvqgd0","pricing_plan_id":"cebpf4jnsgd1na2vs0mg"},{"bike_id":"c45f5836-d7de-4e5b-a0bc-717d125c45ee","system_id":"levelo_inurba_marseille","lat":43.28146,"lon":5.42654,"is_reserved":false,"is_disabled":false,"rental_uris":{"android":"levelo://app?vid=c45f5836-d7de-4e5b-a0bc-717d125c45ee","ios":"levelo://app?vid=c45f5836-d7de-4e5b-a0bc-717d125c45ee"},"vehicle_type_id":"4","last_reported":1729361419,"current_range_meters":27600,"station_id":"ce4bhnh2rcd13ifvqgug","pricing_plan_id":"cebpf4jnsgd1na2vs0mg"},{"bike_id":"7665ffce-57b0-4387-8b76-3996a09d2e42","system_id":"levelo_inurba_marseille","lat":43.30877,"lon":5.39658,"is_reserved":false,"is_disabled":false,"rental_uris":{"android":"levelo://app?vid=7665ffce-57b0-4387-8b76-3996a09d2e42","ios":"levelo://app?vid=7665ffce-57b0-4387-8b76-3996a09d2e42"},"vehicle_type_id":"4","last_reported":1729361419,"current_range_meters":36800,"station_id":"ce4bh012rcd13ifvqcv0","pricing_plan_id":"cebpf4jnsgd1na2vs0mg"},{"bike_id":"973ed72c-b5a5-4d11-b0b5-0e5d432ccd29","system_id":"levelo_inurba_marseille","lat":43.29669,"lon":5.38546,"is_reserved":false,"is_disabled":false,"rental_uris":{"android":"levelo://app?vid=973ed72c-b5a5-4d11-b0b5-0e5d432ccd29","ios":"levelo://app?vid=973ed72c-b5a5-4d11-b0b5-0e5d432ccd29"},"vehicle_type_id":"4","last_reported":1729361419,"current_range_meters":19600,"station_id":"","pricing_plan_id":"cebpf4jnsgd1na2vs0mg"},{"bike_id":"f4bdcd26-c10c-4726-adda-70320b9482bc","system_id":"levelo_inurba_marseille","lat":43.24806,"lon":5.37456,"is_reserved":false,"is_disabled":false,"rental_uris":{"android":"levelo://app?vid=f4bdcd26-c10c-4726-adda-70320b9482bc","ios":"levelo://app?vid=f4bdcd26-c10c-4726-adda-70320b9482bc"},"vehicle_type_id":"4","last_reported":1729361419,"current_range_meters":8800,"station_id":"ce4bhgh2rcd13ifvqfb0","pricing_plan_id":"cebpf4jnsgd1na2vs0mg"},{"bike_id":"aac42e18-ee0e-47ce-a2aa-de5ff259f156","system_id":"levelo_inurba_marseille","lat":43.29295,"lon":5.37452,"is_reserved":false,"is_disabled":false,"rental_uris":{"android":"levelo://app?vid=aac42e18-ee0e-47ce-a2aa-de5ff259f156","ios":"levelo://app?vid=aac42e18-ee0e-47ce-a2aa-de5ff259f156"},"vehicle_type_id":"4","last_reported":1729361419,"current_range_meters":36000,"station_id":"ce4bgi12rcd13ifvqb70","pricing_plan_id":"cebpf4jnsgd1na2vs0mg"},{"bike_id":"c13feaed-e9a2-4048-b90f-54b6d1b79390","system_id":"levelo_inurba_marseille","lat":43.269042,"lon":5.402832,"is_reserved":false,"is_disabled":false,"rental_uris":{"android":"levelo://app?vid=c13feaed-e9a2-4048-b90f-54b6d1b79390","ios":"levelo://app?vid=c13feaed-e9a2-4048-b90f-54b6d1b79390"},"vehicle_type_id":"4","last_reported":1729361419,"current_range_meters":22400,"station_id":"cjm6bp8fraef2m0cb0m0","pricing_plan_id":"cebpf4jnsgd1na2vs0mg"},{"bike_id":"cbcfccfd-a876-448a-9e85-487da1c426f2","system_id":"levelo_inurba_marseille","lat":43.29264,"lon":5.38443,"is_reserved":false,"is_disabled":false,"rental_uris":{"android":"levelo://app?vid=cbcfccfd-a876-448a-9e85-487da1c426f2","ios":"levelo://app?vid=cbcfccfd-a876-448a-9e85-487da1c426f2"},"vehicle_type_id":"4","last_reported":1729361419,"current_range_meters":8000,"station_id":"","pricing_plan_id":"cebpf4jnsgd1na2vs0mg"},{"bike_id":"3b8be740-4bb9-4b83-b11e-1b4ed2732264","system_id":"levelo_inurba_marseille","lat":43.30591,"lon":5.37215,"is_reserved":false,"is_disabled":false,"rental_uris":{"android":"levelo://app?vid=3b8be740-4bb9-4b83-b11e-1b4ed2732264","ios":"levelo://app?vid=3b8be740-4bb9-4b83-b11e-1b4ed2732264"},"vehicle_type_id":"4","last_reported":1729361419,"current_range_meters":6000,"station_id":"ce4bgqh2rcd13ifvqc4g","pricing_plan_id":"cebpf4jnsgd1na2vs0mg"},{"bike_id":"6234e2d8-fcf8-473c-b258-7f97c5296750","system_id":"levelo_inurba_marseille","lat":43.31073,"lon":5.38365,"is_reserved":false,"is_disabled":false,"rental_uris":{"android":"levelo://app?vid=6234e2d8-fcf8-473c-b258-7f97c5296750","ios":"levelo://app?vid=6234e2d8-fcf8-473c-b258-7f97c5296750"},"vehicle_type_id":"4","last_reported":1729361419,"current_range_meters":6400,"station_id":"ce4bgv92rcd13ifvqcr0","pricing_plan_id":"cebpf4jnsgd1na2vs0mg"},{"bike_id":"16274338-0f0f-43b2-8d48-117252200509","system_id":"levelo_inurba_marseille","lat":43.26025,"lon":5.37549,"is_reserved":false,"is_disabled":false,"rental_uris":{"android":"levelo://app?vid=16274338-0f0f-43b2-8d48-117252200509","ios":"levelo://app?vid=16274338-0f0f-43b2-8d48-117252200509"},"vehicle_type_id":"4","last_reported":1729361419,"current_range_meters":28400,"station_id":"ce4bhgh2rcd13ifvqfa0","pricing_plan_id":"cebpf4jnsgd1na2vs0mg"},{"bike_id":"d4af87b5-8c1f-4338-81b3-ded6e7a363d4","system_id":"levelo_inurba_marseille","lat":43.32485,"lon":5.36563,"is_reserved":false,"is_disabled":false,"rental_uris":{"android":"levelo://app?vid=d4af87b5-8c1f-4338-81b3-ded6e7a363d4","ios":"levelo://app?vid=d4af87b5-8c1f-4338-81b3-ded6e7a363d4"},"vehicle_type_id":"4","last_reported":1729361419,"current_range_meters":32400,"station_id":"ce4bhs12rcd13ifvqhvg","pricing_plan_id":"cebpf4jnsgd1na2vs0mg"},{"bike_id":"1f84caf2-f116-4ab9-8264-fe2b1516bbba","system_id":"levelo_inurba_marseille","lat":43.32338,"lon":5.40627,"is_reserved":false,"is_disabled":false,"rental_uris":{"android":"levelo://app?vid=1f84caf2-f116-4ab9-8264-fe2b1516bbba","ios":"levelo://app?vid=1f84caf2-f116-4ab9-8264-fe2b1516bbba"},"vehicle_type_id":"4","last_reported":1729361419,"current_range_meters":5600,"station_id":"ce4bhq92rcd13ifvqhjg","pricing_plan_id":"cebpf4jnsgd1na2vs0mg"},{"bike_id":"17a11b59-4795-455d-9044-9dbb5807646e","system_id":"levelo_inurba_marseille","lat":43.2836,"lon":5.38635,"is_reserved":false,"is_disabled":false,"rental_uris":{"android":"levelo://app?vid=17a11b59-4795-455d-9044-9dbb5807646e","ios":"levelo://app?vid=17a11b59-4795-455d-9044-9dbb5807646e"},"vehicle_type_id":"4","last_reported":1729361419,"current_range_meters":38800,"station_id":"ce4bh492rcd13ifvqdvg","pricing_plan_id":"cebpf4jnsgd1na2vs0mg"},{"bike_id":"1e8c75c9-26d8-472a-ab2b-73b6ddee2a44","system_id":"levelo_inurba_marseille","lat":43.28728,"lon":5.37941,"is_reserved":false,"is_disabled":false,"rental_uris":{"android":"levelo://app?vid=1e8c75c9-26d8-472a-ab2b-73b6ddee2a44","ios":"levelo://app?vid=1e8c75c9-26d8-472a-ab2b-73b6ddee2a44"},"vehicle_type_id":"4","last_reported":1729361419,"current_range_meters":10800,"station_id":"ce4bh9p2rcd13ifvqec0","pricing_plan_id":"cebpf4jnsgd1na2vs0mg"},{"bike_id":"636a7083-32bd-48d9-a27a-7a6ebb70df79","system_id":"levelo_inurba_marseille","lat":43.28038,"lon":5.36952,"is_reserved":false,"is_disabled":false,"rental_uris":{"android":"levelo://app?vid=636a7083-32bd-48d9-a27a-7a6ebb70df79","ios":"levelo://app?vid=636a7083-32bd-48d9-a27a-7a6ebb70df79"},"vehicle_type_id":"4","last_reported":1729361419,"current_range_meters":5600,"station_id":"ce4bha12rcd13ifvqef0","pricing_plan_id":"cebpf4jnsgd1na2vs0mg"},{"bike_id":"1f3509ba-e381-4ec6-be89-215d547f5abf","system_id":"levelo_inurba_marseille","lat":43.25001,"lon":5.38925,"is_reserved":false,"is_disabled":false,"rental_uris":{"android":"levelo://app?vid=1f3509ba-e381-4ec6-be89-215d547f5abf","ios":"levelo://app?vid=1f3509ba-e381-4ec6-be89-215d547f5abf"},"vehicle_type_id":"4","last_reported":1729361419,"current_range_meters":16400,"station_id":"ce4bhgp2rcd13ifvqfd0","pricing_plan_id":"cebpf4jnsgd1na2vs0mg"},{"bike_id":"6dbffe47-3589-424f-9f96-d0b5a1cc34fe","system_id":"levelo_inurba_marseille","lat":43.30885,"lon":5.39652,"is_reserved":false,"is_disabled":false,"rental_uris":{"android":"levelo://app?vid=6dbffe47-3589-424f-9f96-d0b5a1cc34fe","ios":"levelo://app?vid=6dbffe47-3589-424f-9f96-d0b5a1cc34fe"},"vehicle_type_id":"4","last_reported":1729361419,"current_range_meters":14400,"station_id":"ce4bh012rcd13ifvqcv0","pricing_plan_id":"cebpf4jnsgd1na2vs0mg"},{"bike_id":"39bcbfc8-051b-4d3d-b5af-f90079523f96","system_id":"levelo_inurba_marseille","lat":43.28729,"lon":5.37942,"is_reserved":false,"is_disabled":false,"rental_uris":{"android":"levelo://app?vid=39bcbfc8-051b-4d3d-b5af-f90079523f96","ios":"levelo://app?vid=39bcbfc8-051b-4d3d-b5af-f90079523f96"},"vehicle_type_id":"4","last_reported":1729361419,"current_range_meters":38400,"station_id":"ce4bh9p2rcd13ifvqec0","pricing_plan_id":"cebpf4jnsgd1na2vs0mg"},{"bike_id":"c2be442f-887b-41c5-974c-86cbda7aef26","system_id":"levelo_inurba_marseille","lat":43.26943,"lon":5.40256,"is_reserved":false,"is_disabled":false,"rental_uris":{"android":"levelo://app?vid=c2be442f-887b-41c5-974c-86cbda7aef26","ios":"levelo://app?vid=c2be442f-887b-41c5-974c-86cbda7aef26"},"vehicle_type_id":"4","last_reported":1729361419,"current_range_meters":6800,"station_id":"cjm6bp8fraef2m0cb0m0","pricing_plan_id":"cebpf4jnsgd1na2vs0mg"},{"bike_id":"9d767dd8-991f-4106-b443-e4f6b529bbb6","system_id":"levelo_inurba_marseille","lat":43.29039,"lon":5.37566,"is_reserved":false,"is_disabled":false,"rental_uris":{"android":"levelo://app?vid=9d767dd8-991f-4106-b443-e4f6b529bbb6","ios":"levelo://app?vid=9d767dd8-991f-4106-b443-e4f6b529bbb6"},"vehicle_type_id":"4","last_reported":1729361419,"current_range_meters":27200,"station_id":"ce4bh692rcd13ifvqe90","pricing_plan_id":"cebpf4jnsgd1na2vs0mg"},{"bike_id":"d247ee7e-36c9-492e-938e-cb0777b92fbc","system_id":"levelo_inurba_marseille","lat":43.25726,"lon":5.41113,"is_reserved":false,"is_disabled":false,"rental_uris":{"android":"levelo://app?vid=d247ee7e-36c9-492e-938e-cb0777b92fbc","ios":"levelo://app?vid=d247ee7e-36c9-492e-938e-cb0777b92fbc"},"vehicle_type_id":"4","last_reported":1729361419,"current_range_meters":7200,"station_id":"ce4bhkp2rcd13ifvqgd0","pricing_plan_id":"cebpf4jnsgd1na2vs0mg"},{"bike_id":"a4e97031-6216-4f8a-9a4e-3bdcce9711c8","system_id":"levelo_inurba_marseille","lat":43.318817,"lon":5.407317,"is_reserved":false,"is_disabled":false,"rental_uris":{"android":"levelo://app?vid=a4e97031-6216-4f8a-9a4e-3bdcce9711c8","ios":"levelo://app?vid=a4e97031-6216-4f8a-9a4e-3bdcce9711c8"},"vehicle_type_id":"4","last_reported":1729361419,"current_range_meters":14000,"station_id":"ce4bhq12rcd13ifvqhig","pricing_plan_id":"cebpf4jnsgd1na2vs0mg"},{"bike_id":"b4470363-8e23-4f02-a75e-beb39a6eaf32","system_id":"levelo_inurba_marseille","lat":43.23968,"lon":5.36633,"is_reserved":false,"is_disabled":false,"rental_uris":{"android":"levelo://app?vid=b4470363-8e23-4f02-a75e-beb39a6eaf32","ios":"levelo://app?vid=b4470363-8e23-4f02-a75e-beb39a6eaf32"},"vehicle_type_id":"4","last_reported":1729361419,"current_range_meters":3200,"station_id":"ce4bhi12rcd13ifvqfp0","pricing_plan_id":"cebpf4jnsgd1na2vs0mg"},{"bike_id":"f18653be-7146-4061-b087-90fa24f5a49d","system_id":"levelo_inurba_marseille","lat":43.24072,"lon":5.37764,"is_reserved":false,"is_disabled":false,"rental_uris":{"android":"levelo://app?vid=f18653be-7146-4061-b087-90fa24f5a49d","ios":"levelo://app?vid=f18653be-7146-4061-b087-90fa24f5a49d"},"vehicle_type_id":"4","last_reported":1729361419,"current_range_meters":16400,"station_id":"ce4bhnp2rcd13ifvqgvg","pricing_plan_id":"cebpf4jnsgd1na2vs0mg"},{"bike_id":"16a316be-2d55-4127-848d-5f45bee6fc13","system_id":"levelo_inurba_marseille","lat":43.29914,"lon":5.38139,"is_reserved":false,"is_disabled":false,"rental_uris":{"android":"levelo://app?vid=16a316be-2d55-4127-848d-5f45bee6fc13","ios":"levelo://app?vid=16a316be-2d55-4127-848d-5f45bee6fc13"},"vehicle_type_id":"4","last_reported":1729361419,"current_range_meters":8800,"station_id":"ce4bgj12rcd13ifvqbc0","pricing_plan_id":"cebpf4jnsgd1na2vs0mg"},{"bike_id":"023fd4ad-0b97-4192-b5e1-73d82911bd9a","system_id":"levelo_inurba_marseille","lat":43.25082,"lon":5.3952,"is_reserved":false,"is_disabled":false,"rental_uris":{"android":"levelo://app?vid=023fd4ad-0b97-4192-b5e1-73d82911bd9a","ios":"levelo://app?vid=023fd4ad-0b97-4192-b5e1-73d82911bd9a"},"vehicle_type_id":"4","last_reported":1729361419,"current_range_meters":38800,"station_id":"ce4bhm12rcd13ifvqgkg","pricing_plan_id":"cebpf4jnsgd1na2vs0mg"},{"bike_id":"2d8d9d07-b4df-4f90-9fab-445507c32f93","system_id":"levelo_inurba_marseille","lat":43.3171,"lon":5.37748,"is_reserved":false,"is_disabled":false,"rental_uris":{"android":"levelo://app?vid=2d8d9d07-b4df-4f90-9fab-445507c32f93","ios":"levelo://app?vid=2d8d9d07-b4df-4f90-9fab-445507c32f93"},"vehicle_type_id":"4","last_reported":1729361419,"current_range_meters":8800,"station_id":"ce4bgth2rcd13ifvqch0","pricing_plan_id":"cebpf4jnsgd1na2vs0mg"},{"bike_id":"589be944-bb6a-4db7-a1fe-d9d395bfea19","system_id":"levelo_inurba_marseille","lat":43.239627,"lon":5.366235,"is_reserved":false,"is_disabled":false,"rental_uris":{"android":"levelo://app?vid=589be944-bb6a-4db7-a1fe-d9d395bfea19","ios":"levelo://app?vid=589be944-bb6a-4db7-a1fe-d9d395bfea19"},"vehicle_type_id":"4","last_reported":1729361419,"current_range_meters":16800,"station_id":"ce4bhi12rcd13ifvqfp0","pricing_plan_id":"cebpf4jnsgd1na2vs0mg"},{"bike_id":"1afb62ff-553e-43c1-a680-6f0d1d792bc8","system_id":"levelo_inurba_marseille","lat":43.29574,"lon":5.367371,"is_reserved":false,"is_disabled":false,"rental_uris":{"android":"levelo://app?vid=1afb62ff-553e-43c1-a680-6f0d1d792bc8","ios":"levelo://app?vid=1afb62ff-553e-43c1-a680-6f0d1d792bc8"},"vehicle_type_id":"4","last_reported":1729361419,"current_range_meters":12000,"station_id":"ce4bgph2rcd13ifvqc2g","pricing_plan_id":"cebpf4jnsgd1na2vs0mg"},{"bike_id":"92989e3e-37c8-4b6d-970e-22e72e334b87","system_id":"levelo_inurba_marseille","lat":43.2407,"lon":5.377667,"is_reserved":false,"is_disabled":false,"rental_uris":{"android":"levelo://app?vid=92989e3e-37c8-4b6d-970e-22e72e334b87","ios":"levelo://app?vid=92989e3e-37c8-4b6d-970e-22e72e334b87"},"vehicle_type_id":"4","last_reported":1729361419,"current_range_meters":10800,"station_id":"ce4bhnp2rcd13ifvqgvg","pricing_plan_id":"cebpf4jnsgd1na2vs0mg"},{"bike_id":"c61834e5-ab0c-4e12-b32f-eb9d3c1af5fe","system_id":"levelo_inurba_marseille","lat":43.23967,"lon":5.36628,"is_reserved":false,"is_disabled":false,"rental_uris":{"android":"levelo://app?vid=c61834e5-ab0c-4e12-b32f-eb9d3c1af5fe","ios":"levelo://app?vid=c61834e5-ab0c-4e12-b32f-eb9d3c1af5fe"},"vehicle_type_id":"4","last_reported":1729361419,"current_range_meters":20000,"station_id":"ce4bhi12rcd13ifvqfp0","pricing_plan_id":"cebpf4jnsgd1na2vs0mg"},{"bike_id":"c3d2d676-df5e-457f-b79c-4b8b55a95093","system_id":"levelo_inurba_marseille","lat":43.29802,"lon":5.38092,"is_reserved":false,"is_disabled":false,"rental_uris":{"android":"levelo://app?vid=c3d2d676-df5e-457f-b79c-4b8b55a95093","ios":"levelo://app?vid=c3d2d676-df5e-457f-b79c-4b8b55a95093"},"vehicle_type_id":"4","last_reported":1729361419,"current_range_meters":38000,"station_id":"ce4bgip2rcd13ifvqbb0","pricing_plan_id":"cebpf4jnsgd1na2vs0mg"},{"bike_id":"d6726164-ed5c-49eb-8d02-1558d682ef71","system_id":"levelo_inurba_marseille","lat":43.28568,"lon":5.39507,"is_reserved":false,"is_disabled":false,"rental_uris":{"android":"levelo://app?vid=d6726164-ed5c-49eb-8d02-1558d682ef71","ios":"levelo://app?vid=d6726164-ed5c-49eb-8d02-1558d682ef71"},"vehicle_type_id":"4","last_reported":1729361419,"current_range_meters":19600,"station_id":"ce4bh292rcd13ifvqdg0","pricing_plan_id":"cebpf4jnsgd1na2vs0mg"},{"bike_id":"581a8da3-3ba7-4e29-a8b2-3a9e9971f05d","system_id":"levelo_inurba_marseille","lat":43.29791,"lon":5.39343,"is_reserved":false,"is_disabled":false,"rental_uris":{"android":"levelo://app?vid=581a8da3-3ba7-4e29-a8b2-3a9e9971f05d","ios":"levelo://app?vid=581a8da3-3ba7-4e29-a8b2-3a9e9971f05d"},"vehicle_type_id":"4","last_reported":1729361419,"current_range_meters":22400,"station_id":"chh1huq6cuj3fo74tm60","pricing_plan_id":"cebpf4jnsgd1na2vs0mg"},{"bike_id":"065b87ca-b4a3-4800-b247-0f13e517cfcb","system_id":"levelo_inurba_marseille","lat":43.31352,"lon":5.36724,"is_reserved":false,"is_disabled":false,"rental_uris":{"android":"levelo://app?vid=065b87ca-b4a3-4800-b247-0f13e517cfcb","ios":"levelo://app?vid=065b87ca-b4a3-4800-b247-0f13e517cfcb"},"vehicle_type_id":"4","last_reported":1729361419,"current_range_meters":7200,"station_id":"ce4bgr92rcd13ifvqc6g","pricing_plan_id":"cebpf4jnsgd1na2vs0mg"},{"bike_id":"bf9cd796-8916-40ab-b1ac-dd6245e36db2","system_id":"levelo_inurba_marseille","lat":43.24805,"lon":5.37455,"is_reserved":false,"is_disabled":false,"rental_uris":{"android":"levelo://app?vid=bf9cd796-8916-40ab-b1ac-dd6245e36db2","ios":"levelo://app?vid=bf9cd796-8916-40ab-b1ac-dd6245e36db2"},"vehicle_type_id":"4","last_reported":1729361419,"current_range_meters":8400,"station_id":"ce4bhgh2rcd13ifvqfb0","pricing_plan_id":"cebpf4jnsgd1na2vs0mg"},{"bike_id":"74fdfb54-1930-4756-a0b8-9d0566e42c09","system_id":"levelo_inurba_marseille","lat":43.32107,"lon":5.36772,"is_reserved":false,"is_disabled":false,"rental_uris":{"android":"levelo://app?vid=74fdfb54-1930-4756-a0b8-9d0566e42c09","ios":"levelo://app?vid=74fdfb54-1930-4756-a0b8-9d0566e42c09"},"vehicle_type_id":"4","last_reported":1729361419,"current_range_meters":29600,"station_id":"ce4bhrh2rcd13ifvqhug","pricing_plan_id":"cebpf4jnsgd1na2vs0mg"},{"bike_id":"d16e6863-a99e-4f27-b38f-093d646cef75","system_id":"levelo_inurba_marseille","lat":43.28662,"lon":5.36368,"is_reserved":false,"is_disabled":false,"rental_uris":{"android":"levelo://app?vid=d16e6863-a99e-4f27-b38f-093d646cef75","ios":"levelo://app?vid=d16e6863-a99e-4f27-b38f-093d646cef75"},"vehicle_type_id":"4","last_reported":1729361419,"current_range_meters":5600,"station_id":"ce4bhah2rcd13ifvqej0","pricing_plan_id":"cebpf4jnsgd1na2vs0mg"},{"bike_id":"2e0f290d-7f26-490e-a919-0b1092bb3062","system_id":"levelo_inurba_marseille","lat":43.28857,"lon":5.37143,"is_reserved":false,"is_disabled":false,"rental_uris":{"android":"levelo://app?vid=2e0f290d-7f26-490e-a919-0b1092bb3062","ios":"levelo://app?vid=2e0f290d-7f26-490e-a919-0b1092bb3062"},"vehicle_type_id":"4","last_reported":1729361419,"current_range_meters":6400,"station_id":"","pricing_plan_id":"cebpf4jnsgd1na2vs0mg"},{"bike_id":"d4d1152e-f63b-4c09-99e3-600941ff12af","system_id":"levelo_inurba_marseille","lat":43.31758,"lon":5.39018,"is_reserved":false,"is_disabled":false,"rental_uris":{"android":"levelo://app?vid=d4d1152e-f63b-4c09-99e3-600941ff12af","ios":"levelo://app?vid=d4d1152e-f63b-4c09-99e3-600941ff12af"},"vehicle_type_id":"4","last_reported":1729361419,"current_range_meters":6000,"station_id":"ce4bhqp2rcd13ifvqhng","pricing_plan_id":"cebpf4jnsgd1na2vs0mg"},{"bike_id":"ff397456-a5c8-4731-9521-b7dc08de0ede","system_id":"levelo_inurba_marseille","lat":43.24803,"lon":5.3746,"is_reserved":false,"is_disabled":false,"rental_uris":{"android":"levelo://app?vid=ff397456-a5c8-4731-9521-b7dc08de0ede","ios":"levelo://app?vid=ff397456-a5c8-4731-9521-b7dc08de0ede"},"vehicle_type_id":"4","last_reported":1729361419,"current_range_meters":9200,"station_id":"ce4bhgh2rcd13ifvqfb0","pricing_plan_id":"cebpf4jnsgd1na2vs0mg"},{"bike_id":"5acf7479-c867-4904-810d-676c0a58103e","system_id":"levelo_inurba_marseille","lat":43.29267,"lon":5.38449,"is_reserved":false,"is_disabled":false,"rental_uris":{"android":"levelo://app?vid=5acf7479-c867-4904-810d-676c0a58103e","ios":"levelo://app?vid=5acf7479-c867-4904-810d-676c0a58103e"},"vehicle_type_id":"4","last_reported":1729361419,"current_range_meters":11600,"station_id":"","pricing_plan_id":"cebpf4jnsgd1na2vs0mg"},{"bike_id":"373022c6-0c5e-4ab5-a096-0f5e1d5769b4","system_id":"levelo_inurba_marseille","lat":43.25202,"lon":5.37345,"is_reserved":false,"is_disabled":false,"rental_uris":{"android":"levelo://app?vid=373022c6-0c5e-4ab5-a096-0f5e1d5769b4","ios":"levelo://app?vid=373022c6-0c5e-4ab5-a096-0f5e1d5769b4"},"vehicle_type_id":"4","last_reported":1729361419,"current_range_meters":7200,"station_id":"","pricing_plan_id":"cebpf4jnsgd1na2vs0mg"},{"bike_id":"c0caa875-610b-4891-a1ef-e9cf6939ea99","system_id":"levelo_inurba_marseille","lat":43.31339,"lon":5.36731,"is_reserved":false,"is_disabled":false,"rental_uris":{"android":"levelo://app?vid=c0caa875-610b-4891-a1ef-e9cf6939ea99","ios":"levelo://app?vid=c0caa875-610b-4891-a1ef-e9cf6939ea99"},"vehicle_type_id":"4","last_reported":1729361419,"current_range_meters":38800,"station_id":"ce4bgr92rcd13ifvqc6g","pricing_plan_id":"cebpf4jnsgd1na2vs0mg"},{"bike_id":"996b68ea-a3b8-48c9-9cf2-f66df1d63882","system_id":"levelo_inurba_marseille","lat":43.23202,"lon":5.35554,"is_reserved":false,"is_disabled":false,"rental_uris":{"android":"levelo://app?vid=996b68ea-a3b8-48c9-9cf2-f66df1d63882","ios":"levelo://app?vid=996b68ea-a3b8-48c9-9cf2-f66df1d63882"},"vehicle_type_id":"4","last_reported":1729361419,"current_range_meters":16800,"station_id":"ce4bhu92rcd13ifvqi70","pricing_plan_id":"cebpf4jnsgd1na2vs0mg"},{"bike_id":"3a186089-f4a5-4f34-bbf7-8a5b34711c85","system_id":"levelo_inurba_marseille","lat":43.2942,"lon":5.38625,"is_reserved":false,"is_disabled":false,"rental_uris":{"android":"levelo://app?vid=3a186089-f4a5-4f34-bbf7-8a5b34711c85","ios":"levelo://app?vid=3a186089-f4a5-4f34-bbf7-8a5b34711c85"},"vehicle_type_id":"4","last_reported":1729361419,"current_range_meters":4000,"station_id":"ce4bh2h2rcd13ifvqdh0","pricing_plan_id":"cebpf4jnsgd1na2vs0mg"},{"bike_id":"7c9d38ea-fe9f-4e12-ad56-2bcf7b33ec11","system_id":"levelo_inurba_marseille","lat":43.28447,"lon":5.39207,"is_reserved":false,"is_disabled":false,"rental_uris":{"android":"levelo://app?vid=7c9d38ea-fe9f-4e12-ad56-2bcf7b33ec11","ios":"levelo://app?vid=7c9d38ea-fe9f-4e12-ad56-2bcf7b33ec11"},"vehicle_type_id":"4","last_reported":1729361419,"current_range_meters":24400,"station_id":"ce4bhoh2rcd13ifvqh5g","pricing_plan_id":"cebpf4jnsgd1na2vs0mg"},{"bike_id":"474d5c64-4154-4ae7-b02e-9a105d79c6fa","system_id":"levelo_inurba_marseille","lat":43.23963,"lon":5.36632,"is_reserved":false,"is_disabled":false,"rental_uris":{"android":"levelo://app?vid=474d5c64-4154-4ae7-b02e-9a105d79c6fa","ios":"levelo://app?vid=474d5c64-4154-4ae7-b02e-9a105d79c6fa"},"vehicle_type_id":"4","last_reported":1729361419,"current_range_meters":16800,"station_id":"ce4bhi12rcd13ifvqfp0","pricing_plan_id":"cebpf4jnsgd1na2vs0mg"},{"bike_id":"816d778e-8f0a-46ad-9887-325468adb109","system_id":"levelo_inurba_marseille","lat":43.30884,"lon":5.39661,"is_reserved":false,"is_disabled":false,"rental_uris":{"android":"levelo://app?vid=816d778e-8f0a-46ad-9887-325468adb109","ios":"levelo://app?vid=816d778e-8f0a-46ad-9887-325468adb109"},"vehicle_type_id":"4","last_reported":1729361419,"current_range_meters":22000,"station_id":"ce4bh012rcd13ifvqcv0","pricing_plan_id":"cebpf4jnsgd1na2vs0mg"},{"bike_id":"42b3d2ac-edfd-4e54-a4a2-b674f7665a56","system_id":"levelo_inurba_marseille","lat":43.32108,"lon":5.36768,"is_reserved":false,"is_disabled":false,"rental_uris":{"android":"levelo://app?vid=42b3d2ac-edfd-4e54-a4a2-b674f7665a56","ios":"levelo://app?vid=42b3d2ac-edfd-4e54-a4a2-b674f7665a56"},"vehicle_type_id":"4","last_reported":1729361419,"current_range_meters":18800,"station_id":"ce4bhrh2rcd13ifvqhug","pricing_plan_id":"cebpf4jnsgd1na2vs0mg"},{"bike_id":"f20a9a6d-1289-407f-ab9b-0cc980eecef1","system_id":"levelo_inurba_marseille","lat":43.27782,"lon":5.3826,"is_reserved":false,"is_disabled":false,"rental_uris":{"android":"levelo://app?vid=f20a9a6d-1289-407f-ab9b-0cc980eecef1","ios":"levelo://app?vid=f20a9a6d-1289-407f-ab9b-0cc980eecef1"},"vehicle_type_id":"4","last_reported":1729361419,"current_range_meters":8400,"station_id":"","pricing_plan_id":"cebpf4jnsgd1na2vs0mg"},{"bike_id":"50055790-37f6-4b1a-b8cc-40c33b0ac868","system_id":"levelo_inurba_marseille","lat":43.29533,"lon":5.38543,"is_reserved":false,"is_disabled":false,"rental_uris":{"android":"levelo://app?vid=50055790-37f6-4b1a-b8cc-40c33b0ac868","ios":"levelo://app?vid=50055790-37f6-4b1a-b8cc-40c33b0ac868"},"vehicle_type_id":"4","last_reported":1729361419,"current_range_meters":32800,"station_id":"ce4bgih2rcd13ifvqba0","pricing_plan_id":"cebpf4jnsgd1na2vs0mg"},{"bike_id":"cf8bfc6c-eae3-443f-b86f-69e936da0d62","system_id":"levelo_inurba_marseille","lat":43.31711,"lon":5.43703,"is_reserved":false,"is_disabled":false,"rental_uris":{"android":"levelo://app?vid=cf8bfc6c-eae3-443f-b86f-69e936da0d62","ios":"levelo://app?vid=cf8bfc6c-eae3-443f-b86f-69e936da0d62"},"vehicle_type_id":"4","last_reported":1729361419,"current_range_meters":34000,"station_id":"ce4bhp92rcd13ifvqhcg","pricing_plan_id":"cebpf4jnsgd1na2vs0mg"},{"bike_id":"640c5a9a-fa7a-4cb2-95d1-5526413d3030","system_id":"levelo_inurba_marseille","lat":43.31897,"lon":5.40744,"is_reserved":false,"is_disabled":false,"rental_uris":{"android":"levelo://app?vid=640c5a9a-fa7a-4cb2-95d1-5526413d3030","ios":"levelo://app?vid=640c5a9a-fa7a-4cb2-95d1-5526413d3030"},"vehicle_type_id":"4","last_reported":1729361419,"current_range_meters":29600,"station_id":"ce4bhq12rcd13ifvqhig","pricing_plan_id":"cebpf4jnsgd1na2vs0mg"},{"bike_id":"07aa2d0f-5f5e-41ea-9e8c-d47062a2d959","system_id":"levelo_inurba_marseille","lat":43.29261,"lon":5.38432,"is_reserved":false,"is_disabled":false,"rental_uris":{"android":"levelo://app?vid=07aa2d0f-5f5e-41ea-9e8c-d47062a2d959","ios":"levelo://app?vid=07aa2d0f-5f5e-41ea-9e8c-d47062a2d959"},"vehicle_type_id":"4","last_reported":1729361419,"current_range_meters":9200,"station_id":"","pricing_plan_id":"cebpf4jnsgd1na2vs0mg"},{"bike_id":"fe444dcf-a4dc-4938-87f5-91795f672c37","system_id":"levelo_inurba_marseille","lat":43.31489,"lon":5.37312,"is_reserved":false,"is_disabled":false,"rental_uris":{"android":"levelo://app?vid=fe444dcf-a4dc-4938-87f5-91795f672c37","ios":"levelo://app?vid=fe444dcf-a4dc-4938-87f5-91795f672c37"},"vehicle_type_id":"4","last_reported":1729361419,"current_range_meters":38800,"station_id":"ce4bgt12rcd13ifvqcd0","pricing_plan_id":"cebpf4jnsgd1na2vs0mg"},{"bike_id":"d76f8fb2-e465-4914-bd30-8ff858c681c4","system_id":"levelo_inurba_marseille","lat":43.295929,"lon":5.367969,"is_reserved":false,"is_disabled":false,"rental_uris":{"android":"levelo://app?vid=d76f8fb2-e465-4914-bd30-8ff858c681c4","ios":"levelo://app?vid=d76f8fb2-e465-4914-bd30-8ff858c681c4"},"vehicle_type_id":"4","last_reported":1729361419,"current_range_meters":35600,"station_id":"ce4bgpp2rcd13ifvqc3g","pricing_plan_id":"cebpf4jnsgd1na2vs0mg"},{"bike_id":"4fcc063b-1286-453e-9e63-4772686f4945","system_id":"levelo_inurba_marseille","lat":43.281647,"lon":5.426706,"is_reserved":false,"is_disabled":false,"rental_uris":{"android":"levelo://app?vid=4fcc063b-1286-453e-9e63-4772686f4945","ios":"levelo://app?vid=4fcc063b-1286-453e-9e63-4772686f4945"},"vehicle_type_id":"4","last_reported":1729361419,"current_range_meters":7200,"station_id":"ce4bhnh2rcd13ifvqgtg","pricing_plan_id":"cebpf4jnsgd1na2vs0mg"},{"bike_id":"03f81b2c-04c5-4844-8267-3a7f177debdb","system_id":"levelo_inurba_marseille","lat":43.32479,"lon":5.37475,"is_reserved":false,"is_disabled":false,"rental_uris":{"android":"levelo://app?vid=03f81b2c-04c5-4844-8267-3a7f177debdb","ios":"levelo://app?vid=03f81b2c-04c5-4844-8267-3a7f177debdb"},"vehicle_type_id":"4","last_reported":1729361419,"current_range_meters":6800,"station_id":"","pricing_plan_id":"cebpf4jnsgd1na2vs0mg"},{"bike_id":"b1a010c3-f928-4fe3-b36e-10afef0a3592","system_id":"levelo_inurba_marseille","lat":43.28873,"lon":5.39344,"is_reserved":false,"is_disabled":false,"rental_uris":{"android":"levelo://app?vid=b1a010c3-f928-4fe3-b36e-10afef0a3592","ios":"levelo://app?vid=b1a010c3-f928-4fe3-b36e-10afef0a3592"},"vehicle_type_id":"4","last_reported":1729361419,"current_range_meters":38800,"station_id":"ce4bh2p2rcd13ifvqdi0","pricing_plan_id":"cebpf4jnsgd1na2vs0mg"},{"bike_id":"96b296a2-e6f1-4c4c-b007-ac10df809dd6","system_id":"levelo_inurba_marseille","lat":43.27812,"lon":5.40716,"is_reserved":false,"is_disabled":false,"rental_uris":{"android":"levelo://app?vid=96b296a2-e6f1-4c4c-b007-ac10df809dd6","ios":"levelo://app?vid=96b296a2-e6f1-4c4c-b007-ac10df809dd6"},"vehicle_type_id":"4","last_reported":1729361419,"current_range_meters":38800,"station_id":"ce4bhnh2rcd13ifvqgtg","pricing_plan_id":"cebpf4jnsgd1na2vs0mg"},{"bike_id":"e857ac43-e16d-4741-bd4f-f5b6a0b21614","system_id":"levelo_inurba_marseille","lat":43.27847,"lon":5.39216,"is_reserved":false,"is_disabled":false,"rental_uris":{"android":"levelo://app?vid=e857ac43-e16d-4741-bd4f-f5b6a0b21614","ios":"levelo://app?vid=e857ac43-e16d-4741-bd4f-f5b6a0b21614"},"vehicle_type_id":"4","last_reported":1729361419,"current_range_meters":15200,"station_id":"ce4bhjp2rcd13ifvqga0","pricing_plan_id":"cebpf4jnsgd1na2vs0mg"},{"bike_id":"d4c5137d-6241-42e5-aee0-ba3823e1dd48","system_id":"levelo_inurba_marseille","lat":43.29025,"lon":5.38127,"is_reserved":false,"is_disabled":false,"rental_uris":{"android":"levelo://app?vid=d4c5137d-6241-42e5-aee0-ba3823e1dd48","ios":"levelo://app?vid=d4c5137d-6241-42e5-aee0-ba3823e1dd48"},"vehicle_type_id":"4","last_reported":1729361419,"current_range_meters":7200,"station_id":"ce4bh4p2rcd13ifvqe1g","pricing_plan_id":"cebpf4jnsgd1na2vs0mg"},{"bike_id":"b3fb3540-ecc9-4d52-9cb9-11b4a05d9be3","system_id":"levelo_inurba_marseille","lat":43.30799,"lon":5.40216,"is_reserved":false,"is_disabled":false,"rental_uris":{"android":"levelo://app?vid=b3fb3540-ecc9-4d52-9cb9-11b4a05d9be3","ios":"levelo://app?vid=b3fb3540-ecc9-4d52-9cb9-11b4a05d9be3"},"vehicle_type_id":"4","last_reported":1729361419,"current_range_meters":3600,"station_id":"ce4bhqp2rcd13ifvqhng","pricing_plan_id":"cebpf4jnsgd1na2vs0mg"},{"bike_id":"60e1dbec-cd76-4199-b682-57d8c9691bcf","system_id":"levelo_inurba_marseille","lat":43.24996,"lon":5.38926,"is_reserved":false,"is_disabled":false,"rental_uris":{"android":"levelo://app?vid=60e1dbec-cd76-4199-b682-57d8c9691bcf","ios":"levelo://app?vid=60e1dbec-cd76-4199-b682-57d8c9691bcf"},"vehicle_type_id":"4","last_reported":1729361419,"current_range_meters":3600,"station_id":"ce4bhgp2rcd13ifvqfd0","pricing_plan_id":"cebpf4jnsgd1na2vs0mg"},{"bike_id":"c5c6db9f-64d6-4d2a-a57d-276053f79a0b","system_id":"levelo_inurba_marseille","lat":43.29524,"lon":5.38548,"is_reserved":false,"is_disabled":false,"rental_uris":{"android":"levelo://app?vid=c5c6db9f-64d6-4d2a-a57d-276053f79a0b","ios":"levelo://app?vid=c5c6db9f-64d6-4d2a-a57d-276053f79a0b"},"vehicle_type_id":"4","last_reported":1729361419,"current_range_meters":2000,"station_id":"ce4bgih2rcd13ifvqba0","pricing_plan_id":"cebpf4jnsgd1na2vs0mg"},{"bike_id":"239b6e4d-0545-467e-8037-5e69f0143c10","system_id":"levelo_inurba_marseille","lat":43.23959,"lon":5.36623,"is_reserved":false,"is_disabled":false,"rental_uris":{"android":"levelo://app?vid=239b6e4d-0545-467e-8037-5e69f0143c10","ios":"levelo://app?vid=239b6e4d-0545-467e-8037-5e69f0143c10"},"vehicle_type_id":"4","last_reported":1729361419,"current_range_meters":25600,"station_id":"ce4bhi12rcd13ifvqfp0","pricing_plan_id":"cebpf4jnsgd1na2vs0mg"},{"bike_id":"9ceb0634-87a5-4a77-9fd8-af773deaa845","system_id":"levelo_inurba_marseille","lat":43.2977,"lon":5.377106,"is_reserved":false,"is_disabled":false,"rental_uris":{"android":"levelo://app?vid=9ceb0634-87a5-4a77-9fd8-af773deaa845","ios":"levelo://app?vid=9ceb0634-87a5-4a77-9fd8-af773deaa845"},"vehicle_type_id":"4","last_reported":1729361419,"current_range_meters":28800,"station_id":"","pricing_plan_id":"cebpf4jnsgd1na2vs0mg"},{"bike_id":"3e10cafd-644b-4cc3-8e3b-39b18c1c4c9d","system_id":"levelo_inurba_marseille","lat":43.29038,"lon":5.37565,"is_reserved":false,"is_disabled":false,"rental_uris":{"android":"levelo://app?vid=3e10cafd-644b-4cc3-8e3b-39b18c1c4c9d","ios":"levelo://app?vid=3e10cafd-644b-4cc3-8e3b-39b18c1c4c9d"},"vehicle_type_id":"4","last_reported":1729361419,"current_range_meters":36400,"station_id":"ce4bh692rcd13ifvqe90","pricing_plan_id":"cebpf4jnsgd1na2vs0mg"},{"bike_id":"15640665-4750-4196-a500-3348e72acd2c","system_id":"levelo_inurba_marseille","lat":43.29095,"lon":5.38125,"is_reserved":false,"is_disabled":false,"rental_uris":{"android":"levelo://app?vid=15640665-4750-4196-a500-3348e72acd2c","ios":"levelo://app?vid=15640665-4750-4196-a500-3348e72acd2c"},"vehicle_type_id":"4","last_reported":1729361419,"current_range_meters":4000,"station_id":"ce4bh512rcd13ifvqe2g","pricing_plan_id":"cebpf4jnsgd1na2vs0mg"},{"bike_id":"5be1b7d8-a5ae-4fed-9394-4811dc00a7da","system_id":"levelo_inurba_marseille","lat":43.238782,"lon":5.365274,"is_reserved":false,"is_disabled":false,"rental_uris":{"android":"levelo://app?vid=5be1b7d8-a5ae-4fed-9394-4811dc00a7da","ios":"levelo://app?vid=5be1b7d8-a5ae-4fed-9394-4811dc00a7da"},"vehicle_type_id":"4","last_reported":1729361419,"current_range_meters":10800,"station_id":"","pricing_plan_id":"cebpf4jnsgd1na2vs0mg"},{"bike_id":"00f518e8-e848-4bd8-ba98-67d53eeeb673","system_id":"levelo_inurba_marseille","lat":43.23963,"lon":5.36632,"is_reserved":false,"is_disabled":false,"rental_uris":{"android":"levelo://app?vid=00f518e8-e848-4bd8-ba98-67d53eeeb673","ios":"levelo://app?vid=00f518e8-e848-4bd8-ba98-67d53eeeb673"},"vehicle_type_id":"4","last_reported":1729361419,"current_range_meters":16000,"station_id":"ce4bhi12rcd13ifvqfp0","pricing_plan_id":"cebpf4jnsgd1na2vs0mg"},{"bike_id":"43b2dbf9-095d-4b29-a52c-4b3ebaae548d","system_id":"levelo_inurba_marseille","lat":43.30332,"lon":5.40437,"is_reserved":false,"is_disabled":false,"rental_uris":{"android":"levelo://app?vid=43b2dbf9-095d-4b29-a52c-4b3ebaae548d","ios":"levelo://app?vid=43b2dbf9-095d-4b29-a52c-4b3ebaae548d"},"vehicle_type_id":"4","last_reported":1729361419,"current_range_meters":36800,"station_id":"ce4bh012rcd13ifvqd10","pricing_plan_id":"cebpf4jnsgd1na2vs0mg"},{"bike_id":"601f02a1-eb1f-4788-8ba1-e51aec4c641f","system_id":"levelo_inurba_marseille","lat":43.30885,"lon":5.39652,"is_reserved":false,"is_disabled":false,"rental_uris":{"android":"levelo://app?vid=601f02a1-eb1f-4788-8ba1-e51aec4c641f","ios":"levelo://app?vid=601f02a1-eb1f-4788-8ba1-e51aec4c641f"},"vehicle_type_id":"4","last_reported":1729361419,"current_range_meters":28400,"station_id":"ce4bh012rcd13ifvqcv0","pricing_plan_id":"cebpf4jnsgd1na2vs0mg"},{"bike_id":"2ec57bc5-0b3f-4c90-b0ad-ad299d3f0a83","system_id":"levelo_inurba_marseille","lat":43.29031,"lon":5.37566,"is_reserved":false,"is_disabled":false,"rental_uris":{"android":"levelo://app?vid=2ec57bc5-0b3f-4c90-b0ad-ad299d3f0a83","ios":"levelo://app?vid=2ec57bc5-0b3f-4c90-b0ad-ad299d3f0a83"},"vehicle_type_id":"4","last_reported":1729361419,"current_range_meters":8400,"station_id":"ce4bh692rcd13ifvqe90","pricing_plan_id":"cebpf4jnsgd1na2vs0mg"},{"bike_id":"8979e40a-96a9-4dce-a222-17ed23a995fa","system_id":"levelo_inurba_marseille","lat":43.29886,"lon":5.38902,"is_reserved":false,"is_disabled":false,"rental_uris":{"android":"levelo://app?vid=8979e40a-96a9-4dce-a222-17ed23a995fa","ios":"levelo://app?vid=8979e40a-96a9-4dce-a222-17ed23a995fa"},"vehicle_type_id":"4","last_reported":1729361419,"current_range_meters":28400,"station_id":"ce4bh392rcd13ifvqdl0","pricing_plan_id":"cebpf4jnsgd1na2vs0mg"},{"bike_id":"5cd4d85f-baeb-4b92-855b-9105512ec32a","system_id":"levelo_inurba_marseille","lat":43.25,"lon":5.38924,"is_reserved":false,"is_disabled":false,"rental_uris":{"android":"levelo://app?vid=5cd4d85f-baeb-4b92-855b-9105512ec32a","ios":"levelo://app?vid=5cd4d85f-baeb-4b92-855b-9105512ec32a"},"vehicle_type_id":"4","last_reported":1729361419,"current_range_meters":13600,"station_id":"ce4bhgp2rcd13ifvqfd0","pricing_plan_id":"cebpf4jnsgd1na2vs0mg"},{"bike_id":"20f24c49-7b0f-4d75-971d-f5978fba39c6","system_id":"levelo_inurba_marseille","lat":43.29257,"lon":5.38441,"is_reserved":false,"is_disabled":false,"rental_uris":{"android":"levelo://app?vid=20f24c49-7b0f-4d75-971d-f5978fba39c6","ios":"levelo://app?vid=20f24c49-7b0f-4d75-971d-f5978fba39c6"},"vehicle_type_id":"4","last_reported":1729361419,"current_range_meters":35200,"station_id":"","pricing_plan_id":"cebpf4jnsgd1na2vs0mg"},{"bike_id":"ab46748f-5c88-4b29-b857-6f7eb12f4d95","system_id":"levelo_inurba_marseille","lat":43.25717,"lon":5.41117,"is_reserved":false,"is_disabled":false,"rental_uris":{"android":"levelo://app?vid=ab46748f-5c88-4b29-b857-6f7eb12f4d95","ios":"levelo://app?vid=ab46748f-5c88-4b29-b857-6f7eb12f4d95"},"vehicle_type_id":"4","last_reported":1729361419,"current_range_meters":16000,"station_id":"ce4bhkp2rcd13ifvqgd0","pricing_plan_id":"cebpf4jnsgd1na2vs0mg"},{"bike_id":"4d066589-d7f7-444d-87bf-eb705d2285d0","system_id":"levelo_inurba_marseille","lat":43.23199,"lon":5.35552,"is_reserved":false,"is_disabled":false,"rental_uris":{"android":"levelo://app?vid=4d066589-d7f7-444d-87bf-eb705d2285d0","ios":"levelo://app?vid=4d066589-d7f7-444d-87bf-eb705d2285d0"},"vehicle_type_id":"4","last_reported":1729361419,"current_range_meters":25200,"station_id":"ce4bhu92rcd13ifvqi70","pricing_plan_id":"cebpf4jnsgd1na2vs0mg"},{"bike_id":"f613b867-a828-4046-86df-fe553e7d1146","system_id":"levelo_inurba_marseille","lat":43.30136,"lon":5.38794,"is_reserved":false,"is_disabled":false,"rental_uris":{"android":"levelo://app?vid=f613b867-a828-4046-86df-fe553e7d1146","ios":"levelo://app?vid=f613b867-a828-4046-86df-fe553e7d1146"},"vehicle_type_id":"4","last_reported":1729361419,"current_range_meters":38400,"station_id":"ce4bghh2rcd13ifvqb60","pricing_plan_id":"cebpf4jnsgd1na2vs0mg"},{"bike_id":"5bb2b6c1-4034-46c8-982e-cfbe62899542","system_id":"levelo_inurba_marseille","lat":43.29266,"lon":5.40114,"is_reserved":false,"is_disabled":false,"rental_uris":{"android":"levelo://app?vid=5bb2b6c1-4034-46c8-982e-cfbe62899542","ios":"levelo://app?vid=5bb2b6c1-4034-46c8-982e-cfbe62899542"},"vehicle_type_id":"4","last_reported":1729361419,"current_range_meters":38800,"station_id":"ce4bh312rcd13ifvqdk0","pricing_plan_id":"cebpf4jnsgd1na2vs0mg"},{"bike_id":"5dc4ae57-8ef6-4958-aad9-49a588f08ab3","system_id":"levelo_inurba_marseille","lat":43.31368,"lon":5.38492,"is_reserved":false,"is_disabled":false,"rental_uris":{"android":"levelo://app?vid=5dc4ae57-8ef6-4958-aad9-49a588f08ab3","ios":"levelo://app?vid=5dc4ae57-8ef6-4958-aad9-49a588f08ab3"},"vehicle_type_id":"4","last_reported":1729361419,"current_range_meters":28000,"station_id":"ce4bgt92rcd13ifvqcf0","pricing_plan_id":"cebpf4jnsgd1na2vs0mg"},{"bike_id":"558442e0-c491-4c59-b97e-26e51379af76","system_id":"levelo_inurba_marseille","lat":43.30302,"lon":5.36904,"is_reserved":false,"is_disabled":false,"rental_uris":{"android":"levelo://app?vid=558442e0-c491-4c59-b97e-26e51379af76","ios":"levelo://app?vid=558442e0-c491-4c59-b97e-26e51379af76"},"vehicle_type_id":"4","last_reported":1729361419,"current_range_meters":28800,"station_id":"ce4bgqh2rcd13ifvqc5g","pricing_plan_id":"cebpf4jnsgd1na2vs0mg"},{"bike_id":"4b91f4fc-09ad-4172-a3f5-35430ada7017","system_id":"levelo_inurba_marseille","lat":43.32099,"lon":5.36777,"is_reserved":false,"is_disabled":false,"rental_uris":{"android":"levelo://app?vid=4b91f4fc-09ad-4172-a3f5-35430ada7017","ios":"levelo://app?vid=4b91f4fc-09ad-4172-a3f5-35430ada7017"},"vehicle_type_id":"4","last_reported":1729361419,"current_range_meters":35200,"station_id":"ce4bhrh2rcd13ifvqhug","pricing_plan_id":"cebpf4jnsgd1na2vs0mg"},{"bike_id":"83f4a4ec-7ae5-4808-a79d-c85549a30660","system_id":"levelo_inurba_marseille","lat":43.317226,"lon":5.423949,"is_reserved":false,"is_disabled":false,"rental_uris":{"android":"levelo://app?vid=83f4a4ec-7ae5-4808-a79d-c85549a30660","ios":"levelo://app?vid=83f4a4ec-7ae5-4808-a79d-c85549a30660"},"vehicle_type_id":"4","last_reported":1729361419,"current_range_meters":36000,"station_id":"ce4bhp92rcd13ifvqhbg","pricing_plan_id":"cebpf4jnsgd1na2vs0mg"},{"bike_id":"876b94f3-1cf0-42f1-8ccb-e81efbd0d31d","system_id":"levelo_inurba_marseille","lat":43.28,"lon":5.40006,"is_reserved":false,"is_disabled":false,"rental_uris":{"android":"levelo://app?vid=876b94f3-1cf0-42f1-8ccb-e81efbd0d31d","ios":"levelo://app?vid=876b94f3-1cf0-42f1-8ccb-e81efbd0d31d"},"vehicle_type_id":"4","last_reported":1729361419,"current_range_meters":25200,"station_id":"ce4bho92rcd13ifvqh4g","pricing_plan_id":"cebpf4jnsgd1na2vs0mg"},{"bike_id":"4e2e7cc8-70b2-4a03-9468-f0627bdc1785","system_id":"levelo_inurba_marseille","lat":43.23963,"lon":5.36624,"is_reserved":false,"is_disabled":false,"rental_uris":{"android":"levelo://app?vid=4e2e7cc8-70b2-4a03-9468-f0627bdc1785","ios":"levelo://app?vid=4e2e7cc8-70b2-4a03-9468-f0627bdc1785"},"vehicle_type_id":"4","last_reported":1729361419,"current_range_meters":4000,"station_id":"ce4bhi12rcd13ifvqfp0","pricing_plan_id":"cebpf4jnsgd1na2vs0mg"},{"bike_id":"ff25f056-22a0-44a5-a0ad-a7d35cb79bbe","system_id":"levelo_inurba_marseille","lat":43.297768,"lon":5.372201,"is_reserved":false,"is_disabled":false,"rental_uris":{"android":"levelo://app?vid=ff25f056-22a0-44a5-a0ad-a7d35cb79bbe","ios":"levelo://app?vid=ff25f056-22a0-44a5-a0ad-a7d35cb79bbe"},"vehicle_type_id":"4","last_reported":1729361419,"current_range_meters":30800,"station_id":"ce4bgop2rcd13ifvqc1g","pricing_plan_id":"cebpf4jnsgd1na2vs0mg"},{"bike_id":"72c0b955-b425-424c-be0b-f9e147a2eb88","system_id":"levelo_inurba_marseille","lat":43.30652,"lon":5.40106,"is_reserved":false,"is_disabled":false,"rental_uris":{"android":"levelo://app?vid=72c0b955-b425-424c-be0b-f9e147a2eb88","ios":"levelo://app?vid=72c0b955-b425-424c-be0b-f9e147a2eb88"},"vehicle_type_id":"4","last_reported":1729361419,"current_range_meters":14000,"station_id":"ce4bh112rcd13ifvqda0","pricing_plan_id":"cebpf4jnsgd1na2vs0mg"},{"bike_id":"7be2a885-131f-4cd8-abff-c174d3622ae3","system_id":"levelo_inurba_marseille","lat":43.278373,"lon":5.39207,"is_reserved":false,"is_disabled":false,"rental_uris":{"android":"levelo://app?vid=7be2a885-131f-4cd8-abff-c174d3622ae3","ios":"levelo://app?vid=7be2a885-131f-4cd8-abff-c174d3622ae3"},"vehicle_type_id":"4","last_reported":1729361419,"current_range_meters":12800,"station_id":"ce4bhjp2rcd13ifvqga0","pricing_plan_id":"cebpf4jnsgd1na2vs0mg"},{"bike_id":"db8a8c84-793b-403b-bfea-170a94eb31f7","system_id":"levelo_inurba_marseille","lat":43.29876,"lon":5.39738,"is_reserved":false,"is_disabled":false,"rental_uris":{"android":"levelo://app?vid=db8a8c84-793b-403b-bfea-170a94eb31f7","ios":"levelo://app?vid=db8a8c84-793b-403b-bfea-170a94eb31f7"},"vehicle_type_id":"4","last_reported":1729361419,"current_range_meters":12400,"station_id":"ce4bh0h2rcd13ifvqd50","pricing_plan_id":"cebpf4jnsgd1na2vs0mg"},{"bike_id":"877be3cf-89b5-4ae4-9d5f-8aa37edda2a2","system_id":"levelo_inurba_marseille","lat":43.28661,"lon":5.3636,"is_reserved":false,"is_disabled":false,"rental_uris":{"android":"levelo://app?vid=877be3cf-89b5-4ae4-9d5f-8aa37edda2a2","ios":"levelo://app?vid=877be3cf-89b5-4ae4-9d5f-8aa37edda2a2"},"vehicle_type_id":"4","last_reported":1729361419,"current_range_meters":36800,"station_id":"ce4bhah2rcd13ifvqej0","pricing_plan_id":"cebpf4jnsgd1na2vs0mg"},{"bike_id":"5a2f9db6-2b22-40b2-814f-74e2cf087361","system_id":"levelo_inurba_marseille","lat":43.30137,"lon":5.3984,"is_reserved":false,"is_disabled":false,"rental_uris":{"android":"levelo://app?vid=5a2f9db6-2b22-40b2-814f-74e2cf087361","ios":"levelo://app?vid=5a2f9db6-2b22-40b2-814f-74e2cf087361"},"vehicle_type_id":"4","last_reported":1729361419,"current_range_meters":24000,"station_id":"ce4bh0h2rcd13ifvqd40","pricing_plan_id":"cebpf4jnsgd1na2vs0mg"},{"bike_id":"5da4bd6a-4a1d-4f9d-8675-d0207a1c1d1e","system_id":"levelo_inurba_marseille","lat":43.32653,"lon":5.41,"is_reserved":false,"is_disabled":false,"rental_uris":{"android":"levelo://app?vid=5da4bd6a-4a1d-4f9d-8675-d0207a1c1d1e","ios":"levelo://app?vid=5da4bd6a-4a1d-4f9d-8675-d0207a1c1d1e"},"vehicle_type_id":"4","last_reported":1729361419,"current_range_meters":36000,"station_id":"ce4bhpp2rcd13ifvqhgg","pricing_plan_id":"cebpf4jnsgd1na2vs0mg"},{"bike_id":"9aaaa765-3ad9-443a-be12-0560b1b23482","system_id":"levelo_inurba_marseille","lat":43.28693,"lon":5.374,"is_reserved":false,"is_disabled":false,"rental_uris":{"android":"levelo://app?vid=9aaaa765-3ad9-443a-be12-0560b1b23482","ios":"levelo://app?vid=9aaaa765-3ad9-443a-be12-0560b1b23482"},"vehicle_type_id":"4","last_reported":1729361419,"current_range_meters":10000,"station_id":"ce4bh3p2rcd13ifvqdq0","pricing_plan_id":"cebpf4jnsgd1na2vs0mg"},{"bike_id":"1b9c18b6-93f4-43e1-9282-1d4b0bf2fd2c","system_id":"levelo_inurba_marseille","lat":43.28077,"lon":5.39665,"is_reserved":false,"is_disabled":false,"rental_uris":{"android":"levelo://app?vid=1b9c18b6-93f4-43e1-9282-1d4b0bf2fd2c","ios":"levelo://app?vid=1b9c18b6-93f4-43e1-9282-1d4b0bf2fd2c"},