{"last_updated":1719356869,"ttl":30,"version":"2.2","data":{"bikes":[{"bike_id":"41bfaa2c-329f-475a-ba8c-116498b9b427","system_id":"levelo_inurba_marseille","lat":43.3136,"lon":5.36708,"is_reserved":false,"is_disabled":false,"rental_uris":{"android":"levelo://app?vid=41bfaa2c-329f-475a-ba8c-116498b9b427","ios":"levelo://app?vid=41bfaa2c-329f-475a-ba8c-116498b9b427"},"vehicle_type_id":"4","last_reported":1719356869,"current_range_meters":28000,"station_id":"","pricing_plan_id":"cebpf4jnsgd1na2vs0mg"},{"bike_id":"ee67487b-aa2c-464b-8c56-b208960d10bb","system_id":"levelo_inurba_marseille","lat":43.312239,"lon":5.368562,"is_reserved":false,"is_disabled":false,"rental_uris":{"android":"levelo://app?vid=ee67487b-aa2c-464b-8c56-b208960d10bb","ios":"levelo://app?vid=ee67487b-aa2c-464b-8c56-b208960d10bb"},"vehicle_type_id":"4","last_reported":1719356869,"current_range_meters":27200,"station_id":"ce4bgl92rcd13ifvqbq0","pricing_plan_id":"cebpf4jnsgd1na2vs0mg"},{"bike_id":"bcc3e4e7-49ad-4827-ad72-a8aac5cd29e6","system_id":"levelo_inurba_marseille","lat":43.31509,"lon":5.37089,"is_reserved":false,"is_disabled":false,"rental_uris":{"android":"levelo://app?vid=bcc3e4e7-49ad-4827-ad72-a8aac5cd29e6","ios":"levelo://app?vid=bcc3e4e7-49ad-4827-ad72-a8aac5cd29e6"},"vehicle_type_id":"4","last_reported":1719356869,"current_range_meters":18000,"station_id":"","pricing_plan_id":"cebpf4jnsgd1na2vs0mg"},{"bike_id":"ba7080ec-8739-4517-827e-0f778bd75416","system_id":"levelo_inurba_marseille","lat":43.309076,"lon":5.368465,"is_reserved":false,"is_disabled":false,"rental_uris":{"android":"levelo://app?vid=ba7080ec-8739-4517-827e-0f778bd75416","ios":"levelo://app?vid=ba7080ec-8739-4517-827e-0f778bd75416"},"vehicle_type_id":"4","last_reported":1719356869,"current_range_meters":800,"station_id":"ce4bgn92rcd13ifvqbvg","pricing_plan_id":"cebpf4jnsgd1na2vs0mg"},{"bike_id":"d61740f4-4e9a-437c-85db-9cf8f36f324f","system_id":"levelo_inurba_marseille","lat":43.3148,"lon":5.37309,"is_reserved":false,"is_disabled":false,"rental_uris":{"android":"levelo://app?vid=d61740f4-4e9a-437c-85db-9cf8f36f324f","ios":"levelo://app?vid=d61740f4-4e9a-437c-85db-9cf8f36f324f"},"vehicle_type_id":"4","last_reported":1719356869,"current_range_meters":3600,"station_id":"ce4bgt12rcd13ifvqcd0","pricing_plan_id":"cebpf4jnsgd1na2vs0mg"},{"bike_id":"43ab69fe-84d8-4ad7-b62d-06be5e271284","system_id":"levelo_inurba_marseille","lat":43.31484,"lon":5.37309,"is_reserved":false,"is_disabled":false,"rental_uris":{"android":"levelo://app?vid=43ab69fe-84d8-4ad7-b62d-06be5e271284","ios":"levelo://app?vid=43ab69fe-84d8-4ad7-b62d-06be5e271284"},"vehicle_type_id":"4","last_reported":1719356869,"current_range_meters":2800,"station_id":"ce4bgt12rcd13ifvqcd0","pricing_plan_id":"cebpf4jnsgd1na2vs0mg"},{"bike_id":"8d070e41-5718-448a-8989-f94bcea5552e","system_id":"levelo_inurba_marseille","lat":43.31486,"lon":5.37309,"is_reserved":false,"is_disabled":false,"rental_uris":{"android":"levelo://app?vid=8d070e41-5718-448a-8989-f94bcea5552e","ios":"levelo://app?vid=8d070e41-5718-448a-8989-f94bcea5552e"},"vehicle_type_id":"4","last_reported":1719356869,"current_range_meters":9600,"station_id":"ce4bgt12rcd13ifvqcd0","pricing_plan_id":"cebpf4jnsgd1na2vs0mg"},{"bike_id":"2b3d4f82-5b8b-4ccc-89bc-45241d70cd4e","system_id":"levelo_inurba_marseille","lat":43.31483,"lon":5.37311,"is_reserved":false,"is_disabled":false,"rental_uris":{"android":"levelo://app?vid=2b3d4f82-5b8b-4ccc-89bc-45241d70cd4e","ios":"levelo://app?vid=2b3d4f82-5b8b-4ccc-89bc-45241d70cd4e"},"vehicle_type_id":"4","last_reported":1719356869,"current_range_meters":26000,"station_id":"ce4bgt12rcd13ifvqcd0","pricing_plan_id":"cebpf4jnsgd1na2vs0mg"},{"bike_id":"5faa5dc2-b64b-4346-b945-57b4d334596d","system_id":"levelo_inurba_marseille","lat":43.314811,"lon":5.373103,"is_reserved":false,"is_disabled":false,"rental_uris":{"android":"levelo://app?vid=5faa5dc2-b64b-4346-b945-57b4d334596d","ios":"levelo://app?vid=5faa5dc2-b64b-4346-b945-57b4d334596d"},"vehicle_type_id":"4","last_reported":1719356869,"current_range_meters":16800,"station_id":"ce4bgt12rcd13ifvqcd0","pricing_plan_id":"cebpf4jnsgd1na2vs0mg"},{"bike_id":"696dcf2d-bfb6-429f-bd35-b5e29022f82c","system_id":"levelo_inurba_marseille","lat":43.314811,"lon":5.373103,"is_reserved":false,"is_disabled":false,"rental_uris":{"android":"levelo://app?vid=696dcf2d-bfb6-429f-bd35-b5e29022f82c","ios":"levelo://app?vid=696dcf2d-bfb6-429f-bd35-b5e29022f82c"},"vehicle_type_id":"4","last_reported":1719356869,"current_range_meters":6400,"station_id":"ce4bgt12rcd13ifvqcd0","pricing_plan_id":"cebpf4jnsgd1na2vs0mg"},{"bike_id":"e13e15ca-bc18-42b3-bca4-3fc800d0e5ea","system_id":"levelo_inurba_marseille","lat":43.314811,"lon":5.373103,"is_reserved":false,"is_disabled":false,"rental_uris":{"android":"levelo://app?vid=e13e15ca-bc18-42b3-bca4-3fc800d0e5ea","ios":"levelo://app?vid=e13e15ca-bc18-42b3-bca4-3fc800d0e5ea"},"vehicle_type_id":"4","last_reported":1719356869,"current_range_meters":5200,"station_id":"ce4bgt12rcd13ifvqcd0","pricing_plan_id":"cebpf4jnsgd1na2vs0mg"},{"bike_id":"1ae91f09-9a08-46ad-8bd0-b539e1ff6d26","system_id":"levelo_inurba_marseille","lat":43.314811,"lon":5.373104,"is_reserved":false,"is_disabled":false,"rental_uris":{"android":"levelo://app?vid=1ae91f09-9a08-46ad-8bd0-b539e1ff6d26","ios":"levelo://app?vid=1ae91f09-9a08-46ad-8bd0-b539e1ff6d26"},"vehicle_type_id":"4","last_reported":1719356869,"current_range_meters":9600,"station_id":"ce4bgt12rcd13ifvqcd0","pricing_plan_id":"cebpf4jnsgd1na2vs0mg"},{"bike_id":"83af2925-0da4-4f3c-b2ab-9f119519d6dc","system_id":"levelo_inurba_marseille","lat":43.314811,"lon":5.373104,"is_reserved":false,"is_disabled":false,"rental_uris":{"android":"levelo://app?vid=83af2925-0da4-4f3c-b2ab-9f119519d6dc","ios":"levelo://app?vid=83af2925-0da4-4f3c-b2ab-9f119519d6dc"},"vehicle_type_id":"4","last_reported":1719356869,"current_range_meters":13600,"station_id":"ce4bgt12rcd13ifvqcd0","pricing_plan_id":"cebpf4jnsgd1na2vs0mg"},{"bike_id":"f853bb5c-7105-44dd-af53-5ecbc2504190","system_id":"levelo_inurba_marseille","lat":43.309039,"lon":5.371797,"is_reserved":false,"is_disabled":false,"rental_uris":{"android":"levelo://app?vid=f853bb5c-7105-44dd-af53-5ecbc2504190","ios":"levelo://app?vid=f853bb5c-7105-44dd-af53-5ecbc2504190"},"vehicle_type_id":"4","last_reported":1719356869,"current_range_meters":27200,"station_id":"ce4bguh2rcd13ifvqckg","pricing_plan_id":"cebpf4jnsgd1na2vs0mg"},{"bike_id":"266d1d06-a273-4ed2-8c96-ed4644379e4b","system_id":"levelo_inurba_marseille","lat":43.314726,"lon":5.373656,"is_reserved":false,"is_disabled":false,"rental_uris":{"android":"levelo://app?vid=266d1d06-a273-4ed2-8c96-ed4644379e4b","ios":"levelo://app?vid=266d1d06-a273-4ed2-8c96-ed4644379e4b"},"vehicle_type_id":"4","last_reported":1719356869,"current_range_meters":6400,"station_id":"ce4bgt12rcd13ifvqcd0","pricing_plan_id":"cebpf4jnsgd1na2vs0mg"},{"bike_id":"0a3cee25-42d1-4168-8d40-9c67e2bd4b68","system_id":"levelo_inurba_marseille","lat":43.309039,"lon":5.371797,"is_reserved":false,"is_disabled":false,"rental_uris":{"android":"levelo://app?vid=0a3cee25-42d1-4168-8d40-9c67e2bd4b68","ios":"levelo://app?vid=0a3cee25-42d1-4168-8d40-9c67e2bd4b68"},"vehicle_type_id":"4","last_reported":1719356869,"current_range_meters":27200,"station_id":"ce4bguh2rcd13ifvqckg","pricing_plan_id":"cebpf4jnsgd1na2vs0mg"},{"bike_id":"330cb5dd-51c4-40b2-ae4b-af1ee753f9b7","system_id":"levelo_inurba_marseille","lat":43.309039,"lon":5.371797,"is_reserved":false,"is_disabled":false,"rental_uris":{"android":"levelo://app?vid=330cb5dd-51c4-40b2-ae4b-af1ee753f9b7","ios":"levelo://app?vid=330cb5dd-51c4-40b2-ae4b-af1ee753f9b7"},"vehicle_type_id":"4","last_reported":1719356869,"current_range_meters":5600,"station_id":"ce4bguh2rcd13ifvqckg","pricing_plan_id":"cebpf4jnsgd1na2vs0mg"},{"bike_id":"aa2d9578-7484-4192-a0cc-a0ddd9e7ebd9","system_id":"levelo_inurba_marseille","lat":43.309039,"lon":5.371797,"is_reserved":false,"is_disabled":false,"rental_uris":{"android":"levelo://app?vid=aa2d9578-7484-4192-a0cc-a0ddd9e7ebd9","ios":"levelo://app?vid=aa2d9578-7484-4192-a0cc-a0ddd9e7ebd9"},"vehicle_type_id":"4","last_reported":1719356869,"current_range_meters":29600,"station_id":"ce4bguh2rcd13ifvqckg","pricing_plan_id":"cebpf4jnsgd1na2vs0mg"},{"bike_id":"6455a47e-097c-4676-8639-93fa3be59378","system_id":"levelo_inurba_marseille","lat":43.309039,"lon":5.371797,"is_reserved":false,"is_disabled":false,"rental_uris":{"android":"levelo://app?vid=6455a47e-097c-4676-8639-93fa3be59378","ios":"levelo://app?vid=6455a47e-097c-4676-8639-93fa3be59378"},"vehicle_type_id":"4","last_reported":1719356869,"current_range_meters":31600,"station_id":"ce4bguh2rcd13ifvqckg","pricing_plan_id":"cebpf4jnsgd1na2vs0mg"},{"bike_id":"4f68b602-75da-4034-9271-43bfa64fb954","system_id":"levelo_inurba_marseille","lat":43.309034,"lon":5.371783,"is_reserved":false,"is_disabled":false,"rental_uris":{"android":"levelo://app?vid=4f68b602-75da-4034-9271-43bfa64fb954","ios":"levelo://app?vid=4f68b602-75da-4034-9271-43bfa64fb954"},"vehicle_type_id":"4","last_reported":1719356869,"current_range_meters":29200,"station_id":"ce4bguh2rcd13ifvqckg","pricing_plan_id":"cebpf4jnsgd1na2vs0mg"},{"bike_id":"ead18698-b369-4961-a1eb-ff90c633ea77","system_id":"levelo_inurba_marseille","lat":43.308027,"lon":5.373096,"is_reserved":false,"is_disabled":false,"rental_uris":{"android":"levelo://app?vid=ead18698-b369-4961-a1eb-ff90c633ea77","ios":"levelo://app?vid=ead18698-b369-4961-a1eb-ff90c633ea77"},"vehicle_type_id":"4","last_reported":1719356869,"current_range_meters":5200,"station_id":"","pricing_plan_id":"cebpf4jnsgd1na2vs0mg"},{"bike_id":"2501eab2-364c-4d7e-a06b-425e7f3987da","system_id":"levelo_inurba_marseille","lat":43.30543,"lon":5.36699,"is_reserved":false,"is_disabled":false,"rental_uris":{"android":"levelo://app?vid=2501eab2-364c-4d7e-a06b-425e7f3987da","ios":"levelo://app?vid=2501eab2-364c-4d7e-a06b-425e7f3987da"},"vehicle_type_id":"4","last_reported":1719356869,"current_range_meters":22800,"station_id":"ce4bgrp2rcd13ifvqc9g","pricing_plan_id":"cebpf4jnsgd1na2vs0mg"},{"bike_id":"116ed0e6-6f95-4559-81b7-0817519f830f","system_id":"levelo_inurba_marseille","lat":43.305706,"lon":5.365654,"is_reserved":false,"is_disabled":false,"rental_uris":{"android":"levelo://app?vid=116ed0e6-6f95-4559-81b7-0817519f830f","ios":"levelo://app?vid=116ed0e6-6f95-4559-81b7-0817519f830f"},"vehicle_type_id":"4","last_reported":1719356869,"current_range_meters":13600,"station_id":"ce4bgs12rcd13ifvqcag","pricing_plan_id":"cebpf4jnsgd1na2vs0mg"},{"bike_id":"13b6f933-d9e4-4493-9a61-8ab92b0c509e","system_id":"levelo_inurba_marseille","lat":43.306021,"lon":5.3723,"is_reserved":false,"is_disabled":false,"rental_uris":{"android":"levelo://app?vid=13b6f933-d9e4-4493-9a61-8ab92b0c509e","ios":"levelo://app?vid=13b6f933-d9e4-4493-9a61-8ab92b0c509e"},"vehicle_type_id":"4","last_reported":1719356869,"current_range_meters":14000,"station_id":"","pricing_plan_id":"cebpf4jnsgd1na2vs0mg"},{"bike_id":"4550a293-4ad7-4011-b344-ea2e74c0c7cb","system_id":"levelo_inurba_marseille","lat":43.305989,"lon":5.37225,"is_reserved":false,"is_disabled":false,"rental_uris":{"android":"levelo://app?vid=4550a293-4ad7-4011-b344-ea2e74c0c7cb","ios":"levelo://app?vid=4550a293-4ad7-4011-b344-ea2e74c0c7cb"},"vehicle_type_id":"4","last_reported":1719356869,"current_range_meters":31200,"station_id":"ce4bgqh2rcd13ifvqc4g","pricing_plan_id":"cebpf4jnsgd1na2vs0mg"},{"bike_id":"9eefd891-7eb6-431a-9aac-56af74537150","system_id":"levelo_inurba_marseille","lat":43.305989,"lon":5.37225,"is_reserved":false,"is_disabled":false,"rental_uris":{"android":"levelo://app?vid=9eefd891-7eb6-431a-9aac-56af74537150","ios":"levelo://app?vid=9eefd891-7eb6-431a-9aac-56af74537150"},"vehicle_type_id":"4","last_reported":1719356869,"current_range_meters":1600,"station_id":"ce4bgqh2rcd13ifvqc4g","pricing_plan_id":"cebpf4jnsgd1na2vs0mg"},{"bike_id":"845786f4-a31d-4b17-a707-743171f31ac4","system_id":"levelo_inurba_marseille","lat":43.305989,"lon":5.37225,"is_reserved":false,"is_disabled":false,"rental_uris":{"android":"levelo://app?vid=845786f4-a31d-4b17-a707-743171f31ac4","ios":"levelo://app?vid=845786f4-a31d-4b17-a707-743171f31ac4"},"vehicle_type_id":"4","last_reported":1719356869,"current_range_meters":20400,"station_id":"ce4bgqh2rcd13ifvqc4g","pricing_plan_id":"cebpf4jnsgd1na2vs0mg"},{"bike_id":"1cd14804-6726-45c5-8788-6a9dead23fa2","system_id":"levelo_inurba_marseille","lat":43.311131,"lon":5.377651,"is_reserved":false,"is_disabled":false,"rental_uris":{"android":"levelo://app?vid=1cd14804-6726-45c5-8788-6a9dead23fa2","ios":"levelo://app?vid=1cd14804-6726-45c5-8788-6a9dead23fa2"},"vehicle_type_id":"4","last_reported":1719356869,"current_range_meters":29200,"station_id":"ce4bgt92rcd13ifvqcg0","pricing_plan_id":"cebpf4jnsgd1na2vs0mg"},{"bike_id":"36c140fe-d18f-4ff5-be8f-386de33eddf0","system_id":"levelo_inurba_marseille","lat":43.311178,"lon":5.377647,"is_reserved":false,"is_disabled":false,"rental_uris":{"android":"levelo://app?vid=36c140fe-d18f-4ff5-be8f-386de33eddf0","ios":"levelo://app?vid=36c140fe-d18f-4ff5-be8f-386de33eddf0"},"vehicle_type_id":"4","last_reported":1719356869,"current_range_meters":28000,"station_id":"ce4bgt92rcd13ifvqcg0","pricing_plan_id":"cebpf4jnsgd1na2vs0mg"},{"bike_id":"62c05772-7264-4dc7-8906-b8cbb488e5d4","system_id":"levelo_inurba_marseille","lat":43.311131,"lon":5.377651,"is_reserved":false,"is_disabled":false,"rental_uris":{"android":"levelo://app?vid=62c05772-7264-4dc7-8906-b8cbb488e5d4","ios":"levelo://app?vid=62c05772-7264-4dc7-8906-b8cbb488e5d4"},"vehicle_type_id":"4","last_reported":1719356869,"current_range_meters":10000,"station_id":"ce4bgt92rcd13ifvqcg0","pricing_plan_id":"cebpf4jnsgd1na2vs0mg"},{"bike_id":"0d37a016-d0bf-42e0-8bc9-1930a7b6d06d","system_id":"levelo_inurba_marseille","lat":43.311131,"lon":5.377651,"is_reserved":false,"is_disabled":false,"rental_uris":{"android":"levelo://app?vid=0d37a016-d0bf-42e0-8bc9-1930a7b6d06d","ios":"levelo://app?vid=0d37a016-d0bf-42e0-8bc9-1930a7b6d06d"},"vehicle_type_id":"4","last_reported":1719356869,"current_range_meters":8000,"station_id":"ce4bgt92rcd13ifvqcg0","pricing_plan_id":"cebpf4jnsgd1na2vs0mg"},{"bike_id":"6d8a7783-bcc8-4273-bc0d-9dd24dac0b88","system_id":"levelo_inurba_marseille","lat":43.307945,"lon":5.376487,"is_reserved":false,"is_disabled":false,"rental_uris":{"android":"levelo://app?vid=6d8a7783-bcc8-4273-bc0d-9dd24dac0b88","ios":"levelo://app?vid=6d8a7783-bcc8-4273-bc0d-9dd24dac0b88"},"vehicle_type_id":"4","last_reported":1719356869,"current_range_meters":16000,"station_id":"ce4bgv92rcd13ifvqcq0","pricing_plan_id":"cebpf4jnsgd1na2vs0mg"},{"bike_id":"57192d1b-3d6d-437e-9d85-dc4e7d45c595","system_id":"levelo_inurba_marseille","lat":43.307945,"lon":5.376487,"is_reserved":false,"is_disabled":false,"rental_uris":{"android":"levelo://app?vid=57192d1b-3d6d-437e-9d85-dc4e7d45c595","ios":"levelo://app?vid=57192d1b-3d6d-437e-9d85-dc4e7d45c595"},"vehicle_type_id":"4","last_reported":1719356869,"current_range_meters":27600,"station_id":"ce4bgv92rcd13ifvqcq0","pricing_plan_id":"cebpf4jnsgd1na2vs0mg"},{"bike_id":"08c1a4be-39f0-4950-881f-42eaf19b206c","system_id":"levelo_inurba_marseille","lat":43.307945,"lon":5.376487,"is_reserved":false,"is_disabled":false,"rental_uris":{"android":"levelo://app?vid=08c1a4be-39f0-4950-881f-42eaf19b206c","ios":"levelo://app?vid=08c1a4be-39f0-4950-881f-42eaf19b206c"},"vehicle_type_id":"4","last_reported":1719356869,"current_range_meters":28800,"station_id":"ce4bgv92rcd13ifvqcq0","pricing_plan_id":"cebpf4jnsgd1na2vs0mg"},{"bike_id":"f952c8e5-7137-49f8-bdb2-30ccd6e34d4a","system_id":"levelo_inurba_marseille","lat":43.307945,"lon":5.376487,"is_reserved":false,"is_disabled":false,"rental_uris":{"android":"levelo://app?vid=f952c8e5-7137-49f8-bdb2-30ccd6e34d4a","ios":"levelo://app?vid=f952c8e5-7137-49f8-bdb2-30ccd6e34d4a"},"vehicle_type_id":"4","last_reported":1719356869,"current_range_meters":31600,"station_id":"ce4bgv92rcd13ifvqcq0","pricing_plan_id":"cebpf4jnsgd1na2vs0mg"},{"bike_id":"83a8d801-a30e-45fb-aab0-3cea7eb0bba4","system_id":"levelo_inurba_marseille","lat":43.317075,"lon":5.377367,"is_reserved":false,"is_disabled":false,"rental_uris":{"android":"levelo://app?vid=83a8d801-a30e-45fb-aab0-3cea7eb0bba4","ios":"levelo://app?vid=83a8d801-a30e-45fb-aab0-3cea7eb0bba4"},"vehicle_type_id":"4","last_reported":1719356869,"current_range_meters":2400,"station_id":"ce4bgth2rcd13ifvqch0","pricing_plan_id":"cebpf4jnsgd1na2vs0mg"},{"bike_id":"6d91e7d8-9ac4-4161-8f62-18794817a8be","system_id":"levelo_inurba_marseille","lat":43.317075,"lon":5.377367,"is_reserved":false,"is_disabled":false,"rental_uris":{"android":"levelo://app?vid=6d91e7d8-9ac4-4161-8f62-18794817a8be","ios":"levelo://app?vid=6d91e7d8-9ac4-4161-8f62-18794817a8be"},"vehicle_type_id":"4","last_reported":1719356869,"current_range_meters":1200,"station_id":"ce4bgth2rcd13ifvqch0","pricing_plan_id":"cebpf4jnsgd1na2vs0mg"},{"bike_id":"561100c9-864b-4bf9-8e53-7aa589dcc443","system_id":"levelo_inurba_marseille","lat":43.30391,"lon":5.36915,"is_reserved":false,"is_disabled":false,"rental_uris":{"android":"levelo://app?vid=561100c9-864b-4bf9-8e53-7aa589dcc443","ios":"levelo://app?vid=561100c9-864b-4bf9-8e53-7aa589dcc443"},"vehicle_type_id":"4","last_reported":1719356869,"current_range_meters":30400,"station_id":"","pricing_plan_id":"cebpf4jnsgd1na2vs0mg"},{"bike_id":"6fbce7fd-6ef5-45c9-bba4-5229e1405d13","system_id":"levelo_inurba_marseille","lat":43.315289,"lon":5.380349,"is_reserved":false,"is_disabled":false,"rental_uris":{"android":"levelo://app?vid=6fbce7fd-6ef5-45c9-bba4-5229e1405d13","ios":"levelo://app?vid=6fbce7fd-6ef5-45c9-bba4-5229e1405d13"},"vehicle_type_id":"4","last_reported":1719356869,"current_range_meters":1200,"station_id":"ce4bhsp2rcd13ifvqi50","pricing_plan_id":"cebpf4jnsgd1na2vs0mg"},{"bike_id":"bc94d466-5b4c-45f2-9ea0-d720e53bca80","system_id":"levelo_inurba_marseille","lat":43.315289,"lon":5.380349,"is_reserved":false,"is_disabled":false,"rental_uris":{"android":"levelo://app?vid=bc94d466-5b4c-45f2-9ea0-d720e53bca80","ios":"levelo://app?vid=bc94d466-5b4c-45f2-9ea0-d720e53bca80"},"vehicle_type_id":"4","last_reported":1719356869,"current_range_meters":19200,"station_id":"ce4bhsp2rcd13ifvqi50","pricing_plan_id":"cebpf4jnsgd1na2vs0mg"},{"bike_id":"d27b8864-8ef3-4f82-b21a-d747e296925e","system_id":"levelo_inurba_marseille","lat":43.315289,"lon":5.380349,"is_reserved":false,"is_disabled":false,"rental_uris":{"android":"levelo://app?vid=d27b8864-8ef3-4f82-b21a-d747e296925e","ios":"levelo://app?vid=d27b8864-8ef3-4f82-b21a-d747e296925e"},"vehicle_type_id":"4","last_reported":1719356869,"current_range_meters":22800,"station_id":"ce4bhsp2rcd13ifvqi50","pricing_plan_id":"cebpf4jnsgd1na2vs0mg"},{"bike_id":"ce3cd3b1-bec0-4adc-8d0d-cb3727c7cb2e","system_id":"levelo_inurba_marseille","lat":43.315289,"lon":5.380349,"is_reserved":false,"is_disabled":false,"rental_uris":{"android":"levelo://app?vid=ce3cd3b1-bec0-4adc-8d0d-cb3727c7cb2e","ios":"levelo://app?vid=ce3cd3b1-bec0-4adc-8d0d-cb3727c7cb2e"},"vehicle_type_id":"4","last_reported":1719356869,"current_range_meters":29200,"station_id":"ce4bhsp2rcd13ifvqi50","pricing_plan_id":"cebpf4jnsgd1na2vs0mg"},{"bike_id":"f0e4c1cf-eb9b-48ea-b852-dd2882aa4aaa","system_id":"levelo_inurba_marseille","lat":43.308012,"lon":5.381511,"is_reserved":false,"is_disabled":false,"rental_uris":{"android":"levelo://app?vid=f0e4c1cf-eb9b-48ea-b852-dd2882aa4aaa","ios":"levelo://app?vid=f0e4c1cf-eb9b-48ea-b852-dd2882aa4aaa"},"vehicle_type_id":"4","last_reported":1719356869,"current_range_meters":22000,"station_id":"ce4bgt12rcd13ifvqce0","pricing_plan_id":"cebpf4jnsgd1na2vs0mg"},{"bike_id":"c5db7861-0b3d-471e-8f22-aaf857f06c34","system_id":"levelo_inurba_marseille","lat":43.308012,"lon":5.381511,"is_reserved":false,"is_disabled":false,"rental_uris":{"android":"levelo://app?vid=c5db7861-0b3d-471e-8f22-aaf857f06c34","ios":"levelo://app?vid=c5db7861-0b3d-471e-8f22-aaf857f06c34"},"vehicle_type_id":"4","last_reported":1719356869,"current_range_meters":31600,"station_id":"ce4bgt12rcd13ifvqce0","pricing_plan_id":"cebpf4jnsgd1na2vs0mg"},{"bike_id":"dbf9405c-c240-412c-b6d3-a5b6c6c708b4","system_id":"levelo_inurba_marseille","lat":43.308012,"lon":5.381511,"is_reserved":false,"is_disabled":false,"rental_uris":{"android":"levelo://app?vid=dbf9405c-c240-412c-b6d3-a5b6c6c708b4","ios":"levelo://app?vid=dbf9405c-c240-412c-b6d3-a5b6c6c708b4"},"vehicle_type_id":"4","last_reported":1719356869,"current_range_meters":6400,"station_id":"ce4bgt12rcd13ifvqce0","pricing_plan_id":"cebpf4jnsgd1na2vs0mg"},{"bike_id":"346c3125-a50b-4a9e-b26f-50552591a6e3","system_id":"levelo_inurba_marseille","lat":43.308012,"lon":5.381511,"is_reserved":false,"is_disabled":false,"rental_uris":{"android":"levelo://app?vid=346c3125-a50b-4a9e-b26f-50552591a6e3","ios":"levelo://app?vid=346c3125-a50b-4a9e-b26f-50552591a6e3"},"vehicle_type_id":"4","last_reported":1719356869,"current_range_meters":13600,"station_id":"ce4bgt12rcd13ifvqce0","pricing_plan_id":"cebpf4jnsgd1na2vs0mg"},{"bike_id":"5a421e6b-686a-4f8a-8feb-a753186a610a","system_id":"levelo_inurba_marseille","lat":43.308012,"lon":5.381511,"is_reserved":false,"is_disabled":false,"rental_uris":{"android":"levelo://app?vid=5a421e6b-686a-4f8a-8feb-a753186a610a","ios":"levelo://app?vid=5a421e6b-686a-4f8a-8feb-a753186a610a"},"vehicle_type_id":"4","last_reported":1719356869,"current_range_meters":23600,"station_id":"ce4bgt12rcd13ifvqce0","pricing_plan_id":"cebpf4jnsgd1na2vs0mg"},{"bike_id":"5ea9ec4e-482d-4dad-b130-ef9ec621306a","system_id":"levelo_inurba_marseille","lat":43.308012,"lon":5.381511,"is_reserved":false,"is_disabled":false,"rental_uris":{"android":"levelo://app?vid=5ea9ec4e-482d-4dad-b130-ef9ec621306a","ios":"levelo://app?vid=5ea9ec4e-482d-4dad-b130-ef9ec621306a"},"vehicle_type_id":"4","last_reported":1719356869,"current_range_meters":14000,"station_id":"ce4bgt12rcd13ifvqce0","pricing_plan_id":"cebpf4jnsgd1na2vs0mg"},{"bike_id":"1945a2f1-2da6-4f43-b576-60ef3d750418","system_id":"levelo_inurba_marseille","lat":43.308012,"lon":5.381511,"is_reserved":false,"is_disabled":false,"rental_uris":{"android":"levelo://app?vid=1945a2f1-2da6-4f43-b576-60ef3d750418","ios":"levelo://app?vid=1945a2f1-2da6-4f43-b576-60ef3d750418"},"vehicle_type_id":"4","last_reported":1719356869,"current_range_meters":4800,"station_id":"ce4bgt12rcd13ifvqce0","pricing_plan_id":"cebpf4jnsgd1na2vs0mg"},{"bike_id":"3dc71235-9fa1-41fb-af07-2665fb799f3b","system_id":"levelo_inurba_marseille","lat":43.308012,"lon":5.381511,"is_reserved":false,"is_disabled":false,"rental_uris":{"android":"levelo://app?vid=3dc71235-9fa1-41fb-af07-2665fb799f3b","ios":"levelo://app?vid=3dc71235-9fa1-41fb-af07-2665fb799f3b"},"vehicle_type_id":"4","last_reported":1719356869,"current_range_meters":2800,"station_id":"ce4bgt12rcd13ifvqce0","pricing_plan_id":"cebpf4jnsgd1na2vs0mg"},{"bike_id":"86399856-1b4e-4261-9a47-677b2d227651","system_id":"levelo_inurba_marseille","lat":43.308012,"lon":5.381511,"is_reserved":false,"is_disabled":false,"rental_uris":{"android":"levelo://app?vid=86399856-1b4e-4261-9a47-677b2d227651","ios":"levelo://app?vid=86399856-1b4e-4261-9a47-677b2d227651"},"vehicle_type_id":"4","last_reported":1719356869,"current_range_meters":31200,"station_id":"ce4bgt12rcd13ifvqce0","pricing_plan_id":"cebpf4jnsgd1na2vs0mg"},{"bike_id":"b5775679-4ca6-4cce-8295-031cf4e3a3d5","system_id":"levelo_inurba_marseille","lat":43.324771,"lon":5.36557,"is_reserved":false,"is_disabled":false,"rental_uris":{"android":"levelo://app?vid=b5775679-4ca6-4cce-8295-031cf4e3a3d5","ios":"levelo://app?vid=b5775679-4ca6-4cce-8295-031cf4e3a3d5"},"vehicle_type_id":"4","last_reported":1719356869,"current_range_meters":23600,"station_id":"ce4bhs12rcd13ifvqhvg","pricing_plan_id":"cebpf4jnsgd1na2vs0mg"},{"bike_id":"a969d436-9476-486a-889f-c6264a66f23d","system_id":"levelo_inurba_marseille","lat":43.32482,"lon":5.36576,"is_reserved":false,"is_disabled":false,"rental_uris":{"android":"levelo://app?vid=a969d436-9476-486a-889f-c6264a66f23d","ios":"levelo://app?vid=a969d436-9476-486a-889f-c6264a66f23d"},"vehicle_type_id":"4","last_reported":1719356869,"current_range_meters":400,"station_id":"ce4bhs12rcd13ifvqhvg","pricing_plan_id":"cebpf4jnsgd1na2vs0mg"},{"bike_id":"f7228881-8bd0-4494-9adc-214a4d331d89","system_id":"levelo_inurba_marseille","lat":43.310804,"lon":5.38359,"is_reserved":false,"is_disabled":false,"rental_uris":{"android":"levelo://app?vid=f7228881-8bd0-4494-9adc-214a4d331d89","ios":"levelo://app?vid=f7228881-8bd0-4494-9adc-214a4d331d89"},"vehicle_type_id":"4","last_reported":1719356869,"current_range_meters":16800,"station_id":"ce4bgv92rcd13ifvqcr0","pricing_plan_id":"cebpf4jnsgd1na2vs0mg"},{"bike_id":"c8170bb6-a2e2-4e02-b09e-8929f05ef0b6","system_id":"levelo_inurba_marseille","lat":43.32485,"lon":5.36561,"is_reserved":false,"is_disabled":false,"rental_uris":{"android":"levelo://app?vid=c8170bb6-a2e2-4e02-b09e-8929f05ef0b6","ios":"levelo://app?vid=c8170bb6-a2e2-4e02-b09e-8929f05ef0b6"},"vehicle_type_id":"4","last_reported":1719356869,"current_range_meters":5200,"station_id":"ce4bhs12rcd13ifvqhvg","pricing_plan_id":"cebpf4jnsgd1na2vs0mg"},{"bike_id":"7d29847f-daf0-47a0-bcbd-0e931d171891","system_id":"levelo_inurba_marseille","lat":43.324771,"lon":5.36557,"is_reserved":false,"is_disabled":false,"rental_uris":{"android":"levelo://app?vid=7d29847f-daf0-47a0-bcbd-0e931d171891","ios":"levelo://app?vid=7d29847f-daf0-47a0-bcbd-0e931d171891"},"vehicle_type_id":"4","last_reported":1719356869,"current_range_meters":23200,"station_id":"ce4bhs12rcd13ifvqhvg","pricing_plan_id":"cebpf4jnsgd1na2vs0mg"},{"bike_id":"baf309ff-1014-4721-91c1-fde99e2fe57b","system_id":"levelo_inurba_marseille","lat":43.310804,"lon":5.38359,"is_reserved":false,"is_disabled":false,"rental_uris":{"android":"levelo://app?vid=baf309ff-1014-4721-91c1-fde99e2fe57b","ios":"levelo://app?vid=baf309ff-1014-4721-91c1-fde99e2fe57b"},"vehicle_type_id":"4","last_reported":1719356869,"current_range_meters":22000,"station_id":"ce4bgv92rcd13ifvqcr0","pricing_plan_id":"cebpf4jnsgd1na2vs0mg"},{"bike_id":"38218dcd-8e1a-4199-891b-397bf2ac7dbd","system_id":"levelo_inurba_marseille","lat":43.310804,"lon":5.38359,"is_reserved":false,"is_disabled":false,"rental_uris":{"android":"levelo://app?vid=38218dcd-8e1a-4199-891b-397bf2ac7dbd","ios":"levelo://app?vid=38218dcd-8e1a-4199-891b-397bf2ac7dbd"},"vehicle_type_id":"4","last_reported":1719356869,"current_range_meters":13600,"station_id":"ce4bgv92rcd13ifvqcr0","pricing_plan_id":"cebpf4jnsgd1na2vs0mg"},{"bike_id":"b095b99a-86f9-4a40-a4ec-ad341f176002","system_id":"levelo_inurba_marseille","lat":43.310804,"lon":5.38359,"is_reserved":false,"is_disabled":false,"rental_uris":{"android":"levelo://app?vid=b095b99a-86f9-4a40-a4ec-ad341f176002","ios":"levelo://app?vid=b095b99a-86f9-4a40-a4ec-ad341f176002"},"vehicle_type_id":"4","last_reported":1719356869,"current_range_meters":11200,"station_id":"ce4bgv92rcd13ifvqcr0","pricing_plan_id":"cebpf4jnsgd1na2vs0mg"},{"bike_id":"2e2514dc-f1eb-4c2e-b0ca-d24a2d7c8476","system_id":"levelo_inurba_marseille","lat":43.310804,"lon":5.38359,"is_reserved":false,"is_disabled":false,"rental_uris":{"android":"levelo://app?vid=2e2514dc-f1eb-4c2e-b0ca-d24a2d7c8476","ios":"levelo://app?vid=2e2514dc-f1eb-4c2e-b0ca-d24a2d7c8476"},"vehicle_type_id":"4","last_reported":1719356869,"current_range_meters":26400,"station_id":"ce4bgv92rcd13ifvqcr0","pricing_plan_id":"cebpf4jnsgd1na2vs0mg"},{"bike_id":"eee4bced-ce43-4be5-bcbf-beebcebf0c77","system_id":"levelo_inurba_marseille","lat":43.310804,"lon":5.38359,"is_reserved":false,"is_disabled":false,"rental_uris":{"android":"levelo://app?vid=eee4bced-ce43-4be5-bcbf-beebcebf0c77","ios":"levelo://app?vid=eee4bced-ce43-4be5-bcbf-beebcebf0c77"},"vehicle_type_id":"4","last_reported":1719356869,"current_range_meters":10000,"station_id":"ce4bgv92rcd13ifvqcr0","pricing_plan_id":"cebpf4jnsgd1na2vs0mg"},{"bike_id":"818bb7b4-2b18-49cd-85fc-64bcd4423ee0","system_id":"levelo_inurba_marseille","lat":43.302784,"lon":5.377158,"is_reserved":false,"is_disabled":false,"rental_uris":{"android":"levelo://app?vid=818bb7b4-2b18-49cd-85fc-64bcd4423ee0","ios":"levelo://app?vid=818bb7b4-2b18-49cd-85fc-64bcd4423ee0"},"vehicle_type_id":"4","last_reported":1719356869,"current_range_meters":29200,"station_id":"ce4bguh2rcd13ifvqcj0","pricing_plan_id":"cebpf4jnsgd1na2vs0mg"},{"bike_id":"c66beee2-21a5-41dd-a502-c5b8b99400a9","system_id":"levelo_inurba_marseille","lat":43.301429,"lon":5.37413,"is_reserved":false,"is_disabled":false,"rental_uris":{"android":"levelo://app?vid=c66beee2-21a5-41dd-a502-c5b8b99400a9","ios":"levelo://app?vid=c66beee2-21a5-41dd-a502-c5b8b99400a9"},"vehicle_type_id":"4","last_reported":1719356869,"current_range_meters":25200,"station_id":"ce4bgs92rcd13ifvqcc0","pricing_plan_id":"cebpf4jnsgd1na2vs0mg"},{"bike_id":"bebc17bf-ab67-4e6f-a0e1-21a1c2ba5cea","system_id":"levelo_inurba_marseille","lat":43.319935,"lon":5.381699,"is_reserved":false,"is_disabled":false,"rental_uris":{"android":"levelo://app?vid=bebc17bf-ab67-4e6f-a0e1-21a1c2ba5cea","ios":"levelo://app?vid=bebc17bf-ab67-4e6f-a0e1-21a1c2ba5cea"},"vehicle_type_id":"4","last_reported":1719356869,"current_range_meters":0,"station_id":"ce4bhr12rcd13ifvqhpg","pricing_plan_id":"cebpf4jnsgd1na2vs0mg"},{"bike_id":"dfdb61f9-538c-43a1-b701-5c89e0b3ce1a","system_id":"levelo_inurba_marseille","lat":43.319935,"lon":5.381699,"is_reserved":false,"is_disabled":false,"rental_uris":{"android":"levelo://app?vid=dfdb61f9-538c-43a1-b701-5c89e0b3ce1a","ios":"levelo://app?vid=dfdb61f9-538c-43a1-b701-5c89e0b3ce1a"},"vehicle_type_id":"4","last_reported":1719356869,"current_range_meters":15200,"station_id":"ce4bhr12rcd13ifvqhpg","pricing_plan_id":"cebpf4jnsgd1na2vs0mg"},{"bike_id":"ccef959c-051b-4cf7-93eb-880bc8621dad","system_id":"levelo_inurba_marseille","lat":43.313571,"lon":5.384829,"is_reserved":false,"is_disabled":false,"rental_uris":{"android":"levelo://app?vid=ccef959c-051b-4cf7-93eb-880bc8621dad","ios":"levelo://app?vid=ccef959c-051b-4cf7-93eb-880bc8621dad"},"vehicle_type_id":"4","last_reported":1719356869,"current_range_meters":16800,"station_id":"ce4bgt92rcd13ifvqcf0","pricing_plan_id":"cebpf4jnsgd1na2vs0mg"},{"bike_id":"4e1058df-b64a-469f-90c6-72235ffa546c","system_id":"levelo_inurba_marseille","lat":43.31364,"lon":5.3849,"is_reserved":false,"is_disabled":false,"rental_uris":{"android":"levelo://app?vid=4e1058df-b64a-469f-90c6-72235ffa546c","ios":"levelo://app?vid=4e1058df-b64a-469f-90c6-72235ffa546c"},"vehicle_type_id":"4","last_reported":1719356869,"current_range_meters":16000,"station_id":"ce4bgt92rcd13ifvqcf0","pricing_plan_id":"cebpf4jnsgd1na2vs0mg"},{"bike_id":"1b9c5894-f7d3-4fa7-97c1-c32624224b09","system_id":"levelo_inurba_marseille","lat":43.313571,"lon":5.384829,"is_reserved":false,"is_disabled":false,"rental_uris":{"android":"levelo://app?vid=1b9c5894-f7d3-4fa7-97c1-c32624224b09","ios":"levelo://app?vid=1b9c5894-f7d3-4fa7-97c1-c32624224b09"},"vehicle_type_id":"4","last_reported":1719356869,"current_range_meters":11600,"station_id":"ce4bgt92rcd13ifvqcf0","pricing_plan_id":"cebpf4jnsgd1na2vs0mg"},{"bike_id":"8a377d8c-8a00-4a19-85de-d15178ac94b5","system_id":"levelo_inurba_marseille","lat":43.31358,"lon":5.38494,"is_reserved":false,"is_disabled":false,"rental_uris":{"android":"levelo://app?vid=8a377d8c-8a00-4a19-85de-d15178ac94b5","ios":"levelo://app?vid=8a377d8c-8a00-4a19-85de-d15178ac94b5"},"vehicle_type_id":"4","last_reported":1719356869,"current_range_meters":1200,"station_id":"ce4bgt92rcd13ifvqcf0","pricing_plan_id":"cebpf4jnsgd1na2vs0mg"},{"bike_id":"d927fb55-77d0-41c0-b3d9-9375ffd32894","system_id":"levelo_inurba_marseille","lat":43.299222,"lon":5.365554,"is_reserved":false,"is_disabled":false,"rental_uris":{"android":"levelo://app?vid=d927fb55-77d0-41c0-b3d9-9375ffd32894","ios":"levelo://app?vid=d927fb55-77d0-41c0-b3d9-9375ffd32894"},"vehicle_type_id":"4","last_reported":1719356869,"current_range_meters":0,"station_id":"ce4bgm92rcd13ifvqbr0","pricing_plan_id":"cebpf4jnsgd1na2vs0mg"},{"bike_id":"eb33bd6d-6276-4f1a-9178-c6129e357718","system_id":"levelo_inurba_marseille","lat":43.299222,"lon":5.365554,"is_reserved":false,"is_disabled":false,"rental_uris":{"android":"levelo://app?vid=eb33bd6d-6276-4f1a-9178-c6129e357718","ios":"levelo://app?vid=eb33bd6d-6276-4f1a-9178-c6129e357718"},"vehicle_type_id":"4","last_reported":1719356869,"current_range_meters":15200,"station_id":"ce4bgm92rcd13ifvqbr0","pricing_plan_id":"cebpf4jnsgd1na2vs0mg"},{"bike_id":"ea553ea7-391d-4b11-b9f1-0a8a1aa3e654","system_id":"levelo_inurba_marseille","lat":43.299724,"lon":5.371829,"is_reserved":false,"is_disabled":false,"rental_uris":{"android":"levelo://app?vid=ea553ea7-391d-4b11-b9f1-0a8a1aa3e654","ios":"levelo://app?vid=ea553ea7-391d-4b11-b9f1-0a8a1aa3e654"},"vehicle_type_id":"4","last_reported":1719356869,"current_range_meters":10800,"station_id":"ce4bgr92rcd13ifvqc7g","pricing_plan_id":"cebpf4jnsgd1na2vs0mg"},{"bike_id":"0ac34d10-96e1-4ac0-9782-10b118adb7b7","system_id":"levelo_inurba_marseille","lat":43.29846,"lon":5.36741,"is_reserved":false,"is_disabled":false,"rental_uris":{"android":"levelo://app?vid=0ac34d10-96e1-4ac0-9782-10b118adb7b7","ios":"levelo://app?vid=0ac34d10-96e1-4ac0-9782-10b118adb7b7"},"vehicle_type_id":"4","last_reported":1719356869,"current_range_meters":5600,"station_id":"","pricing_plan_id":"cebpf4jnsgd1na2vs0mg"},{"bike_id":"45ff7744-0708-4cfb-ace1-eb0a28942d4f","system_id":"levelo_inurba_marseille","lat":43.29845,"lon":5.36862,"is_reserved":false,"is_disabled":false,"rental_uris":{"android":"levelo://app?vid=45ff7744-0708-4cfb-ace1-eb0a28942d4f","ios":"levelo://app?vid=45ff7744-0708-4cfb-ace1-eb0a28942d4f"},"vehicle_type_id":"4","last_reported":1719356869,"current_range_meters":3200,"station_id":"","pricing_plan_id":"cebpf4jnsgd1na2vs0mg"},{"bike_id":"19d2c7fc-49c1-4346-a09e-630e75f693cf","system_id":"levelo_inurba_marseille","lat":43.305379,"lon":5.384154,"is_reserved":false,"is_disabled":false,"rental_uris":{"android":"levelo://app?vid=19d2c7fc-49c1-4346-a09e-630e75f693cf","ios":"levelo://app?vid=19d2c7fc-49c1-4346-a09e-630e75f693cf"},"vehicle_type_id":"4","last_reported":1719356869,"current_range_meters":14800,"station_id":"ce4bgg92rcd13ifvqb30","pricing_plan_id":"cebpf4jnsgd1na2vs0mg"},{"bike_id":"c832b964-5d0b-46f5-8e11-735d97946ebc","system_id":"levelo_inurba_marseille","lat":43.311849,"lon":5.387166,"is_reserved":false,"is_disabled":false,"rental_uris":{"android":"levelo://app?vid=c832b964-5d0b-46f5-8e11-735d97946ebc","ios":"levelo://app?vid=c832b964-5d0b-46f5-8e11-735d97946ebc"},"vehicle_type_id":"4","last_reported":1719356869,"current_range_meters":400,"station_id":"ce4bgv12rcd13ifvqcp0","pricing_plan_id":"cebpf4jnsgd1na2vs0mg"},{"bike_id":"ee22b7f2-fa1d-49d4-a185-668599d534f7","system_id":"levelo_inurba_marseille","lat":43.311722,"lon":5.387247,"is_reserved":false,"is_disabled":false,"rental_uris":{"android":"levelo://app?vid=ee22b7f2-fa1d-49d4-a185-668599d534f7","ios":"levelo://app?vid=ee22b7f2-fa1d-49d4-a185-668599d534f7"},"vehicle_type_id":"4","last_reported":1719356869,"current_range_meters":29200,"station_id":"ce4bgv12rcd13ifvqcp0","pricing_plan_id":"cebpf4jnsgd1na2vs0mg"},{"bike_id":"c0573043-707a-4e08-b082-006b375c07c9","system_id":"levelo_inurba_marseille","lat":43.297794,"lon":5.370888,"is_reserved":false,"is_disabled":false,"rental_uris":{"android":"levelo://app?vid=c0573043-707a-4e08-b082-006b375c07c9","ios":"levelo://app?vid=c0573043-707a-4e08-b082-006b375c07c9"},"vehicle_type_id":"4","last_reported":1719356869,"current_range_meters":8400,"station_id":"ce4bgop2rcd13ifvqc1g","pricing_plan_id":"cebpf4jnsgd1na2vs0mg"},{"bike_id":"ef4e475d-5be1-4696-a4dc-64caaab9ca44","system_id":"levelo_inurba_marseille","lat":43.322872,"lon":5.382756,"is_reserved":false,"is_disabled":false,"rental_uris":{"android":"levelo://app?vid=ef4e475d-5be1-4696-a4dc-64caaab9ca44","ios":"levelo://app?vid=ef4e475d-5be1-4696-a4dc-64caaab9ca44"},"vehicle_type_id":"4","last_reported":1719356869,"current_range_meters":24800,"station_id":"ce4bhr12rcd13ifvqhqg","pricing_plan_id":"cebpf4jnsgd1na2vs0mg"},{"bike_id":"7b088697-f624-4b41-aa95-73f77c59c884","system_id":"levelo_inurba_marseille","lat":43.322872,"lon":5.382756,"is_reserved":false,"is_disabled":false,"rental_uris":{"android":"levelo://app?vid=7b088697-f624-4b41-aa95-73f77c59c884","ios":"levelo://app?vid=7b088697-f624-4b41-aa95-73f77c59c884"},"vehicle_type_id":"4","last_reported":1719356869,"current_range_meters":21600,"station_id":"ce4bhr12rcd13ifvqhqg","pricing_plan_id":"cebpf4jnsgd1na2vs0mg"},{"bike_id":"e406fe5a-7dcd-4a4c-b887-f5c382e14000","system_id":"levelo_inurba_marseille","lat":43.322872,"lon":5.382756,"is_reserved":false,"is_disabled":false,"rental_uris":{"android":"levelo://app?vid=e406fe5a-7dcd-4a4c-b887-f5c382e14000","ios":"levelo://app?vid=e406fe5a-7dcd-4a4c-b887-f5c382e14000"},"vehicle_type_id":"4","last_reported":1719356869,"current_range_meters":31200,"station_id":"ce4bhr12rcd13ifvqhqg","pricing_plan_id":"cebpf4jnsgd1na2vs0mg"},{"bike_id":"230d155c-feb4-439a-9207-623c2e3b44fd","system_id":"levelo_inurba_marseille","lat":43.297163,"lon":5.365866,"is_reserved":false,"is_disabled":false,"rental_uris":{"android":"levelo://app?vid=230d155c-feb4-439a-9207-623c2e3b44fd","ios":"levelo://app?vid=230d155c-feb4-439a-9207-623c2e3b44fd"},"vehicle_type_id":"4","last_reported":1719356869,"current_range_meters":19600,"station_id":"ce4bgn12rcd13ifvqbt0","pricing_plan_id":"cebpf4jnsgd1na2vs0mg"},{"bike_id":"8a3dee68-befb-495c-8c53-779d24084da1","system_id":"levelo_inurba_marseille","lat":43.297078,"lon":5.365482,"is_reserved":false,"is_disabled":false,"rental_uris":{"android":"levelo://app?vid=8a3dee68-befb-495c-8c53-779d24084da1","ios":"levelo://app?vid=8a3dee68-befb-495c-8c53-779d24084da1"},"vehicle_type_id":"4","last_reported":1719356869,"current_range_meters":25600,"station_id":"ce4bgn12rcd13ifvqbt0","pricing_plan_id":"cebpf4jnsgd1na2vs0mg"},{"bike_id":"60c9aefc-ef6f-46f7-bcfd-ecda47554e25","system_id":"levelo_inurba_marseille","lat":43.296921,"lon":5.376579,"is_reserved":false,"is_disabled":false,"rental_uris":{"android":"levelo://app?vid=60c9aefc-ef6f-46f7-bcfd-ecda47554e25","ios":"levelo://app?vid=60c9aefc-ef6f-46f7-bcfd-ecda47554e25"},"vehicle_type_id":"4","last_reported":1719356869,"current_range_meters":0,"station_id":"ce4bgkh2rcd13ifvqbl0","pricing_plan_id":"cebpf4jnsgd1na2vs0mg"},{"bike_id":"db4bf55a-b53c-400c-ac55-cd2d15802e4f","system_id":"levelo_inurba_marseille","lat":43.299028,"lon":5.381509,"is_reserved":false,"is_disabled":false,"rental_uris":{"android":"levelo://app?vid=db4bf55a-b53c-400c-ac55-cd2d15802e4f","ios":"levelo://app?vid=db4bf55a-b53c-400c-ac55-cd2d15802e4f"},"vehicle_type_id":"4","last_reported":1719356869,"current_range_meters":16400,"station_id":"ce4bgj12rcd13ifvqbc0","pricing_plan_id":"cebpf4jnsgd1na2vs0mg"},{"bike_id":"94a727f8-e7a3-45d6-a3a5-db6219ad5036","system_id":"levelo_inurba_marseille","lat":43.309589,"lon":5.390258,"is_reserved":false,"is_disabled":false,"rental_uris":{"android":"levelo://app?vid=94a727f8-e7a3-45d6-a3a5-db6219ad5036","ios":"levelo://app?vid=94a727f8-e7a3-45d6-a3a5-db6219ad5036"},"vehicle_type_id":"4","last_reported":1719356869,"current_range_meters":0,"station_id":"ce4bgup2rcd13ifvqco0","pricing_plan_id":"cebpf4jnsgd1na2vs0mg"},{"bike_id":"b5510391-b001-4fb8-a167-c11385187fe6","system_id":"levelo_inurba_marseille","lat":43.317557,"lon":5.390173,"is_reserved":false,"is_disabled":false,"rental_uris":{"android":"levelo://app?vid=b5510391-b001-4fb8-a167-c11385187fe6","ios":"levelo://app?vid=b5510391-b001-4fb8-a167-c11385187fe6"},"vehicle_type_id":"4","last_reported":1719356869,"current_range_meters":8400,"station_id":"ce4bhqp2rcd13ifvqhng","pricing_plan_id":"cebpf4jnsgd1na2vs0mg"},{"bike_id":"168376db-915e-4adb-997e-4056391e328c","system_id":"levelo_inurba_marseille","lat":43.317557,"lon":5.390173,"is_reserved":false,"is_disabled":false,"rental_uris":{"android":"levelo://app?vid=168376db-915e-4adb-997e-4056391e328c","ios":"levelo://app?vid=168376db-915e-4adb-997e-4056391e328c"},"vehicle_type_id":"4","last_reported":1719356869,"current_range_meters":31600,"station_id":"ce4bhqp2rcd13ifvqhng","pricing_plan_id":"cebpf4jnsgd1na2vs0mg"},{"bike_id":"2683d493-9f56-4d56-8fc0-8d8c1c5b7088","system_id":"levelo_inurba_marseille","lat":43.317557,"lon":5.390173,"is_reserved":false,"is_disabled":false,"rental_uris":{"android":"levelo://app?vid=2683d493-9f56-4d56-8fc0-8d8c1c5b7088","ios":"levelo://app?vid=2683d493-9f56-4d56-8fc0-8d8c1c5b7088"},"vehicle_type_id":"4","last_reported":1719356869,"current_range_meters":26800,"station_id":"ce4bhqp2rcd13ifvqhng","pricing_plan_id":"cebpf4jnsgd1na2vs0mg"},{"bike_id":"34daf067-7a6d-4634-8d17-915cc116fd93","system_id":"levelo_inurba_marseille","lat":43.29578,"lon":5.37499,"is_reserved":false,"is_disabled":false,"rental_uris":{"android":"levelo://app?vid=34daf067-7a6d-4634-8d17-915cc116fd93","ios":"levelo://app?vid=34daf067-7a6d-4634-8d17-915cc116fd93"},"vehicle_type_id":"4","last_reported":1719356869,"current_range_meters":29600,"station_id":"ce4bgh92rcd13ifvqb50","pricing_plan_id":"cebpf4jnsgd1na2vs0mg"},{"bike_id":"2736c203-43c5-4a47-ac16-1d92da4690f0","system_id":"levelo_inurba_marseille","lat":43.304274,"lon":5.388873,"is_reserved":false,"is_disabled":false,"rental_uris":{"android":"levelo://app?vid=2736c203-43c5-4a47-ac16-1d92da4690f0","ios":"levelo://app?vid=2736c203-43c5-4a47-ac16-1d92da4690f0"},"vehicle_type_id":"4","last_reported":1719356869,"current_range_meters":23600,"station_id":"ce4bgk12rcd13ifvqbi0","pricing_plan_id":"cebpf4jnsgd1na2vs0mg"},{"bike_id":"57c04242-52dd-4d5b-a089-b605fec0068a","system_id":"levelo_inurba_marseille","lat":43.304274,"lon":5.388873,"is_reserved":false,"is_disabled":false,"rental_uris":{"android":"levelo://app?vid=57c04242-52dd-4d5b-a089-b605fec0068a","ios":"levelo://app?vid=57c04242-52dd-4d5b-a089-b605fec0068a"},"vehicle_type_id":"4","last_reported":1719356869,"current_range_meters":7600,"station_id":"ce4bgk12rcd13ifvqbi0","pricing_plan_id":"cebpf4jnsgd1na2vs0mg"},{"bike_id":"d9c2a616-c494-4254-92ca-1e0f8257c12f","system_id":"levelo_inurba_marseille","lat":43.304278,"lon":5.388868,"is_reserved":false,"is_disabled":false,"rental_uris":{"android":"levelo://app?vid=d9c2a616-c494-4254-92ca-1e0f8257c12f","ios":"levelo://app?vid=d9c2a616-c494-4254-92ca-1e0f8257c12f"},"vehicle_type_id":"4","last_reported":1719356869,"current_range_meters":19600,"station_id":"ce4bgk12rcd13ifvqbi0","pricing_plan_id":"cebpf4jnsgd1na2vs0mg"},{"bike_id":"245659fb-ab4a-4007-98b4-6fd5a6e7751c","system_id":"levelo_inurba_marseille","lat":43.2954,"lon":5.37495,"is_reserved":false,"is_disabled":false,"rental_uris":{"android":"levelo://app?vid=245659fb-ab4a-4007-98b4-6fd5a6e7751c","ios":"levelo://app?vid=245659fb-ab4a-4007-98b4-6fd5a6e7751c"},"vehicle_type_id":"4","last_reported":1719356869,"current_range_meters":25600,"station_id":"","pricing_plan_id":"cebpf4jnsgd1na2vs0mg"},{"bike_id":"bfe81f79-0478-43f5-8d8f-8abd2f026724","system_id":"levelo_inurba_marseille","lat":43.28856,"lon":5.358371,"is_reserved":false,"is_disabled":false,"rental_uris":{"android":"levelo://app?vid=bfe81f79-0478-43f5-8d8f-8abd2f026724","ios":"levelo://app?vid=bfe81f79-0478-43f5-8d8f-8abd2f026724"},"vehicle_type_id":"4","last_reported":1719356869,"current_range_meters":15600,"station_id":"ce4bhb12rcd13ifvqem0","pricing_plan_id":"cebpf4jnsgd1na2vs0mg"},{"bike_id":"7b81041b-dafb-49ca-b0fb-4cad4ab8583d","system_id":"levelo_inurba_marseille","lat":43.323656,"lon":5.388809,"is_reserved":false,"is_disabled":false,"rental_uris":{"android":"levelo://app?vid=7b81041b-dafb-49ca-b0fb-4cad4ab8583d","ios":"levelo://app?vid=7b81041b-dafb-49ca-b0fb-4cad4ab8583d"},"vehicle_type_id":"4","last_reported":1719356869,"current_range_meters":14000,"station_id":"ce4bhqp2rcd13ifvqhog","pricing_plan_id":"cebpf4jnsgd1na2vs0mg"},{"bike_id":"e6b4c5ee-23b3-4d94-b562-661d713a0428","system_id":"levelo_inurba_marseille","lat":43.32366,"lon":5.38884,"is_reserved":false,"is_disabled":false,"rental_uris":{"android":"levelo://app?vid=e6b4c5ee-23b3-4d94-b562-661d713a0428","ios":"levelo://app?vid=e6b4c5ee-23b3-4d94-b562-661d713a0428"},"vehicle_type_id":"4","last_reported":1719356869,"current_range_meters":4400,"station_id":"ce4bhqp2rcd13ifvqhog","pricing_plan_id":"cebpf4jnsgd1na2vs0mg"},{"bike_id":"78ba79f5-4ba6-4e83-8ef0-0df84a04a66d","system_id":"levelo_inurba_marseille","lat":43.32363,"lon":5.38887,"is_reserved":false,"is_disabled":false,"rental_uris":{"android":"levelo://app?vid=78ba79f5-4ba6-4e83-8ef0-0df84a04a66d","ios":"levelo://app?vid=78ba79f5-4ba6-4e83-8ef0-0df84a04a66d"},"vehicle_type_id":"4","last_reported":1719356869,"current_range_meters":8400,"station_id":"ce4bhqp2rcd13ifvqhog","pricing_plan_id":"cebpf4jnsgd1na2vs0mg"},{"bike_id":"7ccd506a-3f6f-46eb-814f-1b107b5cabdf","system_id":"levelo_inurba_marseille","lat":43.32367,"lon":5.388836,"is_reserved":false,"is_disabled":false,"rental_uris":{"android":"levelo://app?vid=7ccd506a-3f6f-46eb-814f-1b107b5cabdf","ios":"levelo://app?vid=7ccd506a-3f6f-46eb-814f-1b107b5cabdf"},"vehicle_type_id":"4","last_reported":1719356869,"current_range_meters":14400,"station_id":"ce4bhqp2rcd13ifvqhog","pricing_plan_id":"cebpf4jnsgd1na2vs0mg"},{"bike_id":"656dd60e-2c65-4fc2-b18d-31ac687c03a6","system_id":"levelo_inurba_marseille","lat":43.32367,"lon":5.388836,"is_reserved":false,"is_disabled":false,"rental_uris":{"android":"levelo://app?vid=656dd60e-2c65-4fc2-b18d-31ac687c03a6","ios":"levelo://app?vid=656dd60e-2c65-4fc2-b18d-31ac687c03a6"},"vehicle_type_id":"4","last_reported":1719356869,"current_range_meters":0,"station_id":"ce4bhqp2rcd13ifvqhog","pricing_plan_id":"cebpf4jnsgd1na2vs0mg"},{"bike_id":"399e10ba-652f-42b3-8462-ca5b86319acc","system_id":"levelo_inurba_marseille","lat":43.32367,"lon":5.388836,"is_reserved":false,"is_disabled":false,"rental_uris":{"android":"levelo://app?vid=399e10ba-652f-42b3-8462-ca5b86319acc","ios":"levelo://app?vid=399e10ba-652f-42b3-8462-ca5b86319acc"},"vehicle_type_id":"4","last_reported":1719356869,"current_range_meters":4400,"station_id":"ce4bhqp2rcd13ifvqhog","pricing_plan_id":"cebpf4jnsgd1na2vs0mg"},{"bike_id":"1e058a78-b650-47e5-a3a3-e41f3d7d055f","system_id":"levelo_inurba_marseille","lat":43.32369,"lon":5.38889,"is_reserved":false,"is_disabled":false,"rental_uris":{"android":"levelo://app?vid=1e058a78-b650-47e5-a3a3-e41f3d7d055f","ios":"levelo://app?vid=1e058a78-b650-47e5-a3a3-e41f3d7d055f"},"vehicle_type_id":"4","last_reported":1719356869,"current_range_meters":20400,"station_id":"ce4bhqp2rcd13ifvqhog","pricing_plan_id":"cebpf4jnsgd1na2vs0mg"},{"bike_id":"85aca21b-61d4-4366-8ffb-350c78009b7a","system_id":"levelo_inurba_marseille","lat":43.2998,"lon":5.38716,"is_reserved":false,"is_disabled":false,"rental_uris":{"android":"levelo://app?vid=85aca21b-61d4-4366-8ffb-350c78009b7a","ios":"levelo://app?vid=85aca21b-61d4-4366-8ffb-350c78009b7a"},"vehicle_type_id":"4","last_reported":1719356869,"current_range_meters":16400,"station_id":"","pricing_plan_id":"cebpf4jnsgd1na2vs0mg"},{"bike_id":"4b0a791c-15b1-4629-98b1-13788dac12bf","system_id":"levelo_inurba_marseille","lat":43.29275,"lon":5.36838,"is_reserved":false,"is_disabled":false,"rental_uris":{"android":"levelo://app?vid=4b0a791c-15b1-4629-98b1-13788dac12bf","ios":"levelo://app?vid=4b0a791c-15b1-4629-98b1-13788dac12bf"},"vehicle_type_id":"4","last_reported":1719356869,"current_range_meters":28000,"station_id":"ce4bhbp2rcd13ifvqesg","pricing_plan_id":"cebpf4jnsgd1na2vs0mg"},{"bike_id":"c8eda6f8-732d-4baa-b97d-9adeb7560078","system_id":"levelo_inurba_marseille","lat":43.29271,"lon":5.36841,"is_reserved":false,"is_disabled":false,"rental_uris":{"android":"levelo://app?vid=c8eda6f8-732d-4baa-b97d-9adeb7560078","ios":"levelo://app?vid=c8eda6f8-732d-4baa-b97d-9adeb7560078"},"vehicle_type_id":"4","last_reported":1719356869,"current_range_meters":28000,"station_id":"ce4bhbp2rcd13ifvqesg","pricing_plan_id":"cebpf4jnsgd1na2vs0mg"},{"bike_id":"a2eac4f5-e16d-4abb-ade9-f801084faaa3","system_id":"levelo_inurba_marseille","lat":43.305994,"lon":5.393687,"is_reserved":false,"is_disabled":false,"rental_uris":{"android":"levelo://app?vid=a2eac4f5-e16d-4abb-ade9-f801084faaa3","ios":"levelo://app?vid=a2eac4f5-e16d-4abb-ade9-f801084faaa3"},"vehicle_type_id":"4","last_reported":1719356869,"current_range_meters":0,"station_id":"ce4bh0p2rcd13ifvqd80","pricing_plan_id":"cebpf4jnsgd1na2vs0mg"},{"bike_id":"e1ee4f32-e085-4525-8b12-1a13dc14da2d","system_id":"levelo_inurba_marseille","lat":43.2984,"lon":5.38761,"is_reserved":false,"is_disabled":false,"rental_uris":{"android":"levelo://app?vid=e1ee4f32-e085-4525-8b12-1a13dc14da2d","ios":"levelo://app?vid=e1ee4f32-e085-4525-8b12-1a13dc14da2d"},"vehicle_type_id":"4","last_reported":1719356869,"current_range_meters":12400,"station_id":"","pricing_plan_id":"cebpf4jnsgd1na2vs0mg"},{"bike_id":"ede466d4-42cd-4af1-9469-7454fc9fdca8","system_id":"levelo_inurba_marseille","lat":43.2936,"lon":5.37835,"is_reserved":false,"is_disabled":false,"rental_uris":{"android":"levelo://app?vid=ede466d4-42cd-4af1-9469-7454fc9fdca8","ios":"levelo://app?vid=ede466d4-42cd-4af1-9469-7454fc9fdca8"},"vehicle_type_id":"4","last_reported":1719356869,"current_range_meters":17200,"station_id":"ce4bgjh2rcd13ifvqbf0","pricing_plan_id":"cebpf4jnsgd1na2vs0mg"},{"bike_id":"7dbdb4f3-a35f-475a-bf64-41b26dda1648","system_id":"levelo_inurba_marseille","lat":43.2936,"lon":5.37835,"is_reserved":false,"is_disabled":false,"rental_uris":{"android":"levelo://app?vid=7dbdb4f3-a35f-475a-bf64-41b26dda1648","ios":"levelo://app?vid=7dbdb4f3-a35f-475a-bf64-41b26dda1648"},"vehicle_type_id":"4","last_reported":1719356869,"current_range_meters":30400,"station_id":"ce4bgjh2rcd13ifvqbf0","pricing_plan_id":"cebpf4jnsgd1na2vs0mg"},{"bike_id":"dc0442d3-bbee-45b7-a935-6424e80b7641","system_id":"levelo_inurba_marseille","lat":43.2936,"lon":5.37835,"is_reserved":false,"is_disabled":false,"rental_uris":{"android":"levelo://app?vid=dc0442d3-bbee-45b7-a935-6424e80b7641","ios":"levelo://app?vid=dc0442d3-bbee-45b7-a935-6424e80b7641"},"vehicle_type_id":"4","last_reported":1719356869,"current_range_meters":24000,"station_id":"ce4bgjh2rcd13ifvqbf0","pricing_plan_id":"cebpf4jnsgd1na2vs0mg"},{"bike_id":"fcaec663-554f-4382-a978-7d195b68cdf5","system_id":"levelo_inurba_marseille","lat":43.291675,"lon":5.371583,"is_reserved":false,"is_disabled":false,"rental_uris":{"android":"levelo://app?vid=fcaec663-554f-4382-a978-7d195b68cdf5","ios":"levelo://app?vid=fcaec663-554f-4382-a978-7d195b68cdf5"},"vehicle_type_id":"4","last_reported":1719356869,"current_range_meters":23200,"station_id":"ce4bha92rcd13ifvqeh0","pricing_plan_id":"cebpf4jnsgd1na2vs0mg"},{"bike_id":"c0c69001-cb3b-4782-b75f-5a986fccfdb5","system_id":"levelo_inurba_marseille","lat":43.30883,"lon":5.39632,"is_reserved":false,"is_disabled":false,"rental_uris":{"android":"levelo://app?vid=c0c69001-cb3b-4782-b75f-5a986fccfdb5","ios":"levelo://app?vid=c0c69001-cb3b-4782-b75f-5a986fccfdb5"},"vehicle_type_id":"4","last_reported":1719356869,"current_range_meters":17200,"station_id":"ce4bh012rcd13ifvqcv0","pricing_plan_id":"cebpf4jnsgd1na2vs0mg"},{"bike_id":"414f0539-0085-43e8-9640-7478ed2fc067","system_id":"levelo_inurba_marseille","lat":43.30896,"lon":5.39638,"is_reserved":false,"is_disabled":false,"rental_uris":{"android":"levelo://app?vid=414f0539-0085-43e8-9640-7478ed2fc067","ios":"levelo://app?vid=414f0539-0085-43e8-9640-7478ed2fc067"},"vehicle_type_id":"4","last_reported":1719356869,"current_range_meters":10800,"station_id":"ce4bh012rcd13ifvqcv0","pricing_plan_id":"cebpf4jnsgd1na2vs0mg"},{"bike_id":"713ae47f-4b62-4453-b4cb-2e0b98da4121","system_id":"levelo_inurba_marseille","lat":43.30885,"lon":5.39636,"is_reserved":false,"is_disabled":false,"rental_uris":{"android":"levelo://app?vid=713ae47f-4b62-4453-b4cb-2e0b98da4121","ios":"levelo://app?vid=713ae47f-4b62-4453-b4cb-2e0b98da4121"},"vehicle_type_id":"4","last_reported":1719356869,"current_range_meters":31200,"station_id":"ce4bh012rcd13ifvqcv0","pricing_plan_id":"cebpf4jnsgd1na2vs0mg"},{"bike_id":"bdddc731-ee7f-491d-92ec-0b2cbf940949","system_id":"levelo_inurba_marseille","lat":43.308841,"lon":5.396366,"is_reserved":false,"is_disabled":false,"rental_uris":{"android":"levelo://app?vid=bdddc731-ee7f-491d-92ec-0b2cbf940949","ios":"levelo://app?vid=bdddc731-ee7f-491d-92ec-0b2cbf940949"},"vehicle_type_id":"4","last_reported":1719356869,"current_range_meters":31200,"station_id":"ce4bh012rcd13ifvqcv0","pricing_plan_id":"cebpf4jnsgd1na2vs0mg"},{"bike_id":"21d8aa1e-3cf9-48da-9c0b-b9960eeb4f41","system_id":"levelo_inurba_marseille","lat":43.30882,"lon":5.39637,"is_reserved":false,"is_disabled":false,"rental_uris":{"android":"levelo://app?vid=21d8aa1e-3cf9-48da-9c0b-b9960eeb4f41","ios":"levelo://app?vid=21d8aa1e-3cf9-48da-9c0b-b9960eeb4f41"},"vehicle_type_id":"4","last_reported":1719356869,"current_range_meters":31200,"station_id":"ce4bh012rcd13ifvqcv0","pricing_plan_id":"cebpf4jnsgd1na2vs0mg"},{"bike_id":"6aa51620-7c80-499e-b374-e9f4d78da455","system_id":"levelo_inurba_marseille","lat":43.30888,"lon":5.3964,"is_reserved":false,"is_disabled":false,"rental_uris":{"android":"levelo://app?vid=6aa51620-7c80-499e-b374-e9f4d78da455","ios":"levelo://app?vid=6aa51620-7c80-499e-b374-e9f4d78da455"},"vehicle_type_id":"4","last_reported":1719356869,"current_range_meters":22800,"station_id":"ce4bh012rcd13ifvqcv0","pricing_plan_id":"cebpf4jnsgd1na2vs0mg"},{"bike_id":"c8fe6185-d141-4084-b481-c81ef152b952","system_id":"levelo_inurba_marseille","lat":43.308879,"lon":5.396407,"is_reserved":false,"is_disabled":false,"rental_uris":{"android":"levelo://app?vid=c8fe6185-d141-4084-b481-c81ef152b952","ios":"levelo://app?vid=c8fe6185-d141-4084-b481-c81ef152b952"},"vehicle_type_id":"4","last_reported":1719356869,"current_range_meters":13600,"station_id":"ce4bh012rcd13ifvqcv0","pricing_plan_id":"cebpf4jnsgd1na2vs0mg"},{"bike_id":"148024b3-f9c7-494c-a249-43f9724515c7","system_id":"levelo_inurba_marseille","lat":43.313291,"lon":5.396838,"is_reserved":false,"is_disabled":false,"rental_uris":{"android":"levelo://app?vid=148024b3-f9c7-494c-a249-43f9724515c7","ios":"levelo://app?vid=148024b3-f9c7-494c-a249-43f9724515c7"},"vehicle_type_id":"4","last_reported":1719356869,"current_range_meters":6000,"station_id":"ce4bgvp2rcd13ifvqcu0","pricing_plan_id":"cebpf4jnsgd1na2vs0mg"},{"bike_id":"0d4c1e06-80ff-46dd-b35f-47c5cb291c59","system_id":"levelo_inurba_marseille","lat":43.30889,"lon":5.39642,"is_reserved":false,"is_disabled":false,"rental_uris":{"android":"levelo://app?vid=0d4c1e06-80ff-46dd-b35f-47c5cb291c59","ios":"levelo://app?vid=0d4c1e06-80ff-46dd-b35f-47c5cb291c59"},"vehicle_type_id":"4","last_reported":1719356869,"current_range_meters":31200,"station_id":"ce4bh012rcd13ifvqcv0","pricing_plan_id":"cebpf4jnsgd1na2vs0mg"},{"bike_id":"27a241f8-4c6d-40d1-b6ea-7a2c41a8e5fa","system_id":"levelo_inurba_marseille","lat":43.30884,"lon":5.39641,"is_reserved":false,"is_disabled":false,"rental_uris":{"android":"levelo://app?vid=27a241f8-4c6d-40d1-b6ea-7a2c41a8e5fa","ios":"levelo://app?vid=27a241f8-4c6d-40d1-b6ea-7a2c41a8e5fa"},"vehicle_type_id":"4","last_reported":1719356869,"current_range_meters":23200,"station_id":"ce4bh012rcd13ifvqcv0","pricing_plan_id":"cebpf4jnsgd1na2vs0mg"},{"bike_id":"0a7dd790-b959-4d39-bbf1-629e28368fee","system_id":"levelo_inurba_marseille","lat":43.313291,"lon":5.396838,"is_reserved":false,"is_disabled":false,"rental_uris":{"android":"levelo://app?vid=0a7dd790-b959-4d39-bbf1-629e28368fee","ios":"levelo://app?vid=0a7dd790-b959-4d39-bbf1-629e28368fee"},"vehicle_type_id":"4","last_reported":1719356869,"current_range_meters":8000,"station_id":"ce4bgvp2rcd13ifvqcu0","pricing_plan_id":"cebpf4jnsgd1na2vs0mg"},{"bike_id":"04403c5c-d6d8-4bbf-9b3d-de9176215cae","system_id":"levelo_inurba_marseille","lat":43.30888,"lon":5.39644,"is_reserved":false,"is_disabled":false,"rental_uris":{"android":"levelo://app?vid=04403c5c-d6d8-4bbf-9b3d-de9176215cae","ios":"levelo://app?vid=04403c5c-d6d8-4bbf-9b3d-de9176215cae"},"vehicle_type_id":"4","last_reported":1719356869,"current_range_meters":17600,"station_id":"ce4bh012rcd13ifvqcv0","pricing_plan_id":"cebpf4jnsgd1na2vs0mg"},{"bike_id":"f7e112ec-a2ff-46aa-91c4-1871b063f8a7","system_id":"levelo_inurba_marseille","lat":43.309038,"lon":5.396546,"is_reserved":false,"is_disabled":false,"rental_uris":{"android":"levelo://app?vid=f7e112ec-a2ff-46aa-91c4-1871b063f8a7","ios":"levelo://app?vid=f7e112ec-a2ff-46aa-91c4-1871b063f8a7"},"vehicle_type_id":"4","last_reported":1719356869,"current_range_meters":31200,"station_id":"ce4bh012rcd13ifvqcv0","pricing_plan_id":"cebpf4jnsgd1na2vs0mg"},{"bike_id":"387c2116-d782-4414-be34-c7fa53a33b12","system_id":"levelo_inurba_marseille","lat":43.309038,"lon":5.396546,"is_reserved":false,"is_disabled":false,"rental_uris":{"android":"levelo://app?vid=387c2116-d782-4414-be34-c7fa53a33b12","ios":"levelo://app?vid=387c2116-d782-4414-be34-c7fa53a33b12"},"vehicle_type_id":"4","last_reported":1719356869,"current_range_meters":22000,"station_id":"ce4bh012rcd13ifvqcv0","pricing_plan_id":"cebpf4jnsgd1na2vs0mg"},{"bike_id":"d0fa3130-0457-44ce-a1bc-c8726395a49d","system_id":"levelo_inurba_marseille","lat":43.30887,"lon":5.39646,"is_reserved":false,"is_disabled":false,"rental_uris":{"android":"levelo://app?vid=d0fa3130-0457-44ce-a1bc-c8726395a49d","ios":"levelo://app?vid=d0fa3130-0457-44ce-a1bc-c8726395a49d"},"vehicle_type_id":"4","last_reported":1719356869,"current_range_meters":20000,"station_id":"ce4bh012rcd13ifvqcv0","pricing_plan_id":"cebpf4jnsgd1na2vs0mg"},{"bike_id":"15ec709a-9f52-4f21-80f7-87fa54dd8f0f","system_id":"levelo_inurba_marseille","lat":43.30881,"lon":5.39645,"is_reserved":false,"is_disabled":false,"rental_uris":{"android":"levelo://app?vid=15ec709a-9f52-4f21-80f7-87fa54dd8f0f","ios":"levelo://app?vid=15ec709a-9f52-4f21-80f7-87fa54dd8f0f"},"vehicle_type_id":"4","last_reported":1719356869,"current_range_meters":31200,"station_id":"ce4bh012rcd13ifvqcv0","pricing_plan_id":"cebpf4jnsgd1na2vs0mg"},{"bike_id":"c872b8f2-b96e-496d-841b-69c5ec304ba9","system_id":"levelo_inurba_marseille","lat":43.30883,"lon":5.396458,"is_reserved":false,"is_disabled":false,"rental_uris":{"android":"levelo://app?vid=c872b8f2-b96e-496d-841b-69c5ec304ba9","ios":"levelo://app?vid=c872b8f2-b96e-496d-841b-69c5ec304ba9"},"vehicle_type_id":"4","last_reported":1719356869,"current_range_meters":16400,"station_id":"ce4bh012rcd13ifvqcv0","pricing_plan_id":"cebpf4jnsgd1na2vs0mg"},{"bike_id":"12c37b94-3816-4c24-a8a9-5ed5807c6e09","system_id":"levelo_inurba_marseille","lat":43.313291,"lon":5.396838,"is_reserved":false,"is_disabled":false,"rental_uris":{"android":"levelo://app?vid=12c37b94-3816-4c24-a8a9-5ed5807c6e09","ios":"levelo://app?vid=12c37b94-3816-4c24-a8a9-5ed5807c6e09"},"vehicle_type_id":"4","last_reported":1719356869,"current_range_meters":26400,"station_id":"ce4bgvp2rcd13ifvqcu0","pricing_plan_id":"cebpf4jnsgd1na2vs0mg"},{"bike_id":"35243b93-c831-46ee-96a9-5dfb27d48e7d","system_id":"levelo_inurba_marseille","lat":43.30884,"lon":5.39647,"is_reserved":false,"is_disabled":false,"rental_uris":{"android":"levelo://app?vid=35243b93-c831-46ee-96a9-5dfb27d48e7d","ios":"levelo://app?vid=35243b93-c831-46ee-96a9-5dfb27d48e7d"},"vehicle_type_id":"4","last_reported":1719356869,"current_range_meters":10800,"station_id":"ce4bh012rcd13ifvqcv0","pricing_plan_id":"cebpf4jnsgd1na2vs0mg"},{"bike_id":"866e1123-b7b2-491d-adb9-c83bc0481b34","system_id":"levelo_inurba_marseille","lat":43.313291,"lon":5.396838,"is_reserved":false,"is_disabled":false,"rental_uris":{"android":"levelo://app?vid=866e1123-b7b2-491d-adb9-c83bc0481b34","ios":"levelo://app?vid=866e1123-b7b2-491d-adb9-c83bc0481b34"},"vehicle_type_id":"4","last_reported":1719356869,"current_range_meters":5600,"station_id":"ce4bgvp2rcd13ifvqcu0","pricing_plan_id":"cebpf4jnsgd1na2vs0mg"},{"bike_id":"42fa8b36-9e8b-43d7-9152-48ab1d6d9843","system_id":"levelo_inurba_marseille","lat":43.309038,"lon":5.396546,"is_reserved":false,"is_disabled":false,"rental_uris":{"android":"levelo://app?vid=42fa8b36-9e8b-43d7-9152-48ab1d6d9843","ios":"levelo://app?vid=42fa8b36-9e8b-43d7-9152-48ab1d6d9843"},"vehicle_type_id":"4","last_reported":1719356869,"current_range_meters":31200,"station_id":"ce4bh012rcd13ifvqcv0","pricing_plan_id":"cebpf4jnsgd1na2vs0mg"},{"bike_id":"caf487f4-f6a9-43f1-a8b6-f9f63e52f2a4","system_id":"levelo_inurba_marseille","lat":43.309038,"lon":5.396546,"is_reserved":false,"is_disabled":false,"rental_uris":{"android":"levelo://app?vid=caf487f4-f6a9-43f1-a8b6-f9f63e52f2a4","ios":"levelo://app?vid=caf487f4-f6a9-43f1-a8b6-f9f63e52f2a4"},"vehicle_type_id":"4","last_reported":1719356869,"current_range_meters":32000,"station_id":"ce4bh012rcd13ifvqcv0","pricing_plan_id":"cebpf4jnsgd1na2vs0mg"},{"bike_id":"ab1ef7f8-5a8a-4700-b29e-c69dff5bc4f9","system_id":"levelo_inurba_marseille","lat":43.309038,"lon":5.396546,"is_reserved":false,"is_disabled":false,"rental_uris":{"android":"levelo://app?vid=ab1ef7f8-5a8a-4700-b29e-c69dff5bc4f9","ios":"levelo://app?vid=ab1ef7f8-5a8a-4700-b29e-c69dff5bc4f9"},"vehicle_type_id":"4","last_reported":1719356869,"current_range_meters":26000,"station_id":"ce4bh012rcd13ifvqcv0","pricing_plan_id":"cebpf4jnsgd1na2vs0mg"},{"bike_id":"cd218dcc-8779-412d-bccc-ac2534b488c9","system_id":"levelo_inurba_marseille","lat":43.30889,"lon":5.396519,"is_reserved":false,"is_disabled":false,"rental_uris":{"android":"levelo://app?vid=cd218dcc-8779-412d-bccc-ac2534b488c9","ios":"levelo://app?vid=cd218dcc-8779-412d-bccc-ac2534b488c9"},"vehicle_type_id":"4","last_reported":1719356869,"current_range_meters":31200,"station_id":"ce4bh012rcd13ifvqcv0","pricing_plan_id":"cebpf4jnsgd1na2vs0mg"},{"bike_id":"092b78f5-41c1-4aba-8d99-cbb54238a3a0","system_id":"levelo_inurba_marseille","lat":43.308893,"lon":5.396527,"is_reserved":false,"is_disabled":false,"rental_uris":{"android":"levelo://app?vid=092b78f5-41c1-4aba-8d99-cbb54238a3a0","ios":"levelo://app?vid=092b78f5-41c1-4aba-8d99-cbb54238a3a0"},"vehicle_type_id":"4","last_reported":1719356869,"current_range_meters":20000,"station_id":"ce4bh012rcd13ifvqcv0","pricing_plan_id":"cebpf4jnsgd1na2vs0mg"},{"bike_id":"9fab94a2-463f-4a54-ae35-b80838c45d03","system_id":"levelo_inurba_marseille","lat":43.308837,"lon":5.39652,"is_reserved":false,"is_disabled":false,"rental_uris":{"android":"levelo://app?vid=9fab94a2-463f-4a54-ae35-b80838c45d03","ios":"levelo://app?vid=9fab94a2-463f-4a54-ae35-b80838c45d03"},"vehicle_type_id":"4","last_reported":1719356869,"current_range_meters":5600,"station_id":"ce4bh012rcd13ifvqcv0","pricing_plan_id":"cebpf4jnsgd1na2vs0mg"},{"bike_id":"9969e84a-8dde-4932-a19b-3ed7688723e7","system_id":"levelo_inurba_marseille","lat":43.30891,"lon":5.3966,"is_reserved":false,"is_disabled":false,"rental_uris":{"android":"levelo://app?vid=9969e84a-8dde-4932-a19b-3ed7688723e7","ios":"levelo://app?vid=9969e84a-8dde-4932-a19b-3ed7688723e7"},"vehicle_type_id":"4","last_reported":1719356869,"current_range_meters":31200,"station_id":"ce4bh012rcd13ifvqcv0","pricing_plan_id":"cebpf4jnsgd1na2vs0mg"},{"bike_id":"baee1c6a-0d06-442d-8ac6-358f3b21b105","system_id":"levelo_inurba_marseille","lat":43.309038,"lon":5.396546,"is_reserved":false,"is_disabled":false,"rental_uris":{"android":"levelo://app?vid=baee1c6a-0d06-442d-8ac6-358f3b21b105","ios":"levelo://app?vid=baee1c6a-0d06-442d-8ac6-358f3b21b105"},"vehicle_type_id":"4","last_reported":1719356869,"current_range_meters":20000,"station_id":"ce4bh012rcd13ifvqcv0","pricing_plan_id":"cebpf4jnsgd1na2vs0mg"},{"bike_id":"f5eb0761-adae-45c6-8c5c-0d3bfa5bb3c1","system_id":"levelo_inurba_marseille","lat":43.290624,"lon":5.359245,"is_reserved":false,"is_disabled":false,"rental_uris":{"android":"levelo://app?vid=f5eb0761-adae-45c6-8c5c-0d3bfa5bb3c1","ios":"levelo://app?vid=f5eb0761-adae-45c6-8c5c-0d3bfa5bb3c1"},"vehicle_type_id":"4","last_reported":1719356869,"current_range_meters":30400,"station_id":"ce4bha92rcd13ifvqeg0","pricing_plan_id":"cebpf4jnsgd1na2vs0mg"},{"bike_id":"66358f3b-e096-460e-9b17-079e247b61e5","system_id":"levelo_inurba_marseille","lat":43.29036,"lon":5.37571,"is_reserved":false,"is_disabled":false,"rental_uris":{"android":"levelo://app?vid=66358f3b-e096-460e-9b17-079e247b61e5","ios":"levelo://app?vid=66358f3b-e096-460e-9b17-079e247b61e5"},"vehicle_type_id":"4","last_reported":1719356869,"current_range_meters":13200,"station_id":"ce4bh692rcd13ifvqe90","pricing_plan_id":"cebpf4jnsgd1na2vs0mg"},{"bike_id":"e5944c5a-1b5c-42c1-8e71-443fc1da3ad0","system_id":"levelo_inurba_marseille","lat":43.289184,"lon":5.366408,"is_reserved":false,"is_disabled":false,"rental_uris":{"android":"levelo://app?vid=e5944c5a-1b5c-42c1-8e71-443fc1da3ad0","ios":"levelo://app?vid=e5944c5a-1b5c-42c1-8e71-443fc1da3ad0"},"vehicle_type_id":"4","last_reported":1719356869,"current_range_meters":7200,"station_id":"ce4bhap2rcd13ifvqek0","pricing_plan_id":"cebpf4jnsgd1na2vs0mg"},{"bike_id":"5f1d4356-1d10-4b25-afbc-2b987ad9e35f","system_id":"levelo_inurba_marseille","lat":43.289184,"lon":5.366408,"is_reserved":false,"is_disabled":false,"rental_uris":{"android":"levelo://app?vid=5f1d4356-1d10-4b25-afbc-2b987ad9e35f","ios":"levelo://app?vid=5f1d4356-1d10-4b25-afbc-2b987ad9e35f"},"vehicle_type_id":"4","last_reported":1719356869,"current_range_meters":24800,"station_id":"ce4bhap2rcd13ifvqek0","pricing_plan_id":"cebpf4jnsgd1na2vs0mg"},{"bike_id":"46178326-0beb-4419-a03c-e930f7abfa73","system_id":"levelo_inurba_marseille","lat":43.289184,"lon":5.366408,"is_reserved":false,"is_disabled":false,"rental_uris":{"android":"levelo://app?vid=46178326-0beb-4419-a03c-e930f7abfa73","ios":"levelo://app?vid=46178326-0beb-4419-a03c-e930f7abfa73"},"vehicle_type_id":"4","last_reported":1719356869,"current_range_meters":28800,"station_id":"ce4bhap2rcd13ifvqek0","pricing_plan_id":"cebpf4jnsgd1na2vs0mg"},{"bike_id":"b949bf9b-56d0-48dc-abf7-dd2a68a873cd","system_id":"levelo_inurba_marseille","lat":43.289468,"lon":5.363719,"is_reserved":false,"is_disabled":false,"rental_uris":{"android":"levelo://app?vid=b949bf9b-56d0-48dc-abf7-dd2a68a873cd","ios":"levelo://app?vid=b949bf9b-56d0-48dc-abf7-dd2a68a873cd"},"vehicle_type_id":"4","last_reported":1719356869,"current_range_meters":24800,"station_id":"ce4bhc92rcd13ifvqetg","pricing_plan_id":"cebpf4jnsgd1na2vs0mg"},{"bike_id":"c81c08cc-afcb-4b10-9934-4a4a2fce05d3","system_id":"levelo_inurba_marseille","lat":43.289184,"lon":5.366408,"is_reserved":false,"is_disabled":false,"rental_uris":{"android":"levelo://app?vid=c81c08cc-afcb-4b10-9934-4a4a2fce05d3","ios":"levelo://app?vid=c81c08cc-afcb-4b10-9934-4a4a2fce05d3"},"vehicle_type_id":"4","last_reported":1719356869,"current_range_meters":9200,"station_id":"ce4bhap2rcd13ifvqek0","pricing_plan_id":"cebpf4jnsgd1na2vs0mg"},{"bike_id":"2204a90f-52f4-49b2-a181-cda0dcf36123","system_id":"levelo_inurba_marseille","lat":43.289468,"lon":5.363719,"is_reserved":false,"is_disabled":false,"rental_uris":{"android":"levelo://app?vid=2204a90f-52f4-49b2-a181-cda0dcf36123","ios":"levelo://app?vid=2204a90f-52f4-49b2-a181-cda0dcf36123"},"vehicle_type_id":"4","last_reported":1719356869,"current_range_meters":31200,"station_id":"ce4bhc92rcd13ifvqetg","pricing_plan_id":"cebpf4jnsgd1na2vs0mg"},{"bike_id":"96fe8401-82be-4eb3-844e-b0c396078866","system_id":"levelo_inurba_marseille","lat":43.289468,"lon":5.363719,"is_reserved":false,"is_disabled":false,"rental_uris":{"android":"levelo://app?vid=96fe8401-82be-4eb3-844e-b0c396078866","ios":"levelo://app?vid=96fe8401-82be-4eb3-844e-b0c396078866"},"vehicle_type_id":"4","last_reported":1719356869,"current_range_meters":32000,"station_id":"ce4bhc92rcd13ifvqetg","pricing_plan_id":"cebpf4jnsgd1na2vs0mg"},{"bike_id":"77d92cae-ad2b-4342-82e6-e39e11935b15","system_id":"levelo_inurba_marseille","lat":43.292644,"lon":5.384257,"is_reserved":false,"is_disabled":false,"rental_uris":{"android":"levelo://app?vid=77d92cae-ad2b-4342-82e6-e39e11935b15","ios":"levelo://app?vid=77d92cae-ad2b-4342-82e6-e39e11935b15"},"vehicle_type_id":"4","last_reported":1719356869,"current_range_meters":0,"station_id":"ce4bh692rcd13ifvqea0","pricing_plan_id":"cebpf4jnsgd1na2vs0mg"},{"bike_id":"4124a482-e81f-458d-872d-592248ecf291","system_id":"levelo_inurba_marseille","lat":43.304296,"lon":5.397513,"is_reserved":false,"is_disabled":false,"rental_uris":{"android":"levelo://app?vid=4124a482-e81f-458d-872d-592248ecf291","ios":"levelo://app?vid=4124a482-e81f-458d-872d-592248ecf291"},"vehicle_type_id":"4","last_reported":1719356869,"current_range_meters":17200,"station_id":"ce4bh092rcd13ifvqd20","pricing_plan_id":"cebpf4jnsgd1na2vs0mg"},{"bike_id":"cc49da87-dbbc-4c5f-8c56-8610df88cece","system_id":"levelo_inurba_marseille","lat":43.330442,"lon":5.389148,"is_reserved":false,"is_disabled":false,"rental_uris":{"android":"levelo://app?vid=cc49da87-dbbc-4c5f-8c56-8610df88cece","ios":"levelo://app?vid=cc49da87-dbbc-4c5f-8c56-8610df88cece"},"vehicle_type_id":"4","last_reported":1719356869,"current_range_meters":30000,"station_id":"ce4bhr92rcd13ifvqhrg","pricing_plan_id":"cebpf4jnsgd1na2vs0mg"},{"bike_id":"f74a5eb1-e5ee-4cb0-a5e8-b1f432e368ce","system_id":"levelo_inurba_marseille","lat":43.29792,"lon":5.39339,"is_reserved":false,"is_disabled":false,"rental_uris":{"android":"levelo://app?vid=f74a5eb1-e5ee-4cb0-a5e8-b1f432e368ce","ios":"levelo://app?vid=f74a5eb1-e5ee-4cb0-a5e8-b1f432e368ce"},"vehicle_type_id":"4","last_reported":1719356869,"current_range_meters":29600,"station_id":"chh1huq6cuj3fo74tm60","pricing_plan_id":"cebpf4jnsgd1na2vs0mg"},{"bike_id":"e1d09ae4-a13c-4f45-b906-2f850ab37cbf","system_id":"levelo_inurba_marseille","lat":43.297898,"lon":5.393408,"is_reserved":false,"is_disabled":false,"rental_uris":{"android":"levelo://app?vid=e1d09ae4-a13c-4f45-b906-2f850ab37cbf","ios":"levelo://app?vid=e1d09ae4-a13c-4f45-b906-2f850ab37cbf"},"vehicle_type_id":"4","last_reported":1719356869,"current_range_meters":31600,"station_id":"chh1huq6cuj3fo74tm60","pricing_plan_id":"cebpf4jnsgd1na2vs0mg"},{"bike_id":"45349dd2-4c29-41ce-b0c6-6e8738b11140","system_id":"levelo_inurba_marseille","lat":43.297891,"lon":5.393418,"is_reserved":false,"is_disabled":false,"rental_uris":{"android":"levelo://app?vid=45349dd2-4c29-41ce-b0c6-6e8738b11140","ios":"levelo://app?vid=45349dd2-4c29-41ce-b0c6-6e8738b11140"},"vehicle_type_id":"4","last_reported":1719356869,"current_range_meters":30800,"station_id":"chh1huq6cuj3fo74tm60","pricing_plan_id":"cebpf4jnsgd1na2vs0mg"},{"bike_id":"f331a200-e019-478d-a036-2da8ec478141","system_id":"levelo_inurba_marseille","lat":43.297815,"lon":5.393548,"is_reserved":false,"is_disabled":false,"rental_uris":{"android":"levelo://app?vid=f331a200-e019-478d-a036-2da8ec478141","ios":"levelo://app?vid=f331a200-e019-478d-a036-2da8ec478141"},"vehicle_type_id":"4","last_reported":1719356869,"current_range_meters":19600,"station_id":"chh1huq6cuj3fo74tm60","pricing_plan_id":"cebpf4jnsgd1na2vs0mg"},{"bike_id":"77d2c0bd-ddc6-441f-8584-eb554977fde0","system_id":"levelo_inurba_marseille","lat":43.297815,"lon":5.393548,"is_reserved":false,"is_disabled":false,"rental_uris":{"android":"levelo://app?vid=77d2c0bd-ddc6-441f-8584-eb554977fde0","ios":"levelo://app?vid=77d2c0bd-ddc6-441f-8584-eb554977fde0"},"vehicle_type_id":"4","last_reported":1719356869,"current_range_meters":3600,"station_id":"chh1huq6cuj3fo74tm60","pricing_plan_id":"cebpf4jnsgd1na2vs0mg"},{"bike_id":"63aea35a-2ffa-40c0-9a11-1a4859319ce5","system_id":"levelo_inurba_marseille","lat":43.33017,"lon":5.39039,"is_reserved":false,"is_disabled":false,"rental_uris":{"android":"levelo://app?vid=63aea35a-2ffa-40c0-9a11-1a4859319ce5","ios":"levelo://app?vid=63aea35a-2ffa-40c0-9a11-1a4859319ce5"},"vehicle_type_id":"4","last_reported":1719356869,"current_range_meters":14000,"station_id":"ce4bhr92rcd13ifvqhrg","pricing_plan_id":"cebpf4jnsgd1na2vs0mg"},{"bike_id":"2fc29a03-3a03-43d0-b4f2-1460a5d190a9","system_id":"levelo_inurba_marseille","lat":43.33019,"lon":5.39039,"is_reserved":false,"is_disabled":false,"rental_uris":{"android":"levelo://app?vid=2fc29a03-3a03-43d0-b4f2-1460a5d190a9","ios":"levelo://app?vid=2fc29a03-3a03-43d0-b4f2-1460a5d190a9"},"vehicle_type_id":"4","last_reported":1719356869,"current_range_meters":10800,"station_id":"ce4bhr92rcd13ifvqhrg","pricing_plan_id":"cebpf4jnsgd1na2vs0mg"},{"bike_id":"539e81d5-d06c-4707-ad59-841bbe01e2cd","system_id":"levelo_inurba_marseille","lat":43.29791,"lon":5.39361,"is_reserved":false,"is_disabled":false,"rental_uris":{"android":"levelo://app?vid=539e81d5-d06c-4707-ad59-841bbe01e2cd","ios":"levelo://app?vid=539e81d5-d06c-4707-ad59-841bbe01e2cd"},"vehicle_type_id":"4","last_reported":1719356869,"current_range_meters":13600,"station_id":"chh1huq6cuj3fo74tm60","pricing_plan_id":"cebpf4jnsgd1na2vs0mg"},{"bike_id":"84dd423b-5612-4130-a4a9-5d5ee4a2524b","system_id":"levelo_inurba_marseille","lat":43.289741,"lon":5.378306,"is_reserved":false,"is_disabled":false,"rental_uris":{"android":"levelo://app?vid=84dd423b-5612-4130-a4a9-5d5ee4a2524b","ios":"levelo://app?vid=84dd423b-5612-4130-a4a9-5d5ee4a2524b"},"vehicle_type_id":"4","last_reported":1719356869,"current_range_meters":30000,"station_id":"ce4bh9p2rcd13ifvqed0","pricing_plan_id":"cebpf4jnsgd1na2vs0mg"},{"bike_id":"518b4ddc-113c-466d-b011-b7bc04774c33","system_id":"levelo_inurba_marseille","lat":43.330442,"lon":5.389148,"is_reserved":false,"is_disabled":false,"rental_uris":{"android":"levelo://app?vid=518b4ddc-113c-466d-b011-b7bc04774c33","ios":"levelo://app?vid=518b4ddc-113c-466d-b011-b7bc04774c33"},"vehicle_type_id":"4","last_reported":1719356869,"current_range_meters":25600,"station_id":"ce4bhr92rcd13ifvqhrg","pricing_plan_id":"cebpf4jnsgd1na2vs0mg"},{"bike_id":"2a503705-46f5-4402-af87-5f01317efa2a","system_id":"levelo_inurba_marseille","lat":43.28856,"lon":5.358371,"is_reserved":false,"is_disabled":false,"rental_uris":{"android":"levelo://app?vid=2a503705-46f5-4402-af87-5f01317efa2a","ios":"levelo://app?vid=2a503705-46f5-4402-af87-5f01317efa2a"},"vehicle_type_id":"4","last_reported":1719356869,"current_range_meters":12000,"station_id":"ce4bhb12rcd13ifvqem0","pricing_plan_id":"cebpf4jnsgd1na2vs0mg"},{"bike_id":"4530503c-f0f5-434b-8c47-5358954aa1ff","system_id":"levelo_inurba_marseille","lat":43.28856,"lon":5.358371,"is_reserved":false,"is_disabled":false,"rental_uris":{"android":"levelo://app?vid=4530503c-f0f5-434b-8c47-5358954aa1ff","ios":"levelo://app?vid=4530503c-f0f5-434b-8c47-5358954aa1ff"},"vehicle_type_id":"4","last_reported":1719356869,"current_range_meters":14400,"station_id":"ce4bhb12rcd13ifvqem0","pricing_plan_id":"cebpf4jnsgd1na2vs0mg"},{"bike_id":"4ebfdfc1-7f29-424a-92ce-f382fd9ecea6","system_id":"levelo_inurba_marseille","lat":43.288508,"lon":5.358567,"is_reserved":false,"is_disabled":false,"rental_uris":{"android":"levelo://app?vid=4ebfdfc1-7f29-424a-92ce-f382fd9ecea6","ios":"levelo://app?vid=4ebfdfc1-7f29-424a-92ce-f382fd9ecea6"},"vehicle_type_id":"4","last_reported":1719356869,"current_range_meters":30000,"station_id":"ce4bhb12rcd13ifvqem0","pricing_plan_id":"cebpf4jnsgd1na2vs0mg"},{"bike_id":"c3ddbe4a-157d-4893-acf1-f1f626a65d21","system_id":"levelo_inurba_marseille","lat":43.33715,"lon":5.37426,"is_reserved":false,"is_disabled":false,"rental_uris":{"android":"levelo://app?vid=c3ddbe4a-157d-4893-acf1-f1f626a65d21","ios":"levelo://app?vid=c3ddbe4a-157d-4893-acf1-f1f626a65d21"},"vehicle_type_id":"0","last_reported":1719356869,"current_range_meters":19200,"station_id":"","pricing_plan_id":"cebpf4jnsgd1na2vs0mg"},{"bike_id":"a9f80464-a468-4948-8c50-93f720a0d51e","system_id":"levelo_inurba_marseille","lat":43.28856,"lon":5.358371,"is_reserved":false,"is_disabled":false,"rental_uris":{"android":"levelo://app?vid=a9f80464-a468-4948-8c50-93f720a0d51e","ios":"levelo://app?vid=a9f80464-a468-4948-8c50-93f720a0d51e"},"vehicle_type_id":"4","last_reported":1719356869,"current_range_meters":6400,"station_id":"ce4bhb12rcd13ifvqem0","pricing_plan_id":"cebpf4jnsgd1na2vs0mg"},{"bike_id":"913cf5bf-6e38-42d1-8250-fcc2802e76b0","system_id":"levelo_inurba_marseille","lat":43.312609,"lon":5.401662,"is_reserved":false,"is_disabled":false,"rental_uris":{"android":"levelo://app?vid=913cf5bf-6e38-42d1-8250-fcc2802e76b0","ios":"levelo://app?vid=913cf5bf-6e38-42d1-8250-fcc2802e76b0"},"vehicle_type_id":"4","last_reported":1719356869,"current_range_meters":17200,"station_id":"ce4bh092rcd13ifvqd30","pricing_plan_id":"cebpf4jnsgd1na2vs0mg"},{"bike_id":"e111ace2-e776-4977-93e2-1267d30d6153","system_id":"levelo_inurba_marseille","lat":43.312609,"lon":5.401662,"is_reserved":false,"is_disabled":false,"rental_uris":{"android":"levelo://app?vid=e111ace2-e776-4977-93e2-1267d30d6153","ios":"levelo://app?vid=e111ace2-e776-4977-93e2-1267d30d6153"},"vehicle_type_id":"4","last_reported":1719356869,"current_range_meters":12800,"station_id":"ce4bh092rcd13ifvqd30","pricing_plan_id":"cebpf4jnsgd1na2vs0mg"},{"bike_id":"c25a3696-e1cc-43ba-8656-23d4a118ee2e","system_id":"levelo_inurba_marseille","lat":43.337361,"lon":5.374671,"is_reserved":false,"is_disabled":false,"rental_uris":{"android":"levelo://app?vid=c25a3696-e1cc-43ba-8656-23d4a118ee2e","ios":"levelo://app?vid=c25a3696-e1cc-43ba-8656-23d4a118ee2e"},"vehicle_type_id":"4","last_reported":1719356869,"current_range_meters":22000,"station_id":"","pricing_plan_id":"cebpf4jnsgd1na2vs0mg"},{"bike_id":"bde3d24b-d6f0-4a05-81d2-2795b41d295b","system_id":"levelo_inurba_marseille","lat":43.312609,"lon":5.401662,"is_reserved":false,"is_disabled":false,"rental_uris":{"android":"levelo://app?vid=bde3d24b-d6f0-4a05-81d2-2795b41d295b","ios":"levelo://app?vid=bde3d24b-d6f0-4a05-81d2-2795b41d295b"},"vehicle_type_id":"4","last_reported":1719356869,"current_range_meters":6400,"station_id":"ce4bh092rcd13ifvqd30","pricing_plan_id":"cebpf4jnsgd1na2vs0mg"},{"bike_id":"bb65fb70-df82-47d8-b27f-438620895501","system_id":"levelo_inurba_marseille","lat":43.337368,"lon":5.374649,"is_reserved":false,"is_disabled":false,"rental_uris":{"android":"levelo://app?vid=bb65fb70-df82-47d8-b27f-438620895501","ios":"levelo://app?vid=bb65fb70-df82-47d8-b27f-438620895501"},"vehicle_type_id":"0","last_reported":1719356869,"current_range_meters":16000,"station_id":"","pricing_plan_id":"cebpf4jnsgd1na2vs0mg"},{"bike_id":"2bffac18-a8fe-485f-be52-f67a471a544f","system_id":"levelo_inurba_marseille","lat":43.312746,"lon":5.401659,"is_reserved":false,"is_disabled":false,"rental_uris":{"android":"levelo://app?vid=2bffac18-a8fe-485f-be52-f67a471a544f","ios":"levelo://app?vid=2bffac18-a8fe-485f-be52-f67a471a544f"},"vehicle_type_id":"4","last_reported":1719356869,"current_range_meters":0,"station_id":"ce4bh092rcd13ifvqd30","pricing_plan_id":"cebpf4jnsgd1na2vs0mg"},{"bike_id":"8ce49993-4c30-48fd-86b8-4d5fb2e523dd","system_id":"levelo_inurba_marseille","lat":43.312609,"lon":5.401662,"is_reserved":false,"is_disabled":false,"rental_uris":{"android":"levelo://app?vid=8ce49993-4c30-48fd-86b8-4d5fb2e523dd","ios":"levelo://app?vid=8ce49993-4c30-48fd-86b8-4d5fb2e523dd"},"vehicle_type_id":"4","last_reported":1719356869,"current_range_meters":0,"station_id":"ce4bh092rcd13ifvqd30","pricing_plan_id":"cebpf4jnsgd1na2vs0mg"},{"bike_id":"8043cc8a-f702-4e45-9523-d56dfd7ee432","system_id":"levelo_inurba_marseille","lat":43.337388,"lon":5.374666,"is_reserved":false,"is_disabled":false,"rental_uris":{"android":"levelo://app?vid=8043cc8a-f702-4e45-9523-d56dfd7ee432","ios":"levelo://app?vid=8043cc8a-f702-4e45-9523-d56dfd7ee432"},"vehicle_type_id":"0","last_reported":1719356869,"current_range_meters":20800,"station_id":"","pricing_plan_id":"cebpf4jnsgd1na2vs0mg"},{"bike_id":"aa527c2c-31a5-479b-bfbe-daae0d9bb514","system_id":"levelo_inurba_marseille","lat":43.33739,"lon":5.374656,"is_reserved":false,"is_disabled":false,"rental_uris":{"android":"levelo://app?vid=aa527c2c-31a5-479b-bfbe-daae0d9bb514","ios":"levelo://app?vid=aa527c2c-31a5-479b-bfbe-daae0d9bb514"},"vehicle_type_id":"0","last_reported":1719356869,"current_range_meters":11200,"station_id":"","pricing_plan_id":"cebpf4jnsgd1na2vs0mg"},{"bike_id":"70df0eff-7892-4d64-8b33-f9b25d3cdb77","system_id":"levelo_inurba_marseille","lat":43.337402,"lon":5.374644,"is_reserved":false,"is_disabled":false,"rental_uris":{"android":"levelo://app?vid=70df0eff-7892-4d64-8b33-f9b25d3cdb77","ios":"levelo://app?vid=70df0eff-7892-4d64-8b33-f9b25d3cdb77"},"vehicle_type_id":"4","last_reported":1719356869,"current_range_meters":21600,"station_id":"","pricing_plan_id":"cebpf4jnsgd1na2vs0mg"},{"bike_id":"bf709b1a-1e81-4c69-a36a-dfef45d67fee","system_id":"levelo_inurba_marseille","lat":43.337393,"lon":5.374729,"is_reserved":false,"is_disabled":false,"rental_uris":{"android":"levelo://app?vid=bf709b1a-1e81-4c69-a36a-dfef45d67fee","ios":"levelo://app?vid=bf709b1a-1e81-4c69-a36a-dfef45d67fee"},"vehicle_type_id":"4","last_reported":1719356869,"current_range_meters":21600,"station_id":"","pricing_plan_id":"cebpf4jnsgd1na2vs0mg"},{"bike_id":"11da98ef-d0c3-43c2-a7e4-890f2c23ccbc","system_id":"levelo_inurba_marseille","lat":43.337407,"lon":5.374653,"is_reserved":false,"is_disabled":false,"rental_uris":{"android":"levelo://app?vid=11da98ef-d0c3-43c2-a7e4-890f2c23ccbc","ios":"levelo://app?vid=11da98ef-d0c3-43c2-a7e4-890f2c23ccbc"},"vehicle_type_id":"4","last_reported":1719356869,"current_range_meters":15200,"station_id":"","pricing_plan_id":"cebpf4jnsgd1na2vs0mg"},{"bike_id":"985eda3a-8205-4c72-8b0d-a44593dd15b5","system_id":"levelo_inurba_marseille","lat":43.337406,"lon":5.374665,"is_reserved":false,"is_disabled":false,"rental_uris":{"android":"levelo://app?vid=985eda3a-8205-4c72-8b0d-a44593dd15b5","ios":"levelo://app?vid=985eda3a-8205-4c72-8b0d-a44593dd15b5"},"vehicle_type_id":"0","last_reported":1719356869,"current_range_meters":14800,"station_id":"","pricing_plan_id":"cebpf4jnsgd1na2vs0mg"},{"bike_id":"40303089-9364-42f8-af18-1cbafc447375","system_id":"levelo_inurba_marseille","lat":43.312609,"lon":5.401662,"is_reserved":false,"is_disabled":false,"rental_uris":{"android":"levelo://app?vid=40303089-9364-42f8-af18-1cbafc447375","ios":"levelo://app?vid=40303089-9364-42f8-af18-1cbafc447375"},"vehicle_type_id":"4","last_reported":1719356869,"current_range_meters":800,"station_id":"ce4bh092rcd13ifvqd30","pricing_plan_id":"cebpf4jnsgd1na2vs0mg"},{"bike_id":"9b81675f-44cd-4cbe-9733-2d36a516d8f7","system_id":"levelo_inurba_marseille","lat":43.337401,"lon":5.374712,"is_reserved":false,"is_disabled":false,"rental_uris":{"android":"levelo://app?vid=9b81675f-44cd-4cbe-9733-2d36a516d8f7","ios":"levelo://app?vid=9b81675f-44cd-4cbe-9733-2d36a516d8f7"},"vehicle_type_id":"0","last_reported":1719356869,"current_range_meters":22800,"station_id":"","pricing_plan_id":"cebpf4jnsgd1na2vs0mg"},{"bike_id":"bd9a6c26-2db3-4e30-92c7-c85ae97147aa","system_id":"levelo_inurba_marseille","lat":43.33741,"lon":5.37469,"is_reserved":false,"is_disabled":false,"rental_uris":{"android":"levelo://app?vid=bd9a6c26-2db3-4e30-92c7-c85ae97147aa","ios":"levelo://app?vid=bd9a6c26-2db3-4e30-92c7-c85ae97147aa"},"vehicle_type_id":"0","last_reported":1719356869,"current_range_meters":24400,"station_id":"","pricing_plan_id":"cebpf4jnsgd1na2vs0mg"},{"bike_id":"dbbc58c0-ca7d-4107-b279-9f6da649af46","system_id":"levelo_inurba_marseille","lat":43.312609,"lon":5.401662,"is_reserved":false,"is_disabled":false,"rental_uris":{"android":"levelo://app?vid=dbbc58c0-ca7d-4107-b279-9f6da649af46","ios":"levelo://app?vid=dbbc58c0-ca7d-4107-b279-9f6da649af46"},"vehicle_type_id":"4","last_reported":1719356869,"current_range_meters":14000,"station_id":"ce4bh092rcd13ifvqd30","pricing_plan_id":"cebpf4jnsgd1na2vs0mg"},{"bike_id":"cbff8e2e-87ad-4d9e-a09d-9b1fba1c0aeb","system_id":"levelo_inurba_marseille","lat":43.337416,"lon":5.374698,"is_reserved":false,"is_disabled":false,"rental_uris":{"android":"levelo://app?vid=cbff8e2e-87ad-4d9e-a09d-9b1fba1c0aeb","ios":"levelo://app?vid=cbff8e2e-87ad-4d9e-a09d-9b1fba1c0aeb"},"vehicle_type_id":"0","last_reported":1719356869,"current_range_meters":21200,"station_id":"","pricing_plan_id":"cebpf4jnsgd1na2vs0mg"},{"bike_id":"2a0fb516-a307-4861-b129-104556c40f00","system_id":"levelo_inurba_marseille","lat":43.337429,"lon":5.374654,"is_reserved":false,"is_disabled":false,"rental_uris":{"android":"levelo://app?vid=2a0fb516-a307-4861-b129-104556c40f00","ios":"levelo://app?vid=2a0fb516-a307-4861-b129-104556c40f00"},"vehicle_type_id":"0","last_reported":1719356869,"current_range_meters":13200,"station_id":"","pricing_plan_id":"cebpf4jnsgd1na2vs0mg"},{"bike_id":"ad6dfb5c-fde9-439a-9237-79370b47f2da","system_id":"levelo_inurba_marseille","lat":43.312775,"lon":5.40174,"is_reserved":false,"is_disabled":false,"rental_uris":{"android":"levelo://app?vid=ad6dfb5c-fde9-439a-9237-79370b47f2da","ios":"levelo://app?vid=ad6dfb5c-fde9-439a-9237-79370b47f2da"},"vehicle_type_id":"4","last_reported":1719356869,"current_range_meters":0,"station_id":"ce4bh092rcd13ifvqd30","pricing_plan_id":"cebpf4jnsgd1na2vs0mg"},{"bike_id":"353ad9e9-adc7-4d61-9a20-af7818096c19","system_id":"levelo_inurba_marseille","lat":43.309371,"lon":5.401449,"is_reserved":false,"is_disabled":false,"rental_uris":{"android":"levelo://app?vid=353ad9e9-adc7-4d61-9a20-af7818096c19","ios":"levelo://app?vid=353ad9e9-adc7-4d61-9a20-af7818096c19"},"vehicle_type_id":"4","last_reported":1719356869,"current_range_meters":21600,"station_id":"ce4bgvp2rcd13ifvqct0","pricing_plan_id":"cebpf4jnsgd1na2vs0mg"},{"bike_id":"fca805ad-50c8-4d3a-a519-54302aa506a6","system_id":"levelo_inurba_marseille","lat":43.309371,"lon":5.401449,"is_reserved":false,"is_disabled":false,"rental_uris":{"android":"levelo://app?vid=fca805ad-50c8-4d3a-a519-54302aa506a6","ios":"levelo://app?vid=fca805ad-50c8-4d3a-a519-54302aa506a6"},"vehicle_type_id":"4","last_reported":1719356869,"current_range_meters":0,"station_id":"ce4bgvp2rcd13ifvqct0","pricing_plan_id":"cebpf4jnsgd1na2vs0mg"},{"bike_id":"0e2d2ea6-c5e9-4ef8-8bc6-b3e42605c9bf","system_id":"levelo_inurba_marseille","lat":43.309371,"lon":5.401449,"is_reserved":false,"is_disabled":false,"rental_uris":{"android":"levelo://app?vid=0e2d2ea6-c5e9-4ef8-8bc6-b3e42605c9bf","ios":"levelo://app?vid=0e2d2ea6-c5e9-4ef8-8bc6-b3e42605c9bf"},"vehicle_type_id":"4","last_reported":1719356869,"current_range_meters":26000,"station_id":"ce4bgvp2rcd13ifvqct0","pricing_plan_id":"cebpf4jnsgd1na2vs0mg"},{"bike_id":"343a59f2-939e-4b87-9aca-8a9759d59612","system_id":"levelo_inurba_marseille","lat":43.309371,"lon":5.401449,"is_reserved":false,"is_disabled":false,"rental_uris":{"android":"levelo://app?vid=343a59f2-939e-4b87-9aca-8a9759d59612","ios":"levelo://app?vid=343a59f2-939e-4b87-9aca-8a9759d59612"},"vehicle_type_id":"4","last_reported":1719356869,"current_range_meters":10800,"station_id":"ce4bgvp2rcd13ifvqct0","pricing_plan_id":"cebpf4jnsgd1na2vs0mg"},{"bike_id":"81f3b553-8793-429e-bdf8-35ca3752f904","system_id":"levelo_inurba_marseille","lat":43.309371,"lon":5.401449,"is_reserved":false,"is_disabled":false,"rental_uris":{"android":"levelo://app?vid=81f3b553-8793-429e-bdf8-35ca3752f904","ios":"levelo://app?vid=81f3b553-8793-429e-bdf8-35ca3752f904"},"vehicle_type_id":"4","last_reported":1719356869,"current_range_meters":28000,"station_id":"ce4bgvp2rcd13ifvqct0","pricing_plan_id":"cebpf4jnsgd1na2vs0mg"},{"bike_id":"6f63c496-f9d2-4d9e-9c94-5a43bdaa8762","system_id":"levelo_inurba_marseille","lat":43.30934,"lon":5.4015,"is_reserved":false,"is_disabled":false,"rental_uris":{"android":"levelo://app?vid=6f63c496-f9d2-4d9e-9c94-5a43bdaa8762","ios":"levelo://app?vid=6f63c496-f9d2-4d9e-9c94-5a43bdaa8762"},"vehicle_type_id":"4","last_reported":1719356869,"current_range_meters":31200,"station_id":"ce4bgvp2rcd13ifvqct0","pricing_plan_id":"cebpf4jnsgd1na2vs0mg"},{"bike_id":"864a8aac-059d-4d60-ad49-9fb399e1c878","system_id":"levelo_inurba_marseille","lat":43.309277,"lon":5.401497,"is_reserved":false,"is_disabled":false,"rental_uris":{"android":"levelo://app?vid=864a8aac-059d-4d60-ad49-9fb399e1c878","ios":"levelo://app?vid=864a8aac-059d-4d60-ad49-9fb399e1c878"},"vehicle_type_id":"4","last_reported":1719356869,"current_range_meters":31200,"station_id":"ce4bgvp2rcd13ifvqct0","pricing_plan_id":"cebpf4jnsgd1na2vs0mg"},{"bike_id":"f867320b-b3ee-4d44-8ef3-37d72db21942","system_id":"levelo_inurba_marseille","lat":43.33754,"lon":5.37456,"is_reserved":false,"is_disabled":false,"rental_uris":{"android":"levelo://app?vid=f867320b-b3ee-4d44-8ef3-37d72db21942","ios":"levelo://app?vid=f867320b-b3ee-4d44-8ef3-37d72db21942"},"vehicle_type_id":"4","last_reported":1719356869,"current_range_meters":24800,"station_id":"","pricing_plan_id":"cebpf4jnsgd1na2vs0mg"},{"bike_id":"322fefe1-3914-487b-9b1e-c8cb7feb04b8","system_id":"levelo_inurba_marseille","lat":43.30636,"lon":5.40076,"is_reserved":false,"is_disabled":false,"rental_uris":{"android":"levelo://app?vid=322fefe1-3914-487b-9b1e-c8cb7feb04b8","ios":"levelo://app?vid=322fefe1-3914-487b-9b1e-c8cb7feb04b8"},"vehicle_type_id":"4","last_reported":1719356869,"current_range_meters":1200,"station_id":"ce4bh112rcd13ifvqda0","pricing_plan_id":"cebpf4jnsgd1na2vs0mg"},{"bike_id":"459ae7ba-d919-45d4-b48c-f40576caf672","system_id":"levelo_inurba_marseille","lat":43.306412,"lon":5.401035,"is_reserved":false,"is_disabled":false,"rental_uris":{"android":"levelo://app?vid=459ae7ba-d919-45d4-b48c-f40576caf672","ios":"levelo://app?vid=459ae7ba-d919-45d4-b48c-f40576caf672"},"vehicle_type_id":"4","last_reported":1719356869,"current_range_meters":19200,"station_id":"ce4bh112rcd13ifvqda0","pricing_plan_id":"cebpf4jnsgd1na2vs0mg"},{"bike_id":"448944b1-21d2-4705-987e-595e78c5a096","system_id":"levelo_inurba_marseille","lat":43.30642,"lon":5.401031,"is_reserved":false,"is_disabled":false,"rental_uris":{"android":"levelo://app?vid=448944b1-21d2-4705-987e-595e78c5a096","ios":"levelo://app?vid=448944b1-21d2-4705-987e-595e78c5a096"},"vehicle_type_id":"4","last_reported":1719356869,"current_range_meters":10400,"station_id":"ce4bh112rcd13ifvqda0","pricing_plan_id":"cebpf4jnsgd1na2vs0mg"},{"bike_id":"12471b9f-5fa3-4b9c-84f3-3b022f59d30d","system_id":"levelo_inurba_marseille","lat":43.3064,"lon":5.40089,"is_reserved":false,"is_disabled":false,"rental_uris":{"android":"levelo://app?vid=12471b9f-5fa3-4b9c-84f3-3b022f59d30d","ios":"levelo://app?vid=12471b9f-5fa3-4b9c-84f3-3b022f59d30d"},"vehicle_type_id":"4","last_reported":1719356869,"current_range_meters":0,"station_id":"ce4bh112rcd13ifvqda0","pricing_plan_id":"cebpf4jnsgd1na2vs0mg"},{"bike_id":"19c239d3-5a4b-4aff-8085-66266dba085d","system_id":"levelo_inurba_marseille","lat":43.33765,"lon":5.37482,"is_reserved":false,"is_disabled":false,"rental_uris":{"android":"levelo://app?vid=19c239d3-5a4b-4aff-8085-66266dba085d","ios":"levelo://app?vid=19c239d3-5a4b-4aff-8085-66266dba085d"},"vehicle_type_id":"4","last_reported":1719356869,"current_range_meters":30400,"station_id":"","pricing_plan_id":"cebpf4jnsgd1na2vs0mg"},{"bike_id":"ae204f31-0c5d-44ba-953a-f9c7980ef124","system_id":"levelo_inurba_marseille","lat":43.306523,"lon":5.40101,"is_reserved":false,"is_disabled":false,"rental_uris":{"android":"levelo://app?vid=ae204f31-0c5d-44ba-953a-f9c7980ef124","ios":"levelo://app?vid=ae204f31-0c5d-44ba-953a-f9c7980ef124"},"vehicle_type_id":"4","last_reported":1719356869,"current_range_meters":8800,"station_id":"ce4bh112rcd13ifvqda0","pricing_plan_id":"cebpf4jnsgd1na2vs0mg"},{"bike_id":"c47ea163-7ecd-445e-bd1d-ff201dbfc44d","system_id":"levelo_inurba_marseille","lat":43.30642,"lon":5.401031,"is_reserved":false,"is_disabled":false,"rental_uris":{"android":"levelo://app?vid=c47ea163-7ecd-445e-bd1d-ff201dbfc44d","ios":"levelo://app?vid=c47ea163-7ecd-445e-bd1d-ff201dbfc44d"},"vehicle_type_id":"4","last_reported":1719356869,"current_range_meters":4000,"station_id":"ce4bh112rcd13ifvqda0","pricing_plan_id":"cebpf4jnsgd1na2vs0mg"},{"bike_id":"23bb476f-7747-4e06-997d-96f079a9abe0","system_id":"levelo_inurba_marseille","lat":43.306432,"lon":5.401034,"is_reserved":false,"is_disabled":false,"rental_uris":{"android":"levelo://app?vid=23bb476f-7747-4e06-997d-96f079a9abe0","ios":"levelo://app?vid=23bb476f-7747-4e06-997d-96f079a9abe0"},"vehicle_type_id":"4","last_reported":1719356869,"current_range_meters":0,"station_id":"ce4bh112rcd13ifvqda0","pricing_plan_id":"cebpf4jnsgd1na2vs0mg"},{"bike_id":"952ad18b-cfb4-406c-a253-29e5249034ef","system_id":"levelo_inurba_marseille","lat":43.306412,"lon":5.401035,"is_reserved":false,"is_disabled":false,"rental_uris":{"android":"levelo://app?vid=952ad18b-cfb4-406c-a253-29e5249034ef","ios":"levelo://app?vid=952ad18b-cfb4-406c-a253-29e5249034ef"},"vehicle_type_id":"4","last_reported":1719356869,"current_range_meters":5600,"station_id":"ce4bh112rcd13ifvqda0","pricing_plan_id":"cebpf4jnsgd1na2vs0mg"},{"bike_id":"68cdcbd8-8aca-43ce-ac23-c08521cd9550","system_id":"levelo_inurba_marseille","lat":43.301117,"lon":5.398795,"is_reserved":false,"is_disabled":false,"rental_uris":{"android":"levelo://app?vid=68cdcbd8-8aca-43ce-ac23-c08521cd9550","ios":"levelo://app?vid=68cdcbd8-8aca-43ce-ac23-c08521cd9550"},"vehicle_type_id":"4","last_reported":1719356869,"current_range_meters":21200,"station_id":"ce4bh0h2rcd13ifvqd40","pricing_plan_id":"cebpf4jnsgd1na2vs0mg"},{"bike_id":"e192d9dc-a2d1-4215-b7f9-b8f1120fc50c","system_id":"levelo_inurba_marseille","lat":43.301117,"lon":5.398795,"is_reserved":false,"is_disabled":false,"rental_uris":{"android":"levelo://app?vid=e192d9dc-a2d1-4215-b7f9-b8f1120fc50c","ios":"levelo://app?vid=e192d9dc-a2d1-4215-b7f9-b8f1120fc50c"},"vehicle_type_id":"4","last_reported":1719356869,"current_range_meters":14800,"station_id":"ce4bh0h2rcd13ifvqd40","pricing_plan_id":"cebpf4jnsgd1na2vs0mg"},{"bike_id":"5371252d-e2af-4ac2-99f7-72c5618fc001","system_id":"levelo_inurba_marseille","lat":43.301117,"lon":5.398795,"is_reserved":false,"is_disabled":false,"rental_uris":{"android":"levelo://app?vid=5371252d-e2af-4ac2-99f7-72c5618fc001","ios":"levelo://app?vid=5371252d-e2af-4ac2-99f7-72c5618fc001"},"vehicle_type_id":"4","last_reported":1719356869,"current_range_meters":25600,"station_id":"ce4bh0h2rcd13ifvqd40","pricing_plan_id":"cebpf4jnsgd1na2vs0mg"},{"bike_id":"56de231d-7a6a-4959-9946-2978fa52f748","system_id":"levelo_inurba_marseille","lat":43.28727,"lon":5.36078,"is_reserved":false,"is_disabled":false,"rental_uris":{"android":"levelo://app?vid=56de231d-7a6a-4959-9946-2978fa52f748","ios":"levelo://app?vid=56de231d-7a6a-4959-9946-2978fa52f748"},"vehicle_type_id":"4","last_reported":1719356869,"current_range_meters":20000,"station_id":"cki0cbj6b192h4jlfktg","pricing_plan_id":"cebpf4jnsgd1na2vs0mg"},{"bike_id":"a208d7ac-b654-4559-95e4-d9d12b2abfe5","system_id":"levelo_inurba_marseille","lat":43.28727,"lon":5.36078,"is_reserved":false,"is_disabled":false,"rental_uris":{"android":"levelo://app?vid=a208d7ac-b654-4559-95e4-d9d12b2abfe5","ios":"levelo://app?vid=a208d7ac-b654-4559-95e4-d9d12b2abfe5"},"vehicle_type_id":"4","last_reported":1719356869,"current_range_meters":28800,"station_id":"cki0cbj6b192h4jlfktg","pricing_plan_id":"cebpf4jnsgd1na2vs0mg"},{"bike_id":"0dad9c92-92aa-4eba-8848-9b6bb015fe63","system_id":"levelo_inurba_marseille","lat":43.28727,"lon":5.36078,"is_reserved":false,"is_disabled":false,"rental_uris":{"android":"levelo://app?vid=0dad9c92-92aa-4eba-8848-9b6bb015fe63","ios":"levelo://app?vid=0dad9c92-92aa-4eba-8848-9b6bb015fe63"},"vehicle_type_id":"4","last_reported":1719356869,"current_range_meters":22400,"station_id":"cki0cbj6b192h4jlfktg","pricing_plan_id":"cebpf4jnsgd1na2vs0mg"},{"bike_id":"4f6f109a-84de-4f64-90ce-ccfa1a20b277","system_id":"levelo_inurba_marseille","lat":43.28727,"lon":5.36078,"is_reserved":false,"is_disabled":false,"rental_uris":{"android":"levelo://app?vid=4f6f109a-84de-4f64-90ce-ccfa1a20b277","ios":"levelo://app?vid=4f6f109a-84de-4f64-90ce-ccfa1a20b277"},"vehicle_type_id":"4","last_reported":1719356869,"current_range_meters":26800,"station_id":"cki0cbj6b192h4jlfktg","pricing_plan_id":"cebpf4jnsgd1na2vs0mg"},{"bike_id":"f57496f2-982f-4828-91cc-f9c2d9f2d9dc","system_id":"levelo_inurba_marseille","lat":43.28727,"lon":5.36078,"is_reserved":false,"is_disabled":false,"rental_uris":{"android":"levelo://app?vid=f57496f2-982f-4828-91cc-f9c2d9f2d9dc","ios":"levelo://app?vid=f57496f2-982f-4828-91cc-f9c2d9f2d9dc"},"vehicle_type_id":"4","last_reported":1719356869,"current_range_meters":22400,"station_id":"cki0cbj6b192h4jlfktg","pricing_plan_id":"cebpf4jnsgd1na2vs0mg"},{"bike_id":"c9cb9a10-b918-4002-84f4-edf39162907c","system_id":"levelo_inurba_marseille","lat":43.28727,"lon":5.36078,"is_reserved":false,"is_disabled":false,"rental_uris":{"android":"levelo://app?vid=c9cb9a10-b918-4002-84f4-edf39162907c","ios":"levelo://app?vid=c9cb9a10-b918-4002-84f4-edf39162907c"},"vehicle_type_id":"4","last_reported":1719356869,"current_range_meters":28000,"station_id":"cki0cbj6b192h4jlfktg","pricing_plan_id":"cebpf4jnsgd1na2vs0mg"},{"bike_id":"4effb7bc-c907-48e9-8103-60027c7b72d5","system_id":"levelo_inurba_marseille","lat":43.298681,"lon":5.397225,"is_reserved":false,"is_disabled":false,"rental_uris":{"android":"levelo://app?vid=4effb7bc-c907-48e9-8103-60027c7b72d5","ios":"levelo://app?vid=4effb7bc-c907-48e9-8103-60027c7b72d5"},"vehicle_type_id":"4","last_reported":1719356869,"current_range_meters":18400,"station_id":"ce4bh0h2rcd13ifvqd50","pricing_plan_id":"cebpf4jnsgd1na2vs0mg"},{"bike_id":"58acf312-e663-4eb4-9709-7425a2521981","system_id":"levelo_inurba_marseille","lat":43.298681,"lon":5.397225,"is_reserved":false,"is_disabled":false,"rental_uris":{"android":"levelo://app?vid=58acf312-e663-4eb4-9709-7425a2521981","ios":"levelo://app?vid=58acf312-e663-4eb4-9709-7425a2521981"},"vehicle_type_id":"4","last_reported":1719356869,"current_range_meters":12400,"station_id":"ce4bh0h2rcd13ifvqd50","pricing_plan_id":"cebpf4jnsgd1na2vs0mg"},{"bike_id":"ac4bcbb8-6129-4540-835f-1406d96c9858","system_id":"levelo_inurba_marseille","lat":43.286961,"lon":5.373785,"is_reserved":false,"is_disabled":false,"rental_uris":{"android":"levelo://app?vid=ac4bcbb8-6129-4540-835f-1406d96c9858","ios":"levelo://app?vid=ac4bcbb8-6129-4540-835f-1406d96c9858"},"vehicle_type_id":"4","last_reported":1719356869,"current_range_meters":31600,"station_id":"ce4bh3p2rcd13ifvqdq0","pricing_plan_id":"cebpf4jnsgd1na2vs0mg"},{"bike_id":"2c638ab5-9853-46de-8fb6-78132a23a47d","system_id":"levelo_inurba_marseille","lat":43.286961,"lon":5.373785,"is_reserved":false,"is_disabled":false,"rental_uris":{"android":"levelo://app?vid=2c638ab5-9853-46de-8fb6-78132a23a47d","ios":"levelo://app?vid=2c638ab5-9853-46de-8fb6-78132a23a47d"},"vehicle_type_id":"4","last_reported":1719356869,"current_range_meters":24800,"station_id":"ce4bh3p2rcd13ifvqdq0","pricing_plan_id":"cebpf4jnsgd1na2vs0mg"},{"bike_id":"d220aba9-e620-4298-a57b-6179faedf951","system_id":"levelo_inurba_marseille","lat":43.298681,"lon":5.397225,"is_reserved":false,"is_disabled":false,"rental_uris":{"android":"levelo://app?vid=d220aba9-e620-4298-a57b-6179faedf951","ios":"levelo://app?vid=d220aba9-e620-4298-a57b-6179faedf951"},"vehicle_type_id":"4","last_reported":1719356869,"current_range_meters":27200,"station_id":"ce4bh0h2rcd13ifvqd50","pricing_plan_id":"cebpf4jnsgd1na2vs0mg"},{"bike_id":"6d7cb14e-d5bf-48e2-822f-140225e1bac9","system_id":"levelo_inurba_marseille","lat":43.286591,"lon":5.363346,"is_reserved":false,"is_disabled":false,"rental_uris":{"android":"levelo://app?vid=6d7cb14e-d5bf-48e2-822f-140225e1bac9","ios":"levelo://app?vid=6d7cb14e-d5bf-48e2-822f-140225e1bac9"},"vehicle_type_id":"4","last_reported":1719356869,"current_range_meters":19200,"station_id":"ce4bhah2rcd13ifvqej0","pricing_plan_id":"cebpf4jnsgd1na2vs0mg"},{"bike_id":"8e25352b-6d6e-4498-9b30-4174b817c7a9","system_id":"levelo_inurba_marseille","lat":43.298681,"lon":5.397225,"is_reserved":false,"is_disabled":false,"rental_uris":{"android":"levelo://app?vid=8e25352b-6d6e-4498-9b30-4174b817c7a9","ios":"levelo://app?vid=8e25352b-6d6e-4498-9b30-4174b817c7a9"},"vehicle_type_id":"4","last_reported":1719356869,"current_range_meters":21200,"station_id":"ce4bh0h2rcd13ifvqd50","pricing_plan_id":"cebpf4jnsgd1na2vs0mg"},