{"last_updated":1740924487,"ttl":60,"version":"2.2","data":{"bikes":[{"bike_id":"498c2ace-4821-4676-a9ac-9368b02a49b6","system_id":"levelo_inurba_marseille","lat":43.33799,"lon":5.37386,"is_reserved":false,"is_disabled":false,"rental_uris":{"android":"levelo://app?vid=498c2ace-4821-4676-a9ac-9368b02a49b6","ios":"levelo://app?vid=498c2ace-4821-4676-a9ac-9368b02a49b6"},"vehicle_type_id":"4","last_reported":1740924487,"current_range_meters":25200,"station_id":"","pricing_plan_id":"cebpf4jnsgd1na2vs0mg"},{"bike_id":"819fc6fd-4768-4c11-82f9-0b5fd0b62d4a","system_id":"levelo_inurba_marseille","lat":43.34235,"lon":5.37784,"is_reserved":false,"is_disabled":true,"rental_uris":{"android":"levelo://app?vid=819fc6fd-4768-4c11-82f9-0b5fd0b62d4a","ios":"levelo://app?vid=819fc6fd-4768-4c11-82f9-0b5fd0b62d4a"},"vehicle_type_id":"4","last_reported":1740924487,"current_range_meters":0,"station_id":"","pricing_plan_id":"cebpf4jnsgd1na2vs0mg"},{"bike_id":"303c2b96-5131-48b9-8dd0-e5a82865f4bc","system_id":"levelo_inurba_marseille","lat":43.35308,"lon":5.36554,"is_reserved":false,"is_disabled":true,"rental_uris":{"android":"levelo://app?vid=303c2b96-5131-48b9-8dd0-e5a82865f4bc","ios":"levelo://app?vid=303c2b96-5131-48b9-8dd0-e5a82865f4bc"},"vehicle_type_id":"4","last_reported":1740924487,"current_range_meters":0,"station_id":"","pricing_plan_id":"cebpf4jnsgd1na2vs0mg"},{"bike_id":"d5458f89-73a3-43f1-9894-000389f52995","system_id":"levelo_inurba_marseille","lat":43.27611,"lon":5.41497,"is_reserved":false,"is_disabled":true,"rental_uris":{"android":"levelo://app?vid=d5458f89-73a3-43f1-9894-000389f52995","ios":"levelo://app?vid=d5458f89-73a3-43f1-9894-000389f52995"},"vehicle_type_id":"4","last_reported":1740924487,"current_range_meters":0,"station_id":"","pricing_plan_id":"cebpf4jnsgd1na2vs0mg"},{"bike_id":"afcec8eb-28d8-4889-8879-0897cb5957e3","system_id":"levelo_inurba_marseille","lat":43.27984,"lon":5.40556,"is_reserved":false,"is_disabled":true,"rental_uris":{"android":"levelo://app?vid=afcec8eb-28d8-4889-8879-0897cb5957e3","ios":"levelo://app?vid=afcec8eb-28d8-4889-8879-0897cb5957e3"},"vehicle_type_id":"4","last_reported":1740924487,"current_range_meters":0,"station_id":"","pricing_plan_id":"cebpf4jnsgd1na2vs0mg"},{"bike_id":"48d4533d-1188-4575-a78d-c9e6aa7deda7","system_id":"levelo_inurba_marseille","lat":43.29221,"lon":5.36149,"is_reserved":false,"is_disabled":true,"rental_uris":{"android":"levelo://app?vid=48d4533d-1188-4575-a78d-c9e6aa7deda7","ios":"levelo://app?vid=48d4533d-1188-4575-a78d-c9e6aa7deda7"},"vehicle_type_id":"4","last_reported":1740924487,"current_range_meters":0,"station_id":"ce4bgi12rcd13ifvqb70","pricing_plan_id":"cebpf4jnsgd1na2vs0mg"},{"bike_id":"598c21b8-ce24-437f-a3be-4626816311fb","system_id":"levelo_inurba_marseille","lat":43.29688,"lon":5.37309,"is_reserved":false,"is_disabled":true,"rental_uris":{"android":"levelo://app?vid=598c21b8-ce24-437f-a3be-4626816311fb","ios":"levelo://app?vid=598c21b8-ce24-437f-a3be-4626816311fb"},"vehicle_type_id":"4","last_reported":1740924487,"current_range_meters":0,"station_id":"ce4bgk12rcd13ifvqbj0","pricing_plan_id":"cebpf4jnsgd1na2vs0mg"},{"bike_id":"bbe0f11f-88eb-4b83-a9ed-1a11d6216f46","system_id":"levelo_inurba_marseille","lat":43.30122,"lon":5.37443,"is_reserved":false,"is_disabled":true,"rental_uris":{"android":"levelo://app?vid=bbe0f11f-88eb-4b83-a9ed-1a11d6216f46","ios":"levelo://app?vid=bbe0f11f-88eb-4b83-a9ed-1a11d6216f46"},"vehicle_type_id":"4","last_reported":1740924487,"current_range_meters":0,"station_id":"ce4bgs92rcd13ifvqcc0","pricing_plan_id":"cebpf4jnsgd1na2vs0mg"},{"bike_id":"912c142b-b169-41ac-bc07-7bbcbd8ed1d4","system_id":"levelo_inurba_marseille","lat":43.27381,"lon":5.3626,"is_reserved":false,"is_disabled":true,"rental_uris":{"android":"levelo://app?vid=912c142b-b169-41ac-bc07-7bbcbd8ed1d4","ios":"levelo://app?vid=912c142b-b169-41ac-bc07-7bbcbd8ed1d4"},"vehicle_type_id":"4","last_reported":1740924487,"current_range_meters":0,"station_id":"ce4bhbh2rcd13ifvqeo0","pricing_plan_id":"cebpf4jnsgd1na2vs0mg"},{"bike_id":"87940bb6-2c0a-4899-9ade-bfce576b8fb5","system_id":"levelo_inurba_marseille","lat":43.29275,"lon":5.36842,"is_reserved":false,"is_disabled":true,"rental_uris":{"android":"levelo://app?vid=87940bb6-2c0a-4899-9ade-bfce576b8fb5","ios":"levelo://app?vid=87940bb6-2c0a-4899-9ade-bfce576b8fb5"},"vehicle_type_id":"4","last_reported":1740924487,"current_range_meters":0,"station_id":"ce4bhbp2rcd13ifvqesg","pricing_plan_id":"cebpf4jnsgd1na2vs0mg"},{"bike_id":"94d875bd-ca87-4483-8819-12dfb9641e52","system_id":"levelo_inurba_marseille","lat":43.231376,"lon":5.355194,"is_reserved":false,"is_disabled":true,"rental_uris":{"android":"levelo://app?vid=94d875bd-ca87-4483-8819-12dfb9641e52","ios":"levelo://app?vid=94d875bd-ca87-4483-8819-12dfb9641e52"},"vehicle_type_id":"4","last_reported":1740924487,"current_range_meters":0,"station_id":"ce4bhf92rcd13ifvqf40","pricing_plan_id":"cebpf4jnsgd1na2vs0mg"},{"bike_id":"00fc0730-fa7e-4df1-8631-599c4f02be4c","system_id":"levelo_inurba_marseille","lat":43.26196,"lon":5.37454,"is_reserved":false,"is_disabled":true,"rental_uris":{"android":"levelo://app?vid=00fc0730-fa7e-4df1-8631-599c4f02be4c","ios":"levelo://app?vid=00fc0730-fa7e-4df1-8631-599c4f02be4c"},"vehicle_type_id":"4","last_reported":1740924487,"current_range_meters":0,"station_id":"ce4bhgp2rcd13ifvqfc0","pricing_plan_id":"cebpf4jnsgd1na2vs0mg"},{"bike_id":"2a083bf2-3c8c-4878-8621-2511b9d8f792","system_id":"levelo_inurba_marseille","lat":43.2549,"lon":5.37663,"is_reserved":false,"is_disabled":true,"rental_uris":{"android":"levelo://app?vid=2a083bf2-3c8c-4878-8621-2511b9d8f792","ios":"levelo://app?vid=2a083bf2-3c8c-4878-8621-2511b9d8f792"},"vehicle_type_id":"4","last_reported":1740924487,"current_range_meters":0,"station_id":"ce4bhh12rcd13ifvqff0","pricing_plan_id":"cebpf4jnsgd1na2vs0mg"},{"bike_id":"b34bcdca-4c04-4601-97af-4a6c1438a492","system_id":"levelo_inurba_marseille","lat":43.2546,"lon":5.37642,"is_reserved":false,"is_disabled":true,"rental_uris":{"android":"levelo://app?vid=b34bcdca-4c04-4601-97af-4a6c1438a492","ios":"levelo://app?vid=b34bcdca-4c04-4601-97af-4a6c1438a492"},"vehicle_type_id":"4","last_reported":1740924487,"current_range_meters":0,"station_id":"ce4bhh12rcd13ifvqff0","pricing_plan_id":"cebpf4jnsgd1na2vs0mg"},{"bike_id":"70d8c7b3-610a-419e-b50d-afe9250d43ba","system_id":"levelo_inurba_marseille","lat":43.29565,"lon":5.42275,"is_reserved":false,"is_disabled":true,"rental_uris":{"android":"levelo://app?vid=70d8c7b3-610a-419e-b50d-afe9250d43ba","ios":"levelo://app?vid=70d8c7b3-610a-419e-b50d-afe9250d43ba"},"vehicle_type_id":"4","last_reported":1740924487,"current_range_meters":0,"station_id":"ce4bhph2rcd13ifvqhdg","pricing_plan_id":"cebpf4jnsgd1na2vs0mg"},{"bike_id":"66730b8e-bde1-44a5-b20c-05e21db44f6f","system_id":"levelo_inurba_marseille","lat":43.22931,"lon":5.35374,"is_reserved":false,"is_disabled":true,"rental_uris":{"android":"levelo://app?vid=66730b8e-bde1-44a5-b20c-05e21db44f6f","ios":"levelo://app?vid=66730b8e-bde1-44a5-b20c-05e21db44f6f"},"vehicle_type_id":"4","last_reported":1740924487,"current_range_meters":0,"station_id":"cpo3532slgdg3j2ikp40","pricing_plan_id":"cebpf4jnsgd1na2vs0mg"},{"bike_id":"974b5ef5-d53b-441e-ad24-9688b3173855","system_id":"levelo_inurba_marseille","lat":43.22936,"lon":5.35372,"is_reserved":false,"is_disabled":true,"rental_uris":{"android":"levelo://app?vid=974b5ef5-d53b-441e-ad24-9688b3173855","ios":"levelo://app?vid=974b5ef5-d53b-441e-ad24-9688b3173855"},"vehicle_type_id":"4","last_reported":1740924487,"current_range_meters":0,"station_id":"cpo3532slgdg3j2ikp40","pricing_plan_id":"cebpf4jnsgd1na2vs0mg"},{"bike_id":"b3321c15-2dbe-4551-9954-d09253a4f390","system_id":"levelo_inurba_marseille","lat":43.27375,"lon":5.36264,"is_reserved":false,"is_disabled":true,"rental_uris":{"android":"levelo://app?vid=b3321c15-2dbe-4551-9954-d09253a4f390","ios":"levelo://app?vid=b3321c15-2dbe-4551-9954-d09253a4f390"},"vehicle_type_id":"4","last_reported":1740924487,"current_range_meters":400,"station_id":"ce4bhbh2rcd13ifvqeo0","pricing_plan_id":"cebpf4jnsgd1na2vs0mg"},{"bike_id":"dce73bf1-1275-481f-ad1a-a10c92391445","system_id":"levelo_inurba_marseille","lat":43.26795,"lon":5.39413,"is_reserved":false,"is_disabled":true,"rental_uris":{"android":"levelo://app?vid=dce73bf1-1275-481f-ad1a-a10c92391445","ios":"levelo://app?vid=dce73bf1-1275-481f-ad1a-a10c92391445"},"vehicle_type_id":"4","last_reported":1740924487,"current_range_meters":400,"station_id":"ce4bhh12rcd13ifvqfg0","pricing_plan_id":"cebpf4jnsgd1na2vs0mg"},{"bike_id":"63455056-d7e2-4933-81df-f6f037fd9e5b","system_id":"levelo_inurba_marseille","lat":43.24662,"lon":5.38164,"is_reserved":false,"is_disabled":true,"rental_uris":{"android":"levelo://app?vid=63455056-d7e2-4933-81df-f6f037fd9e5b","ios":"levelo://app?vid=63455056-d7e2-4933-81df-f6f037fd9e5b"},"vehicle_type_id":"4","last_reported":1740924487,"current_range_meters":400,"station_id":"ce4bhih2rcd13ifvqfr0","pricing_plan_id":"cebpf4jnsgd1na2vs0mg"},{"bike_id":"a143e44e-792f-45ec-84cf-1cc9f71bb81b","system_id":"levelo_inurba_marseille","lat":43.28073,"lon":5.39645,"is_reserved":false,"is_disabled":true,"rental_uris":{"android":"levelo://app?vid=a143e44e-792f-45ec-84cf-1cc9f71bb81b","ios":"levelo://app?vid=a143e44e-792f-45ec-84cf-1cc9f71bb81b"},"vehicle_type_id":"4","last_reported":1740924487,"current_range_meters":400,"station_id":"ce4bho12rcd13ifvqh2g","pricing_plan_id":"cebpf4jnsgd1na2vs0mg"},{"bike_id":"00df4f11-b05e-4107-85fe-c3bab9b776d0","system_id":"levelo_inurba_marseille","lat":43.29894,"lon":5.43658,"is_reserved":false,"is_disabled":true,"rental_uris":{"android":"levelo://app?vid=00df4f11-b05e-4107-85fe-c3bab9b776d0","ios":"levelo://app?vid=00df4f11-b05e-4107-85fe-c3bab9b776d0"},"vehicle_type_id":"4","last_reported":1740924487,"current_range_meters":400,"station_id":"ce4bhpp2rcd13ifvqhfg","pricing_plan_id":"cebpf4jnsgd1na2vs0mg"},{"bike_id":"0ded7716-5061-4f56-8f86-9a5ed8fe3c69","system_id":"levelo_inurba_marseille","lat":43.24168,"lon":5.36394,"is_reserved":false,"is_disabled":true,"rental_uris":{"android":"levelo://app?vid=0ded7716-5061-4f56-8f86-9a5ed8fe3c69","ios":"levelo://app?vid=0ded7716-5061-4f56-8f86-9a5ed8fe3c69"},"vehicle_type_id":"4","last_reported":1740924487,"current_range_meters":400,"station_id":"cpo36qri1sfpv3e86is0","pricing_plan_id":"cebpf4jnsgd1na2vs0mg"},{"bike_id":"a3d85792-4517-440d-9b39-6590618dd6be","system_id":"levelo_inurba_marseille","lat":43.26226,"lon":5.37437,"is_reserved":false,"is_disabled":true,"rental_uris":{"android":"levelo://app?vid=a3d85792-4517-440d-9b39-6590618dd6be","ios":"levelo://app?vid=a3d85792-4517-440d-9b39-6590618dd6be"},"vehicle_type_id":"4","last_reported":1740924487,"current_range_meters":800,"station_id":"","pricing_plan_id":"cebpf4jnsgd1na2vs0mg"},{"bike_id":"22724367-c464-4927-9751-8c0b76a246e1","system_id":"levelo_inurba_marseille","lat":43.28928,"lon":5.36403,"is_reserved":false,"is_disabled":true,"rental_uris":{"android":"levelo://app?vid=22724367-c464-4927-9751-8c0b76a246e1","ios":"levelo://app?vid=22724367-c464-4927-9751-8c0b76a246e1"},"vehicle_type_id":"4","last_reported":1740924487,"current_range_meters":800,"station_id":"ce4bhc92rcd13ifvqetg","pricing_plan_id":"cebpf4jnsgd1na2vs0mg"},{"bike_id":"249e666f-4c98-4a84-9cda-76b8d10d7156","system_id":"levelo_inurba_marseille","lat":43.28621,"lon":5.350975,"is_reserved":false,"is_disabled":true,"rental_uris":{"android":"levelo://app?vid=249e666f-4c98-4a84-9cda-76b8d10d7156","ios":"levelo://app?vid=249e666f-4c98-4a84-9cda-76b8d10d7156"},"vehicle_type_id":"4","last_reported":1740924487,"current_range_meters":800,"station_id":"ce4bhch2rcd13ifvqeug","pricing_plan_id":"cebpf4jnsgd1na2vs0mg"},{"bike_id":"8d60cb63-0743-4a6f-bf1c-a7dcf34e1350","system_id":"levelo_inurba_marseille","lat":43.27579,"lon":5.38412,"is_reserved":false,"is_disabled":true,"rental_uris":{"android":"levelo://app?vid=8d60cb63-0743-4a6f-bf1c-a7dcf34e1350","ios":"levelo://app?vid=8d60cb63-0743-4a6f-bf1c-a7dcf34e1350"},"vehicle_type_id":"4","last_reported":1740924487,"current_range_meters":1200,"station_id":"ce4bhh92rcd13ifvqfi0","pricing_plan_id":"cebpf4jnsgd1na2vs0mg"},{"bike_id":"a65cb524-c756-42a0-9639-a6505770c05b","system_id":"levelo_inurba_marseille","lat":43.35057,"lon":5.36614,"is_reserved":false,"is_disabled":true,"rental_uris":{"android":"levelo://app?vid=a65cb524-c756-42a0-9639-a6505770c05b","ios":"levelo://app?vid=a65cb524-c756-42a0-9639-a6505770c05b"},"vehicle_type_id":"4","last_reported":1740924487,"current_range_meters":2000,"station_id":"","pricing_plan_id":"cebpf4jnsgd1na2vs0mg"},{"bike_id":"59d30dd5-8483-4248-80d4-28e9c3e2bb19","system_id":"levelo_inurba_marseille","lat":43.26203,"lon":5.37443,"is_reserved":false,"is_disabled":true,"rental_uris":{"android":"levelo://app?vid=59d30dd5-8483-4248-80d4-28e9c3e2bb19","ios":"levelo://app?vid=59d30dd5-8483-4248-80d4-28e9c3e2bb19"},"vehicle_type_id":"4","last_reported":1740924487,"current_range_meters":2000,"station_id":"ce4bhgp2rcd13ifvqfc0","pricing_plan_id":"cebpf4jnsgd1na2vs0mg"},{"bike_id":"e0ad619c-d593-44aa-8a5e-5fc0cfa651a3","system_id":"levelo_inurba_marseille","lat":43.26943,"lon":5.40253,"is_reserved":false,"is_disabled":true,"rental_uris":{"android":"levelo://app?vid=e0ad619c-d593-44aa-8a5e-5fc0cfa651a3","ios":"levelo://app?vid=e0ad619c-d593-44aa-8a5e-5fc0cfa651a3"},"vehicle_type_id":"4","last_reported":1740924487,"current_range_meters":2000,"station_id":"cjm6bp8fraef2m0cb0m0","pricing_plan_id":"cebpf4jnsgd1na2vs0mg"},{"bike_id":"0d82eea9-7940-4d45-91f7-8e83c92e19cb","system_id":"levelo_inurba_marseille","lat":43.24389,"lon":5.37062,"is_reserved":false,"is_disabled":false,"rental_uris":{"android":"levelo://app?vid=0d82eea9-7940-4d45-91f7-8e83c92e19cb","ios":"levelo://app?vid=0d82eea9-7940-4d45-91f7-8e83c92e19cb"},"vehicle_type_id":"4","last_reported":1740924487,"current_range_meters":2800,"station_id":"","pricing_plan_id":"cebpf4jnsgd1na2vs0mg"},{"bike_id":"5cc3e7f4-3d39-4b69-ba74-c6f26f45395c","system_id":"levelo_inurba_marseille","lat":43.28634,"lon":5.35082,"is_reserved":false,"is_disabled":false,"rental_uris":{"android":"levelo://app?vid=5cc3e7f4-3d39-4b69-ba74-c6f26f45395c","ios":"levelo://app?vid=5cc3e7f4-3d39-4b69-ba74-c6f26f45395c"},"vehicle_type_id":"4","last_reported":1740924487,"current_range_meters":2800,"station_id":"ce4bhch2rcd13ifvqeug","pricing_plan_id":"cebpf4jnsgd1na2vs0mg"},{"bike_id":"83aa8c1f-d792-406a-bda3-67f3905129fd","system_id":"levelo_inurba_marseille","lat":43.29591,"lon":5.37519,"is_reserved":false,"is_disabled":false,"rental_uris":{"android":"levelo://app?vid=83aa8c1f-d792-406a-bda3-67f3905129fd","ios":"levelo://app?vid=83aa8c1f-d792-406a-bda3-67f3905129fd"},"vehicle_type_id":"4","last_reported":1740924487,"current_range_meters":3200,"station_id":"ce4bgh92rcd13ifvqb50","pricing_plan_id":"cebpf4jnsgd1na2vs0mg"},{"bike_id":"816d689e-aaad-4892-9cfc-09798e4a7daf","system_id":"levelo_inurba_marseille","lat":43.231819,"lon":5.355447,"is_reserved":false,"is_disabled":false,"rental_uris":{"android":"levelo://app?vid=816d689e-aaad-4892-9cfc-09798e4a7daf","ios":"levelo://app?vid=816d689e-aaad-4892-9cfc-09798e4a7daf"},"vehicle_type_id":"4","last_reported":1740924487,"current_range_meters":3200,"station_id":"ce4bhf92rcd13ifvqf40","pricing_plan_id":"cebpf4jnsgd1na2vs0mg"},{"bike_id":"c014f23a-e36c-4f10-9263-335e47d76af2","system_id":"levelo_inurba_marseille","lat":43.27372,"lon":5.36258,"is_reserved":false,"is_disabled":false,"rental_uris":{"android":"levelo://app?vid=c014f23a-e36c-4f10-9263-335e47d76af2","ios":"levelo://app?vid=c014f23a-e36c-4f10-9263-335e47d76af2"},"vehicle_type_id":"4","last_reported":1740924487,"current_range_meters":3600,"station_id":"ce4bhbh2rcd13ifvqeo0","pricing_plan_id":"cebpf4jnsgd1na2vs0mg"},{"bike_id":"e2f9ce1d-2069-4450-aff1-8062863d6c6c","system_id":"levelo_inurba_marseille","lat":43.26198,"lon":5.37931,"is_reserved":false,"is_disabled":false,"rental_uris":{"android":"levelo://app?vid=e2f9ce1d-2069-4450-aff1-8062863d6c6c","ios":"levelo://app?vid=e2f9ce1d-2069-4450-aff1-8062863d6c6c"},"vehicle_type_id":"4","last_reported":1740924487,"current_range_meters":3600,"station_id":"ce4bhjp2rcd13ifvqg90","pricing_plan_id":"cebpf4jnsgd1na2vs0mg"},{"bike_id":"d892d04b-8a5e-4437-a990-cf108c5750f1","system_id":"levelo_inurba_marseille","lat":43.298924,"lon":5.436549,"is_reserved":false,"is_disabled":false,"rental_uris":{"android":"levelo://app?vid=d892d04b-8a5e-4437-a990-cf108c5750f1","ios":"levelo://app?vid=d892d04b-8a5e-4437-a990-cf108c5750f1"},"vehicle_type_id":"4","last_reported":1740924487,"current_range_meters":3600,"station_id":"ce4bhpp2rcd13ifvqhfg","pricing_plan_id":"cebpf4jnsgd1na2vs0mg"},{"bike_id":"6c253be7-8ff3-4d3f-9cc8-4f74232499ff","system_id":"levelo_inurba_marseille","lat":43.29914,"lon":5.43647,"is_reserved":false,"is_disabled":false,"rental_uris":{"android":"levelo://app?vid=6c253be7-8ff3-4d3f-9cc8-4f74232499ff","ios":"levelo://app?vid=6c253be7-8ff3-4d3f-9cc8-4f74232499ff"},"vehicle_type_id":"4","last_reported":1740924487,"current_range_meters":3600,"station_id":"ce4bhpp2rcd13ifvqhfg","pricing_plan_id":"cebpf4jnsgd1na2vs0mg"},{"bike_id":"e6d70a82-7bd4-46af-a819-79d673275705","system_id":"levelo_inurba_marseille","lat":43.2307,"lon":5.35482,"is_reserved":false,"is_disabled":false,"rental_uris":{"android":"levelo://app?vid=e6d70a82-7bd4-46af-a819-79d673275705","ios":"levelo://app?vid=e6d70a82-7bd4-46af-a819-79d673275705"},"vehicle_type_id":"4","last_reported":1740924487,"current_range_meters":3600,"station_id":"cpo3342slgdg3j2ifvpg","pricing_plan_id":"cebpf4jnsgd1na2vs0mg"},{"bike_id":"65dc4f52-8ddc-4f40-aed5-ebfe6c210851","system_id":"levelo_inurba_marseille","lat":43.26793,"lon":5.39411,"is_reserved":false,"is_disabled":false,"rental_uris":{"android":"levelo://app?vid=65dc4f52-8ddc-4f40-aed5-ebfe6c210851","ios":"levelo://app?vid=65dc4f52-8ddc-4f40-aed5-ebfe6c210851"},"vehicle_type_id":"4","last_reported":1740924487,"current_range_meters":4000,"station_id":"ce4bhh12rcd13ifvqfg0","pricing_plan_id":"cebpf4jnsgd1na2vs0mg"},{"bike_id":"50ff7f12-0288-4242-b871-96ae8b9d32a6","system_id":"levelo_inurba_marseille","lat":43.28726,"lon":5.36091,"is_reserved":false,"is_disabled":false,"rental_uris":{"android":"levelo://app?vid=50ff7f12-0288-4242-b871-96ae8b9d32a6","ios":"levelo://app?vid=50ff7f12-0288-4242-b871-96ae8b9d32a6"},"vehicle_type_id":"4","last_reported":1740924487,"current_range_meters":4000,"station_id":"cki0cbj6b192h4jlfktg","pricing_plan_id":"cebpf4jnsgd1na2vs0mg"},{"bike_id":"439e6abd-83c2-4a26-b109-3f4147de09a6","system_id":"levelo_inurba_marseille","lat":43.22928,"lon":5.35377,"is_reserved":false,"is_disabled":false,"rental_uris":{"android":"levelo://app?vid=439e6abd-83c2-4a26-b109-3f4147de09a6","ios":"levelo://app?vid=439e6abd-83c2-4a26-b109-3f4147de09a6"},"vehicle_type_id":"4","last_reported":1740924487,"current_range_meters":4000,"station_id":"cpo3532slgdg3j2ikp40","pricing_plan_id":"cebpf4jnsgd1na2vs0mg"},{"bike_id":"f40d16b7-30b5-4bc5-ba7b-2c48520a4680","system_id":"levelo_inurba_marseille","lat":43.2799,"lon":5.41673,"is_reserved":false,"is_disabled":false,"rental_uris":{"android":"levelo://app?vid=f40d16b7-30b5-4bc5-ba7b-2c48520a4680","ios":"levelo://app?vid=f40d16b7-30b5-4bc5-ba7b-2c48520a4680"},"vehicle_type_id":"4","last_reported":1740924487,"current_range_meters":4400,"station_id":"ce4bho12rcd13ifvqh1g","pricing_plan_id":"cebpf4jnsgd1na2vs0mg"},{"bike_id":"b1a9b66a-afab-415a-bb50-dad75252634f","system_id":"levelo_inurba_marseille","lat":43.31687,"lon":5.40465,"is_reserved":false,"is_disabled":false,"rental_uris":{"android":"levelo://app?vid=b1a9b66a-afab-415a-bb50-dad75252634f","ios":"levelo://app?vid=b1a9b66a-afab-415a-bb50-dad75252634f"},"vehicle_type_id":"4","last_reported":1740924487,"current_range_meters":4800,"station_id":"ce4bh012rcd13ifvqd00","pricing_plan_id":"cebpf4jnsgd1na2vs0mg"},{"bike_id":"1b994540-981e-425e-9360-7d03df5515a1","system_id":"levelo_inurba_marseille","lat":43.247955,"lon":5.374552,"is_reserved":false,"is_disabled":false,"rental_uris":{"android":"levelo://app?vid=1b994540-981e-425e-9360-7d03df5515a1","ios":"levelo://app?vid=1b994540-981e-425e-9360-7d03df5515a1"},"vehicle_type_id":"4","last_reported":1740924487,"current_range_meters":4800,"station_id":"ce4bhhh2rcd13ifvqfl0","pricing_plan_id":"cebpf4jnsgd1na2vs0mg"},{"bike_id":"0876d7e8-3284-4bd9-a1ea-49eadafff38d","system_id":"levelo_inurba_marseille","lat":43.25075,"lon":5.39538,"is_reserved":false,"is_disabled":false,"rental_uris":{"android":"levelo://app?vid=0876d7e8-3284-4bd9-a1ea-49eadafff38d","ios":"levelo://app?vid=0876d7e8-3284-4bd9-a1ea-49eadafff38d"},"vehicle_type_id":"4","last_reported":1740924487,"current_range_meters":4800,"station_id":"ce4bhm12rcd13ifvqgkg","pricing_plan_id":"cebpf4jnsgd1na2vs0mg"},{"bike_id":"935762c9-d9ae-4dd7-a397-c4ebd5ff2ac0","system_id":"levelo_inurba_marseille","lat":43.24098,"lon":5.37743,"is_reserved":false,"is_disabled":false,"rental_uris":{"android":"levelo://app?vid=935762c9-d9ae-4dd7-a397-c4ebd5ff2ac0","ios":"levelo://app?vid=935762c9-d9ae-4dd7-a397-c4ebd5ff2ac0"},"vehicle_type_id":"4","last_reported":1740924487,"current_range_meters":4800,"station_id":"ce4bhnp2rcd13ifvqgvg","pricing_plan_id":"cebpf4jnsgd1na2vs0mg"},{"bike_id":"b9fc268b-61c7-411a-9e55-1a82a527968b","system_id":"levelo_inurba_marseille","lat":43.24077,"lon":5.37764,"is_reserved":false,"is_disabled":false,"rental_uris":{"android":"levelo://app?vid=b9fc268b-61c7-411a-9e55-1a82a527968b","ios":"levelo://app?vid=b9fc268b-61c7-411a-9e55-1a82a527968b"},"vehicle_type_id":"4","last_reported":1740924487,"current_range_meters":4800,"station_id":"ce4bhnp2rcd13ifvqgvg","pricing_plan_id":"cebpf4jnsgd1na2vs0mg"},{"bike_id":"c6179e44-036d-40d3-aebe-5599cec4f785","system_id":"levelo_inurba_marseille","lat":43.22924,"lon":5.35382,"is_reserved":false,"is_disabled":false,"rental_uris":{"android":"levelo://app?vid=c6179e44-036d-40d3-aebe-5599cec4f785","ios":"levelo://app?vid=c6179e44-036d-40d3-aebe-5599cec4f785"},"vehicle_type_id":"4","last_reported":1740924487,"current_range_meters":4800,"station_id":"cpo3532slgdg3j2ikp40","pricing_plan_id":"cebpf4jnsgd1na2vs0mg"},{"bike_id":"af84e7e4-19b0-4e60-9365-05ec9182fd5e","system_id":"levelo_inurba_marseille","lat":43.27377,"lon":5.36255,"is_reserved":false,"is_disabled":false,"rental_uris":{"android":"levelo://app?vid=af84e7e4-19b0-4e60-9365-05ec9182fd5e","ios":"levelo://app?vid=af84e7e4-19b0-4e60-9365-05ec9182fd5e"},"vehicle_type_id":"4","last_reported":1740924487,"current_range_meters":5600,"station_id":"ce4bhbh2rcd13ifvqeo0","pricing_plan_id":"cebpf4jnsgd1na2vs0mg"},{"bike_id":"a12a94ab-351c-4a27-93d9-78ce511256fe","system_id":"levelo_inurba_marseille","lat":43.25004,"lon":5.38913,"is_reserved":false,"is_disabled":false,"rental_uris":{"android":"levelo://app?vid=a12a94ab-351c-4a27-93d9-78ce511256fe","ios":"levelo://app?vid=a12a94ab-351c-4a27-93d9-78ce511256fe"},"vehicle_type_id":"4","last_reported":1740924487,"current_range_meters":5600,"station_id":"ce4bhgp2rcd13ifvqfd0","pricing_plan_id":"cebpf4jnsgd1na2vs0mg"},{"bike_id":"55235645-fb70-4687-8ed6-a6c738087798","system_id":"levelo_inurba_marseille","lat":43.2439,"lon":5.37046,"is_reserved":false,"is_disabled":false,"rental_uris":{"android":"levelo://app?vid=55235645-fb70-4687-8ed6-a6c738087798","ios":"levelo://app?vid=55235645-fb70-4687-8ed6-a6c738087798"},"vehicle_type_id":"4","last_reported":1740924487,"current_range_meters":5600,"station_id":"ce4bhhh2rcd13ifvqfk0","pricing_plan_id":"cebpf4jnsgd1na2vs0mg"},{"bike_id":"02afa900-bba2-43ab-9ba5-636ae2f5d6a2","system_id":"levelo_inurba_marseille","lat":43.29031,"lon":5.39965,"is_reserved":false,"is_disabled":false,"rental_uris":{"android":"levelo://app?vid=02afa900-bba2-43ab-9ba5-636ae2f5d6a2","ios":"levelo://app?vid=02afa900-bba2-43ab-9ba5-636ae2f5d6a2"},"vehicle_type_id":"4","last_reported":1740924487,"current_range_meters":6000,"station_id":"ce4bh392rcd13ifvqdm0","pricing_plan_id":"cebpf4jnsgd1na2vs0mg"},{"bike_id":"259d7138-5d9c-48a2-b6cb-30127d32f76b","system_id":"levelo_inurba_marseille","lat":43.24806,"lon":5.37454,"is_reserved":false,"is_disabled":false,"rental_uris":{"android":"levelo://app?vid=259d7138-5d9c-48a2-b6cb-30127d32f76b","ios":"levelo://app?vid=259d7138-5d9c-48a2-b6cb-30127d32f76b"},"vehicle_type_id":"4","last_reported":1740924487,"current_range_meters":6400,"station_id":"ce4bhgh2rcd13ifvqfb0","pricing_plan_id":"cebpf4jnsgd1na2vs0mg"},{"bike_id":"572d17e3-95aa-433f-abe0-38d340ef9dbe","system_id":"levelo_inurba_marseille","lat":43.2622,"lon":5.37432,"is_reserved":false,"is_disabled":false,"rental_uris":{"android":"levelo://app?vid=572d17e3-95aa-433f-abe0-38d340ef9dbe","ios":"levelo://app?vid=572d17e3-95aa-433f-abe0-38d340ef9dbe"},"vehicle_type_id":"4","last_reported":1740924487,"current_range_meters":6400,"station_id":"ce4bhgp2rcd13ifvqfc0","pricing_plan_id":"cebpf4jnsgd1na2vs0mg"},{"bike_id":"031181e2-0d32-46f7-bb2b-52f755e7708d","system_id":"levelo_inurba_marseille","lat":43.251101,"lon":5.40322,"is_reserved":false,"is_disabled":false,"rental_uris":{"android":"levelo://app?vid=031181e2-0d32-46f7-bb2b-52f755e7708d","ios":"levelo://app?vid=031181e2-0d32-46f7-bb2b-52f755e7708d"},"vehicle_type_id":"4","last_reported":1740924487,"current_range_meters":6400,"station_id":"ce4bhh12rcd13ifvqfg0","pricing_plan_id":"cebpf4jnsgd1na2vs0mg"},{"bike_id":"49c8f1c8-73ba-4ce5-81e8-157102683a7a","system_id":"levelo_inurba_marseille","lat":43.25589,"lon":5.38229,"is_reserved":false,"is_disabled":false,"rental_uris":{"android":"levelo://app?vid=49c8f1c8-73ba-4ce5-81e8-157102683a7a","ios":"levelo://app?vid=49c8f1c8-73ba-4ce5-81e8-157102683a7a"},"vehicle_type_id":"4","last_reported":1740924487,"current_range_meters":6400,"station_id":"ce4bhih2rcd13ifvqfs0","pricing_plan_id":"cebpf4jnsgd1na2vs0mg"},{"bike_id":"033cfa3f-8144-428d-a851-1c70c7a95dee","system_id":"levelo_inurba_marseille","lat":43.2551,"lon":5.37636,"is_reserved":false,"is_disabled":false,"rental_uris":{"android":"levelo://app?vid=033cfa3f-8144-428d-a851-1c70c7a95dee","ios":"levelo://app?vid=033cfa3f-8144-428d-a851-1c70c7a95dee"},"vehicle_type_id":"4","last_reported":1740924487,"current_range_meters":6800,"station_id":"ce4bhh12rcd13ifvqff0","pricing_plan_id":"cebpf4jnsgd1na2vs0mg"},{"bike_id":"971830a2-0849-4007-85ca-15e3407581ff","system_id":"levelo_inurba_marseille","lat":43.25494,"lon":5.37646,"is_reserved":false,"is_disabled":false,"rental_uris":{"android":"levelo://app?vid=971830a2-0849-4007-85ca-15e3407581ff","ios":"levelo://app?vid=971830a2-0849-4007-85ca-15e3407581ff"},"vehicle_type_id":"4","last_reported":1740924487,"current_range_meters":6800,"station_id":"ce4bhh12rcd13ifvqff0","pricing_plan_id":"cebpf4jnsgd1na2vs0mg"},{"bike_id":"bc661d6a-40b3-4714-91b7-2122a333c51f","system_id":"levelo_inurba_marseille","lat":43.23164,"lon":5.43701,"is_reserved":false,"is_disabled":false,"rental_uris":{"android":"levelo://app?vid=bc661d6a-40b3-4714-91b7-2122a333c51f","ios":"levelo://app?vid=bc661d6a-40b3-4714-91b7-2122a333c51f"},"vehicle_type_id":"4","last_reported":1740924487,"current_range_meters":6800,"station_id":"ce4bhmp2rcd13ifvqgog","pricing_plan_id":"cebpf4jnsgd1na2vs0mg"},{"bike_id":"53ebed9a-fd1a-4d94-96e3-0c8bc5887ace","system_id":"levelo_inurba_marseille","lat":43.3142,"lon":5.39358,"is_reserved":false,"is_disabled":false,"rental_uris":{"android":"levelo://app?vid=53ebed9a-fd1a-4d94-96e3-0c8bc5887ace","ios":"levelo://app?vid=53ebed9a-fd1a-4d94-96e3-0c8bc5887ace"},"vehicle_type_id":"4","last_reported":1740924487,"current_range_meters":7200,"station_id":"","pricing_plan_id":"cebpf4jnsgd1na2vs0mg"},{"bike_id":"0f85cbcc-3d02-4c25-8d72-a783ddb8c78e","system_id":"levelo_inurba_marseille","lat":43.3118,"lon":5.38713,"is_reserved":false,"is_disabled":false,"rental_uris":{"android":"levelo://app?vid=0f85cbcc-3d02-4c25-8d72-a783ddb8c78e","ios":"levelo://app?vid=0f85cbcc-3d02-4c25-8d72-a783ddb8c78e"},"vehicle_type_id":"4","last_reported":1740924487,"current_range_meters":7200,"station_id":"ce4bgv12rcd13ifvqcp0","pricing_plan_id":"cebpf4jnsgd1na2vs0mg"},{"bike_id":"455b429d-6c99-4522-8ec6-a450e6409c2c","system_id":"levelo_inurba_marseille","lat":43.29004,"lon":5.35615,"is_reserved":false,"is_disabled":false,"rental_uris":{"android":"levelo://app?vid=455b429d-6c99-4522-8ec6-a450e6409c2c","ios":"levelo://app?vid=455b429d-6c99-4522-8ec6-a450e6409c2c"},"vehicle_type_id":"4","last_reported":1740924487,"current_range_meters":7200,"station_id":"ce4bhb92rcd13ifvqen0","pricing_plan_id":"cebpf4jnsgd1na2vs0mg"},{"bike_id":"ee29d4cf-d96a-499a-b2dc-4b2eff3ba01c","system_id":"levelo_inurba_marseille","lat":43.27376,"lon":5.36255,"is_reserved":false,"is_disabled":false,"rental_uris":{"android":"levelo://app?vid=ee29d4cf-d96a-499a-b2dc-4b2eff3ba01c","ios":"levelo://app?vid=ee29d4cf-d96a-499a-b2dc-4b2eff3ba01c"},"vehicle_type_id":"4","last_reported":1740924487,"current_range_meters":7200,"station_id":"ce4bhbh2rcd13ifvqeo0","pricing_plan_id":"cebpf4jnsgd1na2vs0mg"},{"bike_id":"b80b48ad-c5b1-453a-a507-4e7490ea6284","system_id":"levelo_inurba_marseille","lat":43.27659,"lon":5.38888,"is_reserved":false,"is_disabled":false,"rental_uris":{"android":"levelo://app?vid=b80b48ad-c5b1-453a-a507-4e7490ea6284","ios":"levelo://app?vid=b80b48ad-c5b1-453a-a507-4e7490ea6284"},"vehicle_type_id":"4","last_reported":1740924487,"current_range_meters":7200,"station_id":"ce4bhi12rcd13ifvqfo0","pricing_plan_id":"cebpf4jnsgd1na2vs0mg"},{"bike_id":"24b426ec-114a-4cca-b485-1331408dda43","system_id":"levelo_inurba_marseille","lat":43.24072,"lon":5.37751,"is_reserved":false,"is_disabled":false,"rental_uris":{"android":"levelo://app?vid=24b426ec-114a-4cca-b485-1331408dda43","ios":"levelo://app?vid=24b426ec-114a-4cca-b485-1331408dda43"},"vehicle_type_id":"4","last_reported":1740924487,"current_range_meters":7200,"station_id":"ce4bhnp2rcd13ifvqgvg","pricing_plan_id":"cebpf4jnsgd1na2vs0mg"},{"bike_id":"a6a90239-ccb3-495c-93de-42d1d56f1210","system_id":"levelo_inurba_marseille","lat":43.28003,"lon":5.41677,"is_reserved":false,"is_disabled":false,"rental_uris":{"android":"levelo://app?vid=a6a90239-ccb3-495c-93de-42d1d56f1210","ios":"levelo://app?vid=a6a90239-ccb3-495c-93de-42d1d56f1210"},"vehicle_type_id":"4","last_reported":1740924487,"current_range_meters":7200,"station_id":"ce4bho12rcd13ifvqh1g","pricing_plan_id":"cebpf4jnsgd1na2vs0mg"},{"bike_id":"3cda4df5-5eb8-46f1-be58-a59133a81109","system_id":"levelo_inurba_marseille","lat":43.29974,"lon":5.38481,"is_reserved":false,"is_disabled":false,"rental_uris":{"android":"levelo://app?vid=3cda4df5-5eb8-46f1-be58-a59133a81109","ios":"levelo://app?vid=3cda4df5-5eb8-46f1-be58-a59133a81109"},"vehicle_type_id":"4","last_reported":1740924487,"current_range_meters":8000,"station_id":"ce4bgj92rcd13ifvqbd0","pricing_plan_id":"cebpf4jnsgd1na2vs0mg"},{"bike_id":"b811c60a-6933-40a7-84ba-ba9cab9803d2","system_id":"levelo_inurba_marseille","lat":43.25019,"lon":5.38936,"is_reserved":false,"is_disabled":false,"rental_uris":{"android":"levelo://app?vid=b811c60a-6933-40a7-84ba-ba9cab9803d2","ios":"levelo://app?vid=b811c60a-6933-40a7-84ba-ba9cab9803d2"},"vehicle_type_id":"4","last_reported":1740924487,"current_range_meters":8000,"station_id":"ce4bhgp2rcd13ifvqfd0","pricing_plan_id":"cebpf4jnsgd1na2vs0mg"},{"bike_id":"d9c1bcf1-4f4d-4f65-bf7a-b9d26e029a11","system_id":"levelo_inurba_marseille","lat":43.23189,"lon":5.39986,"is_reserved":false,"is_disabled":false,"rental_uris":{"android":"levelo://app?vid=d9c1bcf1-4f4d-4f65-bf7a-b9d26e029a11","ios":"levelo://app?vid=d9c1bcf1-4f4d-4f65-bf7a-b9d26e029a11"},"vehicle_type_id":"4","last_reported":1740924487,"current_range_meters":8000,"station_id":"ce4bhn12rcd13ifvqgqg","pricing_plan_id":"cebpf4jnsgd1na2vs0mg"},{"bike_id":"20c9bbd7-e325-4f7a-bedc-61305b9bbcc2","system_id":"levelo_inurba_marseille","lat":43.28624,"lon":5.37071,"is_reserved":false,"is_disabled":false,"rental_uris":{"android":"levelo://app?vid=20c9bbd7-e325-4f7a-bedc-61305b9bbcc2","ios":"levelo://app?vid=20c9bbd7-e325-4f7a-bedc-61305b9bbcc2"},"vehicle_type_id":"4","last_reported":1740924487,"current_range_meters":8000,"station_id":"ce4bht12rcd13ifvqi60","pricing_plan_id":"cebpf4jnsgd1na2vs0mg"},{"bike_id":"2cb3cfa4-b757-41a6-8ef2-f76009a1db5e","system_id":"levelo_inurba_marseille","lat":43.22935,"lon":5.35377,"is_reserved":false,"is_disabled":false,"rental_uris":{"android":"levelo://app?vid=2cb3cfa4-b757-41a6-8ef2-f76009a1db5e","ios":"levelo://app?vid=2cb3cfa4-b757-41a6-8ef2-f76009a1db5e"},"vehicle_type_id":"4","last_reported":1740924487,"current_range_meters":8000,"station_id":"cpo3532slgdg3j2ikp40","pricing_plan_id":"cebpf4jnsgd1na2vs0mg"},{"bike_id":"4a01e614-9a34-4e70-9e02-4e744008ae90","system_id":"levelo_inurba_marseille","lat":43.31406,"lon":5.3919,"is_reserved":false,"is_disabled":false,"rental_uris":{"android":"levelo://app?vid=4a01e614-9a34-4e70-9e02-4e744008ae90","ios":"levelo://app?vid=4a01e614-9a34-4e70-9e02-4e744008ae90"},"vehicle_type_id":"4","last_reported":1740924487,"current_range_meters":8400,"station_id":"","pricing_plan_id":"cebpf4jnsgd1na2vs0mg"},{"bike_id":"88149170-0b17-4d40-b1f4-e60ab7be8fc5","system_id":"levelo_inurba_marseille","lat":43.31114,"lon":5.37768,"is_reserved":false,"is_disabled":false,"rental_uris":{"android":"levelo://app?vid=88149170-0b17-4d40-b1f4-e60ab7be8fc5","ios":"levelo://app?vid=88149170-0b17-4d40-b1f4-e60ab7be8fc5"},"vehicle_type_id":"4","last_reported":1740924487,"current_range_meters":8400,"station_id":"ce4bgv92rcd13ifvqcq0","pricing_plan_id":"cebpf4jnsgd1na2vs0mg"},{"bike_id":"9a054474-faef-4885-a848-745bb83f32c9","system_id":"levelo_inurba_marseille","lat":43.31277,"lon":5.40168,"is_reserved":false,"is_disabled":false,"rental_uris":{"android":"levelo://app?vid=9a054474-faef-4885-a848-745bb83f32c9","ios":"levelo://app?vid=9a054474-faef-4885-a848-745bb83f32c9"},"vehicle_type_id":"4","last_reported":1740924487,"current_range_meters":8400,"station_id":"ce4bh092rcd13ifvqd30","pricing_plan_id":"cebpf4jnsgd1na2vs0mg"},{"bike_id":"b7dd8c2d-9b2a-4427-8e16-208defb5a450","system_id":"levelo_inurba_marseille","lat":43.24815,"lon":5.37445,"is_reserved":false,"is_disabled":false,"rental_uris":{"android":"levelo://app?vid=b7dd8c2d-9b2a-4427-8e16-208defb5a450","ios":"levelo://app?vid=b7dd8c2d-9b2a-4427-8e16-208defb5a450"},"vehicle_type_id":"4","last_reported":1740924487,"current_range_meters":8400,"station_id":"ce4bhgh2rcd13ifvqfb0","pricing_plan_id":"cebpf4jnsgd1na2vs0mg"},{"bike_id":"7ef7ac43-0eab-4d6d-b040-181e2e2d7919","system_id":"levelo_inurba_marseille","lat":43.25006,"lon":5.38916,"is_reserved":false,"is_disabled":false,"rental_uris":{"android":"levelo://app?vid=7ef7ac43-0eab-4d6d-b040-181e2e2d7919","ios":"levelo://app?vid=7ef7ac43-0eab-4d6d-b040-181e2e2d7919"},"vehicle_type_id":"4","last_reported":1740924487,"current_range_meters":8400,"station_id":"ce4bhgp2rcd13ifvqfd0","pricing_plan_id":"cebpf4jnsgd1na2vs0mg"},{"bike_id":"d23f519a-ec51-4d19-821b-41d2d8ce3029","system_id":"levelo_inurba_marseille","lat":43.23184,"lon":5.39999,"is_reserved":false,"is_disabled":false,"rental_uris":{"android":"levelo://app?vid=d23f519a-ec51-4d19-821b-41d2d8ce3029","ios":"levelo://app?vid=d23f519a-ec51-4d19-821b-41d2d8ce3029"},"vehicle_type_id":"4","last_reported":1740924487,"current_range_meters":8400,"station_id":"ce4bhn12rcd13ifvqgqg","pricing_plan_id":"cebpf4jnsgd1na2vs0mg"},{"bike_id":"f8aa2ef7-5ce9-4c71-95f4-fea53b5d9bb7","system_id":"levelo_inurba_marseille","lat":43.29896,"lon":5.43661,"is_reserved":false,"is_disabled":false,"rental_uris":{"android":"levelo://app?vid=f8aa2ef7-5ce9-4c71-95f4-fea53b5d9bb7","ios":"levelo://app?vid=f8aa2ef7-5ce9-4c71-95f4-fea53b5d9bb7"},"vehicle_type_id":"4","last_reported":1740924487,"current_range_meters":8400,"station_id":"ce4bhpp2rcd13ifvqhfg","pricing_plan_id":"cebpf4jnsgd1na2vs0mg"},{"bike_id":"eafe4694-db55-4cde-85aa-971c3787bde8","system_id":"levelo_inurba_marseille","lat":43.24177,"lon":5.36381,"is_reserved":false,"is_disabled":false,"rental_uris":{"android":"levelo://app?vid=eafe4694-db55-4cde-85aa-971c3787bde8","ios":"levelo://app?vid=eafe4694-db55-4cde-85aa-971c3787bde8"},"vehicle_type_id":"4","last_reported":1740924487,"current_range_meters":8400,"station_id":"cpo36qri1sfpv3e86is0","pricing_plan_id":"cebpf4jnsgd1na2vs0mg"},{"bike_id":"0c6ae537-229a-4d33-bc48-a3b75a80f5df","system_id":"levelo_inurba_marseille","lat":43.2842,"lon":5.34978,"is_reserved":false,"is_disabled":false,"rental_uris":{"android":"levelo://app?vid=0c6ae537-229a-4d33-bc48-a3b75a80f5df","ios":"levelo://app?vid=0c6ae537-229a-4d33-bc48-a3b75a80f5df"},"vehicle_type_id":"4","last_reported":1740924487,"current_range_meters":8800,"station_id":"ce4bhbh2rcd13ifvqepg","pricing_plan_id":"cebpf4jnsgd1na2vs0mg"},{"bike_id":"26fa037d-9c4f-463e-b16c-4139864b9370","system_id":"levelo_inurba_marseille","lat":43.26208,"lon":5.37441,"is_reserved":false,"is_disabled":false,"rental_uris":{"android":"levelo://app?vid=26fa037d-9c4f-463e-b16c-4139864b9370","ios":"levelo://app?vid=26fa037d-9c4f-463e-b16c-4139864b9370"},"vehicle_type_id":"4","last_reported":1740924487,"current_range_meters":8800,"station_id":"ce4bhgp2rcd13ifvqfc0","pricing_plan_id":"cebpf4jnsgd1na2vs0mg"},{"bike_id":"564c8ccb-3cfe-4949-a5a7-04e221ae7567","system_id":"levelo_inurba_marseille","lat":43.29911,"lon":5.43647,"is_reserved":false,"is_disabled":false,"rental_uris":{"android":"levelo://app?vid=564c8ccb-3cfe-4949-a5a7-04e221ae7567","ios":"levelo://app?vid=564c8ccb-3cfe-4949-a5a7-04e221ae7567"},"vehicle_type_id":"4","last_reported":1740924487,"current_range_meters":8800,"station_id":"ce4bhpp2rcd13ifvqhfg","pricing_plan_id":"cebpf4jnsgd1na2vs0mg"},{"bike_id":"89dc3b79-cdc1-4672-86c6-e3e4d12f6d6c","system_id":"levelo_inurba_marseille","lat":43.26936,"lon":5.40253,"is_reserved":false,"is_disabled":false,"rental_uris":{"android":"levelo://app?vid=89dc3b79-cdc1-4672-86c6-e3e4d12f6d6c","ios":"levelo://app?vid=89dc3b79-cdc1-4672-86c6-e3e4d12f6d6c"},"vehicle_type_id":"4","last_reported":1740924487,"current_range_meters":8800,"station_id":"cjm6bp8fraef2m0cb0m0","pricing_plan_id":"cebpf4jnsgd1na2vs0mg"},{"bike_id":"0b98e7e8-dc07-4ea0-a7b9-18759bfad524","system_id":"levelo_inurba_marseille","lat":43.23063,"lon":5.35498,"is_reserved":false,"is_disabled":false,"rental_uris":{"android":"levelo://app?vid=0b98e7e8-dc07-4ea0-a7b9-18759bfad524","ios":"levelo://app?vid=0b98e7e8-dc07-4ea0-a7b9-18759bfad524"},"vehicle_type_id":"4","last_reported":1740924487,"current_range_meters":8800,"station_id":"cpo3342slgdg3j2ifvpg","pricing_plan_id":"cebpf4jnsgd1na2vs0mg"},{"bike_id":"5d34db1e-338f-4da1-bfb0-ce7dd9dafcb7","system_id":"levelo_inurba_marseille","lat":43.23063,"lon":5.355,"is_reserved":false,"is_disabled":false,"rental_uris":{"android":"levelo://app?vid=5d34db1e-338f-4da1-bfb0-ce7dd9dafcb7","ios":"levelo://app?vid=5d34db1e-338f-4da1-bfb0-ce7dd9dafcb7"},"vehicle_type_id":"4","last_reported":1740924487,"current_range_meters":8800,"station_id":"cpo3342slgdg3j2ifvpg","pricing_plan_id":"cebpf4jnsgd1na2vs0mg"},{"bike_id":"0693b9d6-4a9d-4e38-bfa2-80f934bcc2e3","system_id":"levelo_inurba_marseille","lat":43.2417,"lon":5.36405,"is_reserved":false,"is_disabled":false,"rental_uris":{"android":"levelo://app?vid=0693b9d6-4a9d-4e38-bfa2-80f934bcc2e3","ios":"levelo://app?vid=0693b9d6-4a9d-4e38-bfa2-80f934bcc2e3"},"vehicle_type_id":"4","last_reported":1740924487,"current_range_meters":8800,"station_id":"cpo36qri1sfpv3e86is0","pricing_plan_id":"cebpf4jnsgd1na2vs0mg"},{"bike_id":"0e4d5d36-7d5d-4fbf-9597-759cc9a1b223","system_id":"levelo_inurba_marseille","lat":43.30563,"lon":5.37246,"is_reserved":false,"is_disabled":false,"rental_uris":{"android":"levelo://app?vid=0e4d5d36-7d5d-4fbf-9597-759cc9a1b223","ios":"levelo://app?vid=0e4d5d36-7d5d-4fbf-9597-759cc9a1b223"},"vehicle_type_id":"4","last_reported":1740924487,"current_range_meters":9200,"station_id":"","pricing_plan_id":"cebpf4jnsgd1na2vs0mg"},{"bike_id":"f5e9baa5-06e5-4a29-bd27-a763f0076aca","system_id":"levelo_inurba_marseille","lat":43.2439,"lon":5.37066,"is_reserved":false,"is_disabled":false,"rental_uris":{"android":"levelo://app?vid=f5e9baa5-06e5-4a29-bd27-a763f0076aca","ios":"levelo://app?vid=f5e9baa5-06e5-4a29-bd27-a763f0076aca"},"vehicle_type_id":"4","last_reported":1740924487,"current_range_meters":9200,"station_id":"ce4bhhh2rcd13ifvqfk0","pricing_plan_id":"cebpf4jnsgd1na2vs0mg"},{"bike_id":"94fa0b73-5864-4665-bdbb-eb6df01414c8","system_id":"levelo_inurba_marseille","lat":43.24688,"lon":5.38148,"is_reserved":false,"is_disabled":false,"rental_uris":{"android":"levelo://app?vid=94fa0b73-5864-4665-bdbb-eb6df01414c8","ios":"levelo://app?vid=94fa0b73-5864-4665-bdbb-eb6df01414c8"},"vehicle_type_id":"4","last_reported":1740924487,"current_range_meters":9200,"station_id":"ce4bhih2rcd13ifvqfr0","pricing_plan_id":"cebpf4jnsgd1na2vs0mg"},{"bike_id":"1697087c-3a15-4d2b-8fbc-57126afe45c3","system_id":"levelo_inurba_marseille","lat":43.23155,"lon":5.43705,"is_reserved":false,"is_disabled":false,"rental_uris":{"android":"levelo://app?vid=1697087c-3a15-4d2b-8fbc-57126afe45c3","ios":"levelo://app?vid=1697087c-3a15-4d2b-8fbc-57126afe45c3"},"vehicle_type_id":"4","last_reported":1740924487,"current_range_meters":9200,"station_id":"ce4bhmp2rcd13ifvqgog","pricing_plan_id":"cebpf4jnsgd1na2vs0mg"},{"bike_id":"5a93161c-e5c0-48ca-8037-39920e07dd69","system_id":"levelo_inurba_marseille","lat":43.23155,"lon":5.43721,"is_reserved":false,"is_disabled":false,"rental_uris":{"android":"levelo://app?vid=5a93161c-e5c0-48ca-8037-39920e07dd69","ios":"levelo://app?vid=5a93161c-e5c0-48ca-8037-39920e07dd69"},"vehicle_type_id":"4","last_reported":1740924487,"current_range_meters":9200,"station_id":"ce4bhmp2rcd13ifvqgog","pricing_plan_id":"cebpf4jnsgd1na2vs0mg"},{"bike_id":"43fc25eb-994d-4d6d-90bf-dce0957bf871","system_id":"levelo_inurba_marseille","lat":43.23079,"lon":5.35475,"is_reserved":false,"is_disabled":false,"rental_uris":{"android":"levelo://app?vid=43fc25eb-994d-4d6d-90bf-dce0957bf871","ios":"levelo://app?vid=43fc25eb-994d-4d6d-90bf-dce0957bf871"},"vehicle_type_id":"4","last_reported":1740924487,"current_range_meters":9200,"station_id":"cpo3342slgdg3j2ifvpg","pricing_plan_id":"cebpf4jnsgd1na2vs0mg"},{"bike_id":"64ffd662-e69f-40f9-94ce-46c8b8d9508b","system_id":"levelo_inurba_marseille","lat":43.30941,"lon":5.40147,"is_reserved":false,"is_disabled":false,"rental_uris":{"android":"levelo://app?vid=64ffd662-e69f-40f9-94ce-46c8b8d9508b","ios":"levelo://app?vid=64ffd662-e69f-40f9-94ce-46c8b8d9508b"},"vehicle_type_id":"4","last_reported":1740924487,"current_range_meters":9600,"station_id":"ce4bgvp2rcd13ifvqct0","pricing_plan_id":"cebpf4jnsgd1na2vs0mg"},{"bike_id":"12ab922a-f881-4968-9e63-ec8d58f2ca05","system_id":"levelo_inurba_marseille","lat":43.24804,"lon":5.37457,"is_reserved":false,"is_disabled":false,"rental_uris":{"android":"levelo://app?vid=12ab922a-f881-4968-9e63-ec8d58f2ca05","ios":"levelo://app?vid=12ab922a-f881-4968-9e63-ec8d58f2ca05"},"vehicle_type_id":"4","last_reported":1740924487,"current_range_meters":9600,"station_id":"ce4bhgh2rcd13ifvqfb0","pricing_plan_id":"cebpf4jnsgd1na2vs0mg"},{"bike_id":"b8729eab-79d9-460b-90d1-aaf7a92e0614","system_id":"levelo_inurba_marseille","lat":43.23958,"lon":5.36629,"is_reserved":false,"is_disabled":false,"rental_uris":{"android":"levelo://app?vid=b8729eab-79d9-460b-90d1-aaf7a92e0614","ios":"levelo://app?vid=b8729eab-79d9-460b-90d1-aaf7a92e0614"},"vehicle_type_id":"4","last_reported":1740924487,"current_range_meters":9600,"station_id":"ce4bhi12rcd13ifvqfp0","pricing_plan_id":"cebpf4jnsgd1na2vs0mg"},{"bike_id":"5365f3e3-1095-4284-be0e-5e73a795384b","system_id":"levelo_inurba_marseille","lat":43.25721,"lon":5.41116,"is_reserved":false,"is_disabled":false,"rental_uris":{"android":"levelo://app?vid=5365f3e3-1095-4284-be0e-5e73a795384b","ios":"levelo://app?vid=5365f3e3-1095-4284-be0e-5e73a795384b"},"vehicle_type_id":"4","last_reported":1740924487,"current_range_meters":9600,"station_id":"ce4bhkp2rcd13ifvqgd0","pricing_plan_id":"cebpf4jnsgd1na2vs0mg"},{"bike_id":"6e8d2c77-8575-4e6e-b661-3dd729128043","system_id":"levelo_inurba_marseille","lat":43.28438,"lon":5.39196,"is_reserved":false,"is_disabled":false,"rental_uris":{"android":"levelo://app?vid=6e8d2c77-8575-4e6e-b661-3dd729128043","ios":"levelo://app?vid=6e8d2c77-8575-4e6e-b661-3dd729128043"},"vehicle_type_id":"4","last_reported":1740924487,"current_range_meters":9600,"station_id":"ce4bhoh2rcd13ifvqh5g","pricing_plan_id":"cebpf4jnsgd1na2vs0mg"},{"bike_id":"e1a973e8-2cbd-47d5-8517-a16e8e0d81ba","system_id":"levelo_inurba_marseille","lat":43.32484,"lon":5.36574,"is_reserved":false,"is_disabled":false,"rental_uris":{"android":"levelo://app?vid=e1a973e8-2cbd-47d5-8517-a16e8e0d81ba","ios":"levelo://app?vid=e1a973e8-2cbd-47d5-8517-a16e8e0d81ba"},"vehicle_type_id":"4","last_reported":1740924487,"current_range_meters":9600,"station_id":"ce4bhs12rcd13ifvqhvg","pricing_plan_id":"cebpf4jnsgd1na2vs0mg"},{"bike_id":"ce548ae5-3471-4cc0-8538-94fe53ddd656","system_id":"levelo_inurba_marseille","lat":43.31265,"lon":5.4016,"is_reserved":false,"is_disabled":false,"rental_uris":{"android":"levelo://app?vid=ce548ae5-3471-4cc0-8538-94fe53ddd656","ios":"levelo://app?vid=ce548ae5-3471-4cc0-8538-94fe53ddd656"},"vehicle_type_id":"4","last_reported":1740924487,"current_range_meters":10000,"station_id":"ce4bh092rcd13ifvqd30","pricing_plan_id":"cebpf4jnsgd1na2vs0mg"},{"bike_id":"f711a177-8c95-4e96-bcaf-e6e0dc33f59e","system_id":"levelo_inurba_marseille","lat":43.24393,"lon":5.37051,"is_reserved":false,"is_disabled":false,"rental_uris":{"android":"levelo://app?vid=f711a177-8c95-4e96-bcaf-e6e0dc33f59e","ios":"levelo://app?vid=f711a177-8c95-4e96-bcaf-e6e0dc33f59e"},"vehicle_type_id":"4","last_reported":1740924487,"current_range_meters":10000,"station_id":"ce4bhhh2rcd13ifvqfk0","pricing_plan_id":"cebpf4jnsgd1na2vs0mg"},{"bike_id":"70775753-b571-4bcf-bc75-320e08bf7dd9","system_id":"levelo_inurba_marseille","lat":43.25104,"lon":5.40321,"is_reserved":false,"is_disabled":false,"rental_uris":{"android":"levelo://app?vid=70775753-b571-4bcf-bc75-320e08bf7dd9","ios":"levelo://app?vid=70775753-b571-4bcf-bc75-320e08bf7dd9"},"vehicle_type_id":"4","last_reported":1740924487,"current_range_meters":10000,"station_id":"ce4bhlh2rcd13ifvqgig","pricing_plan_id":"cebpf4jnsgd1na2vs0mg"},{"bike_id":"e43f4f71-054c-410e-9efa-c6d5ef79ac61","system_id":"levelo_inurba_marseille","lat":43.24152,"lon":5.39713,"is_reserved":false,"is_disabled":false,"rental_uris":{"android":"levelo://app?vid=e43f4f71-054c-410e-9efa-c6d5ef79ac61","ios":"levelo://app?vid=e43f4f71-054c-410e-9efa-c6d5ef79ac61"},"vehicle_type_id":"4","last_reported":1740924487,"current_range_meters":10000,"station_id":"ce4bhn12rcd13ifvqgpg","pricing_plan_id":"cebpf4jnsgd1na2vs0mg"},{"bike_id":"f4af2fc5-12b1-413f-b3e8-70775a52b007","system_id":"levelo_inurba_marseille","lat":43.24189,"lon":5.39728,"is_reserved":false,"is_disabled":false,"rental_uris":{"android":"levelo://app?vid=f4af2fc5-12b1-413f-b3e8-70775a52b007","ios":"levelo://app?vid=f4af2fc5-12b1-413f-b3e8-70775a52b007"},"vehicle_type_id":"4","last_reported":1740924487,"current_range_meters":10000,"station_id":"ce4bhn12rcd13ifvqgpg","pricing_plan_id":"cebpf4jnsgd1na2vs0mg"},{"bike_id":"055bd795-8b4c-4778-a38b-ca6078012c34","system_id":"levelo_inurba_marseille","lat":43.29895,"lon":5.43658,"is_reserved":false,"is_disabled":false,"rental_uris":{"android":"levelo://app?vid=055bd795-8b4c-4778-a38b-ca6078012c34","ios":"levelo://app?vid=055bd795-8b4c-4778-a38b-ca6078012c34"},"vehicle_type_id":"4","last_reported":1740924487,"current_range_meters":10000,"station_id":"ce4bhpp2rcd13ifvqhfg","pricing_plan_id":"cebpf4jnsgd1na2vs0mg"},{"bike_id":"4987e077-b9c1-4ad1-bae1-66cf51f9ba1d","system_id":"levelo_inurba_marseille","lat":43.2319,"lon":5.3555,"is_reserved":false,"is_disabled":false,"rental_uris":{"android":"levelo://app?vid=4987e077-b9c1-4ad1-bae1-66cf51f9ba1d","ios":"levelo://app?vid=4987e077-b9c1-4ad1-bae1-66cf51f9ba1d"},"vehicle_type_id":"4","last_reported":1740924487,"current_range_meters":10000,"station_id":"ce4bhu92rcd13ifvqi70","pricing_plan_id":"cebpf4jnsgd1na2vs0mg"},{"bike_id":"79e33670-35cf-4351-9d50-9b0309fc9adb","system_id":"levelo_inurba_marseille","lat":43.23054,"lon":5.35513,"is_reserved":false,"is_disabled":false,"rental_uris":{"android":"levelo://app?vid=79e33670-35cf-4351-9d50-9b0309fc9adb","ios":"levelo://app?vid=79e33670-35cf-4351-9d50-9b0309fc9adb"},"vehicle_type_id":"4","last_reported":1740924487,"current_range_meters":10000,"station_id":"cpo3342slgdg3j2ifvpg","pricing_plan_id":"cebpf4jnsgd1na2vs0mg"},{"bike_id":"158bb010-7ab1-40b1-ae98-dc8c34c87f28","system_id":"levelo_inurba_marseille","lat":43.28665,"lon":5.3632,"is_reserved":false,"is_disabled":false,"rental_uris":{"android":"levelo://app?vid=158bb010-7ab1-40b1-ae98-dc8c34c87f28","ios":"levelo://app?vid=158bb010-7ab1-40b1-ae98-dc8c34c87f28"},"vehicle_type_id":"4","last_reported":1740924487,"current_range_meters":10800,"station_id":"ce4bhah2rcd13ifvqej0","pricing_plan_id":"cebpf4jnsgd1na2vs0mg"},{"bike_id":"b48b439c-25e9-426d-9781-dfb4e7192a25","system_id":"levelo_inurba_marseille","lat":43.29009,"lon":5.35607,"is_reserved":false,"is_disabled":false,"rental_uris":{"android":"levelo://app?vid=b48b439c-25e9-426d-9781-dfb4e7192a25","ios":"levelo://app?vid=b48b439c-25e9-426d-9781-dfb4e7192a25"},"vehicle_type_id":"4","last_reported":1740924487,"current_range_meters":10800,"station_id":"ce4bhb92rcd13ifvqen0","pricing_plan_id":"cebpf4jnsgd1na2vs0mg"},{"bike_id":"10f746a9-5a94-4f57-ae07-76e73917a288","system_id":"levelo_inurba_marseille","lat":43.23149,"lon":5.43723,"is_reserved":false,"is_disabled":false,"rental_uris":{"android":"levelo://app?vid=10f746a9-5a94-4f57-ae07-76e73917a288","ios":"levelo://app?vid=10f746a9-5a94-4f57-ae07-76e73917a288"},"vehicle_type_id":"4","last_reported":1740924487,"current_range_meters":10800,"station_id":"ce4bhmp2rcd13ifvqgog","pricing_plan_id":"cebpf4jnsgd1na2vs0mg"},{"bike_id":"d40bd3ed-f9b3-4cdc-aad9-29c926f844ab","system_id":"levelo_inurba_marseille","lat":43.2407,"lon":5.37756,"is_reserved":false,"is_disabled":false,"rental_uris":{"android":"levelo://app?vid=d40bd3ed-f9b3-4cdc-aad9-29c926f844ab","ios":"levelo://app?vid=d40bd3ed-f9b3-4cdc-aad9-29c926f844ab"},"vehicle_type_id":"4","last_reported":1740924487,"current_range_meters":10800,"station_id":"ce4bhnp2rcd13ifvqgvg","pricing_plan_id":"cebpf4jnsgd1na2vs0mg"},{"bike_id":"27d57ba8-cb2b-4da3-bcfc-1efd3956d0fa","system_id":"levelo_inurba_marseille","lat":43.29554,"lon":5.42283,"is_reserved":false,"is_disabled":false,"rental_uris":{"android":"levelo://app?vid=27d57ba8-cb2b-4da3-bcfc-1efd3956d0fa","ios":"levelo://app?vid=27d57ba8-cb2b-4da3-bcfc-1efd3956d0fa"},"vehicle_type_id":"4","last_reported":1740924487,"current_range_meters":10800,"station_id":"ce4bhph2rcd13ifvqhdg","pricing_plan_id":"cebpf4jnsgd1na2vs0mg"},{"bike_id":"13985eab-e3f9-4cc2-ba2f-d24a29935124","system_id":"levelo_inurba_marseille","lat":43.30782,"lon":5.37366,"is_reserved":false,"is_disabled":false,"rental_uris":{"android":"levelo://app?vid=13985eab-e3f9-4cc2-ba2f-d24a29935124","ios":"levelo://app?vid=13985eab-e3f9-4cc2-ba2f-d24a29935124"},"vehicle_type_id":"4","last_reported":1740924487,"current_range_meters":11200,"station_id":"","pricing_plan_id":"cebpf4jnsgd1na2vs0mg"},{"bike_id":"b7992443-8e68-40d9-ab23-1a5ece5fbee5","system_id":"levelo_inurba_marseille","lat":43.2482,"lon":5.41866,"is_reserved":false,"is_disabled":false,"rental_uris":{"android":"levelo://app?vid=b7992443-8e68-40d9-ab23-1a5ece5fbee5","ios":"levelo://app?vid=b7992443-8e68-40d9-ab23-1a5ece5fbee5"},"vehicle_type_id":"4","last_reported":1740924487,"current_range_meters":11600,"station_id":"","pricing_plan_id":"cebpf4jnsgd1na2vs0mg"},{"bike_id":"9f2bbafd-9a89-4d79-a69a-a929085d6a4e","system_id":"levelo_inurba_marseille","lat":43.24816,"lon":5.3745,"is_reserved":false,"is_disabled":false,"rental_uris":{"android":"levelo://app?vid=9f2bbafd-9a89-4d79-a69a-a929085d6a4e","ios":"levelo://app?vid=9f2bbafd-9a89-4d79-a69a-a929085d6a4e"},"vehicle_type_id":"4","last_reported":1740924487,"current_range_meters":11600,"station_id":"ce4bhgh2rcd13ifvqfb0","pricing_plan_id":"cebpf4jnsgd1na2vs0mg"},{"bike_id":"fc4fbbc4-3ba4-429f-8121-8efe16b3448e","system_id":"levelo_inurba_marseille","lat":43.23057,"lon":5.35489,"is_reserved":false,"is_disabled":false,"rental_uris":{"android":"levelo://app?vid=fc4fbbc4-3ba4-429f-8121-8efe16b3448e","ios":"levelo://app?vid=fc4fbbc4-3ba4-429f-8121-8efe16b3448e"},"vehicle_type_id":"4","last_reported":1740924487,"current_range_meters":11600,"station_id":"cpo3342slgdg3j2ifvpg","pricing_plan_id":"cebpf4jnsgd1na2vs0mg"},{"bike_id":"c205ce0e-cdfe-435d-8888-57c0941eef1a","system_id":"levelo_inurba_marseille","lat":43.31343,"lon":5.36718,"is_reserved":false,"is_disabled":false,"rental_uris":{"android":"levelo://app?vid=c205ce0e-cdfe-435d-8888-57c0941eef1a","ios":"levelo://app?vid=c205ce0e-cdfe-435d-8888-57c0941eef1a"},"vehicle_type_id":"4","last_reported":1740924487,"current_range_meters":12000,"station_id":"ce4bgr92rcd13ifvqc6g","pricing_plan_id":"cebpf4jnsgd1na2vs0mg"},{"bike_id":"d70836ca-5cd6-49f6-8c8c-aa2368780fc4","system_id":"levelo_inurba_marseille","lat":43.28424,"lon":5.34979,"is_reserved":false,"is_disabled":false,"rental_uris":{"android":"levelo://app?vid=d70836ca-5cd6-49f6-8c8c-aa2368780fc4","ios":"levelo://app?vid=d70836ca-5cd6-49f6-8c8c-aa2368780fc4"},"vehicle_type_id":"4","last_reported":1740924487,"current_range_meters":12000,"station_id":"ce4bhbh2rcd13ifvqepg","pricing_plan_id":"cebpf4jnsgd1na2vs0mg"},{"bike_id":"ccab9dd3-2745-4c8d-9831-6d29bb2ae6f8","system_id":"levelo_inurba_marseille","lat":43.24689,"lon":5.38157,"is_reserved":false,"is_disabled":false,"rental_uris":{"android":"levelo://app?vid=ccab9dd3-2745-4c8d-9831-6d29bb2ae6f8","ios":"levelo://app?vid=ccab9dd3-2745-4c8d-9831-6d29bb2ae6f8"},"vehicle_type_id":"4","last_reported":1740924487,"current_range_meters":12000,"station_id":"ce4bhih2rcd13ifvqfr0","pricing_plan_id":"cebpf4jnsgd1na2vs0mg"},{"bike_id":"bc2c3e11-15ac-40ff-afa8-75edcaa45f4b","system_id":"levelo_inurba_marseille","lat":43.29889,"lon":5.43678,"is_reserved":false,"is_disabled":false,"rental_uris":{"android":"levelo://app?vid=bc2c3e11-15ac-40ff-afa8-75edcaa45f4b","ios":"levelo://app?vid=bc2c3e11-15ac-40ff-afa8-75edcaa45f4b"},"vehicle_type_id":"4","last_reported":1740924487,"current_range_meters":12000,"station_id":"ce4bhpp2rcd13ifvqhfg","pricing_plan_id":"cebpf4jnsgd1na2vs0mg"},{"bike_id":"aecd8a8b-4d9d-46f2-bda7-7d48d4d903b2","system_id":"levelo_inurba_marseille","lat":43.22932,"lon":5.3539,"is_reserved":false,"is_disabled":false,"rental_uris":{"android":"levelo://app?vid=aecd8a8b-4d9d-46f2-bda7-7d48d4d903b2","ios":"levelo://app?vid=aecd8a8b-4d9d-46f2-bda7-7d48d4d903b2"},"vehicle_type_id":"4","last_reported":1740924487,"current_range_meters":12000,"station_id":"cpo3532slgdg3j2ikp40","pricing_plan_id":"cebpf4jnsgd1na2vs0mg"},{"bike_id":"3c9c65ff-a2a8-4c52-a6f4-62bcc77556ef","system_id":"levelo_inurba_marseille","lat":43.24159,"lon":5.36397,"is_reserved":false,"is_disabled":false,"rental_uris":{"android":"levelo://app?vid=3c9c65ff-a2a8-4c52-a6f4-62bcc77556ef","ios":"levelo://app?vid=3c9c65ff-a2a8-4c52-a6f4-62bcc77556ef"},"vehicle_type_id":"4","last_reported":1740924487,"current_range_meters":12000,"station_id":"cpo36qri1sfpv3e86is0","pricing_plan_id":"cebpf4jnsgd1na2vs0mg"},{"bike_id":"88d09cbc-1497-4fea-99b9-c1fe29ff58f0","system_id":"levelo_inurba_marseille","lat":43.28048,"lon":5.36605,"is_reserved":false,"is_disabled":false,"rental_uris":{"android":"levelo://app?vid=88d09cbc-1497-4fea-99b9-c1fe29ff58f0","ios":"levelo://app?vid=88d09cbc-1497-4fea-99b9-c1fe29ff58f0"},"vehicle_type_id":"4","last_reported":1740924487,"current_range_meters":12400,"station_id":"","pricing_plan_id":"cebpf4jnsgd1na2vs0mg"},{"bike_id":"8c528749-43df-40d6-b9b4-e80d7e8bda23","system_id":"levelo_inurba_marseille","lat":43.26565,"lon":5.3728,"is_reserved":false,"is_disabled":false,"rental_uris":{"android":"levelo://app?vid=8c528749-43df-40d6-b9b4-e80d7e8bda23","ios":"levelo://app?vid=8c528749-43df-40d6-b9b4-e80d7e8bda23"},"vehicle_type_id":"4","last_reported":1740924487,"current_range_meters":12400,"station_id":"ce4bhg12rcd13ifvqf70","pricing_plan_id":"cebpf4jnsgd1na2vs0mg"},{"bike_id":"ed8bb562-d048-4d97-a62c-052cc210d3b2","system_id":"levelo_inurba_marseille","lat":43.31712,"lon":5.43694,"is_reserved":false,"is_disabled":false,"rental_uris":{"android":"levelo://app?vid=ed8bb562-d048-4d97-a62c-052cc210d3b2","ios":"levelo://app?vid=ed8bb562-d048-4d97-a62c-052cc210d3b2"},"vehicle_type_id":"4","last_reported":1740924487,"current_range_meters":12400,"station_id":"ce4bhp92rcd13ifvqhcg","pricing_plan_id":"cebpf4jnsgd1na2vs0mg"},{"bike_id":"0e37a980-00c1-4d93-96e8-ebfff90a65df","system_id":"levelo_inurba_marseille","lat":43.23058,"lon":5.35498,"is_reserved":false,"is_disabled":false,"rental_uris":{"android":"levelo://app?vid=0e37a980-00c1-4d93-96e8-ebfff90a65df","ios":"levelo://app?vid=0e37a980-00c1-4d93-96e8-ebfff90a65df"},"vehicle_type_id":"4","last_reported":1740924487,"current_range_meters":12400,"station_id":"cpo3342slgdg3j2ifvpg","pricing_plan_id":"cebpf4jnsgd1na2vs0mg"},{"bike_id":"b89b9e97-65c4-4473-a19f-c73995b54f7e","system_id":"levelo_inurba_marseille","lat":43.23063,"lon":5.3549,"is_reserved":false,"is_disabled":false,"rental_uris":{"android":"levelo://app?vid=b89b9e97-65c4-4473-a19f-c73995b54f7e","ios":"levelo://app?vid=b89b9e97-65c4-4473-a19f-c73995b54f7e"},"vehicle_type_id":"4","last_reported":1740924487,"current_range_meters":12400,"station_id":"cpo3342slgdg3j2ifvpg","pricing_plan_id":"cebpf4jnsgd1na2vs0mg"},{"bike_id":"acf37b8b-cefc-4715-ac3e-786b32c15d23","system_id":"levelo_inurba_marseille","lat":43.24162,"lon":5.36393,"is_reserved":false,"is_disabled":false,"rental_uris":{"android":"levelo://app?vid=acf37b8b-cefc-4715-ac3e-786b32c15d23","ios":"levelo://app?vid=acf37b8b-cefc-4715-ac3e-786b32c15d23"},"vehicle_type_id":"4","last_reported":1740924487,"current_range_meters":12800,"station_id":"cpo36qri1sfpv3e86is0","pricing_plan_id":"cebpf4jnsgd1na2vs0mg"},{"bike_id":"61e3c74e-7012-4cb6-8ef4-17db5d82fdf7","system_id":"levelo_inurba_marseille","lat":43.2531,"lon":5.39274,"is_reserved":false,"is_disabled":false,"rental_uris":{"android":"levelo://app?vid=61e3c74e-7012-4cb6-8ef4-17db5d82fdf7","ios":"levelo://app?vid=61e3c74e-7012-4cb6-8ef4-17db5d82fdf7"},"vehicle_type_id":"4","last_reported":1740924487,"current_range_meters":13600,"station_id":"","pricing_plan_id":"cebpf4jnsgd1na2vs0mg"},{"bike_id":"fd52364b-51e2-4dfe-a157-8694d87b8ead","system_id":"levelo_inurba_marseille","lat":43.25007,"lon":5.38919,"is_reserved":false,"is_disabled":false,"rental_uris":{"android":"levelo://app?vid=fd52364b-51e2-4dfe-a157-8694d87b8ead","ios":"levelo://app?vid=fd52364b-51e2-4dfe-a157-8694d87b8ead"},"vehicle_type_id":"4","last_reported":1740924487,"current_range_meters":13600,"station_id":"ce4bhgp2rcd13ifvqfd0","pricing_plan_id":"cebpf4jnsgd1na2vs0mg"},{"bike_id":"d582d420-ad76-4943-9aaa-ec3ad66c7cfa","system_id":"levelo_inurba_marseille","lat":43.24061,"lon":5.37769,"is_reserved":false,"is_disabled":false,"rental_uris":{"android":"levelo://app?vid=d582d420-ad76-4943-9aaa-ec3ad66c7cfa","ios":"levelo://app?vid=d582d420-ad76-4943-9aaa-ec3ad66c7cfa"},"vehicle_type_id":"4","last_reported":1740924487,"current_range_meters":13600,"station_id":"ce4bhnp2rcd13ifvqgvg","pricing_plan_id":"cebpf4jnsgd1na2vs0mg"},{"bike_id":"186f4738-14ff-4b24-ba42-5c5311a94d3d","system_id":"levelo_inurba_marseille","lat":43.27374,"lon":5.36269,"is_reserved":false,"is_disabled":false,"rental_uris":{"android":"levelo://app?vid=186f4738-14ff-4b24-ba42-5c5311a94d3d","ios":"levelo://app?vid=186f4738-14ff-4b24-ba42-5c5311a94d3d"},"vehicle_type_id":"4","last_reported":1740924487,"current_range_meters":14000,"station_id":"ce4bhbh2rcd13ifvqeo0","pricing_plan_id":"cebpf4jnsgd1na2vs0mg"},{"bike_id":"0f05a555-e598-43c7-bb27-5b9b48daab9f","system_id":"levelo_inurba_marseille","lat":43.24386,"lon":5.37058,"is_reserved":false,"is_disabled":false,"rental_uris":{"android":"levelo://app?vid=0f05a555-e598-43c7-bb27-5b9b48daab9f","ios":"levelo://app?vid=0f05a555-e598-43c7-bb27-5b9b48daab9f"},"vehicle_type_id":"4","last_reported":1740924487,"current_range_meters":14000,"station_id":"ce4bhhh2rcd13ifvqfk0","pricing_plan_id":"cebpf4jnsgd1na2vs0mg"},{"bike_id":"7ee8b473-5f24-443c-b1a9-185831e40175","system_id":"levelo_inurba_marseille","lat":43.24366,"lon":5.37091,"is_reserved":false,"is_disabled":false,"rental_uris":{"android":"levelo://app?vid=7ee8b473-5f24-443c-b1a9-185831e40175","ios":"levelo://app?vid=7ee8b473-5f24-443c-b1a9-185831e40175"},"vehicle_type_id":"4","last_reported":1740924487,"current_range_meters":14000,"station_id":"ce4bhhh2rcd13ifvqfk0","pricing_plan_id":"cebpf4jnsgd1na2vs0mg"},{"bike_id":"e5a52438-cfdc-4d2c-bea9-c3ac740c704b","system_id":"levelo_inurba_marseille","lat":43.23166,"lon":5.43687,"is_reserved":false,"is_disabled":false,"rental_uris":{"android":"levelo://app?vid=e5a52438-cfdc-4d2c-bea9-c3ac740c704b","ios":"levelo://app?vid=e5a52438-cfdc-4d2c-bea9-c3ac740c704b"},"vehicle_type_id":"4","last_reported":1740924487,"current_range_meters":14000,"station_id":"ce4bhmp2rcd13ifvqgog","pricing_plan_id":"cebpf4jnsgd1na2vs0mg"},{"bike_id":"20da3ee6-5532-4012-9891-2d8aebc53141","system_id":"levelo_inurba_marseille","lat":43.27992,"lon":5.40015,"is_reserved":false,"is_disabled":false,"rental_uris":{"android":"levelo://app?vid=20da3ee6-5532-4012-9891-2d8aebc53141","ios":"levelo://app?vid=20da3ee6-5532-4012-9891-2d8aebc53141"},"vehicle_type_id":"4","last_reported":1740924487,"current_range_meters":14000,"station_id":"ce4bho92rcd13ifvqh4g","pricing_plan_id":"cebpf4jnsgd1na2vs0mg"},{"bike_id":"dc07e06d-0854-459d-a227-3d6eb13e343d","system_id":"levelo_inurba_marseille","lat":43.23195,"lon":5.35555,"is_reserved":false,"is_disabled":false,"rental_uris":{"android":"levelo://app?vid=dc07e06d-0854-459d-a227-3d6eb13e343d","ios":"levelo://app?vid=dc07e06d-0854-459d-a227-3d6eb13e343d"},"vehicle_type_id":"4","last_reported":1740924487,"current_range_meters":14000,"station_id":"ce4bhu92rcd13ifvqi70","pricing_plan_id":"cebpf4jnsgd1na2vs0mg"},{"bike_id":"a4fa36b4-7a41-4d3b-8edc-0027bce1b33c","system_id":"levelo_inurba_marseille","lat":43.25357,"lon":5.41354,"is_reserved":false,"is_disabled":false,"rental_uris":{"android":"levelo://app?vid=a4fa36b4-7a41-4d3b-8edc-0027bce1b33c","ios":"levelo://app?vid=a4fa36b4-7a41-4d3b-8edc-0027bce1b33c"},"vehicle_type_id":"4","last_reported":1740924487,"current_range_meters":14400,"station_id":"","pricing_plan_id":"cebpf4jnsgd1na2vs0mg"},{"bike_id":"d64dff7e-e003-4d39-8ece-cd6b7e7bff1c","system_id":"levelo_inurba_marseille","lat":43.28278,"lon":5.35053,"is_reserved":false,"is_disabled":false,"rental_uris":{"android":"levelo://app?vid=d64dff7e-e003-4d39-8ece-cd6b7e7bff1c","ios":"levelo://app?vid=d64dff7e-e003-4d39-8ece-cd6b7e7bff1c"},"vehicle_type_id":"4","last_reported":1740924487,"current_range_meters":14400,"station_id":"ce4bhbp2rcd13ifvqerg","pricing_plan_id":"cebpf4jnsgd1na2vs0mg"},{"bike_id":"95cd5fee-78de-4f04-9458-0bcee2561cff","system_id":"levelo_inurba_marseille","lat":43.28651,"lon":5.35081,"is_reserved":false,"is_disabled":false,"rental_uris":{"android":"levelo://app?vid=95cd5fee-78de-4f04-9458-0bcee2561cff","ios":"levelo://app?vid=95cd5fee-78de-4f04-9458-0bcee2561cff"},"vehicle_type_id":"4","last_reported":1740924487,"current_range_meters":14400,"station_id":"ce4bhch2rcd13ifvqeug","pricing_plan_id":"cebpf4jnsgd1na2vs0mg"},{"bike_id":"8458a053-d906-4ecf-8852-a0caf121a1e5","system_id":"levelo_inurba_marseille","lat":43.23152,"lon":5.43711,"is_reserved":false,"is_disabled":false,"rental_uris":{"android":"levelo://app?vid=8458a053-d906-4ecf-8852-a0caf121a1e5","ios":"levelo://app?vid=8458a053-d906-4ecf-8852-a0caf121a1e5"},"vehicle_type_id":"4","last_reported":1740924487,"current_range_meters":14400,"station_id":"ce4bhmp2rcd13ifvqgog","pricing_plan_id":"cebpf4jnsgd1na2vs0mg"},{"bike_id":"09e7b03d-b6ce-4df7-9c5a-62e2d2054c70","system_id":"levelo_inurba_marseille","lat":43.30548,"lon":5.365325,"is_reserved":false,"is_disabled":false,"rental_uris":{"android":"levelo://app?vid=09e7b03d-b6ce-4df7-9c5a-62e2d2054c70","ios":"levelo://app?vid=09e7b03d-b6ce-4df7-9c5a-62e2d2054c70"},"vehicle_type_id":"4","last_reported":1740924487,"current_range_meters":14800,"station_id":"ce4bgs12rcd13ifvqcag","pricing_plan_id":"cebpf4jnsgd1na2vs0mg"},{"bike_id":"b18cd12d-f7f4-4fe1-aad8-800a36bfd2b5","system_id":"levelo_inurba_marseille","lat":43.30312,"lon":5.37696,"is_reserved":false,"is_disabled":false,"rental_uris":{"android":"levelo://app?vid=b18cd12d-f7f4-4fe1-aad8-800a36bfd2b5","ios":"levelo://app?vid=b18cd12d-f7f4-4fe1-aad8-800a36bfd2b5"},"vehicle_type_id":"4","last_reported":1740924487,"current_range_meters":14800,"station_id":"ce4bguh2rcd13ifvqcj0","pricing_plan_id":"cebpf4jnsgd1na2vs0mg"},{"bike_id":"00139f85-45a1-418c-8eae-e1db3d0d2be9","system_id":"levelo_inurba_marseille","lat":43.27383,"lon":5.36254,"is_reserved":false,"is_disabled":false,"rental_uris":{"android":"levelo://app?vid=00139f85-45a1-418c-8eae-e1db3d0d2be9","ios":"levelo://app?vid=00139f85-45a1-418c-8eae-e1db3d0d2be9"},"vehicle_type_id":"4","last_reported":1740924487,"current_range_meters":14800,"station_id":"ce4bhbh2rcd13ifvqeo0","pricing_plan_id":"cebpf4jnsgd1na2vs0mg"},{"bike_id":"7efe6955-d045-481a-9976-a44a8831deb0","system_id":"levelo_inurba_marseille","lat":43.27563,"lon":5.38397,"is_reserved":false,"is_disabled":false,"rental_uris":{"android":"levelo://app?vid=7efe6955-d045-481a-9976-a44a8831deb0","ios":"levelo://app?vid=7efe6955-d045-481a-9976-a44a8831deb0"},"vehicle_type_id":"4","last_reported":1740924487,"current_range_meters":14800,"station_id":"ce4bhh92rcd13ifvqfi0","pricing_plan_id":"cebpf4jnsgd1na2vs0mg"},{"bike_id":"cbc49db8-4cfb-45b9-8d87-9162bd6455fa","system_id":"levelo_inurba_marseille","lat":43.23962,"lon":5.36633,"is_reserved":false,"is_disabled":false,"rental_uris":{"android":"levelo://app?vid=cbc49db8-4cfb-45b9-8d87-9162bd6455fa","ios":"levelo://app?vid=cbc49db8-4cfb-45b9-8d87-9162bd6455fa"},"vehicle_type_id":"4","last_reported":1740924487,"current_range_meters":14800,"station_id":"ce4bhi12rcd13ifvqfp0","pricing_plan_id":"cebpf4jnsgd1na2vs0mg"},{"bike_id":"18ed809a-93be-4ceb-a90d-b4661309b51d","system_id":"levelo_inurba_marseille","lat":43.30941,"lon":5.37419,"is_reserved":false,"is_disabled":false,"rental_uris":{"android":"levelo://app?vid=18ed809a-93be-4ceb-a90d-b4661309b51d","ios":"levelo://app?vid=18ed809a-93be-4ceb-a90d-b4661309b51d"},"vehicle_type_id":"4","last_reported":1740924487,"current_range_meters":15200,"station_id":"","pricing_plan_id":"cebpf4jnsgd1na2vs0mg"},{"bike_id":"4b70a235-e3a4-4f17-9678-47d3a791bf95","system_id":"levelo_inurba_marseille","lat":43.297746,"lon":5.371006,"is_reserved":false,"is_disabled":false,"rental_uris":{"android":"levelo://app?vid=4b70a235-e3a4-4f17-9678-47d3a791bf95","ios":"levelo://app?vid=4b70a235-e3a4-4f17-9678-47d3a791bf95"},"vehicle_type_id":"4","last_reported":1740924487,"current_range_meters":15200,"station_id":"ce4bgop2rcd13ifvqc1g","pricing_plan_id":"cebpf4jnsgd1na2vs0mg"},{"bike_id":"c5ff3add-d726-45ce-bd86-fe19654eabcc","system_id":"levelo_inurba_marseille","lat":43.26207,"lon":5.37445,"is_reserved":false,"is_disabled":false,"rental_uris":{"android":"levelo://app?vid=c5ff3add-d726-45ce-bd86-fe19654eabcc","ios":"levelo://app?vid=c5ff3add-d726-45ce-bd86-fe19654eabcc"},"vehicle_type_id":"4","last_reported":1740924487,"current_range_meters":15200,"station_id":"ce4bhgp2rcd13ifvqfc0","pricing_plan_id":"cebpf4jnsgd1na2vs0mg"},{"bike_id":"59641082-9b64-4965-8eaa-ec5a7e85597a","system_id":"levelo_inurba_marseille","lat":43.26216,"lon":5.3744,"is_reserved":false,"is_disabled":false,"rental_uris":{"android":"levelo://app?vid=59641082-9b64-4965-8eaa-ec5a7e85597a","ios":"levelo://app?vid=59641082-9b64-4965-8eaa-ec5a7e85597a"},"vehicle_type_id":"4","last_reported":1740924487,"current_range_meters":15200,"station_id":"ce4bhgp2rcd13ifvqfc0","pricing_plan_id":"cebpf4jnsgd1na2vs0mg"},{"bike_id":"6f1186c5-b77d-4046-ba21-357f79448393","system_id":"levelo_inurba_marseille","lat":43.27317,"lon":5.39071,"is_reserved":false,"is_disabled":false,"rental_uris":{"android":"levelo://app?vid=6f1186c5-b77d-4046-ba21-357f79448393","ios":"levelo://app?vid=6f1186c5-b77d-4046-ba21-357f79448393"},"vehicle_type_id":"4","last_reported":1740924487,"current_range_meters":15200,"station_id":"ce4bhgp2rcd13ifvqfe0","pricing_plan_id":"cebpf4jnsgd1na2vs0mg"},{"bike_id":"bf0043f7-ed23-4ca7-ba9e-64da1b4276a4","system_id":"levelo_inurba_marseille","lat":43.2827,"lon":5.35061,"is_reserved":false,"is_disabled":false,"rental_uris":{"android":"levelo://app?vid=bf0043f7-ed23-4ca7-ba9e-64da1b4276a4","ios":"levelo://app?vid=bf0043f7-ed23-4ca7-ba9e-64da1b4276a4"},"vehicle_type_id":"4","last_reported":1740924487,"current_range_meters":16000,"station_id":"ce4bhbp2rcd13ifvqerg","pricing_plan_id":"cebpf4jnsgd1na2vs0mg"},{"bike_id":"fb3e2014-1721-49c8-b7c4-18987a8f6c21","system_id":"levelo_inurba_marseille","lat":43.26223,"lon":5.37449,"is_reserved":false,"is_disabled":false,"rental_uris":{"android":"levelo://app?vid=fb3e2014-1721-49c8-b7c4-18987a8f6c21","ios":"levelo://app?vid=fb3e2014-1721-49c8-b7c4-18987a8f6c21"},"vehicle_type_id":"4","last_reported":1740924487,"current_range_meters":16000,"station_id":"ce4bhgp2rcd13ifvqfc0","pricing_plan_id":"cebpf4jnsgd1na2vs0mg"},{"bike_id":"fb213a6c-c03c-4543-a737-2a9479c4c6a6","system_id":"levelo_inurba_marseille","lat":43.2705,"lon":5.40274,"is_reserved":false,"is_disabled":false,"rental_uris":{"android":"levelo://app?vid=fb213a6c-c03c-4543-a737-2a9479c4c6a6","ios":"levelo://app?vid=fb213a6c-c03c-4543-a737-2a9479c4c6a6"},"vehicle_type_id":"4","last_reported":1740924487,"current_range_meters":16000,"station_id":"ce4bhk92rcd13ifvqgc0","pricing_plan_id":"cebpf4jnsgd1na2vs0mg"},{"bike_id":"478c10ad-8744-45a3-9314-9a000a1d9b3c","system_id":"levelo_inurba_marseille","lat":43.25747,"lon":5.41088,"is_reserved":false,"is_disabled":false,"rental_uris":{"android":"levelo://app?vid=478c10ad-8744-45a3-9314-9a000a1d9b3c","ios":"levelo://app?vid=478c10ad-8744-45a3-9314-9a000a1d9b3c"},"vehicle_type_id":"4","last_reported":1740924487,"current_range_meters":16000,"station_id":"ce4bhkp2rcd13ifvqgd0","pricing_plan_id":"cebpf4jnsgd1na2vs0mg"},{"bike_id":"bc4280f5-b2fd-49da-a32f-2f559655c314","system_id":"levelo_inurba_marseille","lat":43.30409,"lon":5.41282,"is_reserved":false,"is_disabled":false,"rental_uris":{"android":"levelo://app?vid=bc4280f5-b2fd-49da-a32f-2f559655c314","ios":"levelo://app?vid=bc4280f5-b2fd-49da-a32f-2f559655c314"},"vehicle_type_id":"4","last_reported":1740924487,"current_range_meters":16000,"station_id":"ce4bhop2rcd13ifvqh8g","pricing_plan_id":"cebpf4jnsgd1na2vs0mg"},{"bike_id":"c5b35fc3-133b-4fcd-9bc1-000b1b46221f","system_id":"levelo_inurba_marseille","lat":43.24177,"lon":5.36396,"is_reserved":false,"is_disabled":false,"rental_uris":{"android":"levelo://app?vid=c5b35fc3-133b-4fcd-9bc1-000b1b46221f","ios":"levelo://app?vid=c5b35fc3-133b-4fcd-9bc1-000b1b46221f"},"vehicle_type_id":"4","last_reported":1740924487,"current_range_meters":16000,"station_id":"cpo36qri1sfpv3e86is0","pricing_plan_id":"cebpf4jnsgd1na2vs0mg"},{"bike_id":"d29e82e5-442b-4177-903e-3742ab7d0a8c","system_id":"levelo_inurba_marseille","lat":43.30041,"lon":5.37378,"is_reserved":false,"is_disabled":false,"rental_uris":{"android":"levelo://app?vid=d29e82e5-442b-4177-903e-3742ab7d0a8c","ios":"levelo://app?vid=d29e82e5-442b-4177-903e-3742ab7d0a8c"},"vehicle_type_id":"4","last_reported":1740924487,"current_range_meters":16400,"station_id":"","pricing_plan_id":"cebpf4jnsgd1na2vs0mg"},{"bike_id":"f5ace16b-5927-4aa3-a56f-a2f4b6f53741","system_id":"levelo_inurba_marseille","lat":43.337444,"lon":5.374475,"is_reserved":false,"is_disabled":false,"rental_uris":{"android":"levelo://app?vid=f5ace16b-5927-4aa3-a56f-a2f4b6f53741","ios":"levelo://app?vid=f5ace16b-5927-4aa3-a56f-a2f4b6f53741"},"vehicle_type_id":"4","last_reported":1740924487,"current_range_meters":16400,"station_id":"","pricing_plan_id":"cebpf4jnsgd1na2vs0mg"},{"bike_id":"cc836fe0-3cfd-4fe9-beb4-1fec15d76872","system_id":"levelo_inurba_marseille","lat":43.30427,"lon":5.37331,"is_reserved":false,"is_disabled":false,"rental_uris":{"android":"levelo://app?vid=cc836fe0-3cfd-4fe9-beb4-1fec15d76872","ios":"levelo://app?vid=cc836fe0-3cfd-4fe9-beb4-1fec15d76872"},"vehicle_type_id":"4","last_reported":1740924487,"current_range_meters":16400,"station_id":"","pricing_plan_id":"cebpf4jnsgd1na2vs0mg"},{"bike_id":"1fa52b7a-eca3-4b7d-952c-87e633f609f9","system_id":"levelo_inurba_marseille","lat":43.299683,"lon":5.371672,"is_reserved":false,"is_disabled":false,"rental_uris":{"android":"levelo://app?vid=1fa52b7a-eca3-4b7d-952c-87e633f609f9","ios":"levelo://app?vid=1fa52b7a-eca3-4b7d-952c-87e633f609f9"},"vehicle_type_id":"4","last_reported":1740924487,"current_range_meters":16400,"station_id":"ce4bgr92rcd13ifvqc7g","pricing_plan_id":"cebpf4jnsgd1na2vs0mg"},{"bike_id":"fc2925a3-dcf3-468e-8716-e7371a6f3fc3","system_id":"levelo_inurba_marseille","lat":43.28718,"lon":5.37941,"is_reserved":false,"is_disabled":false,"rental_uris":{"android":"levelo://app?vid=fc2925a3-dcf3-468e-8716-e7371a6f3fc3","ios":"levelo://app?vid=fc2925a3-dcf3-468e-8716-e7371a6f3fc3"},"vehicle_type_id":"4","last_reported":1740924487,"current_range_meters":16400,"station_id":"ce4bh9p2rcd13ifvqec0","pricing_plan_id":"cebpf4jnsgd1na2vs0mg"},{"bike_id":"7e6b71f3-10ef-4cca-a877-c7e90946667d","system_id":"levelo_inurba_marseille","lat":43.27357,"lon":5.36246,"is_reserved":false,"is_disabled":false,"rental_uris":{"android":"levelo://app?vid=7e6b71f3-10ef-4cca-a877-c7e90946667d","ios":"levelo://app?vid=7e6b71f3-10ef-4cca-a877-c7e90946667d"},"vehicle_type_id":"4","last_reported":1740924487,"current_range_meters":16400,"station_id":"ce4bhbh2rcd13ifvqeo0","pricing_plan_id":"cebpf4jnsgd1na2vs0mg"},{"bike_id":"630f30f2-b9f5-46fd-adef-d772ad5efaae","system_id":"levelo_inurba_marseille","lat":43.26206,"lon":5.37442,"is_reserved":false,"is_disabled":false,"rental_uris":{"android":"levelo://app?vid=630f30f2-b9f5-46fd-adef-d772ad5efaae","ios":"levelo://app?vid=630f30f2-b9f5-46fd-adef-d772ad5efaae"},"vehicle_type_id":"4","last_reported":1740924487,"current_range_meters":16400,"station_id":"ce4bhgp2rcd13ifvqfc0","pricing_plan_id":"cebpf4jnsgd1na2vs0mg"},{"bike_id":"35de5d9e-453d-4b6e-a49a-d72de279088a","system_id":"levelo_inurba_marseille","lat":43.26209,"lon":5.37436,"is_reserved":false,"is_disabled":false,"rental_uris":{"android":"levelo://app?vid=35de5d9e-453d-4b6e-a49a-d72de279088a","ios":"levelo://app?vid=35de5d9e-453d-4b6e-a49a-d72de279088a"},"vehicle_type_id":"4","last_reported":1740924487,"current_range_meters":16400,"station_id":"ce4bhgp2rcd13ifvqfc0","pricing_plan_id":"cebpf4jnsgd1na2vs0mg"},{"bike_id":"8c418afa-4a43-45d0-83c2-1c17c420fa81","system_id":"levelo_inurba_marseille","lat":43.26214,"lon":5.37434,"is_reserved":false,"is_disabled":false,"rental_uris":{"android":"levelo://app?vid=8c418afa-4a43-45d0-83c2-1c17c420fa81","ios":"levelo://app?vid=8c418afa-4a43-45d0-83c2-1c17c420fa81"},"vehicle_type_id":"4","last_reported":1740924487,"current_range_meters":16400,"station_id":"ce4bhgp2rcd13ifvqfc0","pricing_plan_id":"cebpf4jnsgd1na2vs0mg"},{"bike_id":"46b42730-9dd3-44c5-91a9-d6d931f385c3","system_id":"levelo_inurba_marseille","lat":43.25473,"lon":5.37633,"is_reserved":false,"is_disabled":false,"rental_uris":{"android":"levelo://app?vid=46b42730-9dd3-44c5-91a9-d6d931f385c3","ios":"levelo://app?vid=46b42730-9dd3-44c5-91a9-d6d931f385c3"},"vehicle_type_id":"4","last_reported":1740924487,"current_range_meters":16400,"station_id":"ce4bhh12rcd13ifvqff0","pricing_plan_id":"cebpf4jnsgd1na2vs0mg"},{"bike_id":"670122a3-157a-4ef1-82d1-a5574649dac0","system_id":"levelo_inurba_marseille","lat":43.23975,"lon":5.36616,"is_reserved":false,"is_disabled":false,"rental_uris":{"android":"levelo://app?vid=670122a3-157a-4ef1-82d1-a5574649dac0","ios":"levelo://app?vid=670122a3-157a-4ef1-82d1-a5574649dac0"},"vehicle_type_id":"4","last_reported":1740924487,"current_range_meters":16400,"station_id":"ce4bhi12rcd13ifvqfp0","pricing_plan_id":"cebpf4jnsgd1na2vs0mg"},{"bike_id":"982a6c2e-2f14-45e6-81c3-569abb57b097","system_id":"levelo_inurba_marseille","lat":43.23063,"lon":5.35493,"is_reserved":false,"is_disabled":false,"rental_uris":{"android":"levelo://app?vid=982a6c2e-2f14-45e6-81c3-569abb57b097","ios":"levelo://app?vid=982a6c2e-2f14-45e6-81c3-569abb57b097"},"vehicle_type_id":"4","last_reported":1740924487,"current_range_meters":16400,"station_id":"cpo3342slgdg3j2ifvpg","pricing_plan_id":"cebpf4jnsgd1na2vs0mg"},{"bike_id":"a31c1d2a-f82f-49f3-a02b-72326b291f47","system_id":"levelo_inurba_marseille","lat":43.22925,"lon":5.35374,"is_reserved":false,"is_disabled":false,"rental_uris":{"android":"levelo://app?vid=a31c1d2a-f82f-49f3-a02b-72326b291f47","ios":"levelo://app?vid=a31c1d2a-f82f-49f3-a02b-72326b291f47"},"vehicle_type_id":"4","last_reported":1740924487,"current_range_meters":16400,"station_id":"cpo3532slgdg3j2ikp40","pricing_plan_id":"cebpf4jnsgd1na2vs0mg"},{"bike_id":"625e7b30-fc68-485a-b217-7594904123b3","system_id":"levelo_inurba_marseille","lat":43.31221,"lon":5.36864,"is_reserved":false,"is_disabled":false,"rental_uris":{"android":"levelo://app?vid=625e7b30-fc68-485a-b217-7594904123b3","ios":"levelo://app?vid=625e7b30-fc68-485a-b217-7594904123b3"},"vehicle_type_id":"4","last_reported":1740924487,"current_range_meters":16800,"station_id":"ce4bgl92rcd13ifvqbq0","pricing_plan_id":"cebpf4jnsgd1na2vs0mg"},{"bike_id":"417fbd7d-d6d8-4c3a-98dd-ce0156edb9f1","system_id":"levelo_inurba_marseille","lat":43.2842,"lon":5.34987,"is_reserved":false,"is_disabled":false,"rental_uris":{"android":"levelo://app?vid=417fbd7d-d6d8-4c3a-98dd-ce0156edb9f1","ios":"levelo://app?vid=417fbd7d-d6d8-4c3a-98dd-ce0156edb9f1"},"vehicle_type_id":"4","last_reported":1740924487,"current_range_meters":16800,"station_id":"ce4bhbh2rcd13ifvqepg","pricing_plan_id":"cebpf4jnsgd1na2vs0mg"},{"bike_id":"3a391c63-e41e-4f8f-9e7e-c3dcb0081315","system_id":"levelo_inurba_marseille","lat":43.25485,"lon":5.37655,"is_reserved":false,"is_disabled":false,"rental_uris":{"android":"levelo://app?vid=3a391c63-e41e-4f8f-9e7e-c3dcb0081315","ios":"levelo://app?vid=3a391c63-e41e-4f8f-9e7e-c3dcb0081315"},"vehicle_type_id":"4","last_reported":1740924487,"current_range_meters":16800,"station_id":"ce4bhh12rcd13ifvqff0","pricing_plan_id":"cebpf4jnsgd1na2vs0mg"},{"bike_id":"84a21489-e7c4-40fb-8156-acb06b20eaff","system_id":"levelo_inurba_marseille","lat":43.23144,"lon":5.43695,"is_reserved":false,"is_disabled":false,"rental_uris":{"android":"levelo://app?vid=84a21489-e7c4-40fb-8156-acb06b20eaff","ios":"levelo://app?vid=84a21489-e7c4-40fb-8156-acb06b20eaff"},"vehicle_type_id":"4","last_reported":1740924487,"current_range_meters":16800,"station_id":"ce4bhmp2rcd13ifvqgog","pricing_plan_id":"cebpf4jnsgd1na2vs0mg"},{"bike_id":"803ced7a-60d3-4f68-a71d-19a5cba39b57","system_id":"levelo_inurba_marseille","lat":43.231556,"lon":5.437052,"is_reserved":false,"is_disabled":false,"rental_uris":{"android":"levelo://app?vid=803ced7a-60d3-4f68-a71d-19a5cba39b57","ios":"levelo://app?vid=803ced7a-60d3-4f68-a71d-19a5cba39b57"},"vehicle_type_id":"4","last_reported":1740924487,"current_range_meters":16800,"station_id":"ce4bhmp2rcd13ifvqgog","pricing_plan_id":"cebpf4jnsgd1na2vs0mg"},{"bike_id":"0b85d778-5f42-41f6-99e6-93c2062ce94d","system_id":"levelo_inurba_marseille","lat":43.31703,"lon":5.43703,"is_reserved":false,"is_disabled":false,"rental_uris":{"android":"levelo://app?vid=0b85d778-5f42-41f6-99e6-93c2062ce94d","ios":"levelo://app?vid=0b85d778-5f42-41f6-99e6-93c2062ce94d"},"vehicle_type_id":"4","last_reported":1740924487,"current_range_meters":16800,"station_id":"ce4bhp92rcd13ifvqhcg","pricing_plan_id":"cebpf4jnsgd1na2vs0mg"},{"bike_id":"a0203017-7af2-42d1-8cbe-20465dd07b9e","system_id":"levelo_inurba_marseille","lat":43.31743,"lon":5.40397,"is_reserved":false,"is_disabled":false,"rental_uris":{"android":"levelo://app?vid=a0203017-7af2-42d1-8cbe-20465dd07b9e","ios":"levelo://app?vid=a0203017-7af2-42d1-8cbe-20465dd07b9e"},"vehicle_type_id":"4","last_reported":1740924487,"current_range_meters":17200,"station_id":"","pricing_plan_id":"cebpf4jnsgd1na2vs0mg"},{"bike_id":"f011fef8-10a7-452c-846d-3356f317967a","system_id":"levelo_inurba_marseille","lat":43.26555,"lon":5.37285,"is_reserved":false,"is_disabled":false,"rental_uris":{"android":"levelo://app?vid=f011fef8-10a7-452c-846d-3356f317967a","ios":"levelo://app?vid=f011fef8-10a7-452c-846d-3356f317967a"},"vehicle_type_id":"4","last_reported":1740924487,"current_range_meters":17200,"station_id":"ce4bhg12rcd13ifvqf70","pricing_plan_id":"cebpf4jnsgd1na2vs0mg"},{"bike_id":"6426a49a-e9ad-47c1-a341-973d5fe4b781","system_id":"levelo_inurba_marseille","lat":43.24807,"lon":5.37455,"is_reserved":false,"is_disabled":false,"rental_uris":{"android":"levelo://app?vid=6426a49a-e9ad-47c1-a341-973d5fe4b781","ios":"levelo://app?vid=6426a49a-e9ad-47c1-a341-973d5fe4b781"},"vehicle_type_id":"4","last_reported":1740924487,"current_range_meters":17200,"station_id":"ce4bhgh2rcd13ifvqfb0","pricing_plan_id":"cebpf4jnsgd1na2vs0mg"},{"bike_id":"ee349180-29eb-4150-b964-ab00756ef8c3","system_id":"levelo_inurba_marseille","lat":43.27565,"lon":5.3841,"is_reserved":false,"is_disabled":false,"rental_uris":{"android":"levelo://app?vid=ee349180-29eb-4150-b964-ab00756ef8c3","ios":"levelo://app?vid=ee349180-29eb-4150-b964-ab00756ef8c3"},"vehicle_type_id":"4","last_reported":1740924487,"current_range_meters":17200,"station_id":"ce4bhh92rcd13ifvqfi0","pricing_plan_id":"cebpf4jnsgd1na2vs0mg"},{"bike_id":"c2297c59-6090-49d7-9338-d688b3ca1276","system_id":"levelo_inurba_marseille","lat":43.22936,"lon":5.35377,"is_reserved":false,"is_disabled":false,"rental_uris":{"android":"levelo://app?vid=c2297c59-6090-49d7-9338-d688b3ca1276","ios":"levelo://app?vid=c2297c59-6090-49d7-9338-d688b3ca1276"},"vehicle_type_id":"4","last_reported":1740924487,"current_range_meters":17200,"station_id":"cpo3532slgdg3j2ikp40","pricing_plan_id":"cebpf4jnsgd1na2vs0mg"},{"bike_id":"df09361b-aeb4-4df1-9b27-6cb636bc8169","system_id":"levelo_inurba_marseille","lat":43.26209,"lon":5.3744,"is_reserved":false,"is_disabled":false,"rental_uris":{"android":"levelo://app?vid=df09361b-aeb4-4df1-9b27-6cb636bc8169","ios":"levelo://app?vid=df09361b-aeb4-4df1-9b27-6cb636bc8169"},"vehicle_type_id":"4","last_reported":1740924487,"current_range_meters":17600,"station_id":"ce4bhgp2rcd13ifvqfc0","pricing_plan_id":"cebpf4jnsgd1na2vs0mg"},{"bike_id":"32fae168-5de4-475a-bd55-4a77931437e4","system_id":"levelo_inurba_marseille","lat":43.24551,"lon":5.39508,"is_reserved":false,"is_disabled":false,"rental_uris":{"android":"levelo://app?vid=32fae168-5de4-475a-bd55-4a77931437e4","ios":"levelo://app?vid=32fae168-5de4-475a-bd55-4a77931437e4"},"vehicle_type_id":"4","last_reported":1740924487,"current_range_meters":17600,"station_id":"ce4bhlp2rcd13ifvqgjg","pricing_plan_id":"cebpf4jnsgd1na2vs0mg"},{"bike_id":"ab34b05a-3e12-4f6f-983f-007358280f71","system_id":"levelo_inurba_marseille","lat":43.29899,"lon":5.43666,"is_reserved":false,"is_disabled":false,"rental_uris":{"android":"levelo://app?vid=ab34b05a-3e12-4f6f-983f-007358280f71","ios":"levelo://app?vid=ab34b05a-3e12-4f6f-983f-007358280f71"},"vehicle_type_id":"4","last_reported":1740924487,"current_range_meters":17600,"station_id":"ce4bhpp2rcd13ifvqhfg","pricing_plan_id":"cebpf4jnsgd1na2vs0mg"},{"bike_id":"83bf10a6-fe49-41be-bada-3c7a1d60f118","system_id":"levelo_inurba_marseille","lat":43.2319,"lon":5.35555,"is_reserved":false,"is_disabled":false,"rental_uris":{"android":"levelo://app?vid=83bf10a6-fe49-41be-bada-3c7a1d60f118","ios":"levelo://app?vid=83bf10a6-fe49-41be-bada-3c7a1d60f118"},"vehicle_type_id":"4","last_reported":1740924487,"current_range_meters":17600,"station_id":"ce4bhu92rcd13ifvqi70","pricing_plan_id":"cebpf4jnsgd1na2vs0mg"},{"bike_id":"453068aa-c17d-43bf-9cdd-03e2ddd93a1e","system_id":"levelo_inurba_marseille","lat":43.308935,"lon":5.368535,"is_reserved":false,"is_disabled":false,"rental_uris":{"android":"levelo://app?vid=453068aa-c17d-43bf-9cdd-03e2ddd93a1e","ios":"levelo://app?vid=453068aa-c17d-43bf-9cdd-03e2ddd93a1e"},"vehicle_type_id":"4","last_reported":1740924487,"current_range_meters":18000,"station_id":"ce4bgn92rcd13ifvqbvg","pricing_plan_id":"cebpf4jnsgd1na2vs0mg"},{"bike_id":"5538fc93-5247-46d5-86c2-ed94fd5e88c7","system_id":"levelo_inurba_marseille","lat":43.2901,"lon":5.35609,"is_reserved":false,"is_disabled":false,"rental_uris":{"android":"levelo://app?vid=5538fc93-5247-46d5-86c2-ed94fd5e88c7","ios":"levelo://app?vid=5538fc93-5247-46d5-86c2-ed94fd5e88c7"},"vehicle_type_id":"4","last_reported":1740924487,"current_range_meters":18000,"station_id":"ce4bhb92rcd13ifvqen0","pricing_plan_id":"cebpf4jnsgd1na2vs0mg"},{"bike_id":"beea3ce4-8530-4143-9ef0-a957ab4c4837","system_id":"levelo_inurba_marseille","lat":43.29006,"lon":5.35611,"is_reserved":false,"is_disabled":false,"rental_uris":{"android":"levelo://app?vid=beea3ce4-8530-4143-9ef0-a957ab4c4837","ios":"levelo://app?vid=beea3ce4-8530-4143-9ef0-a957ab4c4837"},"vehicle_type_id":"4","last_reported":1740924487,"current_range_meters":18000,"station_id":"ce4bhb92rcd13ifvqen0","pricing_plan_id":"cebpf4jnsgd1na2vs0mg"},{"bike_id":"ab3cdf46-9068-40d7-8549-0df1260012c9","system_id":"levelo_inurba_marseille","lat":43.27377,"lon":5.36271,"is_reserved":false,"is_disabled":false,"rental_uris":{"android":"levelo://app?vid=ab3cdf46-9068-40d7-8549-0df1260012c9","ios":"levelo://app?vid=ab3cdf46-9068-40d7-8549-0df1260012c9"},"vehicle_type_id":"4","last_reported":1740924487,"current_range_meters":18000,"station_id":"ce4bhbh2rcd13ifvqeo0","pricing_plan_id":"cebpf4jnsgd1na2vs0mg"},{"bike_id":"695b2c5d-c6f6-4099-b908-53e2df7809fc","system_id":"levelo_inurba_marseille","lat":43.28419,"lon":5.34982,"is_reserved":false,"is_disabled":false,"rental_uris":{"android":"levelo://app?vid=695b2c5d-c6f6-4099-b908-53e2df7809fc","ios":"levelo://app?vid=695b2c5d-c6f6-4099-b908-53e2df7809fc"},"vehicle_type_id":"4","last_reported":1740924487,"current_range_meters":18000,"station_id":"ce4bhbh2rcd13ifvqepg","pricing_plan_id":"cebpf4jnsgd1na2vs0mg"},{"bike_id":"eb5d9bae-61e9-40c0-9bed-5bb20f6ccc63","system_id":"levelo_inurba_marseille","lat":43.26232,"lon":5.37424,"is_reserved":false,"is_disabled":false,"rental_uris":{"android":"levelo://app?vid=eb5d9bae-61e9-40c0-9bed-5bb20f6ccc63","ios":"levelo://app?vid=eb5d9bae-61e9-40c0-9bed-5bb20f6ccc63"},"vehicle_type_id":"4","last_reported":1740924487,"current_range_meters":18000,"station_id":"ce4bhgp2rcd13ifvqfc0","pricing_plan_id":"cebpf4jnsgd1na2vs0mg"},{"bike_id":"fd026f78-e8fb-4aac-af3c-9bfc00762093","system_id":"levelo_inurba_marseille","lat":43.24663,"lon":5.38164,"is_reserved":false,"is_disabled":false,"rental_uris":{"android":"levelo://app?vid=fd026f78-e8fb-4aac-af3c-9bfc00762093","ios":"levelo://app?vid=fd026f78-e8fb-4aac-af3c-9bfc00762093"},"vehicle_type_id":"4","last_reported":1740924487,"current_range_meters":18000,"station_id":"ce4bhih2rcd13ifvqfr0","pricing_plan_id":"cebpf4jnsgd1na2vs0mg"},{"bike_id":"6f9f3f95-0161-4973-849a-64e64d8388fc","system_id":"levelo_inurba_marseille","lat":43.23199,"lon":5.35562,"is_reserved":false,"is_disabled":false,"rental_uris":{"android":"levelo://app?vid=6f9f3f95-0161-4973-849a-64e64d8388fc","ios":"levelo://app?vid=6f9f3f95-0161-4973-849a-64e64d8388fc"},"vehicle_type_id":"4","last_reported":1740924487,"current_range_meters":18000,"station_id":"ce4bhu92rcd13ifvqi70","pricing_plan_id":"cebpf4jnsgd1na2vs0mg"},{"bike_id":"76f0ecc2-74d2-4458-9089-c4bdf8553e65","system_id":"levelo_inurba_marseille","lat":43.27238,"lon":5.41784,"is_reserved":false,"is_disabled":false,"rental_uris":{"android":"levelo://app?vid=76f0ecc2-74d2-4458-9089-c4bdf8553e65","ios":"levelo://app?vid=76f0ecc2-74d2-4458-9089-c4bdf8553e65"},"vehicle_type_id":"4","last_reported":1740924487,"current_range_meters":18800,"station_id":"","pricing_plan_id":"cebpf4jnsgd1na2vs0mg"},{"bike_id":"faf5f2e8-b3d7-433c-a40e-2463b51615b1","system_id":"levelo_inurba_marseille","lat":43.28107,"lon":5.37831,"is_reserved":false,"is_disabled":false,"rental_uris":{"android":"levelo://app?vid=faf5f2e8-b3d7-433c-a40e-2463b51615b1","ios":"levelo://app?vid=faf5f2e8-b3d7-433c-a40e-2463b51615b1"},"vehicle_type_id":"4","last_reported":1740924487,"current_range_meters":18800,"station_id":"ce4bha12rcd13ifvqee0","pricing_plan_id":"cebpf4jnsgd1na2vs0mg"},{"bike_id":"d1c0e715-6329-4d33-8e66-23065f23123c","system_id":"levelo_inurba_marseille","lat":43.28415,"lon":5.34976,"is_reserved":false,"is_disabled":false,"rental_uris":{"android":"levelo://app?vid=d1c0e715-6329-4d33-8e66-23065f23123c","ios":"levelo://app?vid=d1c0e715-6329-4d33-8e66-23065f23123c"},"vehicle_type_id":"4","last_reported":1740924487,"current_range_meters":18800,"station_id":"ce4bhbh2rcd13ifvqepg","pricing_plan_id":"cebpf4jnsgd1na2vs0mg"},{"bike_id":"2d92b9c5-d3a5-4f07-9c56-c3245dba2d90","system_id":"levelo_inurba_marseille","lat":43.28268,"lon":5.35067,"is_reserved":false,"is_disabled":false,"rental_uris":{"android":"levelo://app?vid=2d92b9c5-d3a5-4f07-9c56-c3245dba2d90","ios":"levelo://app?vid=2d92b9c5-d3a5-4f07-9c56-c3245dba2d90"},"vehicle_type_id":"4","last_reported":1740924487,"current_range_meters":18800,"station_id":"ce4bhbp2rcd13ifvqerg","pricing_plan_id":"cebpf4jnsgd1na2vs0mg"},{"bike_id":"51453599-2f62-4fac-9d57-fe8e056e3cd4","system_id":"levelo_inurba_marseille","lat":43.23958,"lon":5.36631,"is_reserved":false,"is_disabled":false,"rental_uris":{"android":"levelo://app?vid=51453599-2f62-4fac-9d57-fe8e056e3cd4","ios":"levelo://app?vid=51453599-2f62-4fac-9d57-fe8e056e3cd4"},"vehicle_type_id":"4","last_reported":1740924487,"current_range_meters":18800,"station_id":"ce4bhi12rcd13ifvqfp0","pricing_plan_id":"cebpf4jnsgd1na2vs0mg"},{"bike_id":"b9519b76-44b7-4b2a-8116-cf6f7949d079","system_id":"levelo_inurba_marseille","lat":43.2319,"lon":5.39994,"is_reserved":false,"is_disabled":false,"rental_uris":{"android":"levelo://app?vid=b9519b76-44b7-4b2a-8116-cf6f7949d079","ios":"levelo://app?vid=b9519b76-44b7-4b2a-8116-cf6f7949d079"},"vehicle_type_id":"4","last_reported":1740924487,"current_range_meters":18800,"station_id":"ce4bhn12rcd13ifvqgqg","pricing_plan_id":"cebpf4jnsgd1na2vs0mg"},{"bike_id":"b66d4e9e-4be4-4262-bf2f-e6d1cbff9499","system_id":"levelo_inurba_marseille","lat":43.23176,"lon":5.40003,"is_reserved":false,"is_disabled":false,"rental_uris":{"android":"levelo://app?vid=b66d4e9e-4be4-4262-bf2f-e6d1cbff9499","ios":"levelo://app?vid=b66d4e9e-4be4-4262-bf2f-e6d1cbff9499"},"vehicle_type_id":"4","last_reported":1740924487,"current_range_meters":18800,"station_id":"ce4bhn12rcd13ifvqgqg","pricing_plan_id":"cebpf4jnsgd1na2vs0mg"},{"bike_id":"619b2925-dbb3-48e7-90c5-93b3a6d675f9","system_id":"levelo_inurba_marseille","lat":43.23192,"lon":5.35556,"is_reserved":false,"is_disabled":false,"rental_uris":{"android":"levelo://app?vid=619b2925-dbb3-48e7-90c5-93b3a6d675f9","ios":"levelo://app?vid=619b2925-dbb3-48e7-90c5-93b3a6d675f9"},"vehicle_type_id":"4","last_reported":1740924487,"current_range_meters":18800,"station_id":"ce4bhu92rcd13ifvqi70","pricing_plan_id":"cebpf4jnsgd1na2vs0mg"},{"bike_id":"76394e5b-b5d3-409a-954a-e09b2559a295","system_id":"levelo_inurba_marseille","lat":43.23195,"lon":5.35549,"is_reserved":false,"is_disabled":false,"rental_uris":{"android":"levelo://app?vid=76394e5b-b5d3-409a-954a-e09b2559a295","ios":"levelo://app?vid=76394e5b-b5d3-409a-954a-e09b2559a295"},"vehicle_type_id":"4","last_reported":1740924487,"current_range_meters":18800,"station_id":"ce4bhu92rcd13ifvqi70","pricing_plan_id":"cebpf4jnsgd1na2vs0mg"},{"bike_id":"cf817c6e-dbb8-468f-90aa-3f0f78ebb8ff","system_id":"levelo_inurba_marseille","lat":43.23062,"lon":5.35493,"is_reserved":false,"is_disabled":false,"rental_uris":{"android":"levelo://app?vid=cf817c6e-dbb8-468f-90aa-3f0f78ebb8ff","ios":"levelo://app?vid=cf817c6e-dbb8-468f-90aa-3f0f78ebb8ff"},"vehicle_type_id":"4","last_reported":1740924487,"current_range_meters":18800,"station_id":"cpo3342slgdg3j2ifvpg","pricing_plan_id":"cebpf4jnsgd1na2vs0mg"},{"bike_id":"a3607db7-1b41-4090-97c0-c225cbe86d56","system_id":"levelo_inurba_marseille","lat":43.22929,"lon":5.35375,"is_reserved":false,"is_disabled":false,"rental_uris":{"android":"levelo://app?vid=a3607db7-1b41-4090-97c0-c225cbe86d56","ios":"levelo://app?vid=a3607db7-1b41-4090-97c0-c225cbe86d56"},"vehicle_type_id":"4","last_reported":1740924487,"current_range_meters":18800,"station_id":"cpo3532slgdg3j2ikp40","pricing_plan_id":"cebpf4jnsgd1na2vs0mg"},{"bike_id":"ee64b076-db53-4a07-8a61-f790fb3d7f18","system_id":"levelo_inurba_marseille","lat":43.29598,"lon":5.37335,"is_reserved":false,"is_disabled":false,"rental_uris":{"android":"levelo://app?vid=ee64b076-db53-4a07-8a61-f790fb3d7f18","ios":"levelo://app?vid=ee64b076-db53-4a07-8a61-f790fb3d7f18"},"vehicle_type_id":"4","last_reported":1740924487,"current_range_meters":19200,"station_id":"","pricing_plan_id":"cebpf4jnsgd1na2vs0mg"},{"bike_id":"883f1bcf-7057-44e4-93ee-1715c3521e37","system_id":"levelo_inurba_marseille","lat":43.28417,"lon":5.34982,"is_reserved":false,"is_disabled":false,"rental_uris":{"android":"levelo://app?vid=883f1bcf-7057-44e4-93ee-1715c3521e37","ios":"levelo://app?vid=883f1bcf-7057-44e4-93ee-1715c3521e37"},"vehicle_type_id":"4","last_reported":1740924487,"current_range_meters":19200,"station_id":"ce4bhbh2rcd13ifvqepg","pricing_plan_id":"cebpf4jnsgd1na2vs0mg"},{"bike_id":"360cb8fb-ae2d-4942-a777-0b20fe1843ea","system_id":"levelo_inurba_marseille","lat":43.265589,"lon":5.372907,"is_reserved":false,"is_disabled":false,"rental_uris":{"android":"levelo://app?vid=360cb8fb-ae2d-4942-a777-0b20fe1843ea","ios":"levelo://app?vid=360cb8fb-ae2d-4942-a777-0b20fe1843ea"},"vehicle_type_id":"4","last_reported":1740924487,"current_range_meters":19200,"station_id":"ce4bhg12rcd13ifvqf70","pricing_plan_id":"cebpf4jnsgd1na2vs0mg"},{"bike_id":"a4bd3ee5-9c57-4240-801e-19f5571ebe94","system_id":"levelo_inurba_marseille","lat":43.2622,"lon":5.37446,"is_reserved":false,"is_disabled":false,"rental_uris":{"android":"levelo://app?vid=a4bd3ee5-9c57-4240-801e-19f5571ebe94","ios":"levelo://app?vid=a4bd3ee5-9c57-4240-801e-19f5571ebe94"},"vehicle_type_id":"4","last_reported":1740924487,"current_range_meters":19200,"station_id":"ce4bhgp2rcd13ifvqfc0","pricing_plan_id":"cebpf4jnsgd1na2vs0mg"},{"bike_id":"19927be9-86ed-42b7-8daf-44a101a71b64","system_id":"levelo_inurba_marseille","lat":43.255,"lon":5.37638,"is_reserved":false,"is_disabled":false,"rental_uris":{"android":"levelo://app?vid=19927be9-86ed-42b7-8daf-44a101a71b64","ios":"levelo://app?vid=19927be9-86ed-42b7-8daf-44a101a71b64"},"vehicle_type_id":"4","last_reported":1740924487,"current_range_meters":19200,"station_id":"ce4bhh12rcd13ifvqff0","pricing_plan_id":"cebpf4jnsgd1na2vs0mg"},{"bike_id":"7d92c535-00c0-470f-ab12-13f6aa1b8ba2","system_id":"levelo_inurba_marseille","lat":43.26785,"lon":5.39413,"is_reserved":false,"is_disabled":false,"rental_uris":{"android":"levelo://app?vid=7d92c535-00c0-470f-ab12-13f6aa1b8ba2","ios":"levelo://app?vid=7d92c535-00c0-470f-ab12-13f6aa1b8ba2"},"vehicle_type_id":"4","last_reported":1740924487,"current_range_meters":19200,"station_id":"ce4bhh12rcd13ifvqfg0","pricing_plan_id":"cebpf4jnsgd1na2vs0mg"},{"bike_id":"2cf9581d-7963-40b3-89ed-e3cb8b93da63","system_id":"levelo_inurba_marseille","lat":43.22928,"lon":5.35375,"is_reserved":false,"is_disabled":false,"rental_uris":{"android":"levelo://app?vid=2cf9581d-7963-40b3-89ed-e3cb8b93da63","ios":"levelo://app?vid=2cf9581d-7963-40b3-89ed-e3cb8b93da63"},"vehicle_type_id":"4","last_reported":1740924487,"current_range_meters":19200,"station_id":"cpo3532slgdg3j2ikp40","pricing_plan_id":"cebpf4jnsgd1na2vs0mg"},{"bike_id":"7e606714-9bcf-4b58-b937-59d3662d141b","system_id":"levelo_inurba_marseille","lat":43.29306,"lon":5.37467,"is_reserved":false,"is_disabled":false,"rental_uris":{"android":"levelo://app?vid=7e606714-9bcf-4b58-b937-59d3662d141b","ios":"levelo://app?vid=7e606714-9bcf-4b58-b937-59d3662d141b"},"vehicle_type_id":"4","last_reported":1740924487,"current_range_meters":19600,"station_id":"ce4bgi12rcd13ifvqb70","pricing_plan_id":"cebpf4jnsgd1na2vs0mg"},{"bike_id":"8dd3f31e-920c-44d8-8a25-efe0f15420d7","system_id":"levelo_inurba_marseille","lat":43.29008,"lon":5.3562,"is_reserved":false,"is_disabled":false,"rental_uris":{"android":"levelo://app?vid=8dd3f31e-920c-44d8-8a25-efe0f15420d7","ios":"levelo://app?vid=8dd3f31e-920c-44d8-8a25-efe0f15420d7"},"vehicle_type_id":"4","last_reported":1740924487,"current_range_meters":19600,"station_id":"ce4bhb92rcd13ifvqen0","pricing_plan_id":"cebpf4jnsgd1na2vs0mg"},{"bike_id":"ed2d6e88-3069-43d5-a2c5-099c1a85fe90","system_id":"levelo_inurba_marseille","lat":43.27377,"lon":5.36256,"is_reserved":false,"is_disabled":false,"rental_uris":{"android":"levelo://app?vid=ed2d6e88-3069-43d5-a2c5-099c1a85fe90","ios":"levelo://app?vid=ed2d6e88-3069-43d5-a2c5-099c1a85fe90"},"vehicle_type_id":"4","last_reported":1740924487,"current_range_meters":19600,"station_id":"ce4bhbh2rcd13ifvqeo0","pricing_plan_id":"cebpf4jnsgd1na2vs0mg"},{"bike_id":"ff027643-889a-494e-a23c-f267fbc8fe26","system_id":"levelo_inurba_marseille","lat":43.28261,"lon":5.35071,"is_reserved":false,"is_disabled":false,"rental_uris":{"android":"levelo://app?vid=ff027643-889a-494e-a23c-f267fbc8fe26","ios":"levelo://app?vid=ff027643-889a-494e-a23c-f267fbc8fe26"},"vehicle_type_id":"4","last_reported":1740924487,"current_range_meters":19600,"station_id":"ce4bhbp2rcd13ifvqerg","pricing_plan_id":"cebpf4jnsgd1na2vs0mg"},{"bike_id":"123d5adf-8e93-46cc-93b8-80cd2a012f7c","system_id":"levelo_inurba_marseille","lat":43.27075,"lon":5.42268,"is_reserved":false,"is_disabled":false,"rental_uris":{"android":"levelo://app?vid=123d5adf-8e93-46cc-93b8-80cd2a012f7c","ios":"levelo://app?vid=123d5adf-8e93-46cc-93b8-80cd2a012f7c"},"vehicle_type_id":"4","last_reported":1740924487,"current_range_meters":19600,"station_id":"ce4bhk92rcd13ifvqgb0","pricing_plan_id":"cebpf4jnsgd1na2vs0mg"},{"bike_id":"f04c35ef-f9f2-4c37-ab3b-694d67f2ddba","system_id":"levelo_inurba_marseille","lat":43.25726,"lon":5.41107,"is_reserved":false,"is_disabled":false,"rental_uris":{"android":"levelo://app?vid=f04c35ef-f9f2-4c37-ab3b-694d67f2ddba","ios":"levelo://app?vid=f04c35ef-f9f2-4c37-ab3b-694d67f2ddba"},"vehicle_type_id":"4","last_reported":1740924487,"current_range_meters":19600,"station_id":"ce4bhkp2rcd13ifvqgd0","pricing_plan_id":"cebpf4jnsgd1na2vs0mg"},{"bike_id":"81389cd8-51fb-45ff-ad9c-7bca8b462d46","system_id":"levelo_inurba_marseille","lat":43.25911,"lon":5.4087,"is_reserved":false,"is_disabled":false,"rental_uris":{"android":"levelo://app?vid=81389cd8-51fb-45ff-ad9c-7bca8b462d46","ios":"levelo://app?vid=81389cd8-51fb-45ff-ad9c-7bca8b462d46"},"vehicle_type_id":"4","last_reported":1740924487,"current_range_meters":19600,"station_id":"ce4bhm92rcd13ifvqglg","pricing_plan_id":"cebpf4jnsgd1na2vs0mg"},{"bike_id":"b28485f4-de04-4b86-8d47-6740f57eb4e1","system_id":"levelo_inurba_marseille","lat":43.23156,"lon":5.43711,"is_reserved":false,"is_disabled":false,"rental_uris":{"android":"levelo://app?vid=b28485f4-de04-4b86-8d47-6740f57eb4e1","ios":"levelo://app?vid=b28485f4-de04-4b86-8d47-6740f57eb4e1"},"vehicle_type_id":"4","last_reported":1740924487,"current_range_meters":19600,"station_id":"ce4bhmp2rcd13ifvqgog","pricing_plan_id":"cebpf4jnsgd1na2vs0mg"},{"bike_id":"eb3dac2a-ddc4-44d0-954a-687d2d7a0cea","system_id":"levelo_inurba_marseille","lat":43.23054,"lon":5.35503,"is_reserved":false,"is_disabled":false,"rental_uris":{"android":"levelo://app?vid=eb3dac2a-ddc4-44d0-954a-687d2d7a0cea","ios":"levelo://app?vid=eb3dac2a-ddc4-44d0-954a-687d2d7a0cea"},"vehicle_type_id":"4","last_reported":1740924487,"current_range_meters":19600,"station_id":"cpo3342slgdg3j2ifvpg","pricing_plan_id":"cebpf4jnsgd1na2vs0mg"},