{"last_updated":1683486291,"ttl":30,"version":"2.2","data":{"bikes":[{"bike_id":"c565d2b7-ebbb-4419-8691-7c89b87595dd","system_id":"levelo_inurba_marseille","lat":43.31227,"lon":5.36862,"is_reserved":false,"is_disabled":false,"rental_uris":{"android":"levelo://app?vid=c565d2b7-ebbb-4419-8691-7c89b87595dd","ios":"levelo://app?vid=c565d2b7-ebbb-4419-8691-7c89b87595dd"},"vehicle_type_id":"4","last_reported":1683486292,"current_range_meters":26400,"station_id":"ce4bgl92rcd13ifvqbq0","pricing_plan_id":"free"},{"bike_id":"e8ac7aec-4300-407a-a841-894ee4b1dfed","system_id":"levelo_inurba_marseille","lat":43.312239,"lon":5.368562,"is_reserved":false,"is_disabled":false,"rental_uris":{"android":"levelo://app?vid=e8ac7aec-4300-407a-a841-894ee4b1dfed","ios":"levelo://app?vid=e8ac7aec-4300-407a-a841-894ee4b1dfed"},"vehicle_type_id":"4","last_reported":1683486292,"current_range_meters":6400,"station_id":"ce4bgl92rcd13ifvqbq0","pricing_plan_id":"free"},{"bike_id":"2d4f3c52-aec3-4553-a6bf-0ee0a29f2954","system_id":"levelo_inurba_marseille","lat":43.312239,"lon":5.368562,"is_reserved":false,"is_disabled":false,"rental_uris":{"android":"levelo://app?vid=2d4f3c52-aec3-4553-a6bf-0ee0a29f2954","ios":"levelo://app?vid=2d4f3c52-aec3-4553-a6bf-0ee0a29f2954"},"vehicle_type_id":"4","last_reported":1683486292,"current_range_meters":0,"station_id":"ce4bgl92rcd13ifvqbq0","pricing_plan_id":"free"},{"bike_id":"3acc5c25-ab48-4d0c-b41e-165b1ec4d97e","system_id":"levelo_inurba_marseille","lat":43.309076,"lon":5.368465,"is_reserved":false,"is_disabled":false,"rental_uris":{"android":"levelo://app?vid=3acc5c25-ab48-4d0c-b41e-165b1ec4d97e","ios":"levelo://app?vid=3acc5c25-ab48-4d0c-b41e-165b1ec4d97e"},"vehicle_type_id":"4","last_reported":1683486292,"current_range_meters":15200,"station_id":"ce4bgn92rcd13ifvqbvg","pricing_plan_id":"free"},{"bike_id":"f03d2b64-acc7-44cb-94a9-b7ce33dc3cc8","system_id":"levelo_inurba_marseille","lat":43.309076,"lon":5.368465,"is_reserved":false,"is_disabled":false,"rental_uris":{"android":"levelo://app?vid=f03d2b64-acc7-44cb-94a9-b7ce33dc3cc8","ios":"levelo://app?vid=f03d2b64-acc7-44cb-94a9-b7ce33dc3cc8"},"vehicle_type_id":"4","last_reported":1683486292,"current_range_meters":0,"station_id":"ce4bgn92rcd13ifvqbvg","pricing_plan_id":"free"},{"bike_id":"9b2f42b3-a9c4-470b-92a6-1bfcb2134f65","system_id":"levelo_inurba_marseille","lat":43.309076,"lon":5.368465,"is_reserved":false,"is_disabled":false,"rental_uris":{"android":"levelo://app?vid=9b2f42b3-a9c4-470b-92a6-1bfcb2134f65","ios":"levelo://app?vid=9b2f42b3-a9c4-470b-92a6-1bfcb2134f65"},"vehicle_type_id":"4","last_reported":1683486292,"current_range_meters":6800,"station_id":"ce4bgn92rcd13ifvqbvg","pricing_plan_id":"free"},{"bike_id":"abca54b5-a432-4a08-9641-be40d8713725","system_id":"levelo_inurba_marseille","lat":43.314811,"lon":5.373103,"is_reserved":false,"is_disabled":false,"rental_uris":{"android":"levelo://app?vid=abca54b5-a432-4a08-9641-be40d8713725","ios":"levelo://app?vid=abca54b5-a432-4a08-9641-be40d8713725"},"vehicle_type_id":"4","last_reported":1683486292,"current_range_meters":2400,"station_id":"ce4bgt12rcd13ifvqcd0","pricing_plan_id":"free"},{"bike_id":"b26865df-cfb3-4717-b6d2-34de1182e49d","system_id":"levelo_inurba_marseille","lat":43.31498,"lon":5.37303,"is_reserved":false,"is_disabled":false,"rental_uris":{"android":"levelo://app?vid=b26865df-cfb3-4717-b6d2-34de1182e49d","ios":"levelo://app?vid=b26865df-cfb3-4717-b6d2-34de1182e49d"},"vehicle_type_id":"4","last_reported":1683486292,"current_range_meters":0,"station_id":"ce4bgt12rcd13ifvqcd0","pricing_plan_id":"free"},{"bike_id":"9f8717aa-d219-483f-9ead-ed3b5b62758e","system_id":"levelo_inurba_marseille","lat":43.31506,"lon":5.37314,"is_reserved":false,"is_disabled":false,"rental_uris":{"android":"levelo://app?vid=9f8717aa-d219-483f-9ead-ed3b5b62758e","ios":"levelo://app?vid=9f8717aa-d219-483f-9ead-ed3b5b62758e"},"vehicle_type_id":"4","last_reported":1683486292,"current_range_meters":15600,"station_id":"ce4bgt12rcd13ifvqcd0","pricing_plan_id":"free"},{"bike_id":"1d8dd659-7f9f-4dba-bdc7-52f62096b791","system_id":"levelo_inurba_marseille","lat":43.308614,"lon":5.372098,"is_reserved":false,"is_disabled":false,"rental_uris":{"android":"levelo://app?vid=1d8dd659-7f9f-4dba-bdc7-52f62096b791","ios":"levelo://app?vid=1d8dd659-7f9f-4dba-bdc7-52f62096b791"},"vehicle_type_id":"4","last_reported":1683486292,"current_range_meters":2400,"station_id":"ce4bguh2rcd13ifvqckg","pricing_plan_id":"free"},{"bike_id":"bdd949b2-b629-4741-ade2-76a21ff02c7e","system_id":"levelo_inurba_marseille","lat":43.308614,"lon":5.372098,"is_reserved":false,"is_disabled":false,"rental_uris":{"android":"levelo://app?vid=bdd949b2-b629-4741-ade2-76a21ff02c7e","ios":"levelo://app?vid=bdd949b2-b629-4741-ade2-76a21ff02c7e"},"vehicle_type_id":"4","last_reported":1683486292,"current_range_meters":800,"station_id":"ce4bguh2rcd13ifvqckg","pricing_plan_id":"free"},{"bike_id":"256d6175-c5de-4cc3-9a74-adafc5ce4864","system_id":"levelo_inurba_marseille","lat":43.308614,"lon":5.372098,"is_reserved":false,"is_disabled":false,"rental_uris":{"android":"levelo://app?vid=256d6175-c5de-4cc3-9a74-adafc5ce4864","ios":"levelo://app?vid=256d6175-c5de-4cc3-9a74-adafc5ce4864"},"vehicle_type_id":"4","last_reported":1683486292,"current_range_meters":6800,"station_id":"ce4bguh2rcd13ifvqckg","pricing_plan_id":"free"},{"bike_id":"98f72a94-6d55-4573-afe6-24af3547e31e","system_id":"levelo_inurba_marseille","lat":43.308614,"lon":5.372098,"is_reserved":false,"is_disabled":false,"rental_uris":{"android":"levelo://app?vid=98f72a94-6d55-4573-afe6-24af3547e31e","ios":"levelo://app?vid=98f72a94-6d55-4573-afe6-24af3547e31e"},"vehicle_type_id":"4","last_reported":1683486292,"current_range_meters":2000,"station_id":"ce4bguh2rcd13ifvqckg","pricing_plan_id":"free"},{"bike_id":"9ffe9f79-97c6-40ce-b9a4-c4fe0d141816","system_id":"levelo_inurba_marseille","lat":43.30557,"lon":5.36712,"is_reserved":false,"is_disabled":false,"rental_uris":{"android":"levelo://app?vid=9ffe9f79-97c6-40ce-b9a4-c4fe0d141816","ios":"levelo://app?vid=9ffe9f79-97c6-40ce-b9a4-c4fe0d141816"},"vehicle_type_id":"4","last_reported":1683486292,"current_range_meters":12800,"station_id":"","pricing_plan_id":"free"},{"bike_id":"c236133f-6026-4ec7-bcd5-6492e3101036","system_id":"levelo_inurba_marseille","lat":43.30537,"lon":5.367345,"is_reserved":false,"is_disabled":false,"rental_uris":{"android":"levelo://app?vid=c236133f-6026-4ec7-bcd5-6492e3101036","ios":"levelo://app?vid=c236133f-6026-4ec7-bcd5-6492e3101036"},"vehicle_type_id":"4","last_reported":1683486292,"current_range_meters":0,"station_id":"ce4bgrp2rcd13ifvqc9g","pricing_plan_id":"free"},{"bike_id":"2add9f29-7c49-4cb4-9719-c86adc165884","system_id":"levelo_inurba_marseille","lat":43.30543,"lon":5.3655,"is_reserved":false,"is_disabled":false,"rental_uris":{"android":"levelo://app?vid=2add9f29-7c49-4cb4-9719-c86adc165884","ios":"levelo://app?vid=2add9f29-7c49-4cb4-9719-c86adc165884"},"vehicle_type_id":"4","last_reported":1683486292,"current_range_meters":18000,"station_id":"","pricing_plan_id":"free"},{"bike_id":"1105b54d-7d60-4dc9-9997-cd9c8640ba10","system_id":"levelo_inurba_marseille","lat":43.3054,"lon":5.36548,"is_reserved":false,"is_disabled":false,"rental_uris":{"android":"levelo://app?vid=1105b54d-7d60-4dc9-9997-cd9c8640ba10","ios":"levelo://app?vid=1105b54d-7d60-4dc9-9997-cd9c8640ba10"},"vehicle_type_id":"4","last_reported":1683486292,"current_range_meters":1200,"station_id":"","pricing_plan_id":"free"},{"bike_id":"b23a128d-3583-4214-a8da-81ac23ba4ec2","system_id":"levelo_inurba_marseille","lat":43.30539,"lon":5.3655,"is_reserved":false,"is_disabled":false,"rental_uris":{"android":"levelo://app?vid=b23a128d-3583-4214-a8da-81ac23ba4ec2","ios":"levelo://app?vid=b23a128d-3583-4214-a8da-81ac23ba4ec2"},"vehicle_type_id":"4","last_reported":1683486292,"current_range_meters":0,"station_id":"","pricing_plan_id":"free"},{"bike_id":"8f7b09b4-a812-46bc-ae24-428e9afb64d1","system_id":"levelo_inurba_marseille","lat":43.30538,"lon":5.36535,"is_reserved":false,"is_disabled":false,"rental_uris":{"android":"levelo://app?vid=8f7b09b4-a812-46bc-ae24-428e9afb64d1","ios":"levelo://app?vid=8f7b09b4-a812-46bc-ae24-428e9afb64d1"},"vehicle_type_id":"4","last_reported":1683486292,"current_range_meters":14400,"station_id":"","pricing_plan_id":"free"},{"bike_id":"0497b1dc-9d5c-4f5a-bcca-4b097dab9446","system_id":"levelo_inurba_marseille","lat":43.305989,"lon":5.37225,"is_reserved":false,"is_disabled":false,"rental_uris":{"android":"levelo://app?vid=0497b1dc-9d5c-4f5a-bcca-4b097dab9446","ios":"levelo://app?vid=0497b1dc-9d5c-4f5a-bcca-4b097dab9446"},"vehicle_type_id":"4","last_reported":1683486292,"current_range_meters":11200,"station_id":"ce4bgqh2rcd13ifvqc4g","pricing_plan_id":"free"},{"bike_id":"6e3c934f-df04-4cbe-b418-f6ccaa08c816","system_id":"levelo_inurba_marseille","lat":43.311131,"lon":5.377651,"is_reserved":false,"is_disabled":false,"rental_uris":{"android":"levelo://app?vid=6e3c934f-df04-4cbe-b418-f6ccaa08c816","ios":"levelo://app?vid=6e3c934f-df04-4cbe-b418-f6ccaa08c816"},"vehicle_type_id":"4","last_reported":1683486292,"current_range_meters":0,"station_id":"ce4bgt92rcd13ifvqcg0","pricing_plan_id":"free"},{"bike_id":"042544af-ef6c-4649-bbf6-d90dc47a0e04","system_id":"levelo_inurba_marseille","lat":43.311131,"lon":5.377651,"is_reserved":false,"is_disabled":false,"rental_uris":{"android":"levelo://app?vid=042544af-ef6c-4649-bbf6-d90dc47a0e04","ios":"levelo://app?vid=042544af-ef6c-4649-bbf6-d90dc47a0e04"},"vehicle_type_id":"4","last_reported":1683486292,"current_range_meters":12400,"station_id":"ce4bgt92rcd13ifvqcg0","pricing_plan_id":"free"},{"bike_id":"8fe93a71-3044-4672-9c31-ed30f8faffb3","system_id":"levelo_inurba_marseille","lat":43.317075,"lon":5.377367,"is_reserved":false,"is_disabled":false,"rental_uris":{"android":"levelo://app?vid=8fe93a71-3044-4672-9c31-ed30f8faffb3","ios":"levelo://app?vid=8fe93a71-3044-4672-9c31-ed30f8faffb3"},"vehicle_type_id":"4","last_reported":1683486292,"current_range_meters":30800,"station_id":"ce4bgth2rcd13ifvqch0","pricing_plan_id":"free"},{"bike_id":"6fdf30ad-6858-41a6-9832-cb6abbb902f2","system_id":"levelo_inurba_marseille","lat":43.303046,"lon":5.368981,"is_reserved":false,"is_disabled":false,"rental_uris":{"android":"levelo://app?vid=6fdf30ad-6858-41a6-9832-cb6abbb902f2","ios":"levelo://app?vid=6fdf30ad-6858-41a6-9832-cb6abbb902f2"},"vehicle_type_id":"4","last_reported":1683486292,"current_range_meters":18800,"station_id":"ce4bgqh2rcd13ifvqc5g","pricing_plan_id":"free"},{"bike_id":"243d58c6-677a-4ef5-ac10-1ca5621449fc","system_id":"levelo_inurba_marseille","lat":43.3031,"lon":5.36445,"is_reserved":false,"is_disabled":false,"rental_uris":{"android":"levelo://app?vid=243d58c6-677a-4ef5-ac10-1ca5621449fc","ios":"levelo://app?vid=243d58c6-677a-4ef5-ac10-1ca5621449fc"},"vehicle_type_id":"4","last_reported":1683486292,"current_range_meters":13200,"station_id":"","pricing_plan_id":"free"},{"bike_id":"a638b4bd-0a1f-47ed-830f-96cdbf7c1fb6","system_id":"levelo_inurba_marseille","lat":43.303046,"lon":5.368981,"is_reserved":false,"is_disabled":false,"rental_uris":{"android":"levelo://app?vid=a638b4bd-0a1f-47ed-830f-96cdbf7c1fb6","ios":"levelo://app?vid=a638b4bd-0a1f-47ed-830f-96cdbf7c1fb6"},"vehicle_type_id":"4","last_reported":1683486292,"current_range_meters":1600,"station_id":"ce4bgqh2rcd13ifvqc5g","pricing_plan_id":"free"},{"bike_id":"d1454e37-3bb5-4c4e-939d-c0394966b794","system_id":"levelo_inurba_marseille","lat":43.315289,"lon":5.380349,"is_reserved":false,"is_disabled":false,"rental_uris":{"android":"levelo://app?vid=d1454e37-3bb5-4c4e-939d-c0394966b794","ios":"levelo://app?vid=d1454e37-3bb5-4c4e-939d-c0394966b794"},"vehicle_type_id":"4","last_reported":1683486292,"current_range_meters":5200,"station_id":"ce4bhsp2rcd13ifvqi50","pricing_plan_id":"free"},{"bike_id":"11819d08-801d-4df4-9ed5-1375ab945c6e","system_id":"levelo_inurba_marseille","lat":43.30197,"lon":5.36621,"is_reserved":false,"is_disabled":false,"rental_uris":{"android":"levelo://app?vid=11819d08-801d-4df4-9ed5-1375ab945c6e","ios":"levelo://app?vid=11819d08-801d-4df4-9ed5-1375ab945c6e"},"vehicle_type_id":"4","last_reported":1683486292,"current_range_meters":21600,"station_id":"ce4bgrh2rcd13ifvqc8g","pricing_plan_id":"free"},{"bike_id":"035a2b0a-a8a2-4479-8d2e-5d9516213b51","system_id":"levelo_inurba_marseille","lat":43.31602,"lon":5.38184,"is_reserved":false,"is_disabled":false,"rental_uris":{"android":"levelo://app?vid=035a2b0a-a8a2-4479-8d2e-5d9516213b51","ios":"levelo://app?vid=035a2b0a-a8a2-4479-8d2e-5d9516213b51"},"vehicle_type_id":"4","last_reported":1683486292,"current_range_meters":8800,"station_id":"","pricing_plan_id":"free"},{"bike_id":"1496d265-1d14-4123-b367-be107305a04a","system_id":"levelo_inurba_marseille","lat":43.304606,"lon":5.379026,"is_reserved":false,"is_disabled":false,"rental_uris":{"android":"levelo://app?vid=1496d265-1d14-4123-b367-be107305a04a","ios":"levelo://app?vid=1496d265-1d14-4123-b367-be107305a04a"},"vehicle_type_id":"4","last_reported":1683486292,"current_range_meters":6800,"station_id":"ce4bgup2rcd13ifvqcn0","pricing_plan_id":"free"},{"bike_id":"62f7e483-8dc2-42c3-a4a4-1b7bf008b6cc","system_id":"levelo_inurba_marseille","lat":43.304606,"lon":5.379026,"is_reserved":false,"is_disabled":false,"rental_uris":{"android":"levelo://app?vid=62f7e483-8dc2-42c3-a4a4-1b7bf008b6cc","ios":"levelo://app?vid=62f7e483-8dc2-42c3-a4a4-1b7bf008b6cc"},"vehicle_type_id":"4","last_reported":1683486292,"current_range_meters":9200,"station_id":"ce4bgup2rcd13ifvqcn0","pricing_plan_id":"free"},{"bike_id":"8ce6094c-f771-442a-a81d-c112f8eeb8d4","system_id":"levelo_inurba_marseille","lat":43.304606,"lon":5.379026,"is_reserved":false,"is_disabled":false,"rental_uris":{"android":"levelo://app?vid=8ce6094c-f771-442a-a81d-c112f8eeb8d4","ios":"levelo://app?vid=8ce6094c-f771-442a-a81d-c112f8eeb8d4"},"vehicle_type_id":"4","last_reported":1683486292,"current_range_meters":0,"station_id":"ce4bgup2rcd13ifvqcn0","pricing_plan_id":"free"},{"bike_id":"81b3652a-83c9-40fd-b664-93735e39ca2c","system_id":"levelo_inurba_marseille","lat":43.313571,"lon":5.384829,"is_reserved":false,"is_disabled":false,"rental_uris":{"android":"levelo://app?vid=81b3652a-83c9-40fd-b664-93735e39ca2c","ios":"levelo://app?vid=81b3652a-83c9-40fd-b664-93735e39ca2c"},"vehicle_type_id":"4","last_reported":1683486292,"current_range_meters":1600,"station_id":"ce4bgt92rcd13ifvqcf0","pricing_plan_id":"free"},{"bike_id":"274adced-8962-4e60-b3b5-ca9001d8c715","system_id":"levelo_inurba_marseille","lat":43.29943,"lon":5.36535,"is_reserved":false,"is_disabled":false,"rental_uris":{"android":"levelo://app?vid=274adced-8962-4e60-b3b5-ca9001d8c715","ios":"levelo://app?vid=274adced-8962-4e60-b3b5-ca9001d8c715"},"vehicle_type_id":"4","last_reported":1683486292,"current_range_meters":4400,"station_id":"","pricing_plan_id":"free"},{"bike_id":"54fa2f48-d5ea-4428-aacf-d56b8b6e7ec5","system_id":"levelo_inurba_marseille","lat":43.299222,"lon":5.365554,"is_reserved":false,"is_disabled":false,"rental_uris":{"android":"levelo://app?vid=54fa2f48-d5ea-4428-aacf-d56b8b6e7ec5","ios":"levelo://app?vid=54fa2f48-d5ea-4428-aacf-d56b8b6e7ec5"},"vehicle_type_id":"4","last_reported":1683486292,"current_range_meters":12400,"station_id":"ce4bgm92rcd13ifvqbr0","pricing_plan_id":"free"},{"bike_id":"95710438-7233-4f50-9bf5-fc526459997c","system_id":"levelo_inurba_marseille","lat":43.29939,"lon":5.36551,"is_reserved":false,"is_disabled":false,"rental_uris":{"android":"levelo://app?vid=95710438-7233-4f50-9bf5-fc526459997c","ios":"levelo://app?vid=95710438-7233-4f50-9bf5-fc526459997c"},"vehicle_type_id":"4","last_reported":1683486292,"current_range_meters":5600,"station_id":"ce4bgm92rcd13ifvqbr0","pricing_plan_id":"free"},{"bike_id":"6f88a1d8-9f44-4802-b70e-ae60589b82fe","system_id":"levelo_inurba_marseille","lat":43.29938,"lon":5.36529,"is_reserved":false,"is_disabled":false,"rental_uris":{"android":"levelo://app?vid=6f88a1d8-9f44-4802-b70e-ae60589b82fe","ios":"levelo://app?vid=6f88a1d8-9f44-4802-b70e-ae60589b82fe"},"vehicle_type_id":"4","last_reported":1683486292,"current_range_meters":12400,"station_id":"","pricing_plan_id":"free"},{"bike_id":"f7a4eb1d-6756-4f5f-9a52-b96dc177f952","system_id":"levelo_inurba_marseille","lat":43.298433,"lon":5.362774,"is_reserved":false,"is_disabled":false,"rental_uris":{"android":"levelo://app?vid=f7a4eb1d-6756-4f5f-9a52-b96dc177f952","ios":"levelo://app?vid=f7a4eb1d-6756-4f5f-9a52-b96dc177f952"},"vehicle_type_id":"4","last_reported":1683486292,"current_range_meters":6800,"station_id":"ce4bgpp2rcd13ifvqc3g","pricing_plan_id":"free"},{"bike_id":"28593fa1-9b1b-44d3-9342-abe1f7468bef","system_id":"levelo_inurba_marseille","lat":43.29852,"lon":5.37217,"is_reserved":false,"is_disabled":false,"rental_uris":{"android":"levelo://app?vid=28593fa1-9b1b-44d3-9342-abe1f7468bef","ios":"levelo://app?vid=28593fa1-9b1b-44d3-9342-abe1f7468bef"},"vehicle_type_id":"4","last_reported":1683486292,"current_range_meters":6400,"station_id":"","pricing_plan_id":"free"},{"bike_id":"266e61c0-0a48-4150-a155-2fb06e0e3dc3","system_id":"levelo_inurba_marseille","lat":43.297774,"lon":5.370875,"is_reserved":false,"is_disabled":false,"rental_uris":{"android":"levelo://app?vid=266e61c0-0a48-4150-a155-2fb06e0e3dc3","ios":"levelo://app?vid=266e61c0-0a48-4150-a155-2fb06e0e3dc3"},"vehicle_type_id":"4","last_reported":1683486292,"current_range_meters":1600,"station_id":"ce4bgop2rcd13ifvqc1g","pricing_plan_id":"free"},{"bike_id":"efad5b5c-a59b-4f5d-976c-919e3b2c25c7","system_id":"levelo_inurba_marseille","lat":43.328371,"lon":5.366912,"is_reserved":false,"is_disabled":false,"rental_uris":{"android":"levelo://app?vid=efad5b5c-a59b-4f5d-976c-919e3b2c25c7","ios":"levelo://app?vid=efad5b5c-a59b-4f5d-976c-919e3b2c25c7"},"vehicle_type_id":"4","last_reported":1683486292,"current_range_meters":6800,"station_id":"ce4bhs92rcd13ifvqi0g","pricing_plan_id":"free"},{"bike_id":"d1181f40-b909-4914-9099-3a484eddda62","system_id":"levelo_inurba_marseille","lat":43.328371,"lon":5.366912,"is_reserved":false,"is_disabled":false,"rental_uris":{"android":"levelo://app?vid=d1181f40-b909-4914-9099-3a484eddda62","ios":"levelo://app?vid=d1181f40-b909-4914-9099-3a484eddda62"},"vehicle_type_id":"4","last_reported":1683486292,"current_range_meters":2000,"station_id":"ce4bhs92rcd13ifvqi0g","pricing_plan_id":"free"},{"bike_id":"a09159a8-2daf-43ff-bebc-e0a339e45029","system_id":"levelo_inurba_marseille","lat":43.29573,"lon":5.367355,"is_reserved":false,"is_disabled":false,"rental_uris":{"android":"levelo://app?vid=a09159a8-2daf-43ff-bebc-e0a339e45029","ios":"levelo://app?vid=a09159a8-2daf-43ff-bebc-e0a339e45029"},"vehicle_type_id":"4","last_reported":1683486292,"current_range_meters":22800,"station_id":"ce4bgph2rcd13ifvqc2g","pricing_plan_id":"free"},{"bike_id":"230e2799-114f-4718-91c0-c4a32c3f7fef","system_id":"levelo_inurba_marseille","lat":43.29573,"lon":5.367355,"is_reserved":false,"is_disabled":false,"rental_uris":{"android":"levelo://app?vid=230e2799-114f-4718-91c0-c4a32c3f7fef","ios":"levelo://app?vid=230e2799-114f-4718-91c0-c4a32c3f7fef"},"vehicle_type_id":"4","last_reported":1683486292,"current_range_meters":8800,"station_id":"ce4bgph2rcd13ifvqc2g","pricing_plan_id":"free"},{"bike_id":"9ad3953e-1eba-4198-ac92-0b4d1eacc399","system_id":"levelo_inurba_marseille","lat":43.29573,"lon":5.367355,"is_reserved":false,"is_disabled":false,"rental_uris":{"android":"levelo://app?vid=9ad3953e-1eba-4198-ac92-0b4d1eacc399","ios":"levelo://app?vid=9ad3953e-1eba-4198-ac92-0b4d1eacc399"},"vehicle_type_id":"4","last_reported":1683486292,"current_range_meters":800,"station_id":"ce4bgph2rcd13ifvqc2g","pricing_plan_id":"free"},{"bike_id":"51ec6362-9228-4ec3-914e-f794d012063b","system_id":"levelo_inurba_marseille","lat":43.296935,"lon":5.376544,"is_reserved":false,"is_disabled":false,"rental_uris":{"android":"levelo://app?vid=51ec6362-9228-4ec3-914e-f794d012063b","ios":"levelo://app?vid=51ec6362-9228-4ec3-914e-f794d012063b"},"vehicle_type_id":"4","last_reported":1683486292,"current_range_meters":10800,"station_id":"ce4bgkh2rcd13ifvqbl0","pricing_plan_id":"free"},{"bike_id":"da6245f4-0d8d-4d79-81ae-157070749206","system_id":"levelo_inurba_marseille","lat":43.29726,"lon":5.37703,"is_reserved":false,"is_disabled":false,"rental_uris":{"android":"levelo://app?vid=da6245f4-0d8d-4d79-81ae-157070749206","ios":"levelo://app?vid=da6245f4-0d8d-4d79-81ae-157070749206"},"vehicle_type_id":"4","last_reported":1683486292,"current_range_meters":6800,"station_id":"","pricing_plan_id":"free"},{"bike_id":"167c7458-8d70-4e7b-9c16-95dd102dfd45","system_id":"levelo_inurba_marseille","lat":43.296921,"lon":5.376579,"is_reserved":false,"is_disabled":false,"rental_uris":{"android":"levelo://app?vid=167c7458-8d70-4e7b-9c16-95dd102dfd45","ios":"levelo://app?vid=167c7458-8d70-4e7b-9c16-95dd102dfd45"},"vehicle_type_id":"4","last_reported":1683486292,"current_range_meters":7600,"station_id":"ce4bgkh2rcd13ifvqbl0","pricing_plan_id":"free"},{"bike_id":"c0a67f1a-0790-4354-b789-3fc6b56dd681","system_id":"levelo_inurba_marseille","lat":43.296935,"lon":5.376544,"is_reserved":false,"is_disabled":false,"rental_uris":{"android":"levelo://app?vid=c0a67f1a-0790-4354-b789-3fc6b56dd681","ios":"levelo://app?vid=c0a67f1a-0790-4354-b789-3fc6b56dd681"},"vehicle_type_id":"4","last_reported":1683486292,"current_range_meters":25600,"station_id":"ce4bgkh2rcd13ifvqbl0","pricing_plan_id":"free"},{"bike_id":"50d3a45c-f57a-4a89-9af8-c3413529f276","system_id":"levelo_inurba_marseille","lat":43.299028,"lon":5.381509,"is_reserved":false,"is_disabled":false,"rental_uris":{"android":"levelo://app?vid=50d3a45c-f57a-4a89-9af8-c3413529f276","ios":"levelo://app?vid=50d3a45c-f57a-4a89-9af8-c3413529f276"},"vehicle_type_id":"4","last_reported":1683486292,"current_range_meters":13600,"station_id":"ce4bgj12rcd13ifvqbc0","pricing_plan_id":"free"},{"bike_id":"7953fe2e-dce5-47a6-977f-88ffd140312a","system_id":"levelo_inurba_marseille","lat":43.309589,"lon":5.390258,"is_reserved":false,"is_disabled":false,"rental_uris":{"android":"levelo://app?vid=7953fe2e-dce5-47a6-977f-88ffd140312a","ios":"levelo://app?vid=7953fe2e-dce5-47a6-977f-88ffd140312a"},"vehicle_type_id":"4","last_reported":1683486292,"current_range_meters":22000,"station_id":"ce4bgup2rcd13ifvqco0","pricing_plan_id":"free"},{"bike_id":"f08733ad-a319-4372-a7a6-c6249a61033f","system_id":"levelo_inurba_marseille","lat":43.317557,"lon":5.390173,"is_reserved":false,"is_disabled":false,"rental_uris":{"android":"levelo://app?vid=f08733ad-a319-4372-a7a6-c6249a61033f","ios":"levelo://app?vid=f08733ad-a319-4372-a7a6-c6249a61033f"},"vehicle_type_id":"4","last_reported":1683486292,"current_range_meters":31200,"station_id":"ce4bhqp2rcd13ifvqhng","pricing_plan_id":"free"},{"bike_id":"4058662e-ff58-415e-85ed-6e77b6093242","system_id":"levelo_inurba_marseille","lat":43.295748,"lon":5.37522,"is_reserved":false,"is_disabled":false,"rental_uris":{"android":"levelo://app?vid=4058662e-ff58-415e-85ed-6e77b6093242","ios":"levelo://app?vid=4058662e-ff58-415e-85ed-6e77b6093242"},"vehicle_type_id":"4","last_reported":1683486292,"current_range_meters":16800,"station_id":"ce4bgh92rcd13ifvqb50","pricing_plan_id":"free"},{"bike_id":"85f0cd1c-b9e4-413c-a7ef-865ab3b1007f","system_id":"levelo_inurba_marseille","lat":43.29804,"lon":5.380968,"is_reserved":false,"is_disabled":false,"rental_uris":{"android":"levelo://app?vid=85f0cd1c-b9e4-413c-a7ef-865ab3b1007f","ios":"levelo://app?vid=85f0cd1c-b9e4-413c-a7ef-865ab3b1007f"},"vehicle_type_id":"4","last_reported":1683486292,"current_range_meters":23200,"station_id":"ce4bgip2rcd13ifvqbb0","pricing_plan_id":"free"},{"bike_id":"fa2a1dc3-213d-4643-b3ed-ef7738c47e9f","system_id":"levelo_inurba_marseille","lat":43.29807,"lon":5.38104,"is_reserved":false,"is_disabled":false,"rental_uris":{"android":"levelo://app?vid=fa2a1dc3-213d-4643-b3ed-ef7738c47e9f","ios":"levelo://app?vid=fa2a1dc3-213d-4643-b3ed-ef7738c47e9f"},"vehicle_type_id":"4","last_reported":1683486292,"current_range_meters":20400,"station_id":"ce4bgip2rcd13ifvqbb0","pricing_plan_id":"free"},{"bike_id":"2ee15fbb-0300-4ae6-a263-ceaca8635c90","system_id":"levelo_inurba_marseille","lat":43.30093,"lon":5.38543,"is_reserved":false,"is_disabled":false,"rental_uris":{"android":"levelo://app?vid=2ee15fbb-0300-4ae6-a263-ceaca8635c90","ios":"levelo://app?vid=2ee15fbb-0300-4ae6-a263-ceaca8635c90"},"vehicle_type_id":"4","last_reported":1683486292,"current_range_meters":5600,"station_id":"","pricing_plan_id":"free"},{"bike_id":"6add6eb9-6348-470b-a964-42da2453efa5","system_id":"levelo_inurba_marseille","lat":43.298037,"lon":5.381066,"is_reserved":false,"is_disabled":false,"rental_uris":{"android":"levelo://app?vid=6add6eb9-6348-470b-a964-42da2453efa5","ios":"levelo://app?vid=6add6eb9-6348-470b-a964-42da2453efa5"},"vehicle_type_id":"4","last_reported":1683486292,"current_range_meters":3200,"station_id":"ce4bgip2rcd13ifvqbb0","pricing_plan_id":"free"},{"bike_id":"8d444956-d14e-4b64-9a36-254bce07308f","system_id":"levelo_inurba_marseille","lat":43.29574,"lon":5.37506,"is_reserved":false,"is_disabled":false,"rental_uris":{"android":"levelo://app?vid=8d444956-d14e-4b64-9a36-254bce07308f","ios":"levelo://app?vid=8d444956-d14e-4b64-9a36-254bce07308f"},"vehicle_type_id":"4","last_reported":1683486292,"current_range_meters":0,"station_id":"ce4bgh92rcd13ifvqb50","pricing_plan_id":"free"},{"bike_id":"62958c7b-fe64-40f6-b0a4-53a9431fe594","system_id":"levelo_inurba_marseille","lat":43.304278,"lon":5.388868,"is_reserved":false,"is_disabled":false,"rental_uris":{"android":"levelo://app?vid=62958c7b-fe64-40f6-b0a4-53a9431fe594","ios":"levelo://app?vid=62958c7b-fe64-40f6-b0a4-53a9431fe594"},"vehicle_type_id":"4","last_reported":1683486292,"current_range_meters":13600,"station_id":"ce4bgk12rcd13ifvqbi0","pricing_plan_id":"free"},{"bike_id":"90723b24-dce7-49d1-abbe-0752c9f906c6","system_id":"levelo_inurba_marseille","lat":43.295748,"lon":5.37522,"is_reserved":false,"is_disabled":false,"rental_uris":{"android":"levelo://app?vid=90723b24-dce7-49d1-abbe-0752c9f906c6","ios":"levelo://app?vid=90723b24-dce7-49d1-abbe-0752c9f906c6"},"vehicle_type_id":"4","last_reported":1683486292,"current_range_meters":6800,"station_id":"ce4bgh92rcd13ifvqb50","pricing_plan_id":"free"},{"bike_id":"ee1bcf6c-2f96-4a87-af6b-ce4127c815ff","system_id":"levelo_inurba_marseille","lat":43.304278,"lon":5.388868,"is_reserved":false,"is_disabled":false,"rental_uris":{"android":"levelo://app?vid=ee1bcf6c-2f96-4a87-af6b-ce4127c815ff","ios":"levelo://app?vid=ee1bcf6c-2f96-4a87-af6b-ce4127c815ff"},"vehicle_type_id":"4","last_reported":1683486292,"current_range_meters":5600,"station_id":"ce4bgk12rcd13ifvqbi0","pricing_plan_id":"free"},{"bike_id":"29578e00-27f9-4b59-a7a6-80ee24afabc2","system_id":"levelo_inurba_marseille","lat":43.304278,"lon":5.388868,"is_reserved":false,"is_disabled":false,"rental_uris":{"android":"levelo://app?vid=29578e00-27f9-4b59-a7a6-80ee24afabc2","ios":"levelo://app?vid=29578e00-27f9-4b59-a7a6-80ee24afabc2"},"vehicle_type_id":"4","last_reported":1683486292,"current_range_meters":4000,"station_id":"ce4bgk12rcd13ifvqbi0","pricing_plan_id":"free"},{"bike_id":"728cb128-f4c1-4a6a-af5d-1adcb9b0d330","system_id":"levelo_inurba_marseille","lat":43.298037,"lon":5.381066,"is_reserved":false,"is_disabled":false,"rental_uris":{"android":"levelo://app?vid=728cb128-f4c1-4a6a-af5d-1adcb9b0d330","ios":"levelo://app?vid=728cb128-f4c1-4a6a-af5d-1adcb9b0d330"},"vehicle_type_id":"4","last_reported":1683486292,"current_range_meters":7600,"station_id":"ce4bgip2rcd13ifvqbb0","pricing_plan_id":"free"},{"bike_id":"0f3f23b7-adac-4dda-b989-8dae0db5c0a0","system_id":"levelo_inurba_marseille","lat":43.30431,"lon":5.3889,"is_reserved":false,"is_disabled":false,"rental_uris":{"android":"levelo://app?vid=0f3f23b7-adac-4dda-b989-8dae0db5c0a0","ios":"levelo://app?vid=0f3f23b7-adac-4dda-b989-8dae0db5c0a0"},"vehicle_type_id":"4","last_reported":1683486292,"current_range_meters":16000,"station_id":"ce4bgk12rcd13ifvqbi0","pricing_plan_id":"free"},{"bike_id":"5cb38bca-990e-4ed4-9533-519995680a78","system_id":"levelo_inurba_marseille","lat":43.296263,"lon":5.377094,"is_reserved":false,"is_disabled":false,"rental_uris":{"android":"levelo://app?vid=5cb38bca-990e-4ed4-9533-519995680a78","ios":"levelo://app?vid=5cb38bca-990e-4ed4-9533-519995680a78"},"vehicle_type_id":"4","last_reported":1683486292,"current_range_meters":1600,"station_id":"ce4bgi92rcd13ifvqb90","pricing_plan_id":"free"},{"bike_id":"bfe3f181-51ef-45f5-89d9-9bf4456610b0","system_id":"levelo_inurba_marseille","lat":43.298037,"lon":5.381066,"is_reserved":false,"is_disabled":false,"rental_uris":{"android":"levelo://app?vid=bfe3f181-51ef-45f5-89d9-9bf4456610b0","ios":"levelo://app?vid=bfe3f181-51ef-45f5-89d9-9bf4456610b0"},"vehicle_type_id":"4","last_reported":1683486292,"current_range_meters":17200,"station_id":"ce4bgip2rcd13ifvqbb0","pricing_plan_id":"free"},{"bike_id":"e382faad-9213-40c0-a903-b25e74e07e9c","system_id":"levelo_inurba_marseille","lat":43.29596,"lon":5.37667,"is_reserved":false,"is_disabled":false,"rental_uris":{"android":"levelo://app?vid=e382faad-9213-40c0-a903-b25e74e07e9c","ios":"levelo://app?vid=e382faad-9213-40c0-a903-b25e74e07e9c"},"vehicle_type_id":"4","last_reported":1683486292,"current_range_meters":2000,"station_id":"","pricing_plan_id":"free"},{"bike_id":"c0482937-7615-451a-93a0-51456eaf1265","system_id":"levelo_inurba_marseille","lat":43.299724,"lon":5.384848,"is_reserved":false,"is_disabled":false,"rental_uris":{"android":"levelo://app?vid=c0482937-7615-451a-93a0-51456eaf1265","ios":"levelo://app?vid=c0482937-7615-451a-93a0-51456eaf1265"},"vehicle_type_id":"4","last_reported":1683486292,"current_range_meters":3600,"station_id":"ce4bgj92rcd13ifvqbd0","pricing_plan_id":"free"},{"bike_id":"1aad421d-ee4d-4107-a5a0-e806c8e521fa","system_id":"levelo_inurba_marseille","lat":43.295279,"lon":5.375048,"is_reserved":false,"is_disabled":false,"rental_uris":{"android":"levelo://app?vid=1aad421d-ee4d-4107-a5a0-e806c8e521fa","ios":"levelo://app?vid=1aad421d-ee4d-4107-a5a0-e806c8e521fa"},"vehicle_type_id":"4","last_reported":1683486292,"current_range_meters":0,"station_id":"ce4bgkp2rcd13ifvqbmg","pricing_plan_id":"free"},{"bike_id":"00497d2b-ddf9-40d6-beab-e19b93ebab67","system_id":"levelo_inurba_marseille","lat":43.299724,"lon":5.384848,"is_reserved":false,"is_disabled":false,"rental_uris":{"android":"levelo://app?vid=00497d2b-ddf9-40d6-beab-e19b93ebab67","ios":"levelo://app?vid=00497d2b-ddf9-40d6-beab-e19b93ebab67"},"vehicle_type_id":"4","last_reported":1683486292,"current_range_meters":0,"station_id":"ce4bgj92rcd13ifvqbd0","pricing_plan_id":"free"},{"bike_id":"398be7c4-37f4-41bf-9bb7-b881f6ce2975","system_id":"levelo_inurba_marseille","lat":43.295279,"lon":5.375048,"is_reserved":false,"is_disabled":false,"rental_uris":{"android":"levelo://app?vid=398be7c4-37f4-41bf-9bb7-b881f6ce2975","ios":"levelo://app?vid=398be7c4-37f4-41bf-9bb7-b881f6ce2975"},"vehicle_type_id":"4","last_reported":1683486292,"current_range_meters":400,"station_id":"ce4bgkp2rcd13ifvqbmg","pricing_plan_id":"free"},{"bike_id":"f0dcfd84-4222-444a-b26d-9f99a892695b","system_id":"levelo_inurba_marseille","lat":43.31458,"lon":5.39274,"is_reserved":false,"is_disabled":false,"rental_uris":{"android":"levelo://app?vid=f0dcfd84-4222-444a-b26d-9f99a892695b","ios":"levelo://app?vid=f0dcfd84-4222-444a-b26d-9f99a892695b"},"vehicle_type_id":"4","last_reported":1683486292,"current_range_meters":1200,"station_id":"","pricing_plan_id":"free"},{"bike_id":"8701a071-19f5-45a3-97d4-87f75a859053","system_id":"levelo_inurba_marseille","lat":43.29602,"lon":5.381084,"is_reserved":false,"is_disabled":false,"rental_uris":{"android":"levelo://app?vid=8701a071-19f5-45a3-97d4-87f75a859053","ios":"levelo://app?vid=8701a071-19f5-45a3-97d4-87f75a859053"},"vehicle_type_id":"4","last_reported":1683486292,"current_range_meters":2000,"station_id":"ce4bgl12rcd13ifvqbo0","pricing_plan_id":"free"},{"bike_id":"f32bad76-905b-40ce-a041-55c40ff213ef","system_id":"levelo_inurba_marseille","lat":43.29602,"lon":5.381084,"is_reserved":false,"is_disabled":false,"rental_uris":{"android":"levelo://app?vid=f32bad76-905b-40ce-a041-55c40ff213ef","ios":"levelo://app?vid=f32bad76-905b-40ce-a041-55c40ff213ef"},"vehicle_type_id":"4","last_reported":1683486292,"current_range_meters":17600,"station_id":"ce4bgl12rcd13ifvqbo0","pricing_plan_id":"free"},{"bike_id":"6397e468-6b89-4c0b-8905-c0330c9974dc","system_id":"levelo_inurba_marseille","lat":43.293009,"lon":5.374584,"is_reserved":false,"is_disabled":false,"rental_uris":{"android":"levelo://app?vid=6397e468-6b89-4c0b-8905-c0330c9974dc","ios":"levelo://app?vid=6397e468-6b89-4c0b-8905-c0330c9974dc"},"vehicle_type_id":"4","last_reported":1683486292,"current_range_meters":9200,"station_id":"ce4bgi12rcd13ifvqb70","pricing_plan_id":"free"},{"bike_id":"d539ea16-4189-4d60-8665-37b74bbf8d95","system_id":"levelo_inurba_marseille","lat":43.302992,"lon":5.392136,"is_reserved":false,"is_disabled":false,"rental_uris":{"android":"levelo://app?vid=d539ea16-4189-4d60-8665-37b74bbf8d95","ios":"levelo://app?vid=d539ea16-4189-4d60-8665-37b74bbf8d95"},"vehicle_type_id":"4","last_reported":1683486292,"current_range_meters":0,"station_id":"ce4bgkh2rcd13ifvqbk0","pricing_plan_id":"free"},{"bike_id":"e0bef2fe-d669-46bc-a312-5ac3e07dbef8","system_id":"levelo_inurba_marseille","lat":43.30085,"lon":5.390856,"is_reserved":false,"is_disabled":false,"rental_uris":{"android":"levelo://app?vid=e0bef2fe-d669-46bc-a312-5ac3e07dbef8","ios":"levelo://app?vid=e0bef2fe-d669-46bc-a312-5ac3e07dbef8"},"vehicle_type_id":"4","last_reported":1683486292,"current_range_meters":20400,"station_id":"ce4bh192rcd13ifvqdb0","pricing_plan_id":"free"},{"bike_id":"d992fa28-c044-480c-a3e3-0062bf676af9","system_id":"levelo_inurba_marseille","lat":43.300852,"lon":5.390859,"is_reserved":false,"is_disabled":false,"rental_uris":{"android":"levelo://app?vid=d992fa28-c044-480c-a3e3-0062bf676af9","ios":"levelo://app?vid=d992fa28-c044-480c-a3e3-0062bf676af9"},"vehicle_type_id":"4","last_reported":1683486292,"current_range_meters":7200,"station_id":"ce4bh192rcd13ifvqdb0","pricing_plan_id":"free"},{"bike_id":"aef6322b-378b-49c6-872e-db7dd2da07d1","system_id":"levelo_inurba_marseille","lat":43.2922,"lon":5.3605,"is_reserved":false,"is_disabled":false,"rental_uris":{"android":"levelo://app?vid=aef6322b-378b-49c6-872e-db7dd2da07d1","ios":"levelo://app?vid=aef6322b-378b-49c6-872e-db7dd2da07d1"},"vehicle_type_id":"4","last_reported":1683486292,"current_range_meters":11600,"station_id":"ce4bhbh2rcd13ifvqeqg","pricing_plan_id":"free"},{"bike_id":"f4e45e42-4730-432e-98a6-de390f77ea88","system_id":"levelo_inurba_marseille","lat":43.29218,"lon":5.3606,"is_reserved":false,"is_disabled":false,"rental_uris":{"android":"levelo://app?vid=f4e45e42-4730-432e-98a6-de390f77ea88","ios":"levelo://app?vid=f4e45e42-4730-432e-98a6-de390f77ea88"},"vehicle_type_id":"4","last_reported":1683486292,"current_range_meters":14000,"station_id":"ce4bhbh2rcd13ifvqeqg","pricing_plan_id":"free"},{"bike_id":"f39978e4-5749-45fa-9d16-e456b545813b","system_id":"levelo_inurba_marseille","lat":43.298764,"lon":5.388973,"is_reserved":false,"is_disabled":false,"rental_uris":{"android":"levelo://app?vid=f39978e4-5749-45fa-9d16-e456b545813b","ios":"levelo://app?vid=f39978e4-5749-45fa-9d16-e456b545813b"},"vehicle_type_id":"4","last_reported":1683486292,"current_range_meters":4400,"station_id":"ce4bh392rcd13ifvqdl0","pricing_plan_id":"free"},{"bike_id":"0919f904-0e5a-4fa2-98bc-29c9e83899e0","system_id":"levelo_inurba_marseille","lat":43.298764,"lon":5.388973,"is_reserved":false,"is_disabled":false,"rental_uris":{"android":"levelo://app?vid=0919f904-0e5a-4fa2-98bc-29c9e83899e0","ios":"levelo://app?vid=0919f904-0e5a-4fa2-98bc-29c9e83899e0"},"vehicle_type_id":"4","last_reported":1683486292,"current_range_meters":6000,"station_id":"ce4bh392rcd13ifvqdl0","pricing_plan_id":"free"},{"bike_id":"f7272b55-c4d3-444f-9012-45ce04fbd74f","system_id":"levelo_inurba_marseille","lat":43.292663,"lon":5.376389,"is_reserved":false,"is_disabled":false,"rental_uris":{"android":"levelo://app?vid=f7272b55-c4d3-444f-9012-45ce04fbd74f","ios":"levelo://app?vid=f7272b55-c4d3-444f-9012-45ce04fbd74f"},"vehicle_type_id":"4","last_reported":1683486292,"current_range_meters":0,"station_id":"ce4bgi12rcd13ifvqb80","pricing_plan_id":"free"},{"bike_id":"b02dfadc-c32d-48b5-993c-e0ecb729f353","system_id":"levelo_inurba_marseille","lat":43.298764,"lon":5.388973,"is_reserved":false,"is_disabled":false,"rental_uris":{"android":"levelo://app?vid=b02dfadc-c32d-48b5-993c-e0ecb729f353","ios":"levelo://app?vid=b02dfadc-c32d-48b5-993c-e0ecb729f353"},"vehicle_type_id":"4","last_reported":1683486292,"current_range_meters":800,"station_id":"ce4bh392rcd13ifvqdl0","pricing_plan_id":"free"},{"bike_id":"78b48e91-6f42-4abf-9db6-315c103f96ac","system_id":"levelo_inurba_marseille","lat":43.30085,"lon":5.390856,"is_reserved":false,"is_disabled":false,"rental_uris":{"android":"levelo://app?vid=78b48e91-6f42-4abf-9db6-315c103f96ac","ios":"levelo://app?vid=78b48e91-6f42-4abf-9db6-315c103f96ac"},"vehicle_type_id":"4","last_reported":1683486292,"current_range_meters":13600,"station_id":"ce4bh192rcd13ifvqdb0","pricing_plan_id":"free"},{"bike_id":"e038a193-cdde-4cf6-84ff-effc39a3a25f","system_id":"levelo_inurba_marseille","lat":43.31356,"lon":5.39676,"is_reserved":false,"is_disabled":false,"rental_uris":{"android":"levelo://app?vid=e038a193-cdde-4cf6-84ff-effc39a3a25f","ios":"levelo://app?vid=e038a193-cdde-4cf6-84ff-effc39a3a25f"},"vehicle_type_id":"4","last_reported":1683486292,"current_range_meters":0,"station_id":"","pricing_plan_id":"free"},{"bike_id":"1aa90ca4-7539-47d6-81da-cfb69e792bd4","system_id":"levelo_inurba_marseille","lat":43.292644,"lon":5.384257,"is_reserved":false,"is_disabled":false,"rental_uris":{"android":"levelo://app?vid=1aa90ca4-7539-47d6-81da-cfb69e792bd4","ios":"levelo://app?vid=1aa90ca4-7539-47d6-81da-cfb69e792bd4"},"vehicle_type_id":"4","last_reported":1683486292,"current_range_meters":19200,"station_id":"ce4bh692rcd13ifvqea0","pricing_plan_id":"free"},{"bike_id":"c816cc45-95a2-4477-a651-a9cd4ea047f8","system_id":"levelo_inurba_marseille","lat":43.294153,"lon":5.386305,"is_reserved":false,"is_disabled":false,"rental_uris":{"android":"levelo://app?vid=c816cc45-95a2-4477-a651-a9cd4ea047f8","ios":"levelo://app?vid=c816cc45-95a2-4477-a651-a9cd4ea047f8"},"vehicle_type_id":"4","last_reported":1683486292,"current_range_meters":6400,"station_id":"ce4bh2h2rcd13ifvqdh0","pricing_plan_id":"free"},{"bike_id":"a79b0d34-cb15-4920-95c4-d71516a775b1","system_id":"levelo_inurba_marseille","lat":43.294162,"lon":5.386292,"is_reserved":false,"is_disabled":false,"rental_uris":{"android":"levelo://app?vid=a79b0d34-cb15-4920-95c4-d71516a775b1","ios":"levelo://app?vid=a79b0d34-cb15-4920-95c4-d71516a775b1"},"vehicle_type_id":"4","last_reported":1683486292,"current_range_meters":0,"station_id":"ce4bh2h2rcd13ifvqdh0","pricing_plan_id":"free"},{"bike_id":"2161cf19-1aae-4554-bebb-00e754e6e6de","system_id":"levelo_inurba_marseille","lat":43.289468,"lon":5.363719,"is_reserved":false,"is_disabled":false,"rental_uris":{"android":"levelo://app?vid=2161cf19-1aae-4554-bebb-00e754e6e6de","ios":"levelo://app?vid=2161cf19-1aae-4554-bebb-00e754e6e6de"},"vehicle_type_id":"4","last_reported":1683486292,"current_range_meters":14000,"station_id":"ce4bhc92rcd13ifvqetg","pricing_plan_id":"free"},{"bike_id":"deb2fda2-70d5-4a98-8293-26528aeb2aed","system_id":"levelo_inurba_marseille","lat":43.289468,"lon":5.363719,"is_reserved":false,"is_disabled":false,"rental_uris":{"android":"levelo://app?vid=deb2fda2-70d5-4a98-8293-26528aeb2aed","ios":"levelo://app?vid=deb2fda2-70d5-4a98-8293-26528aeb2aed"},"vehicle_type_id":"4","last_reported":1683486292,"current_range_meters":10000,"station_id":"ce4bhc92rcd13ifvqetg","pricing_plan_id":"free"},{"bike_id":"56818d91-8368-4383-a603-d8788204da56","system_id":"levelo_inurba_marseille","lat":43.292644,"lon":5.384257,"is_reserved":false,"is_disabled":false,"rental_uris":{"android":"levelo://app?vid=56818d91-8368-4383-a603-d8788204da56","ios":"levelo://app?vid=56818d91-8368-4383-a603-d8788204da56"},"vehicle_type_id":"4","last_reported":1683486292,"current_range_meters":31200,"station_id":"ce4bh692rcd13ifvqea0","pricing_plan_id":"free"},{"bike_id":"f3d55429-1c7a-43a3-b272-291be0c74f08","system_id":"levelo_inurba_marseille","lat":43.292642,"lon":5.384254,"is_reserved":false,"is_disabled":false,"rental_uris":{"android":"levelo://app?vid=f3d55429-1c7a-43a3-b272-291be0c74f08","ios":"levelo://app?vid=f3d55429-1c7a-43a3-b272-291be0c74f08"},"vehicle_type_id":"4","last_reported":1683486292,"current_range_meters":7200,"station_id":"ce4bh692rcd13ifvqea0","pricing_plan_id":"free"},{"bike_id":"5d3a1b43-edc2-47a4-b021-62ca6301dad0","system_id":"levelo_inurba_marseille","lat":43.292644,"lon":5.384257,"is_reserved":false,"is_disabled":false,"rental_uris":{"android":"levelo://app?vid=5d3a1b43-edc2-47a4-b021-62ca6301dad0","ios":"levelo://app?vid=5d3a1b43-edc2-47a4-b021-62ca6301dad0"},"vehicle_type_id":"4","last_reported":1683486292,"current_range_meters":19600,"station_id":"ce4bh692rcd13ifvqea0","pricing_plan_id":"free"},{"bike_id":"4e51811a-5209-4be5-b881-ee2b275e634d","system_id":"levelo_inurba_marseille","lat":43.292644,"lon":5.384257,"is_reserved":false,"is_disabled":false,"rental_uris":{"android":"levelo://app?vid=4e51811a-5209-4be5-b881-ee2b275e634d","ios":"levelo://app?vid=4e51811a-5209-4be5-b881-ee2b275e634d"},"vehicle_type_id":"4","last_reported":1683486292,"current_range_meters":8800,"station_id":"ce4bh692rcd13ifvqea0","pricing_plan_id":"free"},{"bike_id":"630ef1db-ff6c-4f2f-8f20-f31b1810f79c","system_id":"levelo_inurba_marseille","lat":43.292642,"lon":5.384254,"is_reserved":false,"is_disabled":false,"rental_uris":{"android":"levelo://app?vid=630ef1db-ff6c-4f2f-8f20-f31b1810f79c","ios":"levelo://app?vid=630ef1db-ff6c-4f2f-8f20-f31b1810f79c"},"vehicle_type_id":"4","last_reported":1683486292,"current_range_meters":0,"station_id":"ce4bh692rcd13ifvqea0","pricing_plan_id":"free"},{"bike_id":"0146dc3b-f281-4c55-a665-6e3e1952fcfc","system_id":"levelo_inurba_marseille","lat":43.292644,"lon":5.384257,"is_reserved":false,"is_disabled":false,"rental_uris":{"android":"levelo://app?vid=0146dc3b-f281-4c55-a665-6e3e1952fcfc","ios":"levelo://app?vid=0146dc3b-f281-4c55-a665-6e3e1952fcfc"},"vehicle_type_id":"4","last_reported":1683486292,"current_range_meters":21200,"station_id":"ce4bh692rcd13ifvqea0","pricing_plan_id":"free"},{"bike_id":"d143b776-f721-48f1-9136-33bb1a02ef46","system_id":"levelo_inurba_marseille","lat":43.29272,"lon":5.38451,"is_reserved":false,"is_disabled":false,"rental_uris":{"android":"levelo://app?vid=d143b776-f721-48f1-9136-33bb1a02ef46","ios":"levelo://app?vid=d143b776-f721-48f1-9136-33bb1a02ef46"},"vehicle_type_id":"4","last_reported":1683486292,"current_range_meters":22800,"station_id":"ce4bh692rcd13ifvqea0","pricing_plan_id":"free"},{"bike_id":"d644d30e-6972-4368-b777-059267d67ed9","system_id":"levelo_inurba_marseille","lat":43.292644,"lon":5.384257,"is_reserved":false,"is_disabled":false,"rental_uris":{"android":"levelo://app?vid=d644d30e-6972-4368-b777-059267d67ed9","ios":"levelo://app?vid=d644d30e-6972-4368-b777-059267d67ed9"},"vehicle_type_id":"4","last_reported":1683486292,"current_range_meters":20800,"station_id":"ce4bh692rcd13ifvqea0","pricing_plan_id":"free"},{"bike_id":"e1200d84-3641-45db-80f4-398c1bc516c0","system_id":"levelo_inurba_marseille","lat":43.292644,"lon":5.384257,"is_reserved":false,"is_disabled":false,"rental_uris":{"android":"levelo://app?vid=e1200d84-3641-45db-80f4-398c1bc516c0","ios":"levelo://app?vid=e1200d84-3641-45db-80f4-398c1bc516c0"},"vehicle_type_id":"4","last_reported":1683486292,"current_range_meters":400,"station_id":"ce4bh692rcd13ifvqea0","pricing_plan_id":"free"},{"bike_id":"ddfcff18-f487-433f-8d99-a64a49f9f865","system_id":"levelo_inurba_marseille","lat":43.292642,"lon":5.384254,"is_reserved":false,"is_disabled":false,"rental_uris":{"android":"levelo://app?vid=ddfcff18-f487-433f-8d99-a64a49f9f865","ios":"levelo://app?vid=ddfcff18-f487-433f-8d99-a64a49f9f865"},"vehicle_type_id":"4","last_reported":1683486292,"current_range_meters":2800,"station_id":"ce4bh692rcd13ifvqea0","pricing_plan_id":"free"},{"bike_id":"5d72f630-4b54-4cd8-8088-f3d1612fffa7","system_id":"levelo_inurba_marseille","lat":43.292644,"lon":5.384257,"is_reserved":false,"is_disabled":false,"rental_uris":{"android":"levelo://app?vid=5d72f630-4b54-4cd8-8088-f3d1612fffa7","ios":"levelo://app?vid=5d72f630-4b54-4cd8-8088-f3d1612fffa7"},"vehicle_type_id":"4","last_reported":1683486292,"current_range_meters":4000,"station_id":"ce4bh692rcd13ifvqea0","pricing_plan_id":"free"},{"bike_id":"cc5719e1-0cce-4a18-a739-b611b22608f9","system_id":"levelo_inurba_marseille","lat":43.292644,"lon":5.384257,"is_reserved":false,"is_disabled":false,"rental_uris":{"android":"levelo://app?vid=cc5719e1-0cce-4a18-a739-b611b22608f9","ios":"levelo://app?vid=cc5719e1-0cce-4a18-a739-b611b22608f9"},"vehicle_type_id":"4","last_reported":1683486292,"current_range_meters":7600,"station_id":"ce4bh692rcd13ifvqea0","pricing_plan_id":"free"},{"bike_id":"c926a599-18b9-4b14-872d-48f04f97f651","system_id":"levelo_inurba_marseille","lat":43.292642,"lon":5.384254,"is_reserved":false,"is_disabled":false,"rental_uris":{"android":"levelo://app?vid=c926a599-18b9-4b14-872d-48f04f97f651","ios":"levelo://app?vid=c926a599-18b9-4b14-872d-48f04f97f651"},"vehicle_type_id":"4","last_reported":1683486292,"current_range_meters":12000,"station_id":"ce4bh692rcd13ifvqea0","pricing_plan_id":"free"},{"bike_id":"6502750e-0f08-49fe-b69f-43e779a07cc2","system_id":"levelo_inurba_marseille","lat":43.304296,"lon":5.397513,"is_reserved":false,"is_disabled":false,"rental_uris":{"android":"levelo://app?vid=6502750e-0f08-49fe-b69f-43e779a07cc2","ios":"levelo://app?vid=6502750e-0f08-49fe-b69f-43e779a07cc2"},"vehicle_type_id":"4","last_reported":1683486292,"current_range_meters":0,"station_id":"ce4bh092rcd13ifvqd20","pricing_plan_id":"free"},{"bike_id":"c4f3b624-6d28-49d3-80c7-7c6274d0f1bf","system_id":"levelo_inurba_marseille","lat":43.292642,"lon":5.384254,"is_reserved":false,"is_disabled":false,"rental_uris":{"android":"levelo://app?vid=c4f3b624-6d28-49d3-80c7-7c6274d0f1bf","ios":"levelo://app?vid=c4f3b624-6d28-49d3-80c7-7c6274d0f1bf"},"vehicle_type_id":"4","last_reported":1683486292,"current_range_meters":14400,"station_id":"ce4bh692rcd13ifvqea0","pricing_plan_id":"free"},{"bike_id":"0ec6f3b8-d560-47dc-b3e5-b42ba654447d","system_id":"levelo_inurba_marseille","lat":43.292642,"lon":5.384254,"is_reserved":false,"is_disabled":false,"rental_uris":{"android":"levelo://app?vid=0ec6f3b8-d560-47dc-b3e5-b42ba654447d","ios":"levelo://app?vid=0ec6f3b8-d560-47dc-b3e5-b42ba654447d"},"vehicle_type_id":"4","last_reported":1683486292,"current_range_meters":7200,"station_id":"ce4bh692rcd13ifvqea0","pricing_plan_id":"free"},{"bike_id":"5dd339a2-6081-445d-a46f-393c06c21b4f","system_id":"levelo_inurba_marseille","lat":43.304296,"lon":5.397513,"is_reserved":false,"is_disabled":false,"rental_uris":{"android":"levelo://app?vid=5dd339a2-6081-445d-a46f-393c06c21b4f","ios":"levelo://app?vid=5dd339a2-6081-445d-a46f-393c06c21b4f"},"vehicle_type_id":"4","last_reported":1683486292,"current_range_meters":27600,"station_id":"ce4bh092rcd13ifvqd20","pricing_plan_id":"free"},{"bike_id":"2044a6ad-9c4b-4eea-9659-30421f03531c","system_id":"levelo_inurba_marseille","lat":43.29262,"lon":5.38443,"is_reserved":false,"is_disabled":false,"rental_uris":{"android":"levelo://app?vid=2044a6ad-9c4b-4eea-9659-30421f03531c","ios":"levelo://app?vid=2044a6ad-9c4b-4eea-9659-30421f03531c"},"vehicle_type_id":"4","last_reported":1683486292,"current_range_meters":0,"station_id":"ce4bh692rcd13ifvqea0","pricing_plan_id":"free"},{"bike_id":"f117bfb3-8788-4458-8b01-38297ca29567","system_id":"levelo_inurba_marseille","lat":43.292644,"lon":5.384257,"is_reserved":false,"is_disabled":false,"rental_uris":{"android":"levelo://app?vid=f117bfb3-8788-4458-8b01-38297ca29567","ios":"levelo://app?vid=f117bfb3-8788-4458-8b01-38297ca29567"},"vehicle_type_id":"4","last_reported":1683486292,"current_range_meters":22000,"station_id":"ce4bh692rcd13ifvqea0","pricing_plan_id":"free"},{"bike_id":"52c83e2d-3988-405d-9290-3db2c78f5c5e","system_id":"levelo_inurba_marseille","lat":43.292642,"lon":5.384254,"is_reserved":false,"is_disabled":false,"rental_uris":{"android":"levelo://app?vid=52c83e2d-3988-405d-9290-3db2c78f5c5e","ios":"levelo://app?vid=52c83e2d-3988-405d-9290-3db2c78f5c5e"},"vehicle_type_id":"4","last_reported":1683486292,"current_range_meters":7200,"station_id":"ce4bh692rcd13ifvqea0","pricing_plan_id":"free"},{"bike_id":"001716b3-4110-4cc6-a2d8-a052298aeb5e","system_id":"levelo_inurba_marseille","lat":43.292644,"lon":5.384257,"is_reserved":false,"is_disabled":false,"rental_uris":{"android":"levelo://app?vid=001716b3-4110-4cc6-a2d8-a052298aeb5e","ios":"levelo://app?vid=001716b3-4110-4cc6-a2d8-a052298aeb5e"},"vehicle_type_id":"4","last_reported":1683486292,"current_range_meters":21200,"station_id":"ce4bh692rcd13ifvqea0","pricing_plan_id":"free"},{"bike_id":"b7c4c815-635e-4063-b644-99d555a5ae27","system_id":"levelo_inurba_marseille","lat":43.292644,"lon":5.384257,"is_reserved":false,"is_disabled":false,"rental_uris":{"android":"levelo://app?vid=b7c4c815-635e-4063-b644-99d555a5ae27","ios":"levelo://app?vid=b7c4c815-635e-4063-b644-99d555a5ae27"},"vehicle_type_id":"4","last_reported":1683486292,"current_range_meters":7600,"station_id":"ce4bh692rcd13ifvqea0","pricing_plan_id":"free"},{"bike_id":"b89bfaf4-683d-431e-bd2d-13fb6cf788cd","system_id":"levelo_inurba_marseille","lat":43.292642,"lon":5.384254,"is_reserved":false,"is_disabled":false,"rental_uris":{"android":"levelo://app?vid=b89bfaf4-683d-431e-bd2d-13fb6cf788cd","ios":"levelo://app?vid=b89bfaf4-683d-431e-bd2d-13fb6cf788cd"},"vehicle_type_id":"4","last_reported":1683486292,"current_range_meters":10800,"station_id":"ce4bh692rcd13ifvqea0","pricing_plan_id":"free"},{"bike_id":"0698cc90-a666-4b70-a092-a08c8cb44379","system_id":"levelo_inurba_marseille","lat":43.292642,"lon":5.384254,"is_reserved":false,"is_disabled":false,"rental_uris":{"android":"levelo://app?vid=0698cc90-a666-4b70-a092-a08c8cb44379","ios":"levelo://app?vid=0698cc90-a666-4b70-a092-a08c8cb44379"},"vehicle_type_id":"4","last_reported":1683486292,"current_range_meters":7200,"station_id":"ce4bh692rcd13ifvqea0","pricing_plan_id":"free"},{"bike_id":"97b18993-18c4-4b2d-ad3d-6adb3a0ede8a","system_id":"levelo_inurba_marseille","lat":43.33046,"lon":5.38913,"is_reserved":false,"is_disabled":false,"rental_uris":{"android":"levelo://app?vid=97b18993-18c4-4b2d-ad3d-6adb3a0ede8a","ios":"levelo://app?vid=97b18993-18c4-4b2d-ad3d-6adb3a0ede8a"},"vehicle_type_id":"4","last_reported":1683486292,"current_range_meters":30400,"station_id":"ce4bhr92rcd13ifvqhrg","pricing_plan_id":"free"},{"bike_id":"fc984a79-ee4d-4b66-a8fa-ca7f7660f067","system_id":"levelo_inurba_marseille","lat":43.295169,"lon":5.390426,"is_reserved":false,"is_disabled":false,"rental_uris":{"android":"levelo://app?vid=fc984a79-ee4d-4b66-a8fa-ca7f7660f067","ios":"levelo://app?vid=fc984a79-ee4d-4b66-a8fa-ca7f7660f067"},"vehicle_type_id":"4","last_reported":1683486292,"current_range_meters":10400,"station_id":"ce4bh3p2rcd13ifvqdp0","pricing_plan_id":"free"},{"bike_id":"9fda5839-b6dc-4f7b-9163-4bd0fd66a1d5","system_id":"levelo_inurba_marseille","lat":43.295169,"lon":5.390426,"is_reserved":false,"is_disabled":false,"rental_uris":{"android":"levelo://app?vid=9fda5839-b6dc-4f7b-9163-4bd0fd66a1d5","ios":"levelo://app?vid=9fda5839-b6dc-4f7b-9163-4bd0fd66a1d5"},"vehicle_type_id":"4","last_reported":1683486292,"current_range_meters":0,"station_id":"ce4bh3p2rcd13ifvqdp0","pricing_plan_id":"free"},{"bike_id":"8d8117c7-df21-48dd-8c28-adf7fffa0268","system_id":"levelo_inurba_marseille","lat":43.295169,"lon":5.390426,"is_reserved":false,"is_disabled":false,"rental_uris":{"android":"levelo://app?vid=8d8117c7-df21-48dd-8c28-adf7fffa0268","ios":"levelo://app?vid=8d8117c7-df21-48dd-8c28-adf7fffa0268"},"vehicle_type_id":"4","last_reported":1683486292,"current_range_meters":6800,"station_id":"ce4bh3p2rcd13ifvqdp0","pricing_plan_id":"free"},{"bike_id":"ef060587-cf7d-4e9f-82a2-9d74d28145ad","system_id":"levelo_inurba_marseille","lat":43.295169,"lon":5.390426,"is_reserved":false,"is_disabled":false,"rental_uris":{"android":"levelo://app?vid=ef060587-cf7d-4e9f-82a2-9d74d28145ad","ios":"levelo://app?vid=ef060587-cf7d-4e9f-82a2-9d74d28145ad"},"vehicle_type_id":"4","last_reported":1683486292,"current_range_meters":0,"station_id":"ce4bh3p2rcd13ifvqdp0","pricing_plan_id":"free"},{"bike_id":"848cd737-e760-4d0b-8496-56643e76844b","system_id":"levelo_inurba_marseille","lat":43.295169,"lon":5.390426,"is_reserved":false,"is_disabled":false,"rental_uris":{"android":"levelo://app?vid=848cd737-e760-4d0b-8496-56643e76844b","ios":"levelo://app?vid=848cd737-e760-4d0b-8496-56643e76844b"},"vehicle_type_id":"4","last_reported":1683486292,"current_range_meters":2400,"station_id":"ce4bh3p2rcd13ifvqdp0","pricing_plan_id":"free"},{"bike_id":"d102009b-e7a7-4e12-8da6-670041544efb","system_id":"levelo_inurba_marseille","lat":43.295169,"lon":5.390426,"is_reserved":false,"is_disabled":false,"rental_uris":{"android":"levelo://app?vid=d102009b-e7a7-4e12-8da6-670041544efb","ios":"levelo://app?vid=d102009b-e7a7-4e12-8da6-670041544efb"},"vehicle_type_id":"4","last_reported":1683486292,"current_range_meters":22800,"station_id":"ce4bh3p2rcd13ifvqdp0","pricing_plan_id":"free"},{"bike_id":"6a178aa4-3084-4230-aab8-24c7a2d1641f","system_id":"levelo_inurba_marseille","lat":43.33137,"lon":5.38951,"is_reserved":false,"is_disabled":false,"rental_uris":{"android":"levelo://app?vid=6a178aa4-3084-4230-aab8-24c7a2d1641f","ios":"levelo://app?vid=6a178aa4-3084-4230-aab8-24c7a2d1641f"},"vehicle_type_id":"4","last_reported":1683486292,"current_range_meters":12000,"station_id":"","pricing_plan_id":"free"},{"bike_id":"4503def9-7137-4bba-b1f3-0abd4fc785b3","system_id":"levelo_inurba_marseille","lat":43.2901,"lon":5.381269,"is_reserved":false,"is_disabled":false,"rental_uris":{"android":"levelo://app?vid=4503def9-7137-4bba-b1f3-0abd4fc785b3","ios":"levelo://app?vid=4503def9-7137-4bba-b1f3-0abd4fc785b3"},"vehicle_type_id":"4","last_reported":1683486292,"current_range_meters":3600,"station_id":"ce4bh4p2rcd13ifvqe1g","pricing_plan_id":"free"},{"bike_id":"a80e26d5-f712-483a-aad4-315fa1e37b6b","system_id":"levelo_inurba_marseille","lat":43.298037,"lon":5.381066,"is_reserved":false,"is_disabled":false,"rental_uris":{"android":"levelo://app?vid=a80e26d5-f712-483a-aad4-315fa1e37b6b","ios":"levelo://app?vid=a80e26d5-f712-483a-aad4-315fa1e37b6b"},"vehicle_type_id":"4","last_reported":1683486292,"current_range_meters":6400,"station_id":"ce4bgip2rcd13ifvqbb0","pricing_plan_id":"free"},{"bike_id":"20083ae5-f09f-4d10-9758-3cdd331d6a45","system_id":"levelo_inurba_marseille","lat":43.33739,"lon":5.37452,"is_reserved":false,"is_disabled":false,"rental_uris":{"android":"levelo://app?vid=20083ae5-f09f-4d10-9758-3cdd331d6a45","ios":"levelo://app?vid=20083ae5-f09f-4d10-9758-3cdd331d6a45"},"vehicle_type_id":"4","last_reported":1683486292,"current_range_meters":10000,"station_id":"","pricing_plan_id":"free"},{"bike_id":"34320fce-24bb-4291-be42-2c361aed67f0","system_id":"levelo_inurba_marseille","lat":43.33743,"lon":5.37429,"is_reserved":false,"is_disabled":false,"rental_uris":{"android":"levelo://app?vid=34320fce-24bb-4291-be42-2c361aed67f0","ios":"levelo://app?vid=34320fce-24bb-4291-be42-2c361aed67f0"},"vehicle_type_id":"4","last_reported":1683486292,"current_range_meters":18400,"station_id":"ce4rr2p2rcd13i802rgg","pricing_plan_id":"free"},{"bike_id":"610f4cf2-2ffb-4136-95ed-3579f336a8ea","system_id":"levelo_inurba_marseille","lat":43.3375,"lon":5.3743,"is_reserved":false,"is_disabled":false,"rental_uris":{"android":"levelo://app?vid=610f4cf2-2ffb-4136-95ed-3579f336a8ea","ios":"levelo://app?vid=610f4cf2-2ffb-4136-95ed-3579f336a8ea"},"vehicle_type_id":"4","last_reported":1683486292,"current_range_meters":22400,"station_id":"","pricing_plan_id":"free"},{"bike_id":"9070207c-ce23-4a97-b89f-da673252f922","system_id":"levelo_inurba_marseille","lat":43.33752,"lon":5.37486,"is_reserved":false,"is_disabled":false,"rental_uris":{"android":"levelo://app?vid=9070207c-ce23-4a97-b89f-da673252f922","ios":"levelo://app?vid=9070207c-ce23-4a97-b89f-da673252f922"},"vehicle_type_id":"4","last_reported":1683486292,"current_range_meters":21600,"station_id":"","pricing_plan_id":"free"},{"bike_id":"86b28340-532d-4ab8-ac19-19ffd45b0568","system_id":"levelo_inurba_marseille","lat":43.33752,"lon":5.37498,"is_reserved":false,"is_disabled":false,"rental_uris":{"android":"levelo://app?vid=86b28340-532d-4ab8-ac19-19ffd45b0568","ios":"levelo://app?vid=86b28340-532d-4ab8-ac19-19ffd45b0568"},"vehicle_type_id":"4","last_reported":1683486292,"current_range_meters":29600,"station_id":"","pricing_plan_id":"free"},{"bike_id":"c452a78d-8a25-4dac-a034-b406e8dd2a51","system_id":"levelo_inurba_marseille","lat":43.28781,"lon":5.35944,"is_reserved":false,"is_disabled":false,"rental_uris":{"android":"levelo://app?vid=c452a78d-8a25-4dac-a034-b406e8dd2a51","ios":"levelo://app?vid=c452a78d-8a25-4dac-a034-b406e8dd2a51"},"vehicle_type_id":"4","last_reported":1683486292,"current_range_meters":0,"station_id":"","pricing_plan_id":"free"},{"bike_id":"ae6bb9a9-fef4-41f5-a3c0-bfa45bfab314","system_id":"levelo_inurba_marseille","lat":43.30642,"lon":5.401031,"is_reserved":false,"is_disabled":false,"rental_uris":{"android":"levelo://app?vid=ae6bb9a9-fef4-41f5-a3c0-bfa45bfab314","ios":"levelo://app?vid=ae6bb9a9-fef4-41f5-a3c0-bfa45bfab314"},"vehicle_type_id":"4","last_reported":1683486292,"current_range_meters":5600,"station_id":"ce4bh112rcd13ifvqda0","pricing_plan_id":"free"},{"bike_id":"db84b57a-c242-4d31-93f3-e9f12005c4b3","system_id":"levelo_inurba_marseille","lat":43.33762,"lon":5.37494,"is_reserved":false,"is_disabled":false,"rental_uris":{"android":"levelo://app?vid=db84b57a-c242-4d31-93f3-e9f12005c4b3","ios":"levelo://app?vid=db84b57a-c242-4d31-93f3-e9f12005c4b3"},"vehicle_type_id":"4","last_reported":1683486292,"current_range_meters":22400,"station_id":"","pricing_plan_id":"free"},{"bike_id":"f5bf50f2-8bf3-4138-a7ec-07da0bbec997","system_id":"levelo_inurba_marseille","lat":43.30642,"lon":5.401031,"is_reserved":false,"is_disabled":false,"rental_uris":{"android":"levelo://app?vid=f5bf50f2-8bf3-4138-a7ec-07da0bbec997","ios":"levelo://app?vid=f5bf50f2-8bf3-4138-a7ec-07da0bbec997"},"vehicle_type_id":"4","last_reported":1683486292,"current_range_meters":9200,"station_id":"ce4bh112rcd13ifvqda0","pricing_plan_id":"free"},{"bike_id":"9e246a51-3f6f-40f9-8b9f-d3f9affbc7ce","system_id":"levelo_inurba_marseille","lat":43.30136,"lon":5.39859,"is_reserved":false,"is_disabled":false,"rental_uris":{"android":"levelo://app?vid=9e246a51-3f6f-40f9-8b9f-d3f9affbc7ce","ios":"levelo://app?vid=9e246a51-3f6f-40f9-8b9f-d3f9affbc7ce"},"vehicle_type_id":"4","last_reported":1683486292,"current_range_meters":3200,"station_id":"ce4bh0h2rcd13ifvqd40","pricing_plan_id":"free"},{"bike_id":"0e57832f-17c8-49c8-803b-79e3e9f6bca1","system_id":"levelo_inurba_marseille","lat":43.301117,"lon":5.398795,"is_reserved":false,"is_disabled":false,"rental_uris":{"android":"levelo://app?vid=0e57832f-17c8-49c8-803b-79e3e9f6bca1","ios":"levelo://app?vid=0e57832f-17c8-49c8-803b-79e3e9f6bca1"},"vehicle_type_id":"4","last_reported":1683486292,"current_range_meters":18000,"station_id":"ce4bh0h2rcd13ifvqd40","pricing_plan_id":"free"},{"bike_id":"e228155e-8198-4fd7-bb9f-6df1fc72a2b6","system_id":"levelo_inurba_marseille","lat":43.3013,"lon":5.39866,"is_reserved":false,"is_disabled":false,"rental_uris":{"android":"levelo://app?vid=e228155e-8198-4fd7-bb9f-6df1fc72a2b6","ios":"levelo://app?vid=e228155e-8198-4fd7-bb9f-6df1fc72a2b6"},"vehicle_type_id":"4","last_reported":1683486292,"current_range_meters":31200,"station_id":"","pricing_plan_id":"free"},{"bike_id":"e4f6c46b-ab39-4b0b-bead-3f49125e53e3","system_id":"levelo_inurba_marseille","lat":43.301117,"lon":5.398795,"is_reserved":false,"is_disabled":false,"rental_uris":{"android":"levelo://app?vid=e4f6c46b-ab39-4b0b-bead-3f49125e53e3","ios":"levelo://app?vid=e4f6c46b-ab39-4b0b-bead-3f49125e53e3"},"vehicle_type_id":"4","last_reported":1683486292,"current_range_meters":7600,"station_id":"ce4bh0h2rcd13ifvqd40","pricing_plan_id":"free"},{"bike_id":"65971f6f-86b6-4f08-99cd-2a17ec34aae3","system_id":"levelo_inurba_marseille","lat":43.30132,"lon":5.39876,"is_reserved":false,"is_disabled":false,"rental_uris":{"android":"levelo://app?vid=65971f6f-86b6-4f08-99cd-2a17ec34aae3","ios":"levelo://app?vid=65971f6f-86b6-4f08-99cd-2a17ec34aae3"},"vehicle_type_id":"4","last_reported":1683486292,"current_range_meters":5600,"station_id":"ce4bh0h2rcd13ifvqd40","pricing_plan_id":"free"},{"bike_id":"ef37eda8-2acf-46de-90c5-e1b08cc1ba3a","system_id":"levelo_inurba_marseille","lat":43.30138,"lon":5.39886,"is_reserved":false,"is_disabled":false,"rental_uris":{"android":"levelo://app?vid=ef37eda8-2acf-46de-90c5-e1b08cc1ba3a","ios":"levelo://app?vid=ef37eda8-2acf-46de-90c5-e1b08cc1ba3a"},"vehicle_type_id":"4","last_reported":1683486292,"current_range_meters":4800,"station_id":"ce4bh0h2rcd13ifvqd40","pricing_plan_id":"free"},{"bike_id":"8d6ad85f-de80-4b27-b796-297591c07b5e","system_id":"levelo_inurba_marseille","lat":43.298681,"lon":5.397225,"is_reserved":false,"is_disabled":false,"rental_uris":{"android":"levelo://app?vid=8d6ad85f-de80-4b27-b796-297591c07b5e","ios":"levelo://app?vid=8d6ad85f-de80-4b27-b796-297591c07b5e"},"vehicle_type_id":"4","last_reported":1683486292,"current_range_meters":14400,"station_id":"ce4bh0h2rcd13ifvqd50","pricing_plan_id":"free"},{"bike_id":"9e934ac1-4340-4180-9473-ffe96184d5f5","system_id":"levelo_inurba_marseille","lat":43.286591,"lon":5.363346,"is_reserved":false,"is_disabled":false,"rental_uris":{"android":"levelo://app?vid=9e934ac1-4340-4180-9473-ffe96184d5f5","ios":"levelo://app?vid=9e934ac1-4340-4180-9473-ffe96184d5f5"},"vehicle_type_id":"4","last_reported":1683486292,"current_range_meters":10400,"station_id":"ce4bhah2rcd13ifvqej0","pricing_plan_id":"free"},{"bike_id":"2704c185-1f5d-46c4-8fca-a8b0c82afb7a","system_id":"levelo_inurba_marseille","lat":43.298681,"lon":5.397225,"is_reserved":false,"is_disabled":false,"rental_uris":{"android":"levelo://app?vid=2704c185-1f5d-46c4-8fca-a8b0c82afb7a","ios":"levelo://app?vid=2704c185-1f5d-46c4-8fca-a8b0c82afb7a"},"vehicle_type_id":"4","last_reported":1683486292,"current_range_meters":23600,"station_id":"ce4bh0h2rcd13ifvqd50","pricing_plan_id":"free"},{"bike_id":"4b57e083-5a7a-4e1d-b815-ba973aecaf34","system_id":"levelo_inurba_marseille","lat":43.286591,"lon":5.363346,"is_reserved":false,"is_disabled":false,"rental_uris":{"android":"levelo://app?vid=4b57e083-5a7a-4e1d-b815-ba973aecaf34","ios":"levelo://app?vid=4b57e083-5a7a-4e1d-b815-ba973aecaf34"},"vehicle_type_id":"4","last_reported":1683486292,"current_range_meters":20000,"station_id":"ce4bhah2rcd13ifvqej0","pricing_plan_id":"free"},{"bike_id":"bedccb9a-ce52-4bd0-b4e8-a7a93157ad8c","system_id":"levelo_inurba_marseille","lat":43.298681,"lon":5.397225,"is_reserved":false,"is_disabled":false,"rental_uris":{"android":"levelo://app?vid=bedccb9a-ce52-4bd0-b4e8-a7a93157ad8c","ios":"levelo://app?vid=bedccb9a-ce52-4bd0-b4e8-a7a93157ad8c"},"vehicle_type_id":"4","last_reported":1683486292,"current_range_meters":3600,"station_id":"ce4bh0h2rcd13ifvqd50","pricing_plan_id":"free"},{"bike_id":"d9024c4d-c4a7-414d-b6b6-e95fb78d7cb6","system_id":"levelo_inurba_marseille","lat":43.298681,"lon":5.397225,"is_reserved":false,"is_disabled":false,"rental_uris":{"android":"levelo://app?vid=d9024c4d-c4a7-414d-b6b6-e95fb78d7cb6","ios":"levelo://app?vid=d9024c4d-c4a7-414d-b6b6-e95fb78d7cb6"},"vehicle_type_id":"4","last_reported":1683486292,"current_range_meters":0,"station_id":"ce4bh0h2rcd13ifvqd50","pricing_plan_id":"free"},{"bike_id":"86184c90-26a8-4663-b91f-d159c8a2bca4","system_id":"levelo_inurba_marseille","lat":43.295196,"lon":5.39397,"is_reserved":false,"is_disabled":false,"rental_uris":{"android":"levelo://app?vid=86184c90-26a8-4663-b91f-d159c8a2bca4","ios":"levelo://app?vid=86184c90-26a8-4663-b91f-d159c8a2bca4"},"vehicle_type_id":"4","last_reported":1683486292,"current_range_meters":0,"station_id":"ce4bh292rcd13ifvqdf0","pricing_plan_id":"free"},{"bike_id":"cc2591e8-b28c-4cc7-aead-429b944b4cd4","system_id":"levelo_inurba_marseille","lat":43.286593,"lon":5.363346,"is_reserved":false,"is_disabled":false,"rental_uris":{"android":"levelo://app?vid=cc2591e8-b28c-4cc7-aead-429b944b4cd4","ios":"levelo://app?vid=cc2591e8-b28c-4cc7-aead-429b944b4cd4"},"vehicle_type_id":"4","last_reported":1683486292,"current_range_meters":11600,"station_id":"ce4bhah2rcd13ifvqej0","pricing_plan_id":"free"},{"bike_id":"c128c9fd-eb7f-4fc8-97af-323b7c1487b9","system_id":"levelo_inurba_marseille","lat":43.295196,"lon":5.39397,"is_reserved":false,"is_disabled":false,"rental_uris":{"android":"levelo://app?vid=c128c9fd-eb7f-4fc8-97af-323b7c1487b9","ios":"levelo://app?vid=c128c9fd-eb7f-4fc8-97af-323b7c1487b9"},"vehicle_type_id":"4","last_reported":1683486292,"current_range_meters":18000,"station_id":"ce4bh292rcd13ifvqdf0","pricing_plan_id":"free"},{"bike_id":"a9bf2059-7628-49ed-9d54-f4ea0f69b4d4","system_id":"levelo_inurba_marseille","lat":43.295196,"lon":5.39397,"is_reserved":false,"is_disabled":false,"rental_uris":{"android":"levelo://app?vid=a9bf2059-7628-49ed-9d54-f4ea0f69b4d4","ios":"levelo://app?vid=a9bf2059-7628-49ed-9d54-f4ea0f69b4d4"},"vehicle_type_id":"4","last_reported":1683486292,"current_range_meters":400,"station_id":"ce4bh292rcd13ifvqdf0","pricing_plan_id":"free"},{"bike_id":"97d72e45-8b40-4cf9-9f26-e73a9b9098a9","system_id":"levelo_inurba_marseille","lat":43.295194,"lon":5.39397,"is_reserved":false,"is_disabled":false,"rental_uris":{"android":"levelo://app?vid=97d72e45-8b40-4cf9-9f26-e73a9b9098a9","ios":"levelo://app?vid=97d72e45-8b40-4cf9-9f26-e73a9b9098a9"},"vehicle_type_id":"4","last_reported":1683486292,"current_range_meters":6800,"station_id":"ce4bh292rcd13ifvqdf0","pricing_plan_id":"free"},{"bike_id":"6f9e810f-4c62-4ca6-b315-b67c6a4ef1fc","system_id":"levelo_inurba_marseille","lat":43.295196,"lon":5.39397,"is_reserved":false,"is_disabled":false,"rental_uris":{"android":"levelo://app?vid=6f9e810f-4c62-4ca6-b315-b67c6a4ef1fc","ios":"levelo://app?vid=6f9e810f-4c62-4ca6-b315-b67c6a4ef1fc"},"vehicle_type_id":"4","last_reported":1683486292,"current_range_meters":26000,"station_id":"ce4bh292rcd13ifvqdf0","pricing_plan_id":"free"},{"bike_id":"9f08c17d-8efe-49cc-ac93-43dd67a96df5","system_id":"levelo_inurba_marseille","lat":43.286593,"lon":5.363346,"is_reserved":false,"is_disabled":false,"rental_uris":{"android":"levelo://app?vid=9f08c17d-8efe-49cc-ac93-43dd67a96df5","ios":"levelo://app?vid=9f08c17d-8efe-49cc-ac93-43dd67a96df5"},"vehicle_type_id":"4","last_reported":1683486292,"current_range_meters":1200,"station_id":"ce4bhah2rcd13ifvqej0","pricing_plan_id":"free"},{"bike_id":"7f28d873-1e1d-4f83-87fd-703bd863eb2e","system_id":"levelo_inurba_marseille","lat":43.29525,"lon":5.39398,"is_reserved":false,"is_disabled":false,"rental_uris":{"android":"levelo://app?vid=7f28d873-1e1d-4f83-87fd-703bd863eb2e","ios":"levelo://app?vid=7f28d873-1e1d-4f83-87fd-703bd863eb2e"},"vehicle_type_id":"4","last_reported":1683486292,"current_range_meters":7200,"station_id":"ce4bh292rcd13ifvqdf0","pricing_plan_id":"free"},{"bike_id":"731bbbe3-3cd7-45b1-801d-4bbb22f75d09","system_id":"levelo_inurba_marseille","lat":43.29524,"lon":5.39402,"is_reserved":false,"is_disabled":false,"rental_uris":{"android":"levelo://app?vid=731bbbe3-3cd7-45b1-801d-4bbb22f75d09","ios":"levelo://app?vid=731bbbe3-3cd7-45b1-801d-4bbb22f75d09"},"vehicle_type_id":"4","last_reported":1683486292,"current_range_meters":400,"station_id":"ce4bh292rcd13ifvqdf0","pricing_plan_id":"free"},{"bike_id":"084457d2-c7bf-4287-b4f6-549cb96f16d3","system_id":"levelo_inurba_marseille","lat":43.29029,"lon":5.38633,"is_reserved":false,"is_disabled":false,"rental_uris":{"android":"levelo://app?vid=084457d2-c7bf-4287-b4f6-549cb96f16d3","ios":"levelo://app?vid=084457d2-c7bf-4287-b4f6-549cb96f16d3"},"vehicle_type_id":"4","last_reported":1683486292,"current_range_meters":6400,"station_id":"ce4bh4p2rcd13ifvqe0g","pricing_plan_id":"free"},{"bike_id":"60178df6-e4cf-4e12-8172-69fecd186260","system_id":"levelo_inurba_marseille","lat":43.290336,"lon":5.386425,"is_reserved":false,"is_disabled":false,"rental_uris":{"android":"levelo://app?vid=60178df6-e4cf-4e12-8172-69fecd186260","ios":"levelo://app?vid=60178df6-e4cf-4e12-8172-69fecd186260"},"vehicle_type_id":"4","last_reported":1683486292,"current_range_meters":28800,"station_id":"ce4bh4p2rcd13ifvqe0g","pricing_plan_id":"free"},{"bike_id":"077ef71a-37cf-4507-85d3-14506539276a","system_id":"levelo_inurba_marseille","lat":43.286039,"lon":5.370679,"is_reserved":false,"is_disabled":false,"rental_uris":{"android":"levelo://app?vid=077ef71a-37cf-4507-85d3-14506539276a","ios":"levelo://app?vid=077ef71a-37cf-4507-85d3-14506539276a"},"vehicle_type_id":"4","last_reported":1683486292,"current_range_meters":6800,"station_id":"ce4bht12rcd13ifvqi60","pricing_plan_id":"free"},{"bike_id":"99e48394-21d7-4c04-9681-92ba4ac06715","system_id":"levelo_inurba_marseille","lat":43.287184,"lon":5.37937,"is_reserved":false,"is_disabled":false,"rental_uris":{"android":"levelo://app?vid=99e48394-21d7-4c04-9681-92ba4ac06715","ios":"levelo://app?vid=99e48394-21d7-4c04-9681-92ba4ac06715"},"vehicle_type_id":"4","last_reported":1683486292,"current_range_meters":4400,"station_id":"ce4bh9p2rcd13ifvqec0","pricing_plan_id":"free"},{"bike_id":"29a7ee9f-969b-4dec-bc4d-f9832274a9f3","system_id":"levelo_inurba_marseille","lat":43.287184,"lon":5.37937,"is_reserved":false,"is_disabled":false,"rental_uris":{"android":"levelo://app?vid=29a7ee9f-969b-4dec-bc4d-f9832274a9f3","ios":"levelo://app?vid=29a7ee9f-969b-4dec-bc4d-f9832274a9f3"},"vehicle_type_id":"4","last_reported":1683486292,"current_range_meters":0,"station_id":"ce4bh9p2rcd13ifvqec0","pricing_plan_id":"free"},{"bike_id":"e76cf5fd-700d-4f8b-87ad-3e64c2085754","system_id":"levelo_inurba_marseille","lat":43.31637,"lon":5.40435,"is_reserved":false,"is_disabled":false,"rental_uris":{"android":"levelo://app?vid=e76cf5fd-700d-4f8b-87ad-3e64c2085754","ios":"levelo://app?vid=e76cf5fd-700d-4f8b-87ad-3e64c2085754"},"vehicle_type_id":"4","last_reported":1683486292,"current_range_meters":4400,"station_id":"ce4bh012rcd13ifvqd00","pricing_plan_id":"free"},{"bike_id":"203d7ead-2233-4f84-a1fa-ed07de50fd22","system_id":"levelo_inurba_marseille","lat":43.316523,"lon":5.404367,"is_reserved":false,"is_disabled":false,"rental_uris":{"android":"levelo://app?vid=203d7ead-2233-4f84-a1fa-ed07de50fd22","ios":"levelo://app?vid=203d7ead-2233-4f84-a1fa-ed07de50fd22"},"vehicle_type_id":"4","last_reported":1683486292,"current_range_meters":0,"station_id":"ce4bh012rcd13ifvqd00","pricing_plan_id":"free"},{"bike_id":"9b58c03a-e056-4d5d-9897-00689f1be5e2","system_id":"levelo_inurba_marseille","lat":43.33473,"lon":5.38999,"is_reserved":false,"is_disabled":false,"rental_uris":{"android":"levelo://app?vid=9b58c03a-e056-4d5d-9897-00689f1be5e2","ios":"levelo://app?vid=9b58c03a-e056-4d5d-9897-00689f1be5e2"},"vehicle_type_id":"4","last_reported":1683486292,"current_range_meters":2400,"station_id":"","pricing_plan_id":"free"},{"bike_id":"27865f6e-c046-4416-9233-48156b6bae2c","system_id":"levelo_inurba_marseille","lat":43.33482,"lon":5.38984,"is_reserved":false,"is_disabled":false,"rental_uris":{"android":"levelo://app?vid=27865f6e-c046-4416-9233-48156b6bae2c","ios":"levelo://app?vid=27865f6e-c046-4416-9233-48156b6bae2c"},"vehicle_type_id":"4","last_reported":1683486292,"current_range_meters":24800,"station_id":"","pricing_plan_id":"free"},{"bike_id":"ff9c2625-0c48-4e31-aa5d-2911e495a5eb","system_id":"levelo_inurba_marseille","lat":43.291994,"lon":5.392907,"is_reserved":false,"is_disabled":false,"rental_uris":{"android":"levelo://app?vid=ff9c2625-0c48-4e31-aa5d-2911e495a5eb","ios":"levelo://app?vid=ff9c2625-0c48-4e31-aa5d-2911e495a5eb"},"vehicle_type_id":"4","last_reported":1683486292,"current_range_meters":24400,"station_id":"ce4bh192rcd13ifvqdd0","pricing_plan_id":"free"},{"bike_id":"ba7c2c80-fd45-4d6a-a14f-736c82a8c426","system_id":"levelo_inurba_marseille","lat":43.284534,"lon":5.358662,"is_reserved":false,"is_disabled":false,"rental_uris":{"android":"levelo://app?vid=ba7c2c80-fd45-4d6a-a14f-736c82a8c426","ios":"levelo://app?vid=ba7c2c80-fd45-4d6a-a14f-736c82a8c426"},"vehicle_type_id":"4","last_reported":1683486292,"current_range_meters":19600,"station_id":"ce4bhah2rcd13ifvqei0","pricing_plan_id":"free"},{"bike_id":"cb26f6fa-eba0-48e5-b41e-d8ff74143aac","system_id":"levelo_inurba_marseille","lat":43.284534,"lon":5.358662,"is_reserved":false,"is_disabled":false,"rental_uris":{"android":"levelo://app?vid=cb26f6fa-eba0-48e5-b41e-d8ff74143aac","ios":"levelo://app?vid=cb26f6fa-eba0-48e5-b41e-d8ff74143aac"},"vehicle_type_id":"4","last_reported":1683486292,"current_range_meters":18000,"station_id":"ce4bhah2rcd13ifvqei0","pricing_plan_id":"free"},{"bike_id":"f5311598-b72a-42e5-8ad5-6a5b2291c6d6","system_id":"levelo_inurba_marseille","lat":43.284534,"lon":5.358662,"is_reserved":false,"is_disabled":false,"rental_uris":{"android":"levelo://app?vid=f5311598-b72a-42e5-8ad5-6a5b2291c6d6","ios":"levelo://app?vid=f5311598-b72a-42e5-8ad5-6a5b2291c6d6"},"vehicle_type_id":"4","last_reported":1683486292,"current_range_meters":0,"station_id":"ce4bhah2rcd13ifvqei0","pricing_plan_id":"free"},{"bike_id":"5b802685-ca51-42b9-a06e-159c6e52a68a","system_id":"levelo_inurba_marseille","lat":43.284534,"lon":5.358662,"is_reserved":false,"is_disabled":false,"rental_uris":{"android":"levelo://app?vid=5b802685-ca51-42b9-a06e-159c6e52a68a","ios":"levelo://app?vid=5b802685-ca51-42b9-a06e-159c6e52a68a"},"vehicle_type_id":"4","last_reported":1683486292,"current_range_meters":1200,"station_id":"ce4bhah2rcd13ifvqei0","pricing_plan_id":"free"},{"bike_id":"1392ce2f-d930-4efc-832f-119a87f9d5d5","system_id":"levelo_inurba_marseille","lat":43.28617,"lon":5.35097,"is_reserved":false,"is_disabled":false,"rental_uris":{"android":"levelo://app?vid=1392ce2f-d930-4efc-832f-119a87f9d5d5","ios":"levelo://app?vid=1392ce2f-d930-4efc-832f-119a87f9d5d5"},"vehicle_type_id":"4","last_reported":1683486292,"current_range_meters":12400,"station_id":"","pricing_plan_id":"free"},{"bike_id":"d435ae7e-42bb-4967-b401-e56a82e99786","system_id":"levelo_inurba_marseille","lat":43.28613,"lon":5.351,"is_reserved":false,"is_disabled":false,"rental_uris":{"android":"levelo://app?vid=d435ae7e-42bb-4967-b401-e56a82e99786","ios":"levelo://app?vid=d435ae7e-42bb-4967-b401-e56a82e99786"},"vehicle_type_id":"4","last_reported":1683486292,"current_range_meters":0,"station_id":"","pricing_plan_id":"free"},{"bike_id":"30bcb7ce-68ed-44bc-a0d5-2355bad0bf71","system_id":"levelo_inurba_marseille","lat":43.28612,"lon":5.35102,"is_reserved":false,"is_disabled":false,"rental_uris":{"android":"levelo://app?vid=30bcb7ce-68ed-44bc-a0d5-2355bad0bf71","ios":"levelo://app?vid=30bcb7ce-68ed-44bc-a0d5-2355bad0bf71"},"vehicle_type_id":"4","last_reported":1683486292,"current_range_meters":0,"station_id":"","pricing_plan_id":"free"},{"bike_id":"2730d0cd-93f8-4315-8a1b-7dd568f7aa6b","system_id":"levelo_inurba_marseille","lat":43.295713,"lon":5.399639,"is_reserved":false,"is_disabled":false,"rental_uris":{"android":"levelo://app?vid=2730d0cd-93f8-4315-8a1b-7dd568f7aa6b","ios":"levelo://app?vid=2730d0cd-93f8-4315-8a1b-7dd568f7aa6b"},"vehicle_type_id":"4","last_reported":1683486292,"current_range_meters":4000,"station_id":"ce4bh312rcd13ifvqdj0","pricing_plan_id":"free"},{"bike_id":"d5059d72-d316-4b84-b107-77a2d538e8cb","system_id":"levelo_inurba_marseille","lat":43.295713,"lon":5.399639,"is_reserved":false,"is_disabled":false,"rental_uris":{"android":"levelo://app?vid=d5059d72-d316-4b84-b107-77a2d538e8cb","ios":"levelo://app?vid=d5059d72-d316-4b84-b107-77a2d538e8cb"},"vehicle_type_id":"4","last_reported":1683486292,"current_range_meters":14800,"station_id":"ce4bh312rcd13ifvqdj0","pricing_plan_id":"free"},{"bike_id":"7b3144b7-d882-4bf9-8a30-6604114a58f8","system_id":"levelo_inurba_marseille","lat":43.295713,"lon":5.399639,"is_reserved":false,"is_disabled":false,"rental_uris":{"android":"levelo://app?vid=7b3144b7-d882-4bf9-8a30-6604114a58f8","ios":"levelo://app?vid=7b3144b7-d882-4bf9-8a30-6604114a58f8"},"vehicle_type_id":"4","last_reported":1683486292,"current_range_meters":8400,"station_id":"ce4bh312rcd13ifvqdj0","pricing_plan_id":"free"},{"bike_id":"82a5ca39-8ede-4536-a507-96f6c2a4d669","system_id":"levelo_inurba_marseille","lat":43.295713,"lon":5.399639,"is_reserved":false,"is_disabled":false,"rental_uris":{"android":"levelo://app?vid=82a5ca39-8ede-4536-a507-96f6c2a4d669","ios":"levelo://app?vid=82a5ca39-8ede-4536-a507-96f6c2a4d669"},"vehicle_type_id":"4","last_reported":1683486292,"current_range_meters":14000,"station_id":"ce4bh312rcd13ifvqdj0","pricing_plan_id":"free"},{"bike_id":"61b013a6-2f25-4ada-a402-22219e72ef5e","system_id":"levelo_inurba_marseille","lat":43.295713,"lon":5.399639,"is_reserved":false,"is_disabled":false,"rental_uris":{"android":"levelo://app?vid=61b013a6-2f25-4ada-a402-22219e72ef5e","ios":"levelo://app?vid=61b013a6-2f25-4ada-a402-22219e72ef5e"},"vehicle_type_id":"4","last_reported":1683486292,"current_range_meters":14000,"station_id":"ce4bh312rcd13ifvqdj0","pricing_plan_id":"free"},{"bike_id":"c87128ed-4f0b-4305-8e96-31afa66a60c8","system_id":"levelo_inurba_marseille","lat":43.295713,"lon":5.399639,"is_reserved":false,"is_disabled":false,"rental_uris":{"android":"levelo://app?vid=c87128ed-4f0b-4305-8e96-31afa66a60c8","ios":"levelo://app?vid=c87128ed-4f0b-4305-8e96-31afa66a60c8"},"vehicle_type_id":"4","last_reported":1683486292,"current_range_meters":31200,"station_id":"ce4bh312rcd13ifvqdj0","pricing_plan_id":"free"},{"bike_id":"31067e02-e414-431d-aaf0-25c301ac2a61","system_id":"levelo_inurba_marseille","lat":43.295713,"lon":5.399639,"is_reserved":false,"is_disabled":false,"rental_uris":{"android":"levelo://app?vid=31067e02-e414-431d-aaf0-25c301ac2a61","ios":"levelo://app?vid=31067e02-e414-431d-aaf0-25c301ac2a61"},"vehicle_type_id":"4","last_reported":1683486292,"current_range_meters":4400,"station_id":"ce4bh312rcd13ifvqdj0","pricing_plan_id":"free"},{"bike_id":"f3b87c84-fb34-419f-bf9a-d45c9c2b995d","system_id":"levelo_inurba_marseille","lat":43.29568,"lon":5.40014,"is_reserved":false,"is_disabled":false,"rental_uris":{"android":"levelo://app?vid=f3b87c84-fb34-419f-bf9a-d45c9c2b995d","ios":"levelo://app?vid=f3b87c84-fb34-419f-bf9a-d45c9c2b995d"},"vehicle_type_id":"4","last_reported":1683486292,"current_range_meters":10000,"station_id":"","pricing_plan_id":"free"},{"bike_id":"692cee5c-476a-4b1e-af5d-dda83a7fa7c7","system_id":"levelo_inurba_marseille","lat":43.286595,"lon":5.386795,"is_reserved":false,"is_disabled":false,"rental_uris":{"android":"levelo://app?vid=692cee5c-476a-4b1e-af5d-dda83a7fa7c7","ios":"levelo://app?vid=692cee5c-476a-4b1e-af5d-dda83a7fa7c7"},"vehicle_type_id":"4","last_reported":1683486292,"current_range_meters":400,"station_id":"ce4bh492rcd13ifvqdug","pricing_plan_id":"free"},{"bike_id":"7cdb1143-1df3-41fc-a179-c2f32ca67ebe","system_id":"levelo_inurba_marseille","lat":43.28514,"lon":5.35117,"is_reserved":false,"is_disabled":false,"rental_uris":{"android":"levelo://app?vid=7cdb1143-1df3-41fc-a179-c2f32ca67ebe","ios":"levelo://app?vid=7cdb1143-1df3-41fc-a179-c2f32ca67ebe"},"vehicle_type_id":"4","last_reported":1683486292,"current_range_meters":3200,"station_id":"","pricing_plan_id":"free"},{"bike_id":"90fefa4d-bf6c-4e62-8594-ec1e43ae7025","system_id":"levelo_inurba_marseille","lat":43.337168,"lon":5.391825,"is_reserved":false,"is_disabled":false,"rental_uris":{"android":"levelo://app?vid=90fefa4d-bf6c-4e62-8594-ec1e43ae7025","ios":"levelo://app?vid=90fefa4d-bf6c-4e62-8594-ec1e43ae7025"},"vehicle_type_id":"4","last_reported":1683486292,"current_range_meters":26400,"station_id":"ce4bhr92rcd13ifvqhsg","pricing_plan_id":"free"},{"bike_id":"972bd449-5ef3-438e-a356-889e22be2f2a","system_id":"levelo_inurba_marseille","lat":43.330442,"lon":5.389148,"is_reserved":false,"is_disabled":false,"rental_uris":{"android":"levelo://app?vid=972bd449-5ef3-438e-a356-889e22be2f2a","ios":"levelo://app?vid=972bd449-5ef3-438e-a356-889e22be2f2a"},"vehicle_type_id":"4","last_reported":1683486292,"current_range_meters":0,"station_id":"ce4bhr92rcd13ifvqhrg","pricing_plan_id":"free"},{"bike_id":"ad3cdfdb-0864-4cce-8a5d-05a05de94244","system_id":"levelo_inurba_marseille","lat":43.30087,"lon":5.40556,"is_reserved":false,"is_disabled":false,"rental_uris":{"android":"levelo://app?vid=ad3cdfdb-0864-4cce-8a5d-05a05de94244","ios":"levelo://app?vid=ad3cdfdb-0864-4cce-8a5d-05a05de94244"},"vehicle_type_id":"4","last_reported":1683486292,"current_range_meters":14400,"station_id":"","pricing_plan_id":"free"},{"bike_id":"66347a98-1827-4670-afcc-990213ab206a","system_id":"levelo_inurba_marseille","lat":43.284793,"lon":5.384113,"is_reserved":false,"is_disabled":false,"rental_uris":{"android":"levelo://app?vid=66347a98-1827-4670-afcc-990213ab206a","ios":"levelo://app?vid=66347a98-1827-4670-afcc-990213ab206a"},"vehicle_type_id":"4","last_reported":1683486292,"current_range_meters":0,"station_id":"ce4bh512rcd13ifvqe3g","pricing_plan_id":"free"},{"bike_id":"71295c98-52cb-44bc-96bb-1481107673f9","system_id":"levelo_inurba_marseille","lat":43.284793,"lon":5.384113,"is_reserved":false,"is_disabled":false,"rental_uris":{"android":"levelo://app?vid=71295c98-52cb-44bc-96bb-1481107673f9","ios":"levelo://app?vid=71295c98-52cb-44bc-96bb-1481107673f9"},"vehicle_type_id":"4","last_reported":1683486292,"current_range_meters":0,"station_id":"ce4bh512rcd13ifvqe3g","pricing_plan_id":"free"},{"bike_id":"061e09ae-4ec9-4f7c-9c99-03473f9a50b1","system_id":"levelo_inurba_marseille","lat":43.284793,"lon":5.384119,"is_reserved":false,"is_disabled":false,"rental_uris":{"android":"levelo://app?vid=061e09ae-4ec9-4f7c-9c99-03473f9a50b1","ios":"levelo://app?vid=061e09ae-4ec9-4f7c-9c99-03473f9a50b1"},"vehicle_type_id":"4","last_reported":1683486292,"current_range_meters":13600,"station_id":"ce4bh512rcd13ifvqe3g","pricing_plan_id":"free"},{"bike_id":"51b6fd99-3bf7-4734-bece-609d3c3a462c","system_id":"levelo_inurba_marseille","lat":43.284787,"lon":5.384116,"is_reserved":false,"is_disabled":false,"rental_uris":{"android":"levelo://app?vid=51b6fd99-3bf7-4734-bece-609d3c3a462c","ios":"levelo://app?vid=51b6fd99-3bf7-4734-bece-609d3c3a462c"},"vehicle_type_id":"4","last_reported":1683486292,"current_range_meters":800,"station_id":"ce4bh512rcd13ifvqe3g","pricing_plan_id":"free"},{"bike_id":"c5283989-ed05-40dc-a73e-aa530f959fbd","system_id":"levelo_inurba_marseille","lat":43.284787,"lon":5.384116,"is_reserved":false,"is_disabled":false,"rental_uris":{"android":"levelo://app?vid=c5283989-ed05-40dc-a73e-aa530f959fbd","ios":"levelo://app?vid=c5283989-ed05-40dc-a73e-aa530f959fbd"},"vehicle_type_id":"4","last_reported":1683486292,"current_range_meters":16400,"station_id":"ce4bh512rcd13ifvqe3g","pricing_plan_id":"free"},{"bike_id":"0adfc72c-9968-484d-9639-716621f9f3e3","system_id":"levelo_inurba_marseille","lat":43.288497,"lon":5.393089,"is_reserved":false,"is_disabled":false,"rental_uris":{"android":"levelo://app?vid=0adfc72c-9968-484d-9639-716621f9f3e3","ios":"levelo://app?vid=0adfc72c-9968-484d-9639-716621f9f3e3"},"vehicle_type_id":"4","last_reported":1683486292,"current_range_meters":30400,"station_id":"ce4bh2p2rcd13ifvqdi0","pricing_plan_id":"free"},{"bike_id":"42d80f38-04fa-4e9f-a2a1-1bf1186b425d","system_id":"levelo_inurba_marseille","lat":43.28425,"lon":5.3499,"is_reserved":false,"is_disabled":false,"rental_uris":{"android":"levelo://app?vid=42d80f38-04fa-4e9f-a2a1-1bf1186b425d","ios":"levelo://app?vid=42d80f38-04fa-4e9f-a2a1-1bf1186b425d"},"vehicle_type_id":"4","last_reported":1683486292,"current_range_meters":2800,"station_id":"ce4bhbh2rcd13ifvqepg","pricing_plan_id":"free"},{"bike_id":"9112938d-c93f-40a5-8fa6-ba7771880c8d","system_id":"levelo_inurba_marseille","lat":43.28423,"lon":5.34987,"is_reserved":false,"is_disabled":false,"rental_uris":{"android":"levelo://app?vid=9112938d-c93f-40a5-8fa6-ba7771880c8d","ios":"levelo://app?vid=9112938d-c93f-40a5-8fa6-ba7771880c8d"},"vehicle_type_id":"4","last_reported":1683486292,"current_range_meters":0,"station_id":"ce4bhbh2rcd13ifvqepg","pricing_plan_id":"free"},{"bike_id":"210594e5-c9c4-4a0e-81d3-cf5786a009f0","system_id":"levelo_inurba_marseille","lat":43.284217,"lon":5.349697,"is_reserved":false,"is_disabled":false,"rental_uris":{"android":"levelo://app?vid=210594e5-c9c4-4a0e-81d3-cf5786a009f0","ios":"levelo://app?vid=210594e5-c9c4-4a0e-81d3-cf5786a009f0"},"vehicle_type_id":"4","last_reported":1683486292,"current_range_meters":10800,"station_id":"ce4bhbh2rcd13ifvqepg","pricing_plan_id":"free"},{"bike_id":"3001913d-de91-45bd-99d1-1f874008290c","system_id":"levelo_inurba_marseille","lat":43.284217,"lon":5.349697,"is_reserved":false,"is_disabled":false,"rental_uris":{"android":"levelo://app?vid=3001913d-de91-45bd-99d1-1f874008290c","ios":"levelo://app?vid=3001913d-de91-45bd-99d1-1f874008290c"},"vehicle_type_id":"4","last_reported":1683486292,"current_range_meters":21600,"station_id":"ce4bhbh2rcd13ifvqepg","pricing_plan_id":"free"},{"bike_id":"9ec4f4c3-b205-48bf-8272-f229f90c5797","system_id":"levelo_inurba_marseille","lat":43.28416,"lon":5.349653,"is_reserved":false,"is_disabled":false,"rental_uris":{"android":"levelo://app?vid=9ec4f4c3-b205-48bf-8272-f229f90c5797","ios":"levelo://app?vid=9ec4f4c3-b205-48bf-8272-f229f90c5797"},"vehicle_type_id":"4","last_reported":1683486292,"current_range_meters":2800,"station_id":"","pricing_plan_id":"free"},{"bike_id":"db54a379-3649-4094-bdaa-aa864d22b198","system_id":"levelo_inurba_marseille","lat":43.292724,"lon":5.401131,"is_reserved":false,"is_disabled":false,"rental_uris":{"android":"levelo://app?vid=db54a379-3649-4094-bdaa-aa864d22b198","ios":"levelo://app?vid=db54a379-3649-4094-bdaa-aa864d22b198"},"vehicle_type_id":"4","last_reported":1683486292,"current_range_meters":6000,"station_id":"ce4bh312rcd13ifvqdk0","pricing_plan_id":"free"},{"bike_id":"9198d445-c47d-42f1-ba25-2f0bba1ae4ed","system_id":"levelo_inurba_marseille","lat":43.292724,"lon":5.401131,"is_reserved":false,"is_disabled":false,"rental_uris":{"android":"levelo://app?vid=9198d445-c47d-42f1-ba25-2f0bba1ae4ed","ios":"levelo://app?vid=9198d445-c47d-42f1-ba25-2f0bba1ae4ed"},"vehicle_type_id":"4","last_reported":1683486292,"current_range_meters":2000,"station_id":"ce4bh312rcd13ifvqdk0","pricing_plan_id":"free"},{"bike_id":"2e6bb2ae-28bd-46cf-ab99-7a80ac8e08f4","system_id":"levelo_inurba_marseille","lat":43.292724,"lon":5.401131,"is_reserved":false,"is_disabled":false,"rental_uris":{"android":"levelo://app?vid=2e6bb2ae-28bd-46cf-ab99-7a80ac8e08f4","ios":"levelo://app?vid=2e6bb2ae-28bd-46cf-ab99-7a80ac8e08f4"},"vehicle_type_id":"4","last_reported":1683486292,"current_range_meters":9200,"station_id":"ce4bh312rcd13ifvqdk0","pricing_plan_id":"free"},{"bike_id":"e8fbaa13-39d0-4d85-99fb-b0029d47446e","system_id":"levelo_inurba_marseille","lat":43.292724,"lon":5.401131,"is_reserved":false,"is_disabled":false,"rental_uris":{"android":"levelo://app?vid=e8fbaa13-39d0-4d85-99fb-b0029d47446e","ios":"levelo://app?vid=e8fbaa13-39d0-4d85-99fb-b0029d47446e"},"vehicle_type_id":"4","last_reported":1683486292,"current_range_meters":1200,"station_id":"ce4bh312rcd13ifvqdk0","pricing_plan_id":"free"},{"bike_id":"95869d85-0edb-443a-81d4-febd4a1ba942","system_id":"levelo_inurba_marseille","lat":43.28273,"lon":5.35067,"is_reserved":false,"is_disabled":false,"rental_uris":{"android":"levelo://app?vid=95869d85-0edb-443a-81d4-febd4a1ba942","ios":"levelo://app?vid=95869d85-0edb-443a-81d4-febd4a1ba942"},"vehicle_type_id":"4","last_reported":1683486292,"current_range_meters":0,"station_id":"ce4bhbp2rcd13ifvqerg","pricing_plan_id":"free"},{"bike_id":"76242f32-c407-44d4-84d7-fa1d50b0f9dc","system_id":"levelo_inurba_marseille","lat":43.32444,"lon":5.40831,"is_reserved":false,"is_disabled":false,"rental_uris":{"android":"levelo://app?vid=76242f32-c407-44d4-84d7-fa1d50b0f9dc","ios":"levelo://app?vid=76242f32-c407-44d4-84d7-fa1d50b0f9dc"},"vehicle_type_id":"4","last_reported":1683486292,"current_range_meters":0,"station_id":"","pricing_plan_id":"free"},{"bike_id":"1c89993b-90e8-420e-998c-f24c9b6b6087","system_id":"levelo_inurba_marseille","lat":43.28039,"lon":5.369297,"is_reserved":false,"is_disabled":false,"rental_uris":{"android":"levelo://app?vid=1c89993b-90e8-420e-998c-f24c9b6b6087","ios":"levelo://app?vid=1c89993b-90e8-420e-998c-f24c9b6b6087"},"vehicle_type_id":"4","last_reported":1683486292,"current_range_meters":13600,"station_id":"ce4bha12rcd13ifvqef0","pricing_plan_id":"free"},{"bike_id":"fb42f6cc-5005-41d8-91e7-a87b50c277de","system_id":"levelo_inurba_marseille","lat":43.282754,"lon":5.350519,"is_reserved":false,"is_disabled":false,"rental_uris":{"android":"levelo://app?vid=fb42f6cc-5005-41d8-91e7-a87b50c277de","ios":"levelo://app?vid=fb42f6cc-5005-41d8-91e7-a87b50c277de"},"vehicle_type_id":"4","last_reported":1683486292,"current_range_meters":4800,"station_id":"ce4bhbp2rcd13ifvqerg","pricing_plan_id":"free"},{"bike_id":"3dbff5c2-d5b1-4b1a-8b55-0e27c45f2dc3","system_id":"levelo_inurba_marseille","lat":43.28039,"lon":5.369297,"is_reserved":false,"is_disabled":false,"rental_uris":{"android":"levelo://app?vid=3dbff5c2-d5b1-4b1a-8b55-0e27c45f2dc3","ios":"levelo://app?vid=3dbff5c2-d5b1-4b1a-8b55-0e27c45f2dc3"},"vehicle_type_id":"4","last_reported":1683486292,"current_range_meters":13200,"station_id":"ce4bha12rcd13ifvqef0","pricing_plan_id":"free"},{"bike_id":"048447c6-6b65-470a-abe6-0a216115b53e","system_id":"levelo_inurba_marseille","lat":43.280382,"lon":5.369291,"is_reserved":false,"is_disabled":false,"rental_uris":{"android":"levelo://app?vid=048447c6-6b65-470a-abe6-0a216115b53e","ios":"levelo://app?vid=048447c6-6b65-470a-abe6-0a216115b53e"},"vehicle_type_id":"4","last_reported":1683486292,"current_range_meters":31600,"station_id":"ce4bha12rcd13ifvqef0","pricing_plan_id":"free"},{"bike_id":"e145b7fb-c5bc-4285-91da-4bc0e037a852","system_id":"levelo_inurba_marseille","lat":43.280382,"lon":5.369291,"is_reserved":false,"is_disabled":false,"rental_uris":{"android":"levelo://app?vid=e145b7fb-c5bc-4285-91da-4bc0e037a852","ios":"levelo://app?vid=e145b7fb-c5bc-4285-91da-4bc0e037a852"},"vehicle_type_id":"4","last_reported":1683486292,"current_range_meters":6800,"station_id":"ce4bha12rcd13ifvqef0","pricing_plan_id":"free"},{"bike_id":"bbf3bd62-dad7-4556-97e8-78b404c014ce","system_id":"levelo_inurba_marseille","lat":43.28039,"lon":5.369297,"is_reserved":false,"is_disabled":false,"rental_uris":{"android":"levelo://app?vid=bbf3bd62-dad7-4556-97e8-78b404c014ce","ios":"levelo://app?vid=bbf3bd62-dad7-4556-97e8-78b404c014ce"},"vehicle_type_id":"4","last_reported":1683486292,"current_range_meters":15600,"station_id":"ce4bha12rcd13ifvqef0","pricing_plan_id":"free"},{"bike_id":"785b4e0b-a294-4d62-8d94-7b623edc03b9","system_id":"levelo_inurba_marseille","lat":43.29041,"lon":5.399634,"is_reserved":false,"is_disabled":false,"rental_uris":{"android":"levelo://app?vid=785b4e0b-a294-4d62-8d94-7b623edc03b9","ios":"levelo://app?vid=785b4e0b-a294-4d62-8d94-7b623edc03b9"},"vehicle_type_id":"4","last_reported":1683486292,"current_range_meters":7200,"station_id":"ce4bh392rcd13ifvqdm0","pricing_plan_id":"free"},{"bike_id":"6ce6fe67-ab19-4e7f-a305-5f462f1c4f1f","system_id":"levelo_inurba_marseille","lat":43.29041,"lon":5.399634,"is_reserved":false,"is_disabled":false,"rental_uris":{"android":"levelo://app?vid=6ce6fe67-ab19-4e7f-a305-5f462f1c4f1f","ios":"levelo://app?vid=6ce6fe67-ab19-4e7f-a305-5f462f1c4f1f"},"vehicle_type_id":"4","last_reported":1683486292,"current_range_meters":0,"station_id":"ce4bh392rcd13ifvqdm0","pricing_plan_id":"free"},{"bike_id":"7179ca2f-95cc-42b6-84e9-4abcb5d24b1a","system_id":"levelo_inurba_marseille","lat":43.296263,"lon":5.40601,"is_reserved":false,"is_disabled":false,"rental_uris":{"android":"levelo://app?vid=7179ca2f-95cc-42b6-84e9-4abcb5d24b1a","ios":"levelo://app?vid=7179ca2f-95cc-42b6-84e9-4abcb5d24b1a"},"vehicle_type_id":"4","last_reported":1683486292,"current_range_meters":10800,"station_id":"ce4bh0h2rcd13ifvqd60","pricing_plan_id":"free"},{"bike_id":"04ed7b83-1f77-4cec-847f-6d4bd9ccf03b","system_id":"levelo_inurba_marseille","lat":43.281044,"lon":5.378308,"is_reserved":false,"is_disabled":false,"rental_uris":{"android":"levelo://app?vid=04ed7b83-1f77-4cec-847f-6d4bd9ccf03b","ios":"levelo://app?vid=04ed7b83-1f77-4cec-847f-6d4bd9ccf03b"},"vehicle_type_id":"4","last_reported":1683486292,"current_range_meters":1600,"station_id":"ce4bha12rcd13ifvqee0","pricing_plan_id":"free"},{"bike_id":"23cc9bf4-8137-4907-942b-08e6cdb9e693","system_id":"levelo_inurba_marseille","lat":43.29041,"lon":5.399634,"is_reserved":false,"is_disabled":false,"rental_uris":{"android":"levelo://app?vid=23cc9bf4-8137-4907-942b-08e6cdb9e693","ios":"levelo://app?vid=23cc9bf4-8137-4907-942b-08e6cdb9e693"},"vehicle_type_id":"4","last_reported":1683486292,"current_range_meters":2400,"station_id":"ce4bh392rcd13ifvqdm0","pricing_plan_id":"free"},{"bike_id":"6b54b293-8eed-4038-bb4a-91c6704d19d2","system_id":"levelo_inurba_marseille","lat":43.28095,"lon":5.37856,"is_reserved":false,"is_disabled":false,"rental_uris":{"android":"levelo://app?vid=6b54b293-8eed-4038-bb4a-91c6704d19d2","ios":"levelo://app?vid=6b54b293-8eed-4038-bb4a-91c6704d19d2"},"vehicle_type_id":"4","last_reported":1683486292,"current_range_meters":25200,"station_id":"ce4bha12rcd13ifvqee0","pricing_plan_id":"free"},{"bike_id":"722a5455-b48f-49be-8e66-50b732b8400a","system_id":"levelo_inurba_marseille","lat":43.284462,"lon":5.392121,"is_reserved":false,"is_disabled":false,"rental_uris":{"android":"levelo://app?vid=722a5455-b48f-49be-8e66-50b732b8400a","ios":"levelo://app?vid=722a5455-b48f-49be-8e66-50b732b8400a"},"vehicle_type_id":"4","last_reported":1683486292,"current_range_meters":4400,"station_id":"ce4bhoh2rcd13ifvqh5g","pricing_plan_id":"free"},{"bike_id":"45be6590-c253-4f9a-aac1-1cbaacb87d3b","system_id":"levelo_inurba_marseille","lat":43.28579,"lon":5.39499,"is_reserved":false,"is_disabled":false,"rental_uris":{"android":"levelo://app?vid=45be6590-c253-4f9a-aac1-1cbaacb87d3b","ios":"levelo://app?vid=45be6590-c253-4f9a-aac1-1cbaacb87d3b"},"vehicle_type_id":"4","last_reported":1683486292,"current_range_meters":400,"station_id":"ce4bh292rcd13ifvqdg0","pricing_plan_id":"free"},{"bike_id":"668243c3-d60b-4631-afdb-df9623b63a2a","system_id":"levelo_inurba_marseille","lat":43.2857,"lon":5.39493,"is_reserved":false,"is_disabled":false,"rental_uris":{"android":"levelo://app?vid=668243c3-d60b-4631-afdb-df9623b63a2a","ios":"levelo://app?vid=668243c3-d60b-4631-afdb-df9623b63a2a"},"vehicle_type_id":"4","last_reported":1683486292,"current_range_meters":25600,"station_id":"ce4bh292rcd13ifvqdg0","pricing_plan_id":"free"},{"bike_id":"b4342e5c-538e-4a42-aa9e-2d21092385ee","system_id":"levelo_inurba_marseille","lat":43.28576,"lon":5.39508,"is_reserved":false,"is_disabled":false,"rental_uris":{"android":"levelo://app?vid=b4342e5c-538e-4a42-aa9e-2d21092385ee","ios":"levelo://app?vid=b4342e5c-538e-4a42-aa9e-2d21092385ee"},"vehicle_type_id":"4","last_reported":1683486292,"current_range_meters":2000,"station_id":"ce4bh292rcd13ifvqdg0","pricing_plan_id":"free"},{"bike_id":"9a67c35d-b7cd-4d16-be5d-ca611b8274c7","system_id":"levelo_inurba_marseille","lat":43.2857,"lon":5.395,"is_reserved":false,"is_disabled":false,"rental_uris":{"android":"levelo://app?vid=9a67c35d-b7cd-4d16-be5d-ca611b8274c7","ios":"levelo://app?vid=9a67c35d-b7cd-4d16-be5d-ca611b8274c7"},"vehicle_type_id":"4","last_reported":1683486292,"current_range_meters":13600,"station_id":"ce4bh292rcd13ifvqdg0","pricing_plan_id":"free"},{"bike_id":"ef202323-fab0-4d98-a18e-03ea751ea9f8","system_id":"levelo_inurba_marseille","lat":43.28569,"lon":5.39503,"is_reserved":false,"is_disabled":false,"rental_uris":{"android":"levelo://app?vid=ef202323-fab0-4d98-a18e-03ea751ea9f8","ios":"levelo://app?vid=ef202323-fab0-4d98-a18e-03ea751ea9f8"},"vehicle_type_id":"4","last_reported":1683486292,"current_range_meters":2000,"station_id":"ce4bh292rcd13ifvqdg0","pricing_plan_id":"free"},{"bike_id":"ec25b074-338f-437f-948b-0dc2b4e7360c","system_id":"levelo_inurba_marseille","lat":43.30419,"lon":5.4128,"is_reserved":false,"is_disabled":false,"rental_uris":{"android":"levelo://app?vid=ec25b074-338f-437f-948b-0dc2b4e7360c","ios":"levelo://app?vid=ec25b074-338f-437f-948b-0dc2b4e7360c"},"vehicle_type_id":"4","last_reported":1683486292,"current_range_meters":3600,"station_id":"ce4bhop2rcd13ifvqh8g","pricing_plan_id":"free"},{"bike_id":"af176709-4ca8-424b-a6ca-5a4b37210cb4","system_id":"levelo_inurba_marseille","lat":43.287154,"lon":5.399979,"is_reserved":false,"is_disabled":false,"rental_uris":{"android":"levelo://app?vid=af176709-4ca8-424b-a6ca-5a4b37210cb4","ios":"levelo://app?vid=af176709-4ca8-424b-a6ca-5a4b37210cb4"},"vehicle_type_id":"4","last_reported":1683486292,"current_range_meters":5200,"station_id":"ce4bho92rcd13ifvqh3g","pricing_plan_id":"free"},{"bike_id":"a1f0fd60-faa6-4ded-9fe5-9c30e7bc8255","system_id":"levelo_inurba_marseille","lat":43.281044,"lon":5.378308,"is_reserved":false,"is_disabled":false,"rental_uris":{"android":"levelo://app?vid=a1f0fd60-faa6-4ded-9fe5-9c30e7bc8255","ios":"levelo://app?vid=a1f0fd60-faa6-4ded-9fe5-9c30e7bc8255"},"vehicle_type_id":"4","last_reported":1683486292,"current_range_meters":400,"station_id":"ce4bha12rcd13ifvqee0","pricing_plan_id":"free"},{"bike_id":"ba016776-39b2-4c35-8665-5cfbb2818d40","system_id":"levelo_inurba_marseille","lat":43.32535,"lon":5.41423,"is_reserved":false,"is_disabled":false,"rental_uris":{"android":"levelo://app?vid=ba016776-39b2-4c35-8665-5cfbb2818d40","ios":"levelo://app?vid=ba016776-39b2-4c35-8665-5cfbb2818d40"},"vehicle_type_id":"4","last_reported":1683486292,"current_range_meters":30800,"station_id":"ce4bhq12rcd13ifvqhhg","pricing_plan_id":"free"},{"bike_id":"3c6dfcaa-0783-4cb7-8033-709a122db7ac","system_id":"levelo_inurba_marseille","lat":43.292571,"lon":5.409107,"is_reserved":false,"is_disabled":false,"rental_uris":{"android":"levelo://app?vid=3c6dfcaa-0783-4cb7-8033-709a122db7ac","ios":"levelo://app?vid=3c6dfcaa-0783-4cb7-8033-709a122db7ac"},"vehicle_type_id":"4","last_reported":1683486292,"current_range_meters":19600,"station_id":"ce4bh192rcd13ifvqdc0","pricing_plan_id":"free"},{"bike_id":"315bf700-a0fb-482f-8df2-a8042ed77cb4","system_id":"levelo_inurba_marseille","lat":43.325233,"lon":5.414318,"is_reserved":false,"is_disabled":false,"rental_uris":{"android":"levelo://app?vid=315bf700-a0fb-482f-8df2-a8042ed77cb4","ios":"levelo://app?vid=315bf700-a0fb-482f-8df2-a8042ed77cb4"},"vehicle_type_id":"4","last_reported":1683486292,"current_range_meters":20000,"station_id":"ce4bhq12rcd13ifvqhhg","pricing_plan_id":"free"},{"bike_id":"55c89222-8251-4c48-a9e5-42cc22773dad","system_id":"levelo_inurba_marseille","lat":43.3254,"lon":5.41432,"is_reserved":false,"is_disabled":false,"rental_uris":{"android":"levelo://app?vid=55c89222-8251-4c48-a9e5-42cc22773dad","ios":"levelo://app?vid=55c89222-8251-4c48-a9e5-42cc22773dad"},"vehicle_type_id":"4","last_reported":1683486292,"current_range_meters":25600,"station_id":"ce4bhq12rcd13ifvqhhg","pricing_plan_id":"free"},{"bike_id":"f927b1c6-fd23-4d5f-825e-643aa71d5d73","system_id":"levelo_inurba_marseille","lat":43.32542,"lon":5.41432,"is_reserved":false,"is_disabled":false,"rental_uris":{"android":"levelo://app?vid=f927b1c6-fd23-4d5f-825e-643aa71d5d73","ios":"levelo://app?vid=f927b1c6-fd23-4d5f-825e-643aa71d5d73"},"vehicle_type_id":"4","last_reported":1683486292,"current_range_meters":30400,"station_id":"ce4bhq12rcd13ifvqhhg","pricing_plan_id":"free"},