{"last_updated":1712506045,"ttl":30,"version":"2.2","data":{"bikes":[{"bike_id":"05b55163-fd46-44f8-95c6-f3ddcf2752b6","system_id":"levelo_inurba_marseille","lat":43.31341,"lon":5.367098,"is_reserved":false,"is_disabled":false,"rental_uris":{"android":"levelo://app?vid=05b55163-fd46-44f8-95c6-f3ddcf2752b6","ios":"levelo://app?vid=05b55163-fd46-44f8-95c6-f3ddcf2752b6"},"vehicle_type_id":"4","last_reported":1712506045,"current_range_meters":27200,"station_id":"ce4bgr92rcd13ifvqc6g","pricing_plan_id":"cebpf4jnsgd1na2vs0mg"},{"bike_id":"9f4bec8c-dee3-4119-b0c7-006a8dceec18","system_id":"levelo_inurba_marseille","lat":43.312239,"lon":5.368562,"is_reserved":false,"is_disabled":false,"rental_uris":{"android":"levelo://app?vid=9f4bec8c-dee3-4119-b0c7-006a8dceec18","ios":"levelo://app?vid=9f4bec8c-dee3-4119-b0c7-006a8dceec18"},"vehicle_type_id":"4","last_reported":1712506045,"current_range_meters":7600,"station_id":"ce4bgl92rcd13ifvqbq0","pricing_plan_id":"cebpf4jnsgd1na2vs0mg"},{"bike_id":"da9abffc-5fbd-45ff-986f-f5a2cf480561","system_id":"levelo_inurba_marseille","lat":43.312239,"lon":5.368562,"is_reserved":false,"is_disabled":false,"rental_uris":{"android":"levelo://app?vid=da9abffc-5fbd-45ff-986f-f5a2cf480561","ios":"levelo://app?vid=da9abffc-5fbd-45ff-986f-f5a2cf480561"},"vehicle_type_id":"4","last_reported":1712506045,"current_range_meters":19200,"station_id":"ce4bgl92rcd13ifvqbq0","pricing_plan_id":"cebpf4jnsgd1na2vs0mg"},{"bike_id":"813fbead-31c4-437a-a680-e759908b8425","system_id":"levelo_inurba_marseille","lat":43.30912,"lon":5.36846,"is_reserved":false,"is_disabled":false,"rental_uris":{"android":"levelo://app?vid=813fbead-31c4-437a-a680-e759908b8425","ios":"levelo://app?vid=813fbead-31c4-437a-a680-e759908b8425"},"vehicle_type_id":"4","last_reported":1712506045,"current_range_meters":400,"station_id":"ce4bgn92rcd13ifvqbvg","pricing_plan_id":"cebpf4jnsgd1na2vs0mg"},{"bike_id":"eacab57b-e4a6-42ee-a8d0-e672822bc45b","system_id":"levelo_inurba_marseille","lat":43.309076,"lon":5.368465,"is_reserved":false,"is_disabled":false,"rental_uris":{"android":"levelo://app?vid=eacab57b-e4a6-42ee-a8d0-e672822bc45b","ios":"levelo://app?vid=eacab57b-e4a6-42ee-a8d0-e672822bc45b"},"vehicle_type_id":"4","last_reported":1712506045,"current_range_meters":18400,"station_id":"ce4bgn92rcd13ifvqbvg","pricing_plan_id":"cebpf4jnsgd1na2vs0mg"},{"bike_id":"9bafa147-34a4-46f6-a550-7ffe61998637","system_id":"levelo_inurba_marseille","lat":43.309,"lon":5.36849,"is_reserved":false,"is_disabled":false,"rental_uris":{"android":"levelo://app?vid=9bafa147-34a4-46f6-a550-7ffe61998637","ios":"levelo://app?vid=9bafa147-34a4-46f6-a550-7ffe61998637"},"vehicle_type_id":"4","last_reported":1712506045,"current_range_meters":3200,"station_id":"ce4bgn92rcd13ifvqbvg","pricing_plan_id":"cebpf4jnsgd1na2vs0mg"},{"bike_id":"73706916-b3f3-4ff0-b068-cec67895e8b1","system_id":"levelo_inurba_marseille","lat":43.308821,"lon":5.367462,"is_reserved":false,"is_disabled":false,"rental_uris":{"android":"levelo://app?vid=73706916-b3f3-4ff0-b068-cec67895e8b1","ios":"levelo://app?vid=73706916-b3f3-4ff0-b068-cec67895e8b1"},"vehicle_type_id":"4","last_reported":1712506045,"current_range_meters":8000,"station_id":"","pricing_plan_id":"cebpf4jnsgd1na2vs0mg"},{"bike_id":"2c587bb8-a8ae-47b9-8f5d-294b9a0b0e51","system_id":"levelo_inurba_marseille","lat":43.324771,"lon":5.36557,"is_reserved":false,"is_disabled":false,"rental_uris":{"android":"levelo://app?vid=2c587bb8-a8ae-47b9-8f5d-294b9a0b0e51","ios":"levelo://app?vid=2c587bb8-a8ae-47b9-8f5d-294b9a0b0e51"},"vehicle_type_id":"4","last_reported":1712506045,"current_range_meters":8800,"station_id":"ce4bhs12rcd13ifvqhvg","pricing_plan_id":"cebpf4jnsgd1na2vs0mg"},{"bike_id":"475c4fda-0bd2-4921-b23e-2a9569bcb334","system_id":"levelo_inurba_marseille","lat":43.314811,"lon":5.373104,"is_reserved":false,"is_disabled":false,"rental_uris":{"android":"levelo://app?vid=475c4fda-0bd2-4921-b23e-2a9569bcb334","ios":"levelo://app?vid=475c4fda-0bd2-4921-b23e-2a9569bcb334"},"vehicle_type_id":"4","last_reported":1712506045,"current_range_meters":0,"station_id":"ce4bgt12rcd13ifvqcd0","pricing_plan_id":"cebpf4jnsgd1na2vs0mg"},{"bike_id":"82f33871-fcfd-4788-bc71-8f38c07ed021","system_id":"levelo_inurba_marseille","lat":43.309039,"lon":5.371797,"is_reserved":false,"is_disabled":false,"rental_uris":{"android":"levelo://app?vid=82f33871-fcfd-4788-bc71-8f38c07ed021","ios":"levelo://app?vid=82f33871-fcfd-4788-bc71-8f38c07ed021"},"vehicle_type_id":"4","last_reported":1712506045,"current_range_meters":0,"station_id":"ce4bguh2rcd13ifvqckg","pricing_plan_id":"cebpf4jnsgd1na2vs0mg"},{"bike_id":"064f1c9d-63b2-4700-a1b1-056788674634","system_id":"levelo_inurba_marseille","lat":43.305463,"lon":5.365382,"is_reserved":false,"is_disabled":false,"rental_uris":{"android":"levelo://app?vid=064f1c9d-63b2-4700-a1b1-056788674634","ios":"levelo://app?vid=064f1c9d-63b2-4700-a1b1-056788674634"},"vehicle_type_id":"4","last_reported":1712506045,"current_range_meters":0,"station_id":"ce4bgs12rcd13ifvqcag","pricing_plan_id":"cebpf4jnsgd1na2vs0mg"},{"bike_id":"1de2c6e8-b815-403a-88a3-7bcc7a55e88b","system_id":"levelo_inurba_marseille","lat":43.305368,"lon":5.367343,"is_reserved":false,"is_disabled":false,"rental_uris":{"android":"levelo://app?vid=1de2c6e8-b815-403a-88a3-7bcc7a55e88b","ios":"levelo://app?vid=1de2c6e8-b815-403a-88a3-7bcc7a55e88b"},"vehicle_type_id":"4","last_reported":1712506045,"current_range_meters":24400,"station_id":"ce4bgrp2rcd13ifvqc9g","pricing_plan_id":"cebpf4jnsgd1na2vs0mg"},{"bike_id":"1070579f-6940-47dd-84cd-604386fb077c","system_id":"levelo_inurba_marseille","lat":43.305368,"lon":5.367343,"is_reserved":false,"is_disabled":false,"rental_uris":{"android":"levelo://app?vid=1070579f-6940-47dd-84cd-604386fb077c","ios":"levelo://app?vid=1070579f-6940-47dd-84cd-604386fb077c"},"vehicle_type_id":"4","last_reported":1712506045,"current_range_meters":5600,"station_id":"ce4bgrp2rcd13ifvqc9g","pricing_plan_id":"cebpf4jnsgd1na2vs0mg"},{"bike_id":"29522ea2-04fa-4e35-b17c-8f65ede33cbe","system_id":"levelo_inurba_marseille","lat":43.305989,"lon":5.37225,"is_reserved":false,"is_disabled":false,"rental_uris":{"android":"levelo://app?vid=29522ea2-04fa-4e35-b17c-8f65ede33cbe","ios":"levelo://app?vid=29522ea2-04fa-4e35-b17c-8f65ede33cbe"},"vehicle_type_id":"4","last_reported":1712506045,"current_range_meters":15200,"station_id":"ce4bgqh2rcd13ifvqc4g","pricing_plan_id":"cebpf4jnsgd1na2vs0mg"},{"bike_id":"0563ed10-f58e-44ae-afb8-cbf2e46e9df8","system_id":"levelo_inurba_marseille","lat":43.311131,"lon":5.377651,"is_reserved":false,"is_disabled":false,"rental_uris":{"android":"levelo://app?vid=0563ed10-f58e-44ae-afb8-cbf2e46e9df8","ios":"levelo://app?vid=0563ed10-f58e-44ae-afb8-cbf2e46e9df8"},"vehicle_type_id":"4","last_reported":1712506045,"current_range_meters":0,"station_id":"ce4bgt92rcd13ifvqcg0","pricing_plan_id":"cebpf4jnsgd1na2vs0mg"},{"bike_id":"f6b49607-51a6-4a53-9580-2e4c99262467","system_id":"levelo_inurba_marseille","lat":43.31118,"lon":5.37778,"is_reserved":false,"is_disabled":false,"rental_uris":{"android":"levelo://app?vid=f6b49607-51a6-4a53-9580-2e4c99262467","ios":"levelo://app?vid=f6b49607-51a6-4a53-9580-2e4c99262467"},"vehicle_type_id":"4","last_reported":1712506045,"current_range_meters":0,"station_id":"ce4bgt92rcd13ifvqcg0","pricing_plan_id":"cebpf4jnsgd1na2vs0mg"},{"bike_id":"b9a66dec-d86f-4efe-8a0f-f5a6c0ae0681","system_id":"levelo_inurba_marseille","lat":43.313571,"lon":5.384829,"is_reserved":false,"is_disabled":false,"rental_uris":{"android":"levelo://app?vid=b9a66dec-d86f-4efe-8a0f-f5a6c0ae0681","ios":"levelo://app?vid=b9a66dec-d86f-4efe-8a0f-f5a6c0ae0681"},"vehicle_type_id":"4","last_reported":1712506045,"current_range_meters":16000,"station_id":"ce4bgt92rcd13ifvqcf0","pricing_plan_id":"cebpf4jnsgd1na2vs0mg"},{"bike_id":"eabb4e16-3b6d-4616-84cd-4298d733f749","system_id":"levelo_inurba_marseille","lat":43.31714,"lon":5.37734,"is_reserved":false,"is_disabled":false,"rental_uris":{"android":"levelo://app?vid=eabb4e16-3b6d-4616-84cd-4298d733f749","ios":"levelo://app?vid=eabb4e16-3b6d-4616-84cd-4298d733f749"},"vehicle_type_id":"4","last_reported":1712506045,"current_range_meters":2000,"station_id":"","pricing_plan_id":"cebpf4jnsgd1na2vs0mg"},{"bike_id":"397c1585-7471-4ba0-99a8-b1f7ef4a1530","system_id":"levelo_inurba_marseille","lat":43.317075,"lon":5.377367,"is_reserved":false,"is_disabled":false,"rental_uris":{"android":"levelo://app?vid=397c1585-7471-4ba0-99a8-b1f7ef4a1530","ios":"levelo://app?vid=397c1585-7471-4ba0-99a8-b1f7ef4a1530"},"vehicle_type_id":"4","last_reported":1712506045,"current_range_meters":7200,"station_id":"ce4bgth2rcd13ifvqch0","pricing_plan_id":"cebpf4jnsgd1na2vs0mg"},{"bike_id":"72268af9-a4e6-4c6a-8a92-4ca8527c417d","system_id":"levelo_inurba_marseille","lat":43.317075,"lon":5.377367,"is_reserved":false,"is_disabled":false,"rental_uris":{"android":"levelo://app?vid=72268af9-a4e6-4c6a-8a92-4ca8527c417d","ios":"levelo://app?vid=72268af9-a4e6-4c6a-8a92-4ca8527c417d"},"vehicle_type_id":"4","last_reported":1712506045,"current_range_meters":18400,"station_id":"ce4bgth2rcd13ifvqch0","pricing_plan_id":"cebpf4jnsgd1na2vs0mg"},{"bike_id":"990abc17-1e8a-4657-96a3-3caf1525fb6a","system_id":"levelo_inurba_marseille","lat":43.30304,"lon":5.368987,"is_reserved":false,"is_disabled":false,"rental_uris":{"android":"levelo://app?vid=990abc17-1e8a-4657-96a3-3caf1525fb6a","ios":"levelo://app?vid=990abc17-1e8a-4657-96a3-3caf1525fb6a"},"vehicle_type_id":"4","last_reported":1712506045,"current_range_meters":3200,"station_id":"ce4bgqh2rcd13ifvqc5g","pricing_plan_id":"cebpf4jnsgd1na2vs0mg"},{"bike_id":"902a8bdc-84fa-4795-a970-7e5f9683f2de","system_id":"levelo_inurba_marseille","lat":43.303046,"lon":5.368981,"is_reserved":false,"is_disabled":false,"rental_uris":{"android":"levelo://app?vid=902a8bdc-84fa-4795-a970-7e5f9683f2de","ios":"levelo://app?vid=902a8bdc-84fa-4795-a970-7e5f9683f2de"},"vehicle_type_id":"4","last_reported":1712506045,"current_range_meters":400,"station_id":"ce4bgqh2rcd13ifvqc5g","pricing_plan_id":"cebpf4jnsgd1na2vs0mg"},{"bike_id":"1894fd2b-2246-4967-be3d-ff9d3155a3a8","system_id":"levelo_inurba_marseille","lat":43.30298,"lon":5.36893,"is_reserved":false,"is_disabled":false,"rental_uris":{"android":"levelo://app?vid=1894fd2b-2246-4967-be3d-ff9d3155a3a8","ios":"levelo://app?vid=1894fd2b-2246-4967-be3d-ff9d3155a3a8"},"vehicle_type_id":"4","last_reported":1712506045,"current_range_meters":0,"station_id":"ce4bgqh2rcd13ifvqc5g","pricing_plan_id":"cebpf4jnsgd1na2vs0mg"},{"bike_id":"0e49fad5-bb24-4ce5-a03e-7b40dad9e527","system_id":"levelo_inurba_marseille","lat":43.315289,"lon":5.380349,"is_reserved":false,"is_disabled":false,"rental_uris":{"android":"levelo://app?vid=0e49fad5-bb24-4ce5-a03e-7b40dad9e527","ios":"levelo://app?vid=0e49fad5-bb24-4ce5-a03e-7b40dad9e527"},"vehicle_type_id":"4","last_reported":1712506045,"current_range_meters":31200,"station_id":"ce4bhsp2rcd13ifvqi50","pricing_plan_id":"cebpf4jnsgd1na2vs0mg"},{"bike_id":"baecd957-41d3-4649-82a4-37ec3b2b0a6a","system_id":"levelo_inurba_marseille","lat":43.315293,"lon":5.380349,"is_reserved":false,"is_disabled":false,"rental_uris":{"android":"levelo://app?vid=baecd957-41d3-4649-82a4-37ec3b2b0a6a","ios":"levelo://app?vid=baecd957-41d3-4649-82a4-37ec3b2b0a6a"},"vehicle_type_id":"4","last_reported":1712506045,"current_range_meters":22400,"station_id":"ce4bhsp2rcd13ifvqi50","pricing_plan_id":"cebpf4jnsgd1na2vs0mg"},{"bike_id":"665a9561-06bd-4fa6-b661-58f91351a430","system_id":"levelo_inurba_marseille","lat":43.308012,"lon":5.381511,"is_reserved":false,"is_disabled":false,"rental_uris":{"android":"levelo://app?vid=665a9561-06bd-4fa6-b661-58f91351a430","ios":"levelo://app?vid=665a9561-06bd-4fa6-b661-58f91351a430"},"vehicle_type_id":"4","last_reported":1712506045,"current_range_meters":0,"station_id":"ce4bgt12rcd13ifvqce0","pricing_plan_id":"cebpf4jnsgd1na2vs0mg"},{"bike_id":"cc2d517d-a851-48ca-82f6-b566ab813a07","system_id":"levelo_inurba_marseille","lat":43.30206,"lon":5.37405,"is_reserved":false,"is_disabled":false,"rental_uris":{"android":"levelo://app?vid=cc2d517d-a851-48ca-82f6-b566ab813a07","ios":"levelo://app?vid=cc2d517d-a851-48ca-82f6-b566ab813a07"},"vehicle_type_id":"4","last_reported":1712506045,"current_range_meters":14800,"station_id":"","pricing_plan_id":"cebpf4jnsgd1na2vs0mg"},{"bike_id":"e5bbbab6-28d4-4d32-b4d6-26b2f21a9c2e","system_id":"levelo_inurba_marseille","lat":43.304606,"lon":5.379026,"is_reserved":false,"is_disabled":false,"rental_uris":{"android":"levelo://app?vid=e5bbbab6-28d4-4d32-b4d6-26b2f21a9c2e","ios":"levelo://app?vid=e5bbbab6-28d4-4d32-b4d6-26b2f21a9c2e"},"vehicle_type_id":"4","last_reported":1712506045,"current_range_meters":8000,"station_id":"ce4bgup2rcd13ifvqcn0","pricing_plan_id":"cebpf4jnsgd1na2vs0mg"},{"bike_id":"10285df8-4c1b-487a-83d0-b96e6f63bbfa","system_id":"levelo_inurba_marseille","lat":43.304606,"lon":5.379026,"is_reserved":false,"is_disabled":false,"rental_uris":{"android":"levelo://app?vid=10285df8-4c1b-487a-83d0-b96e6f63bbfa","ios":"levelo://app?vid=10285df8-4c1b-487a-83d0-b96e6f63bbfa"},"vehicle_type_id":"4","last_reported":1712506045,"current_range_meters":17600,"station_id":"ce4bgup2rcd13ifvqcn0","pricing_plan_id":"cebpf4jnsgd1na2vs0mg"},{"bike_id":"bfbf2eec-2571-4bb5-ae46-776b32419774","system_id":"levelo_inurba_marseille","lat":43.304588,"lon":5.379032,"is_reserved":false,"is_disabled":false,"rental_uris":{"android":"levelo://app?vid=bfbf2eec-2571-4bb5-ae46-776b32419774","ios":"levelo://app?vid=bfbf2eec-2571-4bb5-ae46-776b32419774"},"vehicle_type_id":"4","last_reported":1712506045,"current_range_meters":0,"station_id":"ce4bgup2rcd13ifvqcn0","pricing_plan_id":"cebpf4jnsgd1na2vs0mg"},{"bike_id":"a11b2f00-3d6f-436e-90f7-3ee3fc6b61dd","system_id":"levelo_inurba_marseille","lat":43.324771,"lon":5.36557,"is_reserved":false,"is_disabled":false,"rental_uris":{"android":"levelo://app?vid=a11b2f00-3d6f-436e-90f7-3ee3fc6b61dd","ios":"levelo://app?vid=a11b2f00-3d6f-436e-90f7-3ee3fc6b61dd"},"vehicle_type_id":"4","last_reported":1712506045,"current_range_meters":1600,"station_id":"ce4bhs12rcd13ifvqhvg","pricing_plan_id":"cebpf4jnsgd1na2vs0mg"},{"bike_id":"60c10bf1-ac0f-4dd5-a8e3-f6ac2835c879","system_id":"levelo_inurba_marseille","lat":43.324771,"lon":5.36557,"is_reserved":false,"is_disabled":false,"rental_uris":{"android":"levelo://app?vid=60c10bf1-ac0f-4dd5-a8e3-f6ac2835c879","ios":"levelo://app?vid=60c10bf1-ac0f-4dd5-a8e3-f6ac2835c879"},"vehicle_type_id":"4","last_reported":1712506045,"current_range_meters":16400,"station_id":"ce4bhs12rcd13ifvqhvg","pricing_plan_id":"cebpf4jnsgd1na2vs0mg"},{"bike_id":"e6035d71-8503-434d-bb90-f3a421a327d6","system_id":"levelo_inurba_marseille","lat":43.32481,"lon":5.36572,"is_reserved":false,"is_disabled":false,"rental_uris":{"android":"levelo://app?vid=e6035d71-8503-434d-bb90-f3a421a327d6","ios":"levelo://app?vid=e6035d71-8503-434d-bb90-f3a421a327d6"},"vehicle_type_id":"4","last_reported":1712506045,"current_range_meters":0,"station_id":"ce4bhs12rcd13ifvqhvg","pricing_plan_id":"cebpf4jnsgd1na2vs0mg"},{"bike_id":"269bce1e-a267-484e-833c-d962c75460f4","system_id":"levelo_inurba_marseille","lat":43.310804,"lon":5.38359,"is_reserved":false,"is_disabled":false,"rental_uris":{"android":"levelo://app?vid=269bce1e-a267-484e-833c-d962c75460f4","ios":"levelo://app?vid=269bce1e-a267-484e-833c-d962c75460f4"},"vehicle_type_id":"4","last_reported":1712506045,"current_range_meters":20800,"station_id":"ce4bgv92rcd13ifvqcr0","pricing_plan_id":"cebpf4jnsgd1na2vs0mg"},{"bike_id":"6724a062-823a-4278-8e14-1714aada2097","system_id":"levelo_inurba_marseille","lat":43.310804,"lon":5.38359,"is_reserved":false,"is_disabled":false,"rental_uris":{"android":"levelo://app?vid=6724a062-823a-4278-8e14-1714aada2097","ios":"levelo://app?vid=6724a062-823a-4278-8e14-1714aada2097"},"vehicle_type_id":"4","last_reported":1712506045,"current_range_meters":0,"station_id":"ce4bgv92rcd13ifvqcr0","pricing_plan_id":"cebpf4jnsgd1na2vs0mg"},{"bike_id":"7d8efd18-68f4-408f-acf1-10fa2372861d","system_id":"levelo_inurba_marseille","lat":43.30281,"lon":5.37703,"is_reserved":false,"is_disabled":false,"rental_uris":{"android":"levelo://app?vid=7d8efd18-68f4-408f-acf1-10fa2372861d","ios":"levelo://app?vid=7d8efd18-68f4-408f-acf1-10fa2372861d"},"vehicle_type_id":"4","last_reported":1712506045,"current_range_meters":11200,"station_id":"","pricing_plan_id":"cebpf4jnsgd1na2vs0mg"},{"bike_id":"fa623477-b29c-411d-b820-8ca431856501","system_id":"levelo_inurba_marseille","lat":43.302784,"lon":5.377158,"is_reserved":false,"is_disabled":false,"rental_uris":{"android":"levelo://app?vid=fa623477-b29c-411d-b820-8ca431856501","ios":"levelo://app?vid=fa623477-b29c-411d-b820-8ca431856501"},"vehicle_type_id":"4","last_reported":1712506045,"current_range_meters":10400,"station_id":"ce4bguh2rcd13ifvqcj0","pricing_plan_id":"cebpf4jnsgd1na2vs0mg"},{"bike_id":"72adab14-0448-4dcc-8cd2-aa9fa66d722f","system_id":"levelo_inurba_marseille","lat":43.30275,"lon":5.37709,"is_reserved":false,"is_disabled":false,"rental_uris":{"android":"levelo://app?vid=72adab14-0448-4dcc-8cd2-aa9fa66d722f","ios":"levelo://app?vid=72adab14-0448-4dcc-8cd2-aa9fa66d722f"},"vehicle_type_id":"4","last_reported":1712506045,"current_range_meters":0,"station_id":"ce4bguh2rcd13ifvqcj0","pricing_plan_id":"cebpf4jnsgd1na2vs0mg"},{"bike_id":"08b5c72b-3127-480e-894a-b6579dbf9108","system_id":"levelo_inurba_marseille","lat":43.30143,"lon":5.37413,"is_reserved":false,"is_disabled":false,"rental_uris":{"android":"levelo://app?vid=08b5c72b-3127-480e-894a-b6579dbf9108","ios":"levelo://app?vid=08b5c72b-3127-480e-894a-b6579dbf9108"},"vehicle_type_id":"4","last_reported":1712506045,"current_range_meters":8800,"station_id":"ce4bgs92rcd13ifvqcc0","pricing_plan_id":"cebpf4jnsgd1na2vs0mg"},{"bike_id":"fb63f5cb-be6a-45e5-a788-fa1dfecc14f7","system_id":"levelo_inurba_marseille","lat":43.313571,"lon":5.384829,"is_reserved":false,"is_disabled":false,"rental_uris":{"android":"levelo://app?vid=fb63f5cb-be6a-45e5-a788-fa1dfecc14f7","ios":"levelo://app?vid=fb63f5cb-be6a-45e5-a788-fa1dfecc14f7"},"vehicle_type_id":"4","last_reported":1712506045,"current_range_meters":19200,"station_id":"ce4bgt92rcd13ifvqcf0","pricing_plan_id":"cebpf4jnsgd1na2vs0mg"},{"bike_id":"59646d6d-05b8-480f-863e-7f8e0b4899a3","system_id":"levelo_inurba_marseille","lat":43.313571,"lon":5.384829,"is_reserved":false,"is_disabled":false,"rental_uris":{"android":"levelo://app?vid=59646d6d-05b8-480f-863e-7f8e0b4899a3","ios":"levelo://app?vid=59646d6d-05b8-480f-863e-7f8e0b4899a3"},"vehicle_type_id":"4","last_reported":1712506045,"current_range_meters":15600,"station_id":"ce4bgt92rcd13ifvqcf0","pricing_plan_id":"cebpf4jnsgd1na2vs0mg"},{"bike_id":"c8ae1186-61fb-4c31-a127-8a7f3be3f837","system_id":"levelo_inurba_marseille","lat":43.313571,"lon":5.384829,"is_reserved":false,"is_disabled":false,"rental_uris":{"android":"levelo://app?vid=c8ae1186-61fb-4c31-a127-8a7f3be3f837","ios":"levelo://app?vid=c8ae1186-61fb-4c31-a127-8a7f3be3f837"},"vehicle_type_id":"4","last_reported":1712506045,"current_range_meters":3600,"station_id":"ce4bgt92rcd13ifvqcf0","pricing_plan_id":"cebpf4jnsgd1na2vs0mg"},{"bike_id":"2e4a284e-0cd2-4dd8-931d-c0cb76191dc0","system_id":"levelo_inurba_marseille","lat":43.299222,"lon":5.365554,"is_reserved":false,"is_disabled":false,"rental_uris":{"android":"levelo://app?vid=2e4a284e-0cd2-4dd8-931d-c0cb76191dc0","ios":"levelo://app?vid=2e4a284e-0cd2-4dd8-931d-c0cb76191dc0"},"vehicle_type_id":"4","last_reported":1712506045,"current_range_meters":0,"station_id":"ce4bgm92rcd13ifvqbr0","pricing_plan_id":"cebpf4jnsgd1na2vs0mg"},{"bike_id":"5ab31bec-d5c0-4e58-b15f-615995541f41","system_id":"levelo_inurba_marseille","lat":43.299222,"lon":5.365554,"is_reserved":false,"is_disabled":false,"rental_uris":{"android":"levelo://app?vid=5ab31bec-d5c0-4e58-b15f-615995541f41","ios":"levelo://app?vid=5ab31bec-d5c0-4e58-b15f-615995541f41"},"vehicle_type_id":"4","last_reported":1712506045,"current_range_meters":6000,"station_id":"ce4bgm92rcd13ifvqbr0","pricing_plan_id":"cebpf4jnsgd1na2vs0mg"},{"bike_id":"76c01f8e-310e-408d-932d-fc3071dd2c17","system_id":"levelo_inurba_marseille","lat":43.299222,"lon":5.365554,"is_reserved":false,"is_disabled":false,"rental_uris":{"android":"levelo://app?vid=76c01f8e-310e-408d-932d-fc3071dd2c17","ios":"levelo://app?vid=76c01f8e-310e-408d-932d-fc3071dd2c17"},"vehicle_type_id":"4","last_reported":1712506045,"current_range_meters":3200,"station_id":"ce4bgm92rcd13ifvqbr0","pricing_plan_id":"cebpf4jnsgd1na2vs0mg"},{"bike_id":"66f167e6-6914-4fa9-bb6f-742e9e24bf55","system_id":"levelo_inurba_marseille","lat":43.29847,"lon":5.36285,"is_reserved":false,"is_disabled":false,"rental_uris":{"android":"levelo://app?vid=66f167e6-6914-4fa9-bb6f-742e9e24bf55","ios":"levelo://app?vid=66f167e6-6914-4fa9-bb6f-742e9e24bf55"},"vehicle_type_id":"4","last_reported":1712506045,"current_range_meters":7600,"station_id":"ce4bgpp2rcd13ifvqc3g","pricing_plan_id":"cebpf4jnsgd1na2vs0mg"},{"bike_id":"a6e3e01f-39af-4ff3-be0f-681109c8f7fa","system_id":"levelo_inurba_marseille","lat":43.305364,"lon":5.384119,"is_reserved":false,"is_disabled":false,"rental_uris":{"android":"levelo://app?vid=a6e3e01f-39af-4ff3-be0f-681109c8f7fa","ios":"levelo://app?vid=a6e3e01f-39af-4ff3-be0f-681109c8f7fa"},"vehicle_type_id":"4","last_reported":1712506045,"current_range_meters":16000,"station_id":"ce4bgg92rcd13ifvqb30","pricing_plan_id":"cebpf4jnsgd1na2vs0mg"},{"bike_id":"b88b3b74-0d64-4570-81d6-0dbdfe944430","system_id":"levelo_inurba_marseille","lat":43.298433,"lon":5.362774,"is_reserved":false,"is_disabled":false,"rental_uris":{"android":"levelo://app?vid=b88b3b74-0d64-4570-81d6-0dbdfe944430","ios":"levelo://app?vid=b88b3b74-0d64-4570-81d6-0dbdfe944430"},"vehicle_type_id":"4","last_reported":1712506045,"current_range_meters":7200,"station_id":"ce4bgpp2rcd13ifvqc3g","pricing_plan_id":"cebpf4jnsgd1na2vs0mg"},{"bike_id":"0868a7e9-e817-4f82-91c9-6cfba66f6aff","system_id":"levelo_inurba_marseille","lat":43.298433,"lon":5.362774,"is_reserved":false,"is_disabled":false,"rental_uris":{"android":"levelo://app?vid=0868a7e9-e817-4f82-91c9-6cfba66f6aff","ios":"levelo://app?vid=0868a7e9-e817-4f82-91c9-6cfba66f6aff"},"vehicle_type_id":"4","last_reported":1712506045,"current_range_meters":10000,"station_id":"ce4bgpp2rcd13ifvqc3g","pricing_plan_id":"cebpf4jnsgd1na2vs0mg"},{"bike_id":"25bfde71-b45f-45bc-a817-9286bbabbb1f","system_id":"levelo_inurba_marseille","lat":43.299243,"lon":5.374807,"is_reserved":false,"is_disabled":false,"rental_uris":{"android":"levelo://app?vid=25bfde71-b45f-45bc-a817-9286bbabbb1f","ios":"levelo://app?vid=25bfde71-b45f-45bc-a817-9286bbabbb1f"},"vehicle_type_id":"4","last_reported":1712506045,"current_range_meters":0,"station_id":"ce4bgjh2rcd13ifvqbg0","pricing_plan_id":"cebpf4jnsgd1na2vs0mg"},{"bike_id":"33b808af-93a1-437c-af29-206530bf0521","system_id":"levelo_inurba_marseille","lat":43.299243,"lon":5.374807,"is_reserved":false,"is_disabled":false,"rental_uris":{"android":"levelo://app?vid=33b808af-93a1-437c-af29-206530bf0521","ios":"levelo://app?vid=33b808af-93a1-437c-af29-206530bf0521"},"vehicle_type_id":"4","last_reported":1712506045,"current_range_meters":4000,"station_id":"ce4bgjh2rcd13ifvqbg0","pricing_plan_id":"cebpf4jnsgd1na2vs0mg"},{"bike_id":"93e97c61-7425-46d3-a9b9-7610b798f68f","system_id":"levelo_inurba_marseille","lat":43.299243,"lon":5.374807,"is_reserved":false,"is_disabled":false,"rental_uris":{"android":"levelo://app?vid=93e97c61-7425-46d3-a9b9-7610b798f68f","ios":"levelo://app?vid=93e97c61-7425-46d3-a9b9-7610b798f68f"},"vehicle_type_id":"4","last_reported":1712506045,"current_range_meters":1600,"station_id":"ce4bgjh2rcd13ifvqbg0","pricing_plan_id":"cebpf4jnsgd1na2vs0mg"},{"bike_id":"6a205652-82c7-4a78-99a7-32af881aa7e4","system_id":"levelo_inurba_marseille","lat":43.311722,"lon":5.387247,"is_reserved":false,"is_disabled":false,"rental_uris":{"android":"levelo://app?vid=6a205652-82c7-4a78-99a7-32af881aa7e4","ios":"levelo://app?vid=6a205652-82c7-4a78-99a7-32af881aa7e4"},"vehicle_type_id":"4","last_reported":1712506045,"current_range_meters":6800,"station_id":"ce4bgv12rcd13ifvqcp0","pricing_plan_id":"cebpf4jnsgd1na2vs0mg"},{"bike_id":"79a09dc1-a136-4553-b035-ca9b20a658e5","system_id":"levelo_inurba_marseille","lat":43.30181,"lon":5.3818,"is_reserved":false,"is_disabled":false,"rental_uris":{"android":"levelo://app?vid=79a09dc1-a136-4553-b035-ca9b20a658e5","ios":"levelo://app?vid=79a09dc1-a136-4553-b035-ca9b20a658e5"},"vehicle_type_id":"4","last_reported":1712506045,"current_range_meters":4800,"station_id":"","pricing_plan_id":"cebpf4jnsgd1na2vs0mg"},{"bike_id":"72f404e6-43d4-42a0-bbbd-431e04a86845","system_id":"levelo_inurba_marseille","lat":43.322872,"lon":5.382756,"is_reserved":false,"is_disabled":false,"rental_uris":{"android":"levelo://app?vid=72f404e6-43d4-42a0-bbbd-431e04a86845","ios":"levelo://app?vid=72f404e6-43d4-42a0-bbbd-431e04a86845"},"vehicle_type_id":"4","last_reported":1712506045,"current_range_meters":20400,"station_id":"ce4bhr12rcd13ifvqhqg","pricing_plan_id":"cebpf4jnsgd1na2vs0mg"},{"bike_id":"376dbd41-28d7-448b-972c-554ff2935b00","system_id":"levelo_inurba_marseille","lat":43.29651,"lon":5.3702,"is_reserved":false,"is_disabled":false,"rental_uris":{"android":"levelo://app?vid=376dbd41-28d7-448b-972c-554ff2935b00","ios":"levelo://app?vid=376dbd41-28d7-448b-972c-554ff2935b00"},"vehicle_type_id":"4","last_reported":1712506045,"current_range_meters":12400,"station_id":"","pricing_plan_id":"cebpf4jnsgd1na2vs0mg"},{"bike_id":"a9fe6da3-e193-4844-81a2-d623e1db6295","system_id":"levelo_inurba_marseille","lat":43.29615,"lon":5.37075,"is_reserved":false,"is_disabled":false,"rental_uris":{"android":"levelo://app?vid=a9fe6da3-e193-4844-81a2-d623e1db6295","ios":"levelo://app?vid=a9fe6da3-e193-4844-81a2-d623e1db6295"},"vehicle_type_id":"4","last_reported":1712506045,"current_range_meters":0,"station_id":"","pricing_plan_id":"cebpf4jnsgd1na2vs0mg"},{"bike_id":"7f004524-98d7-473f-bd39-302af2681ad9","system_id":"levelo_inurba_marseille","lat":43.28856,"lon":5.358371,"is_reserved":false,"is_disabled":false,"rental_uris":{"android":"levelo://app?vid=7f004524-98d7-473f-bd39-302af2681ad9","ios":"levelo://app?vid=7f004524-98d7-473f-bd39-302af2681ad9"},"vehicle_type_id":"4","last_reported":1712506045,"current_range_meters":400,"station_id":"ce4bhb12rcd13ifvqem0","pricing_plan_id":"cebpf4jnsgd1na2vs0mg"},{"bike_id":"5b20e33b-21e7-4f68-abed-ce64f0e09793","system_id":"levelo_inurba_marseille","lat":43.2936,"lon":5.37835,"is_reserved":false,"is_disabled":false,"rental_uris":{"android":"levelo://app?vid=5b20e33b-21e7-4f68-abed-ce64f0e09793","ios":"levelo://app?vid=5b20e33b-21e7-4f68-abed-ce64f0e09793"},"vehicle_type_id":"4","last_reported":1712506045,"current_range_meters":26800,"station_id":"ce4bgjh2rcd13ifvqbf0","pricing_plan_id":"cebpf4jnsgd1na2vs0mg"},{"bike_id":"31d54591-9fbb-4ad3-8596-bca484b9ee2a","system_id":"levelo_inurba_marseille","lat":43.29905,"lon":5.3814,"is_reserved":false,"is_disabled":false,"rental_uris":{"android":"levelo://app?vid=31d54591-9fbb-4ad3-8596-bca484b9ee2a","ios":"levelo://app?vid=31d54591-9fbb-4ad3-8596-bca484b9ee2a"},"vehicle_type_id":"4","last_reported":1712506045,"current_range_meters":0,"station_id":"ce4bgj12rcd13ifvqbc0","pricing_plan_id":"cebpf4jnsgd1na2vs0mg"},{"bike_id":"f68512b6-de87-457c-b36d-777c307eab6b","system_id":"levelo_inurba_marseille","lat":43.30951,"lon":5.39029,"is_reserved":false,"is_disabled":false,"rental_uris":{"android":"levelo://app?vid=f68512b6-de87-457c-b36d-777c307eab6b","ios":"levelo://app?vid=f68512b6-de87-457c-b36d-777c307eab6b"},"vehicle_type_id":"4","last_reported":1712506045,"current_range_meters":4800,"station_id":"ce4bgup2rcd13ifvqco0","pricing_plan_id":"cebpf4jnsgd1na2vs0mg"},{"bike_id":"ac2ce474-7f27-49ac-840a-ae98524f7ad6","system_id":"levelo_inurba_marseille","lat":43.299028,"lon":5.381509,"is_reserved":false,"is_disabled":false,"rental_uris":{"android":"levelo://app?vid=ac2ce474-7f27-49ac-840a-ae98524f7ad6","ios":"levelo://app?vid=ac2ce474-7f27-49ac-840a-ae98524f7ad6"},"vehicle_type_id":"4","last_reported":1712506045,"current_range_meters":2000,"station_id":"ce4bgj12rcd13ifvqbc0","pricing_plan_id":"cebpf4jnsgd1na2vs0mg"},{"bike_id":"1fa4faed-f7f4-45f6-aeb3-51763d2f2ef4","system_id":"levelo_inurba_marseille","lat":43.309543,"lon":5.390335,"is_reserved":false,"is_disabled":false,"rental_uris":{"android":"levelo://app?vid=1fa4faed-f7f4-45f6-aeb3-51763d2f2ef4","ios":"levelo://app?vid=1fa4faed-f7f4-45f6-aeb3-51763d2f2ef4"},"vehicle_type_id":"4","last_reported":1712506045,"current_range_meters":6800,"station_id":"ce4bgup2rcd13ifvqco0","pricing_plan_id":"cebpf4jnsgd1na2vs0mg"},{"bike_id":"6f529189-158c-449e-9ed5-60695a8b4811","system_id":"levelo_inurba_marseille","lat":43.309589,"lon":5.390258,"is_reserved":false,"is_disabled":false,"rental_uris":{"android":"levelo://app?vid=6f529189-158c-449e-9ed5-60695a8b4811","ios":"levelo://app?vid=6f529189-158c-449e-9ed5-60695a8b4811"},"vehicle_type_id":"4","last_reported":1712506045,"current_range_meters":14000,"station_id":"ce4bgup2rcd13ifvqco0","pricing_plan_id":"cebpf4jnsgd1na2vs0mg"},{"bike_id":"e3ed30ed-88f3-4fe4-aabe-2bd0cf666c63","system_id":"levelo_inurba_marseille","lat":43.309589,"lon":5.390258,"is_reserved":false,"is_disabled":false,"rental_uris":{"android":"levelo://app?vid=e3ed30ed-88f3-4fe4-aabe-2bd0cf666c63","ios":"levelo://app?vid=e3ed30ed-88f3-4fe4-aabe-2bd0cf666c63"},"vehicle_type_id":"4","last_reported":1712506045,"current_range_meters":18800,"station_id":"ce4bgup2rcd13ifvqco0","pricing_plan_id":"cebpf4jnsgd1na2vs0mg"},{"bike_id":"b9c50ce4-23ed-410b-867d-b44ac82b3d10","system_id":"levelo_inurba_marseille","lat":43.309589,"lon":5.390258,"is_reserved":false,"is_disabled":false,"rental_uris":{"android":"levelo://app?vid=b9c50ce4-23ed-410b-867d-b44ac82b3d10","ios":"levelo://app?vid=b9c50ce4-23ed-410b-867d-b44ac82b3d10"},"vehicle_type_id":"4","last_reported":1712506045,"current_range_meters":3600,"station_id":"ce4bgup2rcd13ifvqco0","pricing_plan_id":"cebpf4jnsgd1na2vs0mg"},{"bike_id":"2d0ad455-4113-4f09-a9fd-c498371fd1eb","system_id":"levelo_inurba_marseille","lat":43.317557,"lon":5.390173,"is_reserved":false,"is_disabled":false,"rental_uris":{"android":"levelo://app?vid=2d0ad455-4113-4f09-a9fd-c498371fd1eb","ios":"levelo://app?vid=2d0ad455-4113-4f09-a9fd-c498371fd1eb"},"vehicle_type_id":"4","last_reported":1712506045,"current_range_meters":24800,"station_id":"ce4bhqp2rcd13ifvqhng","pricing_plan_id":"cebpf4jnsgd1na2vs0mg"},{"bike_id":"f0a8df23-0479-4fa0-8668-bbcca8464c10","system_id":"levelo_inurba_marseille","lat":43.309589,"lon":5.390258,"is_reserved":false,"is_disabled":false,"rental_uris":{"android":"levelo://app?vid=f0a8df23-0479-4fa0-8668-bbcca8464c10","ios":"levelo://app?vid=f0a8df23-0479-4fa0-8668-bbcca8464c10"},"vehicle_type_id":"4","last_reported":1712506045,"current_range_meters":4800,"station_id":"ce4bgup2rcd13ifvqco0","pricing_plan_id":"cebpf4jnsgd1na2vs0mg"},{"bike_id":"7609aa77-0f1d-43d3-9965-79b1d33a1edb","system_id":"levelo_inurba_marseille","lat":43.298037,"lon":5.381066,"is_reserved":false,"is_disabled":false,"rental_uris":{"android":"levelo://app?vid=7609aa77-0f1d-43d3-9965-79b1d33a1edb","ios":"levelo://app?vid=7609aa77-0f1d-43d3-9965-79b1d33a1edb"},"vehicle_type_id":"4","last_reported":1712506045,"current_range_meters":800,"station_id":"ce4bgip2rcd13ifvqbb0","pricing_plan_id":"cebpf4jnsgd1na2vs0mg"},{"bike_id":"76a29bbf-3037-42f7-b804-fce8d8707c17","system_id":"levelo_inurba_marseille","lat":43.29801,"lon":5.38092,"is_reserved":false,"is_disabled":false,"rental_uris":{"android":"levelo://app?vid=76a29bbf-3037-42f7-b804-fce8d8707c17","ios":"levelo://app?vid=76a29bbf-3037-42f7-b804-fce8d8707c17"},"vehicle_type_id":"4","last_reported":1712506045,"current_range_meters":0,"station_id":"ce4bgip2rcd13ifvqbb0","pricing_plan_id":"cebpf4jnsgd1na2vs0mg"},{"bike_id":"86990208-b102-46a3-8d79-67c66c785130","system_id":"levelo_inurba_marseille","lat":43.298037,"lon":5.381066,"is_reserved":false,"is_disabled":false,"rental_uris":{"android":"levelo://app?vid=86990208-b102-46a3-8d79-67c66c785130","ios":"levelo://app?vid=86990208-b102-46a3-8d79-67c66c785130"},"vehicle_type_id":"4","last_reported":1712506045,"current_range_meters":0,"station_id":"ce4bgip2rcd13ifvqbb0","pricing_plan_id":"cebpf4jnsgd1na2vs0mg"},{"bike_id":"808d0d92-4858-48f5-a446-b96f5d57c07e","system_id":"levelo_inurba_marseille","lat":43.298037,"lon":5.381066,"is_reserved":false,"is_disabled":false,"rental_uris":{"android":"levelo://app?vid=808d0d92-4858-48f5-a446-b96f5d57c07e","ios":"levelo://app?vid=808d0d92-4858-48f5-a446-b96f5d57c07e"},"vehicle_type_id":"4","last_reported":1712506045,"current_range_meters":0,"station_id":"ce4bgip2rcd13ifvqbb0","pricing_plan_id":"cebpf4jnsgd1na2vs0mg"},{"bike_id":"2bf2df85-fecd-40e9-866d-fdd104544ae2","system_id":"levelo_inurba_marseille","lat":43.304274,"lon":5.388873,"is_reserved":false,"is_disabled":false,"rental_uris":{"android":"levelo://app?vid=2bf2df85-fecd-40e9-866d-fdd104544ae2","ios":"levelo://app?vid=2bf2df85-fecd-40e9-866d-fdd104544ae2"},"vehicle_type_id":"4","last_reported":1712506045,"current_range_meters":7200,"station_id":"ce4bgk12rcd13ifvqbi0","pricing_plan_id":"cebpf4jnsgd1na2vs0mg"},{"bike_id":"7554c1c3-ffc3-4eb5-9055-b2588fd0bdb9","system_id":"levelo_inurba_marseille","lat":43.304278,"lon":5.388868,"is_reserved":false,"is_disabled":false,"rental_uris":{"android":"levelo://app?vid=7554c1c3-ffc3-4eb5-9055-b2588fd0bdb9","ios":"levelo://app?vid=7554c1c3-ffc3-4eb5-9055-b2588fd0bdb9"},"vehicle_type_id":"4","last_reported":1712506045,"current_range_meters":3200,"station_id":"ce4bgk12rcd13ifvqbi0","pricing_plan_id":"cebpf4jnsgd1na2vs0mg"},{"bike_id":"5af7c494-0e42-48f7-a8c8-0e6b5260636e","system_id":"levelo_inurba_marseille","lat":43.296277,"lon":5.377108,"is_reserved":false,"is_disabled":false,"rental_uris":{"android":"levelo://app?vid=5af7c494-0e42-48f7-a8c8-0e6b5260636e","ios":"levelo://app?vid=5af7c494-0e42-48f7-a8c8-0e6b5260636e"},"vehicle_type_id":"4","last_reported":1712506045,"current_range_meters":17200,"station_id":"ce4bgi92rcd13ifvqb90","pricing_plan_id":"cebpf4jnsgd1na2vs0mg"},{"bike_id":"7a2e8024-371f-4d91-b893-f5938dc0e05f","system_id":"levelo_inurba_marseille","lat":43.2953,"lon":5.37426,"is_reserved":false,"is_disabled":false,"rental_uris":{"android":"levelo://app?vid=7a2e8024-371f-4d91-b893-f5938dc0e05f","ios":"levelo://app?vid=7a2e8024-371f-4d91-b893-f5938dc0e05f"},"vehicle_type_id":"4","last_reported":1712506045,"current_range_meters":14800,"station_id":"","pricing_plan_id":"cebpf4jnsgd1na2vs0mg"},{"bike_id":"1f5d34f9-d919-4949-bca0-c29a4871290c","system_id":"levelo_inurba_marseille","lat":43.295425,"lon":5.37499,"is_reserved":false,"is_disabled":false,"rental_uris":{"android":"levelo://app?vid=1f5d34f9-d919-4949-bca0-c29a4871290c","ios":"levelo://app?vid=1f5d34f9-d919-4949-bca0-c29a4871290c"},"vehicle_type_id":"4","last_reported":1712506045,"current_range_meters":0,"station_id":"ce4bgkp2rcd13ifvqbmg","pricing_plan_id":"cebpf4jnsgd1na2vs0mg"},{"bike_id":"70b45e80-8d9b-445f-8485-23641e7ef662","system_id":"levelo_inurba_marseille","lat":43.295279,"lon":5.375048,"is_reserved":false,"is_disabled":false,"rental_uris":{"android":"levelo://app?vid=70b45e80-8d9b-445f-8485-23641e7ef662","ios":"levelo://app?vid=70b45e80-8d9b-445f-8485-23641e7ef662"},"vehicle_type_id":"4","last_reported":1712506045,"current_range_meters":3600,"station_id":"ce4bgkp2rcd13ifvqbmg","pricing_plan_id":"cebpf4jnsgd1na2vs0mg"},{"bike_id":"d254da62-2c2b-4720-8617-f131b29d1d35","system_id":"levelo_inurba_marseille","lat":43.29542,"lon":5.37503,"is_reserved":false,"is_disabled":false,"rental_uris":{"android":"levelo://app?vid=d254da62-2c2b-4720-8617-f131b29d1d35","ios":"levelo://app?vid=d254da62-2c2b-4720-8617-f131b29d1d35"},"vehicle_type_id":"4","last_reported":1712506045,"current_range_meters":0,"station_id":"ce4bgkp2rcd13ifvqbmg","pricing_plan_id":"cebpf4jnsgd1na2vs0mg"},{"bike_id":"d658c94e-d892-49b0-a265-5fee383a03c6","system_id":"levelo_inurba_marseille","lat":43.295279,"lon":5.375048,"is_reserved":false,"is_disabled":false,"rental_uris":{"android":"levelo://app?vid=d658c94e-d892-49b0-a265-5fee383a03c6","ios":"levelo://app?vid=d658c94e-d892-49b0-a265-5fee383a03c6"},"vehicle_type_id":"4","last_reported":1712506045,"current_range_meters":10800,"station_id":"ce4bgkp2rcd13ifvqbmg","pricing_plan_id":"cebpf4jnsgd1na2vs0mg"},{"bike_id":"fff8e57b-3c33-420f-98ff-8fa4bebb7589","system_id":"levelo_inurba_marseille","lat":43.295279,"lon":5.375048,"is_reserved":false,"is_disabled":false,"rental_uris":{"android":"levelo://app?vid=fff8e57b-3c33-420f-98ff-8fa4bebb7589","ios":"levelo://app?vid=fff8e57b-3c33-420f-98ff-8fa4bebb7589"},"vehicle_type_id":"4","last_reported":1712506045,"current_range_meters":7600,"station_id":"ce4bgkp2rcd13ifvqbmg","pricing_plan_id":"cebpf4jnsgd1na2vs0mg"},{"bike_id":"e661139e-2eaa-46fe-83f7-fd25d1fd9dc3","system_id":"levelo_inurba_marseille","lat":43.2954,"lon":5.3751,"is_reserved":false,"is_disabled":false,"rental_uris":{"android":"levelo://app?vid=e661139e-2eaa-46fe-83f7-fd25d1fd9dc3","ios":"levelo://app?vid=e661139e-2eaa-46fe-83f7-fd25d1fd9dc3"},"vehicle_type_id":"4","last_reported":1712506045,"current_range_meters":0,"station_id":"ce4bgkp2rcd13ifvqbmg","pricing_plan_id":"cebpf4jnsgd1na2vs0mg"},{"bike_id":"c2ebf99e-59fb-462a-a073-18a487369079","system_id":"levelo_inurba_marseille","lat":43.295288,"lon":5.375026,"is_reserved":false,"is_disabled":false,"rental_uris":{"android":"levelo://app?vid=c2ebf99e-59fb-462a-a073-18a487369079","ios":"levelo://app?vid=c2ebf99e-59fb-462a-a073-18a487369079"},"vehicle_type_id":"4","last_reported":1712506045,"current_range_meters":15200,"station_id":"ce4bgkp2rcd13ifvqbmg","pricing_plan_id":"cebpf4jnsgd1na2vs0mg"},{"bike_id":"99feddc0-7b29-42c7-a080-252b169acf88","system_id":"levelo_inurba_marseille","lat":43.313571,"lon":5.384829,"is_reserved":false,"is_disabled":false,"rental_uris":{"android":"levelo://app?vid=99feddc0-7b29-42c7-a080-252b169acf88","ios":"levelo://app?vid=99feddc0-7b29-42c7-a080-252b169acf88"},"vehicle_type_id":"4","last_reported":1712506045,"current_range_meters":10800,"station_id":"ce4bgt92rcd13ifvqcf0","pricing_plan_id":"cebpf4jnsgd1na2vs0mg"},{"bike_id":"47f7e75d-cd3e-434e-b220-8f12227e21f1","system_id":"levelo_inurba_marseille","lat":43.299707,"lon":5.384859,"is_reserved":false,"is_disabled":false,"rental_uris":{"android":"levelo://app?vid=47f7e75d-cd3e-434e-b220-8f12227e21f1","ios":"levelo://app?vid=47f7e75d-cd3e-434e-b220-8f12227e21f1"},"vehicle_type_id":"4","last_reported":1712506045,"current_range_meters":0,"station_id":"ce4bgj92rcd13ifvqbd0","pricing_plan_id":"cebpf4jnsgd1na2vs0mg"},{"bike_id":"80bb12c3-867a-49cc-9111-6a077ae07546","system_id":"levelo_inurba_marseille","lat":43.299717,"lon":5.384845,"is_reserved":false,"is_disabled":false,"rental_uris":{"android":"levelo://app?vid=80bb12c3-867a-49cc-9111-6a077ae07546","ios":"levelo://app?vid=80bb12c3-867a-49cc-9111-6a077ae07546"},"vehicle_type_id":"4","last_reported":1712506045,"current_range_meters":0,"station_id":"ce4bgj92rcd13ifvqbd0","pricing_plan_id":"cebpf4jnsgd1na2vs0mg"},{"bike_id":"f69a281e-fcb0-498e-9cd9-55ee2e59583a","system_id":"levelo_inurba_marseille","lat":43.295279,"lon":5.375048,"is_reserved":false,"is_disabled":false,"rental_uris":{"android":"levelo://app?vid=f69a281e-fcb0-498e-9cd9-55ee2e59583a","ios":"levelo://app?vid=f69a281e-fcb0-498e-9cd9-55ee2e59583a"},"vehicle_type_id":"4","last_reported":1712506045,"current_range_meters":0,"station_id":"ce4bgkp2rcd13ifvqbmg","pricing_plan_id":"cebpf4jnsgd1na2vs0mg"},{"bike_id":"d658d995-00c7-4808-9e1c-586c7570f57d","system_id":"levelo_inurba_marseille","lat":43.32364,"lon":5.38879,"is_reserved":false,"is_disabled":false,"rental_uris":{"android":"levelo://app?vid=d658d995-00c7-4808-9e1c-586c7570f57d","ios":"levelo://app?vid=d658d995-00c7-4808-9e1c-586c7570f57d"},"vehicle_type_id":"4","last_reported":1712506045,"current_range_meters":0,"station_id":"ce4bhqp2rcd13ifvqhog","pricing_plan_id":"cebpf4jnsgd1na2vs0mg"},{"bike_id":"f0b5861e-c949-49df-813a-ded3f8964353","system_id":"levelo_inurba_marseille","lat":43.296079,"lon":5.380962,"is_reserved":false,"is_disabled":false,"rental_uris":{"android":"levelo://app?vid=f0b5861e-c949-49df-813a-ded3f8964353","ios":"levelo://app?vid=f0b5861e-c949-49df-813a-ded3f8964353"},"vehicle_type_id":"4","last_reported":1712506045,"current_range_meters":24400,"station_id":"ce4bgl12rcd13ifvqbo0","pricing_plan_id":"cebpf4jnsgd1na2vs0mg"},{"bike_id":"dd574279-097e-4c4f-9fc6-5ea7e18b91ea","system_id":"levelo_inurba_marseille","lat":43.288497,"lon":5.393089,"is_reserved":false,"is_disabled":false,"rental_uris":{"android":"levelo://app?vid=dd574279-097e-4c4f-9fc6-5ea7e18b91ea","ios":"levelo://app?vid=dd574279-097e-4c4f-9fc6-5ea7e18b91ea"},"vehicle_type_id":"4","last_reported":1712506045,"current_range_meters":0,"station_id":"ce4bh2p2rcd13ifvqdi0","pricing_plan_id":"cebpf4jnsgd1na2vs0mg"},{"bike_id":"f659363d-9181-42a2-8f5e-747d60b10450","system_id":"levelo_inurba_marseille","lat":43.293259,"lon":5.371586,"is_reserved":false,"is_disabled":false,"rental_uris":{"android":"levelo://app?vid=f659363d-9181-42a2-8f5e-747d60b10450","ios":"levelo://app?vid=f659363d-9181-42a2-8f5e-747d60b10450"},"vehicle_type_id":"4","last_reported":1712506045,"current_range_meters":0,"station_id":"ce4bgh92rcd13ifvqb40","pricing_plan_id":"cebpf4jnsgd1na2vs0mg"},{"bike_id":"7eef73d9-b79f-4cb5-a25b-ce842648599c","system_id":"levelo_inurba_marseille","lat":43.293259,"lon":5.371586,"is_reserved":false,"is_disabled":false,"rental_uris":{"android":"levelo://app?vid=7eef73d9-b79f-4cb5-a25b-ce842648599c","ios":"levelo://app?vid=7eef73d9-b79f-4cb5-a25b-ce842648599c"},"vehicle_type_id":"4","last_reported":1712506045,"current_range_meters":8000,"station_id":"ce4bgh92rcd13ifvqb40","pricing_plan_id":"cebpf4jnsgd1na2vs0mg"},{"bike_id":"25438d87-7602-4e28-bca8-92daa4996576","system_id":"levelo_inurba_marseille","lat":43.292749,"lon":5.368402,"is_reserved":false,"is_disabled":false,"rental_uris":{"android":"levelo://app?vid=25438d87-7602-4e28-bca8-92daa4996576","ios":"levelo://app?vid=25438d87-7602-4e28-bca8-92daa4996576"},"vehicle_type_id":"4","last_reported":1712506045,"current_range_meters":0,"station_id":"ce4bhbp2rcd13ifvqesg","pricing_plan_id":"cebpf4jnsgd1na2vs0mg"},{"bike_id":"920c4f3c-a3ea-4e97-b8d4-83d8f8d236d7","system_id":"levelo_inurba_marseille","lat":43.29988,"lon":5.38872,"is_reserved":false,"is_disabled":false,"rental_uris":{"android":"levelo://app?vid=920c4f3c-a3ea-4e97-b8d4-83d8f8d236d7","ios":"levelo://app?vid=920c4f3c-a3ea-4e97-b8d4-83d8f8d236d7"},"vehicle_type_id":"4","last_reported":1712506045,"current_range_meters":21600,"station_id":"","pricing_plan_id":"cebpf4jnsgd1na2vs0mg"},{"bike_id":"b27edba3-d1de-4586-a708-952b5382655c","system_id":"levelo_inurba_marseille","lat":43.293009,"lon":5.374584,"is_reserved":false,"is_disabled":false,"rental_uris":{"android":"levelo://app?vid=b27edba3-d1de-4586-a708-952b5382655c","ios":"levelo://app?vid=b27edba3-d1de-4586-a708-952b5382655c"},"vehicle_type_id":"4","last_reported":1712506045,"current_range_meters":0,"station_id":"ce4bgi12rcd13ifvqb70","pricing_plan_id":"cebpf4jnsgd1na2vs0mg"},{"bike_id":"5f8658ea-3743-41dc-b617-7febe4b231ac","system_id":"levelo_inurba_marseille","lat":43.29299,"lon":5.37451,"is_reserved":false,"is_disabled":false,"rental_uris":{"android":"levelo://app?vid=5f8658ea-3743-41dc-b617-7febe4b231ac","ios":"levelo://app?vid=5f8658ea-3743-41dc-b617-7febe4b231ac"},"vehicle_type_id":"4","last_reported":1712506045,"current_range_meters":9600,"station_id":"ce4bgi12rcd13ifvqb70","pricing_plan_id":"cebpf4jnsgd1na2vs0mg"},{"bike_id":"c4020406-7198-4163-a017-16afecc48b76","system_id":"levelo_inurba_marseille","lat":43.293009,"lon":5.374584,"is_reserved":false,"is_disabled":false,"rental_uris":{"android":"levelo://app?vid=c4020406-7198-4163-a017-16afecc48b76","ios":"levelo://app?vid=c4020406-7198-4163-a017-16afecc48b76"},"vehicle_type_id":"4","last_reported":1712506045,"current_range_meters":0,"station_id":"ce4bgi12rcd13ifvqb70","pricing_plan_id":"cebpf4jnsgd1na2vs0mg"},{"bike_id":"c2707558-9261-4ccc-8267-686f8b7fdea4","system_id":"levelo_inurba_marseille","lat":43.300852,"lon":5.390859,"is_reserved":false,"is_disabled":false,"rental_uris":{"android":"levelo://app?vid=c2707558-9261-4ccc-8267-686f8b7fdea4","ios":"levelo://app?vid=c2707558-9261-4ccc-8267-686f8b7fdea4"},"vehicle_type_id":"4","last_reported":1712506045,"current_range_meters":12400,"station_id":"ce4bh192rcd13ifvqdb0","pricing_plan_id":"cebpf4jnsgd1na2vs0mg"},{"bike_id":"afef39dd-9cfb-49fb-b353-8b782cb7fa56","system_id":"levelo_inurba_marseille","lat":43.2936,"lon":5.37835,"is_reserved":false,"is_disabled":false,"rental_uris":{"android":"levelo://app?vid=afef39dd-9cfb-49fb-b353-8b782cb7fa56","ios":"levelo://app?vid=afef39dd-9cfb-49fb-b353-8b782cb7fa56"},"vehicle_type_id":"4","last_reported":1712506045,"current_range_meters":0,"station_id":"ce4bgjh2rcd13ifvqbf0","pricing_plan_id":"cebpf4jnsgd1na2vs0mg"},{"bike_id":"61b2e8d9-bfe3-4338-b6a1-07a2f7b3e587","system_id":"levelo_inurba_marseille","lat":43.2936,"lon":5.37835,"is_reserved":false,"is_disabled":false,"rental_uris":{"android":"levelo://app?vid=61b2e8d9-bfe3-4338-b6a1-07a2f7b3e587","ios":"levelo://app?vid=61b2e8d9-bfe3-4338-b6a1-07a2f7b3e587"},"vehicle_type_id":"4","last_reported":1712506045,"current_range_meters":20800,"station_id":"ce4bgjh2rcd13ifvqbf0","pricing_plan_id":"cebpf4jnsgd1na2vs0mg"},{"bike_id":"4baf7f3f-a16c-49e0-bece-820edd62edb4","system_id":"levelo_inurba_marseille","lat":43.2936,"lon":5.37835,"is_reserved":false,"is_disabled":false,"rental_uris":{"android":"levelo://app?vid=4baf7f3f-a16c-49e0-bece-820edd62edb4","ios":"levelo://app?vid=4baf7f3f-a16c-49e0-bece-820edd62edb4"},"vehicle_type_id":"4","last_reported":1712506045,"current_range_meters":13200,"station_id":"ce4bgjh2rcd13ifvqbf0","pricing_plan_id":"cebpf4jnsgd1na2vs0mg"},{"bike_id":"2c8340ec-9983-45e5-ac99-3920886eeba7","system_id":"levelo_inurba_marseille","lat":43.2936,"lon":5.37835,"is_reserved":false,"is_disabled":false,"rental_uris":{"android":"levelo://app?vid=2c8340ec-9983-45e5-ac99-3920886eeba7","ios":"levelo://app?vid=2c8340ec-9983-45e5-ac99-3920886eeba7"},"vehicle_type_id":"4","last_reported":1712506045,"current_range_meters":26000,"station_id":"ce4bgjh2rcd13ifvqbf0","pricing_plan_id":"cebpf4jnsgd1na2vs0mg"},{"bike_id":"6217da38-50e3-405f-a6e5-bb5fbe1dcea4","system_id":"levelo_inurba_marseille","lat":43.2936,"lon":5.37835,"is_reserved":false,"is_disabled":false,"rental_uris":{"android":"levelo://app?vid=6217da38-50e3-405f-a6e5-bb5fbe1dcea4","ios":"levelo://app?vid=6217da38-50e3-405f-a6e5-bb5fbe1dcea4"},"vehicle_type_id":"4","last_reported":1712506045,"current_range_meters":22000,"station_id":"ce4bgjh2rcd13ifvqbf0","pricing_plan_id":"cebpf4jnsgd1na2vs0mg"},{"bike_id":"6575cc85-c60b-4d1b-9b42-5ec5454d7540","system_id":"levelo_inurba_marseille","lat":43.2936,"lon":5.37835,"is_reserved":false,"is_disabled":false,"rental_uris":{"android":"levelo://app?vid=6575cc85-c60b-4d1b-9b42-5ec5454d7540","ios":"levelo://app?vid=6575cc85-c60b-4d1b-9b42-5ec5454d7540"},"vehicle_type_id":"4","last_reported":1712506045,"current_range_meters":8000,"station_id":"ce4bgjh2rcd13ifvqbf0","pricing_plan_id":"cebpf4jnsgd1na2vs0mg"},{"bike_id":"b1e28ff3-eab5-4f5e-b2f9-46f4179db1fa","system_id":"levelo_inurba_marseille","lat":43.2936,"lon":5.37835,"is_reserved":false,"is_disabled":false,"rental_uris":{"android":"levelo://app?vid=b1e28ff3-eab5-4f5e-b2f9-46f4179db1fa","ios":"levelo://app?vid=b1e28ff3-eab5-4f5e-b2f9-46f4179db1fa"},"vehicle_type_id":"4","last_reported":1712506045,"current_range_meters":9200,"station_id":"ce4bgjh2rcd13ifvqbf0","pricing_plan_id":"cebpf4jnsgd1na2vs0mg"},{"bike_id":"02b834a1-2e13-434d-bad4-407172fa9a62","system_id":"levelo_inurba_marseille","lat":43.29219,"lon":5.36048,"is_reserved":false,"is_disabled":false,"rental_uris":{"android":"levelo://app?vid=02b834a1-2e13-434d-bad4-407172fa9a62","ios":"levelo://app?vid=02b834a1-2e13-434d-bad4-407172fa9a62"},"vehicle_type_id":"4","last_reported":1712506045,"current_range_meters":0,"station_id":"ce4bhbh2rcd13ifvqeqg","pricing_plan_id":"cebpf4jnsgd1na2vs0mg"},{"bike_id":"0bf86f10-63ec-465a-81d9-e85548b9d20a","system_id":"levelo_inurba_marseille","lat":43.298764,"lon":5.388973,"is_reserved":false,"is_disabled":false,"rental_uris":{"android":"levelo://app?vid=0bf86f10-63ec-465a-81d9-e85548b9d20a","ios":"levelo://app?vid=0bf86f10-63ec-465a-81d9-e85548b9d20a"},"vehicle_type_id":"4","last_reported":1712506045,"current_range_meters":3600,"station_id":"ce4bh392rcd13ifvqdl0","pricing_plan_id":"cebpf4jnsgd1na2vs0mg"},{"bike_id":"a1a4e105-30b6-40e8-a453-38d8f94ddaa0","system_id":"levelo_inurba_marseille","lat":43.298764,"lon":5.388973,"is_reserved":false,"is_disabled":false,"rental_uris":{"android":"levelo://app?vid=a1a4e105-30b6-40e8-a453-38d8f94ddaa0","ios":"levelo://app?vid=a1a4e105-30b6-40e8-a453-38d8f94ddaa0"},"vehicle_type_id":"4","last_reported":1712506045,"current_range_meters":0,"station_id":"ce4bh392rcd13ifvqdl0","pricing_plan_id":"cebpf4jnsgd1na2vs0mg"},{"bike_id":"5dcddc96-b2f4-436b-b1be-bf9d4204bb40","system_id":"levelo_inurba_marseille","lat":43.291994,"lon":5.357886,"is_reserved":false,"is_disabled":false,"rental_uris":{"android":"levelo://app?vid=5dcddc96-b2f4-436b-b1be-bf9d4204bb40","ios":"levelo://app?vid=5dcddc96-b2f4-436b-b1be-bf9d4204bb40"},"vehicle_type_id":"4","last_reported":1712506045,"current_range_meters":0,"station_id":"ce4bhb12rcd13ifvqel0","pricing_plan_id":"cebpf4jnsgd1na2vs0mg"},{"bike_id":"cb617cda-fc13-4b45-8825-306d0714df39","system_id":"levelo_inurba_marseille","lat":43.291671,"lon":5.371575,"is_reserved":false,"is_disabled":false,"rental_uris":{"android":"levelo://app?vid=cb617cda-fc13-4b45-8825-306d0714df39","ios":"levelo://app?vid=cb617cda-fc13-4b45-8825-306d0714df39"},"vehicle_type_id":"4","last_reported":1712506045,"current_range_meters":3600,"station_id":"ce4bha92rcd13ifvqeh0","pricing_plan_id":"cebpf4jnsgd1na2vs0mg"},{"bike_id":"a87df20a-6ba0-433c-b5b7-f9eac0915d0b","system_id":"levelo_inurba_marseille","lat":43.309047,"lon":5.396551,"is_reserved":false,"is_disabled":false,"rental_uris":{"android":"levelo://app?vid=a87df20a-6ba0-433c-b5b7-f9eac0915d0b","ios":"levelo://app?vid=a87df20a-6ba0-433c-b5b7-f9eac0915d0b"},"vehicle_type_id":"4","last_reported":1712506045,"current_range_meters":17600,"station_id":"ce4bh012rcd13ifvqcv0","pricing_plan_id":"cebpf4jnsgd1na2vs0mg"},{"bike_id":"68bb8d8f-0c9d-4d37-9cde-2f067d0c782a","system_id":"levelo_inurba_marseille","lat":43.29195,"lon":5.35794,"is_reserved":false,"is_disabled":false,"rental_uris":{"android":"levelo://app?vid=68bb8d8f-0c9d-4d37-9cde-2f067d0c782a","ios":"levelo://app?vid=68bb8d8f-0c9d-4d37-9cde-2f067d0c782a"},"vehicle_type_id":"4","last_reported":1712506045,"current_range_meters":0,"station_id":"ce4bhb12rcd13ifvqel0","pricing_plan_id":"cebpf4jnsgd1na2vs0mg"},{"bike_id":"f1880c2a-6467-4f5f-b0b0-795f61aad757","system_id":"levelo_inurba_marseille","lat":43.313291,"lon":5.396838,"is_reserved":false,"is_disabled":false,"rental_uris":{"android":"levelo://app?vid=f1880c2a-6467-4f5f-b0b0-795f61aad757","ios":"levelo://app?vid=f1880c2a-6467-4f5f-b0b0-795f61aad757"},"vehicle_type_id":"4","last_reported":1712506045,"current_range_meters":25200,"station_id":"ce4bgvp2rcd13ifvqcu0","pricing_plan_id":"cebpf4jnsgd1na2vs0mg"},{"bike_id":"4687975b-9fa8-4d8f-80bb-b31eb3204fea","system_id":"levelo_inurba_marseille","lat":43.313291,"lon":5.396838,"is_reserved":false,"is_disabled":false,"rental_uris":{"android":"levelo://app?vid=4687975b-9fa8-4d8f-80bb-b31eb3204fea","ios":"levelo://app?vid=4687975b-9fa8-4d8f-80bb-b31eb3204fea"},"vehicle_type_id":"4","last_reported":1712506045,"current_range_meters":24800,"station_id":"ce4bgvp2rcd13ifvqcu0","pricing_plan_id":"cebpf4jnsgd1na2vs0mg"},{"bike_id":"965f1cec-0a0d-445d-aa94-a3d0c6146677","system_id":"levelo_inurba_marseille","lat":43.309038,"lon":5.396546,"is_reserved":false,"is_disabled":false,"rental_uris":{"android":"levelo://app?vid=965f1cec-0a0d-445d-aa94-a3d0c6146677","ios":"levelo://app?vid=965f1cec-0a0d-445d-aa94-a3d0c6146677"},"vehicle_type_id":"4","last_reported":1712506045,"current_range_meters":23600,"station_id":"ce4bh012rcd13ifvqcv0","pricing_plan_id":"cebpf4jnsgd1na2vs0mg"},{"bike_id":"ca01e377-1db9-4cb4-b000-59b60b7cd638","system_id":"levelo_inurba_marseille","lat":43.313291,"lon":5.396838,"is_reserved":false,"is_disabled":false,"rental_uris":{"android":"levelo://app?vid=ca01e377-1db9-4cb4-b000-59b60b7cd638","ios":"levelo://app?vid=ca01e377-1db9-4cb4-b000-59b60b7cd638"},"vehicle_type_id":"4","last_reported":1712506045,"current_range_meters":1600,"station_id":"ce4bgvp2rcd13ifvqcu0","pricing_plan_id":"cebpf4jnsgd1na2vs0mg"},{"bike_id":"1a417d40-04e7-4b8b-ad7a-1e1ecf0782e4","system_id":"levelo_inurba_marseille","lat":43.30884,"lon":5.39655,"is_reserved":false,"is_disabled":false,"rental_uris":{"android":"levelo://app?vid=1a417d40-04e7-4b8b-ad7a-1e1ecf0782e4","ios":"levelo://app?vid=1a417d40-04e7-4b8b-ad7a-1e1ecf0782e4"},"vehicle_type_id":"4","last_reported":1712506045,"current_range_meters":0,"station_id":"ce4bh012rcd13ifvqcv0","pricing_plan_id":"cebpf4jnsgd1na2vs0mg"},{"bike_id":"506821b0-87e6-42eb-ad52-5a69800ec258","system_id":"levelo_inurba_marseille","lat":43.30883,"lon":5.39656,"is_reserved":false,"is_disabled":false,"rental_uris":{"android":"levelo://app?vid=506821b0-87e6-42eb-ad52-5a69800ec258","ios":"levelo://app?vid=506821b0-87e6-42eb-ad52-5a69800ec258"},"vehicle_type_id":"4","last_reported":1712506045,"current_range_meters":5600,"station_id":"ce4bh012rcd13ifvqcv0","pricing_plan_id":"cebpf4jnsgd1na2vs0mg"},{"bike_id":"67d440f2-c6bd-4826-93cd-12be2572b413","system_id":"levelo_inurba_marseille","lat":43.29529,"lon":5.385581,"is_reserved":false,"is_disabled":false,"rental_uris":{"android":"levelo://app?vid=67d440f2-c6bd-4826-93cd-12be2572b413","ios":"levelo://app?vid=67d440f2-c6bd-4826-93cd-12be2572b413"},"vehicle_type_id":"4","last_reported":1712506045,"current_range_meters":0,"station_id":"ce4bgih2rcd13ifvqba0","pricing_plan_id":"cebpf4jnsgd1na2vs0mg"},{"bike_id":"f5a0b6e0-056f-4a42-ada3-46d457a8d2b4","system_id":"levelo_inurba_marseille","lat":43.29529,"lon":5.385581,"is_reserved":false,"is_disabled":false,"rental_uris":{"android":"levelo://app?vid=f5a0b6e0-056f-4a42-ada3-46d457a8d2b4","ios":"levelo://app?vid=f5a0b6e0-056f-4a42-ada3-46d457a8d2b4"},"vehicle_type_id":"4","last_reported":1712506045,"current_range_meters":13200,"station_id":"ce4bgih2rcd13ifvqba0","pricing_plan_id":"cebpf4jnsgd1na2vs0mg"},{"bike_id":"0baf7599-ae47-4792-83c2-12479b132ad7","system_id":"levelo_inurba_marseille","lat":43.29529,"lon":5.385581,"is_reserved":false,"is_disabled":false,"rental_uris":{"android":"levelo://app?vid=0baf7599-ae47-4792-83c2-12479b132ad7","ios":"levelo://app?vid=0baf7599-ae47-4792-83c2-12479b132ad7"},"vehicle_type_id":"4","last_reported":1712506045,"current_range_meters":9200,"station_id":"ce4bgih2rcd13ifvqba0","pricing_plan_id":"cebpf4jnsgd1na2vs0mg"},{"bike_id":"dada9c3c-b87f-40fe-b4be-20358e40be85","system_id":"levelo_inurba_marseille","lat":43.29529,"lon":5.385581,"is_reserved":false,"is_disabled":false,"rental_uris":{"android":"levelo://app?vid=dada9c3c-b87f-40fe-b4be-20358e40be85","ios":"levelo://app?vid=dada9c3c-b87f-40fe-b4be-20358e40be85"},"vehicle_type_id":"4","last_reported":1712506045,"current_range_meters":0,"station_id":"ce4bgih2rcd13ifvqba0","pricing_plan_id":"cebpf4jnsgd1na2vs0mg"},{"bike_id":"e1e141b8-6af5-49d7-b5ee-571aa00ce801","system_id":"levelo_inurba_marseille","lat":43.29529,"lon":5.385581,"is_reserved":false,"is_disabled":false,"rental_uris":{"android":"levelo://app?vid=e1e141b8-6af5-49d7-b5ee-571aa00ce801","ios":"levelo://app?vid=e1e141b8-6af5-49d7-b5ee-571aa00ce801"},"vehicle_type_id":"4","last_reported":1712506045,"current_range_meters":400,"station_id":"ce4bgih2rcd13ifvqba0","pricing_plan_id":"cebpf4jnsgd1na2vs0mg"},{"bike_id":"a32df4f8-a663-40fa-a788-0ecb40f6fa67","system_id":"levelo_inurba_marseille","lat":43.29529,"lon":5.385581,"is_reserved":false,"is_disabled":false,"rental_uris":{"android":"levelo://app?vid=a32df4f8-a663-40fa-a788-0ecb40f6fa67","ios":"levelo://app?vid=a32df4f8-a663-40fa-a788-0ecb40f6fa67"},"vehicle_type_id":"4","last_reported":1712506045,"current_range_meters":11200,"station_id":"ce4bgih2rcd13ifvqba0","pricing_plan_id":"cebpf4jnsgd1na2vs0mg"},{"bike_id":"32c7db94-c302-42f9-b479-efd3c12a5339","system_id":"levelo_inurba_marseille","lat":43.29529,"lon":5.385581,"is_reserved":false,"is_disabled":false,"rental_uris":{"android":"levelo://app?vid=32c7db94-c302-42f9-b479-efd3c12a5339","ios":"levelo://app?vid=32c7db94-c302-42f9-b479-efd3c12a5339"},"vehicle_type_id":"4","last_reported":1712506045,"current_range_meters":0,"station_id":"ce4bgih2rcd13ifvqba0","pricing_plan_id":"cebpf4jnsgd1na2vs0mg"},{"bike_id":"754c092f-41ad-40b0-aed7-07f3f6fc6380","system_id":"levelo_inurba_marseille","lat":43.290779,"lon":5.371482,"is_reserved":false,"is_disabled":false,"rental_uris":{"android":"levelo://app?vid=754c092f-41ad-40b0-aed7-07f3f6fc6380","ios":"levelo://app?vid=754c092f-41ad-40b0-aed7-07f3f6fc6380"},"vehicle_type_id":"4","last_reported":1712506045,"current_range_meters":27600,"station_id":"ce4bh5p2rcd13ifvqe4g","pricing_plan_id":"cebpf4jnsgd1na2vs0mg"},{"bike_id":"4432b017-92b4-4a53-a353-6e5538d2171b","system_id":"levelo_inurba_marseille","lat":43.290779,"lon":5.371482,"is_reserved":false,"is_disabled":false,"rental_uris":{"android":"levelo://app?vid=4432b017-92b4-4a53-a353-6e5538d2171b","ios":"levelo://app?vid=4432b017-92b4-4a53-a353-6e5538d2171b"},"vehicle_type_id":"4","last_reported":1712506045,"current_range_meters":25600,"station_id":"ce4bh5p2rcd13ifvqe4g","pricing_plan_id":"cebpf4jnsgd1na2vs0mg"},{"bike_id":"b32e9538-fe32-4a5e-9667-0484f16a0a75","system_id":"levelo_inurba_marseille","lat":43.290327,"lon":5.375711,"is_reserved":false,"is_disabled":false,"rental_uris":{"android":"levelo://app?vid=b32e9538-fe32-4a5e-9667-0484f16a0a75","ios":"levelo://app?vid=b32e9538-fe32-4a5e-9667-0484f16a0a75"},"vehicle_type_id":"4","last_reported":1712506045,"current_range_meters":400,"station_id":"ce4bh692rcd13ifvqe90","pricing_plan_id":"cebpf4jnsgd1na2vs0mg"},{"bike_id":"5a444f08-63ae-4081-82d7-f0b283a50237","system_id":"levelo_inurba_marseille","lat":43.309589,"lon":5.390258,"is_reserved":false,"is_disabled":false,"rental_uris":{"android":"levelo://app?vid=5a444f08-63ae-4081-82d7-f0b283a50237","ios":"levelo://app?vid=5a444f08-63ae-4081-82d7-f0b283a50237"},"vehicle_type_id":"4","last_reported":1712506045,"current_range_meters":8400,"station_id":"ce4bgup2rcd13ifvqco0","pricing_plan_id":"cebpf4jnsgd1na2vs0mg"},{"bike_id":"ba23d95a-d5e8-481b-97a0-a6a321a377c0","system_id":"levelo_inurba_marseille","lat":43.290327,"lon":5.375711,"is_reserved":false,"is_disabled":false,"rental_uris":{"android":"levelo://app?vid=ba23d95a-d5e8-481b-97a0-a6a321a377c0","ios":"levelo://app?vid=ba23d95a-d5e8-481b-97a0-a6a321a377c0"},"vehicle_type_id":"4","last_reported":1712506045,"current_range_meters":1200,"station_id":"ce4bh692rcd13ifvqe90","pricing_plan_id":"cebpf4jnsgd1na2vs0mg"},{"bike_id":"5ca06abf-6683-43fb-8bfe-5cb8326089df","system_id":"levelo_inurba_marseille","lat":43.2942,"lon":5.38625,"is_reserved":false,"is_disabled":false,"rental_uris":{"android":"levelo://app?vid=5ca06abf-6683-43fb-8bfe-5cb8326089df","ios":"levelo://app?vid=5ca06abf-6683-43fb-8bfe-5cb8326089df"},"vehicle_type_id":"4","last_reported":1712506045,"current_range_meters":12000,"station_id":"ce4bh2h2rcd13ifvqdh0","pricing_plan_id":"cebpf4jnsgd1na2vs0mg"},{"bike_id":"0a92c9b7-1fa7-421e-a389-4b5289fcb1b6","system_id":"levelo_inurba_marseille","lat":43.29423,"lon":5.386305,"is_reserved":false,"is_disabled":false,"rental_uris":{"android":"levelo://app?vid=0a92c9b7-1fa7-421e-a389-4b5289fcb1b6","ios":"levelo://app?vid=0a92c9b7-1fa7-421e-a389-4b5289fcb1b6"},"vehicle_type_id":"4","last_reported":1712506045,"current_range_meters":2000,"station_id":"ce4bh2h2rcd13ifvqdh0","pricing_plan_id":"cebpf4jnsgd1na2vs0mg"},{"bike_id":"01d6fb06-c0a9-4f29-8efc-16f3a1709c0a","system_id":"levelo_inurba_marseille","lat":43.294162,"lon":5.386292,"is_reserved":false,"is_disabled":false,"rental_uris":{"android":"levelo://app?vid=01d6fb06-c0a9-4f29-8efc-16f3a1709c0a","ios":"levelo://app?vid=01d6fb06-c0a9-4f29-8efc-16f3a1709c0a"},"vehicle_type_id":"4","last_reported":1712506045,"current_range_meters":0,"station_id":"ce4bh2h2rcd13ifvqdh0","pricing_plan_id":"cebpf4jnsgd1na2vs0mg"},{"bike_id":"0ab028e8-39c3-4b32-8bd3-16fd350cf870","system_id":"levelo_inurba_marseille","lat":43.294162,"lon":5.386292,"is_reserved":false,"is_disabled":false,"rental_uris":{"android":"levelo://app?vid=0ab028e8-39c3-4b32-8bd3-16fd350cf870","ios":"levelo://app?vid=0ab028e8-39c3-4b32-8bd3-16fd350cf870"},"vehicle_type_id":"4","last_reported":1712506045,"current_range_meters":0,"station_id":"ce4bh2h2rcd13ifvqdh0","pricing_plan_id":"cebpf4jnsgd1na2vs0mg"},{"bike_id":"11708eb7-e750-4155-8148-976a6bb639d1","system_id":"levelo_inurba_marseille","lat":43.290327,"lon":5.375711,"is_reserved":false,"is_disabled":false,"rental_uris":{"android":"levelo://app?vid=11708eb7-e750-4155-8148-976a6bb639d1","ios":"levelo://app?vid=11708eb7-e750-4155-8148-976a6bb639d1"},"vehicle_type_id":"4","last_reported":1712506045,"current_range_meters":5200,"station_id":"ce4bh692rcd13ifvqe90","pricing_plan_id":"cebpf4jnsgd1na2vs0mg"},{"bike_id":"ba118e04-0ccd-4016-b282-a1c7b4d36b01","system_id":"levelo_inurba_marseille","lat":43.276179,"lon":5.361009,"is_reserved":false,"is_disabled":false,"rental_uris":{"android":"levelo://app?vid=ba118e04-0ccd-4016-b282-a1c7b4d36b01","ios":"levelo://app?vid=ba118e04-0ccd-4016-b282-a1c7b4d36b01"},"vehicle_type_id":"4","last_reported":1712506045,"current_range_meters":9600,"station_id":"ce4bgj92rcd13ifvqbe0","pricing_plan_id":"cebpf4jnsgd1na2vs0mg"},{"bike_id":"e8e5e969-9a03-456c-a311-712c66ccaf30","system_id":"levelo_inurba_marseille","lat":43.28945,"lon":5.36403,"is_reserved":false,"is_disabled":false,"rental_uris":{"android":"levelo://app?vid=e8e5e969-9a03-456c-a311-712c66ccaf30","ios":"levelo://app?vid=e8e5e969-9a03-456c-a311-712c66ccaf30"},"vehicle_type_id":"4","last_reported":1712506045,"current_range_meters":31200,"station_id":"ce4bhc92rcd13ifvqetg","pricing_plan_id":"cebpf4jnsgd1na2vs0mg"},{"bike_id":"10150d39-051a-415a-b5d2-d40c3ec301f8","system_id":"levelo_inurba_marseille","lat":43.28945,"lon":5.363985,"is_reserved":false,"is_disabled":false,"rental_uris":{"android":"levelo://app?vid=10150d39-051a-415a-b5d2-d40c3ec301f8","ios":"levelo://app?vid=10150d39-051a-415a-b5d2-d40c3ec301f8"},"vehicle_type_id":"4","last_reported":1712506045,"current_range_meters":13600,"station_id":"","pricing_plan_id":"cebpf4jnsgd1na2vs0mg"},{"bike_id":"f3789443-ff81-4a7d-8b1a-210196403132","system_id":"levelo_inurba_marseille","lat":43.28945,"lon":5.36396,"is_reserved":false,"is_disabled":false,"rental_uris":{"android":"levelo://app?vid=f3789443-ff81-4a7d-8b1a-210196403132","ios":"levelo://app?vid=f3789443-ff81-4a7d-8b1a-210196403132"},"vehicle_type_id":"4","last_reported":1712506045,"current_range_meters":6000,"station_id":"ce4bhc92rcd13ifvqetg","pricing_plan_id":"cebpf4jnsgd1na2vs0mg"},{"bike_id":"f51e5a39-ab93-4e96-9337-ce531ac29862","system_id":"levelo_inurba_marseille","lat":43.289468,"lon":5.363719,"is_reserved":false,"is_disabled":false,"rental_uris":{"android":"levelo://app?vid=f51e5a39-ab93-4e96-9337-ce531ac29862","ios":"levelo://app?vid=f51e5a39-ab93-4e96-9337-ce531ac29862"},"vehicle_type_id":"4","last_reported":1712506045,"current_range_meters":27600,"station_id":"ce4bhc92rcd13ifvqetg","pricing_plan_id":"cebpf4jnsgd1na2vs0mg"},{"bike_id":"adb3e3c1-e278-4ed8-b11b-3f9a3d4dc1e2","system_id":"levelo_inurba_marseille","lat":43.290103,"lon":5.356114,"is_reserved":false,"is_disabled":false,"rental_uris":{"android":"levelo://app?vid=adb3e3c1-e278-4ed8-b11b-3f9a3d4dc1e2","ios":"levelo://app?vid=adb3e3c1-e278-4ed8-b11b-3f9a3d4dc1e2"},"vehicle_type_id":"4","last_reported":1712506045,"current_range_meters":2800,"station_id":"ce4bhb92rcd13ifvqen0","pricing_plan_id":"cebpf4jnsgd1na2vs0mg"},{"bike_id":"b4c1a3c5-be05-4ccb-ae88-ff7942fb0006","system_id":"levelo_inurba_marseille","lat":43.290103,"lon":5.356114,"is_reserved":false,"is_disabled":false,"rental_uris":{"android":"levelo://app?vid=b4c1a3c5-be05-4ccb-ae88-ff7942fb0006","ios":"levelo://app?vid=b4c1a3c5-be05-4ccb-ae88-ff7942fb0006"},"vehicle_type_id":"4","last_reported":1712506045,"current_range_meters":7200,"station_id":"ce4bhb92rcd13ifvqen0","pricing_plan_id":"cebpf4jnsgd1na2vs0mg"},{"bike_id":"f616e852-7ae0-4c0e-9103-8235f4539ec8","system_id":"levelo_inurba_marseille","lat":43.295169,"lon":5.390426,"is_reserved":false,"is_disabled":false,"rental_uris":{"android":"levelo://app?vid=f616e852-7ae0-4c0e-9103-8235f4539ec8","ios":"levelo://app?vid=f616e852-7ae0-4c0e-9103-8235f4539ec8"},"vehicle_type_id":"4","last_reported":1712506045,"current_range_meters":0,"station_id":"ce4bh3p2rcd13ifvqdp0","pricing_plan_id":"cebpf4jnsgd1na2vs0mg"},{"bike_id":"53ee0d6b-4ef6-4bcc-8cfb-bed059aa4fb4","system_id":"levelo_inurba_marseille","lat":43.29004,"lon":5.35613,"is_reserved":false,"is_disabled":false,"rental_uris":{"android":"levelo://app?vid=53ee0d6b-4ef6-4bcc-8cfb-bed059aa4fb4","ios":"levelo://app?vid=53ee0d6b-4ef6-4bcc-8cfb-bed059aa4fb4"},"vehicle_type_id":"4","last_reported":1712506045,"current_range_meters":0,"station_id":"","pricing_plan_id":"cebpf4jnsgd1na2vs0mg"},{"bike_id":"b9f55382-17f4-4a66-b31b-694cae01f122","system_id":"levelo_inurba_marseille","lat":43.295169,"lon":5.390426,"is_reserved":false,"is_disabled":false,"rental_uris":{"android":"levelo://app?vid=b9f55382-17f4-4a66-b31b-694cae01f122","ios":"levelo://app?vid=b9f55382-17f4-4a66-b31b-694cae01f122"},"vehicle_type_id":"4","last_reported":1712506045,"current_range_meters":17600,"station_id":"ce4bh3p2rcd13ifvqdp0","pricing_plan_id":"cebpf4jnsgd1na2vs0mg"},{"bike_id":"0e1b637b-7902-422b-b329-238c18e01dae","system_id":"levelo_inurba_marseille","lat":43.289741,"lon":5.378306,"is_reserved":false,"is_disabled":false,"rental_uris":{"android":"levelo://app?vid=0e1b637b-7902-422b-b329-238c18e01dae","ios":"levelo://app?vid=0e1b637b-7902-422b-b329-238c18e01dae"},"vehicle_type_id":"4","last_reported":1712506045,"current_range_meters":25600,"station_id":"ce4bh9p2rcd13ifvqed0","pricing_plan_id":"cebpf4jnsgd1na2vs0mg"},{"bike_id":"8f275948-9ab0-4f9f-a94b-4248a438821a","system_id":"levelo_inurba_marseille","lat":43.290995,"lon":5.381361,"is_reserved":false,"is_disabled":false,"rental_uris":{"android":"levelo://app?vid=8f275948-9ab0-4f9f-a94b-4248a438821a","ios":"levelo://app?vid=8f275948-9ab0-4f9f-a94b-4248a438821a"},"vehicle_type_id":"4","last_reported":1712506045,"current_range_meters":22800,"station_id":"ce4bh512rcd13ifvqe2g","pricing_plan_id":"cebpf4jnsgd1na2vs0mg"},{"bike_id":"1973b614-ec71-485c-9240-399e67d45268","system_id":"levelo_inurba_marseille","lat":43.297815,"lon":5.393548,"is_reserved":false,"is_disabled":false,"rental_uris":{"android":"levelo://app?vid=1973b614-ec71-485c-9240-399e67d45268","ios":"levelo://app?vid=1973b614-ec71-485c-9240-399e67d45268"},"vehicle_type_id":"4","last_reported":1712506045,"current_range_meters":0,"station_id":"chh1huq6cuj3fo74tm60","pricing_plan_id":"cebpf4jnsgd1na2vs0mg"},{"bike_id":"3f960a11-dcf9-43c6-91b9-8857dd960815","system_id":"levelo_inurba_marseille","lat":43.289743,"lon":5.378304,"is_reserved":false,"is_disabled":false,"rental_uris":{"android":"levelo://app?vid=3f960a11-dcf9-43c6-91b9-8857dd960815","ios":"levelo://app?vid=3f960a11-dcf9-43c6-91b9-8857dd960815"},"vehicle_type_id":"4","last_reported":1712506045,"current_range_meters":5200,"station_id":"ce4bh9p2rcd13ifvqed0","pricing_plan_id":"cebpf4jnsgd1na2vs0mg"},{"bike_id":"14c5a0cf-2293-40e2-b44f-271a75793728","system_id":"levelo_inurba_marseille","lat":43.295169,"lon":5.390426,"is_reserved":false,"is_disabled":false,"rental_uris":{"android":"levelo://app?vid=14c5a0cf-2293-40e2-b44f-271a75793728","ios":"levelo://app?vid=14c5a0cf-2293-40e2-b44f-271a75793728"},"vehicle_type_id":"4","last_reported":1712506045,"current_range_meters":11600,"station_id":"ce4bh3p2rcd13ifvqdp0","pricing_plan_id":"cebpf4jnsgd1na2vs0mg"},{"bike_id":"0cdf5137-ad45-436e-b1e1-a38f04539356","system_id":"levelo_inurba_marseille","lat":43.292724,"lon":5.401131,"is_reserved":false,"is_disabled":false,"rental_uris":{"android":"levelo://app?vid=0cdf5137-ad45-436e-b1e1-a38f04539356","ios":"levelo://app?vid=0cdf5137-ad45-436e-b1e1-a38f04539356"},"vehicle_type_id":"4","last_reported":1712506045,"current_range_meters":10400,"station_id":"ce4bh312rcd13ifvqdk0","pricing_plan_id":"cebpf4jnsgd1na2vs0mg"},{"bike_id":"1dce9aa1-5232-4b74-8ce2-5f74a5bbde23","system_id":"levelo_inurba_marseille","lat":43.33113,"lon":5.38923,"is_reserved":false,"is_disabled":false,"rental_uris":{"android":"levelo://app?vid=1dce9aa1-5232-4b74-8ce2-5f74a5bbde23","ios":"levelo://app?vid=1dce9aa1-5232-4b74-8ce2-5f74a5bbde23"},"vehicle_type_id":"4","last_reported":1712506045,"current_range_meters":12800,"station_id":"","pricing_plan_id":"cebpf4jnsgd1na2vs0mg"},{"bike_id":"cb50bf84-8ca3-4487-9071-a935e4cf9288","system_id":"levelo_inurba_marseille","lat":43.33023,"lon":5.39056,"is_reserved":false,"is_disabled":false,"rental_uris":{"android":"levelo://app?vid=cb50bf84-8ca3-4487-9071-a935e4cf9288","ios":"levelo://app?vid=cb50bf84-8ca3-4487-9071-a935e4cf9288"},"vehicle_type_id":"4","last_reported":1712506045,"current_range_meters":0,"station_id":"ce4bhr92rcd13ifvqhrg","pricing_plan_id":"cebpf4jnsgd1na2vs0mg"},{"bike_id":"86bbf2ed-a370-4589-8605-988f555f15cf","system_id":"levelo_inurba_marseille","lat":43.2936,"lon":5.37835,"is_reserved":false,"is_disabled":false,"rental_uris":{"android":"levelo://app?vid=86bbf2ed-a370-4589-8605-988f555f15cf","ios":"levelo://app?vid=86bbf2ed-a370-4589-8605-988f555f15cf"},"vehicle_type_id":"4","last_reported":1712506045,"current_range_meters":0,"station_id":"ce4bgjh2rcd13ifvqbf0","pricing_plan_id":"cebpf4jnsgd1na2vs0mg"},{"bike_id":"7bd888a8-6a10-4e94-9239-e8cc1a83cc5f","system_id":"levelo_inurba_marseille","lat":43.2936,"lon":5.37835,"is_reserved":false,"is_disabled":false,"rental_uris":{"android":"levelo://app?vid=7bd888a8-6a10-4e94-9239-e8cc1a83cc5f","ios":"levelo://app?vid=7bd888a8-6a10-4e94-9239-e8cc1a83cc5f"},"vehicle_type_id":"4","last_reported":1712506045,"current_range_meters":1200,"station_id":"ce4bgjh2rcd13ifvqbf0","pricing_plan_id":"cebpf4jnsgd1na2vs0mg"},{"bike_id":"3ab324d3-d6b4-4b5c-beeb-7f2c40963709","system_id":"levelo_inurba_marseille","lat":43.28856,"lon":5.358371,"is_reserved":false,"is_disabled":false,"rental_uris":{"android":"levelo://app?vid=3ab324d3-d6b4-4b5c-beeb-7f2c40963709","ios":"levelo://app?vid=3ab324d3-d6b4-4b5c-beeb-7f2c40963709"},"vehicle_type_id":"4","last_reported":1712506045,"current_range_meters":0,"station_id":"ce4bhb12rcd13ifvqem0","pricing_plan_id":"cebpf4jnsgd1na2vs0mg"},{"bike_id":"8dbae8f7-c9e3-48ac-b974-e7f0cb8bb8a6","system_id":"levelo_inurba_marseille","lat":43.28856,"lon":5.358371,"is_reserved":false,"is_disabled":false,"rental_uris":{"android":"levelo://app?vid=8dbae8f7-c9e3-48ac-b974-e7f0cb8bb8a6","ios":"levelo://app?vid=8dbae8f7-c9e3-48ac-b974-e7f0cb8bb8a6"},"vehicle_type_id":"4","last_reported":1712506045,"current_range_meters":5600,"station_id":"ce4bhb12rcd13ifvqem0","pricing_plan_id":"cebpf4jnsgd1na2vs0mg"},{"bike_id":"da201d7d-990d-4d75-b101-27b10da0557a","system_id":"levelo_inurba_marseille","lat":43.28856,"lon":5.358371,"is_reserved":false,"is_disabled":false,"rental_uris":{"android":"levelo://app?vid=da201d7d-990d-4d75-b101-27b10da0557a","ios":"levelo://app?vid=da201d7d-990d-4d75-b101-27b10da0557a"},"vehicle_type_id":"4","last_reported":1712506045,"current_range_meters":0,"station_id":"ce4bhb12rcd13ifvqem0","pricing_plan_id":"cebpf4jnsgd1na2vs0mg"},{"bike_id":"e0780ff1-197b-4ba7-8006-588c62444da3","system_id":"levelo_inurba_marseille","lat":43.28851,"lon":5.3586,"is_reserved":false,"is_disabled":false,"rental_uris":{"android":"levelo://app?vid=e0780ff1-197b-4ba7-8006-588c62444da3","ios":"levelo://app?vid=e0780ff1-197b-4ba7-8006-588c62444da3"},"vehicle_type_id":"4","last_reported":1712506045,"current_range_meters":0,"station_id":"","pricing_plan_id":"cebpf4jnsgd1na2vs0mg"},{"bike_id":"8a037a6b-eb21-46ab-b573-fc0d306f92ee","system_id":"levelo_inurba_marseille","lat":43.28727,"lon":5.36078,"is_reserved":false,"is_disabled":false,"rental_uris":{"android":"levelo://app?vid=8a037a6b-eb21-46ab-b573-fc0d306f92ee","ios":"levelo://app?vid=8a037a6b-eb21-46ab-b573-fc0d306f92ee"},"vehicle_type_id":"4","last_reported":1712506045,"current_range_meters":1600,"station_id":"cki0cbj6b192h4jlfktg","pricing_plan_id":"cebpf4jnsgd1na2vs0mg"},{"bike_id":"ba3e3be3-2dd8-49a5-955b-2b5b70d033fa","system_id":"levelo_inurba_marseille","lat":43.28856,"lon":5.358371,"is_reserved":false,"is_disabled":false,"rental_uris":{"android":"levelo://app?vid=ba3e3be3-2dd8-49a5-955b-2b5b70d033fa","ios":"levelo://app?vid=ba3e3be3-2dd8-49a5-955b-2b5b70d033fa"},"vehicle_type_id":"4","last_reported":1712506045,"current_range_meters":27200,"station_id":"ce4bhb12rcd13ifvqem0","pricing_plan_id":"cebpf4jnsgd1na2vs0mg"},{"bike_id":"cd2bc0c5-a3b7-4f36-818c-bf5eb2f6b25e","system_id":"levelo_inurba_marseille","lat":43.28856,"lon":5.358371,"is_reserved":false,"is_disabled":false,"rental_uris":{"android":"levelo://app?vid=cd2bc0c5-a3b7-4f36-818c-bf5eb2f6b25e","ios":"levelo://app?vid=cd2bc0c5-a3b7-4f36-818c-bf5eb2f6b25e"},"vehicle_type_id":"4","last_reported":1712506045,"current_range_meters":0,"station_id":"ce4bhb12rcd13ifvqem0","pricing_plan_id":"cebpf4jnsgd1na2vs0mg"},{"bike_id":"517ed558-7130-4d8e-8926-bb5660613ec0","system_id":"levelo_inurba_marseille","lat":43.312609,"lon":5.401662,"is_reserved":false,"is_disabled":false,"rental_uris":{"android":"levelo://app?vid=517ed558-7130-4d8e-8926-bb5660613ec0","ios":"levelo://app?vid=517ed558-7130-4d8e-8926-bb5660613ec0"},"vehicle_type_id":"4","last_reported":1712506045,"current_range_meters":5200,"station_id":"ce4bh092rcd13ifvqd30","pricing_plan_id":"cebpf4jnsgd1na2vs0mg"},{"bike_id":"3ae3ca5c-f8c4-4963-8b83-f78b5c716ca7","system_id":"levelo_inurba_marseille","lat":43.309371,"lon":5.401449,"is_reserved":false,"is_disabled":false,"rental_uris":{"android":"levelo://app?vid=3ae3ca5c-f8c4-4963-8b83-f78b5c716ca7","ios":"levelo://app?vid=3ae3ca5c-f8c4-4963-8b83-f78b5c716ca7"},"vehicle_type_id":"4","last_reported":1712506045,"current_range_meters":14000,"station_id":"ce4bgvp2rcd13ifvqct0","pricing_plan_id":"cebpf4jnsgd1na2vs0mg"},{"bike_id":"c6fcc701-eee5-466d-91f0-2d7884212b23","system_id":"levelo_inurba_marseille","lat":43.312609,"lon":5.401662,"is_reserved":false,"is_disabled":false,"rental_uris":{"android":"levelo://app?vid=c6fcc701-eee5-466d-91f0-2d7884212b23","ios":"levelo://app?vid=c6fcc701-eee5-466d-91f0-2d7884212b23"},"vehicle_type_id":"4","last_reported":1712506045,"current_range_meters":14400,"station_id":"ce4bh092rcd13ifvqd30","pricing_plan_id":"cebpf4jnsgd1na2vs0mg"},{"bike_id":"979ae432-9ff5-4588-908b-a7c2ac444746","system_id":"levelo_inurba_marseille","lat":43.3375,"lon":5.37452,"is_reserved":false,"is_disabled":false,"rental_uris":{"android":"levelo://app?vid=979ae432-9ff5-4588-908b-a7c2ac444746","ios":"levelo://app?vid=979ae432-9ff5-4588-908b-a7c2ac444746"},"vehicle_type_id":"4","last_reported":1712506045,"current_range_meters":26800,"station_id":"","pricing_plan_id":"cebpf4jnsgd1na2vs0mg"},{"bike_id":"04cc570e-5579-40b5-b3db-5b7ddfabd6fe","system_id":"levelo_inurba_marseille","lat":43.29316,"lon":5.38911,"is_reserved":false,"is_disabled":false,"rental_uris":{"android":"levelo://app?vid=04cc570e-5579-40b5-b3db-5b7ddfabd6fe","ios":"levelo://app?vid=04cc570e-5579-40b5-b3db-5b7ddfabd6fe"},"vehicle_type_id":"4","last_reported":1712506045,"current_range_meters":0,"station_id":"","pricing_plan_id":"cebpf4jnsgd1na2vs0mg"},{"bike_id":"de0f1493-36f5-4f7c-aaa9-6125b2759c8a","system_id":"levelo_inurba_marseille","lat":43.301343,"lon":5.398827,"is_reserved":false,"is_disabled":false,"rental_uris":{"android":"levelo://app?vid=de0f1493-36f5-4f7c-aaa9-6125b2759c8a","ios":"levelo://app?vid=de0f1493-36f5-4f7c-aaa9-6125b2759c8a"},"vehicle_type_id":"4","last_reported":1712506045,"current_range_meters":0,"station_id":"ce4bh0h2rcd13ifvqd40","pricing_plan_id":"cebpf4jnsgd1na2vs0mg"},{"bike_id":"5658c929-914b-4516-bbb9-e27d3b01b26a","system_id":"levelo_inurba_marseille","lat":43.28727,"lon":5.36078,"is_reserved":false,"is_disabled":false,"rental_uris":{"android":"levelo://app?vid=5658c929-914b-4516-bbb9-e27d3b01b26a","ios":"levelo://app?vid=5658c929-914b-4516-bbb9-e27d3b01b26a"},"vehicle_type_id":"4","last_reported":1712506045,"current_range_meters":0,"station_id":"cki0cbj6b192h4jlfktg","pricing_plan_id":"cebpf4jnsgd1na2vs0mg"},{"bike_id":"cdc61e27-08da-4a62-81e9-ab5b72af4aaf","system_id":"levelo_inurba_marseille","lat":43.295194,"lon":5.39397,"is_reserved":false,"is_disabled":false,"rental_uris":{"android":"levelo://app?vid=cdc61e27-08da-4a62-81e9-ab5b72af4aaf","ios":"levelo://app?vid=cdc61e27-08da-4a62-81e9-ab5b72af4aaf"},"vehicle_type_id":"4","last_reported":1712506045,"current_range_meters":0,"station_id":"ce4bh292rcd13ifvqdf0","pricing_plan_id":"cebpf4jnsgd1na2vs0mg"},{"bike_id":"b1b97d2c-1f71-4279-8d68-777175f8d2d7","system_id":"levelo_inurba_marseille","lat":43.276179,"lon":5.361009,"is_reserved":false,"is_disabled":false,"rental_uris":{"android":"levelo://app?vid=b1b97d2c-1f71-4279-8d68-777175f8d2d7","ios":"levelo://app?vid=b1b97d2c-1f71-4279-8d68-777175f8d2d7"},"vehicle_type_id":"4","last_reported":1712506045,"current_range_meters":24000,"station_id":"ce4bgj92rcd13ifvqbe0","pricing_plan_id":"cebpf4jnsgd1na2vs0mg"},{"bike_id":"affc8490-b10f-47b9-ba52-2cca8d5bc8da","system_id":"levelo_inurba_marseille","lat":43.286961,"lon":5.373785,"is_reserved":false,"is_disabled":false,"rental_uris":{"android":"levelo://app?vid=affc8490-b10f-47b9-ba52-2cca8d5bc8da","ios":"levelo://app?vid=affc8490-b10f-47b9-ba52-2cca8d5bc8da"},"vehicle_type_id":"4","last_reported":1712506045,"current_range_meters":1600,"station_id":"ce4bh3p2rcd13ifvqdq0","pricing_plan_id":"cebpf4jnsgd1na2vs0mg"},{"bike_id":"f341b0e6-ca33-4373-8d3c-1ccb3242315c","system_id":"levelo_inurba_marseille","lat":43.286961,"lon":5.373785,"is_reserved":false,"is_disabled":false,"rental_uris":{"android":"levelo://app?vid=f341b0e6-ca33-4373-8d3c-1ccb3242315c","ios":"levelo://app?vid=f341b0e6-ca33-4373-8d3c-1ccb3242315c"},"vehicle_type_id":"4","last_reported":1712506045,"current_range_meters":8000,"station_id":"ce4bh3p2rcd13ifvqdq0","pricing_plan_id":"cebpf4jnsgd1na2vs0mg"},{"bike_id":"c0d9fccb-93ea-4cd9-a975-e285c3e5c11f","system_id":"levelo_inurba_marseille","lat":43.286961,"lon":5.373785,"is_reserved":false,"is_disabled":false,"rental_uris":{"android":"levelo://app?vid=c0d9fccb-93ea-4cd9-a975-e285c3e5c11f","ios":"levelo://app?vid=c0d9fccb-93ea-4cd9-a975-e285c3e5c11f"},"vehicle_type_id":"4","last_reported":1712506045,"current_range_meters":2400,"station_id":"ce4bh3p2rcd13ifvqdq0","pricing_plan_id":"cebpf4jnsgd1na2vs0mg"},{"bike_id":"358437a9-50ce-4272-aa1a-d4c08d71995b","system_id":"levelo_inurba_marseille","lat":43.286961,"lon":5.373785,"is_reserved":false,"is_disabled":false,"rental_uris":{"android":"levelo://app?vid=358437a9-50ce-4272-aa1a-d4c08d71995b","ios":"levelo://app?vid=358437a9-50ce-4272-aa1a-d4c08d71995b"},"vehicle_type_id":"4","last_reported":1712506045,"current_range_meters":2000,"station_id":"ce4bh3p2rcd13ifvqdq0","pricing_plan_id":"cebpf4jnsgd1na2vs0mg"},{"bike_id":"e622ec8b-baba-431c-a1b3-472d46caf645","system_id":"levelo_inurba_marseille","lat":43.298681,"lon":5.397225,"is_reserved":false,"is_disabled":false,"rental_uris":{"android":"levelo://app?vid=e622ec8b-baba-431c-a1b3-472d46caf645","ios":"levelo://app?vid=e622ec8b-baba-431c-a1b3-472d46caf645"},"vehicle_type_id":"4","last_reported":1712506045,"current_range_meters":17200,"station_id":"ce4bh0h2rcd13ifvqd50","pricing_plan_id":"cebpf4jnsgd1na2vs0mg"},{"bike_id":"0db8c921-a995-4e0b-afff-871f88f13fca","system_id":"levelo_inurba_marseille","lat":43.286961,"lon":5.373785,"is_reserved":false,"is_disabled":false,"rental_uris":{"android":"levelo://app?vid=0db8c921-a995-4e0b-afff-871f88f13fca","ios":"levelo://app?vid=0db8c921-a995-4e0b-afff-871f88f13fca"},"vehicle_type_id":"4","last_reported":1712506045,"current_range_meters":20400,"station_id":"ce4bh3p2rcd13ifvqdq0","pricing_plan_id":"cebpf4jnsgd1na2vs0mg"},{"bike_id":"f1afefd5-f23d-4aaf-b080-d1871cb423c6","system_id":"levelo_inurba_marseille","lat":43.286961,"lon":5.373785,"is_reserved":false,"is_disabled":false,"rental_uris":{"android":"levelo://app?vid=f1afefd5-f23d-4aaf-b080-d1871cb423c6","ios":"levelo://app?vid=f1afefd5-f23d-4aaf-b080-d1871cb423c6"},"vehicle_type_id":"4","last_reported":1712506045,"current_range_meters":18800,"station_id":"ce4bh3p2rcd13ifvqdq0","pricing_plan_id":"cebpf4jnsgd1na2vs0mg"},{"bike_id":"d31f5c6b-3263-4c50-953b-590df46e75ee","system_id":"levelo_inurba_marseille","lat":43.290327,"lon":5.375711,"is_reserved":false,"is_disabled":false,"rental_uris":{"android":"levelo://app?vid=d31f5c6b-3263-4c50-953b-590df46e75ee","ios":"levelo://app?vid=d31f5c6b-3263-4c50-953b-590df46e75ee"},"vehicle_type_id":"4","last_reported":1712506045,"current_range_meters":0,"station_id":"ce4bh692rcd13ifvqe90","pricing_plan_id":"cebpf4jnsgd1na2vs0mg"},{"bike_id":"4afc9c09-80b6-4ae6-901d-d39fa598510f","system_id":"levelo_inurba_marseille","lat":43.286961,"lon":5.373785,"is_reserved":false,"is_disabled":false,"rental_uris":{"android":"levelo://app?vid=4afc9c09-80b6-4ae6-901d-d39fa598510f","ios":"levelo://app?vid=4afc9c09-80b6-4ae6-901d-d39fa598510f"},"vehicle_type_id":"4","last_reported":1712506045,"current_range_meters":31200,"station_id":"ce4bh3p2rcd13ifvqdq0","pricing_plan_id":"cebpf4jnsgd1na2vs0mg"},{"bike_id":"3f54d565-a2c0-4931-acd4-22494c016ebf","system_id":"levelo_inurba_marseille","lat":43.286961,"lon":5.373785,"is_reserved":false,"is_disabled":false,"rental_uris":{"android":"levelo://app?vid=3f54d565-a2c0-4931-acd4-22494c016ebf","ios":"levelo://app?vid=3f54d565-a2c0-4931-acd4-22494c016ebf"},"vehicle_type_id":"4","last_reported":1712506045,"current_range_meters":0,"station_id":"ce4bh3p2rcd13ifvqdq0","pricing_plan_id":"cebpf4jnsgd1na2vs0mg"},{"bike_id":"2ef0a819-daf0-4f21-b9ed-c5f806fe6d67","system_id":"levelo_inurba_marseille","lat":43.290336,"lon":5.386425,"is_reserved":false,"is_disabled":false,"rental_uris":{"android":"levelo://app?vid=2ef0a819-daf0-4f21-b9ed-c5f806fe6d67","ios":"levelo://app?vid=2ef0a819-daf0-4f21-b9ed-c5f806fe6d67"},"vehicle_type_id":"4","last_reported":1712506045,"current_range_meters":11200,"station_id":"ce4bh4p2rcd13ifvqe0g","pricing_plan_id":"cebpf4jnsgd1na2vs0mg"},{"bike_id":"3f91feea-9bc7-4ea9-a4bc-b3ac02190544","system_id":"levelo_inurba_marseille","lat":43.306724,"lon":5.402499,"is_reserved":false,"is_disabled":false,"rental_uris":{"android":"levelo://app?vid=3f91feea-9bc7-4ea9-a4bc-b3ac02190544","ios":"levelo://app?vid=3f91feea-9bc7-4ea9-a4bc-b3ac02190544"},"vehicle_type_id":"4","last_reported":1712506045,"current_range_meters":4000,"station_id":"","pricing_plan_id":"cebpf4jnsgd1na2vs0mg"},{"bike_id":"06e29720-4f9e-4ff1-b84f-ddec4c9b985c","system_id":"levelo_inurba_marseille","lat":43.290336,"lon":5.386425,"is_reserved":false,"is_disabled":false,"rental_uris":{"android":"levelo://app?vid=06e29720-4f9e-4ff1-b84f-ddec4c9b985c","ios":"levelo://app?vid=06e29720-4f9e-4ff1-b84f-ddec4c9b985c"},"vehicle_type_id":"4","last_reported":1712506045,"current_range_meters":400,"station_id":"ce4bh4p2rcd13ifvqe0g","pricing_plan_id":"cebpf4jnsgd1na2vs0mg"},{"bike_id":"3cc959bf-adff-4aea-ad8d-a1817ad7a82f","system_id":"levelo_inurba_marseille","lat":43.302759,"lon":5.400793,"is_reserved":false,"is_disabled":false,"rental_uris":{"android":"levelo://app?vid=3cc959bf-adff-4aea-ad8d-a1817ad7a82f","ios":"levelo://app?vid=3cc959bf-adff-4aea-ad8d-a1817ad7a82f"},"vehicle_type_id":"4","last_reported":1712506045,"current_range_meters":12000,"station_id":"ce4bgvh2rcd13ifvqcs0","pricing_plan_id":"cebpf4jnsgd1na2vs0mg"},{"bike_id":"5aa25f6c-88fc-4c11-9c7c-9e092e3f9452","system_id":"levelo_inurba_marseille","lat":43.28724,"lon":5.37934,"is_reserved":false,"is_disabled":false,"rental_uris":{"android":"levelo://app?vid=5aa25f6c-88fc-4c11-9c7c-9e092e3f9452","ios":"levelo://app?vid=5aa25f6c-88fc-4c11-9c7c-9e092e3f9452"},"vehicle_type_id":"4","last_reported":1712506045,"current_range_meters":18800,"station_id":"ce4bh9p2rcd13ifvqec0","pricing_plan_id":"cebpf4jnsgd1na2vs0mg"},{"bike_id":"4a8e5e16-bd72-4b33-9635-35b9b841e2b6","system_id":"levelo_inurba_marseille","lat":43.286591,"lon":5.363346,"is_reserved":false,"is_disabled":false,"rental_uris":{"android":"levelo://app?vid=4a8e5e16-bd72-4b33-9635-35b9b841e2b6","ios":"levelo://app?vid=4a8e5e16-bd72-4b33-9635-35b9b841e2b6"},"vehicle_type_id":"4","last_reported":1712506045,"current_range_meters":23200,"station_id":"ce4bhah2rcd13ifvqej0","pricing_plan_id":"cebpf4jnsgd1na2vs0mg"},{"bike_id":"d16b30b3-c192-4767-8a5b-db90d27dca60","system_id":"levelo_inurba_marseille","lat":43.293259,"lon":5.371586,"is_reserved":false,"is_disabled":false,"rental_uris":{"android":"levelo://app?vid=d16b30b3-c192-4767-8a5b-db90d27dca60","ios":"levelo://app?vid=d16b30b3-c192-4767-8a5b-db90d27dca60"},"vehicle_type_id":"4","last_reported":1712506045,"current_range_meters":23200,"station_id":"ce4bgh92rcd13ifvqb40","pricing_plan_id":"cebpf4jnsgd1na2vs0mg"},{"bike_id":"b0814abe-3e28-4f94-a48f-2772bbce5642","system_id":"levelo_inurba_marseille","lat":43.28715,"lon":5.3794,"is_reserved":false,"is_disabled":false,"rental_uris":{"android":"levelo://app?vid=b0814abe-3e28-4f94-a48f-2772bbce5642","ios":"levelo://app?vid=b0814abe-3e28-4f94-a48f-2772bbce5642"},"vehicle_type_id":"4","last_reported":1712506045,"current_range_meters":0,"station_id":"ce4bh9p2rcd13ifvqec0","pricing_plan_id":"cebpf4jnsgd1na2vs0mg"},{"bike_id":"2bff5b22-7ac1-4592-8b7f-d0b7b819d1a1","system_id":"levelo_inurba_marseille","lat":43.309038,"lon":5.396546,"is_reserved":false,"is_disabled":false,"rental_uris":{"android":"levelo://app?vid=2bff5b22-7ac1-4592-8b7f-d0b7b819d1a1","ios":"levelo://app?vid=2bff5b22-7ac1-4592-8b7f-d0b7b819d1a1"},"vehicle_type_id":"4","last_reported":1712506045,"current_range_meters":15200,"station_id":"ce4bh012rcd13ifvqcv0","pricing_plan_id":"cebpf4jnsgd1na2vs0mg"},{"bike_id":"073680a3-9086-4366-9580-a4cac07ab472","system_id":"levelo_inurba_marseille","lat":43.284941,"lon":5.368166,"is_reserved":false,"is_disabled":false,"rental_uris":{"android":"levelo://app?vid=073680a3-9086-4366-9580-a4cac07ab472","ios":"levelo://app?vid=073680a3-9086-4366-9580-a4cac07ab472"},"vehicle_type_id":"4","last_reported":1712506045,"current_range_meters":3600,"station_id":"","pricing_plan_id":"cebpf4jnsgd1na2vs0mg"},{"bike_id":"9231c536-09ba-4a1a-a929-925805b9ad2c","system_id":"levelo_inurba_marseille","lat":43.291994,"lon":5.392907,"is_reserved":false,"is_disabled":false,"rental_uris":{"android":"levelo://app?vid=9231c536-09ba-4a1a-a929-925805b9ad2c","ios":"levelo://app?vid=9231c536-09ba-4a1a-a929-925805b9ad2c"},"vehicle_type_id":"4","last_reported":1712506045,"current_range_meters":4400,"station_id":"ce4bh192rcd13ifvqdd0","pricing_plan_id":"cebpf4jnsgd1na2vs0mg"},{"bike_id":"5f4f994f-c6d0-4e88-b0f0-a5c1c60c1e37","system_id":"levelo_inurba_marseille","lat":43.29746,"lon":5.40022,"is_reserved":false,"is_disabled":false,"rental_uris":{"android":"levelo://app?vid=5f4f994f-c6d0-4e88-b0f0-a5c1c60c1e37","ios":"levelo://app?vid=5f4f994f-c6d0-4e88-b0f0-a5c1c60c1e37"},"vehicle_type_id":"4","last_reported":1712506045,"current_range_meters":0,"station_id":"","pricing_plan_id":"cebpf4jnsgd1na2vs0mg"},{"bike_id":"81d661ca-a439-4a8e-837a-2b6e51ec8cd3","system_id":"levelo_inurba_marseille","lat":43.284538,"lon":5.358657,"is_reserved":false,"is_disabled":false,"rental_uris":{"android":"levelo://app?vid=81d661ca-a439-4a8e-837a-2b6e51ec8cd3","ios":"levelo://app?vid=81d661ca-a439-4a8e-837a-2b6e51ec8cd3"},"vehicle_type_id":"4","last_reported":1712506045,"current_range_meters":12800,"station_id":"ce4bhah2rcd13ifvqei0","pricing_plan_id":"cebpf4jnsgd1na2vs0mg"},{"bike_id":"5b0bf195-976f-4a29-86cb-82ac2ae1adbc","system_id":"levelo_inurba_marseille","lat":43.28618,"lon":5.350981,"is_reserved":false,"is_disabled":false,"rental_uris":{"android":"levelo://app?vid=5b0bf195-976f-4a29-86cb-82ac2ae1adbc","ios":"levelo://app?vid=5b0bf195-976f-4a29-86cb-82ac2ae1adbc"},"vehicle_type_id":"4","last_reported":1712506045,"current_range_meters":2000,"station_id":"ce4bhch2rcd13ifvqeug","pricing_plan_id":"cebpf4jnsgd1na2vs0mg"},{"bike_id":"78a4c949-bb5b-4333-a206-8fcd2d13bc90","system_id":"levelo_inurba_marseille","lat":43.295713,"lon":5.399639,"is_reserved":false,"is_disabled":false,"rental_uris":{"android":"levelo://app?vid=78a4c949-bb5b-4333-a206-8fcd2d13bc90","ios":"levelo://app?vid=78a4c949-bb5b-4333-a206-8fcd2d13bc90"},"vehicle_type_id":"4","last_reported":1712506045,"current_range_meters":0,"station_id":"ce4bh312rcd13ifvqdj0","pricing_plan_id":"cebpf4jnsgd1na2vs0mg"},{"bike_id":"f41f97c5-7f13-4115-a7e1-b6133be56120","system_id":"levelo_inurba_marseille","lat":43.283998,"lon":5.375062,"is_reserved":false,"is_disabled":false,"rental_uris":{"android":"levelo://app?vid=f41f97c5-7f13-4115-a7e1-b6133be56120","ios":"levelo://app?vid=f41f97c5-7f13-4115-a7e1-b6133be56120"},"vehicle_type_id":"4","last_reported":1712506045,"current_range_meters":1600,"station_id":"ce4bh412rcd13ifvqds0","pricing_plan_id":"cebpf4jnsgd1na2vs0mg"},{"bike_id":"ad26ca57-63a6-4856-979b-1bfeedf35246","system_id":"levelo_inurba_marseille","lat":43.283998,"lon":5.375062,"is_reserved":false,"is_disabled":false,"rental_uris":{"android":"levelo://app?vid=ad26ca57-63a6-4856-979b-1bfeedf35246","ios":"levelo://app?vid=ad26ca57-63a6-4856-979b-1bfeedf35246"},"vehicle_type_id":"4","last_reported":1712506045,"current_range_meters":0,"station_id":"ce4bh412rcd13ifvqds0","pricing_plan_id":"cebpf4jnsgd1na2vs0mg"},{"bike_id":"68a051c3-401c-4f85-97d8-7d18dbf1483e","system_id":"levelo_inurba_marseille","lat":43.286595,"lon":5.386795,"is_reserved":false,"is_disabled":false,"rental_uris":{"android":"levelo://app?vid=68a051c3-401c-4f85-97d8-7d18dbf1483e","ios":"levelo://app?vid=68a051c3-401c-4f85-97d8-7d18dbf1483e"},"vehicle_type_id":"4","last_reported":1712506045,"current_range_meters":2800,"station_id":"ce4bh492rcd13ifvqdug","pricing_plan_id":"cebpf4jnsgd1na2vs0mg"},{"bike_id":"5db7a4ac-d7f0-45be-8049-b7ab90444920","system_id":"levelo_inurba_marseille","lat":43.283998,"lon":5.375062,"is_reserved":false,"is_disabled":false,"rental_uris":{"android":"levelo://app?vid=5db7a4ac-d7f0-45be-8049-b7ab90444920","ios":"levelo://app?vid=5db7a4ac-d7f0-45be-8049-b7ab90444920"},"vehicle_type_id":"4","last_reported":1712506045,"current_range_meters":0,"station_id":"ce4bh412rcd13ifvqds0","pricing_plan_id":"cebpf4jnsgd1na2vs0mg"},{"bike_id":"f281304c-557b-46c2-b4ce-26668e115df3","system_id":"levelo_inurba_marseille","lat":43.28794,"lon":5.39131,"is_reserved":false,"is_disabled":false,"rental_uris":{"android":"levelo://app?vid=f281304c-557b-46c2-b4ce-26668e115df3","ios":"levelo://app?vid=f281304c-557b-46c2-b4ce-26668e115df3"},"vehicle_type_id":"4","last_reported":1712506045,"current_range_meters":4400,"station_id":"","pricing_plan_id":"cebpf4jnsgd1na2vs0mg"},{"bike_id":"c6fdad4a-fe00-4277-93c7-b9c14ae9d449","system_id":"levelo_inurba_marseille","lat":43.29529,"lon":5.385581,"is_reserved":false,"is_disabled":false,"rental_uris":{"android":"levelo://app?vid=c6fdad4a-fe00-4277-93c7-b9c14ae9d449","ios":"levelo://app?vid=c6fdad4a-fe00-4277-93c7-b9c14ae9d449"},"vehicle_type_id":"4","last_reported":1712506045,"current_range_meters":5200,"station_id":"ce4bgih2rcd13ifvqba0","pricing_plan_id":"cebpf4jnsgd1na2vs0mg"},{"bike_id":"4eaaff53-f15c-459e-ab3b-3655b1bc67e5","system_id":"levelo_inurba_marseille","lat":43.29798,"lon":5.4041,"is_reserved":false,"is_disabled":false,"rental_uris":{"android":"levelo://app?vid=4eaaff53-f15c-459e-ab3b-3655b1bc67e5","ios":"levelo://app?vid=4eaaff53-f15c-459e-ab3b-3655b1bc67e5"},"vehicle_type_id":"4","last_reported":1712506045,"current_range_meters":800,"station_id":"ce4bh112rcd13ifvqd90","pricing_plan_id":"cebpf4jnsgd1na2vs0mg"},{"bike_id":"ae843b54-67d3-4ded-b9fa-9b77c46a2827","system_id":"levelo_inurba_marseille","lat":43.32532,"lon":5.40571,"is_reserved":false,"is_disabled":false,"rental_uris":{"android":"levelo://app?vid=ae843b54-67d3-4ded-b9fa-9b77c46a2827","ios":"levelo://app?vid=ae843b54-67d3-4ded-b9fa-9b77c46a2827"},"vehicle_type_id":"4","last_reported":1712506045,"current_range_meters":2000,"station_id":"","pricing_plan_id":"cebpf4jnsgd1na2vs0mg"},{"bike_id":"51c0d8a0-cc6d-4142-81a9-6a44a7a90133","system_id":"levelo_inurba_marseille","lat":43.283498,"lon":5.380948,"is_reserved":false,"is_disabled":false,"rental_uris":{"android":"levelo://app?vid=51c0d8a0-cc6d-4142-81a9-6a44a7a90133","ios":"levelo://app?vid=51c0d8a0-cc6d-4142-81a9-6a44a7a90133"},"vehicle_type_id":"4","last_reported":1712506045,"current_range_meters":22400,"station_id":"ce4bh412rcd13ifvqdr0","pricing_plan_id":"cebpf4jnsgd1na2vs0mg"},{"bike_id":"fb06e4f0-f647-4893-a656-f9199be7d001","system_id":"levelo_inurba_marseille","lat":43.283503,"lon":5.381058,"is_reserved":false,"is_disabled":false,"rental_uris":{"android":"levelo://app?vid=fb06e4f0-f647-4893-a656-f9199be7d001","ios":"levelo://app?vid=fb06e4f0-f647-4893-a656-f9199be7d001"},"vehicle_type_id":"4","last_reported":1712506045,"current_range_meters":0,"station_id":"ce4bh412rcd13ifvqdr0","pricing_plan_id":"cebpf4jnsgd1na2vs0mg"},{"bike_id":"a07c9b04-bd10-4de3-ac72-6f90cd35c7c7","system_id":"levelo_inurba_marseille","lat":43.28417,"lon":5.34979,"is_reserved":false,"is_disabled":false,"rental_uris":{"android":"levelo://app?vid=a07c9b04-bd10-4de3-ac72-6f90cd35c7c7","ios":"levelo://app?vid=a07c9b04-bd10-4de3-ac72-6f90cd35c7c7"},"vehicle_type_id":"4","last_reported":1712506045,"current_range_meters":16000,"station_id":"ce4bhbh2rcd13ifvqepg","pricing_plan_id":"cebpf4jnsgd1na2vs0mg"},{"bike_id":"5f234899-c3bd-48ad-b49d-596ff79218ba","system_id":"levelo_inurba_marseille","lat":43.282744,"lon":5.350533,"is_reserved":false,"is_disabled":false,"rental_uris":{"android":"levelo://app?vid=5f234899-c3bd-48ad-b49d-596ff79218ba","ios":"levelo://app?vid=5f234899-c3bd-48ad-b49d-596ff79218ba"},"vehicle_type_id":"4","last_reported":1712506045,"current_range_meters":0,"station_id":"ce4bhbp2rcd13ifvqerg","pricing_plan_id":"cebpf4jnsgd1na2vs0mg"},{"bike_id":"da894117-8f3e-4e39-8ef8-0696cb9127c9","system_id":"levelo_inurba_marseille","lat":43.282744,"lon":5.350533,"is_reserved":false,"is_disabled":false,"rental_uris":{"android":"levelo://app?vid=da894117-8f3e-4e39-8ef8-0696cb9127c9","ios":"levelo://app?vid=da894117-8f3e-4e39-8ef8-0696cb9127c9"},"vehicle_type_id":"4","last_reported":1712506045,"current_range_meters":0,"station_id":"ce4bhbp2rcd13ifvqerg","pricing_plan_id":"cebpf4jnsgd1na2vs0mg"},{"bike_id":"ec8554b5-02e1-4793-80a1-cc420e786f49","system_id":"levelo_inurba_marseille","lat":43.282744,"lon":5.350533,"is_reserved":false,"is_disabled":false,"rental_uris":{"android":"levelo://app?vid=ec8554b5-02e1-4793-80a1-cc420e786f49","ios":"levelo://app?vid=ec8554b5-02e1-4793-80a1-cc420e786f49"},"vehicle_type_id":"4","last_reported":1712506045,"current_range_meters":0,"station_id":"ce4bhbp2rcd13ifvqerg","pricing_plan_id":"cebpf4jnsgd1na2vs0mg"},{"bike_id":"13c9940a-cb4b-4662-99c1-d289bc9e557a","system_id":"levelo_inurba_marseille","lat":43.309589,"lon":5.390258,"is_reserved":false,"is_disabled":false,"rental_uris":{"android":"levelo://app?vid=13c9940a-cb4b-4662-99c1-d289bc9e557a","ios":"levelo://app?vid=13c9940a-cb4b-4662-99c1-d289bc9e557a"},"vehicle_type_id":"4","last_reported":1712506045,"current_range_meters":10000,"station_id":"ce4bgup2rcd13ifvqco0","pricing_plan_id":"cebpf4jnsgd1na2vs0mg"},{"bike_id":"fce85797-5f6a-4197-b884-0edd7a128298","system_id":"levelo_inurba_marseille","lat":43.290412,"lon":5.399633,"is_reserved":false,"is_disabled":false,"rental_uris":{"android":"levelo://app?vid=fce85797-5f6a-4197-b884-0edd7a128298","ios":"levelo://app?vid=fce85797-5f6a-4197-b884-0edd7a128298"},"vehicle_type_id":"4","last_reported":1712506045,"current_range_meters":12400,"station_id":"ce4bh392rcd13ifvqdm0","pricing_plan_id":"cebpf4jnsgd1na2vs0mg"},{"bike_id":"f95d6c3f-0d47-4dff-933c-2a9807094c4c","system_id":"levelo_inurba_marseille","lat":43.28113,"lon":5.37843,"is_reserved":false,"is_disabled":false,"rental_uris":{"android":"levelo://app?vid=f95d6c3f-0d47-4dff-933c-2a9807094c4c","ios":"levelo://app?vid=f95d6c3f-0d47-4dff-933c-2a9807094c4c"},"vehicle_type_id":"4","last_reported":1712506045,"current_range_meters":22800,"station_id":"ce4bha12rcd13ifvqee0","pricing_plan_id":"cebpf4jnsgd1na2vs0mg"},{"bike_id":"8913e1df-a301-4d22-9b47-aac0a3f37cbf","system_id":"levelo_inurba_marseille","lat":43.281044,"lon":5.378308,"is_reserved":false,"is_disabled":false,"rental_uris":{"android":"levelo://app?vid=8913e1df-a301-4d22-9b47-aac0a3f37cbf","ios":"levelo://app?vid=8913e1df-a301-4d22-9b47-aac0a3f37cbf"},"vehicle_type_id":"4","last_reported":1712506045,"current_range_meters":22800,"station_id":"ce4bha12rcd13ifvqee0","pricing_plan_id":"cebpf4jnsgd1na2vs0mg"},{"bike_id":"79af510a-13a6-4dc9-89c9-79522495b281","system_id":"levelo_inurba_marseille","lat":43.281044,"lon":5.378308,"is_reserved":false,"is_disabled":false,"rental_uris":{"android":"levelo://app?vid=79af510a-13a6-4dc9-89c9-79522495b281","ios":"levelo://app?vid=79af510a-13a6-4dc9-89c9-79522495b281"},"vehicle_type_id":"4","last_reported":1712506045,"current_range_meters":7600,"station_id":"ce4bha12rcd13ifvqee0","pricing_plan_id":"cebpf4jnsgd1na2vs0mg"},{"bike_id":"496c6ff5-8b20-4a77-a78e-84d90139f102","system_id":"levelo_inurba_marseille","lat":43.28105,"lon":5.3784,"is_reserved":false,"is_disabled":false,"rental_uris":{"android":"levelo://app?vid=496c6ff5-8b20-4a77-a78e-84d90139f102","ios":"levelo://app?vid=496c6ff5-8b20-4a77-a78e-84d90139f102"},"vehicle_type_id":"4","last_reported":1712506045,"current_range_meters":25200,"station_id":"ce4bha12rcd13ifvqee0","pricing_plan_id":"cebpf4jnsgd1na2vs0mg"},{"bike_id":"1d9b56a5-0398-4979-96fa-a9a37d21cd82","system_id":"levelo_inurba_marseille","lat":43.284462,"lon":5.392121,"is_reserved":false,"is_disabled":false,"rental_uris":{"android":"levelo://app?vid=1d9b56a5-0398-4979-96fa-a9a37d21cd82","ios":"levelo://app?vid=1d9b56a5-0398-4979-96fa-a9a37d21cd82"},"vehicle_type_id":"4","last_reported":1712506045,"current_range_meters":20800,"station_id":"ce4bhoh2rcd13ifvqh5g","pricing_plan_id":"cebpf4jnsgd1na2vs0mg"},{"bike_id":"778889bf-4613-4a1c-8e5f-deedc47d6533","system_id":"levelo_inurba_marseille","lat":43.28573,"lon":5.394992,"is_reserved":false,"is_disabled":false,"rental_uris":{"android":"levelo://app?vid=778889bf-4613-4a1c-8e5f-deedc47d6533","ios":"levelo://app?vid=778889bf-4613-4a1c-8e5f-deedc47d6533"},"vehicle_type_id":"4","last_reported":1712506045,"current_range_meters":8400,"station_id":"ce4bh292rcd13ifvqdg0","pricing_plan_id":"cebpf4jnsgd1na2vs0mg"},{"bike_id":"73de87f8-c570-4fc1-8ded-92d1fba07f6b","system_id":"levelo_inurba_marseille","lat":43.279952,"lon":5.400085,"is_reserved":false,"is_disabled":false,"rental_uris":{"android":"levelo://app?vid=73de87f8-c570-4fc1-8ded-92d1fba07f6b","ios":"levelo://app?vid=73de87f8-c570-4fc1-8ded-92d1fba07f6b"},"vehicle_type_id":"4","last_reported":1712506045,"current_range_meters":14800,"station_id":"ce4bho92rcd13ifvqh4g","pricing_plan_id":"cebpf4jnsgd1na2vs0mg"},{"bike_id":"db73373e-f684-4c2c-82b5-6b33d9e9d153","system_id":"levelo_inurba_marseille","lat":43.32659,"lon":5.40986,"is_reserved":false,"is_disabled":false,"rental_uris":{"android":"levelo://app?vid=db73373e-f684-4c2c-82b5-6b33d9e9d153","ios":"levelo://app?vid=db73373e-f684-4c2c-82b5-6b33d9e9d153"},