{"last_updated":1719011235,"ttl":30,"version":"2.2","data":{"bikes":[{"bike_id":"a0d2b691-b4b3-4197-a6e7-17acd2c59482","system_id":"levelo_inurba_marseille","lat":43.313391,"lon":5.36706,"is_reserved":false,"is_disabled":false,"rental_uris":{"android":"levelo://app?vid=a0d2b691-b4b3-4197-a6e7-17acd2c59482","ios":"levelo://app?vid=a0d2b691-b4b3-4197-a6e7-17acd2c59482"},"vehicle_type_id":"4","last_reported":1719011235,"current_range_meters":13600,"station_id":"ce4bgr92rcd13ifvqc6g","pricing_plan_id":"cebpf4jnsgd1na2vs0mg"},{"bike_id":"7f307da3-31cf-4a8f-aab9-6544f1bff1a8","system_id":"levelo_inurba_marseille","lat":43.312239,"lon":5.368562,"is_reserved":false,"is_disabled":false,"rental_uris":{"android":"levelo://app?vid=7f307da3-31cf-4a8f-aab9-6544f1bff1a8","ios":"levelo://app?vid=7f307da3-31cf-4a8f-aab9-6544f1bff1a8"},"vehicle_type_id":"4","last_reported":1719011235,"current_range_meters":24800,"station_id":"ce4bgl92rcd13ifvqbq0","pricing_plan_id":"cebpf4jnsgd1na2vs0mg"},{"bike_id":"ee15a480-4331-4f49-a814-fab3e8bbb6d0","system_id":"levelo_inurba_marseille","lat":43.312239,"lon":5.368562,"is_reserved":false,"is_disabled":false,"rental_uris":{"android":"levelo://app?vid=ee15a480-4331-4f49-a814-fab3e8bbb6d0","ios":"levelo://app?vid=ee15a480-4331-4f49-a814-fab3e8bbb6d0"},"vehicle_type_id":"4","last_reported":1719011235,"current_range_meters":28400,"station_id":"ce4bgl92rcd13ifvqbq0","pricing_plan_id":"cebpf4jnsgd1na2vs0mg"},{"bike_id":"ec267482-cd1c-48db-a69d-1ed17805e373","system_id":"levelo_inurba_marseille","lat":43.312239,"lon":5.368562,"is_reserved":false,"is_disabled":false,"rental_uris":{"android":"levelo://app?vid=ec267482-cd1c-48db-a69d-1ed17805e373","ios":"levelo://app?vid=ec267482-cd1c-48db-a69d-1ed17805e373"},"vehicle_type_id":"4","last_reported":1719011235,"current_range_meters":25600,"station_id":"ce4bgl92rcd13ifvqbq0","pricing_plan_id":"cebpf4jnsgd1na2vs0mg"},{"bike_id":"7065134c-ecd0-42cb-9bc9-f5a49dbb80b0","system_id":"levelo_inurba_marseille","lat":43.312239,"lon":5.368562,"is_reserved":false,"is_disabled":false,"rental_uris":{"android":"levelo://app?vid=7065134c-ecd0-42cb-9bc9-f5a49dbb80b0","ios":"levelo://app?vid=7065134c-ecd0-42cb-9bc9-f5a49dbb80b0"},"vehicle_type_id":"4","last_reported":1719011235,"current_range_meters":20400,"station_id":"ce4bgl92rcd13ifvqbq0","pricing_plan_id":"cebpf4jnsgd1na2vs0mg"},{"bike_id":"24d509b5-ef37-465b-b8cc-6a71986a5c4f","system_id":"levelo_inurba_marseille","lat":43.309076,"lon":5.368465,"is_reserved":false,"is_disabled":false,"rental_uris":{"android":"levelo://app?vid=24d509b5-ef37-465b-b8cc-6a71986a5c4f","ios":"levelo://app?vid=24d509b5-ef37-465b-b8cc-6a71986a5c4f"},"vehicle_type_id":"4","last_reported":1719011235,"current_range_meters":21600,"station_id":"ce4bgn92rcd13ifvqbvg","pricing_plan_id":"cebpf4jnsgd1na2vs0mg"},{"bike_id":"abea9bc9-8493-4e6b-a0d3-09ccb40c4fee","system_id":"levelo_inurba_marseille","lat":43.31482,"lon":5.37302,"is_reserved":false,"is_disabled":false,"rental_uris":{"android":"levelo://app?vid=abea9bc9-8493-4e6b-a0d3-09ccb40c4fee","ios":"levelo://app?vid=abea9bc9-8493-4e6b-a0d3-09ccb40c4fee"},"vehicle_type_id":"4","last_reported":1719011235,"current_range_meters":800,"station_id":"ce4bgt12rcd13ifvqcd0","pricing_plan_id":"cebpf4jnsgd1na2vs0mg"},{"bike_id":"daf3ad84-c548-4868-aadd-b1eab581889f","system_id":"levelo_inurba_marseille","lat":43.31486,"lon":5.37306,"is_reserved":false,"is_disabled":false,"rental_uris":{"android":"levelo://app?vid=daf3ad84-c548-4868-aadd-b1eab581889f","ios":"levelo://app?vid=daf3ad84-c548-4868-aadd-b1eab581889f"},"vehicle_type_id":"4","last_reported":1719011235,"current_range_meters":400,"station_id":"ce4bgt12rcd13ifvqcd0","pricing_plan_id":"cebpf4jnsgd1na2vs0mg"},{"bike_id":"5d515674-7748-4be4-a07f-da0def5801a9","system_id":"levelo_inurba_marseille","lat":43.314811,"lon":5.373103,"is_reserved":false,"is_disabled":false,"rental_uris":{"android":"levelo://app?vid=5d515674-7748-4be4-a07f-da0def5801a9","ios":"levelo://app?vid=5d515674-7748-4be4-a07f-da0def5801a9"},"vehicle_type_id":"4","last_reported":1719011235,"current_range_meters":0,"station_id":"ce4bgt12rcd13ifvqcd0","pricing_plan_id":"cebpf4jnsgd1na2vs0mg"},{"bike_id":"7784a482-401b-4189-be37-c77eb56bb242","system_id":"levelo_inurba_marseille","lat":43.31486,"lon":5.3731,"is_reserved":false,"is_disabled":false,"rental_uris":{"android":"levelo://app?vid=7784a482-401b-4189-be37-c77eb56bb242","ios":"levelo://app?vid=7784a482-401b-4189-be37-c77eb56bb242"},"vehicle_type_id":"4","last_reported":1719011235,"current_range_meters":26800,"station_id":"ce4bgt12rcd13ifvqcd0","pricing_plan_id":"cebpf4jnsgd1na2vs0mg"},{"bike_id":"c8351c43-4d7e-4d1c-8873-4e9035a15977","system_id":"levelo_inurba_marseille","lat":43.314811,"lon":5.373103,"is_reserved":false,"is_disabled":false,"rental_uris":{"android":"levelo://app?vid=c8351c43-4d7e-4d1c-8873-4e9035a15977","ios":"levelo://app?vid=c8351c43-4d7e-4d1c-8873-4e9035a15977"},"vehicle_type_id":"4","last_reported":1719011235,"current_range_meters":6000,"station_id":"ce4bgt12rcd13ifvqcd0","pricing_plan_id":"cebpf4jnsgd1na2vs0mg"},{"bike_id":"4d65f698-03b9-43a1-8927-409f3c9731ae","system_id":"levelo_inurba_marseille","lat":43.314811,"lon":5.373104,"is_reserved":false,"is_disabled":false,"rental_uris":{"android":"levelo://app?vid=4d65f698-03b9-43a1-8927-409f3c9731ae","ios":"levelo://app?vid=4d65f698-03b9-43a1-8927-409f3c9731ae"},"vehicle_type_id":"4","last_reported":1719011235,"current_range_meters":0,"station_id":"ce4bgt12rcd13ifvqcd0","pricing_plan_id":"cebpf4jnsgd1na2vs0mg"},{"bike_id":"20f31c62-307b-4c16-93b6-6fcc5accd677","system_id":"levelo_inurba_marseille","lat":43.314576,"lon":5.373691,"is_reserved":false,"is_disabled":false,"rental_uris":{"android":"levelo://app?vid=20f31c62-307b-4c16-93b6-6fcc5accd677","ios":"levelo://app?vid=20f31c62-307b-4c16-93b6-6fcc5accd677"},"vehicle_type_id":"4","last_reported":1719011235,"current_range_meters":16400,"station_id":"","pricing_plan_id":"cebpf4jnsgd1na2vs0mg"},{"bike_id":"1857d9a4-c937-4917-8195-8e95326d50c3","system_id":"levelo_inurba_marseille","lat":43.309039,"lon":5.371797,"is_reserved":false,"is_disabled":false,"rental_uris":{"android":"levelo://app?vid=1857d9a4-c937-4917-8195-8e95326d50c3","ios":"levelo://app?vid=1857d9a4-c937-4917-8195-8e95326d50c3"},"vehicle_type_id":"4","last_reported":1719011235,"current_range_meters":1600,"station_id":"ce4bguh2rcd13ifvqckg","pricing_plan_id":"cebpf4jnsgd1na2vs0mg"},{"bike_id":"275b2204-540b-4527-8319-75bec82889d1","system_id":"levelo_inurba_marseille","lat":43.311125,"lon":5.377624,"is_reserved":false,"is_disabled":false,"rental_uris":{"android":"levelo://app?vid=275b2204-540b-4527-8319-75bec82889d1","ios":"levelo://app?vid=275b2204-540b-4527-8319-75bec82889d1"},"vehicle_type_id":"4","last_reported":1719011235,"current_range_meters":22800,"station_id":"ce4bgt92rcd13ifvqcg0","pricing_plan_id":"cebpf4jnsgd1na2vs0mg"},{"bike_id":"6e33d59c-f00e-4f69-926e-63bee6744815","system_id":"levelo_inurba_marseille","lat":43.305989,"lon":5.37225,"is_reserved":false,"is_disabled":false,"rental_uris":{"android":"levelo://app?vid=6e33d59c-f00e-4f69-926e-63bee6744815","ios":"levelo://app?vid=6e33d59c-f00e-4f69-926e-63bee6744815"},"vehicle_type_id":"4","last_reported":1719011235,"current_range_meters":21600,"station_id":"ce4bgqh2rcd13ifvqc4g","pricing_plan_id":"cebpf4jnsgd1na2vs0mg"},{"bike_id":"94c14b4b-88d5-4ed2-a2df-ef055d4a721a","system_id":"levelo_inurba_marseille","lat":43.305989,"lon":5.37225,"is_reserved":false,"is_disabled":false,"rental_uris":{"android":"levelo://app?vid=94c14b4b-88d5-4ed2-a2df-ef055d4a721a","ios":"levelo://app?vid=94c14b4b-88d5-4ed2-a2df-ef055d4a721a"},"vehicle_type_id":"4","last_reported":1719011235,"current_range_meters":16800,"station_id":"ce4bgqh2rcd13ifvqc4g","pricing_plan_id":"cebpf4jnsgd1na2vs0mg"},{"bike_id":"86a0dcd5-de73-4402-8fbf-01fd618c9557","system_id":"levelo_inurba_marseille","lat":43.305989,"lon":5.37225,"is_reserved":false,"is_disabled":false,"rental_uris":{"android":"levelo://app?vid=86a0dcd5-de73-4402-8fbf-01fd618c9557","ios":"levelo://app?vid=86a0dcd5-de73-4402-8fbf-01fd618c9557"},"vehicle_type_id":"4","last_reported":1719011235,"current_range_meters":20000,"station_id":"ce4bgqh2rcd13ifvqc4g","pricing_plan_id":"cebpf4jnsgd1na2vs0mg"},{"bike_id":"266613ee-58b4-46fa-85d3-52d8c6624204","system_id":"levelo_inurba_marseille","lat":43.305989,"lon":5.37225,"is_reserved":false,"is_disabled":false,"rental_uris":{"android":"levelo://app?vid=266613ee-58b4-46fa-85d3-52d8c6624204","ios":"levelo://app?vid=266613ee-58b4-46fa-85d3-52d8c6624204"},"vehicle_type_id":"4","last_reported":1719011235,"current_range_meters":11600,"station_id":"ce4bgqh2rcd13ifvqc4g","pricing_plan_id":"cebpf4jnsgd1na2vs0mg"},{"bike_id":"68feea94-9ffe-4190-b152-37401106d759","system_id":"levelo_inurba_marseille","lat":43.311131,"lon":5.377651,"is_reserved":false,"is_disabled":false,"rental_uris":{"android":"levelo://app?vid=68feea94-9ffe-4190-b152-37401106d759","ios":"levelo://app?vid=68feea94-9ffe-4190-b152-37401106d759"},"vehicle_type_id":"4","last_reported":1719011235,"current_range_meters":2400,"station_id":"ce4bgt92rcd13ifvqcg0","pricing_plan_id":"cebpf4jnsgd1na2vs0mg"},{"bike_id":"6f1d7065-b4fd-401a-be6d-257140b96604","system_id":"levelo_inurba_marseille","lat":43.311125,"lon":5.377624,"is_reserved":false,"is_disabled":false,"rental_uris":{"android":"levelo://app?vid=6f1d7065-b4fd-401a-be6d-257140b96604","ios":"levelo://app?vid=6f1d7065-b4fd-401a-be6d-257140b96604"},"vehicle_type_id":"4","last_reported":1719011235,"current_range_meters":22000,"station_id":"ce4bgt92rcd13ifvqcg0","pricing_plan_id":"cebpf4jnsgd1na2vs0mg"},{"bike_id":"204c9995-32c9-46b7-b13d-e837cd8fea7e","system_id":"levelo_inurba_marseille","lat":43.311125,"lon":5.377624,"is_reserved":false,"is_disabled":false,"rental_uris":{"android":"levelo://app?vid=204c9995-32c9-46b7-b13d-e837cd8fea7e","ios":"levelo://app?vid=204c9995-32c9-46b7-b13d-e837cd8fea7e"},"vehicle_type_id":"4","last_reported":1719011235,"current_range_meters":20800,"station_id":"ce4bgt92rcd13ifvqcg0","pricing_plan_id":"cebpf4jnsgd1na2vs0mg"},{"bike_id":"c8d74784-cfa3-4dc0-a55e-c53d6b6b7590","system_id":"levelo_inurba_marseille","lat":43.32014,"lon":5.37141,"is_reserved":false,"is_disabled":false,"rental_uris":{"android":"levelo://app?vid=c8d74784-cfa3-4dc0-a55e-c53d6b6b7590","ios":"levelo://app?vid=c8d74784-cfa3-4dc0-a55e-c53d6b6b7590"},"vehicle_type_id":"4","last_reported":1719011235,"current_range_meters":18400,"station_id":"","pricing_plan_id":"cebpf4jnsgd1na2vs0mg"},{"bike_id":"9dfbfb7f-3a27-4ab5-a53c-aeafb6fd70ec","system_id":"levelo_inurba_marseille","lat":43.307945,"lon":5.376487,"is_reserved":false,"is_disabled":false,"rental_uris":{"android":"levelo://app?vid=9dfbfb7f-3a27-4ab5-a53c-aeafb6fd70ec","ios":"levelo://app?vid=9dfbfb7f-3a27-4ab5-a53c-aeafb6fd70ec"},"vehicle_type_id":"4","last_reported":1719011235,"current_range_meters":21600,"station_id":"ce4bgv92rcd13ifvqcq0","pricing_plan_id":"cebpf4jnsgd1na2vs0mg"},{"bike_id":"9ca03d40-0927-430c-872a-cc9a620a3006","system_id":"levelo_inurba_marseille","lat":43.307945,"lon":5.376487,"is_reserved":false,"is_disabled":false,"rental_uris":{"android":"levelo://app?vid=9ca03d40-0927-430c-872a-cc9a620a3006","ios":"levelo://app?vid=9ca03d40-0927-430c-872a-cc9a620a3006"},"vehicle_type_id":"4","last_reported":1719011235,"current_range_meters":15600,"station_id":"ce4bgv92rcd13ifvqcq0","pricing_plan_id":"cebpf4jnsgd1na2vs0mg"},{"bike_id":"1f95849c-77e0-40eb-8668-a29a16605bbc","system_id":"levelo_inurba_marseille","lat":43.307945,"lon":5.376487,"is_reserved":false,"is_disabled":false,"rental_uris":{"android":"levelo://app?vid=1f95849c-77e0-40eb-8668-a29a16605bbc","ios":"levelo://app?vid=1f95849c-77e0-40eb-8668-a29a16605bbc"},"vehicle_type_id":"4","last_reported":1719011235,"current_range_meters":15200,"station_id":"ce4bgv92rcd13ifvqcq0","pricing_plan_id":"cebpf4jnsgd1na2vs0mg"},{"bike_id":"f0602da6-ef4a-4302-be87-cdb122c3dbe3","system_id":"levelo_inurba_marseille","lat":43.307945,"lon":5.376487,"is_reserved":false,"is_disabled":false,"rental_uris":{"android":"levelo://app?vid=f0602da6-ef4a-4302-be87-cdb122c3dbe3","ios":"levelo://app?vid=f0602da6-ef4a-4302-be87-cdb122c3dbe3"},"vehicle_type_id":"4","last_reported":1719011235,"current_range_meters":26000,"station_id":"ce4bgv92rcd13ifvqcq0","pricing_plan_id":"cebpf4jnsgd1na2vs0mg"},{"bike_id":"0ec767f5-098c-4418-9120-9a0b308e4273","system_id":"levelo_inurba_marseille","lat":43.307945,"lon":5.376487,"is_reserved":false,"is_disabled":false,"rental_uris":{"android":"levelo://app?vid=0ec767f5-098c-4418-9120-9a0b308e4273","ios":"levelo://app?vid=0ec767f5-098c-4418-9120-9a0b308e4273"},"vehicle_type_id":"4","last_reported":1719011235,"current_range_meters":800,"station_id":"ce4bgv92rcd13ifvqcq0","pricing_plan_id":"cebpf4jnsgd1na2vs0mg"},{"bike_id":"7570e7ba-e914-4740-b262-3395ce9b5f64","system_id":"levelo_inurba_marseille","lat":43.307945,"lon":5.376487,"is_reserved":false,"is_disabled":false,"rental_uris":{"android":"levelo://app?vid=7570e7ba-e914-4740-b262-3395ce9b5f64","ios":"levelo://app?vid=7570e7ba-e914-4740-b262-3395ce9b5f64"},"vehicle_type_id":"4","last_reported":1719011235,"current_range_meters":4800,"station_id":"ce4bgv92rcd13ifvqcq0","pricing_plan_id":"cebpf4jnsgd1na2vs0mg"},{"bike_id":"125f7e64-921d-47c1-8eb3-f645b12f1bfd","system_id":"levelo_inurba_marseille","lat":43.307945,"lon":5.376487,"is_reserved":false,"is_disabled":false,"rental_uris":{"android":"levelo://app?vid=125f7e64-921d-47c1-8eb3-f645b12f1bfd","ios":"levelo://app?vid=125f7e64-921d-47c1-8eb3-f645b12f1bfd"},"vehicle_type_id":"4","last_reported":1719011235,"current_range_meters":31200,"station_id":"ce4bgv92rcd13ifvqcq0","pricing_plan_id":"cebpf4jnsgd1na2vs0mg"},{"bike_id":"616c832f-e6d3-4d08-82ae-6406a76b544c","system_id":"levelo_inurba_marseille","lat":43.307945,"lon":5.376487,"is_reserved":false,"is_disabled":false,"rental_uris":{"android":"levelo://app?vid=616c832f-e6d3-4d08-82ae-6406a76b544c","ios":"levelo://app?vid=616c832f-e6d3-4d08-82ae-6406a76b544c"},"vehicle_type_id":"4","last_reported":1719011235,"current_range_meters":27200,"station_id":"ce4bgv92rcd13ifvqcq0","pricing_plan_id":"cebpf4jnsgd1na2vs0mg"},{"bike_id":"d96a8a16-8e79-451a-a3bf-8c79399e90a7","system_id":"levelo_inurba_marseille","lat":43.317075,"lon":5.377367,"is_reserved":false,"is_disabled":false,"rental_uris":{"android":"levelo://app?vid=d96a8a16-8e79-451a-a3bf-8c79399e90a7","ios":"levelo://app?vid=d96a8a16-8e79-451a-a3bf-8c79399e90a7"},"vehicle_type_id":"4","last_reported":1719011235,"current_range_meters":17600,"station_id":"ce4bgth2rcd13ifvqch0","pricing_plan_id":"cebpf4jnsgd1na2vs0mg"},{"bike_id":"be0ffdac-65f8-4f59-9809-8200205b66b8","system_id":"levelo_inurba_marseille","lat":43.30304,"lon":5.368987,"is_reserved":false,"is_disabled":false,"rental_uris":{"android":"levelo://app?vid=be0ffdac-65f8-4f59-9809-8200205b66b8","ios":"levelo://app?vid=be0ffdac-65f8-4f59-9809-8200205b66b8"},"vehicle_type_id":"4","last_reported":1719011235,"current_range_meters":0,"station_id":"ce4bgqh2rcd13ifvqc5g","pricing_plan_id":"cebpf4jnsgd1na2vs0mg"},{"bike_id":"ed14ec74-1f1c-4cfd-8d26-59aa92fdca8a","system_id":"levelo_inurba_marseille","lat":43.30421,"lon":5.37536,"is_reserved":false,"is_disabled":false,"rental_uris":{"android":"levelo://app?vid=ed14ec74-1f1c-4cfd-8d26-59aa92fdca8a","ios":"levelo://app?vid=ed14ec74-1f1c-4cfd-8d26-59aa92fdca8a"},"vehicle_type_id":"4","last_reported":1719011235,"current_range_meters":26800,"station_id":"","pricing_plan_id":"cebpf4jnsgd1na2vs0mg"},{"bike_id":"1aa9382d-bd55-4aff-8971-b23615fccdae","system_id":"levelo_inurba_marseille","lat":43.31094,"lon":5.38135,"is_reserved":false,"is_disabled":false,"rental_uris":{"android":"levelo://app?vid=1aa9382d-bd55-4aff-8971-b23615fccdae","ios":"levelo://app?vid=1aa9382d-bd55-4aff-8971-b23615fccdae"},"vehicle_type_id":"4","last_reported":1719011235,"current_range_meters":3600,"station_id":"","pricing_plan_id":"cebpf4jnsgd1na2vs0mg"},{"bike_id":"2bdac33a-1279-4088-ab17-44f2040ecfa2","system_id":"levelo_inurba_marseille","lat":43.311131,"lon":5.377651,"is_reserved":false,"is_disabled":false,"rental_uris":{"android":"levelo://app?vid=2bdac33a-1279-4088-ab17-44f2040ecfa2","ios":"levelo://app?vid=2bdac33a-1279-4088-ab17-44f2040ecfa2"},"vehicle_type_id":"4","last_reported":1719011235,"current_range_meters":5600,"station_id":"ce4bgt92rcd13ifvqcg0","pricing_plan_id":"cebpf4jnsgd1na2vs0mg"},{"bike_id":"8b3ac537-8f7e-497f-aca6-342e740b2da6","system_id":"levelo_inurba_marseille","lat":43.308012,"lon":5.381511,"is_reserved":false,"is_disabled":false,"rental_uris":{"android":"levelo://app?vid=8b3ac537-8f7e-497f-aca6-342e740b2da6","ios":"levelo://app?vid=8b3ac537-8f7e-497f-aca6-342e740b2da6"},"vehicle_type_id":"4","last_reported":1719011235,"current_range_meters":9200,"station_id":"ce4bgt12rcd13ifvqce0","pricing_plan_id":"cebpf4jnsgd1na2vs0mg"},{"bike_id":"8f9424d6-5a7c-45fa-9a6f-90260bf644f5","system_id":"levelo_inurba_marseille","lat":43.308012,"lon":5.381511,"is_reserved":false,"is_disabled":false,"rental_uris":{"android":"levelo://app?vid=8f9424d6-5a7c-45fa-9a6f-90260bf644f5","ios":"levelo://app?vid=8f9424d6-5a7c-45fa-9a6f-90260bf644f5"},"vehicle_type_id":"4","last_reported":1719011235,"current_range_meters":28800,"station_id":"ce4bgt12rcd13ifvqce0","pricing_plan_id":"cebpf4jnsgd1na2vs0mg"},{"bike_id":"a3351bc9-57e5-40a8-a632-fb07b59c3abd","system_id":"levelo_inurba_marseille","lat":43.300944,"lon":5.365458,"is_reserved":false,"is_disabled":false,"rental_uris":{"android":"levelo://app?vid=a3351bc9-57e5-40a8-a632-fb07b59c3abd","ios":"levelo://app?vid=a3351bc9-57e5-40a8-a632-fb07b59c3abd"},"vehicle_type_id":"4","last_reported":1719011235,"current_range_meters":0,"station_id":"","pricing_plan_id":"cebpf4jnsgd1na2vs0mg"},{"bike_id":"567c6721-270f-423d-995f-17e0b7f9ff3b","system_id":"levelo_inurba_marseille","lat":43.30208,"lon":5.374027,"is_reserved":false,"is_disabled":false,"rental_uris":{"android":"levelo://app?vid=567c6721-270f-423d-995f-17e0b7f9ff3b","ios":"levelo://app?vid=567c6721-270f-423d-995f-17e0b7f9ff3b"},"vehicle_type_id":"4","last_reported":1719011235,"current_range_meters":400,"station_id":"","pricing_plan_id":"cebpf4jnsgd1na2vs0mg"},{"bike_id":"73270e71-0a70-4c8f-bca9-ea2d174472f3","system_id":"levelo_inurba_marseille","lat":43.324771,"lon":5.36557,"is_reserved":false,"is_disabled":false,"rental_uris":{"android":"levelo://app?vid=73270e71-0a70-4c8f-bca9-ea2d174472f3","ios":"levelo://app?vid=73270e71-0a70-4c8f-bca9-ea2d174472f3"},"vehicle_type_id":"4","last_reported":1719011235,"current_range_meters":28400,"station_id":"ce4bhs12rcd13ifvqhvg","pricing_plan_id":"cebpf4jnsgd1na2vs0mg"},{"bike_id":"c07aff00-4eae-4c47-9b68-664428730875","system_id":"levelo_inurba_marseille","lat":43.30079,"lon":5.36948,"is_reserved":false,"is_disabled":false,"rental_uris":{"android":"levelo://app?vid=c07aff00-4eae-4c47-9b68-664428730875","ios":"levelo://app?vid=c07aff00-4eae-4c47-9b68-664428730875"},"vehicle_type_id":"4","last_reported":1719011235,"current_range_meters":12400,"station_id":"","pricing_plan_id":"cebpf4jnsgd1na2vs0mg"},{"bike_id":"0cf4f2e2-150e-4567-bd04-06c956a4df89","system_id":"levelo_inurba_marseille","lat":43.324771,"lon":5.36557,"is_reserved":false,"is_disabled":false,"rental_uris":{"android":"levelo://app?vid=0cf4f2e2-150e-4567-bd04-06c956a4df89","ios":"levelo://app?vid=0cf4f2e2-150e-4567-bd04-06c956a4df89"},"vehicle_type_id":"4","last_reported":1719011235,"current_range_meters":0,"station_id":"ce4bhs12rcd13ifvqhvg","pricing_plan_id":"cebpf4jnsgd1na2vs0mg"},{"bike_id":"700d8c3c-abc0-498a-86df-055650bfb74b","system_id":"levelo_inurba_marseille","lat":43.310804,"lon":5.38359,"is_reserved":false,"is_disabled":false,"rental_uris":{"android":"levelo://app?vid=700d8c3c-abc0-498a-86df-055650bfb74b","ios":"levelo://app?vid=700d8c3c-abc0-498a-86df-055650bfb74b"},"vehicle_type_id":"4","last_reported":1719011235,"current_range_meters":0,"station_id":"ce4bgv92rcd13ifvqcr0","pricing_plan_id":"cebpf4jnsgd1na2vs0mg"},{"bike_id":"8dafb5fd-6782-4278-aeb7-96a05ee4e445","system_id":"levelo_inurba_marseille","lat":43.31078,"lon":5.38358,"is_reserved":false,"is_disabled":false,"rental_uris":{"android":"levelo://app?vid=8dafb5fd-6782-4278-aeb7-96a05ee4e445","ios":"levelo://app?vid=8dafb5fd-6782-4278-aeb7-96a05ee4e445"},"vehicle_type_id":"4","last_reported":1719011235,"current_range_meters":18000,"station_id":"ce4bgv92rcd13ifvqcr0","pricing_plan_id":"cebpf4jnsgd1na2vs0mg"},{"bike_id":"accb27ed-20ef-4fc8-b91e-ef3a93705b5d","system_id":"levelo_inurba_marseille","lat":43.310804,"lon":5.38359,"is_reserved":false,"is_disabled":false,"rental_uris":{"android":"levelo://app?vid=accb27ed-20ef-4fc8-b91e-ef3a93705b5d","ios":"levelo://app?vid=accb27ed-20ef-4fc8-b91e-ef3a93705b5d"},"vehicle_type_id":"4","last_reported":1719011235,"current_range_meters":17200,"station_id":"ce4bgv92rcd13ifvqcr0","pricing_plan_id":"cebpf4jnsgd1na2vs0mg"},{"bike_id":"732f3b32-0acc-46de-bd4d-d288d2686bf1","system_id":"levelo_inurba_marseille","lat":43.310804,"lon":5.38359,"is_reserved":false,"is_disabled":false,"rental_uris":{"android":"levelo://app?vid=732f3b32-0acc-46de-bd4d-d288d2686bf1","ios":"levelo://app?vid=732f3b32-0acc-46de-bd4d-d288d2686bf1"},"vehicle_type_id":"4","last_reported":1719011235,"current_range_meters":0,"station_id":"ce4bgv92rcd13ifvqcr0","pricing_plan_id":"cebpf4jnsgd1na2vs0mg"},{"bike_id":"16fb4fa8-ccd3-4244-8468-355f27e9bb7f","system_id":"levelo_inurba_marseille","lat":43.313391,"lon":5.36706,"is_reserved":false,"is_disabled":false,"rental_uris":{"android":"levelo://app?vid=16fb4fa8-ccd3-4244-8468-355f27e9bb7f","ios":"levelo://app?vid=16fb4fa8-ccd3-4244-8468-355f27e9bb7f"},"vehicle_type_id":"4","last_reported":1719011235,"current_range_meters":16800,"station_id":"ce4bgr92rcd13ifvqc6g","pricing_plan_id":"cebpf4jnsgd1na2vs0mg"},{"bike_id":"0a3808a4-dfe1-4728-81b8-4ea3c49ba507","system_id":"levelo_inurba_marseille","lat":43.298764,"lon":5.388973,"is_reserved":false,"is_disabled":false,"rental_uris":{"android":"levelo://app?vid=0a3808a4-dfe1-4728-81b8-4ea3c49ba507","ios":"levelo://app?vid=0a3808a4-dfe1-4728-81b8-4ea3c49ba507"},"vehicle_type_id":"4","last_reported":1719011235,"current_range_meters":18400,"station_id":"ce4bh392rcd13ifvqdl0","pricing_plan_id":"cebpf4jnsgd1na2vs0mg"},{"bike_id":"a7ce4af3-b9a3-4154-b2c6-fe94ff06d9e4","system_id":"levelo_inurba_marseille","lat":43.30023,"lon":5.36957,"is_reserved":false,"is_disabled":false,"rental_uris":{"android":"levelo://app?vid=a7ce4af3-b9a3-4154-b2c6-fe94ff06d9e4","ios":"levelo://app?vid=a7ce4af3-b9a3-4154-b2c6-fe94ff06d9e4"},"vehicle_type_id":"4","last_reported":1719011235,"current_range_meters":13600,"station_id":"","pricing_plan_id":"cebpf4jnsgd1na2vs0mg"},{"bike_id":"4f17b089-79cb-4f2e-a7e1-b736df93b457","system_id":"levelo_inurba_marseille","lat":43.31991,"lon":5.3815,"is_reserved":false,"is_disabled":false,"rental_uris":{"android":"levelo://app?vid=4f17b089-79cb-4f2e-a7e1-b736df93b457","ios":"levelo://app?vid=4f17b089-79cb-4f2e-a7e1-b736df93b457"},"vehicle_type_id":"4","last_reported":1719011235,"current_range_meters":0,"station_id":"ce4bhr12rcd13ifvqhpg","pricing_plan_id":"cebpf4jnsgd1na2vs0mg"},{"bike_id":"88063caa-49f9-4907-87ef-7beb63fd8b00","system_id":"levelo_inurba_marseille","lat":43.30517,"lon":5.38119,"is_reserved":false,"is_disabled":false,"rental_uris":{"android":"levelo://app?vid=88063caa-49f9-4907-87ef-7beb63fd8b00","ios":"levelo://app?vid=88063caa-49f9-4907-87ef-7beb63fd8b00"},"vehicle_type_id":"4","last_reported":1719011235,"current_range_meters":0,"station_id":"","pricing_plan_id":"cebpf4jnsgd1na2vs0mg"},{"bike_id":"09de8e8b-08d6-4d99-a738-63453e60055e","system_id":"levelo_inurba_marseille","lat":43.31991,"lon":5.38164,"is_reserved":false,"is_disabled":false,"rental_uris":{"android":"levelo://app?vid=09de8e8b-08d6-4d99-a738-63453e60055e","ios":"levelo://app?vid=09de8e8b-08d6-4d99-a738-63453e60055e"},"vehicle_type_id":"4","last_reported":1719011235,"current_range_meters":21600,"station_id":"ce4bhr12rcd13ifvqhpg","pricing_plan_id":"cebpf4jnsgd1na2vs0mg"},{"bike_id":"0c5586db-f15d-4d6b-87b2-59e661ccceb9","system_id":"levelo_inurba_marseille","lat":43.30511,"lon":5.3812,"is_reserved":false,"is_disabled":false,"rental_uris":{"android":"levelo://app?vid=0c5586db-f15d-4d6b-87b2-59e661ccceb9","ios":"levelo://app?vid=0c5586db-f15d-4d6b-87b2-59e661ccceb9"},"vehicle_type_id":"4","last_reported":1719011235,"current_range_meters":30000,"station_id":"","pricing_plan_id":"cebpf4jnsgd1na2vs0mg"},{"bike_id":"388975db-c864-4dfa-b93f-92e2f465f9b8","system_id":"levelo_inurba_marseille","lat":43.31996,"lon":5.38168,"is_reserved":false,"is_disabled":false,"rental_uris":{"android":"levelo://app?vid=388975db-c864-4dfa-b93f-92e2f465f9b8","ios":"levelo://app?vid=388975db-c864-4dfa-b93f-92e2f465f9b8"},"vehicle_type_id":"4","last_reported":1719011235,"current_range_meters":10400,"station_id":"ce4bhr12rcd13ifvqhpg","pricing_plan_id":"cebpf4jnsgd1na2vs0mg"},{"bike_id":"9ed8049b-9e47-4f86-9775-846514f6cd93","system_id":"levelo_inurba_marseille","lat":43.303002,"lon":5.392142,"is_reserved":false,"is_disabled":false,"rental_uris":{"android":"levelo://app?vid=9ed8049b-9e47-4f86-9775-846514f6cd93","ios":"levelo://app?vid=9ed8049b-9e47-4f86-9775-846514f6cd93"},"vehicle_type_id":"4","last_reported":1719011235,"current_range_meters":14000,"station_id":"ce4bgkh2rcd13ifvqbk0","pricing_plan_id":"cebpf4jnsgd1na2vs0mg"},{"bike_id":"d2991f91-bca7-4af0-86ff-5e79d32c7b7a","system_id":"levelo_inurba_marseille","lat":43.313571,"lon":5.384829,"is_reserved":false,"is_disabled":false,"rental_uris":{"android":"levelo://app?vid=d2991f91-bca7-4af0-86ff-5e79d32c7b7a","ios":"levelo://app?vid=d2991f91-bca7-4af0-86ff-5e79d32c7b7a"},"vehicle_type_id":"4","last_reported":1719011235,"current_range_meters":20400,"station_id":"ce4bgt92rcd13ifvqcf0","pricing_plan_id":"cebpf4jnsgd1na2vs0mg"},{"bike_id":"004a7cdb-4746-43cd-a305-a05207e33dd8","system_id":"levelo_inurba_marseille","lat":43.299901,"lon":5.371807,"is_reserved":false,"is_disabled":false,"rental_uris":{"android":"levelo://app?vid=004a7cdb-4746-43cd-a305-a05207e33dd8","ios":"levelo://app?vid=004a7cdb-4746-43cd-a305-a05207e33dd8"},"vehicle_type_id":"4","last_reported":1719011235,"current_range_meters":3600,"station_id":"ce4bgr92rcd13ifvqc7g","pricing_plan_id":"cebpf4jnsgd1na2vs0mg"},{"bike_id":"ff973c85-42cd-4099-bcfe-84d1dfa67f34","system_id":"levelo_inurba_marseille","lat":43.311722,"lon":5.387247,"is_reserved":false,"is_disabled":false,"rental_uris":{"android":"levelo://app?vid=ff973c85-42cd-4099-bcfe-84d1dfa67f34","ios":"levelo://app?vid=ff973c85-42cd-4099-bcfe-84d1dfa67f34"},"vehicle_type_id":"4","last_reported":1719011235,"current_range_meters":20000,"station_id":"ce4bgv12rcd13ifvqcp0","pricing_plan_id":"cebpf4jnsgd1na2vs0mg"},{"bike_id":"a1eeedf4-783e-4a24-90e3-5be8778ac1bb","system_id":"levelo_inurba_marseille","lat":43.305364,"lon":5.384119,"is_reserved":false,"is_disabled":false,"rental_uris":{"android":"levelo://app?vid=a1eeedf4-783e-4a24-90e3-5be8778ac1bb","ios":"levelo://app?vid=a1eeedf4-783e-4a24-90e3-5be8778ac1bb"},"vehicle_type_id":"4","last_reported":1719011235,"current_range_meters":21600,"station_id":"ce4bgg92rcd13ifvqb30","pricing_plan_id":"cebpf4jnsgd1na2vs0mg"},{"bike_id":"7fe31b7c-85d0-4233-ac86-4712ad674817","system_id":"levelo_inurba_marseille","lat":43.311722,"lon":5.387247,"is_reserved":false,"is_disabled":false,"rental_uris":{"android":"levelo://app?vid=7fe31b7c-85d0-4233-ac86-4712ad674817","ios":"levelo://app?vid=7fe31b7c-85d0-4233-ac86-4712ad674817"},"vehicle_type_id":"4","last_reported":1719011235,"current_range_meters":5600,"station_id":"ce4bgv12rcd13ifvqcp0","pricing_plan_id":"cebpf4jnsgd1na2vs0mg"},{"bike_id":"2d109a9b-bd55-49b2-bdd4-e581fb6e4657","system_id":"levelo_inurba_marseille","lat":43.311722,"lon":5.387247,"is_reserved":false,"is_disabled":false,"rental_uris":{"android":"levelo://app?vid=2d109a9b-bd55-49b2-bdd4-e581fb6e4657","ios":"levelo://app?vid=2d109a9b-bd55-49b2-bdd4-e581fb6e4657"},"vehicle_type_id":"4","last_reported":1719011235,"current_range_meters":14000,"station_id":"ce4bgv12rcd13ifvqcp0","pricing_plan_id":"cebpf4jnsgd1na2vs0mg"},{"bike_id":"7c169e5d-f445-4b2e-b5cd-787e8a01406a","system_id":"levelo_inurba_marseille","lat":43.299243,"lon":5.374807,"is_reserved":false,"is_disabled":false,"rental_uris":{"android":"levelo://app?vid=7c169e5d-f445-4b2e-b5cd-787e8a01406a","ios":"levelo://app?vid=7c169e5d-f445-4b2e-b5cd-787e8a01406a"},"vehicle_type_id":"4","last_reported":1719011235,"current_range_meters":31200,"station_id":"ce4bgjh2rcd13ifvqbg0","pricing_plan_id":"cebpf4jnsgd1na2vs0mg"},{"bike_id":"d1aee173-6544-4e02-996a-b1c43d3b629a","system_id":"levelo_inurba_marseille","lat":43.311722,"lon":5.387247,"is_reserved":false,"is_disabled":false,"rental_uris":{"android":"levelo://app?vid=d1aee173-6544-4e02-996a-b1c43d3b629a","ios":"levelo://app?vid=d1aee173-6544-4e02-996a-b1c43d3b629a"},"vehicle_type_id":"4","last_reported":1719011235,"current_range_meters":6400,"station_id":"ce4bgv12rcd13ifvqcp0","pricing_plan_id":"cebpf4jnsgd1na2vs0mg"},{"bike_id":"582b9231-d137-4d65-b5b0-3b70b1c1e77f","system_id":"levelo_inurba_marseille","lat":43.311722,"lon":5.387247,"is_reserved":false,"is_disabled":false,"rental_uris":{"android":"levelo://app?vid=582b9231-d137-4d65-b5b0-3b70b1c1e77f","ios":"levelo://app?vid=582b9231-d137-4d65-b5b0-3b70b1c1e77f"},"vehicle_type_id":"4","last_reported":1719011235,"current_range_meters":7600,"station_id":"ce4bgv12rcd13ifvqcp0","pricing_plan_id":"cebpf4jnsgd1na2vs0mg"},{"bike_id":"1f6bae21-38bb-4ff3-a01a-84bbd3d28111","system_id":"levelo_inurba_marseille","lat":43.32286,"lon":5.38528,"is_reserved":false,"is_disabled":false,"rental_uris":{"android":"levelo://app?vid=1f6bae21-38bb-4ff3-a01a-84bbd3d28111","ios":"levelo://app?vid=1f6bae21-38bb-4ff3-a01a-84bbd3d28111"},"vehicle_type_id":"4","last_reported":1719011235,"current_range_meters":6800,"station_id":"","pricing_plan_id":"cebpf4jnsgd1na2vs0mg"},{"bike_id":"0d72c791-dd60-494d-82f6-3227c82568c5","system_id":"levelo_inurba_marseille","lat":43.309589,"lon":5.390258,"is_reserved":false,"is_disabled":false,"rental_uris":{"android":"levelo://app?vid=0d72c791-dd60-494d-82f6-3227c82568c5","ios":"levelo://app?vid=0d72c791-dd60-494d-82f6-3227c82568c5"},"vehicle_type_id":"4","last_reported":1719011235,"current_range_meters":14800,"station_id":"ce4bgup2rcd13ifvqco0","pricing_plan_id":"cebpf4jnsgd1na2vs0mg"},{"bike_id":"3b8ac049-bdf7-438d-9471-ad389b0de48c","system_id":"levelo_inurba_marseille","lat":43.296131,"lon":5.370773,"is_reserved":false,"is_disabled":false,"rental_uris":{"android":"levelo://app?vid=3b8ac049-bdf7-438d-9471-ad389b0de48c","ios":"levelo://app?vid=3b8ac049-bdf7-438d-9471-ad389b0de48c"},"vehicle_type_id":"4","last_reported":1719011235,"current_range_meters":4400,"station_id":"ce4bgnh2rcd13ifvqc0g","pricing_plan_id":"cebpf4jnsgd1na2vs0mg"},{"bike_id":"2f979239-df55-44da-ad82-98fb3f7e6525","system_id":"levelo_inurba_marseille","lat":43.299028,"lon":5.381509,"is_reserved":false,"is_disabled":false,"rental_uris":{"android":"levelo://app?vid=2f979239-df55-44da-ad82-98fb3f7e6525","ios":"levelo://app?vid=2f979239-df55-44da-ad82-98fb3f7e6525"},"vehicle_type_id":"4","last_reported":1719011235,"current_range_meters":0,"station_id":"ce4bgj12rcd13ifvqbc0","pricing_plan_id":"cebpf4jnsgd1na2vs0mg"},{"bike_id":"7403a112-7dcf-40c1-8cf9-e989b853dac3","system_id":"levelo_inurba_marseille","lat":43.317557,"lon":5.390173,"is_reserved":false,"is_disabled":false,"rental_uris":{"android":"levelo://app?vid=7403a112-7dcf-40c1-8cf9-e989b853dac3","ios":"levelo://app?vid=7403a112-7dcf-40c1-8cf9-e989b853dac3"},"vehicle_type_id":"4","last_reported":1719011235,"current_range_meters":26800,"station_id":"ce4bhqp2rcd13ifvqhng","pricing_plan_id":"cebpf4jnsgd1na2vs0mg"},{"bike_id":"c1d6f6c8-3679-415f-9133-c78e9dcc4a6b","system_id":"levelo_inurba_marseille","lat":43.317557,"lon":5.390173,"is_reserved":false,"is_disabled":false,"rental_uris":{"android":"levelo://app?vid=c1d6f6c8-3679-415f-9133-c78e9dcc4a6b","ios":"levelo://app?vid=c1d6f6c8-3679-415f-9133-c78e9dcc4a6b"},"vehicle_type_id":"4","last_reported":1719011235,"current_range_meters":24800,"station_id":"ce4bhqp2rcd13ifvqhng","pricing_plan_id":"cebpf4jnsgd1na2vs0mg"},{"bike_id":"254fb62a-781b-4020-96c7-3959bc494037","system_id":"levelo_inurba_marseille","lat":43.295748,"lon":5.37522,"is_reserved":false,"is_disabled":false,"rental_uris":{"android":"levelo://app?vid=254fb62a-781b-4020-96c7-3959bc494037","ios":"levelo://app?vid=254fb62a-781b-4020-96c7-3959bc494037"},"vehicle_type_id":"4","last_reported":1719011235,"current_range_meters":0,"station_id":"ce4bgh92rcd13ifvqb50","pricing_plan_id":"cebpf4jnsgd1na2vs0mg"},{"bike_id":"26af6ca5-8f11-4b8b-af28-fc4185c57e77","system_id":"levelo_inurba_marseille","lat":43.298037,"lon":5.381066,"is_reserved":false,"is_disabled":false,"rental_uris":{"android":"levelo://app?vid=26af6ca5-8f11-4b8b-af28-fc4185c57e77","ios":"levelo://app?vid=26af6ca5-8f11-4b8b-af28-fc4185c57e77"},"vehicle_type_id":"4","last_reported":1719011235,"current_range_meters":13200,"station_id":"ce4bgip2rcd13ifvqbb0","pricing_plan_id":"cebpf4jnsgd1na2vs0mg"},{"bike_id":"f89d73c9-aeb2-4a98-afff-2f1a0e13f3c6","system_id":"levelo_inurba_marseille","lat":43.3217,"lon":5.3887,"is_reserved":false,"is_disabled":false,"rental_uris":{"android":"levelo://app?vid=f89d73c9-aeb2-4a98-afff-2f1a0e13f3c6","ios":"levelo://app?vid=f89d73c9-aeb2-4a98-afff-2f1a0e13f3c6"},"vehicle_type_id":"4","last_reported":1719011235,"current_range_meters":11600,"station_id":"","pricing_plan_id":"cebpf4jnsgd1na2vs0mg"},{"bike_id":"835e45ef-c916-48b3-87c2-21cc47c71158","system_id":"levelo_inurba_marseille","lat":43.295193,"lon":5.37649,"is_reserved":false,"is_disabled":false,"rental_uris":{"android":"levelo://app?vid=835e45ef-c916-48b3-87c2-21cc47c71158","ios":"levelo://app?vid=835e45ef-c916-48b3-87c2-21cc47c71158"},"vehicle_type_id":"4","last_reported":1719011235,"current_range_meters":4800,"station_id":"","pricing_plan_id":"cebpf4jnsgd1na2vs0mg"},{"bike_id":"a3751557-f673-4014-a9d4-7bf00ed8aa47","system_id":"levelo_inurba_marseille","lat":43.293259,"lon":5.371586,"is_reserved":false,"is_disabled":false,"rental_uris":{"android":"levelo://app?vid=a3751557-f673-4014-a9d4-7bf00ed8aa47","ios":"levelo://app?vid=a3751557-f673-4014-a9d4-7bf00ed8aa47"},"vehicle_type_id":"4","last_reported":1719011235,"current_range_meters":15600,"station_id":"ce4bgh92rcd13ifvqb40","pricing_plan_id":"cebpf4jnsgd1na2vs0mg"},{"bike_id":"056924ca-34fd-4bc9-92f7-d5f93c545fab","system_id":"levelo_inurba_marseille","lat":43.292749,"lon":5.368402,"is_reserved":false,"is_disabled":false,"rental_uris":{"android":"levelo://app?vid=056924ca-34fd-4bc9-92f7-d5f93c545fab","ios":"levelo://app?vid=056924ca-34fd-4bc9-92f7-d5f93c545fab"},"vehicle_type_id":"4","last_reported":1719011235,"current_range_meters":0,"station_id":"ce4bhbp2rcd13ifvqesg","pricing_plan_id":"cebpf4jnsgd1na2vs0mg"},{"bike_id":"3dfc7254-ed8f-4630-ba90-cde77333d5fb","system_id":"levelo_inurba_marseille","lat":43.293009,"lon":5.374584,"is_reserved":false,"is_disabled":false,"rental_uris":{"android":"levelo://app?vid=3dfc7254-ed8f-4630-ba90-cde77333d5fb","ios":"levelo://app?vid=3dfc7254-ed8f-4630-ba90-cde77333d5fb"},"vehicle_type_id":"4","last_reported":1719011235,"current_range_meters":800,"station_id":"ce4bgi12rcd13ifvqb70","pricing_plan_id":"cebpf4jnsgd1na2vs0mg"},{"bike_id":"99b075d1-b366-41f5-bcc2-594e1952b30a","system_id":"levelo_inurba_marseille","lat":43.293009,"lon":5.374584,"is_reserved":false,"is_disabled":false,"rental_uris":{"android":"levelo://app?vid=99b075d1-b366-41f5-bcc2-594e1952b30a","ios":"levelo://app?vid=99b075d1-b366-41f5-bcc2-594e1952b30a"},"vehicle_type_id":"4","last_reported":1719011235,"current_range_meters":400,"station_id":"ce4bgi12rcd13ifvqb70","pricing_plan_id":"cebpf4jnsgd1na2vs0mg"},{"bike_id":"0d580a50-c8d3-40b6-bd20-79fcc8a99984","system_id":"levelo_inurba_marseille","lat":43.305994,"lon":5.393687,"is_reserved":false,"is_disabled":false,"rental_uris":{"android":"levelo://app?vid=0d580a50-c8d3-40b6-bd20-79fcc8a99984","ios":"levelo://app?vid=0d580a50-c8d3-40b6-bd20-79fcc8a99984"},"vehicle_type_id":"4","last_reported":1719011235,"current_range_meters":7600,"station_id":"ce4bh0p2rcd13ifvqd80","pricing_plan_id":"cebpf4jnsgd1na2vs0mg"},{"bike_id":"12a52d6c-5cfe-4258-bae9-041290c70ee8","system_id":"levelo_inurba_marseille","lat":43.305994,"lon":5.393687,"is_reserved":false,"is_disabled":false,"rental_uris":{"android":"levelo://app?vid=12a52d6c-5cfe-4258-bae9-041290c70ee8","ios":"levelo://app?vid=12a52d6c-5cfe-4258-bae9-041290c70ee8"},"vehicle_type_id":"4","last_reported":1719011235,"current_range_meters":12000,"station_id":"ce4bh0p2rcd13ifvqd80","pricing_plan_id":"cebpf4jnsgd1na2vs0mg"},{"bike_id":"5aaeb43f-a029-4d00-98a2-1dc7270eaa03","system_id":"levelo_inurba_marseille","lat":43.2936,"lon":5.37835,"is_reserved":false,"is_disabled":false,"rental_uris":{"android":"levelo://app?vid=5aaeb43f-a029-4d00-98a2-1dc7270eaa03","ios":"levelo://app?vid=5aaeb43f-a029-4d00-98a2-1dc7270eaa03"},"vehicle_type_id":"4","last_reported":1719011235,"current_range_meters":10000,"station_id":"ce4bgjh2rcd13ifvqbf0","pricing_plan_id":"cebpf4jnsgd1na2vs0mg"},{"bike_id":"d49126d6-4f8e-4343-9a29-7ee7870e2ea3","system_id":"levelo_inurba_marseille","lat":43.29372,"lon":5.37839,"is_reserved":false,"is_disabled":false,"rental_uris":{"android":"levelo://app?vid=d49126d6-4f8e-4343-9a29-7ee7870e2ea3","ios":"levelo://app?vid=d49126d6-4f8e-4343-9a29-7ee7870e2ea3"},"vehicle_type_id":"4","last_reported":1719011235,"current_range_meters":0,"station_id":"ce4bgjh2rcd13ifvqbf0","pricing_plan_id":"cebpf4jnsgd1na2vs0mg"},{"bike_id":"4bb54bb8-7ac3-4eb2-ae8c-1e5a1da66f5e","system_id":"levelo_inurba_marseille","lat":43.2936,"lon":5.37835,"is_reserved":false,"is_disabled":false,"rental_uris":{"android":"levelo://app?vid=4bb54bb8-7ac3-4eb2-ae8c-1e5a1da66f5e","ios":"levelo://app?vid=4bb54bb8-7ac3-4eb2-ae8c-1e5a1da66f5e"},"vehicle_type_id":"4","last_reported":1719011235,"current_range_meters":0,"station_id":"ce4bgjh2rcd13ifvqbf0","pricing_plan_id":"cebpf4jnsgd1na2vs0mg"},{"bike_id":"d850291c-e791-4636-b597-80aea038c74f","system_id":"levelo_inurba_marseille","lat":43.29227,"lon":5.3607,"is_reserved":false,"is_disabled":false,"rental_uris":{"android":"levelo://app?vid=d850291c-e791-4636-b597-80aea038c74f","ios":"levelo://app?vid=d850291c-e791-4636-b597-80aea038c74f"},"vehicle_type_id":"4","last_reported":1719011235,"current_range_meters":0,"station_id":"ce4bhbh2rcd13ifvqeqg","pricing_plan_id":"cebpf4jnsgd1na2vs0mg"},{"bike_id":"98bd7490-bc3d-46ec-91e5-88ccebb03960","system_id":"levelo_inurba_marseille","lat":43.292311,"lon":5.360731,"is_reserved":false,"is_disabled":false,"rental_uris":{"android":"levelo://app?vid=98bd7490-bc3d-46ec-91e5-88ccebb03960","ios":"levelo://app?vid=98bd7490-bc3d-46ec-91e5-88ccebb03960"},"vehicle_type_id":"4","last_reported":1719011235,"current_range_meters":0,"station_id":"ce4bhbh2rcd13ifvqeqg","pricing_plan_id":"cebpf4jnsgd1na2vs0mg"},{"bike_id":"79d40157-e10c-4c54-89f3-0bd88f2b345e","system_id":"levelo_inurba_marseille","lat":43.296603,"lon":5.385555,"is_reserved":false,"is_disabled":false,"rental_uris":{"android":"levelo://app?vid=79d40157-e10c-4c54-89f3-0bd88f2b345e","ios":"levelo://app?vid=79d40157-e10c-4c54-89f3-0bd88f2b345e"},"vehicle_type_id":"4","last_reported":1719011235,"current_range_meters":0,"station_id":"","pricing_plan_id":"cebpf4jnsgd1na2vs0mg"},{"bike_id":"23e9edff-f1b6-448a-8ddd-4301a2a2112e","system_id":"levelo_inurba_marseille","lat":43.298764,"lon":5.388973,"is_reserved":false,"is_disabled":false,"rental_uris":{"android":"levelo://app?vid=23e9edff-f1b6-448a-8ddd-4301a2a2112e","ios":"levelo://app?vid=23e9edff-f1b6-448a-8ddd-4301a2a2112e"},"vehicle_type_id":"4","last_reported":1719011235,"current_range_meters":14800,"station_id":"ce4bh392rcd13ifvqdl0","pricing_plan_id":"cebpf4jnsgd1na2vs0mg"},{"bike_id":"c90ad6cb-46a6-40c8-bc2f-b5945c7ef494","system_id":"levelo_inurba_marseille","lat":43.291671,"lon":5.371575,"is_reserved":false,"is_disabled":false,"rental_uris":{"android":"levelo://app?vid=c90ad6cb-46a6-40c8-bc2f-b5945c7ef494","ios":"levelo://app?vid=c90ad6cb-46a6-40c8-bc2f-b5945c7ef494"},"vehicle_type_id":"4","last_reported":1719011235,"current_range_meters":25200,"station_id":"ce4bha92rcd13ifvqeh0","pricing_plan_id":"cebpf4jnsgd1na2vs0mg"},{"bike_id":"261c4022-fd9d-4fad-aaf8-e656fd7d1280","system_id":"levelo_inurba_marseille","lat":43.309038,"lon":5.396546,"is_reserved":false,"is_disabled":false,"rental_uris":{"android":"levelo://app?vid=261c4022-fd9d-4fad-aaf8-e656fd7d1280","ios":"levelo://app?vid=261c4022-fd9d-4fad-aaf8-e656fd7d1280"},"vehicle_type_id":"4","last_reported":1719011235,"current_range_meters":20400,"station_id":"ce4bh012rcd13ifvqcv0","pricing_plan_id":"cebpf4jnsgd1na2vs0mg"},{"bike_id":"36d9e12e-a83e-46ca-b16d-115ea9689526","system_id":"levelo_inurba_marseille","lat":43.313291,"lon":5.396838,"is_reserved":false,"is_disabled":false,"rental_uris":{"android":"levelo://app?vid=36d9e12e-a83e-46ca-b16d-115ea9689526","ios":"levelo://app?vid=36d9e12e-a83e-46ca-b16d-115ea9689526"},"vehicle_type_id":"4","last_reported":1719011235,"current_range_meters":4400,"station_id":"ce4bgvp2rcd13ifvqcu0","pricing_plan_id":"cebpf4jnsgd1na2vs0mg"},{"bike_id":"3f0ee5fa-08d6-4b9b-bf15-72b7742e6dec","system_id":"levelo_inurba_marseille","lat":43.313291,"lon":5.396838,"is_reserved":false,"is_disabled":false,"rental_uris":{"android":"levelo://app?vid=3f0ee5fa-08d6-4b9b-bf15-72b7742e6dec","ios":"levelo://app?vid=3f0ee5fa-08d6-4b9b-bf15-72b7742e6dec"},"vehicle_type_id":"4","last_reported":1719011235,"current_range_meters":9200,"station_id":"ce4bgvp2rcd13ifvqcu0","pricing_plan_id":"cebpf4jnsgd1na2vs0mg"},{"bike_id":"c6271e6b-5601-424f-b236-010fd62dbae5","system_id":"levelo_inurba_marseille","lat":43.313291,"lon":5.396838,"is_reserved":false,"is_disabled":false,"rental_uris":{"android":"levelo://app?vid=c6271e6b-5601-424f-b236-010fd62dbae5","ios":"levelo://app?vid=c6271e6b-5601-424f-b236-010fd62dbae5"},"vehicle_type_id":"4","last_reported":1719011235,"current_range_meters":6400,"station_id":"ce4bgvp2rcd13ifvqcu0","pricing_plan_id":"cebpf4jnsgd1na2vs0mg"},{"bike_id":"72acf752-69e8-45e9-904c-db6e9151771e","system_id":"levelo_inurba_marseille","lat":43.309047,"lon":5.396551,"is_reserved":false,"is_disabled":false,"rental_uris":{"android":"levelo://app?vid=72acf752-69e8-45e9-904c-db6e9151771e","ios":"levelo://app?vid=72acf752-69e8-45e9-904c-db6e9151771e"},"vehicle_type_id":"4","last_reported":1719011235,"current_range_meters":18000,"station_id":"ce4bh012rcd13ifvqcv0","pricing_plan_id":"cebpf4jnsgd1na2vs0mg"},{"bike_id":"27c97553-1a9c-4d71-9118-79a710f65090","system_id":"levelo_inurba_marseille","lat":43.31324,"lon":5.39691,"is_reserved":false,"is_disabled":false,"rental_uris":{"android":"levelo://app?vid=27c97553-1a9c-4d71-9118-79a710f65090","ios":"levelo://app?vid=27c97553-1a9c-4d71-9118-79a710f65090"},"vehicle_type_id":"4","last_reported":1719011235,"current_range_meters":5600,"station_id":"ce4bgvp2rcd13ifvqcu0","pricing_plan_id":"cebpf4jnsgd1na2vs0mg"},{"bike_id":"f31166cc-7f0c-42dc-95b7-eb04bdd5a651","system_id":"levelo_inurba_marseille","lat":43.309038,"lon":5.396546,"is_reserved":false,"is_disabled":false,"rental_uris":{"android":"levelo://app?vid=f31166cc-7f0c-42dc-95b7-eb04bdd5a651","ios":"levelo://app?vid=f31166cc-7f0c-42dc-95b7-eb04bdd5a651"},"vehicle_type_id":"4","last_reported":1719011235,"current_range_meters":18000,"station_id":"ce4bh012rcd13ifvqcv0","pricing_plan_id":"cebpf4jnsgd1na2vs0mg"},{"bike_id":"efc63501-dc92-4051-a49d-3f30561c49d9","system_id":"levelo_inurba_marseille","lat":43.309038,"lon":5.396546,"is_reserved":false,"is_disabled":false,"rental_uris":{"android":"levelo://app?vid=efc63501-dc92-4051-a49d-3f30561c49d9","ios":"levelo://app?vid=efc63501-dc92-4051-a49d-3f30561c49d9"},"vehicle_type_id":"4","last_reported":1719011235,"current_range_meters":27600,"station_id":"ce4bh012rcd13ifvqcv0","pricing_plan_id":"cebpf4jnsgd1na2vs0mg"},{"bike_id":"858e4dc3-ac5c-418f-8dfc-ebfd90349095","system_id":"levelo_inurba_marseille","lat":43.309038,"lon":5.396546,"is_reserved":false,"is_disabled":false,"rental_uris":{"android":"levelo://app?vid=858e4dc3-ac5c-418f-8dfc-ebfd90349095","ios":"levelo://app?vid=858e4dc3-ac5c-418f-8dfc-ebfd90349095"},"vehicle_type_id":"4","last_reported":1719011235,"current_range_meters":16400,"station_id":"ce4bh012rcd13ifvqcv0","pricing_plan_id":"cebpf4jnsgd1na2vs0mg"},{"bike_id":"bf5e3d3a-0657-4dfb-b01e-4b02773f3282","system_id":"levelo_inurba_marseille","lat":43.31327,"lon":5.39696,"is_reserved":false,"is_disabled":false,"rental_uris":{"android":"levelo://app?vid=bf5e3d3a-0657-4dfb-b01e-4b02773f3282","ios":"levelo://app?vid=bf5e3d3a-0657-4dfb-b01e-4b02773f3282"},"vehicle_type_id":"4","last_reported":1719011235,"current_range_meters":0,"station_id":"ce4bgvp2rcd13ifvqcu0","pricing_plan_id":"cebpf4jnsgd1na2vs0mg"},{"bike_id":"302c9320-ff4e-4a88-806c-ad457cb207f6","system_id":"levelo_inurba_marseille","lat":43.309047,"lon":5.396551,"is_reserved":false,"is_disabled":false,"rental_uris":{"android":"levelo://app?vid=302c9320-ff4e-4a88-806c-ad457cb207f6","ios":"levelo://app?vid=302c9320-ff4e-4a88-806c-ad457cb207f6"},"vehicle_type_id":"4","last_reported":1719011235,"current_range_meters":24400,"station_id":"ce4bh012rcd13ifvqcv0","pricing_plan_id":"cebpf4jnsgd1na2vs0mg"},{"bike_id":"60e17f9a-0371-4b61-8812-48a5bfe0acd5","system_id":"levelo_inurba_marseille","lat":43.30887,"lon":5.39656,"is_reserved":false,"is_disabled":false,"rental_uris":{"android":"levelo://app?vid=60e17f9a-0371-4b61-8812-48a5bfe0acd5","ios":"levelo://app?vid=60e17f9a-0371-4b61-8812-48a5bfe0acd5"},"vehicle_type_id":"4","last_reported":1719011235,"current_range_meters":18400,"station_id":"","pricing_plan_id":"cebpf4jnsgd1na2vs0mg"},{"bike_id":"f071d55a-bc14-4651-95a5-e442ab234eba","system_id":"levelo_inurba_marseille","lat":43.309038,"lon":5.396546,"is_reserved":false,"is_disabled":false,"rental_uris":{"android":"levelo://app?vid=f071d55a-bc14-4651-95a5-e442ab234eba","ios":"levelo://app?vid=f071d55a-bc14-4651-95a5-e442ab234eba"},"vehicle_type_id":"4","last_reported":1719011235,"current_range_meters":10000,"station_id":"ce4bh012rcd13ifvqcv0","pricing_plan_id":"cebpf4jnsgd1na2vs0mg"},{"bike_id":"1e0fa57d-b3e0-405d-aacf-3962cdbf2f61","system_id":"levelo_inurba_marseille","lat":43.309038,"lon":5.396546,"is_reserved":false,"is_disabled":false,"rental_uris":{"android":"levelo://app?vid=1e0fa57d-b3e0-405d-aacf-3962cdbf2f61","ios":"levelo://app?vid=1e0fa57d-b3e0-405d-aacf-3962cdbf2f61"},"vehicle_type_id":"4","last_reported":1719011235,"current_range_meters":19200,"station_id":"ce4bh012rcd13ifvqcv0","pricing_plan_id":"cebpf4jnsgd1na2vs0mg"},{"bike_id":"69543cc3-bbfd-4cfa-97a5-e7c8b7a7e74d","system_id":"levelo_inurba_marseille","lat":43.309038,"lon":5.396546,"is_reserved":false,"is_disabled":false,"rental_uris":{"android":"levelo://app?vid=69543cc3-bbfd-4cfa-97a5-e7c8b7a7e74d","ios":"levelo://app?vid=69543cc3-bbfd-4cfa-97a5-e7c8b7a7e74d"},"vehicle_type_id":"4","last_reported":1719011235,"current_range_meters":6400,"station_id":"ce4bh012rcd13ifvqcv0","pricing_plan_id":"cebpf4jnsgd1na2vs0mg"},{"bike_id":"a4a8032d-9fd1-43c4-8045-06c9968d4537","system_id":"levelo_inurba_marseille","lat":43.309038,"lon":5.396546,"is_reserved":false,"is_disabled":false,"rental_uris":{"android":"levelo://app?vid=a4a8032d-9fd1-43c4-8045-06c9968d4537","ios":"levelo://app?vid=a4a8032d-9fd1-43c4-8045-06c9968d4537"},"vehicle_type_id":"4","last_reported":1719011235,"current_range_meters":23600,"station_id":"ce4bh012rcd13ifvqcv0","pricing_plan_id":"cebpf4jnsgd1na2vs0mg"},{"bike_id":"78744367-598f-4a90-8679-182392d83c3c","system_id":"levelo_inurba_marseille","lat":43.309038,"lon":5.396546,"is_reserved":false,"is_disabled":false,"rental_uris":{"android":"levelo://app?vid=78744367-598f-4a90-8679-182392d83c3c","ios":"levelo://app?vid=78744367-598f-4a90-8679-182392d83c3c"},"vehicle_type_id":"4","last_reported":1719011235,"current_range_meters":13200,"station_id":"ce4bh012rcd13ifvqcv0","pricing_plan_id":"cebpf4jnsgd1na2vs0mg"},{"bike_id":"43ea584e-b9b4-40f1-bc7a-541569981ee7","system_id":"levelo_inurba_marseille","lat":43.309038,"lon":5.396546,"is_reserved":false,"is_disabled":false,"rental_uris":{"android":"levelo://app?vid=43ea584e-b9b4-40f1-bc7a-541569981ee7","ios":"levelo://app?vid=43ea584e-b9b4-40f1-bc7a-541569981ee7"},"vehicle_type_id":"4","last_reported":1719011235,"current_range_meters":21200,"station_id":"ce4bh012rcd13ifvqcv0","pricing_plan_id":"cebpf4jnsgd1na2vs0mg"},{"bike_id":"9ced5b1f-18ac-421d-9486-54298e77b406","system_id":"levelo_inurba_marseille","lat":43.309047,"lon":5.396551,"is_reserved":false,"is_disabled":false,"rental_uris":{"android":"levelo://app?vid=9ced5b1f-18ac-421d-9486-54298e77b406","ios":"levelo://app?vid=9ced5b1f-18ac-421d-9486-54298e77b406"},"vehicle_type_id":"4","last_reported":1719011235,"current_range_meters":10400,"station_id":"ce4bh012rcd13ifvqcv0","pricing_plan_id":"cebpf4jnsgd1na2vs0mg"},{"bike_id":"84e6b652-49e1-4fed-a261-bcd530d715e4","system_id":"levelo_inurba_marseille","lat":43.29529,"lon":5.385581,"is_reserved":false,"is_disabled":false,"rental_uris":{"android":"levelo://app?vid=84e6b652-49e1-4fed-a261-bcd530d715e4","ios":"levelo://app?vid=84e6b652-49e1-4fed-a261-bcd530d715e4"},"vehicle_type_id":"4","last_reported":1719011235,"current_range_meters":18000,"station_id":"ce4bgih2rcd13ifvqba0","pricing_plan_id":"cebpf4jnsgd1na2vs0mg"},{"bike_id":"df731fc2-79a1-45f3-9d33-12d344c79c3e","system_id":"levelo_inurba_marseille","lat":43.29529,"lon":5.385581,"is_reserved":false,"is_disabled":false,"rental_uris":{"android":"levelo://app?vid=df731fc2-79a1-45f3-9d33-12d344c79c3e","ios":"levelo://app?vid=df731fc2-79a1-45f3-9d33-12d344c79c3e"},"vehicle_type_id":"4","last_reported":1719011235,"current_range_meters":21600,"station_id":"ce4bgih2rcd13ifvqba0","pricing_plan_id":"cebpf4jnsgd1na2vs0mg"},{"bike_id":"4b2eb72f-cb6e-4d6d-8181-52a20d9b62a3","system_id":"levelo_inurba_marseille","lat":43.290779,"lon":5.371482,"is_reserved":false,"is_disabled":false,"rental_uris":{"android":"levelo://app?vid=4b2eb72f-cb6e-4d6d-8181-52a20d9b62a3","ios":"levelo://app?vid=4b2eb72f-cb6e-4d6d-8181-52a20d9b62a3"},"vehicle_type_id":"4","last_reported":1719011235,"current_range_meters":0,"station_id":"ce4bh5p2rcd13ifvqe4g","pricing_plan_id":"cebpf4jnsgd1na2vs0mg"},{"bike_id":"0aa38dea-b63c-4854-b872-312f53804d79","system_id":"levelo_inurba_marseille","lat":43.290624,"lon":5.359245,"is_reserved":false,"is_disabled":false,"rental_uris":{"android":"levelo://app?vid=0aa38dea-b63c-4854-b872-312f53804d79","ios":"levelo://app?vid=0aa38dea-b63c-4854-b872-312f53804d79"},"vehicle_type_id":"4","last_reported":1719011235,"current_range_meters":12000,"station_id":"ce4bha92rcd13ifvqeg0","pricing_plan_id":"cebpf4jnsgd1na2vs0mg"},{"bike_id":"fc91ce45-5aad-4702-a23e-9a3f4ea249c8","system_id":"levelo_inurba_marseille","lat":43.294193,"lon":5.386263,"is_reserved":false,"is_disabled":false,"rental_uris":{"android":"levelo://app?vid=fc91ce45-5aad-4702-a23e-9a3f4ea249c8","ios":"levelo://app?vid=fc91ce45-5aad-4702-a23e-9a3f4ea249c8"},"vehicle_type_id":"4","last_reported":1719011235,"current_range_meters":31600,"station_id":"ce4bh2h2rcd13ifvqdh0","pricing_plan_id":"cebpf4jnsgd1na2vs0mg"},{"bike_id":"517d4c14-2b72-4f34-8a29-4ad826b5d25b","system_id":"levelo_inurba_marseille","lat":43.29414,"lon":5.38625,"is_reserved":false,"is_disabled":false,"rental_uris":{"android":"levelo://app?vid=517d4c14-2b72-4f34-8a29-4ad826b5d25b","ios":"levelo://app?vid=517d4c14-2b72-4f34-8a29-4ad826b5d25b"},"vehicle_type_id":"4","last_reported":1719011235,"current_range_meters":0,"station_id":"ce4bh2h2rcd13ifvqdh0","pricing_plan_id":"cebpf4jnsgd1na2vs0mg"},{"bike_id":"8f8409c2-c965-408d-b178-36b712c0e339","system_id":"levelo_inurba_marseille","lat":43.29414,"lon":5.38626,"is_reserved":false,"is_disabled":false,"rental_uris":{"android":"levelo://app?vid=8f8409c2-c965-408d-b178-36b712c0e339","ios":"levelo://app?vid=8f8409c2-c965-408d-b178-36b712c0e339"},"vehicle_type_id":"4","last_reported":1719011235,"current_range_meters":31200,"station_id":"ce4bh2h2rcd13ifvqdh0","pricing_plan_id":"cebpf4jnsgd1na2vs0mg"},{"bike_id":"0bc22cea-a0c4-492a-a2d5-2de842639f95","system_id":"levelo_inurba_marseille","lat":43.29416,"lon":5.38631,"is_reserved":false,"is_disabled":false,"rental_uris":{"android":"levelo://app?vid=0bc22cea-a0c4-492a-a2d5-2de842639f95","ios":"levelo://app?vid=0bc22cea-a0c4-492a-a2d5-2de842639f95"},"vehicle_type_id":"4","last_reported":1719011235,"current_range_meters":0,"station_id":"ce4bh2h2rcd13ifvqdh0","pricing_plan_id":"cebpf4jnsgd1na2vs0mg"},{"bike_id":"2dd21fd1-2104-4ff1-bf4e-c73857d89132","system_id":"levelo_inurba_marseille","lat":43.289397,"lon":5.36638,"is_reserved":false,"is_disabled":false,"rental_uris":{"android":"levelo://app?vid=2dd21fd1-2104-4ff1-bf4e-c73857d89132","ios":"levelo://app?vid=2dd21fd1-2104-4ff1-bf4e-c73857d89132"},"vehicle_type_id":"4","last_reported":1719011235,"current_range_meters":0,"station_id":"ce4bhap2rcd13ifvqek0","pricing_plan_id":"cebpf4jnsgd1na2vs0mg"},{"bike_id":"42b981d7-927f-4379-b4ee-1fb780b58734","system_id":"levelo_inurba_marseille","lat":43.29413,"lon":5.3863,"is_reserved":false,"is_disabled":false,"rental_uris":{"android":"levelo://app?vid=42b981d7-927f-4379-b4ee-1fb780b58734","ios":"levelo://app?vid=42b981d7-927f-4379-b4ee-1fb780b58734"},"vehicle_type_id":"4","last_reported":1719011235,"current_range_meters":0,"station_id":"ce4bh2h2rcd13ifvqdh0","pricing_plan_id":"cebpf4jnsgd1na2vs0mg"},{"bike_id":"b7dd5bd8-c723-491b-8ab7-e94a33668848","system_id":"levelo_inurba_marseille","lat":43.289184,"lon":5.366408,"is_reserved":false,"is_disabled":false,"rental_uris":{"android":"levelo://app?vid=b7dd5bd8-c723-491b-8ab7-e94a33668848","ios":"levelo://app?vid=b7dd5bd8-c723-491b-8ab7-e94a33668848"},"vehicle_type_id":"4","last_reported":1719011235,"current_range_meters":8400,"station_id":"ce4bhap2rcd13ifvqek0","pricing_plan_id":"cebpf4jnsgd1na2vs0mg"},{"bike_id":"9c92d07d-a983-4f26-bee3-bbc5a8ddc08d","system_id":"levelo_inurba_marseille","lat":43.289184,"lon":5.366408,"is_reserved":false,"is_disabled":false,"rental_uris":{"android":"levelo://app?vid=9c92d07d-a983-4f26-bee3-bbc5a8ddc08d","ios":"levelo://app?vid=9c92d07d-a983-4f26-bee3-bbc5a8ddc08d"},"vehicle_type_id":"4","last_reported":1719011235,"current_range_meters":19600,"station_id":"ce4bhap2rcd13ifvqek0","pricing_plan_id":"cebpf4jnsgd1na2vs0mg"},{"bike_id":"d1a62f32-7390-4edd-bd6e-5330016faa65","system_id":"levelo_inurba_marseille","lat":43.289184,"lon":5.366408,"is_reserved":false,"is_disabled":false,"rental_uris":{"android":"levelo://app?vid=d1a62f32-7390-4edd-bd6e-5330016faa65","ios":"levelo://app?vid=d1a62f32-7390-4edd-bd6e-5330016faa65"},"vehicle_type_id":"4","last_reported":1719011235,"current_range_meters":2000,"station_id":"ce4bhap2rcd13ifvqek0","pricing_plan_id":"cebpf4jnsgd1na2vs0mg"},{"bike_id":"0b43f6a9-e35b-491b-bdd1-1bcb4611e233","system_id":"levelo_inurba_marseille","lat":43.289184,"lon":5.366408,"is_reserved":false,"is_disabled":false,"rental_uris":{"android":"levelo://app?vid=0b43f6a9-e35b-491b-bdd1-1bcb4611e233","ios":"levelo://app?vid=0b43f6a9-e35b-491b-bdd1-1bcb4611e233"},"vehicle_type_id":"4","last_reported":1719011235,"current_range_meters":17200,"station_id":"ce4bhap2rcd13ifvqek0","pricing_plan_id":"cebpf4jnsgd1na2vs0mg"},{"bike_id":"f89142e8-68f2-438f-91c9-1496f85cd2dd","system_id":"levelo_inurba_marseille","lat":43.289468,"lon":5.363719,"is_reserved":false,"is_disabled":false,"rental_uris":{"android":"levelo://app?vid=f89142e8-68f2-438f-91c9-1496f85cd2dd","ios":"levelo://app?vid=f89142e8-68f2-438f-91c9-1496f85cd2dd"},"vehicle_type_id":"4","last_reported":1719011235,"current_range_meters":13200,"station_id":"ce4bhc92rcd13ifvqetg","pricing_plan_id":"cebpf4jnsgd1na2vs0mg"},{"bike_id":"7e6f2d58-369b-4eff-9f56-96dfb0f79c39","system_id":"levelo_inurba_marseille","lat":43.29252,"lon":5.38415,"is_reserved":false,"is_disabled":false,"rental_uris":{"android":"levelo://app?vid=7e6f2d58-369b-4eff-9f56-96dfb0f79c39","ios":"levelo://app?vid=7e6f2d58-369b-4eff-9f56-96dfb0f79c39"},"vehicle_type_id":"4","last_reported":1719011235,"current_range_meters":31200,"station_id":"ce4bh692rcd13ifvqea0","pricing_plan_id":"cebpf4jnsgd1na2vs0mg"},{"bike_id":"167e94e9-21cc-4632-9fa4-bcfe1ca75858","system_id":"levelo_inurba_marseille","lat":43.292644,"lon":5.384257,"is_reserved":false,"is_disabled":false,"rental_uris":{"android":"levelo://app?vid=167e94e9-21cc-4632-9fa4-bcfe1ca75858","ios":"levelo://app?vid=167e94e9-21cc-4632-9fa4-bcfe1ca75858"},"vehicle_type_id":"4","last_reported":1719011235,"current_range_meters":0,"station_id":"ce4bh692rcd13ifvqea0","pricing_plan_id":"cebpf4jnsgd1na2vs0mg"},{"bike_id":"148a19db-4938-4492-8203-9a6331f039b0","system_id":"levelo_inurba_marseille","lat":43.304274,"lon":5.397513,"is_reserved":false,"is_disabled":false,"rental_uris":{"android":"levelo://app?vid=148a19db-4938-4492-8203-9a6331f039b0","ios":"levelo://app?vid=148a19db-4938-4492-8203-9a6331f039b0"},"vehicle_type_id":"4","last_reported":1719011235,"current_range_meters":15600,"station_id":"ce4bh092rcd13ifvqd20","pricing_plan_id":"cebpf4jnsgd1na2vs0mg"},{"bike_id":"c786e481-bca2-4247-bb59-27b68dae24c9","system_id":"levelo_inurba_marseille","lat":43.29266,"lon":5.38453,"is_reserved":false,"is_disabled":false,"rental_uris":{"android":"levelo://app?vid=c786e481-bca2-4247-bb59-27b68dae24c9","ios":"levelo://app?vid=c786e481-bca2-4247-bb59-27b68dae24c9"},"vehicle_type_id":"4","last_reported":1719011235,"current_range_meters":0,"station_id":"ce4bh692rcd13ifvqea0","pricing_plan_id":"cebpf4jnsgd1na2vs0mg"},{"bike_id":"17bff8f9-60f0-4fdf-8d47-e999e5ff3753","system_id":"levelo_inurba_marseille","lat":43.304274,"lon":5.397513,"is_reserved":false,"is_disabled":false,"rental_uris":{"android":"levelo://app?vid=17bff8f9-60f0-4fdf-8d47-e999e5ff3753","ios":"levelo://app?vid=17bff8f9-60f0-4fdf-8d47-e999e5ff3753"},"vehicle_type_id":"4","last_reported":1719011235,"current_range_meters":8800,"station_id":"ce4bh092rcd13ifvqd20","pricing_plan_id":"cebpf4jnsgd1na2vs0mg"},{"bike_id":"3f4dba2a-9019-4574-a042-54fb9131eef9","system_id":"levelo_inurba_marseille","lat":43.28917,"lon":5.36204,"is_reserved":false,"is_disabled":false,"rental_uris":{"android":"levelo://app?vid=3f4dba2a-9019-4574-a042-54fb9131eef9","ios":"levelo://app?vid=3f4dba2a-9019-4574-a042-54fb9131eef9"},"vehicle_type_id":"4","last_reported":1719011235,"current_range_meters":4000,"station_id":"","pricing_plan_id":"cebpf4jnsgd1na2vs0mg"},{"bike_id":"c073fefb-2156-4eb0-b424-caaa2ee4573e","system_id":"levelo_inurba_marseille","lat":43.291836,"lon":5.382732,"is_reserved":false,"is_disabled":false,"rental_uris":{"android":"levelo://app?vid=c073fefb-2156-4eb0-b424-caaa2ee4573e","ios":"levelo://app?vid=c073fefb-2156-4eb0-b424-caaa2ee4573e"},"vehicle_type_id":"4","last_reported":1719011235,"current_range_meters":13600,"station_id":"","pricing_plan_id":"cebpf4jnsgd1na2vs0mg"},{"bike_id":"1da9e94d-737a-42ff-a63e-b1daf760a24d","system_id":"levelo_inurba_marseille","lat":43.304296,"lon":5.397513,"is_reserved":false,"is_disabled":false,"rental_uris":{"android":"levelo://app?vid=1da9e94d-737a-42ff-a63e-b1daf760a24d","ios":"levelo://app?vid=1da9e94d-737a-42ff-a63e-b1daf760a24d"},"vehicle_type_id":"4","last_reported":1719011235,"current_range_meters":27200,"station_id":"ce4bh092rcd13ifvqd20","pricing_plan_id":"cebpf4jnsgd1na2vs0mg"},{"bike_id":"f9055916-f66a-4de5-af1f-92b3ded68ac0","system_id":"levelo_inurba_marseille","lat":43.29312,"lon":5.38584,"is_reserved":false,"is_disabled":false,"rental_uris":{"android":"levelo://app?vid=f9055916-f66a-4de5-af1f-92b3ded68ac0","ios":"levelo://app?vid=f9055916-f66a-4de5-af1f-92b3ded68ac0"},"vehicle_type_id":"4","last_reported":1719011235,"current_range_meters":0,"station_id":"","pricing_plan_id":"cebpf4jnsgd1na2vs0mg"},{"bike_id":"1c568a72-c659-4eeb-9851-317a6097bd23","system_id":"levelo_inurba_marseille","lat":43.29381,"lon":5.387207,"is_reserved":false,"is_disabled":false,"rental_uris":{"android":"levelo://app?vid=1c568a72-c659-4eeb-9851-317a6097bd23","ios":"levelo://app?vid=1c568a72-c659-4eeb-9851-317a6097bd23"},"vehicle_type_id":"4","last_reported":1719011235,"current_range_meters":0,"station_id":"","pricing_plan_id":"cebpf4jnsgd1na2vs0mg"},{"bike_id":"cd4f0dbc-8e02-4617-901c-80bad01f36f3","system_id":"levelo_inurba_marseille","lat":43.290104,"lon":5.356111,"is_reserved":false,"is_disabled":false,"rental_uris":{"android":"levelo://app?vid=cd4f0dbc-8e02-4617-901c-80bad01f36f3","ios":"levelo://app?vid=cd4f0dbc-8e02-4617-901c-80bad01f36f3"},"vehicle_type_id":"4","last_reported":1719011235,"current_range_meters":4800,"station_id":"ce4bhb92rcd13ifvqen0","pricing_plan_id":"cebpf4jnsgd1na2vs0mg"},{"bike_id":"b01bbe3e-e488-4f50-95a7-65af51bec983","system_id":"levelo_inurba_marseille","lat":43.290995,"lon":5.381361,"is_reserved":false,"is_disabled":false,"rental_uris":{"android":"levelo://app?vid=b01bbe3e-e488-4f50-95a7-65af51bec983","ios":"levelo://app?vid=b01bbe3e-e488-4f50-95a7-65af51bec983"},"vehicle_type_id":"4","last_reported":1719011235,"current_range_meters":400,"station_id":"ce4bh512rcd13ifvqe2g","pricing_plan_id":"cebpf4jnsgd1na2vs0mg"},{"bike_id":"9dd66829-5d29-414e-8331-d034a866ccbd","system_id":"levelo_inurba_marseille","lat":43.290995,"lon":5.381361,"is_reserved":false,"is_disabled":false,"rental_uris":{"android":"levelo://app?vid=9dd66829-5d29-414e-8331-d034a866ccbd","ios":"levelo://app?vid=9dd66829-5d29-414e-8331-d034a866ccbd"},"vehicle_type_id":"4","last_reported":1719011235,"current_range_meters":30000,"station_id":"ce4bh512rcd13ifvqe2g","pricing_plan_id":"cebpf4jnsgd1na2vs0mg"},{"bike_id":"26f3fac6-319f-4fec-9205-1e6e17261dd4","system_id":"levelo_inurba_marseille","lat":43.290995,"lon":5.381361,"is_reserved":false,"is_disabled":false,"rental_uris":{"android":"levelo://app?vid=26f3fac6-319f-4fec-9205-1e6e17261dd4","ios":"levelo://app?vid=26f3fac6-319f-4fec-9205-1e6e17261dd4"},"vehicle_type_id":"4","last_reported":1719011235,"current_range_meters":0,"station_id":"ce4bh512rcd13ifvqe2g","pricing_plan_id":"cebpf4jnsgd1na2vs0mg"},{"bike_id":"49bd00b7-b4bc-4c84-9bb5-79cf9597a922","system_id":"levelo_inurba_marseille","lat":43.330442,"lon":5.389148,"is_reserved":false,"is_disabled":false,"rental_uris":{"android":"levelo://app?vid=49bd00b7-b4bc-4c84-9bb5-79cf9597a922","ios":"levelo://app?vid=49bd00b7-b4bc-4c84-9bb5-79cf9597a922"},"vehicle_type_id":"4","last_reported":1719011235,"current_range_meters":21200,"station_id":"ce4bhr92rcd13ifvqhrg","pricing_plan_id":"cebpf4jnsgd1na2vs0mg"},{"bike_id":"de33b865-370a-490a-8a6b-0e9dec0d3084","system_id":"levelo_inurba_marseille","lat":43.33025,"lon":5.39046,"is_reserved":false,"is_disabled":false,"rental_uris":{"android":"levelo://app?vid=de33b865-370a-490a-8a6b-0e9dec0d3084","ios":"levelo://app?vid=de33b865-370a-490a-8a6b-0e9dec0d3084"},"vehicle_type_id":"4","last_reported":1719011235,"current_range_meters":0,"station_id":"ce4bhr92rcd13ifvqhrg","pricing_plan_id":"cebpf4jnsgd1na2vs0mg"},{"bike_id":"b5773276-eb59-4411-b636-09864c9b00d9","system_id":"levelo_inurba_marseille","lat":43.2901,"lon":5.381269,"is_reserved":false,"is_disabled":false,"rental_uris":{"android":"levelo://app?vid=b5773276-eb59-4411-b636-09864c9b00d9","ios":"levelo://app?vid=b5773276-eb59-4411-b636-09864c9b00d9"},"vehicle_type_id":"4","last_reported":1719011235,"current_range_meters":8800,"station_id":"ce4bh4p2rcd13ifvqe1g","pricing_plan_id":"cebpf4jnsgd1na2vs0mg"},{"bike_id":"d7c0d9b8-35b0-436d-943c-f536c766dcdb","system_id":"levelo_inurba_marseille","lat":43.29159,"lon":5.38477,"is_reserved":false,"is_disabled":false,"rental_uris":{"android":"levelo://app?vid=d7c0d9b8-35b0-436d-943c-f536c766dcdb","ios":"levelo://app?vid=d7c0d9b8-35b0-436d-943c-f536c766dcdb"},"vehicle_type_id":"4","last_reported":1719011235,"current_range_meters":12000,"station_id":"","pricing_plan_id":"cebpf4jnsgd1na2vs0mg"},{"bike_id":"b30b2225-4f6e-4d4c-8957-946b7bfa40bd","system_id":"levelo_inurba_marseille","lat":43.28856,"lon":5.358371,"is_reserved":false,"is_disabled":false,"rental_uris":{"android":"levelo://app?vid=b30b2225-4f6e-4d4c-8957-946b7bfa40bd","ios":"levelo://app?vid=b30b2225-4f6e-4d4c-8957-946b7bfa40bd"},"vehicle_type_id":"4","last_reported":1719011235,"current_range_meters":7600,"station_id":"ce4bhb12rcd13ifvqem0","pricing_plan_id":"cebpf4jnsgd1na2vs0mg"},{"bike_id":"66a2717f-380c-442b-bc67-bacd5596b74d","system_id":"levelo_inurba_marseille","lat":43.312609,"lon":5.401662,"is_reserved":false,"is_disabled":false,"rental_uris":{"android":"levelo://app?vid=66a2717f-380c-442b-bc67-bacd5596b74d","ios":"levelo://app?vid=66a2717f-380c-442b-bc67-bacd5596b74d"},"vehicle_type_id":"4","last_reported":1719011235,"current_range_meters":14800,"station_id":"ce4bh092rcd13ifvqd30","pricing_plan_id":"cebpf4jnsgd1na2vs0mg"},{"bike_id":"da96d7fa-1349-4ba1-8356-df3e4afc8fca","system_id":"levelo_inurba_marseille","lat":43.312609,"lon":5.401662,"is_reserved":false,"is_disabled":false,"rental_uris":{"android":"levelo://app?vid=da96d7fa-1349-4ba1-8356-df3e4afc8fca","ios":"levelo://app?vid=da96d7fa-1349-4ba1-8356-df3e4afc8fca"},"vehicle_type_id":"4","last_reported":1719011235,"current_range_meters":26800,"station_id":"ce4bh092rcd13ifvqd30","pricing_plan_id":"cebpf4jnsgd1na2vs0mg"},{"bike_id":"05092e03-5cef-41c3-9575-df5db7507ebd","system_id":"levelo_inurba_marseille","lat":43.33739,"lon":5.37464,"is_reserved":false,"is_disabled":false,"rental_uris":{"android":"levelo://app?vid=05092e03-5cef-41c3-9575-df5db7507ebd","ios":"levelo://app?vid=05092e03-5cef-41c3-9575-df5db7507ebd"},"vehicle_type_id":"4","last_reported":1719011235,"current_range_meters":22000,"station_id":"","pricing_plan_id":"cebpf4jnsgd1na2vs0mg"},{"bike_id":"d689a06a-4369-4cef-9754-43dddd10e797","system_id":"levelo_inurba_marseille","lat":43.312609,"lon":5.401662,"is_reserved":false,"is_disabled":false,"rental_uris":{"android":"levelo://app?vid=d689a06a-4369-4cef-9754-43dddd10e797","ios":"levelo://app?vid=d689a06a-4369-4cef-9754-43dddd10e797"},"vehicle_type_id":"4","last_reported":1719011235,"current_range_meters":0,"station_id":"ce4bh092rcd13ifvqd30","pricing_plan_id":"cebpf4jnsgd1na2vs0mg"},{"bike_id":"db534928-e6a2-47cc-a852-558fe66ed50c","system_id":"levelo_inurba_marseille","lat":43.337415,"lon":5.374675,"is_reserved":false,"is_disabled":false,"rental_uris":{"android":"levelo://app?vid=db534928-e6a2-47cc-a852-558fe66ed50c","ios":"levelo://app?vid=db534928-e6a2-47cc-a852-558fe66ed50c"},"vehicle_type_id":"4","last_reported":1719011235,"current_range_meters":22000,"station_id":"","pricing_plan_id":"cebpf4jnsgd1na2vs0mg"},{"bike_id":"075bcf37-4665-43f9-a701-427cfa011847","system_id":"levelo_inurba_marseille","lat":43.309371,"lon":5.401449,"is_reserved":false,"is_disabled":false,"rental_uris":{"android":"levelo://app?vid=075bcf37-4665-43f9-a701-427cfa011847","ios":"levelo://app?vid=075bcf37-4665-43f9-a701-427cfa011847"},"vehicle_type_id":"4","last_reported":1719011235,"current_range_meters":6800,"station_id":"ce4bgvp2rcd13ifvqct0","pricing_plan_id":"cebpf4jnsgd1na2vs0mg"},{"bike_id":"53c82405-bd96-4529-9bbe-2cdde8f3aa43","system_id":"levelo_inurba_marseille","lat":43.309371,"lon":5.401449,"is_reserved":false,"is_disabled":false,"rental_uris":{"android":"levelo://app?vid=53c82405-bd96-4529-9bbe-2cdde8f3aa43","ios":"levelo://app?vid=53c82405-bd96-4529-9bbe-2cdde8f3aa43"},"vehicle_type_id":"4","last_reported":1719011235,"current_range_meters":6400,"station_id":"ce4bgvp2rcd13ifvqct0","pricing_plan_id":"cebpf4jnsgd1na2vs0mg"},{"bike_id":"04c710dd-3c26-480e-8ad0-28e2cc827ab5","system_id":"levelo_inurba_marseille","lat":43.309371,"lon":5.401449,"is_reserved":false,"is_disabled":false,"rental_uris":{"android":"levelo://app?vid=04c710dd-3c26-480e-8ad0-28e2cc827ab5","ios":"levelo://app?vid=04c710dd-3c26-480e-8ad0-28e2cc827ab5"},"vehicle_type_id":"4","last_reported":1719011235,"current_range_meters":18400,"station_id":"ce4bgvp2rcd13ifvqct0","pricing_plan_id":"cebpf4jnsgd1na2vs0mg"},{"bike_id":"0a651944-9bd6-41c4-8155-666fc1e7acd7","system_id":"levelo_inurba_marseille","lat":43.306412,"lon":5.401035,"is_reserved":false,"is_disabled":false,"rental_uris":{"android":"levelo://app?vid=0a651944-9bd6-41c4-8155-666fc1e7acd7","ios":"levelo://app?vid=0a651944-9bd6-41c4-8155-666fc1e7acd7"},"vehicle_type_id":"4","last_reported":1719011235,"current_range_meters":12400,"station_id":"ce4bh112rcd13ifvqda0","pricing_plan_id":"cebpf4jnsgd1na2vs0mg"},{"bike_id":"a00c218c-138a-4388-aca4-2952a6961815","system_id":"levelo_inurba_marseille","lat":43.33745,"lon":5.37494,"is_reserved":false,"is_disabled":false,"rental_uris":{"android":"levelo://app?vid=a00c218c-138a-4388-aca4-2952a6961815","ios":"levelo://app?vid=a00c218c-138a-4388-aca4-2952a6961815"},"vehicle_type_id":"4","last_reported":1719011235,"current_range_meters":30000,"station_id":"","pricing_plan_id":"cebpf4jnsgd1na2vs0mg"},{"bike_id":"6e445f2c-ca64-4b5f-91f7-41d553691ea5","system_id":"levelo_inurba_marseille","lat":43.33757,"lon":5.37436,"is_reserved":false,"is_disabled":false,"rental_uris":{"android":"levelo://app?vid=6e445f2c-ca64-4b5f-91f7-41d553691ea5","ios":"levelo://app?vid=6e445f2c-ca64-4b5f-91f7-41d553691ea5"},"vehicle_type_id":"4","last_reported":1719011235,"current_range_meters":28800,"station_id":"","pricing_plan_id":"cebpf4jnsgd1na2vs0mg"},{"bike_id":"30e7948a-90c8-487a-af42-e5f1f51298a3","system_id":"levelo_inurba_marseille","lat":43.30642,"lon":5.401031,"is_reserved":false,"is_disabled":false,"rental_uris":{"android":"levelo://app?vid=30e7948a-90c8-487a-af42-e5f1f51298a3","ios":"levelo://app?vid=30e7948a-90c8-487a-af42-e5f1f51298a3"},"vehicle_type_id":"4","last_reported":1719011235,"current_range_meters":15200,"station_id":"ce4bh112rcd13ifvqda0","pricing_plan_id":"cebpf4jnsgd1na2vs0mg"},{"bike_id":"0e11bbab-a5d9-4098-a6f1-624d89f27c59","system_id":"levelo_inurba_marseille","lat":43.337572,"lon":5.374546,"is_reserved":false,"is_disabled":false,"rental_uris":{"android":"levelo://app?vid=0e11bbab-a5d9-4098-a6f1-624d89f27c59","ios":"levelo://app?vid=0e11bbab-a5d9-4098-a6f1-624d89f27c59"},"vehicle_type_id":"4","last_reported":1719011235,"current_range_meters":26400,"station_id":"","pricing_plan_id":"cebpf4jnsgd1na2vs0mg"},{"bike_id":"f561d7db-d287-4281-89a1-38689f004b0a","system_id":"levelo_inurba_marseille","lat":43.306412,"lon":5.401035,"is_reserved":false,"is_disabled":false,"rental_uris":{"android":"levelo://app?vid=f561d7db-d287-4281-89a1-38689f004b0a","ios":"levelo://app?vid=f561d7db-d287-4281-89a1-38689f004b0a"},"vehicle_type_id":"4","last_reported":1719011235,"current_range_meters":9600,"station_id":"ce4bh112rcd13ifvqda0","pricing_plan_id":"cebpf4jnsgd1na2vs0mg"},{"bike_id":"e57ad19d-601c-46ac-be60-3a31d868ce3c","system_id":"levelo_inurba_marseille","lat":43.30642,"lon":5.401031,"is_reserved":false,"is_disabled":false,"rental_uris":{"android":"levelo://app?vid=e57ad19d-601c-46ac-be60-3a31d868ce3c","ios":"levelo://app?vid=e57ad19d-601c-46ac-be60-3a31d868ce3c"},"vehicle_type_id":"4","last_reported":1719011235,"current_range_meters":6400,"station_id":"ce4bh112rcd13ifvqda0","pricing_plan_id":"cebpf4jnsgd1na2vs0mg"},{"bike_id":"2ec1d571-6081-41a0-ae79-434300328945","system_id":"levelo_inurba_marseille","lat":43.306412,"lon":5.401035,"is_reserved":false,"is_disabled":false,"rental_uris":{"android":"levelo://app?vid=2ec1d571-6081-41a0-ae79-434300328945","ios":"levelo://app?vid=2ec1d571-6081-41a0-ae79-434300328945"},"vehicle_type_id":"4","last_reported":1719011235,"current_range_meters":2000,"station_id":"ce4bh112rcd13ifvqda0","pricing_plan_id":"cebpf4jnsgd1na2vs0mg"},{"bike_id":"e7be790b-07e4-40f3-b60f-da683b157943","system_id":"levelo_inurba_marseille","lat":43.33033,"lon":5.39238,"is_reserved":false,"is_disabled":false,"rental_uris":{"android":"levelo://app?vid=e7be790b-07e4-40f3-b60f-da683b157943","ios":"levelo://app?vid=e7be790b-07e4-40f3-b60f-da683b157943"},"vehicle_type_id":"4","last_reported":1719011235,"current_range_meters":21200,"station_id":"","pricing_plan_id":"cebpf4jnsgd1na2vs0mg"},{"bike_id":"ec28470f-1fbe-48d8-93c2-29dc1b101243","system_id":"levelo_inurba_marseille","lat":43.30642,"lon":5.401031,"is_reserved":false,"is_disabled":false,"rental_uris":{"android":"levelo://app?vid=ec28470f-1fbe-48d8-93c2-29dc1b101243","ios":"levelo://app?vid=ec28470f-1fbe-48d8-93c2-29dc1b101243"},"vehicle_type_id":"4","last_reported":1719011235,"current_range_meters":21600,"station_id":"ce4bh112rcd13ifvqda0","pricing_plan_id":"cebpf4jnsgd1na2vs0mg"},{"bike_id":"a77bf3f1-dc55-4e35-8fe0-6292cee970ef","system_id":"levelo_inurba_marseille","lat":43.33035,"lon":5.39239,"is_reserved":false,"is_disabled":false,"rental_uris":{"android":"levelo://app?vid=a77bf3f1-dc55-4e35-8fe0-6292cee970ef","ios":"levelo://app?vid=a77bf3f1-dc55-4e35-8fe0-6292cee970ef"},"vehicle_type_id":"4","last_reported":1719011235,"current_range_meters":24000,"station_id":"","pricing_plan_id":"cebpf4jnsgd1na2vs0mg"},{"bike_id":"6666b99c-d596-4a15-a27d-6eff9cb71a42","system_id":"levelo_inurba_marseille","lat":43.30642,"lon":5.401031,"is_reserved":false,"is_disabled":false,"rental_uris":{"android":"levelo://app?vid=6666b99c-d596-4a15-a27d-6eff9cb71a42","ios":"levelo://app?vid=6666b99c-d596-4a15-a27d-6eff9cb71a42"},"vehicle_type_id":"4","last_reported":1719011235,"current_range_meters":28400,"station_id":"ce4bh112rcd13ifvqda0","pricing_plan_id":"cebpf4jnsgd1na2vs0mg"},{"bike_id":"457259f4-2778-42f8-8372-c6c895d3a51d","system_id":"levelo_inurba_marseille","lat":43.33036,"lon":5.392397,"is_reserved":false,"is_disabled":false,"rental_uris":{"android":"levelo://app?vid=457259f4-2778-42f8-8372-c6c895d3a51d","ios":"levelo://app?vid=457259f4-2778-42f8-8372-c6c895d3a51d"},"vehicle_type_id":"4","last_reported":1719011235,"current_range_meters":12400,"station_id":"","pricing_plan_id":"cebpf4jnsgd1na2vs0mg"},{"bike_id":"efcb056f-00dd-4df5-8f41-2f95f5360961","system_id":"levelo_inurba_marseille","lat":43.306412,"lon":5.401035,"is_reserved":false,"is_disabled":false,"rental_uris":{"android":"levelo://app?vid=efcb056f-00dd-4df5-8f41-2f95f5360961","ios":"levelo://app?vid=efcb056f-00dd-4df5-8f41-2f95f5360961"},"vehicle_type_id":"4","last_reported":1719011235,"current_range_meters":15600,"station_id":"ce4bh112rcd13ifvqda0","pricing_plan_id":"cebpf4jnsgd1na2vs0mg"},{"bike_id":"1577b608-0f5d-4263-a9f7-fd07b16ab79a","system_id":"levelo_inurba_marseille","lat":43.33019,"lon":5.39292,"is_reserved":false,"is_disabled":false,"rental_uris":{"android":"levelo://app?vid=1577b608-0f5d-4263-a9f7-fd07b16ab79a","ios":"levelo://app?vid=1577b608-0f5d-4263-a9f7-fd07b16ab79a"},"vehicle_type_id":"4","last_reported":1719011235,"current_range_meters":20800,"station_id":"","pricing_plan_id":"cebpf4jnsgd1na2vs0mg"},{"bike_id":"1529575d-3c24-4053-9dc4-3fc753c20a3e","system_id":"levelo_inurba_marseille","lat":43.3304,"lon":5.39281,"is_reserved":false,"is_disabled":false,"rental_uris":{"android":"levelo://app?vid=1529575d-3c24-4053-9dc4-3fc753c20a3e","ios":"levelo://app?vid=1529575d-3c24-4053-9dc4-3fc753c20a3e"},"vehicle_type_id":"4","last_reported":1719011235,"current_range_meters":4000,"station_id":"","pricing_plan_id":"cebpf4jnsgd1na2vs0mg"},{"bike_id":"926f5355-db6e-4146-9027-5b17caea6129","system_id":"levelo_inurba_marseille","lat":43.3012,"lon":5.39867,"is_reserved":false,"is_disabled":false,"rental_uris":{"android":"levelo://app?vid=926f5355-db6e-4146-9027-5b17caea6129","ios":"levelo://app?vid=926f5355-db6e-4146-9027-5b17caea6129"},"vehicle_type_id":"4","last_reported":1719011235,"current_range_meters":16800,"station_id":"ce4bh0h2rcd13ifvqd40","pricing_plan_id":"cebpf4jnsgd1na2vs0mg"},{"bike_id":"573e58c9-2e4b-411a-aa28-af9148630f17","system_id":"levelo_inurba_marseille","lat":43.28727,"lon":5.36078,"is_reserved":false,"is_disabled":false,"rental_uris":{"android":"levelo://app?vid=573e58c9-2e4b-411a-aa28-af9148630f17","ios":"levelo://app?vid=573e58c9-2e4b-411a-aa28-af9148630f17"},"vehicle_type_id":"4","last_reported":1719011235,"current_range_meters":3200,"station_id":"cki0cbj6b192h4jlfktg","pricing_plan_id":"cebpf4jnsgd1na2vs0mg"},{"bike_id":"67f1322e-b74f-4390-aee1-c14e1b9e8bc0","system_id":"levelo_inurba_marseille","lat":43.28667,"lon":5.36352,"is_reserved":false,"is_disabled":false,"rental_uris":{"android":"levelo://app?vid=67f1322e-b74f-4390-aee1-c14e1b9e8bc0","ios":"levelo://app?vid=67f1322e-b74f-4390-aee1-c14e1b9e8bc0"},"vehicle_type_id":"4","last_reported":1719011235,"current_range_meters":800,"station_id":"ce4bhah2rcd13ifvqej0","pricing_plan_id":"cebpf4jnsgd1na2vs0mg"},{"bike_id":"f463363f-b9f8-476a-a920-55e9cc575017","system_id":"levelo_inurba_marseille","lat":43.298681,"lon":5.397225,"is_reserved":false,"is_disabled":false,"rental_uris":{"android":"levelo://app?vid=f463363f-b9f8-476a-a920-55e9cc575017","ios":"levelo://app?vid=f463363f-b9f8-476a-a920-55e9cc575017"},"vehicle_type_id":"4","last_reported":1719011235,"current_range_meters":8800,"station_id":"ce4bh0h2rcd13ifvqd50","pricing_plan_id":"cebpf4jnsgd1na2vs0mg"},{"bike_id":"45b90011-0a1d-488e-99a5-c1c560bfe696","system_id":"levelo_inurba_marseille","lat":43.286593,"lon":5.363346,"is_reserved":false,"is_disabled":false,"rental_uris":{"android":"levelo://app?vid=45b90011-0a1d-488e-99a5-c1c560bfe696","ios":"levelo://app?vid=45b90011-0a1d-488e-99a5-c1c560bfe696"},"vehicle_type_id":"4","last_reported":1719011235,"current_range_meters":5600,"station_id":"ce4bhah2rcd13ifvqej0","pricing_plan_id":"cebpf4jnsgd1na2vs0mg"},{"bike_id":"a427a10d-f742-456f-b322-e659c674fbc3","system_id":"levelo_inurba_marseille","lat":43.286591,"lon":5.363346,"is_reserved":false,"is_disabled":false,"rental_uris":{"android":"levelo://app?vid=a427a10d-f742-456f-b322-e659c674fbc3","ios":"levelo://app?vid=a427a10d-f742-456f-b322-e659c674fbc3"},"vehicle_type_id":"4","last_reported":1719011235,"current_range_meters":14800,"station_id":"ce4bhah2rcd13ifvqej0","pricing_plan_id":"cebpf4jnsgd1na2vs0mg"},{"bike_id":"70ecbd02-6c0d-4e95-88ca-a7a97d063944","system_id":"levelo_inurba_marseille","lat":43.286961,"lon":5.373785,"is_reserved":false,"is_disabled":false,"rental_uris":{"android":"levelo://app?vid=70ecbd02-6c0d-4e95-88ca-a7a97d063944","ios":"levelo://app?vid=70ecbd02-6c0d-4e95-88ca-a7a97d063944"},"vehicle_type_id":"4","last_reported":1719011235,"current_range_meters":3600,"station_id":"ce4bh3p2rcd13ifvqdq0","pricing_plan_id":"cebpf4jnsgd1na2vs0mg"},{"bike_id":"7e92a0c2-401d-412a-9f40-ab37b1615b35","system_id":"levelo_inurba_marseille","lat":43.286961,"lon":5.373785,"is_reserved":false,"is_disabled":false,"rental_uris":{"android":"levelo://app?vid=7e92a0c2-401d-412a-9f40-ab37b1615b35","ios":"levelo://app?vid=7e92a0c2-401d-412a-9f40-ab37b1615b35"},"vehicle_type_id":"4","last_reported":1719011235,"current_range_meters":20000,"station_id":"ce4bh3p2rcd13ifvqdq0","pricing_plan_id":"cebpf4jnsgd1na2vs0mg"},{"bike_id":"5e0dd7ef-7f77-4be0-8635-d24d18dbceb0","system_id":"levelo_inurba_marseille","lat":43.29027,"lon":5.38639,"is_reserved":false,"is_disabled":false,"rental_uris":{"android":"levelo://app?vid=5e0dd7ef-7f77-4be0-8635-d24d18dbceb0","ios":"levelo://app?vid=5e0dd7ef-7f77-4be0-8635-d24d18dbceb0"},"vehicle_type_id":"4","last_reported":1719011235,"current_range_meters":0,"station_id":"ce4bh4p2rcd13ifvqe0g","pricing_plan_id":"cebpf4jnsgd1na2vs0mg"},{"bike_id":"ce38d252-fafb-45d7-aef7-6e41d99ccde6","system_id":"levelo_inurba_marseille","lat":43.30239,"lon":5.40055,"is_reserved":false,"is_disabled":false,"rental_uris":{"android":"levelo://app?vid=ce38d252-fafb-45d7-aef7-6e41d99ccde6","ios":"levelo://app?vid=ce38d252-fafb-45d7-aef7-6e41d99ccde6"},"vehicle_type_id":"4","last_reported":1719011235,"current_range_meters":800,"station_id":"ce4bgvh2rcd13ifvqcs0","pricing_plan_id":"cebpf4jnsgd1na2vs0mg"},{"bike_id":"607b6697-2583-463c-9c14-945eabbe5c24","system_id":"levelo_inurba_marseille","lat":43.302759,"lon":5.400793,"is_reserved":false,"is_disabled":false,"rental_uris":{"android":"levelo://app?vid=607b6697-2583-463c-9c14-945eabbe5c24","ios":"levelo://app?vid=607b6697-2583-463c-9c14-945eabbe5c24"},"vehicle_type_id":"4","last_reported":1719011235,"current_range_meters":12000,"station_id":"ce4bgvh2rcd13ifvqcs0","pricing_plan_id":"cebpf4jnsgd1na2vs0mg"},{"bike_id":"ff59ee22-4561-476b-bc43-efe0f4ad3f66","system_id":"levelo_inurba_marseille","lat":43.29021,"lon":5.38637,"is_reserved":false,"is_disabled":false,"rental_uris":{"android":"levelo://app?vid=ff59ee22-4561-476b-bc43-efe0f4ad3f66","ios":"levelo://app?vid=ff59ee22-4561-476b-bc43-efe0f4ad3f66"},"vehicle_type_id":"4","last_reported":1719011235,"current_range_meters":0,"station_id":"ce4bh4p2rcd13ifvqe0g","pricing_plan_id":"cebpf4jnsgd1na2vs0mg"},{"bike_id":"54fdbf5f-571d-43e1-82d4-954a07ba734f","system_id":"levelo_inurba_marseille","lat":43.30223,"lon":5.40052,"is_reserved":false,"is_disabled":false,"rental_uris":{"android":"levelo://app?vid=54fdbf5f-571d-43e1-82d4-954a07ba734f","ios":"levelo://app?vid=54fdbf5f-571d-43e1-82d4-954a07ba734f"},"vehicle_type_id":"4","last_reported":1719011235,"current_range_meters":0,"station_id":"ce4bgvh2rcd13ifvqcs0","pricing_plan_id":"cebpf4jnsgd1na2vs0mg"},{"bike_id":"31fcf66e-fb5e-4c6b-afa5-0ae6642983d1","system_id":"levelo_inurba_marseille","lat":43.29529,"lon":5.385581,"is_reserved":false,"is_disabled":false,"rental_uris":{"android":"levelo://app?vid=31fcf66e-fb5e-4c6b-afa5-0ae6642983d1","ios":"levelo://app?vid=31fcf66e-fb5e-4c6b-afa5-0ae6642983d1"},"vehicle_type_id":"4","last_reported":1719011235,"current_range_meters":0,"station_id":"ce4bgih2rcd13ifvqba0","pricing_plan_id":"cebpf4jnsgd1na2vs0mg"},{"bike_id":"20c856e7-2e8a-470a-b66b-85d4c8520c0b","system_id":"levelo_inurba_marseille","lat":43.286039,"lon":5.370679,"is_reserved":false,"is_disabled":false,"rental_uris":{"android":"levelo://app?vid=20c856e7-2e8a-470a-b66b-85d4c8520c0b","ios":"levelo://app?vid=20c856e7-2e8a-470a-b66b-85d4c8520c0b"},"vehicle_type_id":"4","last_reported":1719011235,"current_range_meters":27200,"station_id":"ce4bht12rcd13ifvqi60","pricing_plan_id":"cebpf4jnsgd1na2vs0mg"},{"bike_id":"83e59a6d-62b2-4362-a172-9742d9147169","system_id":"levelo_inurba_marseille","lat":43.286039,"lon":5.370681,"is_reserved":false,"is_disabled":false,"rental_uris":{"android":"levelo://app?vid=83e59a6d-62b2-4362-a172-9742d9147169","ios":"levelo://app?vid=83e59a6d-62b2-4362-a172-9742d9147169"},"vehicle_type_id":"4","last_reported":1719011235,"current_range_meters":12000,"station_id":"ce4bht12rcd13ifvqi60","pricing_plan_id":"cebpf4jnsgd1na2vs0mg"},{"bike_id":"58cc2849-0457-404e-8153-32a30fc3649a","system_id":"levelo_inurba_marseille","lat":43.28717,"lon":5.37943,"is_reserved":false,"is_disabled":false,"rental_uris":{"android":"levelo://app?vid=58cc2849-0457-404e-8153-32a30fc3649a","ios":"levelo://app?vid=58cc2849-0457-404e-8153-32a30fc3649a"},"vehicle_type_id":"4","last_reported":1719011235,"current_range_meters":0,"station_id":"ce4bh9p2rcd13ifvqec0","pricing_plan_id":"cebpf4jnsgd1na2vs0mg"},{"bike_id":"b315bea8-c535-4f61-8fde-bef44fc7e49e","system_id":"levelo_inurba_marseille","lat":43.316821,"lon":5.404737,"is_reserved":false,"is_disabled":false,"rental_uris":{"android":"levelo://app?vid=b315bea8-c535-4f61-8fde-bef44fc7e49e","ios":"levelo://app?vid=b315bea8-c535-4f61-8fde-bef44fc7e49e"},"vehicle_type_id":"4","last_reported":1719011235,"current_range_meters":24000,"station_id":"ce4bh012rcd13ifvqd00","pricing_plan_id":"cebpf4jnsgd1na2vs0mg"},{"bike_id":"d64c4fa0-4327-49a6-8ad4-fedabaf2064a","system_id":"levelo_inurba_marseille","lat":43.316828,"lon":5.404723,"is_reserved":false,"is_disabled":false,"rental_uris":{"android":"levelo://app?vid=d64c4fa0-4327-49a6-8ad4-fedabaf2064a","ios":"levelo://app?vid=d64c4fa0-4327-49a6-8ad4-fedabaf2064a"},"vehicle_type_id":"4","last_reported":1719011235,"current_range_meters":800,"station_id":"ce4bh012rcd13ifvqd00","pricing_plan_id":"cebpf4jnsgd1na2vs0mg"},{"bike_id":"b0b54d9d-8ee0-4aba-9349-40a67b36ba83","system_id":"levelo_inurba_marseille","lat":43.317,"lon":5.40471,"is_reserved":false,"is_disabled":false,"rental_uris":{"android":"levelo://app?vid=b0b54d9d-8ee0-4aba-9349-40a67b36ba83","ios":"levelo://app?vid=b0b54d9d-8ee0-4aba-9349-40a67b36ba83"},"vehicle_type_id":"4","last_reported":1719011235,"current_range_meters":0,"station_id":"ce4bh012rcd13ifvqd00","pricing_plan_id":"cebpf4jnsgd1na2vs0mg"},{"bike_id":"5bf97882-88fa-4be1-ba47-d4fa300c8530","system_id":"levelo_inurba_marseille","lat":43.316821,"lon":5.404737,"is_reserved":false,"is_disabled":false,"rental_uris":{"android":"levelo://app?vid=5bf97882-88fa-4be1-ba47-d4fa300c8530","ios":"levelo://app?vid=5bf97882-88fa-4be1-ba47-d4fa300c8530"},"vehicle_type_id":"4","last_reported":1719011235,"current_range_meters":0,"station_id":"ce4bh012rcd13ifvqd00","pricing_plan_id":"cebpf4jnsgd1na2vs0mg"},{"bike_id":"76c15c1f-5658-41e3-881b-d1b5da8d6ca1","system_id":"levelo_inurba_marseille","lat":43.30312,"lon":5.4035,"is_reserved":false,"is_disabled":false,"rental_uris":{"android":"levelo://app?vid=76c15c1f-5658-41e3-881b-d1b5da8d6ca1","ios":"levelo://app?vid=76c15c1f-5658-41e3-881b-d1b5da8d6ca1"},"vehicle_type_id":"4","last_reported":1719011235,"current_range_meters":4000,"station_id":"","pricing_plan_id":"cebpf4jnsgd1na2vs0mg"},{"bike_id":"c2bb6be1-40e8-407b-9856-c48f6df02945","system_id":"levelo_inurba_marseille","lat":43.283998,"lon":5.375062,"is_reserved":false,"is_disabled":false,"rental_uris":{"android":"levelo://app?vid=c2bb6be1-40e8-407b-9856-c48f6df02945","ios":"levelo://app?vid=c2bb6be1-40e8-407b-9856-c48f6df02945"},"vehicle_type_id":"4","last_reported":1719011235,"current_range_meters":22800,"station_id":"ce4bh412rcd13ifvqds0","pricing_plan_id":"cebpf4jnsgd1na2vs0mg"},{"bike_id":"b675c5fb-83bc-406d-99cd-1b4fac6e695e","system_id":"levelo_inurba_marseille","lat":43.285823,"lon":5.37998,"is_reserved":false,"is_disabled":false,"rental_uris":{"android":"levelo://app?vid=b675c5fb-83bc-406d-99cd-1b4fac6e695e","ios":"levelo://app?vid=b675c5fb-83bc-406d-99cd-1b4fac6e695e"},"vehicle_type_id":"4","last_reported":1719011235,"current_range_meters":21600,"station_id":"","pricing_plan_id":"cebpf4jnsgd1na2vs0mg"},{"bike_id":"576f8d08-ea7e-4b4f-90c4-782aad8ed114","system_id":"levelo_inurba_marseille","lat":43.284534,"lon":5.358662,"is_reserved":false,"is_disabled":false,"rental_uris":{"android":"levelo://app?vid=576f8d08-ea7e-4b4f-90c4-782aad8ed114","ios":"levelo://app?vid=576f8d08-ea7e-4b4f-90c4-782aad8ed114"},"vehicle_type_id":"4","last_reported":1719011235,"current_range_meters":25600,"station_id":"ce4bhah2rcd13ifvqei0","pricing_plan_id":"cebpf4jnsgd1na2vs0mg"},{"bike_id":"c9cb500b-b7f7-45d8-aab6-bbf8542414bb","system_id":"levelo_inurba_marseille","lat":43.284538,"lon":5.358657,"is_reserved":false,"is_disabled":false,"rental_uris":{"android":"levelo://app?vid=c9cb500b-b7f7-45d8-aab6-bbf8542414bb","ios":"levelo://app?vid=c9cb500b-b7f7-45d8-aab6-bbf8542414bb"},"vehicle_type_id":"4","last_reported":1719011235,"current_range_meters":13200,"station_id":"ce4bhah2rcd13ifvqei0","pricing_plan_id":"cebpf4jnsgd1na2vs0mg"},{"bike_id":"30bb9a79-f546-4f4d-95d5-c9befe13e2ae","system_id":"levelo_inurba_marseille","lat":43.284534,"lon":5.358662,"is_reserved":false,"is_disabled":false,"rental_uris":{"android":"levelo://app?vid=30bb9a79-f546-4f4d-95d5-c9befe13e2ae","ios":"levelo://app?vid=30bb9a79-f546-4f4d-95d5-c9befe13e2ae"},"vehicle_type_id":"4","last_reported":1719011235,"current_range_meters":8000,"station_id":"ce4bhah2rcd13ifvqei0","pricing_plan_id":"cebpf4jnsgd1na2vs0mg"},{"bike_id":"2d327199-f98d-4bfd-bef5-87a94b883aee","system_id":"levelo_inurba_marseille","lat":43.28464,"lon":5.3589,"is_reserved":false,"is_disabled":false,"rental_uris":{"android":"levelo://app?vid=2d327199-f98d-4bfd-bef5-87a94b883aee","ios":"levelo://app?vid=2d327199-f98d-4bfd-bef5-87a94b883aee"},"vehicle_type_id":"4","last_reported":1719011235,"current_range_meters":31200,"station_id":"ce4bhah2rcd13ifvqei0","pricing_plan_id":"cebpf4jnsgd1na2vs0mg"},{"bike_id":"fa2c788c-4d45-4697-a576-86c0e38da76a","system_id":"levelo_inurba_marseille","lat":43.284538,"lon":5.358657,"is_reserved":false,"is_disabled":false,"rental_uris":{"android":"levelo://app?vid=fa2c788c-4d45-4697-a576-86c0e38da76a","ios":"levelo://app?vid=fa2c788c-4d45-4697-a576-86c0e38da76a"},"vehicle_type_id":"4","last_reported":1719011235,"current_range_meters":0,"station_id":"ce4bhah2rcd13ifvqei0","pricing_plan_id":"cebpf4jnsgd1na2vs0mg"},{"bike_id":"330a5808-b4ca-405d-8773-b2c84b56174e","system_id":"levelo_inurba_marseille","lat":43.284534,"lon":5.358662,"is_reserved":false,"is_disabled":false,"rental_uris":{"android":"levelo://app?vid=330a5808-b4ca-405d-8773-b2c84b56174e","ios":"levelo://app?vid=330a5808-b4ca-405d-8773-b2c84b56174e"},"vehicle_type_id":"4","last_reported":1719011235,"current_range_meters":3600,"station_id":"ce4bhah2rcd13ifvqei0","pricing_plan_id":"cebpf4jnsgd1na2vs0mg"},{"bike_id":"bdcdd691-e233-42cb-a212-8f967c3eb979","system_id":"levelo_inurba_marseille","lat":43.284538,"lon":5.358657,"is_reserved":false,"is_disabled":false,"rental_uris":{"android":"levelo://app?vid=bdcdd691-e233-42cb-a212-8f967c3eb979","ios":"levelo://app?vid=bdcdd691-e233-42cb-a212-8f967c3eb979"},"vehicle_type_id":"4","last_reported":1719011235,"current_range_meters":30400,"station_id":"ce4bhah2rcd13ifvqei0","pricing_plan_id":"cebpf4jnsgd1na2vs0mg"},{"bike_id":"dbfa210b-8056-4ee0-a689-86b3c1738897","system_id":"levelo_inurba_marseille","lat":43.28462,"lon":5.35881,"is_reserved":false,"is_disabled":false,"rental_uris":{"android":"levelo://app?vid=dbfa210b-8056-4ee0-a689-86b3c1738897","ios":"levelo://app?vid=dbfa210b-8056-4ee0-a689-86b3c1738897"},"vehicle_type_id":"4","last_reported":1719011235,"current_range_meters":28800,"station_id":"ce4bhah2rcd13ifvqei0","pricing_plan_id":"cebpf4jnsgd1na2vs0mg"},{"bike_id":"dda07ad4-06bc-4678-92cd-eae5abe506ca","system_id":"levelo_inurba_marseille","lat":43.28461,"lon":5.35886,"is_reserved":false,"is_disabled":false,"rental_uris":{"android":"levelo://app?vid=dda07ad4-06bc-4678-92cd-eae5abe506ca","ios":"levelo://app?vid=dda07ad4-06bc-4678-92cd-eae5abe506ca"},"vehicle_type_id":"4","last_reported":1719011235,"current_range_meters":13600,"station_id":"ce4bhah2rcd13ifvqei0","pricing_plan_id":"cebpf4jnsgd1na2vs0mg"},{"bike_id":"16927f90-2fc5-470e-b9a1-00fadc2237bd","system_id":"levelo_inurba_marseille","lat":43.284534,"lon":5.358662,"is_reserved":false,"is_disabled":false,"rental_uris":{"android":"levelo://app?vid=16927f90-2fc5-470e-b9a1-00fadc2237bd","ios":"levelo://app?vid=16927f90-2fc5-470e-b9a1-00fadc2237bd"},"vehicle_type_id":"4","last_reported":1719011235,"current_range_meters":30400,"station_id":"ce4bhah2rcd13ifvqei0","pricing_plan_id":"cebpf4jnsgd1na2vs0mg"},{"bike_id":"8fe48a6b-5d7f-4828-a2a0-6b730f9d20b8","system_id":"levelo_inurba_marseille","lat":43.284534,"lon":5.358662,"is_reserved":false,"is_disabled":false,"rental_uris":{"android":"levelo://app?vid=8fe48a6b-5d7f-4828-a2a0-6b730f9d20b8","ios":"levelo://app?vid=8fe48a6b-5d7f-4828-a2a0-6b730f9d20b8"},"vehicle_type_id":"4","last_reported":1719011235,"current_range_meters":1600,"station_id":"ce4bhah2rcd13ifvqei0","pricing_plan_id":"cebpf4jnsgd1na2vs0mg"},{"bike_id":"a8b1566b-6712-43d0-98a0-f401f72be799","system_id":"levelo_inurba_marseille","lat":43.284538,"lon":5.358657,"is_reserved":false,"is_disabled":false,"rental_uris":{"android":"levelo://app?vid=a8b1566b-6712-43d0-98a0-f401f72be799","ios":"levelo://app?vid=a8b1566b-6712-43d0-98a0-f401f72be799"},"vehicle_type_id":"4","last_reported":1719011235,"current_range_meters":28800,"station_id":"ce4bhah2rcd13ifvqei0","pricing_plan_id":"cebpf4jnsgd1na2vs0mg"},{"bike_id":"4021a552-3f81-449c-aef8-619cb68f236a","system_id":"levelo_inurba_marseille","lat":43.284534,"lon":5.358662,"is_reserved":false,"is_disabled":false,"rental_uris":{"android":"levelo://app?vid=4021a552-3f81-449c-aef8-619cb68f236a","ios":"levelo://app?vid=4021a552-3f81-449c-aef8-619cb68f236a"},"vehicle_type_id":"4","last_reported":1719011235,"current_range_meters":0,"station_id":"ce4bhah2rcd13ifvqei0","pricing_plan_id":"cebpf4jnsgd1na2vs0mg"},{"bike_id":"f8b214de-cdba-4274-87cd-edba43074b07","system_id":"levelo_inurba_marseille","lat":43.284534,"lon":5.358662,"is_reserved":false,"is_disabled":false,"rental_uris":{"android":"levelo://app?vid=f8b214de-cdba-4274-87cd-edba43074b07","ios":"levelo://app?vid=f8b214de-cdba-4274-87cd-edba43074b07"},"vehicle_type_id":"4","last_reported":1719011235,"current_range_meters":28400,"station_id":"ce4bhah2rcd13ifvqei0","pricing_plan_id":"cebpf4jnsgd1na2vs0mg"},{"bike_id":"80144828-ccad-40ac-85d3-b0273fe478bc","system_id":"levelo_inurba_marseille","lat":43.284534,"lon":5.358662,"is_reserved":false,"is_disabled":false,"rental_uris":{"android":"levelo://app?vid=80144828-ccad-40ac-85d3-b0273fe478bc","ios":"levelo://app?vid=80144828-ccad-40ac-85d3-b0273fe478bc"},"vehicle_type_id":"4","last_reported":1719011235,"current_range_meters":6000,"station_id":"ce4bhah2rcd13ifvqei0","pricing_plan_id":"cebpf4jnsgd1na2vs0mg"},{"bike_id":"2ee313ee-2637-4fdc-8422-243e52ceea4c","system_id":"levelo_inurba_marseille","lat":43.284534,"lon":5.358662,"is_reserved":false,"is_disabled":false,"rental_uris":{"android":"levelo://app?vid=2ee313ee-2637-4fdc-8422-243e52ceea4c","ios":"levelo://app?vid=2ee313ee-2637-4fdc-8422-243e52ceea4c"},"vehicle_type_id":"4","last_reported":1719011235,"current_range_meters":15600,"station_id":"ce4bhah2rcd13ifvqei0","pricing_plan_id":"cebpf4jnsgd1na2vs0mg"},{"bike_id":"a9c0b233-1bc8-4e92-bb0d-ec00e286d98e","system_id":"levelo_inurba_marseille","lat":43.284534,"lon":5.358662,"is_reserved":false,"is_disabled":false,"rental_uris":{"android":"levelo://app?vid=a9c0b233-1bc8-4e92-bb0d-ec00e286d98e","ios":"levelo://app?vid=a9c0b233-1bc8-4e92-bb0d-ec00e286d98e"},"vehicle_type_id":"4","last_reported":1719011235,"current_range_meters":26000,"station_id":"ce4bhah2rcd13ifvqei0","pricing_plan_id":"cebpf4jnsgd1na2vs0mg"},{"bike_id":"87aceeb5-60be-4125-ac2b-4e87f6e5b2d7","system_id":"levelo_inurba_marseille","lat":43.285856,"lon":5.350771,"is_reserved":false,"is_disabled":false,"rental_uris":{"android":"levelo://app?vid=87aceeb5-60be-4125-ac2b-4e87f6e5b2d7","ios":"levelo://app?vid=87aceeb5-60be-4125-ac2b-4e87f6e5b2d7"},"vehicle_type_id":"4","last_reported":1719011235,"current_range_meters":12400,"station_id":"ce4bhch2rcd13ifvqeug","pricing_plan_id":"cebpf4jnsgd1na2vs0mg"},{"bike_id":"03d53a45-dfdc-488b-a29f-1dcbb8b5fc65","system_id":"levelo_inurba_marseille","lat":43.283998,"lon":5.375062,"is_reserved":false,"is_disabled":false,"rental_uris":{"android":"levelo://app?vid=03d53a45-dfdc-488b-a29f-1dcbb8b5fc65","ios":"levelo://app?vid=03d53a45-dfdc-488b-a29f-1dcbb8b5fc65"},"vehicle_type_id":"4","last_reported":1719011235,"current_range_meters":0,"station_id":"ce4bh412rcd13ifvqds0","pricing_plan_id":"cebpf4jnsgd1na2vs0mg"},{"bike_id":"ddaeadef-7c60-4364-9f2c-d401824f7a14","system_id":"levelo_inurba_marseille","lat":43.283998,"lon":5.375062,"is_reserved":false,"is_disabled":false,"rental_uris":{"android":"levelo://app?vid=ddaeadef-7c60-4364-9f2c-d401824f7a14","ios":"levelo://app?vid=ddaeadef-7c60-4364-9f2c-d401824f7a14"},"vehicle_type_id":"4","last_reported":1719011235,"current_range_meters":400,"station_id":"ce4bh412rcd13ifvqds0","pricing_plan_id":"cebpf4jnsgd1na2vs0mg"},{"bike_id":"50ccb086-420a-4629-8169-25d19dd4a043","system_id":"levelo_inurba_marseille","lat":43.284056,"lon":5.375166,"is_reserved":false,"is_disabled":false,"rental_uris":{"android":"levelo://app?vid=50ccb086-420a-4629-8169-25d19dd4a043","ios":"levelo://app?vid=50ccb086-420a-4629-8169-25d19dd4a043"},"vehicle_type_id":"4","last_reported":1719011235,"current_range_meters":28000,"station_id":"ce4bh412rcd13ifvqds0","pricing_plan_id":"cebpf4jnsgd1na2vs0mg"},{"bike_id":"876f1691-beea-47d7-82a3-1fc50873d1ec","system_id":"levelo_inurba_marseille","lat":43.283998,"lon":5.375062,"is_reserved":false,"is_disabled":false,"rental_uris":{"android":"levelo://app?vid=876f1691-beea-47d7-82a3-1fc50873d1ec","ios":"levelo://app?vid=876f1691-beea-47d7-82a3-1fc50873d1ec"},"vehicle_type_id":"4","last_reported":1719011235,"current_range_meters":20400,"station_id":"ce4bh412rcd13ifvqds0","pricing_plan_id":"cebpf4jnsgd1na2vs0mg"},{"bike_id":"0af6fa1b-2584-498c-aed9-bdd826bc7361","system_id":"levelo_inurba_marseille","lat":43.28401,"lon":5.3751,"is_reserved":false,"is_disabled":false,"rental_uris":{"android":"levelo://app?vid=0af6fa1b-2584-498c-aed9-bdd826bc7361","ios":"levelo://app?vid=0af6fa1b-2584-498c-aed9-bdd826bc7361"},"vehicle_type_id":"4","last_reported":1719011235,"current_range_meters":2400,"station_id":"ce4bh412rcd13ifvqds0","pricing_plan_id":"cebpf4jnsgd1na2vs0mg"},{"bike_id":"8b19b793-8e5a-41fa-ac3a-8c80c1cdceed","system_id":"levelo_inurba_marseille","lat":43.299569,"lon":5.403035,"is_reserved":false,"is_disabled":false,"rental_uris":{"android":"levelo://app?vid=8b19b793-8e5a-41fa-ac3a-8c80c1cdceed","ios":"levelo://app?vid=8b19b793-8e5a-41fa-ac3a-8c80c1cdceed"},"vehicle_type_id":"4","last_reported":1719011235,"current_range_meters":19200,"station_id":"","pricing_plan_id":"cebpf4jnsgd1na2vs0mg"},{"bike_id":"5f11e4d7-ca6e-4afa-9466-632b95b239d5","system_id":"levelo_inurba_marseille","lat":43.331999,"lon":5.398266,"is_reserved":false,"is_disabled":false,"rental_uris":{"android":"levelo://app?vid=5f11e4d7-ca6e-4afa-9466-632b95b239d5","ios":"levelo://app?vid=5f11e4d7-ca6e-4afa-9466-632b95b239d5"},"vehicle_type_id":"4","last_reported":1719011235,"current_range_meters":2800,"station_id":"","pricing_plan_id":"cebpf4jnsgd1na2vs0mg"},{"bike_id":"95e2fada-9da0-4f78-bf52-39b1c8193879","system_id":"levelo_inurba_marseille","lat":43.319179,"lon":5.407725,"is_reserved":false,"is_disabled":false,"rental_uris":{"android":"levelo://app?vid=95e2fada-9da0-4f78-bf52-39b1c8193879","ios":"levelo://app?vid=95e2fada-9da0-4f78-bf52-39b1c8193879"},"vehicle_type_id":"4","last_reported":1719011235,"current_range_meters":30000,"station_id":"ce4bhq12rcd13ifvqhig","pricing_plan_id":"cebpf4jnsgd1na2vs0mg"},{"bike_id":"387e5e34-f79e-4af5-aa59-544470ddf611","system_id":"levelo_inurba_marseille","lat":43.283498,"lon":5.380948,"is_reserved":false,"is_disabled":false,"rental_uris":{"android":"levelo://app?vid=387e5e34-f79e-4af5-aa59-544470ddf611","ios":"levelo://app?vid=387e5e34-f79e-4af5-aa59-544470ddf611"},"vehicle_type_id":"4","last_reported":1719011235,"current_range_meters":10000,"station_id":"ce4bh412rcd13ifvqdr0","pricing_plan_id":"cebpf4jnsgd1na2vs0mg"},{"bike_id":"bd066716-12ed-47f5-b4a0-7e6cddc726bd","system_id":"levelo_inurba_marseille","lat":43.337168,"lon":5.391825,"is_reserved":false,"is_disabled":false,"rental_uris":{"android":"levelo://app?vid=bd066716-12ed-47f5-b4a0-7e6cddc726bd","ios":"levelo://app?vid=bd066716-12ed-47f5-b4a0-7e6cddc726bd"},"vehicle_type_id":"4","last_reported":1719011235,"current_range_meters":19200,"station_id":"ce4bhr92rcd13ifvqhsg","pricing_plan_id":"cebpf4jnsgd1na2vs0mg"},{"bike_id":"c5ff62e1-e812-4927-b7c0-9b56279b2bcd","system_id":"levelo_inurba_marseille","lat":43.33717,"lon":5.391857,"is_reserved":false,"is_disabled":false,"rental_uris":{"android":"levelo://app?vid=c5ff62e1-e812-4927-b7c0-9b56279b2bcd","ios":"levelo://app?vid=c5ff62e1-e812-4927-b7c0-9b56279b2bcd"},"vehicle_type_id":"4","last_reported":1719011235,"current_range_meters":27200,"station_id":"ce4bhr92rcd13ifvqhsg","pricing_plan_id":"cebpf4jnsgd1na2vs0mg"},{"bike_id":"4fcdae08-3043-4206-9a57-2a671324b791","system_id":"levelo_inurba_marseille","lat":43.323464,"lon":5.406297,"is_reserved":false,"is_disabled":false,"rental_uris":{"android":"levelo://app?vid=4fcdae08-3043-4206-9a57-2a671324b791","ios":"levelo://app?vid=4fcdae08-3043-4206-9a57-2a671324b791"},"vehicle_type_id":"4","last_reported":1719011235,"current_range_meters":26400,"station_id":"ce4bhq92rcd13ifvqhjg","pricing_plan_id":"cebpf4jnsgd1na2vs0mg"},