{"last_updated":1744448994,"ttl":60,"version":"2.2","data":{"bikes":[{"bike_id":"aaf0bea2-a073-4f6c-a7b6-3956f84fd9d6","system_id":"levelo_inurba_marseille","lat":43.30158,"lon":5.36748,"is_reserved":false,"is_disabled":false,"rental_uris":{"android":"levelo://app?vid=aaf0bea2-a073-4f6c-a7b6-3956f84fd9d6","ios":"levelo://app?vid=aaf0bea2-a073-4f6c-a7b6-3956f84fd9d6"},"vehicle_type_id":"4","last_reported":1744448994,"current_range_meters":2800,"station_id":"","pricing_plan_id":"cebpf4jnsgd1na2vs0mg"},{"bike_id":"86f47f93-2e6d-4022-ab04-75695eafee0d","system_id":"levelo_inurba_marseille","lat":43.26211,"lon":5.37438,"is_reserved":false,"is_disabled":false,"rental_uris":{"android":"levelo://app?vid=86f47f93-2e6d-4022-ab04-75695eafee0d","ios":"levelo://app?vid=86f47f93-2e6d-4022-ab04-75695eafee0d"},"vehicle_type_id":"4","last_reported":1744448994,"current_range_meters":2800,"station_id":"ce4bhgp2rcd13ifvqfc0","pricing_plan_id":"cebpf4jnsgd1na2vs0mg"},{"bike_id":"746882f3-3ca4-4d59-b993-6b1f5c3920bf","system_id":"levelo_inurba_marseille","lat":43.29253,"lon":5.40918,"is_reserved":false,"is_disabled":true,"rental_uris":{"android":"levelo://app?vid=746882f3-3ca4-4d59-b993-6b1f5c3920bf","ios":"levelo://app?vid=746882f3-3ca4-4d59-b993-6b1f5c3920bf"},"vehicle_type_id":"4","last_reported":1744448994,"current_range_meters":2800,"station_id":"ce4bh192rcd13ifvqdc0","pricing_plan_id":"cebpf4jnsgd1na2vs0mg"},{"bike_id":"e99f5290-1466-47b7-987b-c1ba64057cd2","system_id":"levelo_inurba_marseille","lat":43.24691,"lon":5.41185,"is_reserved":false,"is_disabled":true,"rental_uris":{"android":"levelo://app?vid=e99f5290-1466-47b7-987b-c1ba64057cd2","ios":"levelo://app?vid=e99f5290-1466-47b7-987b-c1ba64057cd2"},"vehicle_type_id":"4","last_reported":1744448994,"current_range_meters":3200,"station_id":"","pricing_plan_id":"cebpf4jnsgd1na2vs0mg"},{"bike_id":"460b2ebc-000e-4ea6-86da-9cfcf42a52fd","system_id":"levelo_inurba_marseille","lat":43.24693,"lon":5.38162,"is_reserved":false,"is_disabled":false,"rental_uris":{"android":"levelo://app?vid=460b2ebc-000e-4ea6-86da-9cfcf42a52fd","ios":"levelo://app?vid=460b2ebc-000e-4ea6-86da-9cfcf42a52fd"},"vehicle_type_id":"4","last_reported":1744448994,"current_range_meters":3200,"station_id":"ce4bhih2rcd13ifvqfr0","pricing_plan_id":"cebpf4jnsgd1na2vs0mg"},{"bike_id":"ccc94a69-3226-41bf-b4c5-25338fed7246","system_id":"levelo_inurba_marseille","lat":43.29526,"lon":5.38537,"is_reserved":false,"is_disabled":false,"rental_uris":{"android":"levelo://app?vid=ccc94a69-3226-41bf-b4c5-25338fed7246","ios":"levelo://app?vid=ccc94a69-3226-41bf-b4c5-25338fed7246"},"vehicle_type_id":"4","last_reported":1744448994,"current_range_meters":3600,"station_id":"ce4bgih2rcd13ifvqba0","pricing_plan_id":"cebpf4jnsgd1na2vs0mg"},{"bike_id":"cc469b23-8a12-438b-a3d8-d55a8efe2f1d","system_id":"levelo_inurba_marseille","lat":43.24391,"lon":5.37062,"is_reserved":false,"is_disabled":false,"rental_uris":{"android":"levelo://app?vid=cc469b23-8a12-438b-a3d8-d55a8efe2f1d","ios":"levelo://app?vid=cc469b23-8a12-438b-a3d8-d55a8efe2f1d"},"vehicle_type_id":"4","last_reported":1744448994,"current_range_meters":3600,"station_id":"ce4bhhh2rcd13ifvqfk0","pricing_plan_id":"cebpf4jnsgd1na2vs0mg"},{"bike_id":"a7b22e2e-0c80-4693-ad23-d6caf4917341","system_id":"levelo_inurba_marseille","lat":43.3087,"lon":5.3734,"is_reserved":false,"is_disabled":false,"rental_uris":{"android":"levelo://app?vid=a7b22e2e-0c80-4693-ad23-d6caf4917341","ios":"levelo://app?vid=a7b22e2e-0c80-4693-ad23-d6caf4917341"},"vehicle_type_id":"4","last_reported":1744448994,"current_range_meters":3600,"station_id":"","pricing_plan_id":"cebpf4jnsgd1na2vs0mg"},{"bike_id":"32726013-757e-4d24-9225-04536f20d299","system_id":"levelo_inurba_marseille","lat":43.26202,"lon":5.37447,"is_reserved":false,"is_disabled":false,"rental_uris":{"android":"levelo://app?vid=32726013-757e-4d24-9225-04536f20d299","ios":"levelo://app?vid=32726013-757e-4d24-9225-04536f20d299"},"vehicle_type_id":"4","last_reported":1744448994,"current_range_meters":4000,"station_id":"ce4bhgp2rcd13ifvqfc0","pricing_plan_id":"cebpf4jnsgd1na2vs0mg"},{"bike_id":"fec4ce55-a98a-408d-955a-7216ba9e0363","system_id":"levelo_inurba_marseille","lat":43.24738,"lon":5.38168,"is_reserved":false,"is_disabled":false,"rental_uris":{"android":"levelo://app?vid=fec4ce55-a98a-408d-955a-7216ba9e0363","ios":"levelo://app?vid=fec4ce55-a98a-408d-955a-7216ba9e0363"},"vehicle_type_id":"4","last_reported":1744448994,"current_range_meters":4000,"station_id":"ce4bhih2rcd13ifvqfr0","pricing_plan_id":"cebpf4jnsgd1na2vs0mg"},{"bike_id":"ddd57a88-e774-44e0-88ae-5dbcb5f2415e","system_id":"levelo_inurba_marseille","lat":43.29848,"lon":5.3628,"is_reserved":false,"is_disabled":false,"rental_uris":{"android":"levelo://app?vid=ddd57a88-e774-44e0-88ae-5dbcb5f2415e","ios":"levelo://app?vid=ddd57a88-e774-44e0-88ae-5dbcb5f2415e"},"vehicle_type_id":"4","last_reported":1744448994,"current_range_meters":4400,"station_id":"ce4bgpp2rcd13ifvqc3g","pricing_plan_id":"cebpf4jnsgd1na2vs0mg"},{"bike_id":"a8827283-5cb2-4c69-8f92-cabeabffb47c","system_id":"levelo_inurba_marseille","lat":43.241749,"lon":5.363963,"is_reserved":false,"is_disabled":false,"rental_uris":{"android":"levelo://app?vid=a8827283-5cb2-4c69-8f92-cabeabffb47c","ios":"levelo://app?vid=a8827283-5cb2-4c69-8f92-cabeabffb47c"},"vehicle_type_id":"4","last_reported":1744448994,"current_range_meters":4000,"station_id":"cpo36qri1sfpv3e86is0","pricing_plan_id":"cebpf4jnsgd1na2vs0mg"},{"bike_id":"b04f1536-b3a6-4ea1-8de9-10a4a27b0d36","system_id":"levelo_inurba_marseille","lat":43.30639,"lon":5.40091,"is_reserved":false,"is_disabled":false,"rental_uris":{"android":"levelo://app?vid=b04f1536-b3a6-4ea1-8de9-10a4a27b0d36","ios":"levelo://app?vid=b04f1536-b3a6-4ea1-8de9-10a4a27b0d36"},"vehicle_type_id":"4","last_reported":1744448994,"current_range_meters":4000,"station_id":"ce4bh112rcd13ifvqda0","pricing_plan_id":"cebpf4jnsgd1na2vs0mg"},{"bike_id":"d0b18bd4-bc95-4209-9ec1-962389636723","system_id":"levelo_inurba_marseille","lat":43.2559,"lon":5.38236,"is_reserved":false,"is_disabled":false,"rental_uris":{"android":"levelo://app?vid=d0b18bd4-bc95-4209-9ec1-962389636723","ios":"levelo://app?vid=d0b18bd4-bc95-4209-9ec1-962389636723"},"vehicle_type_id":"4","last_reported":1744448994,"current_range_meters":4000,"station_id":"ce4bhih2rcd13ifvqfs0","pricing_plan_id":"cebpf4jnsgd1na2vs0mg"},{"bike_id":"62c1f836-7b45-44f7-9721-a260943a8081","system_id":"levelo_inurba_marseille","lat":43.27517,"lon":5.42473,"is_reserved":false,"is_disabled":false,"rental_uris":{"android":"levelo://app?vid=62c1f836-7b45-44f7-9721-a260943a8081","ios":"levelo://app?vid=62c1f836-7b45-44f7-9721-a260943a8081"},"vehicle_type_id":"4","last_reported":1744448994,"current_range_meters":4400,"station_id":"ce4bhn92rcd13ifvqgrg","pricing_plan_id":"cebpf4jnsgd1na2vs0mg"},{"bike_id":"acc8ca2d-def4-41ab-9acf-fb6ed632c9ac","system_id":"levelo_inurba_marseille","lat":43.24666,"lon":5.38148,"is_reserved":false,"is_disabled":false,"rental_uris":{"android":"levelo://app?vid=acc8ca2d-def4-41ab-9acf-fb6ed632c9ac","ios":"levelo://app?vid=acc8ca2d-def4-41ab-9acf-fb6ed632c9ac"},"vehicle_type_id":"4","last_reported":1744448994,"current_range_meters":4800,"station_id":"ce4bhih2rcd13ifvqfr0","pricing_plan_id":"cebpf4jnsgd1na2vs0mg"},{"bike_id":"457be3cf-e1e1-4d11-8d7c-377dc0cb03e9","system_id":"levelo_inurba_marseille","lat":43.3088,"lon":5.368,"is_reserved":false,"is_disabled":false,"rental_uris":{"android":"levelo://app?vid=457be3cf-e1e1-4d11-8d7c-377dc0cb03e9","ios":"levelo://app?vid=457be3cf-e1e1-4d11-8d7c-377dc0cb03e9"},"vehicle_type_id":"4","last_reported":1744448994,"current_range_meters":4800,"station_id":"ce4bgn92rcd13ifvqbvg","pricing_plan_id":"cebpf4jnsgd1na2vs0mg"},{"bike_id":"5fdd3298-d376-47aa-b5b3-d838ecbf8db4","system_id":"levelo_inurba_marseille","lat":43.28009,"lon":5.40093,"is_reserved":false,"is_disabled":false,"rental_uris":{"android":"levelo://app?vid=5fdd3298-d376-47aa-b5b3-d838ecbf8db4","ios":"levelo://app?vid=5fdd3298-d376-47aa-b5b3-d838ecbf8db4"},"vehicle_type_id":"4","last_reported":1744448994,"current_range_meters":5600,"station_id":"","pricing_plan_id":"cebpf4jnsgd1na2vs0mg"},{"bike_id":"316be20f-7fd7-49e0-9552-2d20fa28873f","system_id":"levelo_inurba_marseille","lat":43.24804,"lon":5.37454,"is_reserved":false,"is_disabled":false,"rental_uris":{"android":"levelo://app?vid=316be20f-7fd7-49e0-9552-2d20fa28873f","ios":"levelo://app?vid=316be20f-7fd7-49e0-9552-2d20fa28873f"},"vehicle_type_id":"4","last_reported":1744448994,"current_range_meters":5600,"station_id":"ce4bhgh2rcd13ifvqfb0","pricing_plan_id":"cebpf4jnsgd1na2vs0mg"},{"bike_id":"984bb2aa-d82a-4281-90f1-1529bbc61000","system_id":"levelo_inurba_marseille","lat":43.29908,"lon":5.39281,"is_reserved":false,"is_disabled":false,"rental_uris":{"android":"levelo://app?vid=984bb2aa-d82a-4281-90f1-1529bbc61000","ios":"levelo://app?vid=984bb2aa-d82a-4281-90f1-1529bbc61000"},"vehicle_type_id":"4","last_reported":1744448994,"current_range_meters":5600,"station_id":"","pricing_plan_id":"cebpf4jnsgd1na2vs0mg"},{"bike_id":"a9f344a9-b5c4-4c6f-adc4-6177f6c8159a","system_id":"levelo_inurba_marseille","lat":43.32807,"lon":5.39754,"is_reserved":false,"is_disabled":false,"rental_uris":{"android":"levelo://app?vid=a9f344a9-b5c4-4c6f-adc4-6177f6c8159a","ios":"levelo://app?vid=a9f344a9-b5c4-4c6f-adc4-6177f6c8159a"},"vehicle_type_id":"4","last_reported":1744448994,"current_range_meters":5600,"station_id":"","pricing_plan_id":"cebpf4jnsgd1na2vs0mg"},{"bike_id":"eab6cbfa-cb8e-47d7-b0d6-226ab7facec7","system_id":"levelo_inurba_marseille","lat":43.31722,"lon":5.42393,"is_reserved":false,"is_disabled":true,"rental_uris":{"android":"levelo://app?vid=eab6cbfa-cb8e-47d7-b0d6-226ab7facec7","ios":"levelo://app?vid=eab6cbfa-cb8e-47d7-b0d6-226ab7facec7"},"vehicle_type_id":"4","last_reported":1744448994,"current_range_meters":5600,"station_id":"ce4bhp92rcd13ifvqhbg","pricing_plan_id":"cebpf4jnsgd1na2vs0mg"},{"bike_id":"869ede4d-0687-4835-9bf7-58fbf56cbb3c","system_id":"levelo_inurba_marseille","lat":43.25503,"lon":5.37647,"is_reserved":false,"is_disabled":false,"rental_uris":{"android":"levelo://app?vid=869ede4d-0687-4835-9bf7-58fbf56cbb3c","ios":"levelo://app?vid=869ede4d-0687-4835-9bf7-58fbf56cbb3c"},"vehicle_type_id":"4","last_reported":1744448994,"current_range_meters":6000,"station_id":"ce4bhh12rcd13ifvqff0","pricing_plan_id":"cebpf4jnsgd1na2vs0mg"},{"bike_id":"2a7a7f79-beef-4115-bb1c-3454a3bc9321","system_id":"levelo_inurba_marseille","lat":43.2464,"lon":5.38936,"is_reserved":false,"is_disabled":false,"rental_uris":{"android":"levelo://app?vid=2a7a7f79-beef-4115-bb1c-3454a3bc9321","ios":"levelo://app?vid=2a7a7f79-beef-4115-bb1c-3454a3bc9321"},"vehicle_type_id":"4","last_reported":1744448994,"current_range_meters":6000,"station_id":"ce4bhg12rcd13ifvqf60","pricing_plan_id":"cebpf4jnsgd1na2vs0mg"},{"bike_id":"a5becb92-263b-45ce-91a9-29d6ac7446fc","system_id":"levelo_inurba_marseille","lat":43.32331,"lon":5.40619,"is_reserved":false,"is_disabled":false,"rental_uris":{"android":"levelo://app?vid=a5becb92-263b-45ce-91a9-29d6ac7446fc","ios":"levelo://app?vid=a5becb92-263b-45ce-91a9-29d6ac7446fc"},"vehicle_type_id":"4","last_reported":1744448994,"current_range_meters":6000,"station_id":"ce4bhq92rcd13ifvqhjg","pricing_plan_id":"cebpf4jnsgd1na2vs0mg"},{"bike_id":"8bfc1f6d-8268-4b6e-9758-79ace16419b6","system_id":"levelo_inurba_marseille","lat":43.31403,"lon":5.38498,"is_reserved":false,"is_disabled":false,"rental_uris":{"android":"levelo://app?vid=8bfc1f6d-8268-4b6e-9758-79ace16419b6","ios":"levelo://app?vid=8bfc1f6d-8268-4b6e-9758-79ace16419b6"},"vehicle_type_id":"4","last_reported":1744448994,"current_range_meters":6400,"station_id":"ce4bgt92rcd13ifvqcf0","pricing_plan_id":"cebpf4jnsgd1na2vs0mg"},{"bike_id":"b19bde78-d5bc-4fde-8a3d-94f737376acf","system_id":"levelo_inurba_marseille","lat":43.29929,"lon":5.36547,"is_reserved":false,"is_disabled":false,"rental_uris":{"android":"levelo://app?vid=b19bde78-d5bc-4fde-8a3d-94f737376acf","ios":"levelo://app?vid=b19bde78-d5bc-4fde-8a3d-94f737376acf"},"vehicle_type_id":"4","last_reported":1744448994,"current_range_meters":6400,"station_id":"ce4bgm92rcd13ifvqbr0","pricing_plan_id":"cebpf4jnsgd1na2vs0mg"},{"bike_id":"926fb0a7-820c-4f62-bd23-584e294815aa","system_id":"levelo_inurba_marseille","lat":43.24123,"lon":5.39689,"is_reserved":false,"is_disabled":false,"rental_uris":{"android":"levelo://app?vid=926fb0a7-820c-4f62-bd23-584e294815aa","ios":"levelo://app?vid=926fb0a7-820c-4f62-bd23-584e294815aa"},"vehicle_type_id":"4","last_reported":1744448994,"current_range_meters":6400,"station_id":"","pricing_plan_id":"cebpf4jnsgd1na2vs0mg"},{"bike_id":"b0c355a8-e968-4ccc-8ed5-a1a9eb36574e","system_id":"levelo_inurba_marseille","lat":43.2973,"lon":5.37677,"is_reserved":false,"is_disabled":false,"rental_uris":{"android":"levelo://app?vid=b0c355a8-e968-4ccc-8ed5-a1a9eb36574e","ios":"levelo://app?vid=b0c355a8-e968-4ccc-8ed5-a1a9eb36574e"},"vehicle_type_id":"4","last_reported":1744448994,"current_range_meters":6000,"station_id":"ce4bgkh2rcd13ifvqbl0","pricing_plan_id":"cebpf4jnsgd1na2vs0mg"},{"bike_id":"cd4577a2-5adf-480a-a192-b5c310a08248","system_id":"levelo_inurba_marseille","lat":43.23964,"lon":5.3663,"is_reserved":false,"is_disabled":false,"rental_uris":{"android":"levelo://app?vid=cd4577a2-5adf-480a-a192-b5c310a08248","ios":"levelo://app?vid=cd4577a2-5adf-480a-a192-b5c310a08248"},"vehicle_type_id":"4","last_reported":1744448994,"current_range_meters":6400,"station_id":"ce4bhi12rcd13ifvqfp0","pricing_plan_id":"cebpf4jnsgd1na2vs0mg"},{"bike_id":"ae7082ff-3d6b-48d8-9594-1492b5a42c5c","system_id":"levelo_inurba_marseille","lat":43.24165,"lon":5.36387,"is_reserved":false,"is_disabled":false,"rental_uris":{"android":"levelo://app?vid=ae7082ff-3d6b-48d8-9594-1492b5a42c5c","ios":"levelo://app?vid=ae7082ff-3d6b-48d8-9594-1492b5a42c5c"},"vehicle_type_id":"4","last_reported":1744448994,"current_range_meters":6800,"station_id":"cpo36qri1sfpv3e86is0","pricing_plan_id":"cebpf4jnsgd1na2vs0mg"},{"bike_id":"48ce90a6-ad06-48b8-8a50-53394a4d9dc1","system_id":"levelo_inurba_marseille","lat":43.31488,"lon":5.37268,"is_reserved":false,"is_disabled":false,"rental_uris":{"android":"levelo://app?vid=48ce90a6-ad06-48b8-8a50-53394a4d9dc1","ios":"levelo://app?vid=48ce90a6-ad06-48b8-8a50-53394a4d9dc1"},"vehicle_type_id":"4","last_reported":1744448994,"current_range_meters":6800,"station_id":"ce4bgt12rcd13ifvqcd0","pricing_plan_id":"cebpf4jnsgd1na2vs0mg"},{"bike_id":"660789cf-9835-4c97-94c7-680fb3aa2807","system_id":"levelo_inurba_marseille","lat":43.30665,"lon":5.40084,"is_reserved":false,"is_disabled":false,"rental_uris":{"android":"levelo://app?vid=660789cf-9835-4c97-94c7-680fb3aa2807","ios":"levelo://app?vid=660789cf-9835-4c97-94c7-680fb3aa2807"},"vehicle_type_id":"4","last_reported":1744448994,"current_range_meters":6800,"station_id":"ce4bh112rcd13ifvqda0","pricing_plan_id":"cebpf4jnsgd1na2vs0mg"},{"bike_id":"9c6724cf-5481-435b-b80c-3f0289bc69aa","system_id":"levelo_inurba_marseille","lat":43.28404,"lon":5.375,"is_reserved":false,"is_disabled":false,"rental_uris":{"android":"levelo://app?vid=9c6724cf-5481-435b-b80c-3f0289bc69aa","ios":"levelo://app?vid=9c6724cf-5481-435b-b80c-3f0289bc69aa"},"vehicle_type_id":"4","last_reported":1744448994,"current_range_meters":6400,"station_id":"ce4bh412rcd13ifvqds0","pricing_plan_id":"cebpf4jnsgd1na2vs0mg"},{"bike_id":"2ae791df-1827-4db9-af3b-dc45a8f6589f","system_id":"levelo_inurba_marseille","lat":43.2417,"lon":5.36392,"is_reserved":false,"is_disabled":false,"rental_uris":{"android":"levelo://app?vid=2ae791df-1827-4db9-af3b-dc45a8f6589f","ios":"levelo://app?vid=2ae791df-1827-4db9-af3b-dc45a8f6589f"},"vehicle_type_id":"4","last_reported":1744448994,"current_range_meters":6800,"station_id":"cpo36qri1sfpv3e86is0","pricing_plan_id":"cebpf4jnsgd1na2vs0mg"},{"bike_id":"820eae00-4001-4b93-98cd-bfbd5fc6ebfe","system_id":"levelo_inurba_marseille","lat":43.26808,"lon":5.40259,"is_reserved":false,"is_disabled":false,"rental_uris":{"android":"levelo://app?vid=820eae00-4001-4b93-98cd-bfbd5fc6ebfe","ios":"levelo://app?vid=820eae00-4001-4b93-98cd-bfbd5fc6ebfe"},"vehicle_type_id":"4","last_reported":1744448994,"current_range_meters":6800,"station_id":"ce501612rcd8frsf0b60","pricing_plan_id":"cebpf4jnsgd1na2vs0mg"},{"bike_id":"dee958f8-d40c-446d-a76e-03c7e8652123","system_id":"levelo_inurba_marseille","lat":43.253349,"lon":5.380594,"is_reserved":false,"is_disabled":true,"rental_uris":{"android":"levelo://app?vid=dee958f8-d40c-446d-a76e-03c7e8652123","ios":"levelo://app?vid=dee958f8-d40c-446d-a76e-03c7e8652123"},"vehicle_type_id":"4","last_reported":1744448994,"current_range_meters":7200,"station_id":"ce4bhbp2rcd13ifvqerg","pricing_plan_id":"cebpf4jnsgd1na2vs0mg"},{"bike_id":"c3e01f73-aabc-44ba-8289-e20461cb5eae","system_id":"levelo_inurba_marseille","lat":43.24168,"lon":5.36397,"is_reserved":false,"is_disabled":false,"rental_uris":{"android":"levelo://app?vid=c3e01f73-aabc-44ba-8289-e20461cb5eae","ios":"levelo://app?vid=c3e01f73-aabc-44ba-8289-e20461cb5eae"},"vehicle_type_id":"4","last_reported":1744448994,"current_range_meters":7200,"station_id":"cpo36qri1sfpv3e86is0","pricing_plan_id":"cebpf4jnsgd1na2vs0mg"},{"bike_id":"7a6ccf65-2a8c-44ea-9b00-69370d6c9c96","system_id":"levelo_inurba_marseille","lat":43.31493,"lon":5.37278,"is_reserved":false,"is_disabled":false,"rental_uris":{"android":"levelo://app?vid=7a6ccf65-2a8c-44ea-9b00-69370d6c9c96","ios":"levelo://app?vid=7a6ccf65-2a8c-44ea-9b00-69370d6c9c96"},"vehicle_type_id":"4","last_reported":1744448994,"current_range_meters":7200,"station_id":"ce4bgt12rcd13ifvqcd0","pricing_plan_id":"cebpf4jnsgd1na2vs0mg"},{"bike_id":"9ee07121-9cd6-4f46-90f4-96dbb0dbfe7d","system_id":"levelo_inurba_marseille","lat":43.2954,"lon":5.38545,"is_reserved":false,"is_disabled":false,"rental_uris":{"android":"levelo://app?vid=9ee07121-9cd6-4f46-90f4-96dbb0dbfe7d","ios":"levelo://app?vid=9ee07121-9cd6-4f46-90f4-96dbb0dbfe7d"},"vehicle_type_id":"4","last_reported":1744448994,"current_range_meters":7200,"station_id":"ce4bgih2rcd13ifvqba0","pricing_plan_id":"cebpf4jnsgd1na2vs0mg"},{"bike_id":"037369c9-bbbd-48d9-873c-9c99b932bd2a","system_id":"levelo_inurba_marseille","lat":43.2705,"lon":5.40263,"is_reserved":false,"is_disabled":false,"rental_uris":{"android":"levelo://app?vid=037369c9-bbbd-48d9-873c-9c99b932bd2a","ios":"levelo://app?vid=037369c9-bbbd-48d9-873c-9c99b932bd2a"},"vehicle_type_id":"4","last_reported":1744448994,"current_range_meters":7200,"station_id":"ce4bhk92rcd13ifvqgc0","pricing_plan_id":"cebpf4jnsgd1na2vs0mg"},{"bike_id":"d334824f-7d21-463a-98af-4ab8281df10e","system_id":"levelo_inurba_marseille","lat":43.2417,"lon":5.36392,"is_reserved":false,"is_disabled":false,"rental_uris":{"android":"levelo://app?vid=d334824f-7d21-463a-98af-4ab8281df10e","ios":"levelo://app?vid=d334824f-7d21-463a-98af-4ab8281df10e"},"vehicle_type_id":"4","last_reported":1744448994,"current_range_meters":7200,"station_id":"cpo36qri1sfpv3e86is0","pricing_plan_id":"cebpf4jnsgd1na2vs0mg"},{"bike_id":"9e60eea3-f156-4777-9758-11a629b41381","system_id":"levelo_inurba_marseille","lat":43.27569,"lon":5.38414,"is_reserved":false,"is_disabled":false,"rental_uris":{"android":"levelo://app?vid=9e60eea3-f156-4777-9758-11a629b41381","ios":"levelo://app?vid=9e60eea3-f156-4777-9758-11a629b41381"},"vehicle_type_id":"4","last_reported":1744448994,"current_range_meters":7200,"station_id":"ce4bhh92rcd13ifvqfi0","pricing_plan_id":"cebpf4jnsgd1na2vs0mg"},{"bike_id":"d8038ec0-8261-4da7-aefe-7fafa0f2a6a3","system_id":"levelo_inurba_marseille","lat":43.24073,"lon":5.37755,"is_reserved":false,"is_disabled":false,"rental_uris":{"android":"levelo://app?vid=d8038ec0-8261-4da7-aefe-7fafa0f2a6a3","ios":"levelo://app?vid=d8038ec0-8261-4da7-aefe-7fafa0f2a6a3"},"vehicle_type_id":"4","last_reported":1744448994,"current_range_meters":8000,"station_id":"ce4bhnp2rcd13ifvqgvg","pricing_plan_id":"cebpf4jnsgd1na2vs0mg"},{"bike_id":"8b4c8d12-5212-410c-bdd4-63122234f668","system_id":"levelo_inurba_marseille","lat":43.22951,"lon":5.35368,"is_reserved":false,"is_disabled":false,"rental_uris":{"android":"levelo://app?vid=8b4c8d12-5212-410c-bdd4-63122234f668","ios":"levelo://app?vid=8b4c8d12-5212-410c-bdd4-63122234f668"},"vehicle_type_id":"4","last_reported":1744448994,"current_range_meters":8000,"station_id":"cpo3532slgdg3j2ikp40","pricing_plan_id":"cebpf4jnsgd1na2vs0mg"},{"bike_id":"94455896-0f19-4fae-bd72-9879f01fcd6e","system_id":"levelo_inurba_marseille","lat":43.2957,"lon":5.42288,"is_reserved":false,"is_disabled":true,"rental_uris":{"android":"levelo://app?vid=94455896-0f19-4fae-bd72-9879f01fcd6e","ios":"levelo://app?vid=94455896-0f19-4fae-bd72-9879f01fcd6e"},"vehicle_type_id":"4","last_reported":1744448994,"current_range_meters":8000,"station_id":"ce4bhph2rcd13ifvqhdg","pricing_plan_id":"cebpf4jnsgd1na2vs0mg"},{"bike_id":"7e287c76-4f19-4b6c-bb36-ea54c2b11237","system_id":"levelo_inurba_marseille","lat":43.323438,"lon":5.406174,"is_reserved":false,"is_disabled":false,"rental_uris":{"android":"levelo://app?vid=7e287c76-4f19-4b6c-bb36-ea54c2b11237","ios":"levelo://app?vid=7e287c76-4f19-4b6c-bb36-ea54c2b11237"},"vehicle_type_id":"4","last_reported":1744448994,"current_range_meters":8400,"station_id":"ce4bhq92rcd13ifvqhjg","pricing_plan_id":"cebpf4jnsgd1na2vs0mg"},{"bike_id":"20eb53d5-dc7b-4fbe-a6da-7e0a348438c0","system_id":"levelo_inurba_marseille","lat":43.27899,"lon":5.39565,"is_reserved":false,"is_disabled":true,"rental_uris":{"android":"levelo://app?vid=20eb53d5-dc7b-4fbe-a6da-7e0a348438c0","ios":"levelo://app?vid=20eb53d5-dc7b-4fbe-a6da-7e0a348438c0"},"vehicle_type_id":"4","last_reported":1744448994,"current_range_meters":8400,"station_id":"ce4bhf92rcd13ifvqf40","pricing_plan_id":"cebpf4jnsgd1na2vs0mg"},{"bike_id":"3f08cc69-711e-4264-b923-68891203ffa4","system_id":"levelo_inurba_marseille","lat":43.32285,"lon":5.38243,"is_reserved":false,"is_disabled":false,"rental_uris":{"android":"levelo://app?vid=3f08cc69-711e-4264-b923-68891203ffa4","ios":"levelo://app?vid=3f08cc69-711e-4264-b923-68891203ffa4"},"vehicle_type_id":"4","last_reported":1744448994,"current_range_meters":8400,"station_id":"ce4bhr12rcd13ifvqhqg","pricing_plan_id":"cebpf4jnsgd1na2vs0mg"},{"bike_id":"82d30686-3080-4349-bf75-2a47d41e6160","system_id":"levelo_inurba_marseille","lat":43.231512,"lon":5.437142,"is_reserved":false,"is_disabled":false,"rental_uris":{"android":"levelo://app?vid=82d30686-3080-4349-bf75-2a47d41e6160","ios":"levelo://app?vid=82d30686-3080-4349-bf75-2a47d41e6160"},"vehicle_type_id":"4","last_reported":1744448994,"current_range_meters":8400,"station_id":"ce4bhmp2rcd13ifvqgog","pricing_plan_id":"cebpf4jnsgd1na2vs0mg"},{"bike_id":"e0487cbb-6aa7-4fe8-9aa7-7b771d7aec2a","system_id":"levelo_inurba_marseille","lat":43.2624,"lon":5.40459,"is_reserved":false,"is_disabled":false,"rental_uris":{"android":"levelo://app?vid=e0487cbb-6aa7-4fe8-9aa7-7b771d7aec2a","ios":"levelo://app?vid=e0487cbb-6aa7-4fe8-9aa7-7b771d7aec2a"},"vehicle_type_id":"4","last_reported":1744448994,"current_range_meters":8400,"station_id":"ce4bhmh2rcd13ifvqgmg","pricing_plan_id":"cebpf4jnsgd1na2vs0mg"},{"bike_id":"4614ddd5-5aac-42b1-b3d4-905343369df1","system_id":"levelo_inurba_marseille","lat":43.27946,"lon":5.41055,"is_reserved":false,"is_disabled":false,"rental_uris":{"android":"levelo://app?vid=4614ddd5-5aac-42b1-b3d4-905343369df1","ios":"levelo://app?vid=4614ddd5-5aac-42b1-b3d4-905343369df1"},"vehicle_type_id":"4","last_reported":1744448994,"current_range_meters":8400,"station_id":"ce4bhnp2rcd13ifvqh0g","pricing_plan_id":"cebpf4jnsgd1na2vs0mg"},{"bike_id":"1ac19b6a-4c6f-4d4d-901c-dd1716ba1b48","system_id":"levelo_inurba_marseille","lat":43.30957,"lon":5.40471,"is_reserved":false,"is_disabled":false,"rental_uris":{"android":"levelo://app?vid=1ac19b6a-4c6f-4d4d-901c-dd1716ba1b48","ios":"levelo://app?vid=1ac19b6a-4c6f-4d4d-901c-dd1716ba1b48"},"vehicle_type_id":"4","last_reported":1744448994,"current_range_meters":8800,"station_id":"","pricing_plan_id":"cebpf4jnsgd1na2vs0mg"},{"bike_id":"1fafa723-2705-4f1f-b8de-d4bb683d3c2e","system_id":"levelo_inurba_marseille","lat":43.23184,"lon":5.39982,"is_reserved":false,"is_disabled":false,"rental_uris":{"android":"levelo://app?vid=1fafa723-2705-4f1f-b8de-d4bb683d3c2e","ios":"levelo://app?vid=1fafa723-2705-4f1f-b8de-d4bb683d3c2e"},"vehicle_type_id":"4","last_reported":1744448994,"current_range_meters":8800,"station_id":"ce4bhn12rcd13ifvqgqg","pricing_plan_id":"cebpf4jnsgd1na2vs0mg"},{"bike_id":"cc83a7aa-57a1-4769-9137-8531613b4691","system_id":"levelo_inurba_marseille","lat":43.31246,"lon":5.37299,"is_reserved":false,"is_disabled":false,"rental_uris":{"android":"levelo://app?vid=cc83a7aa-57a1-4769-9137-8531613b4691","ios":"levelo://app?vid=cc83a7aa-57a1-4769-9137-8531613b4691"},"vehicle_type_id":"4","last_reported":1744448994,"current_range_meters":8800,"station_id":"","pricing_plan_id":"cebpf4jnsgd1na2vs0mg"},{"bike_id":"3ac73e63-1619-4c1b-a7d0-7311424e94ef","system_id":"levelo_inurba_marseille","lat":43.28998,"lon":5.37614,"is_reserved":false,"is_disabled":false,"rental_uris":{"android":"levelo://app?vid=3ac73e63-1619-4c1b-a7d0-7311424e94ef","ios":"levelo://app?vid=3ac73e63-1619-4c1b-a7d0-7311424e94ef"},"vehicle_type_id":"4","last_reported":1744448994,"current_range_meters":8800,"station_id":"","pricing_plan_id":"cebpf4jnsgd1na2vs0mg"},{"bike_id":"173bc9a4-de98-43a8-b692-4fbb90439da0","system_id":"levelo_inurba_marseille","lat":43.32017,"lon":5.38151,"is_reserved":false,"is_disabled":false,"rental_uris":{"android":"levelo://app?vid=173bc9a4-de98-43a8-b692-4fbb90439da0","ios":"levelo://app?vid=173bc9a4-de98-43a8-b692-4fbb90439da0"},"vehicle_type_id":"4","last_reported":1744448994,"current_range_meters":8800,"station_id":"ce4bhr12rcd13ifvqhpg","pricing_plan_id":"cebpf4jnsgd1na2vs0mg"},{"bike_id":"9221d150-2b7c-49b1-921d-0cd476018673","system_id":"levelo_inurba_marseille","lat":43.30109,"lon":5.37097,"is_reserved":false,"is_disabled":false,"rental_uris":{"android":"levelo://app?vid=9221d150-2b7c-49b1-921d-0cd476018673","ios":"levelo://app?vid=9221d150-2b7c-49b1-921d-0cd476018673"},"vehicle_type_id":"4","last_reported":1744448994,"current_range_meters":8800,"station_id":"","pricing_plan_id":"cebpf4jnsgd1na2vs0mg"},{"bike_id":"d6c423ad-693a-42e8-bcad-89087df9e68f","system_id":"levelo_inurba_marseille","lat":43.24167,"lon":5.39715,"is_reserved":false,"is_disabled":false,"rental_uris":{"android":"levelo://app?vid=d6c423ad-693a-42e8-bcad-89087df9e68f","ios":"levelo://app?vid=d6c423ad-693a-42e8-bcad-89087df9e68f"},"vehicle_type_id":"4","last_reported":1744448994,"current_range_meters":9200,"station_id":"ce4bhn12rcd13ifvqgpg","pricing_plan_id":"cebpf4jnsgd1na2vs0mg"},{"bike_id":"49815a2a-260e-4cfc-8823-51f23577d634","system_id":"levelo_inurba_marseille","lat":43.21192,"lon":5.35074,"is_reserved":false,"is_disabled":false,"rental_uris":{"android":"levelo://app?vid=49815a2a-260e-4cfc-8823-51f23577d634","ios":"levelo://app?vid=49815a2a-260e-4cfc-8823-51f23577d634"},"vehicle_type_id":"4","last_reported":1744448994,"current_range_meters":9200,"station_id":"","pricing_plan_id":"cebpf4jnsgd1na2vs0mg"},{"bike_id":"b105010c-b749-48b7-8743-e65c5024e2fe","system_id":"levelo_inurba_marseille","lat":43.25113,"lon":5.40315,"is_reserved":false,"is_disabled":false,"rental_uris":{"android":"levelo://app?vid=b105010c-b749-48b7-8743-e65c5024e2fe","ios":"levelo://app?vid=b105010c-b749-48b7-8743-e65c5024e2fe"},"vehicle_type_id":"4","last_reported":1744448994,"current_range_meters":9200,"station_id":"ce4bhlh2rcd13ifvqgig","pricing_plan_id":"cebpf4jnsgd1na2vs0mg"},{"bike_id":"72adaa87-94dc-4774-aca0-5147bc57bd16","system_id":"levelo_inurba_marseille","lat":43.26025,"lon":5.41733,"is_reserved":false,"is_disabled":false,"rental_uris":{"android":"levelo://app?vid=72adaa87-94dc-4774-aca0-5147bc57bd16","ios":"levelo://app?vid=72adaa87-94dc-4774-aca0-5147bc57bd16"},"vehicle_type_id":"4","last_reported":1744448994,"current_range_meters":9200,"station_id":"","pricing_plan_id":"cebpf4jnsgd1na2vs0mg"},{"bike_id":"80f5992c-b183-460d-8d1b-4c42a2b4d72f","system_id":"levelo_inurba_marseille","lat":43.24175,"lon":5.39738,"is_reserved":false,"is_disabled":false,"rental_uris":{"android":"levelo://app?vid=80f5992c-b183-460d-8d1b-4c42a2b4d72f","ios":"levelo://app?vid=80f5992c-b183-460d-8d1b-4c42a2b4d72f"},"vehicle_type_id":"4","last_reported":1744448994,"current_range_meters":9600,"station_id":"ce4bhn12rcd13ifvqgpg","pricing_plan_id":"cebpf4jnsgd1na2vs0mg"},{"bike_id":"88776c62-0a09-436a-b4e5-10b5baa5aae5","system_id":"levelo_inurba_marseille","lat":43.27063,"lon":5.40274,"is_reserved":false,"is_disabled":false,"rental_uris":{"android":"levelo://app?vid=88776c62-0a09-436a-b4e5-10b5baa5aae5","ios":"levelo://app?vid=88776c62-0a09-436a-b4e5-10b5baa5aae5"},"vehicle_type_id":"4","last_reported":1744448994,"current_range_meters":9600,"station_id":"ce4bhk92rcd13ifvqgc0","pricing_plan_id":"cebpf4jnsgd1na2vs0mg"},{"bike_id":"55475846-4826-4e39-aef5-c665d76d0159","system_id":"levelo_inurba_marseille","lat":43.32105,"lon":5.36764,"is_reserved":false,"is_disabled":false,"rental_uris":{"android":"levelo://app?vid=55475846-4826-4e39-aef5-c665d76d0159","ios":"levelo://app?vid=55475846-4826-4e39-aef5-c665d76d0159"},"vehicle_type_id":"4","last_reported":1744448994,"current_range_meters":9600,"station_id":"ce4bhrh2rcd13ifvqhug","pricing_plan_id":"cebpf4jnsgd1na2vs0mg"},{"bike_id":"3b991e41-1da7-4423-a369-dae028e8b01b","system_id":"levelo_inurba_marseille","lat":43.248063,"lon":5.374626,"is_reserved":false,"is_disabled":false,"rental_uris":{"android":"levelo://app?vid=3b991e41-1da7-4423-a369-dae028e8b01b","ios":"levelo://app?vid=3b991e41-1da7-4423-a369-dae028e8b01b"},"vehicle_type_id":"4","last_reported":1744448994,"current_range_meters":9600,"station_id":"ce4bhgh2rcd13ifvqfb0","pricing_plan_id":"cebpf4jnsgd1na2vs0mg"},{"bike_id":"37864421-51e4-4d5e-801c-7ac32e01e722","system_id":"levelo_inurba_marseille","lat":43.312761,"lon":5.377526,"is_reserved":false,"is_disabled":false,"rental_uris":{"android":"levelo://app?vid=37864421-51e4-4d5e-801c-7ac32e01e722","ios":"levelo://app?vid=37864421-51e4-4d5e-801c-7ac32e01e722"},"vehicle_type_id":"4","last_reported":1744448994,"current_range_meters":9600,"station_id":"","pricing_plan_id":"cebpf4jnsgd1na2vs0mg"},{"bike_id":"23259ef2-badd-48f2-a7c8-5bd7ac1c2fc8","system_id":"levelo_inurba_marseille","lat":43.30245,"lon":5.4005,"is_reserved":false,"is_disabled":false,"rental_uris":{"android":"levelo://app?vid=23259ef2-badd-48f2-a7c8-5bd7ac1c2fc8","ios":"levelo://app?vid=23259ef2-badd-48f2-a7c8-5bd7ac1c2fc8"},"vehicle_type_id":"4","last_reported":1744448994,"current_range_meters":10000,"station_id":"ce4bgvh2rcd13ifvqcs0","pricing_plan_id":"cebpf4jnsgd1na2vs0mg"},{"bike_id":"9a048efe-3f5b-45ef-bee6-80524b1147f3","system_id":"levelo_inurba_marseille","lat":43.33076,"lon":5.40816,"is_reserved":false,"is_disabled":false,"rental_uris":{"android":"levelo://app?vid=9a048efe-3f5b-45ef-bee6-80524b1147f3","ios":"levelo://app?vid=9a048efe-3f5b-45ef-bee6-80524b1147f3"},"vehicle_type_id":"4","last_reported":1744448994,"current_range_meters":10000,"station_id":"","pricing_plan_id":"cebpf4jnsgd1na2vs0mg"},{"bike_id":"cdca5bf1-fc31-4f90-bc6c-61591fbcb03a","system_id":"levelo_inurba_marseille","lat":43.26787,"lon":5.39412,"is_reserved":false,"is_disabled":false,"rental_uris":{"android":"levelo://app?vid=cdca5bf1-fc31-4f90-bc6c-61591fbcb03a","ios":"levelo://app?vid=cdca5bf1-fc31-4f90-bc6c-61591fbcb03a"},"vehicle_type_id":"4","last_reported":1744448994,"current_range_meters":10000,"station_id":"ce4bhh12rcd13ifvqfg0","pricing_plan_id":"cebpf4jnsgd1na2vs0mg"},{"bike_id":"f21cce43-7e86-42c4-8a4d-3c922080ab5c","system_id":"levelo_inurba_marseille","lat":43.28944,"lon":5.36631,"is_reserved":false,"is_disabled":true,"rental_uris":{"android":"levelo://app?vid=f21cce43-7e86-42c4-8a4d-3c922080ab5c","ios":"levelo://app?vid=f21cce43-7e86-42c4-8a4d-3c922080ab5c"},"vehicle_type_id":"4","last_reported":1744448994,"current_range_meters":10000,"station_id":"ce4bhap2rcd13ifvqek0","pricing_plan_id":"cebpf4jnsgd1na2vs0mg"},{"bike_id":"1c3a9b5f-1403-407e-8b46-2da76966921d","system_id":"levelo_inurba_marseille","lat":43.274249,"lon":5.394134,"is_reserved":false,"is_disabled":false,"rental_uris":{"android":"levelo://app?vid=1c3a9b5f-1403-407e-8b46-2da76966921d","ios":"levelo://app?vid=1c3a9b5f-1403-407e-8b46-2da76966921d"},"vehicle_type_id":"4","last_reported":1744448994,"current_range_meters":9600,"station_id":"ce4bhih2rcd13ifvqfs0","pricing_plan_id":"cebpf4jnsgd1na2vs0mg"},{"bike_id":"4c893399-b4ed-40ed-a49f-713da320f269","system_id":"levelo_inurba_marseille","lat":43.29861,"lon":5.37841,"is_reserved":false,"is_disabled":false,"rental_uris":{"android":"levelo://app?vid=4c893399-b4ed-40ed-a49f-713da320f269","ios":"levelo://app?vid=4c893399-b4ed-40ed-a49f-713da320f269"},"vehicle_type_id":"4","last_reported":1744448994,"current_range_meters":10000,"station_id":"","pricing_plan_id":"cebpf4jnsgd1na2vs0mg"},{"bike_id":"411f282c-b696-41a4-888f-752e1134c529","system_id":"levelo_inurba_marseille","lat":43.262,"lon":5.37452,"is_reserved":false,"is_disabled":false,"rental_uris":{"android":"levelo://app?vid=411f282c-b696-41a4-888f-752e1134c529","ios":"levelo://app?vid=411f282c-b696-41a4-888f-752e1134c529"},"vehicle_type_id":"4","last_reported":1744448994,"current_range_meters":10000,"station_id":"ce4bhgp2rcd13ifvqfc0","pricing_plan_id":"cebpf4jnsgd1na2vs0mg"},{"bike_id":"8c58f2fa-99e1-41f8-bf90-9c1648b679b1","system_id":"levelo_inurba_marseille","lat":43.273056,"lon":5.414337,"is_reserved":false,"is_disabled":false,"rental_uris":{"android":"levelo://app?vid=8c58f2fa-99e1-41f8-bf90-9c1648b679b1","ios":"levelo://app?vid=8c58f2fa-99e1-41f8-bf90-9c1648b679b1"},"vehicle_type_id":"4","last_reported":1744448994,"current_range_meters":10000,"station_id":"","pricing_plan_id":"cebpf4jnsgd1na2vs0mg"},{"bike_id":"83e4c345-5a97-4da5-ad41-852af125c0a3","system_id":"levelo_inurba_marseille","lat":43.30418,"lon":5.41291,"is_reserved":false,"is_disabled":false,"rental_uris":{"android":"levelo://app?vid=83e4c345-5a97-4da5-ad41-852af125c0a3","ios":"levelo://app?vid=83e4c345-5a97-4da5-ad41-852af125c0a3"},"vehicle_type_id":"4","last_reported":1744448994,"current_range_meters":10000,"station_id":"ce4bhop2rcd13ifvqh8g","pricing_plan_id":"cebpf4jnsgd1na2vs0mg"},{"bike_id":"4651fc10-fe57-460e-89c6-9ba891098581","system_id":"levelo_inurba_marseille","lat":43.24169,"lon":5.36365,"is_reserved":false,"is_disabled":false,"rental_uris":{"android":"levelo://app?vid=4651fc10-fe57-460e-89c6-9ba891098581","ios":"levelo://app?vid=4651fc10-fe57-460e-89c6-9ba891098581"},"vehicle_type_id":"4","last_reported":1744448994,"current_range_meters":10800,"station_id":"cpo36qri1sfpv3e86is0","pricing_plan_id":"cebpf4jnsgd1na2vs0mg"},{"bike_id":"16fd30b1-cad6-4fc5-9de5-c7170be035f0","system_id":"levelo_inurba_marseille","lat":43.25725,"lon":5.41056,"is_reserved":false,"is_disabled":false,"rental_uris":{"android":"levelo://app?vid=16fd30b1-cad6-4fc5-9de5-c7170be035f0","ios":"levelo://app?vid=16fd30b1-cad6-4fc5-9de5-c7170be035f0"},"vehicle_type_id":"4","last_reported":1744448994,"current_range_meters":10800,"station_id":"ce4bhkp2rcd13ifvqgd0","pricing_plan_id":"cebpf4jnsgd1na2vs0mg"},{"bike_id":"f242a73a-03b2-459e-8d32-87109f9efcda","system_id":"levelo_inurba_marseille","lat":43.270493,"lon":5.402535,"is_reserved":false,"is_disabled":false,"rental_uris":{"android":"levelo://app?vid=f242a73a-03b2-459e-8d32-87109f9efcda","ios":"levelo://app?vid=f242a73a-03b2-459e-8d32-87109f9efcda"},"vehicle_type_id":"4","last_reported":1744448994,"current_range_meters":11200,"station_id":"ce4bhk92rcd13ifvqgc0","pricing_plan_id":"cebpf4jnsgd1na2vs0mg"},{"bike_id":"78c5819c-a520-4ec4-9c69-46bea1652348","system_id":"levelo_inurba_marseille","lat":43.3073,"lon":5.42428,"is_reserved":false,"is_disabled":false,"rental_uris":{"android":"levelo://app?vid=78c5819c-a520-4ec4-9c69-46bea1652348","ios":"levelo://app?vid=78c5819c-a520-4ec4-9c69-46bea1652348"},"vehicle_type_id":"4","last_reported":1744448994,"current_range_meters":11200,"station_id":"st_cvj6ca6bvosntc0bfgr0","pricing_plan_id":"cebpf4jnsgd1na2vs0mg"},{"bike_id":"e071258e-77bd-49c5-9a15-372d91036f1f","system_id":"levelo_inurba_marseille","lat":43.29936,"lon":5.36531,"is_reserved":false,"is_disabled":false,"rental_uris":{"android":"levelo://app?vid=e071258e-77bd-49c5-9a15-372d91036f1f","ios":"levelo://app?vid=e071258e-77bd-49c5-9a15-372d91036f1f"},"vehicle_type_id":"4","last_reported":1744448994,"current_range_meters":11200,"station_id":"ce4bgm92rcd13ifvqbr0","pricing_plan_id":"cebpf4jnsgd1na2vs0mg"},{"bike_id":"1cb849f5-4018-4c76-a075-268f516482d1","system_id":"levelo_inurba_marseille","lat":43.292757,"lon":5.401187,"is_reserved":false,"is_disabled":false,"rental_uris":{"android":"levelo://app?vid=1cb849f5-4018-4c76-a075-268f516482d1","ios":"levelo://app?vid=1cb849f5-4018-4c76-a075-268f516482d1"},"vehicle_type_id":"4","last_reported":1744448994,"current_range_meters":11200,"station_id":"ce4bh312rcd13ifvqdk0","pricing_plan_id":"cebpf4jnsgd1na2vs0mg"},{"bike_id":"4a0973b0-92a0-41e8-9b0d-a99e944bafe0","system_id":"levelo_inurba_marseille","lat":43.34484,"lon":5.41292,"is_reserved":false,"is_disabled":false,"rental_uris":{"android":"levelo://app?vid=4a0973b0-92a0-41e8-9b0d-a99e944bafe0","ios":"levelo://app?vid=4a0973b0-92a0-41e8-9b0d-a99e944bafe0"},"vehicle_type_id":"4","last_reported":1744448994,"current_range_meters":11200,"station_id":"","pricing_plan_id":"cebpf4jnsgd1na2vs0mg"},{"bike_id":"e91ebdae-a6fc-4100-9a9d-1e8263645ef3","system_id":"levelo_inurba_marseille","lat":43.32664,"lon":5.40988,"is_reserved":false,"is_disabled":false,"rental_uris":{"android":"levelo://app?vid=e91ebdae-a6fc-4100-9a9d-1e8263645ef3","ios":"levelo://app?vid=e91ebdae-a6fc-4100-9a9d-1e8263645ef3"},"vehicle_type_id":"4","last_reported":1744448994,"current_range_meters":11200,"station_id":"ce4bhpp2rcd13ifvqhgg","pricing_plan_id":"cebpf4jnsgd1na2vs0mg"},{"bike_id":"29fd9406-b872-4408-b90c-f1d9e5190468","system_id":"levelo_inurba_marseille","lat":43.23152,"lon":5.43715,"is_reserved":false,"is_disabled":false,"rental_uris":{"android":"levelo://app?vid=29fd9406-b872-4408-b90c-f1d9e5190468","ios":"levelo://app?vid=29fd9406-b872-4408-b90c-f1d9e5190468"},"vehicle_type_id":"4","last_reported":1744448994,"current_range_meters":11200,"station_id":"ce4bhmp2rcd13ifvqgog","pricing_plan_id":"cebpf4jnsgd1na2vs0mg"},{"bike_id":"0e74c723-13a6-4ed7-b2e4-611de82d670d","system_id":"levelo_inurba_marseille","lat":43.28266,"lon":5.35072,"is_reserved":false,"is_disabled":false,"rental_uris":{"android":"levelo://app?vid=0e74c723-13a6-4ed7-b2e4-611de82d670d","ios":"levelo://app?vid=0e74c723-13a6-4ed7-b2e4-611de82d670d"},"vehicle_type_id":"4","last_reported":1744448994,"current_range_meters":11600,"station_id":"ce4bhbp2rcd13ifvqerg","pricing_plan_id":"cebpf4jnsgd1na2vs0mg"},{"bike_id":"4e715fa7-d76b-429c-b6af-084a23a7d2dc","system_id":"levelo_inurba_marseille","lat":43.29191,"lon":5.35815,"is_reserved":false,"is_disabled":false,"rental_uris":{"android":"levelo://app?vid=4e715fa7-d76b-429c-b6af-084a23a7d2dc","ios":"levelo://app?vid=4e715fa7-d76b-429c-b6af-084a23a7d2dc"},"vehicle_type_id":"4","last_reported":1744448994,"current_range_meters":11600,"station_id":"ce4bhb12rcd13ifvqel0","pricing_plan_id":"cebpf4jnsgd1na2vs0mg"},{"bike_id":"c013d600-5e08-48f0-830e-8c965978436b","system_id":"levelo_inurba_marseille","lat":43.30446,"lon":5.38898,"is_reserved":false,"is_disabled":true,"rental_uris":{"android":"levelo://app?vid=c013d600-5e08-48f0-830e-8c965978436b","ios":"levelo://app?vid=c013d600-5e08-48f0-830e-8c965978436b"},"vehicle_type_id":"4","last_reported":1744448994,"current_range_meters":11600,"station_id":"ce4bgk12rcd13ifvqbi0","pricing_plan_id":"cebpf4jnsgd1na2vs0mg"},{"bike_id":"15f8c481-5ec3-42a7-b25f-f4089fa537c4","system_id":"levelo_inurba_marseille","lat":43.24171,"lon":5.3971,"is_reserved":false,"is_disabled":false,"rental_uris":{"android":"levelo://app?vid=15f8c481-5ec3-42a7-b25f-f4089fa537c4","ios":"levelo://app?vid=15f8c481-5ec3-42a7-b25f-f4089fa537c4"},"vehicle_type_id":"4","last_reported":1744448994,"current_range_meters":11600,"station_id":"ce4bhn12rcd13ifvqgpg","pricing_plan_id":"cebpf4jnsgd1na2vs0mg"},{"bike_id":"47df54fa-9868-413c-a07b-a88614eb280e","system_id":"levelo_inurba_marseille","lat":43.27061,"lon":5.40269,"is_reserved":false,"is_disabled":false,"rental_uris":{"android":"levelo://app?vid=47df54fa-9868-413c-a07b-a88614eb280e","ios":"levelo://app?vid=47df54fa-9868-413c-a07b-a88614eb280e"},"vehicle_type_id":"4","last_reported":1744448994,"current_range_meters":11600,"station_id":"ce4bhk92rcd13ifvqgc0","pricing_plan_id":"cebpf4jnsgd1na2vs0mg"},{"bike_id":"cfa05593-02c0-4361-b7cb-d147d92b27a4","system_id":"levelo_inurba_marseille","lat":43.241616,"lon":5.363911,"is_reserved":false,"is_disabled":false,"rental_uris":{"android":"levelo://app?vid=cfa05593-02c0-4361-b7cb-d147d92b27a4","ios":"levelo://app?vid=cfa05593-02c0-4361-b7cb-d147d92b27a4"},"vehicle_type_id":"4","last_reported":1744448994,"current_range_meters":12000,"station_id":"cpo36qri1sfpv3e86is0","pricing_plan_id":"cebpf4jnsgd1na2vs0mg"},{"bike_id":"ef291804-1477-432e-b153-82ea15725418","system_id":"levelo_inurba_marseille","lat":43.33742,"lon":5.37454,"is_reserved":false,"is_disabled":false,"rental_uris":{"android":"levelo://app?vid=ef291804-1477-432e-b153-82ea15725418","ios":"levelo://app?vid=ef291804-1477-432e-b153-82ea15725418"},"vehicle_type_id":"4","last_reported":1744448994,"current_range_meters":12000,"station_id":"","pricing_plan_id":"cebpf4jnsgd1na2vs0mg"},{"bike_id":"72008f80-264b-4684-91b7-bafdcee25ea0","system_id":"levelo_inurba_marseille","lat":43.28047,"lon":5.36915,"is_reserved":false,"is_disabled":false,"rental_uris":{"android":"levelo://app?vid=72008f80-264b-4684-91b7-bafdcee25ea0","ios":"levelo://app?vid=72008f80-264b-4684-91b7-bafdcee25ea0"},"vehicle_type_id":"4","last_reported":1744448994,"current_range_meters":12000,"station_id":"ce4bha12rcd13ifvqef0","pricing_plan_id":"cebpf4jnsgd1na2vs0mg"},{"bike_id":"a8d99482-a057-469f-bd2e-b289d8ded2a5","system_id":"levelo_inurba_marseille","lat":43.29812,"lon":5.40417,"is_reserved":false,"is_disabled":false,"rental_uris":{"android":"levelo://app?vid=a8d99482-a057-469f-bd2e-b289d8ded2a5","ios":"levelo://app?vid=a8d99482-a057-469f-bd2e-b289d8ded2a5"},"vehicle_type_id":"4","last_reported":1744448994,"current_range_meters":12000,"station_id":"ce4bh112rcd13ifvqd90","pricing_plan_id":"cebpf4jnsgd1na2vs0mg"},{"bike_id":"2b02df73-fc0b-4244-8ce5-cd6ae7ba5c74","system_id":"levelo_inurba_marseille","lat":43.29897,"lon":5.37466,"is_reserved":false,"is_disabled":false,"rental_uris":{"android":"levelo://app?vid=2b02df73-fc0b-4244-8ce5-cd6ae7ba5c74","ios":"levelo://app?vid=2b02df73-fc0b-4244-8ce5-cd6ae7ba5c74"},"vehicle_type_id":"4","last_reported":1744448994,"current_range_meters":12000,"station_id":"ce4bgjh2rcd13ifvqbg0","pricing_plan_id":"cebpf4jnsgd1na2vs0mg"},{"bike_id":"b9f63904-c7e0-4ba1-b04c-566003ad52d5","system_id":"levelo_inurba_marseille","lat":43.29587,"lon":5.37522,"is_reserved":false,"is_disabled":false,"rental_uris":{"android":"levelo://app?vid=b9f63904-c7e0-4ba1-b04c-566003ad52d5","ios":"levelo://app?vid=b9f63904-c7e0-4ba1-b04c-566003ad52d5"},"vehicle_type_id":"4","last_reported":1744448994,"current_range_meters":12000,"station_id":"ce4bgh92rcd13ifvqb50","pricing_plan_id":"cebpf4jnsgd1na2vs0mg"},{"bike_id":"f7d1eee0-1715-419d-beac-1b98ec9e62ed","system_id":"levelo_inurba_marseille","lat":43.30949,"lon":5.39021,"is_reserved":false,"is_disabled":true,"rental_uris":{"android":"levelo://app?vid=f7d1eee0-1715-419d-beac-1b98ec9e62ed","ios":"levelo://app?vid=f7d1eee0-1715-419d-beac-1b98ec9e62ed"},"vehicle_type_id":"4","last_reported":1744448994,"current_range_meters":12400,"station_id":"ce4bgup2rcd13ifvqco0","pricing_plan_id":"cebpf4jnsgd1na2vs0mg"},{"bike_id":"d38e0e5e-1441-423a-9774-3196b1a1cb17","system_id":"levelo_inurba_marseille","lat":43.300282,"lon":5.399857,"is_reserved":false,"is_disabled":false,"rental_uris":{"android":"levelo://app?vid=d38e0e5e-1441-423a-9774-3196b1a1cb17","ios":"levelo://app?vid=d38e0e5e-1441-423a-9774-3196b1a1cb17"},"vehicle_type_id":"4","last_reported":1744448994,"current_range_meters":12400,"station_id":"","pricing_plan_id":"cebpf4jnsgd1na2vs0mg"},{"bike_id":"18606129-1f46-4387-94fd-b9b77f87f6a9","system_id":"levelo_inurba_marseille","lat":43.23199,"lon":5.40035,"is_reserved":false,"is_disabled":false,"rental_uris":{"android":"levelo://app?vid=18606129-1f46-4387-94fd-b9b77f87f6a9","ios":"levelo://app?vid=18606129-1f46-4387-94fd-b9b77f87f6a9"},"vehicle_type_id":"4","last_reported":1744448994,"current_range_meters":12400,"station_id":"ce4bhn12rcd13ifvqgqg","pricing_plan_id":"cebpf4jnsgd1na2vs0mg"},{"bike_id":"c9aa49b6-dfff-45a5-aada-a9b66a79c5ac","system_id":"levelo_inurba_marseille","lat":43.24681,"lon":5.38146,"is_reserved":false,"is_disabled":false,"rental_uris":{"android":"levelo://app?vid=c9aa49b6-dfff-45a5-aada-a9b66a79c5ac","ios":"levelo://app?vid=c9aa49b6-dfff-45a5-aada-a9b66a79c5ac"},"vehicle_type_id":"4","last_reported":1744448994,"current_range_meters":12800,"station_id":"ce4bhih2rcd13ifvqfr0","pricing_plan_id":"cebpf4jnsgd1na2vs0mg"},{"bike_id":"6a13ab5c-bd90-4569-b1fe-5bed22ba1f43","system_id":"levelo_inurba_marseille","lat":43.29908,"lon":5.374793,"is_reserved":false,"is_disabled":false,"rental_uris":{"android":"levelo://app?vid=6a13ab5c-bd90-4569-b1fe-5bed22ba1f43","ios":"levelo://app?vid=6a13ab5c-bd90-4569-b1fe-5bed22ba1f43"},"vehicle_type_id":"4","last_reported":1744448994,"current_range_meters":12800,"station_id":"ce4bgjh2rcd13ifvqbg0","pricing_plan_id":"cebpf4jnsgd1na2vs0mg"},{"bike_id":"0e7bf4ae-5aed-4055-a1f8-96debbb9847e","system_id":"levelo_inurba_marseille","lat":43.24172,"lon":5.36392,"is_reserved":false,"is_disabled":false,"rental_uris":{"android":"levelo://app?vid=0e7bf4ae-5aed-4055-a1f8-96debbb9847e","ios":"levelo://app?vid=0e7bf4ae-5aed-4055-a1f8-96debbb9847e"},"vehicle_type_id":"4","last_reported":1744448994,"current_range_meters":12800,"station_id":"cpo36qri1sfpv3e86is0","pricing_plan_id":"cebpf4jnsgd1na2vs0mg"},{"bike_id":"5b77a833-8185-45c2-9fe3-07eb40df54ca","system_id":"levelo_inurba_marseille","lat":43.33995,"lon":5.38057,"is_reserved":false,"is_disabled":false,"rental_uris":{"android":"levelo://app?vid=5b77a833-8185-45c2-9fe3-07eb40df54ca","ios":"levelo://app?vid=5b77a833-8185-45c2-9fe3-07eb40df54ca"},"vehicle_type_id":"4","last_reported":1744448994,"current_range_meters":12800,"station_id":"","pricing_plan_id":"cebpf4jnsgd1na2vs0mg"},{"bike_id":"d8f603cd-3b83-4148-bab8-3a185ad2a59f","system_id":"levelo_inurba_marseille","lat":43.3237,"lon":5.38881,"is_reserved":false,"is_disabled":false,"rental_uris":{"android":"levelo://app?vid=d8f603cd-3b83-4148-bab8-3a185ad2a59f","ios":"levelo://app?vid=d8f603cd-3b83-4148-bab8-3a185ad2a59f"},"vehicle_type_id":"4","last_reported":1744448994,"current_range_meters":13600,"station_id":"ce4bhqp2rcd13ifvqhog","pricing_plan_id":"cebpf4jnsgd1na2vs0mg"},{"bike_id":"d2eff889-fce6-4dfa-bdc3-6a9578bc8f71","system_id":"levelo_inurba_marseille","lat":43.30373,"lon":5.42486,"is_reserved":false,"is_disabled":false,"rental_uris":{"android":"levelo://app?vid=d2eff889-fce6-4dfa-bdc3-6a9578bc8f71","ios":"levelo://app?vid=d2eff889-fce6-4dfa-bdc3-6a9578bc8f71"},"vehicle_type_id":"4","last_reported":1744448994,"current_range_meters":13600,"station_id":"ce4bhoh2rcd13ifvqh6g","pricing_plan_id":"cebpf4jnsgd1na2vs0mg"},{"bike_id":"09400a9a-dd14-418b-b26a-1e2b480a0634","system_id":"levelo_inurba_marseille","lat":43.2962,"lon":5.37727,"is_reserved":false,"is_disabled":true,"rental_uris":{"android":"levelo://app?vid=09400a9a-dd14-418b-b26a-1e2b480a0634","ios":"levelo://app?vid=09400a9a-dd14-418b-b26a-1e2b480a0634"},"vehicle_type_id":"4","last_reported":1744448994,"current_range_meters":13600,"station_id":"ce4bgi92rcd13ifvqb90","pricing_plan_id":"cebpf4jnsgd1na2vs0mg"},{"bike_id":"96609dea-246d-449d-bfba-212fadbe7075","system_id":"levelo_inurba_marseille","lat":43.292248,"lon":5.360628,"is_reserved":false,"is_disabled":false,"rental_uris":{"android":"levelo://app?vid=96609dea-246d-449d-bfba-212fadbe7075","ios":"levelo://app?vid=96609dea-246d-449d-bfba-212fadbe7075"},"vehicle_type_id":"4","last_reported":1744448994,"current_range_meters":14000,"station_id":"ce4bhbh2rcd13ifvqeqg","pricing_plan_id":"cebpf4jnsgd1na2vs0mg"},{"bike_id":"493cde9e-7859-4c26-a2e6-f744ee5d8553","system_id":"levelo_inurba_marseille","lat":43.3177,"lon":5.3681,"is_reserved":false,"is_disabled":false,"rental_uris":{"android":"levelo://app?vid=493cde9e-7859-4c26-a2e6-f744ee5d8553","ios":"levelo://app?vid=493cde9e-7859-4c26-a2e6-f744ee5d8553"},"vehicle_type_id":"4","last_reported":1744448994,"current_range_meters":14000,"station_id":"","pricing_plan_id":"cebpf4jnsgd1na2vs0mg"},{"bike_id":"61bc6256-8380-4638-bd27-1e2c56ecc87d","system_id":"levelo_inurba_marseille","lat":43.29756,"lon":5.37606,"is_reserved":false,"is_disabled":false,"rental_uris":{"android":"levelo://app?vid=61bc6256-8380-4638-bd27-1e2c56ecc87d","ios":"levelo://app?vid=61bc6256-8380-4638-bd27-1e2c56ecc87d"},"vehicle_type_id":"4","last_reported":1744448994,"current_range_meters":14000,"station_id":"","pricing_plan_id":"cebpf4jnsgd1na2vs0mg"},{"bike_id":"f5978509-db06-47ea-8b21-850d320f3654","system_id":"levelo_inurba_marseille","lat":43.3041,"lon":5.41246,"is_reserved":false,"is_disabled":false,"rental_uris":{"android":"levelo://app?vid=f5978509-db06-47ea-8b21-850d320f3654","ios":"levelo://app?vid=f5978509-db06-47ea-8b21-850d320f3654"},"vehicle_type_id":"4","last_reported":1744448994,"current_range_meters":14400,"station_id":"ce4bhop2rcd13ifvqh8g","pricing_plan_id":"cebpf4jnsgd1na2vs0mg"},{"bike_id":"811d0e6d-2027-46f9-84f6-ae8efa4ea508","system_id":"levelo_inurba_marseille","lat":43.231787,"lon":5.436017,"is_reserved":false,"is_disabled":false,"rental_uris":{"android":"levelo://app?vid=811d0e6d-2027-46f9-84f6-ae8efa4ea508","ios":"levelo://app?vid=811d0e6d-2027-46f9-84f6-ae8efa4ea508"},"vehicle_type_id":"4","last_reported":1744448994,"current_range_meters":14000,"station_id":"ce4bhmp2rcd13ifvqgog","pricing_plan_id":"cebpf4jnsgd1na2vs0mg"},{"bike_id":"2f5bc015-0a98-4a0d-a50f-f7181e1d6abe","system_id":"levelo_inurba_marseille","lat":43.23386,"lon":5.41234,"is_reserved":false,"is_disabled":false,"rental_uris":{"android":"levelo://app?vid=2f5bc015-0a98-4a0d-a50f-f7181e1d6abe","ios":"levelo://app?vid=2f5bc015-0a98-4a0d-a50f-f7181e1d6abe"},"vehicle_type_id":"4","last_reported":1744448994,"current_range_meters":14400,"station_id":"","pricing_plan_id":"cebpf4jnsgd1na2vs0mg"},{"bike_id":"3383469d-bf04-4b83-befe-8d91b97ef6f7","system_id":"levelo_inurba_marseille","lat":43.32138,"lon":5.37954,"is_reserved":false,"is_disabled":false,"rental_uris":{"android":"levelo://app?vid=3383469d-bf04-4b83-befe-8d91b97ef6f7","ios":"levelo://app?vid=3383469d-bf04-4b83-befe-8d91b97ef6f7"},"vehicle_type_id":"4","last_reported":1744448994,"current_range_meters":14400,"station_id":"","pricing_plan_id":"cebpf4jnsgd1na2vs0mg"},{"bike_id":"6b06456f-88fc-4db6-879d-91221ccbd6f6","system_id":"levelo_inurba_marseille","lat":43.29919,"lon":5.37476,"is_reserved":false,"is_disabled":false,"rental_uris":{"android":"levelo://app?vid=6b06456f-88fc-4db6-879d-91221ccbd6f6","ios":"levelo://app?vid=6b06456f-88fc-4db6-879d-91221ccbd6f6"},"vehicle_type_id":"4","last_reported":1744448994,"current_range_meters":14400,"station_id":"ce4bgjh2rcd13ifvqbg0","pricing_plan_id":"cebpf4jnsgd1na2vs0mg"},{"bike_id":"90cddebc-2506-42ee-9df1-36a6154dff75","system_id":"levelo_inurba_marseille","lat":43.24163,"lon":5.3638,"is_reserved":false,"is_disabled":false,"rental_uris":{"android":"levelo://app?vid=90cddebc-2506-42ee-9df1-36a6154dff75","ios":"levelo://app?vid=90cddebc-2506-42ee-9df1-36a6154dff75"},"vehicle_type_id":"4","last_reported":1744448994,"current_range_meters":14400,"station_id":"cpo36qri1sfpv3e86is0","pricing_plan_id":"cebpf4jnsgd1na2vs0mg"},{"bike_id":"88749d90-8770-41b8-bdcd-6fbbf0b2e167","system_id":"levelo_inurba_marseille","lat":43.259351,"lon":5.408904,"is_reserved":false,"is_disabled":false,"rental_uris":{"android":"levelo://app?vid=88749d90-8770-41b8-bdcd-6fbbf0b2e167","ios":"levelo://app?vid=88749d90-8770-41b8-bdcd-6fbbf0b2e167"},"vehicle_type_id":"4","last_reported":1744448994,"current_range_meters":15200,"station_id":"ce4bhm92rcd13ifvqglg","pricing_plan_id":"cebpf4jnsgd1na2vs0mg"},{"bike_id":"24c13937-a0af-4db8-9e19-3d081ea04ca0","system_id":"levelo_inurba_marseille","lat":43.2993,"lon":5.36551,"is_reserved":false,"is_disabled":false,"rental_uris":{"android":"levelo://app?vid=24c13937-a0af-4db8-9e19-3d081ea04ca0","ios":"levelo://app?vid=24c13937-a0af-4db8-9e19-3d081ea04ca0"},"vehicle_type_id":"4","last_reported":1744448994,"current_range_meters":14800,"station_id":"ce4bgm92rcd13ifvqbr0","pricing_plan_id":"cebpf4jnsgd1na2vs0mg"},{"bike_id":"f7843f46-58aa-4cf6-a1d0-1b94b16f71c2","system_id":"levelo_inurba_marseille","lat":43.298423,"lon":5.396603,"is_reserved":false,"is_disabled":false,"rental_uris":{"android":"levelo://app?vid=f7843f46-58aa-4cf6-a1d0-1b94b16f71c2","ios":"levelo://app?vid=f7843f46-58aa-4cf6-a1d0-1b94b16f71c2"},"vehicle_type_id":"4","last_reported":1744448994,"current_range_meters":15200,"station_id":"","pricing_plan_id":"cebpf4jnsgd1na2vs0mg"},{"bike_id":"1b15cc61-00d7-4d71-9506-9c6c10ebe23a","system_id":"levelo_inurba_marseille","lat":43.29273,"lon":5.38445,"is_reserved":false,"is_disabled":false,"rental_uris":{"android":"levelo://app?vid=1b15cc61-00d7-4d71-9506-9c6c10ebe23a","ios":"levelo://app?vid=1b15cc61-00d7-4d71-9506-9c6c10ebe23a"},"vehicle_type_id":"4","last_reported":1744448994,"current_range_meters":15200,"station_id":"ce4bh692rcd13ifvqea0","pricing_plan_id":"cebpf4jnsgd1na2vs0mg"},{"bike_id":"76bf6044-9b53-4ec3-8b7f-54ac57a6fcc7","system_id":"levelo_inurba_marseille","lat":43.31691,"lon":5.40471,"is_reserved":false,"is_disabled":false,"rental_uris":{"android":"levelo://app?vid=76bf6044-9b53-4ec3-8b7f-54ac57a6fcc7","ios":"levelo://app?vid=76bf6044-9b53-4ec3-8b7f-54ac57a6fcc7"},"vehicle_type_id":"4","last_reported":1744448994,"current_range_meters":14800,"station_id":"ce4bh012rcd13ifvqd00","pricing_plan_id":"cebpf4jnsgd1na2vs0mg"},{"bike_id":"2a768501-9320-4bc9-a417-15b58706b922","system_id":"levelo_inurba_marseille","lat":43.27541,"lon":5.38423,"is_reserved":false,"is_disabled":false,"rental_uris":{"android":"levelo://app?vid=2a768501-9320-4bc9-a417-15b58706b922","ios":"levelo://app?vid=2a768501-9320-4bc9-a417-15b58706b922"},"vehicle_type_id":"4","last_reported":1744448994,"current_range_meters":15200,"station_id":"ce4bhh92rcd13ifvqfi0","pricing_plan_id":"cebpf4jnsgd1na2vs0mg"},{"bike_id":"0e414a7f-9daf-45fa-864b-896b97108bca","system_id":"levelo_inurba_marseille","lat":43.29414,"lon":5.38643,"is_reserved":false,"is_disabled":false,"rental_uris":{"android":"levelo://app?vid=0e414a7f-9daf-45fa-864b-896b97108bca","ios":"levelo://app?vid=0e414a7f-9daf-45fa-864b-896b97108bca"},"vehicle_type_id":"4","last_reported":1744448994,"current_range_meters":16000,"station_id":"ce4bh2h2rcd13ifvqdh0","pricing_plan_id":"cebpf4jnsgd1na2vs0mg"},{"bike_id":"1c733d70-85e6-42ee-b947-eb97659d09ac","system_id":"levelo_inurba_marseille","lat":43.29965,"lon":5.38489,"is_reserved":false,"is_disabled":false,"rental_uris":{"android":"levelo://app?vid=1c733d70-85e6-42ee-b947-eb97659d09ac","ios":"levelo://app?vid=1c733d70-85e6-42ee-b947-eb97659d09ac"},"vehicle_type_id":"4","last_reported":1744448994,"current_range_meters":16000,"station_id":"ce4bgj92rcd13ifvqbd0","pricing_plan_id":"cebpf4jnsgd1na2vs0mg"},{"bike_id":"9c2e56bd-2b20-4e10-bdad-a43b3a4c4d78","system_id":"levelo_inurba_marseille","lat":43.27952,"lon":5.41054,"is_reserved":false,"is_disabled":false,"rental_uris":{"android":"levelo://app?vid=9c2e56bd-2b20-4e10-bdad-a43b3a4c4d78","ios":"levelo://app?vid=9c2e56bd-2b20-4e10-bdad-a43b3a4c4d78"},"vehicle_type_id":"4","last_reported":1744448994,"current_range_meters":16000,"station_id":"ce4bhnp2rcd13ifvqh0g","pricing_plan_id":"cebpf4jnsgd1na2vs0mg"},{"bike_id":"0ccc68c4-0185-4769-ade8-d85ee98f2224","system_id":"levelo_inurba_marseille","lat":43.30428,"lon":5.39745,"is_reserved":false,"is_disabled":false,"rental_uris":{"android":"levelo://app?vid=0ccc68c4-0185-4769-ade8-d85ee98f2224","ios":"levelo://app?vid=0ccc68c4-0185-4769-ade8-d85ee98f2224"},"vehicle_type_id":"4","last_reported":1744448994,"current_range_meters":16000,"station_id":"ce4bh092rcd13ifvqd20","pricing_plan_id":"cebpf4jnsgd1na2vs0mg"},{"bike_id":"4ca93b23-8a33-4579-9e8b-dc137ac336ef","system_id":"levelo_inurba_marseille","lat":43.295829,"lon":5.375126,"is_reserved":false,"is_disabled":false,"rental_uris":{"android":"levelo://app?vid=4ca93b23-8a33-4579-9e8b-dc137ac336ef","ios":"levelo://app?vid=4ca93b23-8a33-4579-9e8b-dc137ac336ef"},"vehicle_type_id":"4","last_reported":1744448994,"current_range_meters":16000,"station_id":"ce4bgh92rcd13ifvqb50","pricing_plan_id":"cebpf4jnsgd1na2vs0mg"},{"bike_id":"f1a81939-e24e-4b4d-bb9f-d960ee871735","system_id":"levelo_inurba_marseille","lat":43.241696,"lon":5.397016,"is_reserved":false,"is_disabled":true,"rental_uris":{"android":"levelo://app?vid=f1a81939-e24e-4b4d-bb9f-d960ee871735","ios":"levelo://app?vid=f1a81939-e24e-4b4d-bb9f-d960ee871735"},"vehicle_type_id":"4","last_reported":1744448994,"current_range_meters":16000,"station_id":"ce4bhn12rcd13ifvqgpg","pricing_plan_id":"cebpf4jnsgd1na2vs0mg"},{"bike_id":"073f07c1-2207-4f4e-95a5-1a4c8bf3a4ea","system_id":"levelo_inurba_marseille","lat":43.26219,"lon":5.40446,"is_reserved":false,"is_disabled":false,"rental_uris":{"android":"levelo://app?vid=073f07c1-2207-4f4e-95a5-1a4c8bf3a4ea","ios":"levelo://app?vid=073f07c1-2207-4f4e-95a5-1a4c8bf3a4ea"},"vehicle_type_id":"4","last_reported":1744448994,"current_range_meters":16400,"station_id":"ce4bhmh2rcd13ifvqgmg","pricing_plan_id":"cebpf4jnsgd1na2vs0mg"},{"bike_id":"f6870c00-473a-40e5-a7e6-3a2a8e252b2c","system_id":"levelo_inurba_marseille","lat":43.24176,"lon":5.364,"is_reserved":false,"is_disabled":false,"rental_uris":{"android":"levelo://app?vid=f6870c00-473a-40e5-a7e6-3a2a8e252b2c","ios":"levelo://app?vid=f6870c00-473a-40e5-a7e6-3a2a8e252b2c"},"vehicle_type_id":"4","last_reported":1744448994,"current_range_meters":16400,"station_id":"cpo36qri1sfpv3e86is0","pricing_plan_id":"cebpf4jnsgd1na2vs0mg"},{"bike_id":"5f9b4feb-31c4-41a1-bc5d-5cf4cb4903f4","system_id":"levelo_inurba_marseille","lat":43.29273,"lon":5.38441,"is_reserved":false,"is_disabled":false,"rental_uris":{"android":"levelo://app?vid=5f9b4feb-31c4-41a1-bc5d-5cf4cb4903f4","ios":"levelo://app?vid=5f9b4feb-31c4-41a1-bc5d-5cf4cb4903f4"},"vehicle_type_id":"4","last_reported":1744448994,"current_range_meters":16400,"station_id":"ce4bh692rcd13ifvqea0","pricing_plan_id":"cebpf4jnsgd1na2vs0mg"},{"bike_id":"048de837-7464-4706-a095-e4bff09b9116","system_id":"levelo_inurba_marseille","lat":43.32339,"lon":5.40621,"is_reserved":false,"is_disabled":false,"rental_uris":{"android":"levelo://app?vid=048de837-7464-4706-a095-e4bff09b9116","ios":"levelo://app?vid=048de837-7464-4706-a095-e4bff09b9116"},"vehicle_type_id":"4","last_reported":1744448994,"current_range_meters":16400,"station_id":"ce4bhq92rcd13ifvqhjg","pricing_plan_id":"cebpf4jnsgd1na2vs0mg"},{"bike_id":"eb1d4b7d-30fc-495b-a6a7-af63f85b9171","system_id":"levelo_inurba_marseille","lat":43.30088,"lon":5.39071,"is_reserved":false,"is_disabled":false,"rental_uris":{"android":"levelo://app?vid=eb1d4b7d-30fc-495b-a6a7-af63f85b9171","ios":"levelo://app?vid=eb1d4b7d-30fc-495b-a6a7-af63f85b9171"},"vehicle_type_id":"4","last_reported":1744448994,"current_range_meters":16400,"station_id":"ce4bh192rcd13ifvqdb0","pricing_plan_id":"cebpf4jnsgd1na2vs0mg"},{"bike_id":"314429f1-c809-42c0-9c65-97f12ea53ea4","system_id":"levelo_inurba_marseille","lat":43.30869,"lon":5.37318,"is_reserved":false,"is_disabled":false,"rental_uris":{"android":"levelo://app?vid=314429f1-c809-42c0-9c65-97f12ea53ea4","ios":"levelo://app?vid=314429f1-c809-42c0-9c65-97f12ea53ea4"},"vehicle_type_id":"4","last_reported":1744448994,"current_range_meters":16400,"station_id":"","pricing_plan_id":"cebpf4jnsgd1na2vs0mg"},{"bike_id":"01b2d9e4-0517-4a35-8de8-866cbd380b4a","system_id":"levelo_inurba_marseille","lat":43.31279,"lon":5.40165,"is_reserved":false,"is_disabled":false,"rental_uris":{"android":"levelo://app?vid=01b2d9e4-0517-4a35-8de8-866cbd380b4a","ios":"levelo://app?vid=01b2d9e4-0517-4a35-8de8-866cbd380b4a"},"vehicle_type_id":"4","last_reported":1744448994,"current_range_meters":16400,"station_id":"ce4bh092rcd13ifvqd30","pricing_plan_id":"cebpf4jnsgd1na2vs0mg"},{"bike_id":"534b5b81-01fb-48e1-8332-0d13dec35f23","system_id":"levelo_inurba_marseille","lat":43.32339,"lon":5.40618,"is_reserved":false,"is_disabled":false,"rental_uris":{"android":"levelo://app?vid=534b5b81-01fb-48e1-8332-0d13dec35f23","ios":"levelo://app?vid=534b5b81-01fb-48e1-8332-0d13dec35f23"},"vehicle_type_id":"4","last_reported":1744448994,"current_range_meters":16800,"station_id":"ce4bhq92rcd13ifvqhjg","pricing_plan_id":"cebpf4jnsgd1na2vs0mg"},{"bike_id":"dc0fc37b-245c-4040-8686-f32b8a543409","system_id":"levelo_inurba_marseille","lat":43.24395,"lon":5.37063,"is_reserved":false,"is_disabled":false,"rental_uris":{"android":"levelo://app?vid=dc0fc37b-245c-4040-8686-f32b8a543409","ios":"levelo://app?vid=dc0fc37b-245c-4040-8686-f32b8a543409"},"vehicle_type_id":"4","last_reported":1744448994,"current_range_meters":16800,"station_id":"ce4bhhh2rcd13ifvqfk0","pricing_plan_id":"cebpf4jnsgd1na2vs0mg"},{"bike_id":"120c2ba2-80e9-48b2-a36f-efc4b7d5c779","system_id":"levelo_inurba_marseille","lat":43.31113,"lon":5.37767,"is_reserved":false,"is_disabled":false,"rental_uris":{"android":"levelo://app?vid=120c2ba2-80e9-48b2-a36f-efc4b7d5c779","ios":"levelo://app?vid=120c2ba2-80e9-48b2-a36f-efc4b7d5c779"},"vehicle_type_id":"4","last_reported":1744448994,"current_range_meters":16800,"station_id":"ce4bgt92rcd13ifvqcg0","pricing_plan_id":"cebpf4jnsgd1na2vs0mg"},{"bike_id":"61a3d5d1-9d16-4507-a934-21de523ba06e","system_id":"levelo_inurba_marseille","lat":43.29683,"lon":5.36701,"is_reserved":false,"is_disabled":false,"rental_uris":{"android":"levelo://app?vid=61a3d5d1-9d16-4507-a934-21de523ba06e","ios":"levelo://app?vid=61a3d5d1-9d16-4507-a934-21de523ba06e"},"vehicle_type_id":"4","last_reported":1744448994,"current_range_meters":16800,"station_id":"","pricing_plan_id":"cebpf4jnsgd1na2vs0mg"},{"bike_id":"bc81dc9b-4bd7-4f93-95fa-078f47ed1cd9","system_id":"levelo_inurba_marseille","lat":43.29518,"lon":5.37507,"is_reserved":false,"is_disabled":false,"rental_uris":{"android":"levelo://app?vid=bc81dc9b-4bd7-4f93-95fa-078f47ed1cd9","ios":"levelo://app?vid=bc81dc9b-4bd7-4f93-95fa-078f47ed1cd9"},"vehicle_type_id":"4","last_reported":1744448994,"current_range_meters":16800,"station_id":"ce4bgkp2rcd13ifvqbmg","pricing_plan_id":"cebpf4jnsgd1na2vs0mg"},{"bike_id":"d43082fc-a321-4fa0-b6ea-a8299d4c4a7f","system_id":"levelo_inurba_marseille","lat":43.313013,"lon":5.385318,"is_reserved":false,"is_disabled":false,"rental_uris":{"android":"levelo://app?vid=d43082fc-a321-4fa0-b6ea-a8299d4c4a7f","ios":"levelo://app?vid=d43082fc-a321-4fa0-b6ea-a8299d4c4a7f"},"vehicle_type_id":"4","last_reported":1744448994,"current_range_meters":16800,"station_id":"ce4bgkh2rcd13ifvqbl0","pricing_plan_id":"cebpf4jnsgd1na2vs0mg"},{"bike_id":"38682804-f3e9-4669-b2ec-4efeb899e65b","system_id":"levelo_inurba_marseille","lat":43.27364,"lon":5.36243,"is_reserved":false,"is_disabled":false,"rental_uris":{"android":"levelo://app?vid=38682804-f3e9-4669-b2ec-4efeb899e65b","ios":"levelo://app?vid=38682804-f3e9-4669-b2ec-4efeb899e65b"},"vehicle_type_id":"4","last_reported":1744448994,"current_range_meters":17200,"station_id":"ce4bhbh2rcd13ifvqeo0","pricing_plan_id":"cebpf4jnsgd1na2vs0mg"},{"bike_id":"861e03f6-9fe8-477d-b15b-b40f75a148e6","system_id":"levelo_inurba_marseille","lat":43.28669,"lon":5.38675,"is_reserved":false,"is_disabled":false,"rental_uris":{"android":"levelo://app?vid=861e03f6-9fe8-477d-b15b-b40f75a148e6","ios":"levelo://app?vid=861e03f6-9fe8-477d-b15b-b40f75a148e6"},"vehicle_type_id":"4","last_reported":1744448994,"current_range_meters":17200,"station_id":"ce4bh492rcd13ifvqdug","pricing_plan_id":"cebpf4jnsgd1na2vs0mg"},{"bike_id":"0663e361-5ecb-4ca0-bfaa-c01a2f66fe21","system_id":"levelo_inurba_marseille","lat":43.31996,"lon":5.38145,"is_reserved":false,"is_disabled":false,"rental_uris":{"android":"levelo://app?vid=0663e361-5ecb-4ca0-bfaa-c01a2f66fe21","ios":"levelo://app?vid=0663e361-5ecb-4ca0-bfaa-c01a2f66fe21"},"vehicle_type_id":"4","last_reported":1744448994,"current_range_meters":17200,"station_id":"ce4bhr12rcd13ifvqhpg","pricing_plan_id":"cebpf4jnsgd1na2vs0mg"},{"bike_id":"ec13aa36-feb8-4fc6-a26e-70419bb84a9c","system_id":"levelo_inurba_marseille","lat":43.29282,"lon":5.40128,"is_reserved":false,"is_disabled":false,"rental_uris":{"android":"levelo://app?vid=ec13aa36-feb8-4fc6-a26e-70419bb84a9c","ios":"levelo://app?vid=ec13aa36-feb8-4fc6-a26e-70419bb84a9c"},"vehicle_type_id":"4","last_reported":1744448994,"current_range_meters":17200,"station_id":"ce4bh312rcd13ifvqdk0","pricing_plan_id":"cebpf4jnsgd1na2vs0mg"},{"bike_id":"020e9999-d552-48d0-ae5f-b725af0dbea2","system_id":"levelo_inurba_marseille","lat":43.29903,"lon":5.43732,"is_reserved":false,"is_disabled":false,"rental_uris":{"android":"levelo://app?vid=020e9999-d552-48d0-ae5f-b725af0dbea2","ios":"levelo://app?vid=020e9999-d552-48d0-ae5f-b725af0dbea2"},"vehicle_type_id":"4","last_reported":1744448994,"current_range_meters":17200,"station_id":"","pricing_plan_id":"cebpf4jnsgd1na2vs0mg"},{"bike_id":"cbd077b7-792f-43f2-b760-f4d40dbf06b5","system_id":"levelo_inurba_marseille","lat":43.29943,"lon":5.36545,"is_reserved":false,"is_disabled":false,"rental_uris":{"android":"levelo://app?vid=cbd077b7-792f-43f2-b760-f4d40dbf06b5","ios":"levelo://app?vid=cbd077b7-792f-43f2-b760-f4d40dbf06b5"},"vehicle_type_id":"4","last_reported":1744448994,"current_range_meters":17200,"station_id":"ce4bgm92rcd13ifvqbr0","pricing_plan_id":"cebpf4jnsgd1na2vs0mg"},{"bike_id":"d1862b2c-e49a-4253-8cb5-d4ccdbce3581","system_id":"levelo_inurba_marseille","lat":43.30607,"lon":5.39344,"is_reserved":false,"is_disabled":true,"rental_uris":{"android":"levelo://app?vid=d1862b2c-e49a-4253-8cb5-d4ccdbce3581","ios":"levelo://app?vid=d1862b2c-e49a-4253-8cb5-d4ccdbce3581"},"vehicle_type_id":"4","last_reported":1744448994,"current_range_meters":17600,"station_id":"ce4bh0p2rcd13ifvqd80","pricing_plan_id":"cebpf4jnsgd1na2vs0mg"},{"bike_id":"7a282fe5-027a-44ad-b28d-49f4a48409ee","system_id":"levelo_inurba_marseille","lat":43.29574,"lon":5.37542,"is_reserved":false,"is_disabled":false,"rental_uris":{"android":"levelo://app?vid=7a282fe5-027a-44ad-b28d-49f4a48409ee","ios":"levelo://app?vid=7a282fe5-027a-44ad-b28d-49f4a48409ee"},"vehicle_type_id":"4","last_reported":1744448994,"current_range_meters":17600,"station_id":"ce4bgh92rcd13ifvqb50","pricing_plan_id":"cebpf4jnsgd1na2vs0mg"},{"bike_id":"b55dd5e7-54b2-4035-b945-7b626dd7afc7","system_id":"levelo_inurba_marseille","lat":43.27549,"lon":5.40925,"is_reserved":false,"is_disabled":false,"rental_uris":{"android":"levelo://app?vid=b55dd5e7-54b2-4035-b945-7b626dd7afc7","ios":"levelo://app?vid=b55dd5e7-54b2-4035-b945-7b626dd7afc7"},"vehicle_type_id":"4","last_reported":1744448994,"current_range_meters":17600,"station_id":"","pricing_plan_id":"cebpf4jnsgd1na2vs0mg"},{"bike_id":"0a33731b-72e0-489b-91d8-2fd1f1259876","system_id":"levelo_inurba_marseille","lat":43.23187,"lon":5.39982,"is_reserved":false,"is_disabled":false,"rental_uris":{"android":"levelo://app?vid=0a33731b-72e0-489b-91d8-2fd1f1259876","ios":"levelo://app?vid=0a33731b-72e0-489b-91d8-2fd1f1259876"},"vehicle_type_id":"4","last_reported":1744448994,"current_range_meters":17600,"station_id":"ce4bhn12rcd13ifvqgqg","pricing_plan_id":"cebpf4jnsgd1na2vs0mg"},{"bike_id":"3de99220-b861-4c71-9e3f-612760824faa","system_id":"levelo_inurba_marseille","lat":43.21146,"lon":5.35063,"is_reserved":false,"is_disabled":false,"rental_uris":{"android":"levelo://app?vid=3de99220-b861-4c71-9e3f-612760824faa","ios":"levelo://app?vid=3de99220-b861-4c71-9e3f-612760824faa"},"vehicle_type_id":"4","last_reported":1744448994,"current_range_meters":17600,"station_id":"","pricing_plan_id":"cebpf4jnsgd1na2vs0mg"},{"bike_id":"982bb1bc-457f-43d7-ae21-85035c856353","system_id":"levelo_inurba_marseille","lat":43.22491,"lon":5.34779,"is_reserved":false,"is_disabled":false,"rental_uris":{"android":"levelo://app?vid=982bb1bc-457f-43d7-ae21-85035c856353","ios":"levelo://app?vid=982bb1bc-457f-43d7-ae21-85035c856353"},"vehicle_type_id":"4","last_reported":1744448994,"current_range_meters":18000,"station_id":"st_cvj5dfep6f1abm77gieg","pricing_plan_id":"cebpf4jnsgd1na2vs0mg"},{"bike_id":"db9cdcec-b5ee-409b-adf3-2fb9b83088c4","system_id":"levelo_inurba_marseille","lat":43.309422,"lon":5.373482,"is_reserved":false,"is_disabled":false,"rental_uris":{"android":"levelo://app?vid=db9cdcec-b5ee-409b-adf3-2fb9b83088c4","ios":"levelo://app?vid=db9cdcec-b5ee-409b-adf3-2fb9b83088c4"},"vehicle_type_id":"4","last_reported":1744448994,"current_range_meters":18000,"station_id":"","pricing_plan_id":"cebpf4jnsgd1na2vs0mg"},{"bike_id":"95e59f1f-4d59-4266-8b3f-582f63a06ec8","system_id":"levelo_inurba_marseille","lat":43.26135,"lon":5.41488,"is_reserved":false,"is_disabled":false,"rental_uris":{"android":"levelo://app?vid=95e59f1f-4d59-4266-8b3f-582f63a06ec8","ios":"levelo://app?vid=95e59f1f-4d59-4266-8b3f-582f63a06ec8"},"vehicle_type_id":"4","last_reported":1744448994,"current_range_meters":18000,"station_id":"","pricing_plan_id":"cebpf4jnsgd1na2vs0mg"},{"bike_id":"d8b9884b-4022-4710-9f87-50e0dbfd421d","system_id":"levelo_inurba_marseille","lat":43.24192,"lon":5.36377,"is_reserved":false,"is_disabled":false,"rental_uris":{"android":"levelo://app?vid=d8b9884b-4022-4710-9f87-50e0dbfd421d","ios":"levelo://app?vid=d8b9884b-4022-4710-9f87-50e0dbfd421d"},"vehicle_type_id":"4","last_reported":1744448994,"current_range_meters":18000,"station_id":"cpo36qri1sfpv3e86is0","pricing_plan_id":"cebpf4jnsgd1na2vs0mg"},{"bike_id":"9a96855e-d3da-4ed5-b7f6-75ba49c2da44","system_id":"levelo_inurba_marseille","lat":43.29906,"lon":5.37472,"is_reserved":false,"is_disabled":false,"rental_uris":{"android":"levelo://app?vid=9a96855e-d3da-4ed5-b7f6-75ba49c2da44","ios":"levelo://app?vid=9a96855e-d3da-4ed5-b7f6-75ba49c2da44"},"vehicle_type_id":"4","last_reported":1744448994,"current_range_meters":18000,"station_id":"ce4bgjh2rcd13ifvqbg0","pricing_plan_id":"cebpf4jnsgd1na2vs0mg"},{"bike_id":"ab5f815b-268f-4742-9b0b-6bc0ca89b3fc","system_id":"levelo_inurba_marseille","lat":43.307372,"lon":5.424511,"is_reserved":false,"is_disabled":false,"rental_uris":{"android":"levelo://app?vid=ab5f815b-268f-4742-9b0b-6bc0ca89b3fc","ios":"levelo://app?vid=ab5f815b-268f-4742-9b0b-6bc0ca89b3fc"},"vehicle_type_id":"4","last_reported":1744448994,"current_range_meters":18000,"station_id":"st_cvj6ca6bvosntc0bfgr0","pricing_plan_id":"cebpf4jnsgd1na2vs0mg"},{"bike_id":"5591936e-ca63-41c7-89f3-9c9493c86f89","system_id":"levelo_inurba_marseille","lat":43.2417,"lon":5.36399,"is_reserved":false,"is_disabled":false,"rental_uris":{"android":"levelo://app?vid=5591936e-ca63-41c7-89f3-9c9493c86f89","ios":"levelo://app?vid=5591936e-ca63-41c7-89f3-9c9493c86f89"},"vehicle_type_id":"4","last_reported":1744448994,"current_range_meters":18000,"station_id":"cpo36qri1sfpv3e86is0","pricing_plan_id":"cebpf4jnsgd1na2vs0mg"},{"bike_id":"7fb91c6f-3fed-4846-b8a8-bbdcceaa51eb","system_id":"levelo_inurba_marseille","lat":43.30468,"lon":5.37891,"is_reserved":false,"is_disabled":false,"rental_uris":{"android":"levelo://app?vid=7fb91c6f-3fed-4846-b8a8-bbdcceaa51eb","ios":"levelo://app?vid=7fb91c6f-3fed-4846-b8a8-bbdcceaa51eb"},"vehicle_type_id":"4","last_reported":1744448994,"current_range_meters":18000,"station_id":"ce4bgup2rcd13ifvqcn0","pricing_plan_id":"cebpf4jnsgd1na2vs0mg"},{"bike_id":"239b457a-7da8-49b2-9197-3c47133b2b7d","system_id":"levelo_inurba_marseille","lat":43.29041,"lon":5.39977,"is_reserved":false,"is_disabled":true,"rental_uris":{"android":"levelo://app?vid=239b457a-7da8-49b2-9197-3c47133b2b7d","ios":"levelo://app?vid=239b457a-7da8-49b2-9197-3c47133b2b7d"},"vehicle_type_id":"4","last_reported":1744448994,"current_range_meters":18000,"station_id":"ce4bh392rcd13ifvqdm0","pricing_plan_id":"cebpf4jnsgd1na2vs0mg"},{"bike_id":"42f33b12-1569-4bf9-86ec-a74306821f87","system_id":"levelo_inurba_marseille","lat":43.30151,"lon":5.37429,"is_reserved":false,"is_disabled":false,"rental_uris":{"android":"levelo://app?vid=42f33b12-1569-4bf9-86ec-a74306821f87","ios":"levelo://app?vid=42f33b12-1569-4bf9-86ec-a74306821f87"},"vehicle_type_id":"4","last_reported":1744448994,"current_range_meters":18000,"station_id":"ce4bgs92rcd13ifvqcc0","pricing_plan_id":"cebpf4jnsgd1na2vs0mg"},{"bike_id":"bddafd3e-68ea-403d-9c3a-6a28a1272ec6","system_id":"levelo_inurba_marseille","lat":43.32331,"lon":5.4061,"is_reserved":false,"is_disabled":false,"rental_uris":{"android":"levelo://app?vid=bddafd3e-68ea-403d-9c3a-6a28a1272ec6","ios":"levelo://app?vid=bddafd3e-68ea-403d-9c3a-6a28a1272ec6"},"vehicle_type_id":"4","last_reported":1744448994,"current_range_meters":18800,"station_id":"ce4bhq92rcd13ifvqhjg","pricing_plan_id":"cebpf4jnsgd1na2vs0mg"},{"bike_id":"add0a556-8aad-41ae-b5cb-7e69c4ef7c4e","system_id":"levelo_inurba_marseille","lat":43.26189,"lon":5.37447,"is_reserved":false,"is_disabled":false,"rental_uris":{"android":"levelo://app?vid=add0a556-8aad-41ae-b5cb-7e69c4ef7c4e","ios":"levelo://app?vid=add0a556-8aad-41ae-b5cb-7e69c4ef7c4e"},"vehicle_type_id":"4","last_reported":1744448994,"current_range_meters":18800,"station_id":"ce4bhgp2rcd13ifvqfc0","pricing_plan_id":"cebpf4jnsgd1na2vs0mg"},{"bike_id":"21127257-eff7-474d-8ad8-e3337a0a4ddf","system_id":"levelo_inurba_marseille","lat":43.29816,"lon":5.3614,"is_reserved":false,"is_disabled":false,"rental_uris":{"android":"levelo://app?vid=21127257-eff7-474d-8ad8-e3337a0a4ddf","ios":"levelo://app?vid=21127257-eff7-474d-8ad8-e3337a0a4ddf"},"vehicle_type_id":"4","last_reported":1744448994,"current_range_meters":18800,"station_id":"","pricing_plan_id":"cebpf4jnsgd1na2vs0mg"},{"bike_id":"75ef0731-17e8-44e6-973e-5d69d386a724","system_id":"levelo_inurba_marseille","lat":43.32357,"lon":5.38895,"is_reserved":false,"is_disabled":false,"rental_uris":{"android":"levelo://app?vid=75ef0731-17e8-44e6-973e-5d69d386a724","ios":"levelo://app?vid=75ef0731-17e8-44e6-973e-5d69d386a724"},"vehicle_type_id":"4","last_reported":1744448994,"current_range_meters":18800,"station_id":"ce4bhqp2rcd13ifvqhog","pricing_plan_id":"cebpf4jnsgd1na2vs0mg"},{"bike_id":"c8216715-44bd-4068-b502-fac0979b3ca4","system_id":"levelo_inurba_marseille","lat":43.30652,"lon":5.40077,"is_reserved":false,"is_disabled":true,"rental_uris":{"android":"levelo://app?vid=c8216715-44bd-4068-b502-fac0979b3ca4","ios":"levelo://app?vid=c8216715-44bd-4068-b502-fac0979b3ca4"},"vehicle_type_id":"4","last_reported":1744448994,"current_range_meters":18800,"station_id":"ce4bh112rcd13ifvqda0","pricing_plan_id":"cebpf4jnsgd1na2vs0mg"},{"bike_id":"038cb0f4-6c0b-4f33-a7b8-87850f6a78bc","system_id":"levelo_inurba_marseille","lat":43.30789,"lon":5.38141,"is_reserved":false,"is_disabled":false,"rental_uris":{"android":"levelo://app?vid=038cb0f4-6c0b-4f33-a7b8-87850f6a78bc","ios":"levelo://app?vid=038cb0f4-6c0b-4f33-a7b8-87850f6a78bc"},"vehicle_type_id":"4","last_reported":1744448994,"current_range_meters":19200,"station_id":"ce4bgt12rcd13ifvqce0","pricing_plan_id":"cebpf4jnsgd1na2vs0mg"},{"bike_id":"e40d36ac-71e1-475c-941d-09313df06f72","system_id":"levelo_inurba_marseille","lat":43.27052,"lon":5.4026,"is_reserved":false,"is_disabled":false,"rental_uris":{"android":"levelo://app?vid=e40d36ac-71e1-475c-941d-09313df06f72","ios":"levelo://app?vid=e40d36ac-71e1-475c-941d-09313df06f72"},"vehicle_type_id":"4","last_reported":1744448994,"current_range_meters":19200,"station_id":"ce4bhk92rcd13ifvqgc0","pricing_plan_id":"cebpf4jnsgd1na2vs0mg"},{"bike_id":"d91da9b9-e43d-4d5e-95db-97cee661a0cc","system_id":"levelo_inurba_marseille","lat":43.25724,"lon":5.41105,"is_reserved":false,"is_disabled":false,"rental_uris":{"android":"levelo://app?vid=d91da9b9-e43d-4d5e-95db-97cee661a0cc","ios":"levelo://app?vid=d91da9b9-e43d-4d5e-95db-97cee661a0cc"},"vehicle_type_id":"4","last_reported":1744448994,"current_range_meters":19200,"station_id":"ce4bhkp2rcd13ifvqgd0","pricing_plan_id":"cebpf4jnsgd1na2vs0mg"},{"bike_id":"e0b6a944-0a11-4498-b7c6-41b53eb12de0","system_id":"levelo_inurba_marseille","lat":43.26787,"lon":5.39406,"is_reserved":false,"is_disabled":false,"rental_uris":{"android":"levelo://app?vid=e0b6a944-0a11-4498-b7c6-41b53eb12de0","ios":"levelo://app?vid=e0b6a944-0a11-4498-b7c6-41b53eb12de0"},"vehicle_type_id":"4","last_reported":1744448994,"current_range_meters":19200,"station_id":"ce4bhh12rcd13ifvqfg0","pricing_plan_id":"cebpf4jnsgd1na2vs0mg"},{"bike_id":"6d01f060-55b8-4ea7-b17e-6c464ffb58e2","system_id":"levelo_inurba_marseille","lat":43.2782,"lon":5.40696,"is_reserved":false,"is_disabled":false,"rental_uris":{"android":"levelo://app?vid=6d01f060-55b8-4ea7-b17e-6c464ffb58e2","ios":"levelo://app?vid=6d01f060-55b8-4ea7-b17e-6c464ffb58e2"},"vehicle_type_id":"4","last_reported":1744448994,"current_range_meters":19200,"station_id":"ce4bhnh2rcd13ifvqgtg","pricing_plan_id":"cebpf4jnsgd1na2vs0mg"},{"bike_id":"38cb3a38-466f-4ebe-9b3b-d084f4b8d92b","system_id":"levelo_inurba_marseille","lat":43.28413,"lon":5.34966,"is_reserved":false,"is_disabled":false,"rental_uris":{"android":"levelo://app?vid=38cb3a38-466f-4ebe-9b3b-d084f4b8d92b","ios":"levelo://app?vid=38cb3a38-466f-4ebe-9b3b-d084f4b8d92b"},"vehicle_type_id":"4","last_reported":1744448994,"current_range_meters":19600,"station_id":"ce4bhbh2rcd13ifvqepg","pricing_plan_id":"cebpf4jnsgd1na2vs0mg"},{"bike_id":"904a7234-c628-4969-a68b-d07658140415","system_id":"levelo_inurba_marseille","lat":43.30945,"lon":5.39028,"is_reserved":false,"is_disabled":false,"rental_uris":{"android":"levelo://app?vid=904a7234-c628-4969-a68b-d07658140415","ios":"levelo://app?vid=904a7234-c628-4969-a68b-d07658140415"},"vehicle_type_id":"4","last_reported":1744448994,"current_range_meters":19200,"station_id":"ce4bgup2rcd13ifvqco0","pricing_plan_id":"cebpf4jnsgd1na2vs0mg"},{"bike_id":"7ca07f45-dfd4-40ba-a516-f49a8443bbe9","system_id":"levelo_inurba_marseille","lat":43.23184,"lon":5.39989,"is_reserved":false,"is_disabled":false,"rental_uris":{"android":"levelo://app?vid=7ca07f45-dfd4-40ba-a516-f49a8443bbe9","ios":"levelo://app?vid=7ca07f45-dfd4-40ba-a516-f49a8443bbe9"},"vehicle_type_id":"4","last_reported":1744448994,"current_range_meters":19600,"station_id":"ce4bhn12rcd13ifvqgqg","pricing_plan_id":"cebpf4jnsgd1na2vs0mg"},{"bike_id":"ae868823-f658-40b6-b00f-1c4526bcbfcd","system_id":"levelo_inurba_marseille","lat":43.230678,"lon":5.354959,"is_reserved":false,"is_disabled":false,"rental_uris":{"android":"levelo://app?vid=ae868823-f658-40b6-b00f-1c4526bcbfcd","ios":"levelo://app?vid=ae868823-f658-40b6-b00f-1c4526bcbfcd"},"vehicle_type_id":"4","last_reported":1744448994,"current_range_meters":19600,"station_id":"cpo3342slgdg3j2ifvpg","pricing_plan_id":"cebpf4jnsgd1na2vs0mg"},{"bike_id":"ea438c7b-9e82-4c86-8a05-02931e5619ce","system_id":"levelo_inurba_marseille","lat":43.289247,"lon":5.383932,"is_reserved":false,"is_disabled":true,"rental_uris":{"android":"levelo://app?vid=ea438c7b-9e82-4c86-8a05-02931e5619ce","ios":"levelo://app?vid=ea438c7b-9e82-4c86-8a05-02931e5619ce"},"vehicle_type_id":"4","last_reported":1744448994,"current_range_meters":20000,"station_id":"ce4bh612rcd13ifvqe6g","pricing_plan_id":"cebpf4jnsgd1na2vs0mg"},{"bike_id":"5be95cb3-4c8c-4c50-933f-e11c60500d67","system_id":"levelo_inurba_marseille","lat":43.27167,"lon":5.40979,"is_reserved":false,"is_disabled":false,"rental_uris":{"android":"levelo://app?vid=5be95cb3-4c8c-4c50-933f-e11c60500d67","ios":"levelo://app?vid=5be95cb3-4c8c-4c50-933f-e11c60500d67"},"vehicle_type_id":"4","last_reported":1744448994,"current_range_meters":20000,"station_id":"ce4bhl12rcd13ifvqgf0","pricing_plan_id":"cebpf4jnsgd1na2vs0mg"},{"bike_id":"8a15f293-8517-479e-ad76-d93ae6422a63","system_id":"levelo_inurba_marseille","lat":43.29411,"lon":5.38615,"is_reserved":false,"is_disabled":false,"rental_uris":{"android":"levelo://app?vid=8a15f293-8517-479e-ad76-d93ae6422a63","ios":"levelo://app?vid=8a15f293-8517-479e-ad76-d93ae6422a63"},"vehicle_type_id":"4","last_reported":1744448994,"current_range_meters":20000,"station_id":"ce4bh2h2rcd13ifvqdh0","pricing_plan_id":"cebpf4jnsgd1na2vs0mg"},{"bike_id":"e566ad28-d38b-468a-b9ac-e7b86f737322","system_id":"levelo_inurba_marseille","lat":43.24183,"lon":5.36394,"is_reserved":false,"is_disabled":false,"rental_uris":{"android":"levelo://app?vid=e566ad28-d38b-468a-b9ac-e7b86f737322","ios":"levelo://app?vid=e566ad28-d38b-468a-b9ac-e7b86f737322"},"vehicle_type_id":"4","last_reported":1744448994,"current_range_meters":20000,"station_id":"cpo36qri1sfpv3e86is0","pricing_plan_id":"cebpf4jnsgd1na2vs0mg"},{"bike_id":"2b18064e-7497-4791-b657-9f5ec8fe19a3","system_id":"levelo_inurba_marseille","lat":43.29418,"lon":5.38595,"is_reserved":false,"is_disabled":false,"rental_uris":{"android":"levelo://app?vid=2b18064e-7497-4791-b657-9f5ec8fe19a3","ios":"levelo://app?vid=2b18064e-7497-4791-b657-9f5ec8fe19a3"},"vehicle_type_id":"4","last_reported":1744448994,"current_range_meters":20000,"station_id":"ce4bh2h2rcd13ifvqdh0","pricing_plan_id":"cebpf4jnsgd1na2vs0mg"},{"bike_id":"df310f38-54f1-4481-8170-2ea0d693353a","system_id":"levelo_inurba_marseille","lat":43.25714,"lon":5.41092,"is_reserved":false,"is_disabled":false,"rental_uris":{"android":"levelo://app?vid=df310f38-54f1-4481-8170-2ea0d693353a","ios":"levelo://app?vid=df310f38-54f1-4481-8170-2ea0d693353a"},"vehicle_type_id":"4","last_reported":1744448994,"current_range_meters":20000,"station_id":"ce4bhkp2rcd13ifvqgd0","pricing_plan_id":"cebpf4jnsgd1na2vs0mg"},{"bike_id":"44ea3182-88eb-4a7d-bbc8-aa868967f1bc","system_id":"levelo_inurba_marseille","lat":43.32256,"lon":5.38944,"is_reserved":false,"is_disabled":true,"rental_uris":{"android":"levelo://app?vid=44ea3182-88eb-4a7d-bbc8-aa868967f1bc","ios":"levelo://app?vid=44ea3182-88eb-4a7d-bbc8-aa868967f1bc"},"vehicle_type_id":"4","last_reported":1744448994,"current_range_meters":20000,"station_id":"","pricing_plan_id":"cebpf4jnsgd1na2vs0mg"},{"bike_id":"a1d68007-8740-4781-910b-0b92a83a4bdf","system_id":"levelo_inurba_marseille","lat":43.28457,"lon":5.35881,"is_reserved":false,"is_disabled":false,"rental_uris":{"android":"levelo://app?vid=a1d68007-8740-4781-910b-0b92a83a4bdf","ios":"levelo://app?vid=a1d68007-8740-4781-910b-0b92a83a4bdf"},"vehicle_type_id":"4","last_reported":1744448994,"current_range_meters":20400,"station_id":"ce4bhah2rcd13ifvqei0","pricing_plan_id":"cebpf4jnsgd1na2vs0mg"},{"bike_id":"14e5f065-be2b-4c0d-879d-16cb35b620de","system_id":"levelo_inurba_marseille","lat":43.29631,"lon":5.40594,"is_reserved":false,"is_disabled":false,"rental_uris":{"android":"levelo://app?vid=14e5f065-be2b-4c0d-879d-16cb35b620de","ios":"levelo://app?vid=14e5f065-be2b-4c0d-879d-16cb35b620de"},"vehicle_type_id":"4","last_reported":1744448994,"current_range_meters":20400,"station_id":"ce4bh0h2rcd13ifvqd60","pricing_plan_id":"cebpf4jnsgd1na2vs0mg"},{"bike_id":"b0482558-f269-4c23-a79b-ff2f0441d0a3","system_id":"levelo_inurba_marseille","lat":43.30297,"lon":5.36897,"is_reserved":false,"is_disabled":false,"rental_uris":{"android":"levelo://app?vid=b0482558-f269-4c23-a79b-ff2f0441d0a3","ios":"levelo://app?vid=b0482558-f269-4c23-a79b-ff2f0441d0a3"},"vehicle_type_id":"4","last_reported":1744448994,"current_range_meters":20400,"station_id":"ce4bgqh2rcd13ifvqc5g","pricing_plan_id":"cebpf4jnsgd1na2vs0mg"},{"bike_id":"205a676e-388e-4b5d-b5d4-92bca6b76c07","system_id":"levelo_inurba_marseille","lat":43.30982,"lon":5.37149,"is_reserved":false,"is_disabled":false,"rental_uris":{"android":"levelo://app?vid=205a676e-388e-4b5d-b5d4-92bca6b76c07","ios":"levelo://app?vid=205a676e-388e-4b5d-b5d4-92bca6b76c07"},"vehicle_type_id":"4","last_reported":1744448994,"current_range_meters":20400,"station_id":"","pricing_plan_id":"cebpf4jnsgd1na2vs0mg"},{"bike_id":"e6f0faee-649a-41dc-9732-f0934376f7ce","system_id":"levelo_inurba_marseille","lat":43.27229,"lon":5.39186,"is_reserved":false,"is_disabled":false,"rental_uris":{"android":"levelo://app?vid=e6f0faee-649a-41dc-9732-f0934376f7ce","ios":"levelo://app?vid=e6f0faee-649a-41dc-9732-f0934376f7ce"},"vehicle_type_id":"4","last_reported":1744448994,"current_range_meters":20800,"station_id":"ce4bhhp2rcd13ifvqfm0","pricing_plan_id":"cebpf4jnsgd1na2vs0mg"},{"bike_id":"5e5c6a66-aa38-459c-b611-f32fd98cef96","system_id":"levelo_inurba_marseille","lat":43.3056,"lon":5.36576,"is_reserved":false,"is_disabled":false,"rental_uris":{"android":"levelo://app?vid=5e5c6a66-aa38-459c-b611-f32fd98cef96","ios":"levelo://app?vid=5e5c6a66-aa38-459c-b611-f32fd98cef96"},"vehicle_type_id":"4","last_reported":1744448994,"current_range_meters":20800,"station_id":"ce4bgs12rcd13ifvqcag","pricing_plan_id":"cebpf4jnsgd1na2vs0mg"},{"bike_id":"3971f497-e1e4-4a88-b85f-5fcbfb8b0670","system_id":"levelo_inurba_marseille","lat":43.26794,"lon":5.39412,"is_reserved":false,"is_disabled":false,"rental_uris":{"android":"levelo://app?vid=3971f497-e1e4-4a88-b85f-5fcbfb8b0670","ios":"levelo://app?vid=3971f497-e1e4-4a88-b85f-5fcbfb8b0670"},"vehicle_type_id":"4","last_reported":1744448994,"current_range_meters":20800,"station_id":"ce4bhh12rcd13ifvqfg0","pricing_plan_id":"cebpf4jnsgd1na2vs0mg"},{"bike_id":"3b23a982-1238-486d-ad96-5bd947817297","system_id":"levelo_inurba_marseille","lat":43.29611,"lon":5.40602,"is_reserved":false,"is_disabled":false,"rental_uris":{"android":"levelo://app?vid=3b23a982-1238-486d-ad96-5bd947817297","ios":"levelo://app?vid=3b23a982-1238-486d-ad96-5bd947817297"},"vehicle_type_id":"4","last_reported":1744448994,"current_range_meters":20800,"station_id":"ce4bh0h2rcd13ifvqd60","pricing_plan_id":"cebpf4jnsgd1na2vs0mg"},{"bike_id":"43b5ce93-8128-479d-b4d5-7d5237b82a20","system_id":"levelo_inurba_marseille","lat":43.24179,"lon":5.39723,"is_reserved":false,"is_disabled":false,"rental_uris":{"android":"levelo://app?vid=43b5ce93-8128-479d-b4d5-7d5237b82a20","ios":"levelo://app?vid=43b5ce93-8128-479d-b4d5-7d5237b82a20"},"vehicle_type_id":"4","last_reported":1744448994,"current_range_meters":20800,"station_id":"ce4bhn12rcd13ifvqgpg","pricing_plan_id":"cebpf4jnsgd1na2vs0mg"},{"bike_id":"65041457-5b35-4c47-a162-9668153efc3e","system_id":"levelo_inurba_marseille","lat":43.23198,"lon":5.40028,"is_reserved":false,"is_disabled":false,"rental_uris":{"android":"levelo://app?vid=65041457-5b35-4c47-a162-9668153efc3e","ios":"levelo://app?vid=65041457-5b35-4c47-a162-9668153efc3e"},"vehicle_type_id":"4","last_reported":1744448994,"current_range_meters":20800,"station_id":"ce4bhn12rcd13ifvqgqg","pricing_plan_id":"cebpf4jnsgd1na2vs0mg"},{"bike_id":"a5d7dee2-cf6a-45ff-9d2b-5a389810af22","system_id":"levelo_inurba_marseille","lat":43.29412,"lon":5.38618,"is_reserved":false,"is_disabled":false,"rental_uris":{"android":"levelo://app?vid=a5d7dee2-cf6a-45ff-9d2b-5a389810af22","ios":"levelo://app?vid=a5d7dee2-cf6a-45ff-9d2b-5a389810af22"},"vehicle_type_id":"4","last_reported":1744448994,"current_range_meters":20800,"station_id":"ce4bh2h2rcd13ifvqdh0","pricing_plan_id":"cebpf4jnsgd1na2vs0mg"},{"bike_id":"8c37b3f3-193c-47a8-ab60-eae179fb7122","system_id":"levelo_inurba_marseille","lat":43.27316,"lon":5.39086,"is_reserved":false,"is_disabled":false,"rental_uris":{"android":"levelo://app?vid=8c37b3f3-193c-47a8-ab60-eae179fb7122","ios":"levelo://app?vid=8c37b3f3-193c-47a8-ab60-eae179fb7122"},"vehicle_type_id":"4","last_reported":1744448994,"current_range_meters":20400,"station_id":"ce4bhgp2rcd13ifvqfe0","pricing_plan_id":"cebpf4jnsgd1na2vs0mg"},{"bike_id":"f373f086-3439-42c6-8e87-fe80eaa95b9d","system_id":"levelo_inurba_marseille","lat":43.28923,"lon":5.36242,"is_reserved":false,"is_disabled":false,"rental_uris":{"android":"levelo://app?vid=f373f086-3439-42c6-8e87-fe80eaa95b9d","ios":"levelo://app?vid=f373f086-3439-42c6-8e87-fe80eaa95b9d"},"vehicle_type_id":"4","last_reported":1744448994,"current_range_meters":21600,"station_id":"","pricing_plan_id":"cebpf4jnsgd1na2vs0mg"},{"bike_id":"2535ef12-ae7e-412b-86c9-dfa1f3cb2843","system_id":"levelo_inurba_marseille","lat":43.22502,"lon":5.34784,"is_reserved":false,"is_disabled":false,"rental_uris":{"android":"levelo://app?vid=2535ef12-ae7e-412b-86c9-dfa1f3cb2843","ios":"levelo://app?vid=2535ef12-ae7e-412b-86c9-dfa1f3cb2843"},"vehicle_type_id":"4","last_reported":1744448994,"current_range_meters":21600,"station_id":"","pricing_plan_id":"cebpf4jnsgd1na2vs0mg"},{"bike_id":"e806c25b-5d21-4a54-8ba8-a894af27cc8d","system_id":"levelo_inurba_marseille","lat":43.27839,"lon":5.39188,"is_reserved":false,"is_disabled":true,"rental_uris":{"android":"levelo://app?vid=e806c25b-5d21-4a54-8ba8-a894af27cc8d","ios":"levelo://app?vid=e806c25b-5d21-4a54-8ba8-a894af27cc8d"},"vehicle_type_id":"4","last_reported":1744448994,"current_range_meters":21600,"station_id":"ce4bhjp2rcd13ifvqga0","pricing_plan_id":"cebpf4jnsgd1na2vs0mg"},{"bike_id":"e617923d-5e38-4ab5-9f0a-d006b9dcc88d","system_id":"levelo_inurba_marseille","lat":43.29536,"lon":5.38551,"is_reserved":false,"is_disabled":true,"rental_uris":{"android":"levelo://app?vid=e617923d-5e38-4ab5-9f0a-d006b9dcc88d","ios":"levelo://app?vid=e617923d-5e38-4ab5-9f0a-d006b9dcc88d"},"vehicle_type_id":"4","last_reported":1744448994,"current_range_meters":21600,"station_id":"ce4bgih2rcd13ifvqba0","pricing_plan_id":"cebpf4jnsgd1na2vs0mg"},{"bike_id":"89d9dd25-9958-497e-8ecd-ec9c250c59f6","system_id":"levelo_inurba_marseille","lat":43.24386,"lon":5.37047,"is_reserved":false,"is_disabled":false,"rental_uris":{"android":"levelo://app?vid=89d9dd25-9958-497e-8ecd-ec9c250c59f6","ios":"levelo://app?vid=89d9dd25-9958-497e-8ecd-ec9c250c59f6"},"vehicle_type_id":"4","last_reported":1744448994,"current_range_meters":21600,"station_id":"ce4bhhh2rcd13ifvqfk0","pricing_plan_id":"cebpf4jnsgd1na2vs0mg"},{"bike_id":"c6e6f798-127d-4eb9-8a4b-7f7c0bbde0ac","system_id":"levelo_inurba_marseille","lat":43.25,"lon":5.38938,"is_reserved":false,"is_disabled":false,"rental_uris":{"android":"levelo://app?vid=c6e6f798-127d-4eb9-8a4b-7f7c0bbde0ac","ios":"levelo://app?vid=c6e6f798-127d-4eb9-8a4b-7f7c0bbde0ac"},"vehicle_type_id":"4","last_reported":1744448994,"current_range_meters":21600,"station_id":"ce4bhgp2rcd13ifvqfd0","pricing_plan_id":"cebpf4jnsgd1na2vs0mg"},{"bike_id":"e0008dfb-52bb-4bec-8959-90e103d42c2c","system_id":"levelo_inurba_marseille","lat":43.29413,"lon":5.38614,"is_reserved":false,"is_disabled":false,"rental_uris":{"android":"levelo://app?vid=e0008dfb-52bb-4bec-8959-90e103d42c2c","ios":"levelo://app?vid=e0008dfb-52bb-4bec-8959-90e103d42c2c"},"vehicle_type_id":"4","last_reported":1744448994,"current_range_meters":21600,"station_id":"ce4bh2h2rcd13ifvqdh0","pricing_plan_id":"cebpf4jnsgd1na2vs0mg"},{"bike_id":"09358592-bb66-4403-a01c-9ea13291ca49","system_id":"levelo_inurba_marseille","lat":43.31594,"lon":5.403909,"is_reserved":false,"is_disabled":false,"rental_uris":{"android":"levelo://app?vid=09358592-bb66-4403-a01c-9ea13291ca49","ios":"levelo://app?vid=09358592-bb66-4403-a01c-9ea13291ca49"},"vehicle_type_id":"4","last_reported":1744448994,"current_range_meters":21600,"station_id":"ce4bhl12rcd13ifvqgf0","pricing_plan_id":"cebpf4jnsgd1na2vs0mg"},{"bike_id":"d3800c82-cfe1-4348-adcf-2e42b3bbfed1","system_id":"levelo_inurba_marseille","lat":43.30464,"lon":5.379,"is_reserved":false,"is_disabled":false,"rental_uris":{"android":"levelo://app?vid=d3800c82-cfe1-4348-adcf-2e42b3bbfed1","ios":"levelo://app?vid=d3800c82-cfe1-4348-adcf-2e42b3bbfed1"},"vehicle_type_id":"4","last_reported":1744448994,"current_range_meters":21600,"station_id":"ce4bgup2rcd13ifvqcn0","pricing_plan_id":"cebpf4jnsgd1na2vs0mg"},{"bike_id":"621f3b64-720d-4a47-8fde-0fcede6ac6b8","system_id":"levelo_inurba_marseille","lat":43.30544,"lon":5.3653,"is_reserved":false,"is_disabled":false,"rental_uris":{"android":"levelo://app?vid=621f3b64-720d-4a47-8fde-0fcede6ac6b8","ios":"levelo://app?vid=621f3b64-720d-4a47-8fde-0fcede6ac6b8"},"vehicle_type_id":"4","last_reported":1744448994,"current_range_meters":21600,"station_id":"ce4bgs12rcd13ifvqcag","pricing_plan_id":"cebpf4jnsgd1na2vs0mg"},{"bike_id":"95182034-8422-431e-82b2-30b64abbb820","system_id":"levelo_inurba_marseille","lat":43.29003,"lon":5.35605,"is_reserved":false,"is_disabled":false,"rental_uris":{"android":"levelo://app?vid=95182034-8422-431e-82b2-30b64abbb820","ios":"levelo://app?vid=95182034-8422-431e-82b2-30b64abbb820"},"vehicle_type_id":"4","last_reported":1744448994,"current_range_meters":21600,"station_id":"ce4bhb92rcd13ifvqen0","pricing_plan_id":"cebpf4jnsgd1na2vs0mg"},{"bike_id":"1d018e93-4a25-4ff3-bf3f-fef5b5550242","system_id":"levelo_inurba_marseille","lat":43.28464,"lon":5.35879,"is_reserved":false,"is_disabled":false,"rental_uris":{"android":"levelo://app?vid=1d018e93-4a25-4ff3-bf3f-fef5b5550242","ios":"levelo://app?vid=1d018e93-4a25-4ff3-bf3f-fef5b5550242"},"vehicle_type_id":"4","last_reported":1744448994,"current_range_meters":21600,"station_id":"ce4bhah2rcd13ifvqei0","pricing_plan_id":"cebpf4jnsgd1na2vs0mg"},{"bike_id":"5d4e6d11-330c-40b9-a698-c6aeeaf04b8d","system_id":"levelo_inurba_marseille","lat":43.28476,"lon":5.38403,"is_reserved":false,"is_disabled":false,"rental_uris":{"android":"levelo://app?vid=5d4e6d11-330c-40b9-a698-c6aeeaf04b8d","ios":"levelo://app?vid=5d4e6d11-330c-40b9-a698-c6aeeaf04b8d"},"vehicle_type_id":"4","last_reported":1744448994,"current_range_meters":21600,"station_id":"ce4bh512rcd13ifvqe3g","pricing_plan_id":"cebpf4jnsgd1na2vs0mg"},{"bike_id":"d63814ad-5123-4412-be3c-d26994547856","system_id":"levelo_inurba_marseille","lat":43.303,"lon":5.36895,"is_reserved":false,"is_disabled":false,"rental_uris":{"android":"levelo://app?vid=d63814ad-5123-4412-be3c-d26994547856","ios":"levelo://app?vid=d63814ad-5123-4412-be3c-d26994547856"},"vehicle_type_id":"4","last_reported":1744448994,"current_range_meters":22000,"station_id":"ce4bgqh2rcd13ifvqc5g","pricing_plan_id":"cebpf4jnsgd1na2vs0mg"},{"bike_id":"4fd930eb-231e-42bb-b28f-6aa71fde6119","system_id":"levelo_inurba_marseille","lat":43.23056,"lon":5.35488,"is_reserved":false,"is_disabled":false,"rental_uris":{"android":"levelo://app?vid=4fd930eb-231e-42bb-b28f-6aa71fde6119","ios":"levelo://app?vid=4fd930eb-231e-42bb-b28f-6aa71fde6119"},"vehicle_type_id":"4","last_reported":1744448994,"current_range_meters":22000,"station_id":"cpo3342slgdg3j2ifvpg","pricing_plan_id":"cebpf4jnsgd1na2vs0mg"},{"bike_id":"348eddfb-5d2c-4f3f-a987-aff7616827fa","system_id":"levelo_inurba_marseille","lat":43.26929,"lon":5.38914,"is_reserved":false,"is_disabled":false,"rental_uris":{"android":"levelo://app?vid=348eddfb-5d2c-4f3f-a987-aff7616827fa","ios":"levelo://app?vid=348eddfb-5d2c-4f3f-a987-aff7616827fa"},"vehicle_type_id":"4","last_reported":1744448994,"current_range_meters":21600,"station_id":"ce4bhhh2rcd13ifvqfl0","pricing_plan_id":"cebpf4jnsgd1na2vs0mg"},{"bike_id":"f9f6e2cf-115b-4183-9cc3-745fae0fc5d7","system_id":"levelo_inurba_marseille","lat":43.29417,"lon":5.38563,"is_reserved":false,"is_disabled":false,"rental_uris":{"android":"levelo://app?vid=f9f6e2cf-115b-4183-9cc3-745fae0fc5d7","ios":"levelo://app?vid=f9f6e2cf-115b-4183-9cc3-745fae0fc5d7"},"vehicle_type_id":"4","last_reported":1744448994,"current_range_meters":22000,"station_id":"","pricing_plan_id":"cebpf4jnsgd1na2vs0mg"},{"bike_id":"b60e9a9b-68ed-47f2-98f1-77aaced3a01b","system_id":"levelo_inurba_marseille","lat":43.26799,"lon":5.40267,"is_reserved":false,"is_disabled":false,"rental_uris":{"android":"levelo://app?vid=b60e9a9b-68ed-47f2-98f1-77aaced3a01b","ios":"levelo://app?vid=b60e9a9b-68ed-47f2-98f1-77aaced3a01b"},"vehicle_type_id":"4","last_reported":1744448994,"current_range_meters":22000,"station_id":"ce501612rcd8frsf0b60","pricing_plan_id":"cebpf4jnsgd1na2vs0mg"},{"bike_id":"b017530e-d67f-470d-8a40-5b2e49373dfb","system_id":"levelo_inurba_marseille","lat":43.318146,"lon":5.391064,"is_reserved":false,"is_disabled":false,"rental_uris":{"android":"levelo://app?vid=b017530e-d67f-470d-8a40-5b2e49373dfb","ios":"levelo://app?vid=b017530e-d67f-470d-8a40-5b2e49373dfb"},"vehicle_type_id":"4","last_reported":1744448994,"current_range_meters":21600,"station_id":"ce4bhqp2rcd13ifvqhng","pricing_plan_id":"cebpf4jnsgd1na2vs0mg"},{"bike_id":"bdb015ff-ee1f-42d5-8019-786833681b47","system_id":"levelo_inurba_marseille","lat":43.23145,"lon":5.4372,"is_reserved":false,"is_disabled":false,"rental_uris":{"android":"levelo://app?vid=bdb015ff-ee1f-42d5-8019-786833681b47","ios":"levelo://app?vid=bdb015ff-ee1f-42d5-8019-786833681b47"},"vehicle_type_id":"4","last_reported":1744448994,"current_range_meters":22000,"station_id":"ce4bhmp2rcd13ifvqgog","pricing_plan_id":"cebpf4jnsgd1na2vs0mg"},{"bike_id":"35c643e7-29eb-4193-a88d-695415097804","system_id":"levelo_inurba_marseille","lat":43.25818,"lon":5.39431,"is_reserved":false,"is_disabled":false,"rental_uris":{"android":"levelo://app?vid=35c643e7-29eb-4193-a88d-695415097804","ios":"levelo://app?vid=35c643e7-29eb-4193-a88d-695415097804"},"vehicle_type_id":"4","last_reported":1744448994,"current_range_meters":21600,"station_id":"ce4bhip2rcd13ifvqft0","pricing_plan_id":"cebpf4jnsgd1na2vs0mg"},{"bike_id":"a602e3a5-c3bf-48d0-b571-fc71b654dc58","system_id":"levelo_inurba_marseille","lat":43.29574,"lon":5.37517,"is_reserved":false,"is_disabled":false,"rental_uris":{"android":"levelo://app?vid=a602e3a5-c3bf-48d0-b571-fc71b654dc58","ios":"levelo://app?vid=a602e3a5-c3bf-48d0-b571-fc71b654dc58"},"vehicle_type_id":"4","last_reported":1744448994,"current_range_meters":21600,"station_id":"ce4bgh92rcd13ifvqb50","pricing_plan_id":"cebpf4jnsgd1na2vs0mg"},{"bike_id":"56112800-b3d7-45e6-9092-d93f23b59d24","system_id":"levelo_inurba_marseille","lat":43.29277,"lon":5.40111,"is_reserved":false,"is_disabled":false,"rental_uris":{"android":"levelo://app?vid=56112800-b3d7-45e6-9092-d93f23b59d24","ios":"levelo://app?vid=56112800-b3d7-45e6-9092-d93f23b59d24"},"vehicle_type_id":"4","last_reported":1744448994,"current_range_meters":22400,"station_id":"ce4bh312rcd13ifvqdk0","pricing_plan_id":"cebpf4jnsgd1na2vs0mg"},{"bike_id":"ff91c3b7-8d85-45a9-ba24-df0e63bcf82e","system_id":"levelo_inurba_marseille","lat":43.3014,"lon":5.37398,"is_reserved":false,"is_disabled":false,"rental_uris":{"android":"levelo://app?vid=ff91c3b7-8d85-45a9-ba24-df0e63bcf82e","ios":"levelo://app?vid=ff91c3b7-8d85-45a9-ba24-df0e63bcf82e"},"vehicle_type_id":"4","last_reported":1744448994,"current_range_meters":22400,"station_id":"ce4bgs92rcd13ifvqcc0","pricing_plan_id":"cebpf4jnsgd1na2vs0mg"},{"bike_id":"88d5dc89-2604-4426-b6ff-7a5e32490b9c","system_id":"levelo_inurba_marseille","lat":43.30326,"lon":5.40428,"is_reserved":false,"is_disabled":false,"rental_uris":{"android":"levelo://app?vid=88d5dc89-2604-4426-b6ff-7a5e32490b9c","ios":"levelo://app?vid=88d5dc89-2604-4426-b6ff-7a5e32490b9c"},"vehicle_type_id":"4","last_reported":1744448994,"current_range_meters":22000,"station_id":"ce4bh012rcd13ifvqd10","pricing_plan_id":"cebpf4jnsgd1na2vs0mg"},{"bike_id":"50f3a6ca-1b32-4e17-a21b-a50e16960e96","system_id":"levelo_inurba_marseille","lat":43.337766,"lon":5.374441,"is_reserved":false,"is_disabled":false,"rental_uris":{"android":"levelo://app?vid=50f3a6ca-1b32-4e17-a21b-a50e16960e96","ios":"levelo://app?vid=50f3a6ca-1b32-4e17-a21b-a50e16960e96"},"vehicle_type_id":"4","last_reported":1744448994,"current_range_meters":22400,"station_id":"","pricing_plan_id":"cebpf4jnsgd1na2vs0mg"},