{"last_updated":1706681357,"ttl":30,"version":"2.2","data":{"bikes":[{"bike_id":"4e2d73f0-42c8-4008-85f5-c56e6f077d81","system_id":"levelo_inurba_marseille","lat":43.313391,"lon":5.36706,"is_reserved":false,"is_disabled":false,"rental_uris":{"android":"levelo://app?vid=4e2d73f0-42c8-4008-85f5-c56e6f077d81","ios":"levelo://app?vid=4e2d73f0-42c8-4008-85f5-c56e6f077d81"},"vehicle_type_id":"4","last_reported":1706681357,"current_range_meters":24000,"station_id":"ce4bgr92rcd13ifvqc6g","pricing_plan_id":"free"},{"bike_id":"1154d152-f0b1-41ce-b970-cda7068097fc","system_id":"levelo_inurba_marseille","lat":43.313391,"lon":5.36706,"is_reserved":false,"is_disabled":false,"rental_uris":{"android":"levelo://app?vid=1154d152-f0b1-41ce-b970-cda7068097fc","ios":"levelo://app?vid=1154d152-f0b1-41ce-b970-cda7068097fc"},"vehicle_type_id":"4","last_reported":1706681357,"current_range_meters":27200,"station_id":"ce4bgr92rcd13ifvqc6g","pricing_plan_id":"free"},{"bike_id":"c4c1b484-a2e7-4365-ad15-01ac7be13035","system_id":"levelo_inurba_marseille","lat":43.313391,"lon":5.36706,"is_reserved":false,"is_disabled":false,"rental_uris":{"android":"levelo://app?vid=c4c1b484-a2e7-4365-ad15-01ac7be13035","ios":"levelo://app?vid=c4c1b484-a2e7-4365-ad15-01ac7be13035"},"vehicle_type_id":"4","last_reported":1706681357,"current_range_meters":28400,"station_id":"ce4bgr92rcd13ifvqc6g","pricing_plan_id":"free"},{"bike_id":"0fa49698-ac4e-4e0f-b8db-f81afa33b628","system_id":"levelo_inurba_marseille","lat":43.313391,"lon":5.36706,"is_reserved":false,"is_disabled":false,"rental_uris":{"android":"levelo://app?vid=0fa49698-ac4e-4e0f-b8db-f81afa33b628","ios":"levelo://app?vid=0fa49698-ac4e-4e0f-b8db-f81afa33b628"},"vehicle_type_id":"4","last_reported":1706681357,"current_range_meters":31600,"station_id":"ce4bgr92rcd13ifvqc6g","pricing_plan_id":"free"},{"bike_id":"7d731cec-0a6e-41af-a324-641e12930166","system_id":"levelo_inurba_marseille","lat":43.312239,"lon":5.368562,"is_reserved":false,"is_disabled":false,"rental_uris":{"android":"levelo://app?vid=7d731cec-0a6e-41af-a324-641e12930166","ios":"levelo://app?vid=7d731cec-0a6e-41af-a324-641e12930166"},"vehicle_type_id":"4","last_reported":1706681357,"current_range_meters":22000,"station_id":"ce4bgl92rcd13ifvqbq0","pricing_plan_id":"free"},{"bike_id":"6fddfb66-c508-4aa0-8c0d-8bfb67b0d329","system_id":"levelo_inurba_marseille","lat":43.313401,"lon":5.371301,"is_reserved":false,"is_disabled":false,"rental_uris":{"android":"levelo://app?vid=6fddfb66-c508-4aa0-8c0d-8bfb67b0d329","ios":"levelo://app?vid=6fddfb66-c508-4aa0-8c0d-8bfb67b0d329"},"vehicle_type_id":"4","last_reported":1706681357,"current_range_meters":16800,"station_id":"","pricing_plan_id":"free"},{"bike_id":"af37f565-0836-43a7-a9fd-bd65c6f2e8eb","system_id":"levelo_inurba_marseille","lat":43.309076,"lon":5.368465,"is_reserved":false,"is_disabled":false,"rental_uris":{"android":"levelo://app?vid=af37f565-0836-43a7-a9fd-bd65c6f2e8eb","ios":"levelo://app?vid=af37f565-0836-43a7-a9fd-bd65c6f2e8eb"},"vehicle_type_id":"4","last_reported":1706681357,"current_range_meters":21600,"station_id":"ce4bgn92rcd13ifvqbvg","pricing_plan_id":"free"},{"bike_id":"17ee5691-5efd-4df8-9779-ef8bf821e58f","system_id":"levelo_inurba_marseille","lat":43.31483,"lon":5.373,"is_reserved":false,"is_disabled":false,"rental_uris":{"android":"levelo://app?vid=17ee5691-5efd-4df8-9779-ef8bf821e58f","ios":"levelo://app?vid=17ee5691-5efd-4df8-9779-ef8bf821e58f"},"vehicle_type_id":"4","last_reported":1706681357,"current_range_meters":10400,"station_id":"ce4bgt12rcd13ifvqcd0","pricing_plan_id":"free"},{"bike_id":"5a68f9e3-8692-4a88-a2b7-7c2e6aa3eba3","system_id":"levelo_inurba_marseille","lat":43.314811,"lon":5.373103,"is_reserved":false,"is_disabled":false,"rental_uris":{"android":"levelo://app?vid=5a68f9e3-8692-4a88-a2b7-7c2e6aa3eba3","ios":"levelo://app?vid=5a68f9e3-8692-4a88-a2b7-7c2e6aa3eba3"},"vehicle_type_id":"4","last_reported":1706681357,"current_range_meters":30800,"station_id":"ce4bgt12rcd13ifvqcd0","pricing_plan_id":"free"},{"bike_id":"42d2c531-6b4f-4ca8-a1b4-cd1e0ed38138","system_id":"levelo_inurba_marseille","lat":43.314811,"lon":5.373104,"is_reserved":false,"is_disabled":false,"rental_uris":{"android":"levelo://app?vid=42d2c531-6b4f-4ca8-a1b4-cd1e0ed38138","ios":"levelo://app?vid=42d2c531-6b4f-4ca8-a1b4-cd1e0ed38138"},"vehicle_type_id":"4","last_reported":1706681357,"current_range_meters":20400,"station_id":"ce4bgt12rcd13ifvqcd0","pricing_plan_id":"free"},{"bike_id":"91699f7a-53d8-426c-bbb5-de3bd39619aa","system_id":"levelo_inurba_marseille","lat":43.305368,"lon":5.367343,"is_reserved":false,"is_disabled":false,"rental_uris":{"android":"levelo://app?vid=91699f7a-53d8-426c-bbb5-de3bd39619aa","ios":"levelo://app?vid=91699f7a-53d8-426c-bbb5-de3bd39619aa"},"vehicle_type_id":"4","last_reported":1706681357,"current_range_meters":19600,"station_id":"ce4bgrp2rcd13ifvqc9g","pricing_plan_id":"free"},{"bike_id":"cc4e9169-5b59-48c9-b0cd-26143d5601b5","system_id":"levelo_inurba_marseille","lat":43.305368,"lon":5.367343,"is_reserved":false,"is_disabled":false,"rental_uris":{"android":"levelo://app?vid=cc4e9169-5b59-48c9-b0cd-26143d5601b5","ios":"levelo://app?vid=cc4e9169-5b59-48c9-b0cd-26143d5601b5"},"vehicle_type_id":"4","last_reported":1706681357,"current_range_meters":27600,"station_id":"ce4bgrp2rcd13ifvqc9g","pricing_plan_id":"free"},{"bike_id":"1560108e-29bc-4576-871d-4c44a946e513","system_id":"levelo_inurba_marseille","lat":43.305368,"lon":5.367343,"is_reserved":false,"is_disabled":false,"rental_uris":{"android":"levelo://app?vid=1560108e-29bc-4576-871d-4c44a946e513","ios":"levelo://app?vid=1560108e-29bc-4576-871d-4c44a946e513"},"vehicle_type_id":"4","last_reported":1706681357,"current_range_meters":20000,"station_id":"ce4bgrp2rcd13ifvqc9g","pricing_plan_id":"free"},{"bike_id":"e8d62b5b-16b3-498f-aabf-b685c01721c5","system_id":"levelo_inurba_marseille","lat":43.305714,"lon":5.365633,"is_reserved":false,"is_disabled":false,"rental_uris":{"android":"levelo://app?vid=e8d62b5b-16b3-498f-aabf-b685c01721c5","ios":"levelo://app?vid=e8d62b5b-16b3-498f-aabf-b685c01721c5"},"vehicle_type_id":"4","last_reported":1706681357,"current_range_meters":23600,"station_id":"ce4bgs12rcd13ifvqcag","pricing_plan_id":"free"},{"bike_id":"0ea16c6f-24af-4110-981c-a01164eb573f","system_id":"levelo_inurba_marseille","lat":43.305368,"lon":5.367343,"is_reserved":false,"is_disabled":false,"rental_uris":{"android":"levelo://app?vid=0ea16c6f-24af-4110-981c-a01164eb573f","ios":"levelo://app?vid=0ea16c6f-24af-4110-981c-a01164eb573f"},"vehicle_type_id":"4","last_reported":1706681357,"current_range_meters":20800,"station_id":"ce4bgrp2rcd13ifvqc9g","pricing_plan_id":"free"},{"bike_id":"e73f9617-a4d0-4951-86a4-6c1b92ba8fa4","system_id":"levelo_inurba_marseille","lat":43.305706,"lon":5.365654,"is_reserved":false,"is_disabled":false,"rental_uris":{"android":"levelo://app?vid=e73f9617-a4d0-4951-86a4-6c1b92ba8fa4","ios":"levelo://app?vid=e73f9617-a4d0-4951-86a4-6c1b92ba8fa4"},"vehicle_type_id":"4","last_reported":1706681357,"current_range_meters":6800,"station_id":"ce4bgs12rcd13ifvqcag","pricing_plan_id":"free"},{"bike_id":"00496c4b-c9b1-408b-b2fe-513e22ef23cd","system_id":"levelo_inurba_marseille","lat":43.305706,"lon":5.365654,"is_reserved":false,"is_disabled":false,"rental_uris":{"android":"levelo://app?vid=00496c4b-c9b1-408b-b2fe-513e22ef23cd","ios":"levelo://app?vid=00496c4b-c9b1-408b-b2fe-513e22ef23cd"},"vehicle_type_id":"4","last_reported":1706681357,"current_range_meters":19200,"station_id":"ce4bgs12rcd13ifvqcag","pricing_plan_id":"free"},{"bike_id":"9d1d0217-081c-4ab6-8348-39ef111c6efd","system_id":"levelo_inurba_marseille","lat":43.311131,"lon":5.377651,"is_reserved":false,"is_disabled":false,"rental_uris":{"android":"levelo://app?vid=9d1d0217-081c-4ab6-8348-39ef111c6efd","ios":"levelo://app?vid=9d1d0217-081c-4ab6-8348-39ef111c6efd"},"vehicle_type_id":"4","last_reported":1706681357,"current_range_meters":4000,"station_id":"ce4bgt92rcd13ifvqcg0","pricing_plan_id":"free"},{"bike_id":"022b2903-4ca0-4662-981d-7887d672e0de","system_id":"levelo_inurba_marseille","lat":43.311131,"lon":5.377651,"is_reserved":false,"is_disabled":false,"rental_uris":{"android":"levelo://app?vid=022b2903-4ca0-4662-981d-7887d672e0de","ios":"levelo://app?vid=022b2903-4ca0-4662-981d-7887d672e0de"},"vehicle_type_id":"4","last_reported":1706681357,"current_range_meters":25600,"station_id":"ce4bgt92rcd13ifvqcg0","pricing_plan_id":"free"},{"bike_id":"031e3ba2-31d4-4fa3-9744-b143087b2c37","system_id":"levelo_inurba_marseille","lat":43.311131,"lon":5.377651,"is_reserved":false,"is_disabled":false,"rental_uris":{"android":"levelo://app?vid=031e3ba2-31d4-4fa3-9744-b143087b2c37","ios":"levelo://app?vid=031e3ba2-31d4-4fa3-9744-b143087b2c37"},"vehicle_type_id":"4","last_reported":1706681357,"current_range_meters":10400,"station_id":"ce4bgt92rcd13ifvqcg0","pricing_plan_id":"free"},{"bike_id":"352ca5fd-0138-4f95-82e7-efe41a4ae43e","system_id":"levelo_inurba_marseille","lat":43.311154,"lon":5.377676,"is_reserved":false,"is_disabled":false,"rental_uris":{"android":"levelo://app?vid=352ca5fd-0138-4f95-82e7-efe41a4ae43e","ios":"levelo://app?vid=352ca5fd-0138-4f95-82e7-efe41a4ae43e"},"vehicle_type_id":"4","last_reported":1706681357,"current_range_meters":30800,"station_id":"","pricing_plan_id":"free"},{"bike_id":"16f0db0d-4203-433e-a68c-a5f8f85bc991","system_id":"levelo_inurba_marseille","lat":43.311131,"lon":5.377651,"is_reserved":false,"is_disabled":false,"rental_uris":{"android":"levelo://app?vid=16f0db0d-4203-433e-a68c-a5f8f85bc991","ios":"levelo://app?vid=16f0db0d-4203-433e-a68c-a5f8f85bc991"},"vehicle_type_id":"4","last_reported":1706681357,"current_range_meters":20800,"station_id":"ce4bgt92rcd13ifvqcg0","pricing_plan_id":"free"},{"bike_id":"f11d4cde-3af7-4167-848a-dcd78644fab3","system_id":"levelo_inurba_marseille","lat":43.307945,"lon":5.376487,"is_reserved":false,"is_disabled":false,"rental_uris":{"android":"levelo://app?vid=f11d4cde-3af7-4167-848a-dcd78644fab3","ios":"levelo://app?vid=f11d4cde-3af7-4167-848a-dcd78644fab3"},"vehicle_type_id":"4","last_reported":1706681357,"current_range_meters":31200,"station_id":"ce4bgv92rcd13ifvqcq0","pricing_plan_id":"free"},{"bike_id":"c009a0b3-7aeb-4b99-86b6-48f0bfaeb73d","system_id":"levelo_inurba_marseille","lat":43.307792,"lon":5.376538,"is_reserved":false,"is_disabled":false,"rental_uris":{"android":"levelo://app?vid=c009a0b3-7aeb-4b99-86b6-48f0bfaeb73d","ios":"levelo://app?vid=c009a0b3-7aeb-4b99-86b6-48f0bfaeb73d"},"vehicle_type_id":"4","last_reported":1706681357,"current_range_meters":20800,"station_id":"ce4bgv92rcd13ifvqcq0","pricing_plan_id":"free"},{"bike_id":"f347f88a-278b-4fc6-8dbe-884f61b3ab1f","system_id":"levelo_inurba_marseille","lat":43.307722,"lon":5.376562,"is_reserved":false,"is_disabled":false,"rental_uris":{"android":"levelo://app?vid=f347f88a-278b-4fc6-8dbe-884f61b3ab1f","ios":"levelo://app?vid=f347f88a-278b-4fc6-8dbe-884f61b3ab1f"},"vehicle_type_id":"4","last_reported":1706681357,"current_range_meters":24800,"station_id":"ce4bgv92rcd13ifvqcq0","pricing_plan_id":"free"},{"bike_id":"28276cf1-0f07-422f-b0df-5a376dc3fc12","system_id":"levelo_inurba_marseille","lat":43.31701,"lon":5.377439,"is_reserved":false,"is_disabled":false,"rental_uris":{"android":"levelo://app?vid=28276cf1-0f07-422f-b0df-5a376dc3fc12","ios":"levelo://app?vid=28276cf1-0f07-422f-b0df-5a376dc3fc12"},"vehicle_type_id":"4","last_reported":1706681357,"current_range_meters":18800,"station_id":"ce4bgth2rcd13ifvqch0","pricing_plan_id":"free"},{"bike_id":"30eb0130-d2cd-4f72-85c3-16bf3068d200","system_id":"levelo_inurba_marseille","lat":43.317065,"lon":5.377506,"is_reserved":false,"is_disabled":false,"rental_uris":{"android":"levelo://app?vid=30eb0130-d2cd-4f72-85c3-16bf3068d200","ios":"levelo://app?vid=30eb0130-d2cd-4f72-85c3-16bf3068d200"},"vehicle_type_id":"4","last_reported":1706681357,"current_range_meters":31200,"station_id":"ce4bgth2rcd13ifvqch0","pricing_plan_id":"free"},{"bike_id":"703f336d-dcdd-40b6-ba9b-2c7593792174","system_id":"levelo_inurba_marseille","lat":43.317075,"lon":5.377367,"is_reserved":false,"is_disabled":false,"rental_uris":{"android":"levelo://app?vid=703f336d-dcdd-40b6-ba9b-2c7593792174","ios":"levelo://app?vid=703f336d-dcdd-40b6-ba9b-2c7593792174"},"vehicle_type_id":"4","last_reported":1706681357,"current_range_meters":27600,"station_id":"ce4bgth2rcd13ifvqch0","pricing_plan_id":"free"},{"bike_id":"dde20fd7-b501-4e05-a7e9-cdc8644751ff","system_id":"levelo_inurba_marseille","lat":43.30313,"lon":5.36889,"is_reserved":false,"is_disabled":false,"rental_uris":{"android":"levelo://app?vid=dde20fd7-b501-4e05-a7e9-cdc8644751ff","ios":"levelo://app?vid=dde20fd7-b501-4e05-a7e9-cdc8644751ff"},"vehicle_type_id":"4","last_reported":1706681357,"current_range_meters":24400,"station_id":"ce4bgqh2rcd13ifvqc5g","pricing_plan_id":"free"},{"bike_id":"f451b387-0e79-4dde-bd10-32f4ba4d50bd","system_id":"levelo_inurba_marseille","lat":43.30824,"lon":5.37928,"is_reserved":false,"is_disabled":false,"rental_uris":{"android":"levelo://app?vid=f451b387-0e79-4dde-bd10-32f4ba4d50bd","ios":"levelo://app?vid=f451b387-0e79-4dde-bd10-32f4ba4d50bd"},"vehicle_type_id":"4","last_reported":1706681357,"current_range_meters":4400,"station_id":"","pricing_plan_id":"free"},{"bike_id":"1be54e8b-4623-4930-8ef1-b1c49678120f","system_id":"levelo_inurba_marseille","lat":43.301939,"lon":5.366286,"is_reserved":false,"is_disabled":false,"rental_uris":{"android":"levelo://app?vid=1be54e8b-4623-4930-8ef1-b1c49678120f","ios":"levelo://app?vid=1be54e8b-4623-4930-8ef1-b1c49678120f"},"vehicle_type_id":"4","last_reported":1706681357,"current_range_meters":6400,"station_id":"ce4bgrh2rcd13ifvqc8g","pricing_plan_id":"free"},{"bike_id":"c27583c4-4b13-4679-928b-16b1ec8a6b83","system_id":"levelo_inurba_marseille","lat":43.308012,"lon":5.381511,"is_reserved":false,"is_disabled":false,"rental_uris":{"android":"levelo://app?vid=c27583c4-4b13-4679-928b-16b1ec8a6b83","ios":"levelo://app?vid=c27583c4-4b13-4679-928b-16b1ec8a6b83"},"vehicle_type_id":"4","last_reported":1706681357,"current_range_meters":23600,"station_id":"ce4bgt12rcd13ifvqce0","pricing_plan_id":"free"},{"bike_id":"e9eb8fc4-d945-4ffc-ab0c-41866a82135e","system_id":"levelo_inurba_marseille","lat":43.304606,"lon":5.379026,"is_reserved":false,"is_disabled":false,"rental_uris":{"android":"levelo://app?vid=e9eb8fc4-d945-4ffc-ab0c-41866a82135e","ios":"levelo://app?vid=e9eb8fc4-d945-4ffc-ab0c-41866a82135e"},"vehicle_type_id":"4","last_reported":1706681357,"current_range_meters":31200,"station_id":"ce4bgup2rcd13ifvqcn0","pricing_plan_id":"free"},{"bike_id":"c8962dd3-2dc2-4bfa-a2e4-0be536691d69","system_id":"levelo_inurba_marseille","lat":43.304606,"lon":5.379026,"is_reserved":false,"is_disabled":false,"rental_uris":{"android":"levelo://app?vid=c8962dd3-2dc2-4bfa-a2e4-0be536691d69","ios":"levelo://app?vid=c8962dd3-2dc2-4bfa-a2e4-0be536691d69"},"vehicle_type_id":"4","last_reported":1706681357,"current_range_meters":27600,"station_id":"ce4bgup2rcd13ifvqcn0","pricing_plan_id":"free"},{"bike_id":"26c33530-3623-428f-99f5-bfad01dfd70d","system_id":"levelo_inurba_marseille","lat":43.304606,"lon":5.379026,"is_reserved":false,"is_disabled":false,"rental_uris":{"android":"levelo://app?vid=26c33530-3623-428f-99f5-bfad01dfd70d","ios":"levelo://app?vid=26c33530-3623-428f-99f5-bfad01dfd70d"},"vehicle_type_id":"4","last_reported":1706681357,"current_range_meters":31200,"station_id":"ce4bgup2rcd13ifvqcn0","pricing_plan_id":"free"},{"bike_id":"65c73999-21cf-453d-9c65-9a9904c330c7","system_id":"levelo_inurba_marseille","lat":43.304606,"lon":5.379026,"is_reserved":false,"is_disabled":false,"rental_uris":{"android":"levelo://app?vid=65c73999-21cf-453d-9c65-9a9904c330c7","ios":"levelo://app?vid=65c73999-21cf-453d-9c65-9a9904c330c7"},"vehicle_type_id":"4","last_reported":1706681357,"current_range_meters":10000,"station_id":"ce4bgup2rcd13ifvqcn0","pricing_plan_id":"free"},{"bike_id":"f493a0ae-e4df-4d2e-8166-1073dea97fdb","system_id":"levelo_inurba_marseille","lat":43.304606,"lon":5.379026,"is_reserved":false,"is_disabled":false,"rental_uris":{"android":"levelo://app?vid=f493a0ae-e4df-4d2e-8166-1073dea97fdb","ios":"levelo://app?vid=f493a0ae-e4df-4d2e-8166-1073dea97fdb"},"vehicle_type_id":"4","last_reported":1706681357,"current_range_meters":14000,"station_id":"ce4bgup2rcd13ifvqcn0","pricing_plan_id":"free"},{"bike_id":"ead217c3-28a1-4236-b4fe-9911dc5a3674","system_id":"levelo_inurba_marseille","lat":43.304606,"lon":5.379026,"is_reserved":false,"is_disabled":false,"rental_uris":{"android":"levelo://app?vid=ead217c3-28a1-4236-b4fe-9911dc5a3674","ios":"levelo://app?vid=ead217c3-28a1-4236-b4fe-9911dc5a3674"},"vehicle_type_id":"4","last_reported":1706681357,"current_range_meters":21200,"station_id":"ce4bgup2rcd13ifvqcn0","pricing_plan_id":"free"},{"bike_id":"216bbe30-5be8-45df-af27-102aa72f472a","system_id":"levelo_inurba_marseille","lat":43.304606,"lon":5.379026,"is_reserved":false,"is_disabled":false,"rental_uris":{"android":"levelo://app?vid=216bbe30-5be8-45df-af27-102aa72f472a","ios":"levelo://app?vid=216bbe30-5be8-45df-af27-102aa72f472a"},"vehicle_type_id":"4","last_reported":1706681357,"current_range_meters":26000,"station_id":"ce4bgup2rcd13ifvqcn0","pricing_plan_id":"free"},{"bike_id":"9ff314f3-23d3-4178-ab3d-c5414a6ac773","system_id":"levelo_inurba_marseille","lat":43.304606,"lon":5.379026,"is_reserved":false,"is_disabled":false,"rental_uris":{"android":"levelo://app?vid=9ff314f3-23d3-4178-ab3d-c5414a6ac773","ios":"levelo://app?vid=9ff314f3-23d3-4178-ab3d-c5414a6ac773"},"vehicle_type_id":"4","last_reported":1706681357,"current_range_meters":3200,"station_id":"ce4bgup2rcd13ifvqcn0","pricing_plan_id":"free"},{"bike_id":"a4e36deb-dd5e-4558-a757-e2b0cd56137d","system_id":"levelo_inurba_marseille","lat":43.304606,"lon":5.379026,"is_reserved":false,"is_disabled":false,"rental_uris":{"android":"levelo://app?vid=a4e36deb-dd5e-4558-a757-e2b0cd56137d","ios":"levelo://app?vid=a4e36deb-dd5e-4558-a757-e2b0cd56137d"},"vehicle_type_id":"4","last_reported":1706681357,"current_range_meters":25600,"station_id":"ce4bgup2rcd13ifvqcn0","pricing_plan_id":"free"},{"bike_id":"1b7e4aa7-f729-4bf4-ba3b-4cd32b2ff7ca","system_id":"levelo_inurba_marseille","lat":43.304606,"lon":5.379026,"is_reserved":false,"is_disabled":false,"rental_uris":{"android":"levelo://app?vid=1b7e4aa7-f729-4bf4-ba3b-4cd32b2ff7ca","ios":"levelo://app?vid=1b7e4aa7-f729-4bf4-ba3b-4cd32b2ff7ca"},"vehicle_type_id":"4","last_reported":1706681357,"current_range_meters":26800,"station_id":"ce4bgup2rcd13ifvqcn0","pricing_plan_id":"free"},{"bike_id":"f8c88493-a4e8-4380-a568-f412cec9e342","system_id":"levelo_inurba_marseille","lat":43.304606,"lon":5.379026,"is_reserved":false,"is_disabled":false,"rental_uris":{"android":"levelo://app?vid=f8c88493-a4e8-4380-a568-f412cec9e342","ios":"levelo://app?vid=f8c88493-a4e8-4380-a568-f412cec9e342"},"vehicle_type_id":"4","last_reported":1706681357,"current_range_meters":22400,"station_id":"ce4bgup2rcd13ifvqcn0","pricing_plan_id":"free"},{"bike_id":"4fc19e9a-fff6-406d-aa95-ea5000d5ebb2","system_id":"levelo_inurba_marseille","lat":43.304606,"lon":5.379026,"is_reserved":false,"is_disabled":false,"rental_uris":{"android":"levelo://app?vid=4fc19e9a-fff6-406d-aa95-ea5000d5ebb2","ios":"levelo://app?vid=4fc19e9a-fff6-406d-aa95-ea5000d5ebb2"},"vehicle_type_id":"4","last_reported":1706681357,"current_range_meters":22800,"station_id":"ce4bgup2rcd13ifvqcn0","pricing_plan_id":"free"},{"bike_id":"5ed251d9-36a1-4008-b7bb-962766172e09","system_id":"levelo_inurba_marseille","lat":43.304606,"lon":5.379026,"is_reserved":false,"is_disabled":false,"rental_uris":{"android":"levelo://app?vid=5ed251d9-36a1-4008-b7bb-962766172e09","ios":"levelo://app?vid=5ed251d9-36a1-4008-b7bb-962766172e09"},"vehicle_type_id":"4","last_reported":1706681357,"current_range_meters":2000,"station_id":"ce4bgup2rcd13ifvqcn0","pricing_plan_id":"free"},{"bike_id":"31b5cd49-ee61-4884-b8f4-7bd9edf51bde","system_id":"levelo_inurba_marseille","lat":43.304606,"lon":5.379026,"is_reserved":false,"is_disabled":false,"rental_uris":{"android":"levelo://app?vid=31b5cd49-ee61-4884-b8f4-7bd9edf51bde","ios":"levelo://app?vid=31b5cd49-ee61-4884-b8f4-7bd9edf51bde"},"vehicle_type_id":"4","last_reported":1706681357,"current_range_meters":27200,"station_id":"ce4bgup2rcd13ifvqcn0","pricing_plan_id":"free"},{"bike_id":"21748e3c-8124-47b4-9e3f-f974c669d297","system_id":"levelo_inurba_marseille","lat":43.304606,"lon":5.379026,"is_reserved":false,"is_disabled":false,"rental_uris":{"android":"levelo://app?vid=21748e3c-8124-47b4-9e3f-f974c669d297","ios":"levelo://app?vid=21748e3c-8124-47b4-9e3f-f974c669d297"},"vehicle_type_id":"4","last_reported":1706681357,"current_range_meters":11600,"station_id":"ce4bgup2rcd13ifvqcn0","pricing_plan_id":"free"},{"bike_id":"e4e2233b-7822-44ce-a680-69a47a62add0","system_id":"levelo_inurba_marseille","lat":43.304606,"lon":5.379026,"is_reserved":false,"is_disabled":false,"rental_uris":{"android":"levelo://app?vid=e4e2233b-7822-44ce-a680-69a47a62add0","ios":"levelo://app?vid=e4e2233b-7822-44ce-a680-69a47a62add0"},"vehicle_type_id":"4","last_reported":1706681357,"current_range_meters":23200,"station_id":"ce4bgup2rcd13ifvqcn0","pricing_plan_id":"free"},{"bike_id":"d0d19dd0-1b09-44e0-a28d-438cc85d6c9f","system_id":"levelo_inurba_marseille","lat":43.304606,"lon":5.379026,"is_reserved":false,"is_disabled":false,"rental_uris":{"android":"levelo://app?vid=d0d19dd0-1b09-44e0-a28d-438cc85d6c9f","ios":"levelo://app?vid=d0d19dd0-1b09-44e0-a28d-438cc85d6c9f"},"vehicle_type_id":"4","last_reported":1706681357,"current_range_meters":31200,"station_id":"ce4bgup2rcd13ifvqcn0","pricing_plan_id":"free"},{"bike_id":"dc116dfc-6660-4934-b83a-96e32cf5e64a","system_id":"levelo_inurba_marseille","lat":43.304606,"lon":5.379026,"is_reserved":false,"is_disabled":false,"rental_uris":{"android":"levelo://app?vid=dc116dfc-6660-4934-b83a-96e32cf5e64a","ios":"levelo://app?vid=dc116dfc-6660-4934-b83a-96e32cf5e64a"},"vehicle_type_id":"4","last_reported":1706681357,"current_range_meters":21600,"station_id":"ce4bgup2rcd13ifvqcn0","pricing_plan_id":"free"},{"bike_id":"d3ca2cb1-585f-4302-8f61-90a3411ff420","system_id":"levelo_inurba_marseille","lat":43.304606,"lon":5.379026,"is_reserved":false,"is_disabled":false,"rental_uris":{"android":"levelo://app?vid=d3ca2cb1-585f-4302-8f61-90a3411ff420","ios":"levelo://app?vid=d3ca2cb1-585f-4302-8f61-90a3411ff420"},"vehicle_type_id":"4","last_reported":1706681357,"current_range_meters":24000,"station_id":"ce4bgup2rcd13ifvqcn0","pricing_plan_id":"free"},{"bike_id":"36a9ed4f-f318-42a3-996c-6630a3732154","system_id":"levelo_inurba_marseille","lat":43.304606,"lon":5.379026,"is_reserved":false,"is_disabled":false,"rental_uris":{"android":"levelo://app?vid=36a9ed4f-f318-42a3-996c-6630a3732154","ios":"levelo://app?vid=36a9ed4f-f318-42a3-996c-6630a3732154"},"vehicle_type_id":"4","last_reported":1706681357,"current_range_meters":8400,"station_id":"ce4bgup2rcd13ifvqcn0","pricing_plan_id":"free"},{"bike_id":"4c1d912b-8425-4b28-bcd4-0691a1724560","system_id":"levelo_inurba_marseille","lat":43.32478,"lon":5.36571,"is_reserved":false,"is_disabled":false,"rental_uris":{"android":"levelo://app?vid=4c1d912b-8425-4b28-bcd4-0691a1724560","ios":"levelo://app?vid=4c1d912b-8425-4b28-bcd4-0691a1724560"},"vehicle_type_id":"4","last_reported":1706681357,"current_range_meters":20400,"station_id":"ce4bhs12rcd13ifvqhvg","pricing_plan_id":"free"},{"bike_id":"a0eae40b-e718-454c-a7ff-fcb8d0520af2","system_id":"levelo_inurba_marseille","lat":43.324771,"lon":5.36557,"is_reserved":false,"is_disabled":false,"rental_uris":{"android":"levelo://app?vid=a0eae40b-e718-454c-a7ff-fcb8d0520af2","ios":"levelo://app?vid=a0eae40b-e718-454c-a7ff-fcb8d0520af2"},"vehicle_type_id":"4","last_reported":1706681357,"current_range_meters":4800,"station_id":"ce4bhs12rcd13ifvqhvg","pricing_plan_id":"free"},{"bike_id":"f9b3aa5a-40af-4040-a917-268c7acc95ae","system_id":"levelo_inurba_marseille","lat":43.324801,"lon":5.365739,"is_reserved":false,"is_disabled":false,"rental_uris":{"android":"levelo://app?vid=f9b3aa5a-40af-4040-a917-268c7acc95ae","ios":"levelo://app?vid=f9b3aa5a-40af-4040-a917-268c7acc95ae"},"vehicle_type_id":"4","last_reported":1706681357,"current_range_meters":18400,"station_id":"ce4bhs12rcd13ifvqhvg","pricing_plan_id":"free"},{"bike_id":"c9c63d1c-5ec4-4c16-8f65-8cb6eccf601e","system_id":"levelo_inurba_marseille","lat":43.304606,"lon":5.379026,"is_reserved":false,"is_disabled":false,"rental_uris":{"android":"levelo://app?vid=c9c63d1c-5ec4-4c16-8f65-8cb6eccf601e","ios":"levelo://app?vid=c9c63d1c-5ec4-4c16-8f65-8cb6eccf601e"},"vehicle_type_id":"4","last_reported":1706681357,"current_range_meters":21600,"station_id":"ce4bgup2rcd13ifvqcn0","pricing_plan_id":"free"},{"bike_id":"ae6f61b9-ac7d-46d9-8c2c-74efbdc27515","system_id":"levelo_inurba_marseille","lat":43.304606,"lon":5.379026,"is_reserved":false,"is_disabled":false,"rental_uris":{"android":"levelo://app?vid=ae6f61b9-ac7d-46d9-8c2c-74efbdc27515","ios":"levelo://app?vid=ae6f61b9-ac7d-46d9-8c2c-74efbdc27515"},"vehicle_type_id":"4","last_reported":1706681357,"current_range_meters":15200,"station_id":"ce4bgup2rcd13ifvqcn0","pricing_plan_id":"free"},{"bike_id":"4736ab2f-d481-4964-88a7-047c1ca02d2a","system_id":"levelo_inurba_marseille","lat":43.32482,"lon":5.365771,"is_reserved":false,"is_disabled":false,"rental_uris":{"android":"levelo://app?vid=4736ab2f-d481-4964-88a7-047c1ca02d2a","ios":"levelo://app?vid=4736ab2f-d481-4964-88a7-047c1ca02d2a"},"vehicle_type_id":"4","last_reported":1706681357,"current_range_meters":26400,"station_id":"ce4bhs12rcd13ifvqhvg","pricing_plan_id":"free"},{"bike_id":"b3e34231-2100-4ce2-bb19-e2761fc5b6f2","system_id":"levelo_inurba_marseille","lat":43.301429,"lon":5.37413,"is_reserved":false,"is_disabled":false,"rental_uris":{"android":"levelo://app?vid=b3e34231-2100-4ce2-bb19-e2761fc5b6f2","ios":"levelo://app?vid=b3e34231-2100-4ce2-bb19-e2761fc5b6f2"},"vehicle_type_id":"4","last_reported":1706681357,"current_range_meters":22400,"station_id":"ce4bgs92rcd13ifvqcc0","pricing_plan_id":"free"},{"bike_id":"8538bcc9-ceab-409b-a934-402a4db2f7fc","system_id":"levelo_inurba_marseille","lat":43.301429,"lon":5.37413,"is_reserved":false,"is_disabled":false,"rental_uris":{"android":"levelo://app?vid=8538bcc9-ceab-409b-a934-402a4db2f7fc","ios":"levelo://app?vid=8538bcc9-ceab-409b-a934-402a4db2f7fc"},"vehicle_type_id":"4","last_reported":1706681357,"current_range_meters":14000,"station_id":"ce4bgs92rcd13ifvqcc0","pricing_plan_id":"free"},{"bike_id":"84cee55d-2747-4517-9c90-223e86f03ef6","system_id":"levelo_inurba_marseille","lat":43.301429,"lon":5.37413,"is_reserved":false,"is_disabled":false,"rental_uris":{"android":"levelo://app?vid=84cee55d-2747-4517-9c90-223e86f03ef6","ios":"levelo://app?vid=84cee55d-2747-4517-9c90-223e86f03ef6"},"vehicle_type_id":"4","last_reported":1706681357,"current_range_meters":31200,"station_id":"ce4bgs92rcd13ifvqcc0","pricing_plan_id":"free"},{"bike_id":"0f676460-a64e-4c5f-9934-375efbd43145","system_id":"levelo_inurba_marseille","lat":43.319935,"lon":5.381699,"is_reserved":false,"is_disabled":false,"rental_uris":{"android":"levelo://app?vid=0f676460-a64e-4c5f-9934-375efbd43145","ios":"levelo://app?vid=0f676460-a64e-4c5f-9934-375efbd43145"},"vehicle_type_id":"4","last_reported":1706681357,"current_range_meters":16000,"station_id":"ce4bhr12rcd13ifvqhpg","pricing_plan_id":"free"},{"bike_id":"c4e490d7-0ea5-4f58-9a22-31a35fb1514e","system_id":"levelo_inurba_marseille","lat":43.319935,"lon":5.381699,"is_reserved":false,"is_disabled":false,"rental_uris":{"android":"levelo://app?vid=c4e490d7-0ea5-4f58-9a22-31a35fb1514e","ios":"levelo://app?vid=c4e490d7-0ea5-4f58-9a22-31a35fb1514e"},"vehicle_type_id":"4","last_reported":1706681357,"current_range_meters":800,"station_id":"ce4bhr12rcd13ifvqhpg","pricing_plan_id":"free"},{"bike_id":"b8b1dbbf-61db-4523-87cf-433d900d312a","system_id":"levelo_inurba_marseille","lat":43.319935,"lon":5.381699,"is_reserved":false,"is_disabled":false,"rental_uris":{"android":"levelo://app?vid=b8b1dbbf-61db-4523-87cf-433d900d312a","ios":"levelo://app?vid=b8b1dbbf-61db-4523-87cf-433d900d312a"},"vehicle_type_id":"4","last_reported":1706681357,"current_range_meters":4800,"station_id":"ce4bhr12rcd13ifvqhpg","pricing_plan_id":"free"},{"bike_id":"f56ab861-27be-4472-9d9e-9174060007e9","system_id":"levelo_inurba_marseille","lat":43.313571,"lon":5.384829,"is_reserved":false,"is_disabled":false,"rental_uris":{"android":"levelo://app?vid=f56ab861-27be-4472-9d9e-9174060007e9","ios":"levelo://app?vid=f56ab861-27be-4472-9d9e-9174060007e9"},"vehicle_type_id":"4","last_reported":1706681357,"current_range_meters":25200,"station_id":"ce4bgt92rcd13ifvqcf0","pricing_plan_id":"free"},{"bike_id":"3127c074-70d9-44a6-94dc-156931bde7a7","system_id":"levelo_inurba_marseille","lat":43.313725,"lon":5.38495,"is_reserved":false,"is_disabled":false,"rental_uris":{"android":"levelo://app?vid=3127c074-70d9-44a6-94dc-156931bde7a7","ios":"levelo://app?vid=3127c074-70d9-44a6-94dc-156931bde7a7"},"vehicle_type_id":"4","last_reported":1706681357,"current_range_meters":30800,"station_id":"ce4bgt92rcd13ifvqcf0","pricing_plan_id":"free"},{"bike_id":"7ef8a1a6-ce41-49c8-bb76-434241aba999","system_id":"levelo_inurba_marseille","lat":43.313635,"lon":5.384974,"is_reserved":false,"is_disabled":false,"rental_uris":{"android":"levelo://app?vid=7ef8a1a6-ce41-49c8-bb76-434241aba999","ios":"levelo://app?vid=7ef8a1a6-ce41-49c8-bb76-434241aba999"},"vehicle_type_id":"4","last_reported":1706681357,"current_range_meters":22000,"station_id":"ce4bgt92rcd13ifvqcf0","pricing_plan_id":"free"},{"bike_id":"f29a1ed6-c0ed-4654-b858-96b526d7566f","system_id":"levelo_inurba_marseille","lat":43.31379,"lon":5.38496,"is_reserved":false,"is_disabled":false,"rental_uris":{"android":"levelo://app?vid=f29a1ed6-c0ed-4654-b858-96b526d7566f","ios":"levelo://app?vid=f29a1ed6-c0ed-4654-b858-96b526d7566f"},"vehicle_type_id":"4","last_reported":1706681357,"current_range_meters":19600,"station_id":"ce4bgt92rcd13ifvqcf0","pricing_plan_id":"free"},{"bike_id":"c7396296-7780-40c3-8ea0-f9076bc3394b","system_id":"levelo_inurba_marseille","lat":43.31359,"lon":5.38503,"is_reserved":false,"is_disabled":false,"rental_uris":{"android":"levelo://app?vid=c7396296-7780-40c3-8ea0-f9076bc3394b","ios":"levelo://app?vid=c7396296-7780-40c3-8ea0-f9076bc3394b"},"vehicle_type_id":"4","last_reported":1706681357,"current_range_meters":31200,"station_id":"ce4bgt92rcd13ifvqcf0","pricing_plan_id":"free"},{"bike_id":"56972abe-58ef-43b8-ae66-1bb0f9acd2f0","system_id":"levelo_inurba_marseille","lat":43.299222,"lon":5.365554,"is_reserved":false,"is_disabled":false,"rental_uris":{"android":"levelo://app?vid=56972abe-58ef-43b8-ae66-1bb0f9acd2f0","ios":"levelo://app?vid=56972abe-58ef-43b8-ae66-1bb0f9acd2f0"},"vehicle_type_id":"4","last_reported":1706681357,"current_range_meters":10000,"station_id":"ce4bgm92rcd13ifvqbr0","pricing_plan_id":"free"},{"bike_id":"496c61d2-c92a-41ef-a237-4325285747b7","system_id":"levelo_inurba_marseille","lat":43.305364,"lon":5.384119,"is_reserved":false,"is_disabled":false,"rental_uris":{"android":"levelo://app?vid=496c61d2-c92a-41ef-a237-4325285747b7","ios":"levelo://app?vid=496c61d2-c92a-41ef-a237-4325285747b7"},"vehicle_type_id":"4","last_reported":1706681357,"current_range_meters":28400,"station_id":"ce4bgg92rcd13ifvqb30","pricing_plan_id":"free"},{"bike_id":"2012cb14-c111-4bb2-83dc-4032b1b393db","system_id":"levelo_inurba_marseille","lat":43.305364,"lon":5.384119,"is_reserved":false,"is_disabled":false,"rental_uris":{"android":"levelo://app?vid=2012cb14-c111-4bb2-83dc-4032b1b393db","ios":"levelo://app?vid=2012cb14-c111-4bb2-83dc-4032b1b393db"},"vehicle_type_id":"4","last_reported":1706681357,"current_range_meters":31200,"station_id":"ce4bgg92rcd13ifvqb30","pricing_plan_id":"free"},{"bike_id":"24546536-0d64-4bfc-8581-4867311c9e19","system_id":"levelo_inurba_marseille","lat":43.305364,"lon":5.384119,"is_reserved":false,"is_disabled":false,"rental_uris":{"android":"levelo://app?vid=24546536-0d64-4bfc-8581-4867311c9e19","ios":"levelo://app?vid=24546536-0d64-4bfc-8581-4867311c9e19"},"vehicle_type_id":"4","last_reported":1706681357,"current_range_meters":29200,"station_id":"ce4bgg92rcd13ifvqb30","pricing_plan_id":"free"},{"bike_id":"ea3b163d-3291-4983-b525-688d15ca9022","system_id":"levelo_inurba_marseille","lat":43.311722,"lon":5.387247,"is_reserved":false,"is_disabled":false,"rental_uris":{"android":"levelo://app?vid=ea3b163d-3291-4983-b525-688d15ca9022","ios":"levelo://app?vid=ea3b163d-3291-4983-b525-688d15ca9022"},"vehicle_type_id":"4","last_reported":1706681357,"current_range_meters":18400,"station_id":"ce4bgv12rcd13ifvqcp0","pricing_plan_id":"free"},{"bike_id":"c29b5642-6b8a-4f17-93be-391d72dd2606","system_id":"levelo_inurba_marseille","lat":43.311722,"lon":5.387247,"is_reserved":false,"is_disabled":false,"rental_uris":{"android":"levelo://app?vid=c29b5642-6b8a-4f17-93be-391d72dd2606","ios":"levelo://app?vid=c29b5642-6b8a-4f17-93be-391d72dd2606"},"vehicle_type_id":"4","last_reported":1706681357,"current_range_meters":1200,"station_id":"ce4bgv12rcd13ifvqcp0","pricing_plan_id":"free"},{"bike_id":"ed0e9565-6628-432f-8fc3-3df7837af028","system_id":"levelo_inurba_marseille","lat":43.311722,"lon":5.387247,"is_reserved":false,"is_disabled":false,"rental_uris":{"android":"levelo://app?vid=ed0e9565-6628-432f-8fc3-3df7837af028","ios":"levelo://app?vid=ed0e9565-6628-432f-8fc3-3df7837af028"},"vehicle_type_id":"4","last_reported":1706681357,"current_range_meters":17600,"station_id":"ce4bgv12rcd13ifvqcp0","pricing_plan_id":"free"},{"bike_id":"5eb2d574-b4eb-4a5c-9127-59f52688b205","system_id":"levelo_inurba_marseille","lat":43.311722,"lon":5.387247,"is_reserved":false,"is_disabled":false,"rental_uris":{"android":"levelo://app?vid=5eb2d574-b4eb-4a5c-9127-59f52688b205","ios":"levelo://app?vid=5eb2d574-b4eb-4a5c-9127-59f52688b205"},"vehicle_type_id":"4","last_reported":1706681357,"current_range_meters":30000,"station_id":"ce4bgv12rcd13ifvqcp0","pricing_plan_id":"free"},{"bike_id":"5c880cbd-5623-4ca1-8142-8e2e9c18028e","system_id":"levelo_inurba_marseille","lat":43.311722,"lon":5.387247,"is_reserved":false,"is_disabled":false,"rental_uris":{"android":"levelo://app?vid=5c880cbd-5623-4ca1-8142-8e2e9c18028e","ios":"levelo://app?vid=5c880cbd-5623-4ca1-8142-8e2e9c18028e"},"vehicle_type_id":"4","last_reported":1706681357,"current_range_meters":13200,"station_id":"ce4bgv12rcd13ifvqcp0","pricing_plan_id":"free"},{"bike_id":"7a0c2d81-2a8b-46ec-9345-33a088bcafd4","system_id":"levelo_inurba_marseille","lat":43.31182,"lon":5.38714,"is_reserved":false,"is_disabled":false,"rental_uris":{"android":"levelo://app?vid=7a0c2d81-2a8b-46ec-9345-33a088bcafd4","ios":"levelo://app?vid=7a0c2d81-2a8b-46ec-9345-33a088bcafd4"},"vehicle_type_id":"4","last_reported":1706681357,"current_range_meters":30400,"station_id":"ce4bgv12rcd13ifvqcp0","pricing_plan_id":"free"},{"bike_id":"a50890c0-c207-4b07-82fd-139f0310216a","system_id":"levelo_inurba_marseille","lat":43.311722,"lon":5.387247,"is_reserved":false,"is_disabled":false,"rental_uris":{"android":"levelo://app?vid=a50890c0-c207-4b07-82fd-139f0310216a","ios":"levelo://app?vid=a50890c0-c207-4b07-82fd-139f0310216a"},"vehicle_type_id":"4","last_reported":1706681357,"current_range_meters":25200,"station_id":"ce4bgv12rcd13ifvqcp0","pricing_plan_id":"free"},{"bike_id":"0b00100b-bee8-4390-b9db-095c6989f8d6","system_id":"levelo_inurba_marseille","lat":43.311722,"lon":5.387247,"is_reserved":false,"is_disabled":false,"rental_uris":{"android":"levelo://app?vid=0b00100b-bee8-4390-b9db-095c6989f8d6","ios":"levelo://app?vid=0b00100b-bee8-4390-b9db-095c6989f8d6"},"vehicle_type_id":"4","last_reported":1706681357,"current_range_meters":28800,"station_id":"ce4bgv12rcd13ifvqcp0","pricing_plan_id":"free"},{"bike_id":"5dc8401f-017f-4d19-b675-6b603251dd53","system_id":"levelo_inurba_marseille","lat":43.311722,"lon":5.387247,"is_reserved":false,"is_disabled":false,"rental_uris":{"android":"levelo://app?vid=5dc8401f-017f-4d19-b675-6b603251dd53","ios":"levelo://app?vid=5dc8401f-017f-4d19-b675-6b603251dd53"},"vehicle_type_id":"4","last_reported":1706681357,"current_range_meters":7600,"station_id":"ce4bgv12rcd13ifvqcp0","pricing_plan_id":"free"},{"bike_id":"469886c2-d20e-415d-b20d-535dc70febf0","system_id":"levelo_inurba_marseille","lat":43.311722,"lon":5.387247,"is_reserved":false,"is_disabled":false,"rental_uris":{"android":"levelo://app?vid=469886c2-d20e-415d-b20d-535dc70febf0","ios":"levelo://app?vid=469886c2-d20e-415d-b20d-535dc70febf0"},"vehicle_type_id":"4","last_reported":1706681357,"current_range_meters":18400,"station_id":"ce4bgv12rcd13ifvqcp0","pricing_plan_id":"free"},{"bike_id":"8998b045-47bf-45e8-b945-12daa95e5fce","system_id":"levelo_inurba_marseille","lat":43.299243,"lon":5.37481,"is_reserved":false,"is_disabled":false,"rental_uris":{"android":"levelo://app?vid=8998b045-47bf-45e8-b945-12daa95e5fce","ios":"levelo://app?vid=8998b045-47bf-45e8-b945-12daa95e5fce"},"vehicle_type_id":"4","last_reported":1706681357,"current_range_meters":31200,"station_id":"ce4bgjh2rcd13ifvqbg0","pricing_plan_id":"free"},{"bike_id":"e6c8d308-a545-47ad-be3b-5bb7f6165b12","system_id":"levelo_inurba_marseille","lat":43.311722,"lon":5.387247,"is_reserved":false,"is_disabled":false,"rental_uris":{"android":"levelo://app?vid=e6c8d308-a545-47ad-be3b-5bb7f6165b12","ios":"levelo://app?vid=e6c8d308-a545-47ad-be3b-5bb7f6165b12"},"vehicle_type_id":"4","last_reported":1706681357,"current_range_meters":31200,"station_id":"ce4bgv12rcd13ifvqcp0","pricing_plan_id":"free"},{"bike_id":"e53b96f6-0749-4e57-9ae0-506258818dab","system_id":"levelo_inurba_marseille","lat":43.322872,"lon":5.382756,"is_reserved":false,"is_disabled":false,"rental_uris":{"android":"levelo://app?vid=e53b96f6-0749-4e57-9ae0-506258818dab","ios":"levelo://app?vid=e53b96f6-0749-4e57-9ae0-506258818dab"},"vehicle_type_id":"4","last_reported":1706681357,"current_range_meters":16000,"station_id":"ce4bhr12rcd13ifvqhqg","pricing_plan_id":"free"},{"bike_id":"08a9cda4-3d75-4fc9-b0fe-9c7c6c69e5cb","system_id":"levelo_inurba_marseille","lat":43.297794,"lon":5.370888,"is_reserved":false,"is_disabled":false,"rental_uris":{"android":"levelo://app?vid=08a9cda4-3d75-4fc9-b0fe-9c7c6c69e5cb","ios":"levelo://app?vid=08a9cda4-3d75-4fc9-b0fe-9c7c6c69e5cb"},"vehicle_type_id":"4","last_reported":1706681357,"current_range_meters":22800,"station_id":"ce4bgop2rcd13ifvqc1g","pricing_plan_id":"free"},{"bike_id":"7f20dc7e-badd-444e-a7c8-bf3a545cc809","system_id":"levelo_inurba_marseille","lat":43.322872,"lon":5.382756,"is_reserved":false,"is_disabled":false,"rental_uris":{"android":"levelo://app?vid=7f20dc7e-badd-444e-a7c8-bf3a545cc809","ios":"levelo://app?vid=7f20dc7e-badd-444e-a7c8-bf3a545cc809"},"vehicle_type_id":"4","last_reported":1706681357,"current_range_meters":27200,"station_id":"ce4bhr12rcd13ifvqhqg","pricing_plan_id":"free"},{"bike_id":"c90364f6-670b-481e-85aa-d87bec6e1819","system_id":"levelo_inurba_marseille","lat":43.32825,"lon":5.36688,"is_reserved":false,"is_disabled":false,"rental_uris":{"android":"levelo://app?vid=c90364f6-670b-481e-85aa-d87bec6e1819","ios":"levelo://app?vid=c90364f6-670b-481e-85aa-d87bec6e1819"},"vehicle_type_id":"4","last_reported":1706681357,"current_range_meters":1600,"station_id":"ce4bhs92rcd13ifvqi0g","pricing_plan_id":"free"},{"bike_id":"53319c11-7baf-4e4d-80cc-5b4926497c6a","system_id":"levelo_inurba_marseille","lat":43.328371,"lon":5.366909,"is_reserved":false,"is_disabled":false,"rental_uris":{"android":"levelo://app?vid=53319c11-7baf-4e4d-80cc-5b4926497c6a","ios":"levelo://app?vid=53319c11-7baf-4e4d-80cc-5b4926497c6a"},"vehicle_type_id":"4","last_reported":1706681357,"current_range_meters":29200,"station_id":"ce4bhs92rcd13ifvqi0g","pricing_plan_id":"free"},{"bike_id":"f9be9382-14ac-4417-93ad-1f5f6320b6ae","system_id":"levelo_inurba_marseille","lat":43.328371,"lon":5.366909,"is_reserved":false,"is_disabled":false,"rental_uris":{"android":"levelo://app?vid=f9be9382-14ac-4417-93ad-1f5f6320b6ae","ios":"levelo://app?vid=f9be9382-14ac-4417-93ad-1f5f6320b6ae"},"vehicle_type_id":"4","last_reported":1706681357,"current_range_meters":8800,"station_id":"ce4bhs92rcd13ifvqi0g","pricing_plan_id":"free"},{"bike_id":"d90f0439-5933-4b4c-b7c8-2f019df210a9","system_id":"levelo_inurba_marseille","lat":43.328371,"lon":5.366909,"is_reserved":false,"is_disabled":false,"rental_uris":{"android":"levelo://app?vid=d90f0439-5933-4b4c-b7c8-2f019df210a9","ios":"levelo://app?vid=d90f0439-5933-4b4c-b7c8-2f019df210a9"},"vehicle_type_id":"4","last_reported":1706681357,"current_range_meters":8400,"station_id":"ce4bhs92rcd13ifvqi0g","pricing_plan_id":"free"},{"bike_id":"af71055b-17bb-4e0c-a2f2-fd99b82206fe","system_id":"levelo_inurba_marseille","lat":43.328371,"lon":5.366909,"is_reserved":false,"is_disabled":false,"rental_uris":{"android":"levelo://app?vid=af71055b-17bb-4e0c-a2f2-fd99b82206fe","ios":"levelo://app?vid=af71055b-17bb-4e0c-a2f2-fd99b82206fe"},"vehicle_type_id":"4","last_reported":1706681357,"current_range_meters":21200,"station_id":"ce4bhs92rcd13ifvqi0g","pricing_plan_id":"free"},{"bike_id":"5e0d7018-715e-4087-a2d6-cfa7ba43c5e5","system_id":"levelo_inurba_marseille","lat":43.328371,"lon":5.366909,"is_reserved":false,"is_disabled":false,"rental_uris":{"android":"levelo://app?vid=5e0d7018-715e-4087-a2d6-cfa7ba43c5e5","ios":"levelo://app?vid=5e0d7018-715e-4087-a2d6-cfa7ba43c5e5"},"vehicle_type_id":"4","last_reported":1706681357,"current_range_meters":15200,"station_id":"ce4bhs92rcd13ifvqi0g","pricing_plan_id":"free"},{"bike_id":"c7d79aa2-7150-4b19-8ebe-04a34218d1b4","system_id":"levelo_inurba_marseille","lat":43.297163,"lon":5.365866,"is_reserved":false,"is_disabled":false,"rental_uris":{"android":"levelo://app?vid=c7d79aa2-7150-4b19-8ebe-04a34218d1b4","ios":"levelo://app?vid=c7d79aa2-7150-4b19-8ebe-04a34218d1b4"},"vehicle_type_id":"4","last_reported":1706681357,"current_range_meters":28400,"station_id":"ce4bgn12rcd13ifvqbt0","pricing_plan_id":"free"},{"bike_id":"cb3d4f26-21a6-4ea0-8cf1-737a22561fd3","system_id":"levelo_inurba_marseille","lat":43.29573,"lon":5.367355,"is_reserved":false,"is_disabled":false,"rental_uris":{"android":"levelo://app?vid=cb3d4f26-21a6-4ea0-8cf1-737a22561fd3","ios":"levelo://app?vid=cb3d4f26-21a6-4ea0-8cf1-737a22561fd3"},"vehicle_type_id":"4","last_reported":1706681357,"current_range_meters":30400,"station_id":"ce4bgph2rcd13ifvqc2g","pricing_plan_id":"free"},{"bike_id":"29a18d12-f924-4258-b518-1a8ed3506195","system_id":"levelo_inurba_marseille","lat":43.299028,"lon":5.381509,"is_reserved":false,"is_disabled":false,"rental_uris":{"android":"levelo://app?vid=29a18d12-f924-4258-b518-1a8ed3506195","ios":"levelo://app?vid=29a18d12-f924-4258-b518-1a8ed3506195"},"vehicle_type_id":"4","last_reported":1706681357,"current_range_meters":30000,"station_id":"ce4bgj12rcd13ifvqbc0","pricing_plan_id":"free"},{"bike_id":"d61da3be-0b79-4883-ab51-b1852d86f773","system_id":"levelo_inurba_marseille","lat":43.299028,"lon":5.381509,"is_reserved":false,"is_disabled":false,"rental_uris":{"android":"levelo://app?vid=d61da3be-0b79-4883-ab51-b1852d86f773","ios":"levelo://app?vid=d61da3be-0b79-4883-ab51-b1852d86f773"},"vehicle_type_id":"4","last_reported":1706681357,"current_range_meters":23600,"station_id":"ce4bgj12rcd13ifvqbc0","pricing_plan_id":"free"},{"bike_id":"2764f9a6-d112-41d6-801d-830234f2a82a","system_id":"levelo_inurba_marseille","lat":43.296921,"lon":5.376579,"is_reserved":false,"is_disabled":false,"rental_uris":{"android":"levelo://app?vid=2764f9a6-d112-41d6-801d-830234f2a82a","ios":"levelo://app?vid=2764f9a6-d112-41d6-801d-830234f2a82a"},"vehicle_type_id":"4","last_reported":1706681357,"current_range_meters":13600,"station_id":"ce4bgkh2rcd13ifvqbl0","pricing_plan_id":"free"},{"bike_id":"f1e68ad0-b30d-4fcf-b359-1771f89e8a2d","system_id":"levelo_inurba_marseille","lat":43.299028,"lon":5.381509,"is_reserved":false,"is_disabled":false,"rental_uris":{"android":"levelo://app?vid=f1e68ad0-b30d-4fcf-b359-1771f89e8a2d","ios":"levelo://app?vid=f1e68ad0-b30d-4fcf-b359-1771f89e8a2d"},"vehicle_type_id":"4","last_reported":1706681357,"current_range_meters":24400,"station_id":"ce4bgj12rcd13ifvqbc0","pricing_plan_id":"free"},{"bike_id":"c59ed841-abe7-4720-b327-7957d5000d8d","system_id":"levelo_inurba_marseille","lat":43.309589,"lon":5.390258,"is_reserved":false,"is_disabled":false,"rental_uris":{"android":"levelo://app?vid=c59ed841-abe7-4720-b327-7957d5000d8d","ios":"levelo://app?vid=c59ed841-abe7-4720-b327-7957d5000d8d"},"vehicle_type_id":"4","last_reported":1706681357,"current_range_meters":31200,"station_id":"ce4bgup2rcd13ifvqco0","pricing_plan_id":"free"},{"bike_id":"984e13f5-4f0a-4d77-bfae-482cac7ab50d","system_id":"levelo_inurba_marseille","lat":43.309589,"lon":5.390258,"is_reserved":false,"is_disabled":false,"rental_uris":{"android":"levelo://app?vid=984e13f5-4f0a-4d77-bfae-482cac7ab50d","ios":"levelo://app?vid=984e13f5-4f0a-4d77-bfae-482cac7ab50d"},"vehicle_type_id":"4","last_reported":1706681357,"current_range_meters":26000,"station_id":"ce4bgup2rcd13ifvqco0","pricing_plan_id":"free"},{"bike_id":"aa26fe18-9c4c-4e88-a779-301d624a7582","system_id":"levelo_inurba_marseille","lat":43.309589,"lon":5.390258,"is_reserved":false,"is_disabled":false,"rental_uris":{"android":"levelo://app?vid=aa26fe18-9c4c-4e88-a779-301d624a7582","ios":"levelo://app?vid=aa26fe18-9c4c-4e88-a779-301d624a7582"},"vehicle_type_id":"4","last_reported":1706681357,"current_range_meters":3200,"station_id":"ce4bgup2rcd13ifvqco0","pricing_plan_id":"free"},{"bike_id":"5b48b25f-0afb-4109-a88d-92473a708087","system_id":"levelo_inurba_marseille","lat":43.309589,"lon":5.390258,"is_reserved":false,"is_disabled":false,"rental_uris":{"android":"levelo://app?vid=5b48b25f-0afb-4109-a88d-92473a708087","ios":"levelo://app?vid=5b48b25f-0afb-4109-a88d-92473a708087"},"vehicle_type_id":"4","last_reported":1706681357,"current_range_meters":27200,"station_id":"ce4bgup2rcd13ifvqco0","pricing_plan_id":"free"},{"bike_id":"19962e1d-9ae6-481d-94d6-98ab2fe835be","system_id":"levelo_inurba_marseille","lat":43.317557,"lon":5.390173,"is_reserved":false,"is_disabled":false,"rental_uris":{"android":"levelo://app?vid=19962e1d-9ae6-481d-94d6-98ab2fe835be","ios":"levelo://app?vid=19962e1d-9ae6-481d-94d6-98ab2fe835be"},"vehicle_type_id":"4","last_reported":1706681357,"current_range_meters":20400,"station_id":"ce4bhqp2rcd13ifvqhng","pricing_plan_id":"free"},{"bike_id":"5c09316b-0a2b-4750-b074-417db8bb9e14","system_id":"levelo_inurba_marseille","lat":43.317557,"lon":5.390173,"is_reserved":false,"is_disabled":false,"rental_uris":{"android":"levelo://app?vid=5c09316b-0a2b-4750-b074-417db8bb9e14","ios":"levelo://app?vid=5c09316b-0a2b-4750-b074-417db8bb9e14"},"vehicle_type_id":"4","last_reported":1706681357,"current_range_meters":26000,"station_id":"ce4bhqp2rcd13ifvqhng","pricing_plan_id":"free"},{"bike_id":"6a50afe9-b390-4b14-a5d4-1b9ef566a50e","system_id":"levelo_inurba_marseille","lat":43.317557,"lon":5.390173,"is_reserved":false,"is_disabled":false,"rental_uris":{"android":"levelo://app?vid=6a50afe9-b390-4b14-a5d4-1b9ef566a50e","ios":"levelo://app?vid=6a50afe9-b390-4b14-a5d4-1b9ef566a50e"},"vehicle_type_id":"4","last_reported":1706681357,"current_range_meters":24000,"station_id":"ce4bhqp2rcd13ifvqhng","pricing_plan_id":"free"},{"bike_id":"48b66681-c7d0-452e-811f-c971f769e570","system_id":"levelo_inurba_marseille","lat":43.298037,"lon":5.381066,"is_reserved":false,"is_disabled":false,"rental_uris":{"android":"levelo://app?vid=48b66681-c7d0-452e-811f-c971f769e570","ios":"levelo://app?vid=48b66681-c7d0-452e-811f-c971f769e570"},"vehicle_type_id":"4","last_reported":1706681357,"current_range_meters":11600,"station_id":"ce4bgip2rcd13ifvqbb0","pricing_plan_id":"free"},{"bike_id":"5415f3e6-ad57-45a4-9c8c-b5b0d2f40961","system_id":"levelo_inurba_marseille","lat":43.298037,"lon":5.381066,"is_reserved":false,"is_disabled":false,"rental_uris":{"android":"levelo://app?vid=5415f3e6-ad57-45a4-9c8c-b5b0d2f40961","ios":"levelo://app?vid=5415f3e6-ad57-45a4-9c8c-b5b0d2f40961"},"vehicle_type_id":"4","last_reported":1706681357,"current_range_meters":13200,"station_id":"ce4bgip2rcd13ifvqbb0","pricing_plan_id":"free"},{"bike_id":"4daab777-44e5-4a65-9faf-a7cca5006e84","system_id":"levelo_inurba_marseille","lat":43.296263,"lon":5.377094,"is_reserved":false,"is_disabled":false,"rental_uris":{"android":"levelo://app?vid=4daab777-44e5-4a65-9faf-a7cca5006e84","ios":"levelo://app?vid=4daab777-44e5-4a65-9faf-a7cca5006e84"},"vehicle_type_id":"4","last_reported":1706681357,"current_range_meters":17200,"station_id":"ce4bgi92rcd13ifvqb90","pricing_plan_id":"free"},{"bike_id":"0151c5a6-3e72-4dab-a4de-d93e3abe3c96","system_id":"levelo_inurba_marseille","lat":43.298037,"lon":5.381066,"is_reserved":false,"is_disabled":false,"rental_uris":{"android":"levelo://app?vid=0151c5a6-3e72-4dab-a4de-d93e3abe3c96","ios":"levelo://app?vid=0151c5a6-3e72-4dab-a4de-d93e3abe3c96"},"vehicle_type_id":"4","last_reported":1706681357,"current_range_meters":17200,"station_id":"ce4bgip2rcd13ifvqbb0","pricing_plan_id":"free"},{"bike_id":"3573af7b-55ab-4d9a-803f-58a4d2ba62b4","system_id":"levelo_inurba_marseille","lat":43.296263,"lon":5.377094,"is_reserved":false,"is_disabled":false,"rental_uris":{"android":"levelo://app?vid=3573af7b-55ab-4d9a-803f-58a4d2ba62b4","ios":"levelo://app?vid=3573af7b-55ab-4d9a-803f-58a4d2ba62b4"},"vehicle_type_id":"4","last_reported":1706681357,"current_range_meters":31200,"station_id":"ce4bgi92rcd13ifvqb90","pricing_plan_id":"free"},{"bike_id":"1f3486e4-80d3-4179-84b8-4b0689540eb4","system_id":"levelo_inurba_marseille","lat":43.295748,"lon":5.37522,"is_reserved":false,"is_disabled":false,"rental_uris":{"android":"levelo://app?vid=1f3486e4-80d3-4179-84b8-4b0689540eb4","ios":"levelo://app?vid=1f3486e4-80d3-4179-84b8-4b0689540eb4"},"vehicle_type_id":"4","last_reported":1706681357,"current_range_meters":26000,"station_id":"ce4bgh92rcd13ifvqb50","pricing_plan_id":"free"},{"bike_id":"7bf34bb1-aed1-4c38-9d29-b0e87961f59c","system_id":"levelo_inurba_marseille","lat":43.296263,"lon":5.377094,"is_reserved":false,"is_disabled":false,"rental_uris":{"android":"levelo://app?vid=7bf34bb1-aed1-4c38-9d29-b0e87961f59c","ios":"levelo://app?vid=7bf34bb1-aed1-4c38-9d29-b0e87961f59c"},"vehicle_type_id":"4","last_reported":1706681357,"current_range_meters":26000,"station_id":"ce4bgi92rcd13ifvqb90","pricing_plan_id":"free"},{"bike_id":"177fd37a-d011-4706-9702-7a6329ccd581","system_id":"levelo_inurba_marseille","lat":43.296277,"lon":5.377108,"is_reserved":false,"is_disabled":false,"rental_uris":{"android":"levelo://app?vid=177fd37a-d011-4706-9702-7a6329ccd581","ios":"levelo://app?vid=177fd37a-d011-4706-9702-7a6329ccd581"},"vehicle_type_id":"4","last_reported":1706681357,"current_range_meters":26400,"station_id":"ce4bgi92rcd13ifvqb90","pricing_plan_id":"free"},{"bike_id":"1043b1fc-2955-41c2-83b2-96785bd0dc03","system_id":"levelo_inurba_marseille","lat":43.296277,"lon":5.377108,"is_reserved":false,"is_disabled":false,"rental_uris":{"android":"levelo://app?vid=1043b1fc-2955-41c2-83b2-96785bd0dc03","ios":"levelo://app?vid=1043b1fc-2955-41c2-83b2-96785bd0dc03"},"vehicle_type_id":"4","last_reported":1706681357,"current_range_meters":14800,"station_id":"ce4bgi92rcd13ifvqb90","pricing_plan_id":"free"},{"bike_id":"f8aa4270-3626-40d8-b3b8-3633ebee824e","system_id":"levelo_inurba_marseille","lat":43.299707,"lon":5.384859,"is_reserved":false,"is_disabled":false,"rental_uris":{"android":"levelo://app?vid=f8aa4270-3626-40d8-b3b8-3633ebee824e","ios":"levelo://app?vid=f8aa4270-3626-40d8-b3b8-3633ebee824e"},"vehicle_type_id":"4","last_reported":1706681357,"current_range_meters":28400,"station_id":"ce4bgj92rcd13ifvqbd0","pricing_plan_id":"free"},{"bike_id":"de25d637-84ec-4203-b892-3e1c2d7c4ddb","system_id":"levelo_inurba_marseille","lat":43.331709,"lon":5.364431,"is_reserved":false,"is_disabled":false,"rental_uris":{"android":"levelo://app?vid=de25d637-84ec-4203-b892-3e1c2d7c4ddb","ios":"levelo://app?vid=de25d637-84ec-4203-b892-3e1c2d7c4ddb"},"vehicle_type_id":"4","last_reported":1706681357,"current_range_meters":8800,"station_id":"","pricing_plan_id":"free"},{"bike_id":"42e1b826-7d18-4d6d-8399-50a5392000d1","system_id":"levelo_inurba_marseille","lat":43.32367,"lon":5.388836,"is_reserved":false,"is_disabled":false,"rental_uris":{"android":"levelo://app?vid=42e1b826-7d18-4d6d-8399-50a5392000d1","ios":"levelo://app?vid=42e1b826-7d18-4d6d-8399-50a5392000d1"},"vehicle_type_id":"4","last_reported":1706681357,"current_range_meters":30000,"station_id":"ce4bhqp2rcd13ifvqhog","pricing_plan_id":"free"},{"bike_id":"b071eb17-b918-4d42-8403-8f2d1e2332d7","system_id":"levelo_inurba_marseille","lat":43.32367,"lon":5.388836,"is_reserved":false,"is_disabled":false,"rental_uris":{"android":"levelo://app?vid=b071eb17-b918-4d42-8403-8f2d1e2332d7","ios":"levelo://app?vid=b071eb17-b918-4d42-8403-8f2d1e2332d7"},"vehicle_type_id":"4","last_reported":1706681357,"current_range_meters":28800,"station_id":"ce4bhqp2rcd13ifvqhog","pricing_plan_id":"free"},{"bike_id":"6c6dcc02-6cc1-4ef9-97aa-9aca7babe880","system_id":"levelo_inurba_marseille","lat":43.32367,"lon":5.388836,"is_reserved":false,"is_disabled":false,"rental_uris":{"android":"levelo://app?vid=6c6dcc02-6cc1-4ef9-97aa-9aca7babe880","ios":"levelo://app?vid=6c6dcc02-6cc1-4ef9-97aa-9aca7babe880"},"vehicle_type_id":"4","last_reported":1706681357,"current_range_meters":24800,"station_id":"ce4bhqp2rcd13ifvqhog","pricing_plan_id":"free"},{"bike_id":"e39d00f9-07f8-4e9d-85c6-a0b8aca8cf61","system_id":"levelo_inurba_marseille","lat":43.32367,"lon":5.388836,"is_reserved":false,"is_disabled":false,"rental_uris":{"android":"levelo://app?vid=e39d00f9-07f8-4e9d-85c6-a0b8aca8cf61","ios":"levelo://app?vid=e39d00f9-07f8-4e9d-85c6-a0b8aca8cf61"},"vehicle_type_id":"4","last_reported":1706681357,"current_range_meters":26800,"station_id":"ce4bhqp2rcd13ifvqhog","pricing_plan_id":"free"},{"bike_id":"83c0514d-6600-43a3-932b-83517d92af33","system_id":"levelo_inurba_marseille","lat":43.323626,"lon":5.388843,"is_reserved":false,"is_disabled":false,"rental_uris":{"android":"levelo://app?vid=83c0514d-6600-43a3-932b-83517d92af33","ios":"levelo://app?vid=83c0514d-6600-43a3-932b-83517d92af33"},"vehicle_type_id":"4","last_reported":1706681357,"current_range_meters":30400,"station_id":"ce4bhqp2rcd13ifvqhog","pricing_plan_id":"free"},{"bike_id":"87c37e20-93d8-4821-b2fb-71a6c4f572ed","system_id":"levelo_inurba_marseille","lat":43.323631,"lon":5.388849,"is_reserved":false,"is_disabled":false,"rental_uris":{"android":"levelo://app?vid=87c37e20-93d8-4821-b2fb-71a6c4f572ed","ios":"levelo://app?vid=87c37e20-93d8-4821-b2fb-71a6c4f572ed"},"vehicle_type_id":"4","last_reported":1706681357,"current_range_meters":4400,"station_id":"ce4bhqp2rcd13ifvqhog","pricing_plan_id":"free"},{"bike_id":"899d0092-7653-45db-88aa-d3f5eb3a8508","system_id":"levelo_inurba_marseille","lat":43.32367,"lon":5.388836,"is_reserved":false,"is_disabled":false,"rental_uris":{"android":"levelo://app?vid=899d0092-7653-45db-88aa-d3f5eb3a8508","ios":"levelo://app?vid=899d0092-7653-45db-88aa-d3f5eb3a8508"},"vehicle_type_id":"4","last_reported":1706681357,"current_range_meters":9600,"station_id":"ce4bhqp2rcd13ifvqhog","pricing_plan_id":"free"},{"bike_id":"8613e39b-7430-41cc-ba27-a0d8480879ce","system_id":"levelo_inurba_marseille","lat":43.292749,"lon":5.368402,"is_reserved":false,"is_disabled":false,"rental_uris":{"android":"levelo://app?vid=8613e39b-7430-41cc-ba27-a0d8480879ce","ios":"levelo://app?vid=8613e39b-7430-41cc-ba27-a0d8480879ce"},"vehicle_type_id":"4","last_reported":1706681357,"current_range_meters":30000,"station_id":"ce4bhbp2rcd13ifvqesg","pricing_plan_id":"free"},{"bike_id":"5a63ec20-15f8-49e2-8e9c-abf397187783","system_id":"levelo_inurba_marseille","lat":43.293249,"lon":5.371578,"is_reserved":false,"is_disabled":false,"rental_uris":{"android":"levelo://app?vid=5a63ec20-15f8-49e2-8e9c-abf397187783","ios":"levelo://app?vid=5a63ec20-15f8-49e2-8e9c-abf397187783"},"vehicle_type_id":"4","last_reported":1706681357,"current_range_meters":25600,"station_id":"ce4bgh92rcd13ifvqb40","pricing_plan_id":"free"},{"bike_id":"f646ab75-79d9-4e26-a3b3-a7e5379e977f","system_id":"levelo_inurba_marseille","lat":43.29306,"lon":5.37183,"is_reserved":false,"is_disabled":false,"rental_uris":{"android":"levelo://app?vid=f646ab75-79d9-4e26-a3b3-a7e5379e977f","ios":"levelo://app?vid=f646ab75-79d9-4e26-a3b3-a7e5379e977f"},"vehicle_type_id":"4","last_reported":1706681357,"current_range_meters":30000,"station_id":"ce4bgh92rcd13ifvqb40","pricing_plan_id":"free"},{"bike_id":"c81e61b5-929b-4d83-a109-2ccf5e258ff7","system_id":"levelo_inurba_marseille","lat":43.292749,"lon":5.368402,"is_reserved":false,"is_disabled":false,"rental_uris":{"android":"levelo://app?vid=c81e61b5-929b-4d83-a109-2ccf5e258ff7","ios":"levelo://app?vid=c81e61b5-929b-4d83-a109-2ccf5e258ff7"},"vehicle_type_id":"4","last_reported":1706681357,"current_range_meters":28800,"station_id":"ce4bhbp2rcd13ifvqesg","pricing_plan_id":"free"},{"bike_id":"1d81a982-65b3-4da3-a5da-ffee418536de","system_id":"levelo_inurba_marseille","lat":43.305994,"lon":5.393687,"is_reserved":false,"is_disabled":false,"rental_uris":{"android":"levelo://app?vid=1d81a982-65b3-4da3-a5da-ffee418536de","ios":"levelo://app?vid=1d81a982-65b3-4da3-a5da-ffee418536de"},"vehicle_type_id":"4","last_reported":1706681357,"current_range_meters":22800,"station_id":"ce4bh0p2rcd13ifvqd80","pricing_plan_id":"free"},{"bike_id":"eca70669-3306-4019-a16a-d71239f0d9e9","system_id":"levelo_inurba_marseille","lat":43.30304,"lon":5.39205,"is_reserved":false,"is_disabled":false,"rental_uris":{"android":"levelo://app?vid=eca70669-3306-4019-a16a-d71239f0d9e9","ios":"levelo://app?vid=eca70669-3306-4019-a16a-d71239f0d9e9"},"vehicle_type_id":"4","last_reported":1706681357,"current_range_meters":30800,"station_id":"ce4bgkh2rcd13ifvqbk0","pricing_plan_id":"free"},{"bike_id":"7f99044f-f2e4-4110-b214-844a3a1d59fe","system_id":"levelo_inurba_marseille","lat":43.303002,"lon":5.392142,"is_reserved":false,"is_disabled":false,"rental_uris":{"android":"levelo://app?vid=7f99044f-f2e4-4110-b214-844a3a1d59fe","ios":"levelo://app?vid=7f99044f-f2e4-4110-b214-844a3a1d59fe"},"vehicle_type_id":"4","last_reported":1706681357,"current_range_meters":26800,"station_id":"ce4bgkh2rcd13ifvqbk0","pricing_plan_id":"free"},{"bike_id":"ca455788-3106-4b41-9393-0838b1b3e0b7","system_id":"levelo_inurba_marseille","lat":43.2936,"lon":5.37835,"is_reserved":false,"is_disabled":false,"rental_uris":{"android":"levelo://app?vid=ca455788-3106-4b41-9393-0838b1b3e0b7","ios":"levelo://app?vid=ca455788-3106-4b41-9393-0838b1b3e0b7"},"vehicle_type_id":"4","last_reported":1706681357,"current_range_meters":5200,"station_id":"ce4bgjh2rcd13ifvqbf0","pricing_plan_id":"free"},{"bike_id":"ab1fbf72-822e-4976-bead-da5cd4ccac7b","system_id":"levelo_inurba_marseille","lat":43.30308,"lon":5.39224,"is_reserved":false,"is_disabled":false,"rental_uris":{"android":"levelo://app?vid=ab1fbf72-822e-4976-bead-da5cd4ccac7b","ios":"levelo://app?vid=ab1fbf72-822e-4976-bead-da5cd4ccac7b"},"vehicle_type_id":"4","last_reported":1706681357,"current_range_meters":30000,"station_id":"ce4bgkh2rcd13ifvqbk0","pricing_plan_id":"free"},{"bike_id":"ea94f227-9972-4fa5-aead-e1014da3a35a","system_id":"levelo_inurba_marseille","lat":43.300852,"lon":5.390859,"is_reserved":false,"is_disabled":false,"rental_uris":{"android":"levelo://app?vid=ea94f227-9972-4fa5-aead-e1014da3a35a","ios":"levelo://app?vid=ea94f227-9972-4fa5-aead-e1014da3a35a"},"vehicle_type_id":"4","last_reported":1706681357,"current_range_meters":27200,"station_id":"ce4bh192rcd13ifvqdb0","pricing_plan_id":"free"},{"bike_id":"07cfc57a-e90f-494c-8252-e2c96ae2d67e","system_id":"levelo_inurba_marseille","lat":43.29226,"lon":5.36073,"is_reserved":false,"is_disabled":false,"rental_uris":{"android":"levelo://app?vid=07cfc57a-e90f-494c-8252-e2c96ae2d67e","ios":"levelo://app?vid=07cfc57a-e90f-494c-8252-e2c96ae2d67e"},"vehicle_type_id":"4","last_reported":1706681357,"current_range_meters":28400,"station_id":"ce4bhbh2rcd13ifvqeqg","pricing_plan_id":"free"},{"bike_id":"dea02cd6-b634-4b3c-a2cc-cffdb2488a93","system_id":"levelo_inurba_marseille","lat":43.29224,"lon":5.36066,"is_reserved":false,"is_disabled":false,"rental_uris":{"android":"levelo://app?vid=dea02cd6-b634-4b3c-a2cc-cffdb2488a93","ios":"levelo://app?vid=dea02cd6-b634-4b3c-a2cc-cffdb2488a93"},"vehicle_type_id":"4","last_reported":1706681357,"current_range_meters":31200,"station_id":"ce4bhbh2rcd13ifvqeqg","pricing_plan_id":"free"},{"bike_id":"56702718-c456-4e44-b46e-77cd897b0f02","system_id":"levelo_inurba_marseille","lat":43.292311,"lon":5.360731,"is_reserved":false,"is_disabled":false,"rental_uris":{"android":"levelo://app?vid=56702718-c456-4e44-b46e-77cd897b0f02","ios":"levelo://app?vid=56702718-c456-4e44-b46e-77cd897b0f02"},"vehicle_type_id":"4","last_reported":1706681357,"current_range_meters":11200,"station_id":"ce4bhbh2rcd13ifvqeqg","pricing_plan_id":"free"},{"bike_id":"b4a2db12-f1f8-40cd-983f-0f2f8cca5ad9","system_id":"levelo_inurba_marseille","lat":43.290104,"lon":5.356111,"is_reserved":false,"is_disabled":false,"rental_uris":{"android":"levelo://app?vid=b4a2db12-f1f8-40cd-983f-0f2f8cca5ad9","ios":"levelo://app?vid=b4a2db12-f1f8-40cd-983f-0f2f8cca5ad9"},"vehicle_type_id":"4","last_reported":1706681357,"current_range_meters":1600,"station_id":"ce4bhb92rcd13ifvqen0","pricing_plan_id":"free"},{"bike_id":"bdcb39a9-eb1b-4679-9ee3-bb6052834eb9","system_id":"levelo_inurba_marseille","lat":43.298764,"lon":5.388973,"is_reserved":false,"is_disabled":false,"rental_uris":{"android":"levelo://app?vid=bdcb39a9-eb1b-4679-9ee3-bb6052834eb9","ios":"levelo://app?vid=bdcb39a9-eb1b-4679-9ee3-bb6052834eb9"},"vehicle_type_id":"4","last_reported":1706681357,"current_range_meters":19600,"station_id":"ce4bh392rcd13ifvqdl0","pricing_plan_id":"free"},{"bike_id":"0e5a8baf-f50c-4b28-bff8-d34d94c65b8c","system_id":"levelo_inurba_marseille","lat":43.291675,"lon":5.371583,"is_reserved":false,"is_disabled":false,"rental_uris":{"android":"levelo://app?vid=0e5a8baf-f50c-4b28-bff8-d34d94c65b8c","ios":"levelo://app?vid=0e5a8baf-f50c-4b28-bff8-d34d94c65b8c"},"vehicle_type_id":"4","last_reported":1706681357,"current_range_meters":20400,"station_id":"ce4bha92rcd13ifvqeh0","pricing_plan_id":"free"},{"bike_id":"4a021476-2387-4bc0-a0ac-f6ee9eebf089","system_id":"levelo_inurba_marseille","lat":43.29205,"lon":5.35802,"is_reserved":false,"is_disabled":false,"rental_uris":{"android":"levelo://app?vid=4a021476-2387-4bc0-a0ac-f6ee9eebf089","ios":"levelo://app?vid=4a021476-2387-4bc0-a0ac-f6ee9eebf089"},"vehicle_type_id":"4","last_reported":1706681357,"current_range_meters":21600,"station_id":"ce4bhb12rcd13ifvqel0","pricing_plan_id":"free"},{"bike_id":"c42695c5-8d2a-4c58-bafa-07e8ce969e80","system_id":"levelo_inurba_marseille","lat":43.30885,"lon":5.39626,"is_reserved":false,"is_disabled":false,"rental_uris":{"android":"levelo://app?vid=c42695c5-8d2a-4c58-bafa-07e8ce969e80","ios":"levelo://app?vid=c42695c5-8d2a-4c58-bafa-07e8ce969e80"},"vehicle_type_id":"4","last_reported":1706681357,"current_range_meters":30400,"station_id":"ce4bh012rcd13ifvqcv0","pricing_plan_id":"free"},{"bike_id":"4c0d309b-9310-410c-84cc-13ce3be10472","system_id":"levelo_inurba_marseille","lat":43.30884,"lon":5.39626,"is_reserved":false,"is_disabled":false,"rental_uris":{"android":"levelo://app?vid=4c0d309b-9310-410c-84cc-13ce3be10472","ios":"levelo://app?vid=4c0d309b-9310-410c-84cc-13ce3be10472"},"vehicle_type_id":"4","last_reported":1706681357,"current_range_meters":28800,"station_id":"ce4bh012rcd13ifvqcv0","pricing_plan_id":"free"},{"bike_id":"14c28a59-5896-4632-8194-4d6274d24ee7","system_id":"levelo_inurba_marseille","lat":43.30882,"lon":5.3963,"is_reserved":false,"is_disabled":false,"rental_uris":{"android":"levelo://app?vid=14c28a59-5896-4632-8194-4d6274d24ee7","ios":"levelo://app?vid=14c28a59-5896-4632-8194-4d6274d24ee7"},"vehicle_type_id":"4","last_reported":1706681357,"current_range_meters":30400,"station_id":"ce4bh012rcd13ifvqcv0","pricing_plan_id":"free"},{"bike_id":"5ff6e116-0e06-4558-8ba4-effa387aa1ba","system_id":"levelo_inurba_marseille","lat":43.292005,"lon":5.357875,"is_reserved":false,"is_disabled":false,"rental_uris":{"android":"levelo://app?vid=5ff6e116-0e06-4558-8ba4-effa387aa1ba","ios":"levelo://app?vid=5ff6e116-0e06-4558-8ba4-effa387aa1ba"},"vehicle_type_id":"4","last_reported":1706681357,"current_range_meters":13600,"station_id":"ce4bhb12rcd13ifvqel0","pricing_plan_id":"free"},{"bike_id":"6f5c9714-0235-4318-92c0-c0df621ff2bc","system_id":"levelo_inurba_marseille","lat":43.308848,"lon":5.396308,"is_reserved":false,"is_disabled":false,"rental_uris":{"android":"levelo://app?vid=6f5c9714-0235-4318-92c0-c0df621ff2bc","ios":"levelo://app?vid=6f5c9714-0235-4318-92c0-c0df621ff2bc"},"vehicle_type_id":"4","last_reported":1706681357,"current_range_meters":16400,"station_id":"ce4bh012rcd13ifvqcv0","pricing_plan_id":"free"},{"bike_id":"01be03bb-cebf-448a-8caf-4ad8e0ab9d1b","system_id":"levelo_inurba_marseille","lat":43.308859,"lon":5.396321,"is_reserved":false,"is_disabled":false,"rental_uris":{"android":"levelo://app?vid=01be03bb-cebf-448a-8caf-4ad8e0ab9d1b","ios":"levelo://app?vid=01be03bb-cebf-448a-8caf-4ad8e0ab9d1b"},"vehicle_type_id":"4","last_reported":1706681357,"current_range_meters":3600,"station_id":"ce4bh012rcd13ifvqcv0","pricing_plan_id":"free"},{"bike_id":"f82d3ea5-0c3e-447b-a4c3-b7a5eb7334ff","system_id":"levelo_inurba_marseille","lat":43.30883,"lon":5.39632,"is_reserved":false,"is_disabled":false,"rental_uris":{"android":"levelo://app?vid=f82d3ea5-0c3e-447b-a4c3-b7a5eb7334ff","ios":"levelo://app?vid=f82d3ea5-0c3e-447b-a4c3-b7a5eb7334ff"},"vehicle_type_id":"4","last_reported":1706681357,"current_range_meters":26400,"station_id":"ce4bh012rcd13ifvqcv0","pricing_plan_id":"free"},{"bike_id":"98dd1f16-4b5b-42e3-b32b-e17d5f9296dd","system_id":"levelo_inurba_marseille","lat":43.308856,"lon":5.396341,"is_reserved":false,"is_disabled":false,"rental_uris":{"android":"levelo://app?vid=98dd1f16-4b5b-42e3-b32b-e17d5f9296dd","ios":"levelo://app?vid=98dd1f16-4b5b-42e3-b32b-e17d5f9296dd"},"vehicle_type_id":"4","last_reported":1706681357,"current_range_meters":15600,"station_id":"ce4bh012rcd13ifvqcv0","pricing_plan_id":"free"},{"bike_id":"0498f959-33ab-4cf6-a268-c8c1b960fc37","system_id":"levelo_inurba_marseille","lat":43.309038,"lon":5.396546,"is_reserved":false,"is_disabled":false,"rental_uris":{"android":"levelo://app?vid=0498f959-33ab-4cf6-a268-c8c1b960fc37","ios":"levelo://app?vid=0498f959-33ab-4cf6-a268-c8c1b960fc37"},"vehicle_type_id":"4","last_reported":1706681357,"current_range_meters":29600,"station_id":"ce4bh012rcd13ifvqcv0","pricing_plan_id":"free"},{"bike_id":"33c94b88-26d4-4311-af85-1825f528c93a","system_id":"levelo_inurba_marseille","lat":43.308823,"lon":5.396337,"is_reserved":false,"is_disabled":false,"rental_uris":{"android":"levelo://app?vid=33c94b88-26d4-4311-af85-1825f528c93a","ios":"levelo://app?vid=33c94b88-26d4-4311-af85-1825f528c93a"},"vehicle_type_id":"4","last_reported":1706681357,"current_range_meters":9200,"station_id":"ce4bh012rcd13ifvqcv0","pricing_plan_id":"free"},{"bike_id":"6a4d6e3c-422a-457f-b27b-2d58bdc5c0c6","system_id":"levelo_inurba_marseille","lat":43.308857,"lon":5.39635,"is_reserved":false,"is_disabled":false,"rental_uris":{"android":"levelo://app?vid=6a4d6e3c-422a-457f-b27b-2d58bdc5c0c6","ios":"levelo://app?vid=6a4d6e3c-422a-457f-b27b-2d58bdc5c0c6"},"vehicle_type_id":"4","last_reported":1706681357,"current_range_meters":14800,"station_id":"ce4bh012rcd13ifvqcv0","pricing_plan_id":"free"},{"bike_id":"71a2b42f-2bee-401f-bacf-6dbf88602b6f","system_id":"levelo_inurba_marseille","lat":43.308863,"lon":5.396367,"is_reserved":false,"is_disabled":false,"rental_uris":{"android":"levelo://app?vid=71a2b42f-2bee-401f-bacf-6dbf88602b6f","ios":"levelo://app?vid=71a2b42f-2bee-401f-bacf-6dbf88602b6f"},"vehicle_type_id":"4","last_reported":1706681357,"current_range_meters":19200,"station_id":"ce4bh012rcd13ifvqcv0","pricing_plan_id":"free"},{"bike_id":"6c7e1c9a-57cb-4109-b0b9-8f343f78204f","system_id":"levelo_inurba_marseille","lat":43.30883,"lon":5.39636,"is_reserved":false,"is_disabled":false,"rental_uris":{"android":"levelo://app?vid=6c7e1c9a-57cb-4109-b0b9-8f343f78204f","ios":"levelo://app?vid=6c7e1c9a-57cb-4109-b0b9-8f343f78204f"},"vehicle_type_id":"4","last_reported":1706681357,"current_range_meters":27200,"station_id":"ce4bh012rcd13ifvqcv0","pricing_plan_id":"free"},{"bike_id":"113c710a-82dc-4f8b-9a03-b597ba872ec5","system_id":"levelo_inurba_marseille","lat":43.30892,"lon":5.39639,"is_reserved":false,"is_disabled":false,"rental_uris":{"android":"levelo://app?vid=113c710a-82dc-4f8b-9a03-b597ba872ec5","ios":"levelo://app?vid=113c710a-82dc-4f8b-9a03-b597ba872ec5"},"vehicle_type_id":"4","last_reported":1706681357,"current_range_meters":19600,"station_id":"ce4bh012rcd13ifvqcv0","pricing_plan_id":"free"},{"bike_id":"2e0c5069-3577-4b65-9bc2-e4d774d1fe84","system_id":"levelo_inurba_marseille","lat":43.309038,"lon":5.396546,"is_reserved":false,"is_disabled":false,"rental_uris":{"android":"levelo://app?vid=2e0c5069-3577-4b65-9bc2-e4d774d1fe84","ios":"levelo://app?vid=2e0c5069-3577-4b65-9bc2-e4d774d1fe84"},"vehicle_type_id":"4","last_reported":1706681357,"current_range_meters":29200,"station_id":"ce4bh012rcd13ifvqcv0","pricing_plan_id":"free"},{"bike_id":"961af791-ce80-4780-8123-07223dca3aae","system_id":"levelo_inurba_marseille","lat":43.313291,"lon":5.396838,"is_reserved":false,"is_disabled":false,"rental_uris":{"android":"levelo://app?vid=961af791-ce80-4780-8123-07223dca3aae","ios":"levelo://app?vid=961af791-ce80-4780-8123-07223dca3aae"},"vehicle_type_id":"4","last_reported":1706681357,"current_range_meters":12000,"station_id":"ce4bgvp2rcd13ifvqcu0","pricing_plan_id":"free"},{"bike_id":"e5ac1836-909c-4df7-ade6-07e26df00ccf","system_id":"levelo_inurba_marseille","lat":43.29195,"lon":5.35784,"is_reserved":false,"is_disabled":false,"rental_uris":{"android":"levelo://app?vid=e5ac1836-909c-4df7-ade6-07e26df00ccf","ios":"levelo://app?vid=e5ac1836-909c-4df7-ade6-07e26df00ccf"},"vehicle_type_id":"4","last_reported":1706681357,"current_range_meters":30800,"station_id":"ce4bhb12rcd13ifvqel0","pricing_plan_id":"free"},{"bike_id":"a81ffb1d-f7f4-41a9-a4d4-6a804b0f144a","system_id":"levelo_inurba_marseille","lat":43.313291,"lon":5.396838,"is_reserved":false,"is_disabled":false,"rental_uris":{"android":"levelo://app?vid=a81ffb1d-f7f4-41a9-a4d4-6a804b0f144a","ios":"levelo://app?vid=a81ffb1d-f7f4-41a9-a4d4-6a804b0f144a"},"vehicle_type_id":"4","last_reported":1706681357,"current_range_meters":16000,"station_id":"ce4bgvp2rcd13ifvqcu0","pricing_plan_id":"free"},{"bike_id":"dacef0ad-9800-41af-828e-19ff6aaaffb4","system_id":"levelo_inurba_marseille","lat":43.313291,"lon":5.396838,"is_reserved":false,"is_disabled":false,"rental_uris":{"android":"levelo://app?vid=dacef0ad-9800-41af-828e-19ff6aaaffb4","ios":"levelo://app?vid=dacef0ad-9800-41af-828e-19ff6aaaffb4"},"vehicle_type_id":"4","last_reported":1706681357,"current_range_meters":27200,"station_id":"ce4bgvp2rcd13ifvqcu0","pricing_plan_id":"free"},{"bike_id":"7f6aa594-0861-4485-833e-2c96eb223d5a","system_id":"levelo_inurba_marseille","lat":43.313291,"lon":5.396838,"is_reserved":false,"is_disabled":false,"rental_uris":{"android":"levelo://app?vid=7f6aa594-0861-4485-833e-2c96eb223d5a","ios":"levelo://app?vid=7f6aa594-0861-4485-833e-2c96eb223d5a"},"vehicle_type_id":"4","last_reported":1706681357,"current_range_meters":16400,"station_id":"ce4bgvp2rcd13ifvqcu0","pricing_plan_id":"free"},{"bike_id":"0e939496-2def-4b51-b8a6-8154a39f3ea3","system_id":"levelo_inurba_marseille","lat":43.313291,"lon":5.396838,"is_reserved":false,"is_disabled":false,"rental_uris":{"android":"levelo://app?vid=0e939496-2def-4b51-b8a6-8154a39f3ea3","ios":"levelo://app?vid=0e939496-2def-4b51-b8a6-8154a39f3ea3"},"vehicle_type_id":"4","last_reported":1706681357,"current_range_meters":25600,"station_id":"ce4bgvp2rcd13ifvqcu0","pricing_plan_id":"free"},{"bike_id":"96772678-d17a-43c2-a5f2-9de991a51cc0","system_id":"levelo_inurba_marseille","lat":43.308369,"lon":5.396326,"is_reserved":false,"is_disabled":false,"rental_uris":{"android":"levelo://app?vid=96772678-d17a-43c2-a5f2-9de991a51cc0","ios":"levelo://app?vid=96772678-d17a-43c2-a5f2-9de991a51cc0"},"vehicle_type_id":"4","last_reported":1706681357,"current_range_meters":23200,"station_id":"ce4bh012rcd13ifvqcv0","pricing_plan_id":"free"},{"bike_id":"687e5afc-a1e6-4044-8654-5b3082fb03c4","system_id":"levelo_inurba_marseille","lat":43.313291,"lon":5.396838,"is_reserved":false,"is_disabled":false,"rental_uris":{"android":"levelo://app?vid=687e5afc-a1e6-4044-8654-5b3082fb03c4","ios":"levelo://app?vid=687e5afc-a1e6-4044-8654-5b3082fb03c4"},"vehicle_type_id":"4","last_reported":1706681357,"current_range_meters":23600,"station_id":"ce4bgvp2rcd13ifvqcu0","pricing_plan_id":"free"},{"bike_id":"b62bcfa5-473d-4221-b143-66a964158134","system_id":"levelo_inurba_marseille","lat":43.313269,"lon":5.396932,"is_reserved":false,"is_disabled":false,"rental_uris":{"android":"levelo://app?vid=b62bcfa5-473d-4221-b143-66a964158134","ios":"levelo://app?vid=b62bcfa5-473d-4221-b143-66a964158134"},"vehicle_type_id":"4","last_reported":1706681357,"current_range_meters":0,"station_id":"ce4bgvp2rcd13ifvqcu0","pricing_plan_id":"free"},{"bike_id":"50abaccf-dd88-40c7-8675-0ffb04196c99","system_id":"levelo_inurba_marseille","lat":43.313291,"lon":5.396838,"is_reserved":false,"is_disabled":false,"rental_uris":{"android":"levelo://app?vid=50abaccf-dd88-40c7-8675-0ffb04196c99","ios":"levelo://app?vid=50abaccf-dd88-40c7-8675-0ffb04196c99"},"vehicle_type_id":"4","last_reported":1706681357,"current_range_meters":20800,"station_id":"ce4bgvp2rcd13ifvqcu0","pricing_plan_id":"free"},{"bike_id":"751d9503-550a-45bb-8373-25caab9ec8d7","system_id":"levelo_inurba_marseille","lat":43.313291,"lon":5.396838,"is_reserved":false,"is_disabled":false,"rental_uris":{"android":"levelo://app?vid=751d9503-550a-45bb-8373-25caab9ec8d7","ios":"levelo://app?vid=751d9503-550a-45bb-8373-25caab9ec8d7"},"vehicle_type_id":"4","last_reported":1706681357,"current_range_meters":15600,"station_id":"ce4bgvp2rcd13ifvqcu0","pricing_plan_id":"free"},{"bike_id":"4970a1f1-2562-4cd9-ae69-8b029fbc1985","system_id":"levelo_inurba_marseille","lat":43.313291,"lon":5.396838,"is_reserved":false,"is_disabled":false,"rental_uris":{"android":"levelo://app?vid=4970a1f1-2562-4cd9-ae69-8b029fbc1985","ios":"levelo://app?vid=4970a1f1-2562-4cd9-ae69-8b029fbc1985"},"vehicle_type_id":"4","last_reported":1706681357,"current_range_meters":16400,"station_id":"ce4bgvp2rcd13ifvqcu0","pricing_plan_id":"free"},{"bike_id":"b674387c-dac7-4c72-8c60-5bdca13ab48d","system_id":"levelo_inurba_marseille","lat":43.31322,"lon":5.39695,"is_reserved":false,"is_disabled":false,"rental_uris":{"android":"levelo://app?vid=b674387c-dac7-4c72-8c60-5bdca13ab48d","ios":"levelo://app?vid=b674387c-dac7-4c72-8c60-5bdca13ab48d"},"vehicle_type_id":"4","last_reported":1706681357,"current_range_meters":26800,"station_id":"ce4bgvp2rcd13ifvqcu0","pricing_plan_id":"free"},{"bike_id":"08c8936f-6282-4269-ac71-328472fd491d","system_id":"levelo_inurba_marseille","lat":43.313291,"lon":5.396838,"is_reserved":false,"is_disabled":false,"rental_uris":{"android":"levelo://app?vid=08c8936f-6282-4269-ac71-328472fd491d","ios":"levelo://app?vid=08c8936f-6282-4269-ac71-328472fd491d"},"vehicle_type_id":"4","last_reported":1706681357,"current_range_meters":31200,"station_id":"ce4bgvp2rcd13ifvqcu0","pricing_plan_id":"free"},{"bike_id":"ef62cf81-cc32-4f0e-bdf1-8a6a90e9453b","system_id":"levelo_inurba_marseille","lat":43.313291,"lon":5.396838,"is_reserved":false,"is_disabled":false,"rental_uris":{"android":"levelo://app?vid=ef62cf81-cc32-4f0e-bdf1-8a6a90e9453b","ios":"levelo://app?vid=ef62cf81-cc32-4f0e-bdf1-8a6a90e9453b"},"vehicle_type_id":"4","last_reported":1706681357,"current_range_meters":16000,"station_id":"ce4bgvp2rcd13ifvqcu0","pricing_plan_id":"free"},{"bike_id":"2ffc279e-2799-4474-8220-0a993408586f","system_id":"levelo_inurba_marseille","lat":43.313291,"lon":5.396838,"is_reserved":false,"is_disabled":false,"rental_uris":{"android":"levelo://app?vid=2ffc279e-2799-4474-8220-0a993408586f","ios":"levelo://app?vid=2ffc279e-2799-4474-8220-0a993408586f"},"vehicle_type_id":"4","last_reported":1706681357,"current_range_meters":31600,"station_id":"ce4bgvp2rcd13ifvqcu0","pricing_plan_id":"free"},{"bike_id":"d112c791-9f74-425c-845c-452333881a9e","system_id":"levelo_inurba_marseille","lat":43.313291,"lon":5.396838,"is_reserved":false,"is_disabled":false,"rental_uris":{"android":"levelo://app?vid=d112c791-9f74-425c-845c-452333881a9e","ios":"levelo://app?vid=d112c791-9f74-425c-845c-452333881a9e"},"vehicle_type_id":"4","last_reported":1706681357,"current_range_meters":25200,"station_id":"ce4bgvp2rcd13ifvqcu0","pricing_plan_id":"free"},{"bike_id":"7f40c595-1c4f-4ac5-898c-e19e6e7abfa5","system_id":"levelo_inurba_marseille","lat":43.313291,"lon":5.396838,"is_reserved":false,"is_disabled":false,"rental_uris":{"android":"levelo://app?vid=7f40c595-1c4f-4ac5-898c-e19e6e7abfa5","ios":"levelo://app?vid=7f40c595-1c4f-4ac5-898c-e19e6e7abfa5"},"vehicle_type_id":"4","last_reported":1706681357,"current_range_meters":16400,"station_id":"ce4bgvp2rcd13ifvqcu0","pricing_plan_id":"free"},{"bike_id":"1c9ce51b-33d4-41ff-a491-07c4b0b68cb0","system_id":"levelo_inurba_marseille","lat":43.313261,"lon":5.396979,"is_reserved":false,"is_disabled":false,"rental_uris":{"android":"levelo://app?vid=1c9ce51b-33d4-41ff-a491-07c4b0b68cb0","ios":"levelo://app?vid=1c9ce51b-33d4-41ff-a491-07c4b0b68cb0"},"vehicle_type_id":"4","last_reported":1706681357,"current_range_meters":3200,"station_id":"ce4bgvp2rcd13ifvqcu0","pricing_plan_id":"free"},{"bike_id":"00d1de33-9991-4236-84b0-31936a458efe","system_id":"levelo_inurba_marseille","lat":43.313291,"lon":5.396838,"is_reserved":false,"is_disabled":false,"rental_uris":{"android":"levelo://app?vid=00d1de33-9991-4236-84b0-31936a458efe","ios":"levelo://app?vid=00d1de33-9991-4236-84b0-31936a458efe"},"vehicle_type_id":"4","last_reported":1706681357,"current_range_meters":3600,"station_id":"ce4bgvp2rcd13ifvqcu0","pricing_plan_id":"free"},{"bike_id":"067a3f54-cdb1-4351-888c-7235aaac275f","system_id":"levelo_inurba_marseille","lat":43.313291,"lon":5.396838,"is_reserved":false,"is_disabled":false,"rental_uris":{"android":"levelo://app?vid=067a3f54-cdb1-4351-888c-7235aaac275f","ios":"levelo://app?vid=067a3f54-cdb1-4351-888c-7235aaac275f"},"vehicle_type_id":"4","last_reported":1706681357,"current_range_meters":3600,"station_id":"ce4bgvp2rcd13ifvqcu0","pricing_plan_id":"free"},{"bike_id":"4cd48d1b-eea7-432e-9d03-538d1fb8272c","system_id":"levelo_inurba_marseille","lat":43.30873,"lon":5.39648,"is_reserved":false,"is_disabled":false,"rental_uris":{"android":"levelo://app?vid=4cd48d1b-eea7-432e-9d03-538d1fb8272c","ios":"levelo://app?vid=4cd48d1b-eea7-432e-9d03-538d1fb8272c"},"vehicle_type_id":"4","last_reported":1706681357,"current_range_meters":26000,"station_id":"ce4bh012rcd13ifvqcv0","pricing_plan_id":"free"},{"bike_id":"9a015444-c4b0-41cf-b428-0705d5bd5a83","system_id":"levelo_inurba_marseille","lat":43.313291,"lon":5.396838,"is_reserved":false,"is_disabled":false,"rental_uris":{"android":"levelo://app?vid=9a015444-c4b0-41cf-b428-0705d5bd5a83","ios":"levelo://app?vid=9a015444-c4b0-41cf-b428-0705d5bd5a83"},"vehicle_type_id":"4","last_reported":1706681357,"current_range_meters":11600,"station_id":"ce4bgvp2rcd13ifvqcu0","pricing_plan_id":"free"},{"bike_id":"feeb888a-249a-48c9-9c30-faafc06cbb32","system_id":"levelo_inurba_marseille","lat":43.313291,"lon":5.396838,"is_reserved":false,"is_disabled":false,"rental_uris":{"android":"levelo://app?vid=feeb888a-249a-48c9-9c30-faafc06cbb32","ios":"levelo://app?vid=feeb888a-249a-48c9-9c30-faafc06cbb32"},"vehicle_type_id":"4","last_reported":1706681357,"current_range_meters":15600,"station_id":"ce4bgvp2rcd13ifvqcu0","pricing_plan_id":"free"},{"bike_id":"fd5087a9-addf-4cb2-ba7a-8020795338e2","system_id":"levelo_inurba_marseille","lat":43.297548,"lon":5.38986,"is_reserved":false,"is_disabled":false,"rental_uris":{"android":"levelo://app?vid=fd5087a9-addf-4cb2-ba7a-8020795338e2","ios":"levelo://app?vid=fd5087a9-addf-4cb2-ba7a-8020795338e2"},"vehicle_type_id":"4","last_reported":1706681357,"current_range_meters":7600,"station_id":"","pricing_plan_id":"free"},{"bike_id":"2c1e47ad-3478-424c-8c66-23a600b1f0dc","system_id":"levelo_inurba_marseille","lat":43.290441,"lon":5.359123,"is_reserved":false,"is_disabled":false,"rental_uris":{"android":"levelo://app?vid=2c1e47ad-3478-424c-8c66-23a600b1f0dc","ios":"levelo://app?vid=2c1e47ad-3478-424c-8c66-23a600b1f0dc"},"vehicle_type_id":"4","last_reported":1706681357,"current_range_meters":15200,"station_id":"","pricing_plan_id":"free"},{"bike_id":"5390f1bd-ebbf-4c24-a2ca-137ca250e3f7","system_id":"levelo_inurba_marseille","lat":43.290327,"lon":5.375711,"is_reserved":false,"is_disabled":false,"rental_uris":{"android":"levelo://app?vid=5390f1bd-ebbf-4c24-a2ca-137ca250e3f7","ios":"levelo://app?vid=5390f1bd-ebbf-4c24-a2ca-137ca250e3f7"},"vehicle_type_id":"4","last_reported":1706681357,"current_range_meters":23600,"station_id":"ce4bh692rcd13ifvqe90","pricing_plan_id":"free"},{"bike_id":"d4a83435-aafd-40d5-92e8-af0d172e7f53","system_id":"levelo_inurba_marseille","lat":43.290327,"lon":5.375711,"is_reserved":false,"is_disabled":false,"rental_uris":{"android":"levelo://app?vid=d4a83435-aafd-40d5-92e8-af0d172e7f53","ios":"levelo://app?vid=d4a83435-aafd-40d5-92e8-af0d172e7f53"},"vehicle_type_id":"4","last_reported":1706681357,"current_range_meters":26000,"station_id":"ce4bh692rcd13ifvqe90","pricing_plan_id":"free"},{"bike_id":"fe223978-23d2-4554-a355-2a17fc8478bc","system_id":"levelo_inurba_marseille","lat":43.289184,"lon":5.366408,"is_reserved":false,"is_disabled":false,"rental_uris":{"android":"levelo://app?vid=fe223978-23d2-4554-a355-2a17fc8478bc","ios":"levelo://app?vid=fe223978-23d2-4554-a355-2a17fc8478bc"},"vehicle_type_id":"4","last_reported":1706681357,"current_range_meters":30000,"station_id":"ce4bhap2rcd13ifvqek0","pricing_plan_id":"free"},{"bike_id":"65f36854-27a1-4848-baf9-b150d3bdd5b3","system_id":"levelo_inurba_marseille","lat":43.289468,"lon":5.363719,"is_reserved":false,"is_disabled":false,"rental_uris":{"android":"levelo://app?vid=65f36854-27a1-4848-baf9-b150d3bdd5b3","ios":"levelo://app?vid=65f36854-27a1-4848-baf9-b150d3bdd5b3"},"vehicle_type_id":"4","last_reported":1706681357,"current_range_meters":26000,"station_id":"ce4bhc92rcd13ifvqetg","pricing_plan_id":"free"},{"bike_id":"57edec78-6ae8-4bab-8c1c-972c8741eef7","system_id":"levelo_inurba_marseille","lat":43.30423,"lon":5.39748,"is_reserved":false,"is_disabled":false,"rental_uris":{"android":"levelo://app?vid=57edec78-6ae8-4bab-8c1c-972c8741eef7","ios":"levelo://app?vid=57edec78-6ae8-4bab-8c1c-972c8741eef7"},"vehicle_type_id":"4","last_reported":1706681357,"current_range_meters":8800,"station_id":"ce4bh092rcd13ifvqd20","pricing_plan_id":"free"},{"bike_id":"c44ba8f0-5ce0-41ba-96ce-da9792115b29","system_id":"levelo_inurba_marseille","lat":43.30424,"lon":5.39749,"is_reserved":false,"is_disabled":false,"rental_uris":{"android":"levelo://app?vid=c44ba8f0-5ce0-41ba-96ce-da9792115b29","ios":"levelo://app?vid=c44ba8f0-5ce0-41ba-96ce-da9792115b29"},"vehicle_type_id":"4","last_reported":1706681357,"current_range_meters":26800,"station_id":"ce4bh092rcd13ifvqd20","pricing_plan_id":"free"},{"bike_id":"32239175-1969-47fc-ada3-95ef9bf3f02b","system_id":"levelo_inurba_marseille","lat":43.30422,"lon":5.397544,"is_reserved":false,"is_disabled":false,"rental_uris":{"android":"levelo://app?vid=32239175-1969-47fc-ada3-95ef9bf3f02b","ios":"levelo://app?vid=32239175-1969-47fc-ada3-95ef9bf3f02b"},"vehicle_type_id":"4","last_reported":1706681357,"current_range_meters":4400,"station_id":"ce4bh092rcd13ifvqd20","pricing_plan_id":"free"},{"bike_id":"fd9c25c7-51c2-43bf-9915-a2233023bccf","system_id":"levelo_inurba_marseille","lat":43.304274,"lon":5.397513,"is_reserved":false,"is_disabled":false,"rental_uris":{"android":"levelo://app?vid=fd9c25c7-51c2-43bf-9915-a2233023bccf","ios":"levelo://app?vid=fd9c25c7-51c2-43bf-9915-a2233023bccf"},"vehicle_type_id":"4","last_reported":1706681357,"current_range_meters":26800,"station_id":"ce4bh092rcd13ifvqd20","pricing_plan_id":"free"},{"bike_id":"dc0838a3-8241-4951-a02f-ff2fd0d490db","system_id":"levelo_inurba_marseille","lat":43.29007,"lon":5.35612,"is_reserved":false,"is_disabled":false,"rental_uris":{"android":"levelo://app?vid=dc0838a3-8241-4951-a02f-ff2fd0d490db","ios":"levelo://app?vid=dc0838a3-8241-4951-a02f-ff2fd0d490db"},"vehicle_type_id":"4","last_reported":1706681357,"current_range_meters":30000,"station_id":"ce4bhb92rcd13ifvqen0","pricing_plan_id":"free"},{"bike_id":"e6805703-f51e-4c94-8c0c-821f5854e1c6","system_id":"levelo_inurba_marseille","lat":43.290053,"lon":5.356092,"is_reserved":false,"is_disabled":false,"rental_uris":{"android":"levelo://app?vid=e6805703-f51e-4c94-8c0c-821f5854e1c6","ios":"levelo://app?vid=e6805703-f51e-4c94-8c0c-821f5854e1c6"},"vehicle_type_id":"4","last_reported":1706681357,"current_range_meters":25200,"station_id":"ce4bhb92rcd13ifvqen0","pricing_plan_id":"free"},{"bike_id":"1838fcc0-7589-4a3c-b5ce-e6eb390c32f5","system_id":"levelo_inurba_marseille","lat":43.297895,"lon":5.393428,"is_reserved":false,"is_disabled":false,"rental_uris":{"android":"levelo://app?vid=1838fcc0-7589-4a3c-b5ce-e6eb390c32f5","ios":"levelo://app?vid=1838fcc0-7589-4a3c-b5ce-e6eb390c32f5"},"vehicle_type_id":"4","last_reported":1706681357,"current_range_meters":24000,"station_id":"chh1huq6cuj3fo74tm60","pricing_plan_id":"free"},{"bike_id":"ce25c0cc-b379-4b1d-aa28-bc65b697b0fb","system_id":"levelo_inurba_marseille","lat":43.330442,"lon":5.389148,"is_reserved":false,"is_disabled":false,"rental_uris":{"android":"levelo://app?vid=ce25c0cc-b379-4b1d-aa28-bc65b697b0fb","ios":"levelo://app?vid=ce25c0cc-b379-4b1d-aa28-bc65b697b0fb"},"vehicle_type_id":"4","last_reported":1706681357,"current_range_meters":25200,"station_id":"ce4bhr92rcd13ifvqhrg","pricing_plan_id":"free"},{"bike_id":"9c7a9839-bda3-4c8b-b68c-6ac3367bbc8e","system_id":"levelo_inurba_marseille","lat":43.330442,"lon":5.389148,"is_reserved":false,"is_disabled":false,"rental_uris":{"android":"levelo://app?vid=9c7a9839-bda3-4c8b-b68c-6ac3367bbc8e","ios":"levelo://app?vid=9c7a9839-bda3-4c8b-b68c-6ac3367bbc8e"},"vehicle_type_id":"4","last_reported":1706681357,"current_range_meters":23200,"station_id":"ce4bhr92rcd13ifvqhrg","pricing_plan_id":"free"},{"bike_id":"54340ca4-c385-46ed-b279-556ae3d847cc","system_id":"levelo_inurba_marseille","lat":43.330442,"lon":5.389148,"is_reserved":false,"is_disabled":false,"rental_uris":{"android":"levelo://app?vid=54340ca4-c385-46ed-b279-556ae3d847cc","ios":"levelo://app?vid=54340ca4-c385-46ed-b279-556ae3d847cc"},"vehicle_type_id":"4","last_reported":1706681357,"current_range_meters":12800,"station_id":"ce4bhr92rcd13ifvqhrg","pricing_plan_id":"free"},{"bike_id":"d886f36e-218b-497f-bf3c-7716ce70d8cc","system_id":"levelo_inurba_marseille","lat":43.330442,"lon":5.389148,"is_reserved":false,"is_disabled":false,"rental_uris":{"android":"levelo://app?vid=d886f36e-218b-497f-bf3c-7716ce70d8cc","ios":"levelo://app?vid=d886f36e-218b-497f-bf3c-7716ce70d8cc"},"vehicle_type_id":"4","last_reported":1706681357,"current_range_meters":800,"station_id":"ce4bhr92rcd13ifvqhrg","pricing_plan_id":"free"},{"bike_id":"eaa294e7-ff6e-4beb-968d-403d62921c47","system_id":"levelo_inurba_marseille","lat":43.330442,"lon":5.389148,"is_reserved":false,"is_disabled":false,"rental_uris":{"android":"levelo://app?vid=eaa294e7-ff6e-4beb-968d-403d62921c47","ios":"levelo://app?vid=eaa294e7-ff6e-4beb-968d-403d62921c47"},"vehicle_type_id":"4","last_reported":1706681357,"current_range_meters":30800,"station_id":"ce4bhr92rcd13ifvqhrg","pricing_plan_id":"free"},{"bike_id":"43244c99-5db6-42f7-9190-d887fb9e70d9","system_id":"levelo_inurba_marseille","lat":43.330442,"lon":5.389148,"is_reserved":false,"is_disabled":false,"rental_uris":{"android":"levelo://app?vid=43244c99-5db6-42f7-9190-d887fb9e70d9","ios":"levelo://app?vid=43244c99-5db6-42f7-9190-d887fb9e70d9"},"vehicle_type_id":"4","last_reported":1706681357,"current_range_meters":16000,"station_id":"ce4bhr92rcd13ifvqhrg","pricing_plan_id":"free"},{"bike_id":"93db4658-8765-4b49-a061-60e8b00d7d2b","system_id":"levelo_inurba_marseille","lat":43.289743,"lon":5.378304,"is_reserved":false,"is_disabled":false,"rental_uris":{"android":"levelo://app?vid=93db4658-8765-4b49-a061-60e8b00d7d2b","ios":"levelo://app?vid=93db4658-8765-4b49-a061-60e8b00d7d2b"},"vehicle_type_id":"4","last_reported":1706681357,"current_range_meters":17600,"station_id":"ce4bh9p2rcd13ifvqed0","pricing_plan_id":"free"},{"bike_id":"69be143d-2d2b-4a08-a569-4d0efe66087e","system_id":"levelo_inurba_marseille","lat":43.28856,"lon":5.358371,"is_reserved":false,"is_disabled":false,"rental_uris":{"android":"levelo://app?vid=69be143d-2d2b-4a08-a569-4d0efe66087e","ios":"levelo://app?vid=69be143d-2d2b-4a08-a569-4d0efe66087e"},"vehicle_type_id":"4","last_reported":1706681357,"current_range_meters":28400,"station_id":"ce4bhb12rcd13ifvqem0","pricing_plan_id":"free"},{"bike_id":"f8a0f6f3-368f-4336-9790-36a341eafa12","system_id":"levelo_inurba_marseille","lat":43.28856,"lon":5.358371,"is_reserved":false,"is_disabled":false,"rental_uris":{"android":"levelo://app?vid=f8a0f6f3-368f-4336-9790-36a341eafa12","ios":"levelo://app?vid=f8a0f6f3-368f-4336-9790-36a341eafa12"},"vehicle_type_id":"4","last_reported":1706681357,"current_range_meters":9600,"station_id":"ce4bhb12rcd13ifvqem0","pricing_plan_id":"free"},{"bike_id":"8598ffc9-01c0-4a20-9ce3-da902b07d7c8","system_id":"levelo_inurba_marseille","lat":43.28852,"lon":5.35847,"is_reserved":false,"is_disabled":false,"rental_uris":{"android":"levelo://app?vid=8598ffc9-01c0-4a20-9ce3-da902b07d7c8","ios":"levelo://app?vid=8598ffc9-01c0-4a20-9ce3-da902b07d7c8"},"vehicle_type_id":"4","last_reported":1706681357,"current_range_meters":31200,"station_id":"ce4bhb12rcd13ifvqem0","pricing_plan_id":"free"},{"bike_id":"981b772b-a370-4540-9344-a448ffe16f06","system_id":"levelo_inurba_marseille","lat":43.28856,"lon":5.358371,"is_reserved":false,"is_disabled":false,"rental_uris":{"android":"levelo://app?vid=981b772b-a370-4540-9344-a448ffe16f06","ios":"levelo://app?vid=981b772b-a370-4540-9344-a448ffe16f06"},"vehicle_type_id":"4","last_reported":1706681357,"current_range_meters":15200,"station_id":"ce4bhb12rcd13ifvqem0","pricing_plan_id":"free"},{"bike_id":"24bca81d-f76b-46b1-ad04-20c7073dfe30","system_id":"levelo_inurba_marseille","lat":43.28856,"lon":5.358371,"is_reserved":false,"is_disabled":false,"rental_uris":{"android":"levelo://app?vid=24bca81d-f76b-46b1-ad04-20c7073dfe30","ios":"levelo://app?vid=24bca81d-f76b-46b1-ad04-20c7073dfe30"},"vehicle_type_id":"4","last_reported":1706681357,"current_range_meters":24800,"station_id":"ce4bhb12rcd13ifvqem0","pricing_plan_id":"free"},{"bike_id":"a410b630-21f0-488e-b5e2-14f05f8552fd","system_id":"levelo_inurba_marseille","lat":43.28856,"lon":5.358371,"is_reserved":false,"is_disabled":false,"rental_uris":{"android":"levelo://app?vid=a410b630-21f0-488e-b5e2-14f05f8552fd","ios":"levelo://app?vid=a410b630-21f0-488e-b5e2-14f05f8552fd"},"vehicle_type_id":"4","last_reported":1706681357,"current_range_meters":19600,"station_id":"ce4bhb12rcd13ifvqem0","pricing_plan_id":"free"},{"bike_id":"6db454f5-9b5a-42d5-8e7e-cd67710e219d","system_id":"levelo_inurba_marseille","lat":43.28856,"lon":5.358371,"is_reserved":false,"is_disabled":false,"rental_uris":{"android":"levelo://app?vid=6db454f5-9b5a-42d5-8e7e-cd67710e219d","ios":"levelo://app?vid=6db454f5-9b5a-42d5-8e7e-cd67710e219d"},"vehicle_type_id":"4","last_reported":1706681357,"current_range_meters":1600,"station_id":"ce4bhb12rcd13ifvqem0","pricing_plan_id":"free"},{"bike_id":"34c6ca61-7904-4b11-ba07-0d92ca50e28d","system_id":"levelo_inurba_marseille","lat":43.28856,"lon":5.358371,"is_reserved":false,"is_disabled":false,"rental_uris":{"android":"levelo://app?vid=34c6ca61-7904-4b11-ba07-0d92ca50e28d","ios":"levelo://app?vid=34c6ca61-7904-4b11-ba07-0d92ca50e28d"},"vehicle_type_id":"4","last_reported":1706681357,"current_range_meters":20000,"station_id":"ce4bhb12rcd13ifvqem0","pricing_plan_id":"free"},{"bike_id":"9008239d-ce45-46c2-8381-3c063bd03566","system_id":"levelo_inurba_marseille","lat":43.337353,"lon":5.374554,"is_reserved":false,"is_disabled":false,"rental_uris":{"android":"levelo://app?vid=9008239d-ce45-46c2-8381-3c063bd03566","ios":"levelo://app?vid=9008239d-ce45-46c2-8381-3c063bd03566"},"vehicle_type_id":"4","last_reported":1706681357,"current_range_meters":16800,"station_id":"","pricing_plan_id":"free"},{"bike_id":"a77861b9-7e2f-4f38-a9bb-94ed792c6b7e","system_id":"levelo_inurba_marseille","lat":43.312609,"lon":5.401662,"is_reserved":false,"is_disabled":false,"rental_uris":{"android":"levelo://app?vid=a77861b9-7e2f-4f38-a9bb-94ed792c6b7e","ios":"levelo://app?vid=a77861b9-7e2f-4f38-a9bb-94ed792c6b7e"},"vehicle_type_id":"4","last_reported":1706681357,"current_range_meters":26800,"station_id":"ce4bh092rcd13ifvqd30","pricing_plan_id":"free"},{"bike_id":"507cb175-65f5-4345-9fa6-04a30d9b266f","system_id":"levelo_inurba_marseille","lat":43.309371,"lon":5.401449,"is_reserved":false,"is_disabled":false,"rental_uris":{"android":"levelo://app?vid=507cb175-65f5-4345-9fa6-04a30d9b266f","ios":"levelo://app?vid=507cb175-65f5-4345-9fa6-04a30d9b266f"},"vehicle_type_id":"4","last_reported":1706681357,"current_range_meters":30800,"station_id":"ce4bgvp2rcd13ifvqct0","pricing_plan_id":"free"},{"bike_id":"88559bbf-2029-489a-ab4d-e746a3ef1046","system_id":"levelo_inurba_marseille","lat":43.312609,"lon":5.401662,"is_reserved":false,"is_disabled":false,"rental_uris":{"android":"levelo://app?vid=88559bbf-2029-489a-ab4d-e746a3ef1046","ios":"levelo://app?vid=88559bbf-2029-489a-ab4d-e746a3ef1046"},"vehicle_type_id":"4","last_reported":1706681357,"current_range_meters":18400,"station_id":"ce4bh092rcd13ifvqd30","pricing_plan_id":"free"},{"bike_id":"0e4aa572-0c21-4409-89e4-31e246e53c21","system_id":"levelo_inurba_marseille","lat":43.30936,"lon":5.4014,"is_reserved":false,"is_disabled":false,"rental_uris":{"android":"levelo://app?vid=0e4aa572-0c21-4409-89e4-31e246e53c21","ios":"levelo://app?vid=0e4aa572-0c21-4409-89e4-31e246e53c21"},"vehicle_type_id":"4","last_reported":1706681357,"current_range_meters":21600,"station_id":"ce4bgvp2rcd13ifvqct0","pricing_plan_id":"free"},{"bike_id":"081bc955-479d-4116-b8a4-1b4fbbc24c2e","system_id":"levelo_inurba_marseille","lat":43.312609,"lon":5.401662,"is_reserved":false,"is_disabled":false,"rental_uris":{"android":"levelo://app?vid=081bc955-479d-4116-b8a4-1b4fbbc24c2e","ios":"levelo://app?vid=081bc955-479d-4116-b8a4-1b4fbbc24c2e"},"vehicle_type_id":"4","last_reported":1706681357,"current_range_meters":26000,"station_id":"ce4bh092rcd13ifvqd30","pricing_plan_id":"free"},{"bike_id":"c7ffa6c7-6fac-48d1-84c2-05156f3483db","system_id":"levelo_inurba_marseille","lat":43.30937,"lon":5.401435,"is_reserved":false,"is_disabled":false,"rental_uris":{"android":"levelo://app?vid=c7ffa6c7-6fac-48d1-84c2-05156f3483db","ios":"levelo://app?vid=c7ffa6c7-6fac-48d1-84c2-05156f3483db"},"vehicle_type_id":"4","last_reported":1706681357,"current_range_meters":30000,"station_id":"ce4bgvp2rcd13ifvqct0","pricing_plan_id":"free"},{"bike_id":"18eaa504-1014-4da4-be71-938dfef0acb1","system_id":"levelo_inurba_marseille","lat":43.309371,"lon":5.401449,"is_reserved":false,"is_disabled":false,"rental_uris":{"android":"levelo://app?vid=18eaa504-1014-4da4-be71-938dfef0acb1","ios":"levelo://app?vid=18eaa504-1014-4da4-be71-938dfef0acb1"},"vehicle_type_id":"4","last_reported":1706681357,"current_range_meters":400,"station_id":"ce4bgvp2rcd13ifvqct0","pricing_plan_id":"free"},{"bike_id":"9fa665cb-b57a-497b-914d-272056bde5b9","system_id":"levelo_inurba_marseille","lat":43.309371,"lon":5.401449,"is_reserved":false,"is_disabled":false,"rental_uris":{"android":"levelo://app?vid=9fa665cb-b57a-497b-914d-272056bde5b9","ios":"levelo://app?vid=9fa665cb-b57a-497b-914d-272056bde5b9"},"vehicle_type_id":"4","last_reported":1706681357,"current_range_meters":12400,"station_id":"ce4bgvp2rcd13ifvqct0","pricing_plan_id":"free"},{"bike_id":"62ea504b-d2ee-47ae-8aa9-75b64fd1b27a","system_id":"levelo_inurba_marseille","lat":43.309371,"lon":5.401449,"is_reserved":false,"is_disabled":false,"rental_uris":{"android":"levelo://app?vid=62ea504b-d2ee-47ae-8aa9-75b64fd1b27a","ios":"levelo://app?vid=62ea504b-d2ee-47ae-8aa9-75b64fd1b27a"},"vehicle_type_id":"4","last_reported":1706681357,"current_range_meters":18800,"station_id":"ce4bgvp2rcd13ifvqct0","pricing_plan_id":"free"},{"bike_id":"46d088a9-761a-4ab9-af81-ba95fc521a85","system_id":"levelo_inurba_marseille","lat":43.309371,"lon":5.401449,"is_reserved":false,"is_disabled":false,"rental_uris":{"android":"levelo://app?vid=46d088a9-761a-4ab9-af81-ba95fc521a85","ios":"levelo://app?vid=46d088a9-761a-4ab9-af81-ba95fc521a85"},"vehicle_type_id":"4","last_reported":1706681357,"current_range_meters":24000,"station_id":"ce4bgvp2rcd13ifvqct0","pricing_plan_id":"free"},{"bike_id":"4a38277e-0563-4c84-827a-6cdc4e476713","system_id":"levelo_inurba_marseille","lat":43.31275,"lon":5.40177,"is_reserved":false,"is_disabled":false,"rental_uris":{"android":"levelo://app?vid=4a38277e-0563-4c84-827a-6cdc4e476713","ios":"levelo://app?vid=4a38277e-0563-4c84-827a-6cdc4e476713"},"vehicle_type_id":"4","last_reported":1706681357,"current_range_meters":31200,"station_id":"ce4bh092rcd13ifvqd30","pricing_plan_id":"free"},{"bike_id":"94c50e53-5bb1-4238-ba9f-94a274a90a23","system_id":"levelo_inurba_marseille","lat":43.309371,"lon":5.401449,"is_reserved":false,"is_disabled":false,"rental_uris":{"android":"levelo://app?vid=94c50e53-5bb1-4238-ba9f-94a274a90a23","ios":"levelo://app?vid=94c50e53-5bb1-4238-ba9f-94a274a90a23"},"vehicle_type_id":"4","last_reported":1706681357,"current_range_meters":30800,"station_id":"ce4bgvp2rcd13ifvqct0","pricing_plan_id":"free"},{"bike_id":"0eecf6ab-a5d5-4bc0-b749-1002649d72b9","system_id":"levelo_inurba_marseille","lat":43.306412,"lon":5.401035,"is_reserved":false,"is_disabled":false,"rental_uris":{"android":"levelo://app?vid=0eecf6ab-a5d5-4bc0-b749-1002649d72b9","ios":"levelo://app?vid=0eecf6ab-a5d5-4bc0-b749-1002649d72b9"},"vehicle_type_id":"4","last_reported":1706681357,"current_range_meters":14000,"station_id":"ce4bh112rcd13ifvqda0","pricing_plan_id":"free"},{"bike_id":"d1c53ec2-5ebe-44c5-a922-23b9e702d45f","system_id":"levelo_inurba_marseille","lat":43.30925,"lon":5.40147,"is_reserved":false,"is_disabled":false,"rental_uris":{"android":"levelo://app?vid=d1c53ec2-5ebe-44c5-a922-23b9e702d45f","ios":"levelo://app?vid=d1c53ec2-5ebe-44c5-a922-23b9e702d45f"},"vehicle_type_id":"4","last_reported":1706681357,"current_range_meters":31200,"station_id":"ce4bgvp2rcd13ifvqct0","pricing_plan_id":"free"},{"bike_id":"8f471953-2835-4a95-a318-680b1fd9c1b1","system_id":"levelo_inurba_marseille","lat":43.309371,"lon":5.401449,"is_reserved":false,"is_disabled":false,"rental_uris":{"android":"levelo://app?vid=8f471953-2835-4a95-a318-680b1fd9c1b1","ios":"levelo://app?vid=8f471953-2835-4a95-a318-680b1fd9c1b1"},"vehicle_type_id":"4","last_reported":1706681357,"current_range_meters":18400,"station_id":"ce4bgvp2rcd13ifvqct0","pricing_plan_id":"free"},{"bike_id":"c3a3eb4a-b836-4652-9c3a-fdf607119e88","system_id":"levelo_inurba_marseille","lat":43.306412,"lon":5.401035,"is_reserved":false,"is_disabled":false,"rental_uris":{"android":"levelo://app?vid=c3a3eb4a-b836-4652-9c3a-fdf607119e88","ios":"levelo://app?vid=c3a3eb4a-b836-4652-9c3a-fdf607119e88"},"vehicle_type_id":"4","last_reported":1706681357,"current_range_meters":30400,"station_id":"ce4bh112rcd13ifvqda0","pricing_plan_id":"free"},