{"last_updated":1751325015,"ttl":60,"version":"2.2","data":{"bikes":[{"bike_id":"3da29fb8-fc97-44c6-b9ac-31dd456b2fd4","system_id":"levelo_inurba_marseille","lat":43.33771,"lon":5.37424,"is_reserved":false,"is_disabled":true,"rental_uris":{"android":"levelo://app?vid=3da29fb8-fc97-44c6-b9ac-31dd456b2fd4","ios":"levelo://app?vid=3da29fb8-fc97-44c6-b9ac-31dd456b2fd4"},"vehicle_type_id":"4","last_reported":1751325016,"current_range_meters":0,"station_id":"","pricing_plan_id":"cebpf4jnsgd1na2vs0mg"},{"bike_id":"01861ad8-a8d7-4be6-816e-651927c87584","system_id":"levelo_inurba_marseille","lat":43.33751,"lon":5.37456,"is_reserved":false,"is_disabled":true,"rental_uris":{"android":"levelo://app?vid=01861ad8-a8d7-4be6-816e-651927c87584","ios":"levelo://app?vid=01861ad8-a8d7-4be6-816e-651927c87584"},"vehicle_type_id":"4","last_reported":1751325016,"current_range_meters":0,"station_id":"","pricing_plan_id":"cebpf4jnsgd1na2vs0mg"},{"bike_id":"69f3e486-7ece-4da3-bef1-7e43be44cf97","system_id":"levelo_inurba_marseille","lat":43.256244,"lon":5.419731,"is_reserved":false,"is_disabled":true,"rental_uris":{"android":"levelo://app?vid=69f3e486-7ece-4da3-bef1-7e43be44cf97","ios":"levelo://app?vid=69f3e486-7ece-4da3-bef1-7e43be44cf97"},"vehicle_type_id":"4","last_reported":1751325016,"current_range_meters":0,"station_id":"","pricing_plan_id":"cebpf4jnsgd1na2vs0mg"},{"bike_id":"c9700359-7f1e-4ea5-8eb5-d9c4ea1b8ef7","system_id":"levelo_inurba_marseille","lat":43.2632,"lon":5.37379,"is_reserved":false,"is_disabled":true,"rental_uris":{"android":"levelo://app?vid=c9700359-7f1e-4ea5-8eb5-d9c4ea1b8ef7","ios":"levelo://app?vid=c9700359-7f1e-4ea5-8eb5-d9c4ea1b8ef7"},"vehicle_type_id":"4","last_reported":1751325016,"current_range_meters":0,"station_id":"","pricing_plan_id":"cebpf4jnsgd1na2vs0mg"},{"bike_id":"6302a245-ed41-4779-9eac-7974e82e676b","system_id":"levelo_inurba_marseille","lat":43.245785,"lon":5.394714,"is_reserved":false,"is_disabled":true,"rental_uris":{"android":"levelo://app?vid=6302a245-ed41-4779-9eac-7974e82e676b","ios":"levelo://app?vid=6302a245-ed41-4779-9eac-7974e82e676b"},"vehicle_type_id":"4","last_reported":1751325016,"current_range_meters":0,"station_id":"","pricing_plan_id":"cebpf4jnsgd1na2vs0mg"},{"bike_id":"7203076a-4dd8-4587-ae85-188d4b9dc864","system_id":"levelo_inurba_marseille","lat":43.30298,"lon":5.39208,"is_reserved":false,"is_disabled":true,"rental_uris":{"android":"levelo://app?vid=7203076a-4dd8-4587-ae85-188d4b9dc864","ios":"levelo://app?vid=7203076a-4dd8-4587-ae85-188d4b9dc864"},"vehicle_type_id":"4","last_reported":1751325016,"current_range_meters":0,"station_id":"ce4bgkh2rcd13ifvqbk0","pricing_plan_id":"cebpf4jnsgd1na2vs0mg"},{"bike_id":"75439533-ebaa-46f3-85c8-07c455bb1139","system_id":"levelo_inurba_marseille","lat":43.28711,"lon":5.39994,"is_reserved":false,"is_disabled":true,"rental_uris":{"android":"levelo://app?vid=75439533-ebaa-46f3-85c8-07c455bb1139","ios":"levelo://app?vid=75439533-ebaa-46f3-85c8-07c455bb1139"},"vehicle_type_id":"4","last_reported":1751325016,"current_range_meters":0,"station_id":"ce4bho92rcd13ifvqh3g","pricing_plan_id":"cebpf4jnsgd1na2vs0mg"},{"bike_id":"8233db61-1d36-41a5-a985-c98b6a5f0fb4","system_id":"levelo_inurba_marseille","lat":43.21748,"lon":5.34595,"is_reserved":false,"is_disabled":true,"rental_uris":{"android":"levelo://app?vid=8233db61-1d36-41a5-a985-c98b6a5f0fb4","ios":"levelo://app?vid=8233db61-1d36-41a5-a985-c98b6a5f0fb4"},"vehicle_type_id":"4","last_reported":1751325016,"current_range_meters":0,"station_id":"st_cvj6r9ubvosntc0bgbag","pricing_plan_id":"cebpf4jnsgd1na2vs0mg"},{"bike_id":"b8358384-5010-48ab-82ed-9476d2467db2","system_id":"levelo_inurba_marseille","lat":43.21763,"lon":5.34586,"is_reserved":false,"is_disabled":true,"rental_uris":{"android":"levelo://app?vid=b8358384-5010-48ab-82ed-9476d2467db2","ios":"levelo://app?vid=b8358384-5010-48ab-82ed-9476d2467db2"},"vehicle_type_id":"4","last_reported":1751325016,"current_range_meters":0,"station_id":"st_cvj6r9ubvosntc0bgbag","pricing_plan_id":"cebpf4jnsgd1na2vs0mg"},{"bike_id":"a37e8def-144c-4d8d-aabf-950aca51f939","system_id":"levelo_inurba_marseille","lat":43.297702,"lon":5.38121,"is_reserved":false,"is_disabled":true,"rental_uris":{"android":"levelo://app?vid=a37e8def-144c-4d8d-aabf-950aca51f939","ios":"levelo://app?vid=a37e8def-144c-4d8d-aabf-950aca51f939"},"vehicle_type_id":"4","last_reported":1751325016,"current_range_meters":400,"station_id":"","pricing_plan_id":"cebpf4jnsgd1na2vs0mg"},{"bike_id":"28225780-6c00-4435-8cde-b501bd568f8b","system_id":"levelo_inurba_marseille","lat":43.21746,"lon":5.34619,"is_reserved":false,"is_disabled":true,"rental_uris":{"android":"levelo://app?vid=28225780-6c00-4435-8cde-b501bd568f8b","ios":"levelo://app?vid=28225780-6c00-4435-8cde-b501bd568f8b"},"vehicle_type_id":"4","last_reported":1751325016,"current_range_meters":400,"station_id":"st_cvj6r9ubvosntc0bgbag","pricing_plan_id":"cebpf4jnsgd1na2vs0mg"},{"bike_id":"46f20ab8-9530-4bc5-8abe-a3d6ffa3d5d5","system_id":"levelo_inurba_marseille","lat":43.241922,"lon":5.375988,"is_reserved":false,"is_disabled":true,"rental_uris":{"android":"levelo://app?vid=46f20ab8-9530-4bc5-8abe-a3d6ffa3d5d5","ios":"levelo://app?vid=46f20ab8-9530-4bc5-8abe-a3d6ffa3d5d5"},"vehicle_type_id":"4","last_reported":1751325016,"current_range_meters":800,"station_id":"ce4bhnp2rcd13ifvqgvg","pricing_plan_id":"cebpf4jnsgd1na2vs0mg"},{"bike_id":"11c5bba2-961a-45fc-992b-f4d022d91384","system_id":"levelo_inurba_marseille","lat":43.24728,"lon":5.41177,"is_reserved":false,"is_disabled":true,"rental_uris":{"android":"levelo://app?vid=11c5bba2-961a-45fc-992b-f4d022d91384","ios":"levelo://app?vid=11c5bba2-961a-45fc-992b-f4d022d91384"},"vehicle_type_id":"4","last_reported":1751325016,"current_range_meters":1200,"station_id":"","pricing_plan_id":"cebpf4jnsgd1na2vs0mg"},{"bike_id":"959b01e9-79ec-4fd0-ae5e-91a3dc8be055","system_id":"levelo_inurba_marseille","lat":43.307872,"lon":5.38168,"is_reserved":false,"is_disabled":true,"rental_uris":{"android":"levelo://app?vid=959b01e9-79ec-4fd0-ae5e-91a3dc8be055","ios":"levelo://app?vid=959b01e9-79ec-4fd0-ae5e-91a3dc8be055"},"vehicle_type_id":"4","last_reported":1751325016,"current_range_meters":1200,"station_id":"ce4bgt12rcd13ifvqce0","pricing_plan_id":"cebpf4jnsgd1na2vs0mg"},{"bike_id":"d5b5bc74-aaeb-40c0-b979-fb1a262527de","system_id":"levelo_inurba_marseille","lat":43.33162,"lon":5.35897,"is_reserved":false,"is_disabled":true,"rental_uris":{"android":"levelo://app?vid=d5b5bc74-aaeb-40c0-b979-fb1a262527de","ios":"levelo://app?vid=d5b5bc74-aaeb-40c0-b979-fb1a262527de"},"vehicle_type_id":"4","last_reported":1751325016,"current_range_meters":1600,"station_id":"","pricing_plan_id":"cebpf4jnsgd1na2vs0mg"},{"bike_id":"80d80215-f498-437d-9aa0-065a6066a5dc","system_id":"levelo_inurba_marseille","lat":43.316844,"lon":5.404657,"is_reserved":false,"is_disabled":true,"rental_uris":{"android":"levelo://app?vid=80d80215-f498-437d-9aa0-065a6066a5dc","ios":"levelo://app?vid=80d80215-f498-437d-9aa0-065a6066a5dc"},"vehicle_type_id":"4","last_reported":1751325016,"current_range_meters":1600,"station_id":"ce4bh192rcd13ifvqdd0","pricing_plan_id":"cebpf4jnsgd1na2vs0mg"},{"bike_id":"f52b1c83-c8b3-4a09-8f81-1175dfb6f0c8","system_id":"levelo_inurba_marseille","lat":43.31083,"lon":5.4243,"is_reserved":false,"is_disabled":true,"rental_uris":{"android":"levelo://app?vid=f52b1c83-c8b3-4a09-8f81-1175dfb6f0c8","ios":"levelo://app?vid=f52b1c83-c8b3-4a09-8f81-1175dfb6f0c8"},"vehicle_type_id":"4","last_reported":1751325016,"current_range_meters":2000,"station_id":"ce4bhp92rcd13ifvqhag","pricing_plan_id":"cebpf4jnsgd1na2vs0mg"},{"bike_id":"aa91b45e-7ebc-4c3a-a9fe-c4d151139eaa","system_id":"levelo_inurba_marseille","lat":43.280389,"lon":5.396082,"is_reserved":false,"is_disabled":false,"rental_uris":{"android":"levelo://app?vid=aa91b45e-7ebc-4c3a-a9fe-c4d151139eaa","ios":"levelo://app?vid=aa91b45e-7ebc-4c3a-a9fe-c4d151139eaa"},"vehicle_type_id":"4","last_reported":1751325016,"current_range_meters":2800,"station_id":"ce4bh692rcd13ifvqea0","pricing_plan_id":"cebpf4jnsgd1na2vs0mg"},{"bike_id":"51d64c96-3176-4ee3-af01-7d94b0db4cc1","system_id":"levelo_inurba_marseille","lat":43.25819,"lon":5.39441,"is_reserved":false,"is_disabled":false,"rental_uris":{"android":"levelo://app?vid=51d64c96-3176-4ee3-af01-7d94b0db4cc1","ios":"levelo://app?vid=51d64c96-3176-4ee3-af01-7d94b0db4cc1"},"vehicle_type_id":"4","last_reported":1751325016,"current_range_meters":2800,"station_id":"ce4bhip2rcd13ifvqft0","pricing_plan_id":"cebpf4jnsgd1na2vs0mg"},{"bike_id":"f0d6da24-abe3-4311-8a1c-4f0126fa2934","system_id":"levelo_inurba_marseille","lat":43.250793,"lon":5.395317,"is_reserved":false,"is_disabled":false,"rental_uris":{"android":"levelo://app?vid=f0d6da24-abe3-4311-8a1c-4f0126fa2934","ios":"levelo://app?vid=f0d6da24-abe3-4311-8a1c-4f0126fa2934"},"vehicle_type_id":"4","last_reported":1751325016,"current_range_meters":2800,"station_id":"ce4bhm12rcd13ifvqgkg","pricing_plan_id":"cebpf4jnsgd1na2vs0mg"},{"bike_id":"87985e62-2823-4157-8a35-599ee9a377ab","system_id":"levelo_inurba_marseille","lat":43.21197,"lon":5.3506,"is_reserved":false,"is_disabled":false,"rental_uris":{"android":"levelo://app?vid=87985e62-2823-4157-8a35-599ee9a377ab","ios":"levelo://app?vid=87985e62-2823-4157-8a35-599ee9a377ab"},"vehicle_type_id":"4","last_reported":1751325016,"current_range_meters":3200,"station_id":"st_cvj6sg6p6f1abm77japg","pricing_plan_id":"cebpf4jnsgd1na2vs0mg"},{"bike_id":"7328ed56-8660-4b40-8b47-4ef24f2d3b8c","system_id":"levelo_inurba_marseille","lat":43.25725,"lon":5.41109,"is_reserved":false,"is_disabled":false,"rental_uris":{"android":"levelo://app?vid=7328ed56-8660-4b40-8b47-4ef24f2d3b8c","ios":"levelo://app?vid=7328ed56-8660-4b40-8b47-4ef24f2d3b8c"},"vehicle_type_id":"4","last_reported":1751325016,"current_range_meters":5600,"station_id":"ce4bhkp2rcd13ifvqgd0","pricing_plan_id":"cebpf4jnsgd1na2vs0mg"},{"bike_id":"f32f1a60-342f-4807-837b-0b085cf233e4","system_id":"levelo_inurba_marseille","lat":43.27616,"lon":5.39212,"is_reserved":false,"is_disabled":false,"rental_uris":{"android":"levelo://app?vid=f32f1a60-342f-4807-837b-0b085cf233e4","ios":"levelo://app?vid=f32f1a60-342f-4807-837b-0b085cf233e4"},"vehicle_type_id":"4","last_reported":1751325016,"current_range_meters":6000,"station_id":"","pricing_plan_id":"cebpf4jnsgd1na2vs0mg"},{"bike_id":"cbe8cf16-ee4d-44dc-af26-2dea0d93d494","system_id":"levelo_inurba_marseille","lat":43.337444,"lon":5.374475,"is_reserved":false,"is_disabled":false,"rental_uris":{"android":"levelo://app?vid=cbe8cf16-ee4d-44dc-af26-2dea0d93d494","ios":"levelo://app?vid=cbe8cf16-ee4d-44dc-af26-2dea0d93d494"},"vehicle_type_id":"4","last_reported":1751325016,"current_range_meters":6000,"station_id":"","pricing_plan_id":"cebpf4jnsgd1na2vs0mg"},{"bike_id":"8fd6277b-336f-4633-8dff-939b932e2fd2","system_id":"levelo_inurba_marseille","lat":43.297968,"lon":5.362086,"is_reserved":false,"is_disabled":false,"rental_uris":{"android":"levelo://app?vid=8fd6277b-336f-4633-8dff-939b932e2fd2","ios":"levelo://app?vid=8fd6277b-336f-4633-8dff-939b932e2fd2"},"vehicle_type_id":"4","last_reported":1751325016,"current_range_meters":6000,"station_id":"","pricing_plan_id":"cebpf4jnsgd1na2vs0mg"},{"bike_id":"8a6936f6-a1ec-46fa-93c1-b2fd2d896e66","system_id":"levelo_inurba_marseille","lat":43.25868,"lon":5.39908,"is_reserved":false,"is_disabled":false,"rental_uris":{"android":"levelo://app?vid=8a6936f6-a1ec-46fa-93c1-b2fd2d896e66","ios":"levelo://app?vid=8a6936f6-a1ec-46fa-93c1-b2fd2d896e66"},"vehicle_type_id":"4","last_reported":1751325016,"current_range_meters":6400,"station_id":"ce4bhl92rcd13ifvqghg","pricing_plan_id":"cebpf4jnsgd1na2vs0mg"},{"bike_id":"564b1f83-3b38-4067-8fb9-67016c6580ab","system_id":"levelo_inurba_marseille","lat":43.31219,"lon":5.36849,"is_reserved":false,"is_disabled":false,"rental_uris":{"android":"levelo://app?vid=564b1f83-3b38-4067-8fb9-67016c6580ab","ios":"levelo://app?vid=564b1f83-3b38-4067-8fb9-67016c6580ab"},"vehicle_type_id":"4","last_reported":1751325016,"current_range_meters":6800,"station_id":"ce4bgl92rcd13ifvqbq0","pricing_plan_id":"cebpf4jnsgd1na2vs0mg"},{"bike_id":"a9b51ac1-dc8b-4124-8590-dd91a36e9687","system_id":"levelo_inurba_marseille","lat":43.281528,"lon":5.426402,"is_reserved":false,"is_disabled":false,"rental_uris":{"android":"levelo://app?vid=a9b51ac1-dc8b-4124-8590-dd91a36e9687","ios":"levelo://app?vid=a9b51ac1-dc8b-4124-8590-dd91a36e9687"},"vehicle_type_id":"4","last_reported":1751325016,"current_range_meters":6800,"station_id":"ce4bhnh2rcd13ifvqgug","pricing_plan_id":"cebpf4jnsgd1na2vs0mg"},{"bike_id":"3035be0e-7c3d-4f7d-a1cb-7a1af59e497b","system_id":"levelo_inurba_marseille","lat":43.29715,"lon":5.3595,"is_reserved":false,"is_disabled":false,"rental_uris":{"android":"levelo://app?vid=3035be0e-7c3d-4f7d-a1cb-7a1af59e497b","ios":"levelo://app?vid=3035be0e-7c3d-4f7d-a1cb-7a1af59e497b"},"vehicle_type_id":"4","last_reported":1751325016,"current_range_meters":7200,"station_id":"","pricing_plan_id":"cebpf4jnsgd1na2vs0mg"},{"bike_id":"7547e1e4-2d85-4907-971d-6c8e5c4cb529","system_id":"levelo_inurba_marseille","lat":43.253543,"lon":5.37513,"is_reserved":false,"is_disabled":false,"rental_uris":{"android":"levelo://app?vid=7547e1e4-2d85-4907-971d-6c8e5c4cb529","ios":"levelo://app?vid=7547e1e4-2d85-4907-971d-6c8e5c4cb529"},"vehicle_type_id":"4","last_reported":1751325016,"current_range_meters":7200,"station_id":"","pricing_plan_id":"cebpf4jnsgd1na2vs0mg"},{"bike_id":"a5bd0789-a2a8-44d9-b041-de44458c7417","system_id":"levelo_inurba_marseille","lat":43.31113,"lon":5.37769,"is_reserved":false,"is_disabled":false,"rental_uris":{"android":"levelo://app?vid=a5bd0789-a2a8-44d9-b041-de44458c7417","ios":"levelo://app?vid=a5bd0789-a2a8-44d9-b041-de44458c7417"},"vehicle_type_id":"4","last_reported":1751325016,"current_range_meters":7200,"station_id":"ce4bgt92rcd13ifvqcg0","pricing_plan_id":"cebpf4jnsgd1na2vs0mg"},{"bike_id":"4ae7a218-9a10-43e7-af1e-b1944cd227d2","system_id":"levelo_inurba_marseille","lat":43.29259,"lon":5.40902,"is_reserved":false,"is_disabled":false,"rental_uris":{"android":"levelo://app?vid=4ae7a218-9a10-43e7-af1e-b1944cd227d2","ios":"levelo://app?vid=4ae7a218-9a10-43e7-af1e-b1944cd227d2"},"vehicle_type_id":"4","last_reported":1751325016,"current_range_meters":7200,"station_id":"ce4bh192rcd13ifvqdc0","pricing_plan_id":"cebpf4jnsgd1na2vs0mg"},{"bike_id":"c1b7d398-1402-41b1-bc26-5575850c01bf","system_id":"levelo_inurba_marseille","lat":43.33606,"lon":5.410354,"is_reserved":false,"is_disabled":false,"rental_uris":{"android":"levelo://app?vid=c1b7d398-1402-41b1-bc26-5575850c01bf","ios":"levelo://app?vid=c1b7d398-1402-41b1-bc26-5575850c01bf"},"vehicle_type_id":"4","last_reported":1751325016,"current_range_meters":7200,"station_id":"ce4bhqh2rcd13ifvqhmg","pricing_plan_id":"cebpf4jnsgd1na2vs0mg"},{"bike_id":"f5b1f8d3-2d0c-42ed-add1-59b6d6c9cf16","system_id":"levelo_inurba_marseille","lat":43.24651,"lon":5.38894,"is_reserved":false,"is_disabled":false,"rental_uris":{"android":"levelo://app?vid=f5b1f8d3-2d0c-42ed-add1-59b6d6c9cf16","ios":"levelo://app?vid=f5b1f8d3-2d0c-42ed-add1-59b6d6c9cf16"},"vehicle_type_id":"4","last_reported":1751325016,"current_range_meters":8000,"station_id":"ce4bhg12rcd13ifvqf60","pricing_plan_id":"cebpf4jnsgd1na2vs0mg"},{"bike_id":"9085864d-ad6b-4e51-b016-2c66a20d3b19","system_id":"levelo_inurba_marseille","lat":43.21187,"lon":5.35079,"is_reserved":false,"is_disabled":false,"rental_uris":{"android":"levelo://app?vid=9085864d-ad6b-4e51-b016-2c66a20d3b19","ios":"levelo://app?vid=9085864d-ad6b-4e51-b016-2c66a20d3b19"},"vehicle_type_id":"4","last_reported":1751325016,"current_range_meters":8000,"station_id":"st_cvj6sg6p6f1abm77japg","pricing_plan_id":"cebpf4jnsgd1na2vs0mg"},{"bike_id":"59a074fc-769e-4d5d-a6d4-002d8e573dd6","system_id":"levelo_inurba_marseille","lat":43.211879,"lon":5.350664,"is_reserved":false,"is_disabled":false,"rental_uris":{"android":"levelo://app?vid=59a074fc-769e-4d5d-a6d4-002d8e573dd6","ios":"levelo://app?vid=59a074fc-769e-4d5d-a6d4-002d8e573dd6"},"vehicle_type_id":"4","last_reported":1751325016,"current_range_meters":8000,"station_id":"st_cvj6sg6p6f1abm77japg","pricing_plan_id":"cebpf4jnsgd1na2vs0mg"},{"bike_id":"82572449-083c-44ba-b563-2113de04a73b","system_id":"levelo_inurba_marseille","lat":43.29471,"lon":5.38285,"is_reserved":false,"is_disabled":false,"rental_uris":{"android":"levelo://app?vid=82572449-083c-44ba-b563-2113de04a73b","ios":"levelo://app?vid=82572449-083c-44ba-b563-2113de04a73b"},"vehicle_type_id":"4","last_reported":1751325016,"current_range_meters":8400,"station_id":"","pricing_plan_id":"cebpf4jnsgd1na2vs0mg"},{"bike_id":"ca506d70-bfb8-4281-bb45-b243c1771a35","system_id":"levelo_inurba_marseille","lat":43.313073,"lon":5.396762,"is_reserved":false,"is_disabled":false,"rental_uris":{"android":"levelo://app?vid=ca506d70-bfb8-4281-bb45-b243c1771a35","ios":"levelo://app?vid=ca506d70-bfb8-4281-bb45-b243c1771a35"},"vehicle_type_id":"4","last_reported":1751325016,"current_range_meters":8400,"station_id":"ce4bgvp2rcd13ifvqcu0","pricing_plan_id":"cebpf4jnsgd1na2vs0mg"},{"bike_id":"9aef2900-942e-4abd-b36c-07bf783ea95f","system_id":"levelo_inurba_marseille","lat":43.284042,"lon":5.375126,"is_reserved":false,"is_disabled":false,"rental_uris":{"android":"levelo://app?vid=9aef2900-942e-4abd-b36c-07bf783ea95f","ios":"levelo://app?vid=9aef2900-942e-4abd-b36c-07bf783ea95f"},"vehicle_type_id":"4","last_reported":1751325016,"current_range_meters":8400,"station_id":"ce4bh412rcd13ifvqds0","pricing_plan_id":"cebpf4jnsgd1na2vs0mg"},{"bike_id":"321e2b3b-9067-4ffb-9f5d-e66ca0b9b38b","system_id":"levelo_inurba_marseille","lat":43.25867,"lon":5.39904,"is_reserved":false,"is_disabled":false,"rental_uris":{"android":"levelo://app?vid=321e2b3b-9067-4ffb-9f5d-e66ca0b9b38b","ios":"levelo://app?vid=321e2b3b-9067-4ffb-9f5d-e66ca0b9b38b"},"vehicle_type_id":"4","last_reported":1751325016,"current_range_meters":8400,"station_id":"ce4bhl92rcd13ifvqghg","pricing_plan_id":"cebpf4jnsgd1na2vs0mg"},{"bike_id":"7028c8ca-b652-47b0-89e0-1aa56361d228","system_id":"levelo_inurba_marseille","lat":43.211853,"lon":5.350688,"is_reserved":false,"is_disabled":false,"rental_uris":{"android":"levelo://app?vid=7028c8ca-b652-47b0-89e0-1aa56361d228","ios":"levelo://app?vid=7028c8ca-b652-47b0-89e0-1aa56361d228"},"vehicle_type_id":"4","last_reported":1751325016,"current_range_meters":8400,"station_id":"st_cvj6sg6p6f1abm77japg","pricing_plan_id":"cebpf4jnsgd1na2vs0mg"},{"bike_id":"7a54f3ca-a76e-4ada-bbcb-b0eae0ecf288","system_id":"levelo_inurba_marseille","lat":43.30454,"lon":5.37871,"is_reserved":false,"is_disabled":false,"rental_uris":{"android":"levelo://app?vid=7a54f3ca-a76e-4ada-bbcb-b0eae0ecf288","ios":"levelo://app?vid=7a54f3ca-a76e-4ada-bbcb-b0eae0ecf288"},"vehicle_type_id":"4","last_reported":1751325016,"current_range_meters":8800,"station_id":"ce4bhlh2rcd13ifvqgig","pricing_plan_id":"cebpf4jnsgd1na2vs0mg"},{"bike_id":"305fdcf6-3bd8-479c-a9ea-9e19ecf15c90","system_id":"levelo_inurba_marseille","lat":43.281576,"lon":5.426462,"is_reserved":false,"is_disabled":false,"rental_uris":{"android":"levelo://app?vid=305fdcf6-3bd8-479c-a9ea-9e19ecf15c90","ios":"levelo://app?vid=305fdcf6-3bd8-479c-a9ea-9e19ecf15c90"},"vehicle_type_id":"4","last_reported":1751325016,"current_range_meters":8800,"station_id":"ce4bhnh2rcd13ifvqgug","pricing_plan_id":"cebpf4jnsgd1na2vs0mg"},{"bike_id":"162af4e6-d224-4240-aeac-6cb0ae06de53","system_id":"levelo_inurba_marseille","lat":43.29932,"lon":5.37852,"is_reserved":false,"is_disabled":false,"rental_uris":{"android":"levelo://app?vid=162af4e6-d224-4240-aeac-6cb0ae06de53","ios":"levelo://app?vid=162af4e6-d224-4240-aeac-6cb0ae06de53"},"vehicle_type_id":"4","last_reported":1751325016,"current_range_meters":9200,"station_id":"","pricing_plan_id":"cebpf4jnsgd1na2vs0mg"},{"bike_id":"a2e6df37-4fd4-478f-81b0-ce412377e1e3","system_id":"levelo_inurba_marseille","lat":43.28706,"lon":5.39982,"is_reserved":false,"is_disabled":false,"rental_uris":{"android":"levelo://app?vid=a2e6df37-4fd4-478f-81b0-ce412377e1e3","ios":"levelo://app?vid=a2e6df37-4fd4-478f-81b0-ce412377e1e3"},"vehicle_type_id":"4","last_reported":1751325016,"current_range_meters":9200,"station_id":"ce4bho92rcd13ifvqh3g","pricing_plan_id":"cebpf4jnsgd1na2vs0mg"},{"bike_id":"7d2ebbac-d26c-416a-b58e-5e3abed80858","system_id":"levelo_inurba_marseille","lat":43.21162,"lon":5.35073,"is_reserved":false,"is_disabled":false,"rental_uris":{"android":"levelo://app?vid=7d2ebbac-d26c-416a-b58e-5e3abed80858","ios":"levelo://app?vid=7d2ebbac-d26c-416a-b58e-5e3abed80858"},"vehicle_type_id":"4","last_reported":1751325016,"current_range_meters":9200,"station_id":"st_cvj6sg6p6f1abm77japg","pricing_plan_id":"cebpf4jnsgd1na2vs0mg"},{"bike_id":"1c66e799-f5a0-416f-8e75-c6acfedda920","system_id":"levelo_inurba_marseille","lat":43.295336,"lon":5.385425,"is_reserved":false,"is_disabled":false,"rental_uris":{"android":"levelo://app?vid=1c66e799-f5a0-416f-8e75-c6acfedda920","ios":"levelo://app?vid=1c66e799-f5a0-416f-8e75-c6acfedda920"},"vehicle_type_id":"4","last_reported":1751325016,"current_range_meters":9600,"station_id":"","pricing_plan_id":"cebpf4jnsgd1na2vs0mg"},{"bike_id":"b05ac08d-847b-4f20-ac36-038a0d69d167","system_id":"levelo_inurba_marseille","lat":43.281294,"lon":5.358458,"is_reserved":false,"is_disabled":false,"rental_uris":{"android":"levelo://app?vid=b05ac08d-847b-4f20-ac36-038a0d69d167","ios":"levelo://app?vid=b05ac08d-847b-4f20-ac36-038a0d69d167"},"vehicle_type_id":"4","last_reported":1751325016,"current_range_meters":9600,"station_id":"","pricing_plan_id":"cebpf4jnsgd1na2vs0mg"},{"bike_id":"057b5068-5e89-4afe-96dc-f2575617c2af","system_id":"levelo_inurba_marseille","lat":43.29259,"lon":5.40904,"is_reserved":false,"is_disabled":false,"rental_uris":{"android":"levelo://app?vid=057b5068-5e89-4afe-96dc-f2575617c2af","ios":"levelo://app?vid=057b5068-5e89-4afe-96dc-f2575617c2af"},"vehicle_type_id":"4","last_reported":1751325016,"current_range_meters":9600,"station_id":"ce4bh192rcd13ifvqdc0","pricing_plan_id":"cebpf4jnsgd1na2vs0mg"},{"bike_id":"2cd9fa36-fd9c-490f-8ff3-38e06c49c163","system_id":"levelo_inurba_marseille","lat":43.28714,"lon":5.37938,"is_reserved":false,"is_disabled":false,"rental_uris":{"android":"levelo://app?vid=2cd9fa36-fd9c-490f-8ff3-38e06c49c163","ios":"levelo://app?vid=2cd9fa36-fd9c-490f-8ff3-38e06c49c163"},"vehicle_type_id":"4","last_reported":1751325016,"current_range_meters":9600,"station_id":"ce4bh9p2rcd13ifvqec0","pricing_plan_id":"cebpf4jnsgd1na2vs0mg"},{"bike_id":"0246ed03-ede1-47dd-8911-18886b4f1e5a","system_id":"levelo_inurba_marseille","lat":43.284586,"lon":5.358742,"is_reserved":false,"is_disabled":false,"rental_uris":{"android":"levelo://app?vid=0246ed03-ede1-47dd-8911-18886b4f1e5a","ios":"levelo://app?vid=0246ed03-ede1-47dd-8911-18886b4f1e5a"},"vehicle_type_id":"4","last_reported":1751325016,"current_range_meters":9600,"station_id":"ce4bhah2rcd13ifvqei0","pricing_plan_id":"cebpf4jnsgd1na2vs0mg"},{"bike_id":"3801b360-6b5d-4dc9-9113-dbdcc30f5b0e","system_id":"levelo_inurba_marseille","lat":43.248142,"lon":5.374571,"is_reserved":false,"is_disabled":false,"rental_uris":{"android":"levelo://app?vid=3801b360-6b5d-4dc9-9113-dbdcc30f5b0e","ios":"levelo://app?vid=3801b360-6b5d-4dc9-9113-dbdcc30f5b0e"},"vehicle_type_id":"4","last_reported":1751325016,"current_range_meters":9600,"station_id":"ce4bhgh2rcd13ifvqfb0","pricing_plan_id":"cebpf4jnsgd1na2vs0mg"},{"bike_id":"021ca214-7563-4698-8346-f64c1362f1a2","system_id":"levelo_inurba_marseille","lat":43.231778,"lon":5.399868,"is_reserved":false,"is_disabled":false,"rental_uris":{"android":"levelo://app?vid=021ca214-7563-4698-8346-f64c1362f1a2","ios":"levelo://app?vid=021ca214-7563-4698-8346-f64c1362f1a2"},"vehicle_type_id":"4","last_reported":1751325016,"current_range_meters":9600,"station_id":"ce4bhn12rcd13ifvqgqg","pricing_plan_id":"cebpf4jnsgd1na2vs0mg"},{"bike_id":"9912cfe5-ebba-457c-a1eb-fff41b1df007","system_id":"levelo_inurba_marseille","lat":43.31711,"lon":5.43709,"is_reserved":false,"is_disabled":false,"rental_uris":{"android":"levelo://app?vid=9912cfe5-ebba-457c-a1eb-fff41b1df007","ios":"levelo://app?vid=9912cfe5-ebba-457c-a1eb-fff41b1df007"},"vehicle_type_id":"4","last_reported":1751325016,"current_range_meters":9600,"station_id":"ce4bhp92rcd13ifvqhcg","pricing_plan_id":"cebpf4jnsgd1na2vs0mg"},{"bike_id":"7dc148e5-fd7e-4677-bce3-55c94c6ee080","system_id":"levelo_inurba_marseille","lat":43.30688,"lon":5.4091,"is_reserved":false,"is_disabled":false,"rental_uris":{"android":"levelo://app?vid=7dc148e5-fd7e-4677-bce3-55c94c6ee080","ios":"levelo://app?vid=7dc148e5-fd7e-4677-bce3-55c94c6ee080"},"vehicle_type_id":"4","last_reported":1751325016,"current_range_meters":10000,"station_id":"","pricing_plan_id":"cebpf4jnsgd1na2vs0mg"},{"bike_id":"f5c16f07-bc6f-4121-91a7-5ad90eec4f34","system_id":"levelo_inurba_marseille","lat":43.31186,"lon":5.37342,"is_reserved":false,"is_disabled":false,"rental_uris":{"android":"levelo://app?vid=f5c16f07-bc6f-4121-91a7-5ad90eec4f34","ios":"levelo://app?vid=f5c16f07-bc6f-4121-91a7-5ad90eec4f34"},"vehicle_type_id":"4","last_reported":1751325016,"current_range_meters":10000,"station_id":"","pricing_plan_id":"cebpf4jnsgd1na2vs0mg"},{"bike_id":"7cffc6e4-e41f-4253-bb07-06e323e361a2","system_id":"levelo_inurba_marseille","lat":43.299783,"lon":5.371764,"is_reserved":false,"is_disabled":false,"rental_uris":{"android":"levelo://app?vid=7cffc6e4-e41f-4253-bb07-06e323e361a2","ios":"levelo://app?vid=7cffc6e4-e41f-4253-bb07-06e323e361a2"},"vehicle_type_id":"4","last_reported":1751325016,"current_range_meters":10000,"station_id":"ce4bgr92rcd13ifvqc7g","pricing_plan_id":"cebpf4jnsgd1na2vs0mg"},{"bike_id":"6bcfc56f-f94c-4038-b818-58c63e19cb89","system_id":"levelo_inurba_marseille","lat":43.2958,"lon":5.39973,"is_reserved":false,"is_disabled":false,"rental_uris":{"android":"levelo://app?vid=6bcfc56f-f94c-4038-b818-58c63e19cb89","ios":"levelo://app?vid=6bcfc56f-f94c-4038-b818-58c63e19cb89"},"vehicle_type_id":"4","last_reported":1751325016,"current_range_meters":10000,"station_id":"ce4bh312rcd13ifvqdj0","pricing_plan_id":"cebpf4jnsgd1na2vs0mg"},{"bike_id":"1ce37f25-952d-4fae-9ee1-c0b0a46727ef","system_id":"levelo_inurba_marseille","lat":43.28698,"lon":5.37395,"is_reserved":false,"is_disabled":false,"rental_uris":{"android":"levelo://app?vid=1ce37f25-952d-4fae-9ee1-c0b0a46727ef","ios":"levelo://app?vid=1ce37f25-952d-4fae-9ee1-c0b0a46727ef"},"vehicle_type_id":"4","last_reported":1751325016,"current_range_meters":10000,"station_id":"ce4bh3p2rcd13ifvqdq0","pricing_plan_id":"cebpf4jnsgd1na2vs0mg"},{"bike_id":"6432b467-99fb-4dc1-901b-0c6a348ac20c","system_id":"levelo_inurba_marseille","lat":43.28368,"lon":5.38635,"is_reserved":false,"is_disabled":false,"rental_uris":{"android":"levelo://app?vid=6432b467-99fb-4dc1-901b-0c6a348ac20c","ios":"levelo://app?vid=6432b467-99fb-4dc1-901b-0c6a348ac20c"},"vehicle_type_id":"4","last_reported":1751325016,"current_range_meters":10000,"station_id":"ce4bh492rcd13ifvqdvg","pricing_plan_id":"cebpf4jnsgd1na2vs0mg"},{"bike_id":"db4bce70-525f-4c38-8e5b-ea1cdc8bf5d6","system_id":"levelo_inurba_marseille","lat":43.317754,"lon":5.390174,"is_reserved":false,"is_disabled":false,"rental_uris":{"android":"levelo://app?vid=db4bce70-525f-4c38-8e5b-ea1cdc8bf5d6","ios":"levelo://app?vid=db4bce70-525f-4c38-8e5b-ea1cdc8bf5d6"},"vehicle_type_id":"4","last_reported":1751325016,"current_range_meters":10000,"station_id":"ce4bhqp2rcd13ifvqhng","pricing_plan_id":"cebpf4jnsgd1na2vs0mg"},{"bike_id":"927529e6-94cc-436f-a295-3fd38d0f6ef8","system_id":"levelo_inurba_marseille","lat":43.31109,"lon":5.37765,"is_reserved":false,"is_disabled":false,"rental_uris":{"android":"levelo://app?vid=927529e6-94cc-436f-a295-3fd38d0f6ef8","ios":"levelo://app?vid=927529e6-94cc-436f-a295-3fd38d0f6ef8"},"vehicle_type_id":"4","last_reported":1751325016,"current_range_meters":10800,"station_id":"ce4bgt92rcd13ifvqcg0","pricing_plan_id":"cebpf4jnsgd1na2vs0mg"},{"bike_id":"3656fcfe-a91f-47e2-821b-0f258efd8559","system_id":"levelo_inurba_marseille","lat":43.264836,"lon":5.395533,"is_reserved":false,"is_disabled":false,"rental_uris":{"android":"levelo://app?vid=3656fcfe-a91f-47e2-821b-0f258efd8559","ios":"levelo://app?vid=3656fcfe-a91f-47e2-821b-0f258efd8559"},"vehicle_type_id":"4","last_reported":1751325016,"current_range_meters":10800,"station_id":"ce4bhi12rcd13ifvqfq0","pricing_plan_id":"cebpf4jnsgd1na2vs0mg"},{"bike_id":"43fcb430-53f7-4349-b49c-62f8e6ea8db4","system_id":"levelo_inurba_marseille","lat":43.28158,"lon":5.42638,"is_reserved":false,"is_disabled":false,"rental_uris":{"android":"levelo://app?vid=43fcb430-53f7-4349-b49c-62f8e6ea8db4","ios":"levelo://app?vid=43fcb430-53f7-4349-b49c-62f8e6ea8db4"},"vehicle_type_id":"4","last_reported":1751325016,"current_range_meters":10800,"station_id":"ce4bhnh2rcd13ifvqgug","pricing_plan_id":"cebpf4jnsgd1na2vs0mg"},{"bike_id":"f05909cc-040a-44f2-b6ce-b03ee01a3124","system_id":"levelo_inurba_marseille","lat":43.32976,"lon":5.39111,"is_reserved":false,"is_disabled":false,"rental_uris":{"android":"levelo://app?vid=f05909cc-040a-44f2-b6ce-b03ee01a3124","ios":"levelo://app?vid=f05909cc-040a-44f2-b6ce-b03ee01a3124"},"vehicle_type_id":"4","last_reported":1751325016,"current_range_meters":10800,"station_id":"ce4bhr92rcd13ifvqhrg","pricing_plan_id":"cebpf4jnsgd1na2vs0mg"},{"bike_id":"1c90b9b6-e2ea-4b9c-ac14-456bb27f2d9b","system_id":"levelo_inurba_marseille","lat":43.28937,"lon":5.39627,"is_reserved":false,"is_disabled":false,"rental_uris":{"android":"levelo://app?vid=1c90b9b6-e2ea-4b9c-ac14-456bb27f2d9b","ios":"levelo://app?vid=1c90b9b6-e2ea-4b9c-ac14-456bb27f2d9b"},"vehicle_type_id":"4","last_reported":1751325016,"current_range_meters":11200,"station_id":"ce4bh3h2rcd13ifvqdn0","pricing_plan_id":"cebpf4jnsgd1na2vs0mg"},{"bike_id":"860ecc02-a6d5-4fbe-ada6-b9197deada15","system_id":"levelo_inurba_marseille","lat":43.32535,"lon":5.38933,"is_reserved":false,"is_disabled":false,"rental_uris":{"android":"levelo://app?vid=860ecc02-a6d5-4fbe-ada6-b9197deada15","ios":"levelo://app?vid=860ecc02-a6d5-4fbe-ada6-b9197deada15"},"vehicle_type_id":"4","last_reported":1751325016,"current_range_meters":11600,"station_id":"","pricing_plan_id":"cebpf4jnsgd1na2vs0mg"},{"bike_id":"91f40db4-ae6c-4de8-b40f-305d23bf00e6","system_id":"levelo_inurba_marseille","lat":43.2319,"lon":5.39979,"is_reserved":false,"is_disabled":false,"rental_uris":{"android":"levelo://app?vid=91f40db4-ae6c-4de8-b40f-305d23bf00e6","ios":"levelo://app?vid=91f40db4-ae6c-4de8-b40f-305d23bf00e6"},"vehicle_type_id":"4","last_reported":1751325016,"current_range_meters":11600,"station_id":"ce4bhn12rcd13ifvqgqg","pricing_plan_id":"cebpf4jnsgd1na2vs0mg"},{"bike_id":"44a50ba5-fba8-499e-b144-8cb164fe59e9","system_id":"levelo_inurba_marseille","lat":43.32477,"lon":5.36567,"is_reserved":false,"is_disabled":false,"rental_uris":{"android":"levelo://app?vid=44a50ba5-fba8-499e-b144-8cb164fe59e9","ios":"levelo://app?vid=44a50ba5-fba8-499e-b144-8cb164fe59e9"},"vehicle_type_id":"4","last_reported":1751325016,"current_range_meters":11600,"station_id":"ce4bhs12rcd13ifvqhvg","pricing_plan_id":"cebpf4jnsgd1na2vs0mg"},{"bike_id":"c13c93ac-6b62-443c-9e36-caf61b27325a","system_id":"levelo_inurba_marseille","lat":43.21176,"lon":5.35078,"is_reserved":false,"is_disabled":false,"rental_uris":{"android":"levelo://app?vid=c13c93ac-6b62-443c-9e36-caf61b27325a","ios":"levelo://app?vid=c13c93ac-6b62-443c-9e36-caf61b27325a"},"vehicle_type_id":"4","last_reported":1751325016,"current_range_meters":11600,"station_id":"st_cvj6sg6p6f1abm77japg","pricing_plan_id":"cebpf4jnsgd1na2vs0mg"},{"bike_id":"89188d98-73f6-4497-ba35-3ad1bbe4cdc1","system_id":"levelo_inurba_marseille","lat":43.307878,"lon":5.376342,"is_reserved":false,"is_disabled":false,"rental_uris":{"android":"levelo://app?vid=89188d98-73f6-4497-ba35-3ad1bbe4cdc1","ios":"levelo://app?vid=89188d98-73f6-4497-ba35-3ad1bbe4cdc1"},"vehicle_type_id":"4","last_reported":1751325016,"current_range_meters":12000,"station_id":"ce4bgv92rcd13ifvqcq0","pricing_plan_id":"cebpf4jnsgd1na2vs0mg"},{"bike_id":"4953661e-f78c-459c-88b8-2a0f577678cd","system_id":"levelo_inurba_marseille","lat":43.29194,"lon":5.3932,"is_reserved":false,"is_disabled":false,"rental_uris":{"android":"levelo://app?vid=4953661e-f78c-459c-88b8-2a0f577678cd","ios":"levelo://app?vid=4953661e-f78c-459c-88b8-2a0f577678cd"},"vehicle_type_id":"4","last_reported":1751325016,"current_range_meters":12000,"station_id":"ce4bh192rcd13ifvqdd0","pricing_plan_id":"cebpf4jnsgd1na2vs0mg"},{"bike_id":"293ecca5-118e-44db-a104-7e0554fa0722","system_id":"levelo_inurba_marseille","lat":43.30419,"lon":5.41282,"is_reserved":false,"is_disabled":false,"rental_uris":{"android":"levelo://app?vid=293ecca5-118e-44db-a104-7e0554fa0722","ios":"levelo://app?vid=293ecca5-118e-44db-a104-7e0554fa0722"},"vehicle_type_id":"4","last_reported":1751325016,"current_range_meters":12000,"station_id":"ce4bhop2rcd13ifvqh8g","pricing_plan_id":"cebpf4jnsgd1na2vs0mg"},{"bike_id":"3980045f-9f4c-4eba-832a-9c82c1131d90","system_id":"levelo_inurba_marseille","lat":43.31079,"lon":5.42429,"is_reserved":false,"is_disabled":false,"rental_uris":{"android":"levelo://app?vid=3980045f-9f4c-4eba-832a-9c82c1131d90","ios":"levelo://app?vid=3980045f-9f4c-4eba-832a-9c82c1131d90"},"vehicle_type_id":"4","last_reported":1751325016,"current_range_meters":12000,"station_id":"ce4bhp92rcd13ifvqhag","pricing_plan_id":"cebpf4jnsgd1na2vs0mg"},{"bike_id":"ac4cf6bf-ae0d-49a1-afc8-485ee29ed51b","system_id":"levelo_inurba_marseille","lat":43.27263,"lon":5.41169,"is_reserved":false,"is_disabled":false,"rental_uris":{"android":"levelo://app?vid=ac4cf6bf-ae0d-49a1-afc8-485ee29ed51b","ios":"levelo://app?vid=ac4cf6bf-ae0d-49a1-afc8-485ee29ed51b"},"vehicle_type_id":"4","last_reported":1751325016,"current_range_meters":12400,"station_id":"","pricing_plan_id":"cebpf4jnsgd1na2vs0mg"},{"bike_id":"58bd3f83-8d43-432e-a389-948938190aea","system_id":"levelo_inurba_marseille","lat":43.27463,"lon":5.42504,"is_reserved":false,"is_disabled":false,"rental_uris":{"android":"levelo://app?vid=58bd3f83-8d43-432e-a389-948938190aea","ios":"levelo://app?vid=58bd3f83-8d43-432e-a389-948938190aea"},"vehicle_type_id":"4","last_reported":1751325016,"current_range_meters":12400,"station_id":"","pricing_plan_id":"cebpf4jnsgd1na2vs0mg"},{"bike_id":"e6548440-308a-4856-8b7d-98a6da8466d5","system_id":"levelo_inurba_marseille","lat":43.28724,"lon":5.37936,"is_reserved":false,"is_disabled":false,"rental_uris":{"android":"levelo://app?vid=e6548440-308a-4856-8b7d-98a6da8466d5","ios":"levelo://app?vid=e6548440-308a-4856-8b7d-98a6da8466d5"},"vehicle_type_id":"4","last_reported":1751325016,"current_range_meters":12400,"station_id":"ce4bh9p2rcd13ifvqec0","pricing_plan_id":"cebpf4jnsgd1na2vs0mg"},{"bike_id":"6b04a8db-f012-4ea9-88f5-d59ff3f24fd9","system_id":"levelo_inurba_marseille","lat":43.2991,"lon":5.43654,"is_reserved":false,"is_disabled":false,"rental_uris":{"android":"levelo://app?vid=6b04a8db-f012-4ea9-88f5-d59ff3f24fd9","ios":"levelo://app?vid=6b04a8db-f012-4ea9-88f5-d59ff3f24fd9"},"vehicle_type_id":"4","last_reported":1751325016,"current_range_meters":12400,"station_id":"ce4bhpp2rcd13ifvqhfg","pricing_plan_id":"cebpf4jnsgd1na2vs0mg"},{"bike_id":"aad466d4-9058-4038-a189-895fae6f1c28","system_id":"levelo_inurba_marseille","lat":43.21176,"lon":5.35112,"is_reserved":false,"is_disabled":false,"rental_uris":{"android":"levelo://app?vid=aad466d4-9058-4038-a189-895fae6f1c28","ios":"levelo://app?vid=aad466d4-9058-4038-a189-895fae6f1c28"},"vehicle_type_id":"4","last_reported":1751325016,"current_range_meters":12400,"station_id":"st_cvj6sg6p6f1abm77japg","pricing_plan_id":"cebpf4jnsgd1na2vs0mg"},{"bike_id":"2fc1d196-75e0-4007-b93d-c0ab505aa2cd","system_id":"levelo_inurba_marseille","lat":43.27836,"lon":5.3921,"is_reserved":false,"is_disabled":false,"rental_uris":{"android":"levelo://app?vid=2fc1d196-75e0-4007-b93d-c0ab505aa2cd","ios":"levelo://app?vid=2fc1d196-75e0-4007-b93d-c0ab505aa2cd"},"vehicle_type_id":"4","last_reported":1751325016,"current_range_meters":12800,"station_id":"ce4bhjp2rcd13ifvqga0","pricing_plan_id":"cebpf4jnsgd1na2vs0mg"},{"bike_id":"7a9156d4-5c75-4bf6-ba7c-db2f5b2613b9","system_id":"levelo_inurba_marseille","lat":43.28359,"lon":5.3802,"is_reserved":false,"is_disabled":false,"rental_uris":{"android":"levelo://app?vid=7a9156d4-5c75-4bf6-ba7c-db2f5b2613b9","ios":"levelo://app?vid=7a9156d4-5c75-4bf6-ba7c-db2f5b2613b9"},"vehicle_type_id":"4","last_reported":1751325016,"current_range_meters":13600,"station_id":"","pricing_plan_id":"cebpf4jnsgd1na2vs0mg"},{"bike_id":"edf71f0e-6e45-48c7-899a-8861d9894b64","system_id":"levelo_inurba_marseille","lat":43.28717,"lon":5.37445,"is_reserved":false,"is_disabled":false,"rental_uris":{"android":"levelo://app?vid=edf71f0e-6e45-48c7-899a-8861d9894b64","ios":"levelo://app?vid=edf71f0e-6e45-48c7-899a-8861d9894b64"},"vehicle_type_id":"4","last_reported":1751325016,"current_range_meters":13600,"station_id":"","pricing_plan_id":"cebpf4jnsgd1na2vs0mg"},{"bike_id":"8d46f246-97b2-4ef6-beaf-1d3240b7c3bb","system_id":"levelo_inurba_marseille","lat":43.295315,"lon":5.385443,"is_reserved":false,"is_disabled":false,"rental_uris":{"android":"levelo://app?vid=8d46f246-97b2-4ef6-beaf-1d3240b7c3bb","ios":"levelo://app?vid=8d46f246-97b2-4ef6-beaf-1d3240b7c3bb"},"vehicle_type_id":"4","last_reported":1751325016,"current_range_meters":13600,"station_id":"ce4bgih2rcd13ifvqba0","pricing_plan_id":"cebpf4jnsgd1na2vs0mg"},{"bike_id":"4d56b67c-c8e9-4713-b157-3c6e6d758eff","system_id":"levelo_inurba_marseille","lat":43.24675,"lon":5.38169,"is_reserved":false,"is_disabled":false,"rental_uris":{"android":"levelo://app?vid=4d56b67c-c8e9-4713-b157-3c6e6d758eff","ios":"levelo://app?vid=4d56b67c-c8e9-4713-b157-3c6e6d758eff"},"vehicle_type_id":"4","last_reported":1751325016,"current_range_meters":13600,"station_id":"ce4bhih2rcd13ifvqfr0","pricing_plan_id":"cebpf4jnsgd1na2vs0mg"},{"bike_id":"d8facb10-b967-4a32-9b5c-8cfed4bbd05b","system_id":"levelo_inurba_marseille","lat":43.32133,"lon":5.36769,"is_reserved":false,"is_disabled":false,"rental_uris":{"android":"levelo://app?vid=d8facb10-b967-4a32-9b5c-8cfed4bbd05b","ios":"levelo://app?vid=d8facb10-b967-4a32-9b5c-8cfed4bbd05b"},"vehicle_type_id":"4","last_reported":1751325016,"current_range_meters":13600,"station_id":"ce4bhrh2rcd13ifvqhug","pricing_plan_id":"cebpf4jnsgd1na2vs0mg"},{"bike_id":"8ceb2860-ca09-420a-8aab-fcf0c529a0d3","system_id":"levelo_inurba_marseille","lat":43.21191,"lon":5.35075,"is_reserved":false,"is_disabled":false,"rental_uris":{"android":"levelo://app?vid=8ceb2860-ca09-420a-8aab-fcf0c529a0d3","ios":"levelo://app?vid=8ceb2860-ca09-420a-8aab-fcf0c529a0d3"},"vehicle_type_id":"4","last_reported":1751325016,"current_range_meters":13600,"station_id":"st_cvj6sg6p6f1abm77japg","pricing_plan_id":"cebpf4jnsgd1na2vs0mg"},{"bike_id":"4f97e136-2006-43b5-84b8-8ce28f4647e9","system_id":"levelo_inurba_marseille","lat":43.21186,"lon":5.35078,"is_reserved":false,"is_disabled":false,"rental_uris":{"android":"levelo://app?vid=4f97e136-2006-43b5-84b8-8ce28f4647e9","ios":"levelo://app?vid=4f97e136-2006-43b5-84b8-8ce28f4647e9"},"vehicle_type_id":"4","last_reported":1751325016,"current_range_meters":14000,"station_id":"st_cvj6sg6p6f1abm77japg","pricing_plan_id":"cebpf4jnsgd1na2vs0mg"},{"bike_id":"e73510d2-ee55-4209-979e-e0a4d815d4f4","system_id":"levelo_inurba_marseille","lat":43.30453,"lon":5.38892,"is_reserved":false,"is_disabled":false,"rental_uris":{"android":"levelo://app?vid=e73510d2-ee55-4209-979e-e0a4d815d4f4","ios":"levelo://app?vid=e73510d2-ee55-4209-979e-e0a4d815d4f4"},"vehicle_type_id":"4","last_reported":1751325016,"current_range_meters":14400,"station_id":"ce4bgk12rcd13ifvqbi0","pricing_plan_id":"cebpf4jnsgd1na2vs0mg"},{"bike_id":"1b8c6593-4f2f-4256-87f7-d2d8c99732b7","system_id":"levelo_inurba_marseille","lat":43.298892,"lon":5.365155,"is_reserved":false,"is_disabled":false,"rental_uris":{"android":"levelo://app?vid=1b8c6593-4f2f-4256-87f7-d2d8c99732b7","ios":"levelo://app?vid=1b8c6593-4f2f-4256-87f7-d2d8c99732b7"},"vehicle_type_id":"4","last_reported":1751325016,"current_range_meters":14400,"station_id":"ce4bgm92rcd13ifvqbr0","pricing_plan_id":"cebpf4jnsgd1na2vs0mg"},{"bike_id":"9b3336eb-eabf-4a09-a281-7755e708f22a","system_id":"levelo_inurba_marseille","lat":43.314892,"lon":5.373037,"is_reserved":false,"is_disabled":false,"rental_uris":{"android":"levelo://app?vid=9b3336eb-eabf-4a09-a281-7755e708f22a","ios":"levelo://app?vid=9b3336eb-eabf-4a09-a281-7755e708f22a"},"vehicle_type_id":"4","last_reported":1751325016,"current_range_meters":14400,"station_id":"ce4bgt12rcd13ifvqcd0","pricing_plan_id":"cebpf4jnsgd1na2vs0mg"},{"bike_id":"bc2c1690-287b-445d-a72e-7ecf8d1fa823","system_id":"levelo_inurba_marseille","lat":43.316864,"lon":5.404779,"is_reserved":false,"is_disabled":false,"rental_uris":{"android":"levelo://app?vid=bc2c1690-287b-445d-a72e-7ecf8d1fa823","ios":"levelo://app?vid=bc2c1690-287b-445d-a72e-7ecf8d1fa823"},"vehicle_type_id":"4","last_reported":1751325016,"current_range_meters":14400,"station_id":"ce4bh012rcd13ifvqd00","pricing_plan_id":"cebpf4jnsgd1na2vs0mg"},{"bike_id":"c6f353ab-2230-4099-8ce6-806ab2c19218","system_id":"levelo_inurba_marseille","lat":43.283225,"lon":5.386339,"is_reserved":false,"is_disabled":false,"rental_uris":{"android":"levelo://app?vid=c6f353ab-2230-4099-8ce6-806ab2c19218","ios":"levelo://app?vid=c6f353ab-2230-4099-8ce6-806ab2c19218"},"vehicle_type_id":"4","last_reported":1751325016,"current_range_meters":14400,"station_id":"ce4bh492rcd13ifvqdvg","pricing_plan_id":"cebpf4jnsgd1na2vs0mg"},{"bike_id":"461665ff-40d6-4ea1-90c8-27302f6b999c","system_id":"levelo_inurba_marseille","lat":43.30419,"lon":5.39745,"is_reserved":false,"is_disabled":false,"rental_uris":{"android":"levelo://app?vid=461665ff-40d6-4ea1-90c8-27302f6b999c","ios":"levelo://app?vid=461665ff-40d6-4ea1-90c8-27302f6b999c"},"vehicle_type_id":"4","last_reported":1751325016,"current_range_meters":14800,"station_id":"ce4bh092rcd13ifvqd20","pricing_plan_id":"cebpf4jnsgd1na2vs0mg"},{"bike_id":"4895cd93-0dd7-4225-9df3-90b309be9972","system_id":"levelo_inurba_marseille","lat":43.28352,"lon":5.38099,"is_reserved":false,"is_disabled":false,"rental_uris":{"android":"levelo://app?vid=4895cd93-0dd7-4225-9df3-90b309be9972","ios":"levelo://app?vid=4895cd93-0dd7-4225-9df3-90b309be9972"},"vehicle_type_id":"4","last_reported":1751325016,"current_range_meters":14800,"station_id":"ce4bh412rcd13ifvqdr0","pricing_plan_id":"cebpf4jnsgd1na2vs0mg"},{"bike_id":"29c4033e-7e3e-40da-9e36-9eeb4c8833f4","system_id":"levelo_inurba_marseille","lat":43.297308,"lon":5.433893,"is_reserved":false,"is_disabled":false,"rental_uris":{"android":"levelo://app?vid=29c4033e-7e3e-40da-9e36-9eeb4c8833f4","ios":"levelo://app?vid=29c4033e-7e3e-40da-9e36-9eeb4c8833f4"},"vehicle_type_id":"4","last_reported":1751325016,"current_range_meters":14800,"station_id":"ce4bhpp2rcd13ifvqhfg","pricing_plan_id":"cebpf4jnsgd1na2vs0mg"},{"bike_id":"d5da5bd9-7c2a-48e5-92aa-fa21076cad13","system_id":"levelo_inurba_marseille","lat":43.21193,"lon":5.35077,"is_reserved":false,"is_disabled":false,"rental_uris":{"android":"levelo://app?vid=d5da5bd9-7c2a-48e5-92aa-fa21076cad13","ios":"levelo://app?vid=d5da5bd9-7c2a-48e5-92aa-fa21076cad13"},"vehicle_type_id":"4","last_reported":1751325016,"current_range_meters":14800,"station_id":"st_cvj6sg6p6f1abm77japg","pricing_plan_id":"cebpf4jnsgd1na2vs0mg"},{"bike_id":"99c20630-4dbd-4f73-b2d8-945e60a01394","system_id":"levelo_inurba_marseille","lat":43.287107,"lon":5.39995,"is_reserved":false,"is_disabled":false,"rental_uris":{"android":"levelo://app?vid=99c20630-4dbd-4f73-b2d8-945e60a01394","ios":"levelo://app?vid=99c20630-4dbd-4f73-b2d8-945e60a01394"},"vehicle_type_id":"4","last_reported":1751325016,"current_range_meters":15200,"station_id":"ce4bho92rcd13ifvqh3g","pricing_plan_id":"cebpf4jnsgd1na2vs0mg"},{"bike_id":"750f5cfa-157e-4240-9a5f-3afe50c900ac","system_id":"levelo_inurba_marseille","lat":43.25718,"lon":5.41834,"is_reserved":false,"is_disabled":false,"rental_uris":{"android":"levelo://app?vid=750f5cfa-157e-4240-9a5f-3afe50c900ac","ios":"levelo://app?vid=750f5cfa-157e-4240-9a5f-3afe50c900ac"},"vehicle_type_id":"4","last_reported":1751325016,"current_range_meters":16000,"station_id":"","pricing_plan_id":"cebpf4jnsgd1na2vs0mg"},{"bike_id":"4d2b3902-f96f-46f3-8ea9-1557d298a68d","system_id":"levelo_inurba_marseille","lat":43.24181,"lon":5.363888,"is_reserved":false,"is_disabled":false,"rental_uris":{"android":"levelo://app?vid=4d2b3902-f96f-46f3-8ea9-1557d298a68d","ios":"levelo://app?vid=4d2b3902-f96f-46f3-8ea9-1557d298a68d"},"vehicle_type_id":"4","last_reported":1751325016,"current_range_meters":16000,"station_id":"cpo36qri1sfpv3e86is0","pricing_plan_id":"cebpf4jnsgd1na2vs0mg"},{"bike_id":"e552832c-7ca2-4106-b0f9-92bbabda27d1","system_id":"levelo_inurba_marseille","lat":43.21202,"lon":5.35053,"is_reserved":false,"is_disabled":false,"rental_uris":{"android":"levelo://app?vid=e552832c-7ca2-4106-b0f9-92bbabda27d1","ios":"levelo://app?vid=e552832c-7ca2-4106-b0f9-92bbabda27d1"},"vehicle_type_id":"4","last_reported":1751325016,"current_range_meters":16000,"station_id":"st_cvj6sg6p6f1abm77japg","pricing_plan_id":"cebpf4jnsgd1na2vs0mg"},{"bike_id":"cc00e40a-c5cc-4f6a-acb6-8fdcb4bdc87a","system_id":"levelo_inurba_marseille","lat":43.21198,"lon":5.35092,"is_reserved":false,"is_disabled":false,"rental_uris":{"android":"levelo://app?vid=cc00e40a-c5cc-4f6a-acb6-8fdcb4bdc87a","ios":"levelo://app?vid=cc00e40a-c5cc-4f6a-acb6-8fdcb4bdc87a"},"vehicle_type_id":"4","last_reported":1751325016,"current_range_meters":16000,"station_id":"st_cvj6sg6p6f1abm77japg","pricing_plan_id":"cebpf4jnsgd1na2vs0mg"},{"bike_id":"c61036a9-1a66-4480-8bd4-cd2fb585b287","system_id":"levelo_inurba_marseille","lat":43.269504,"lon":5.405682,"is_reserved":false,"is_disabled":false,"rental_uris":{"android":"levelo://app?vid=c61036a9-1a66-4480-8bd4-cd2fb585b287","ios":"levelo://app?vid=c61036a9-1a66-4480-8bd4-cd2fb585b287"},"vehicle_type_id":"4","last_reported":1751325016,"current_range_meters":16400,"station_id":"","pricing_plan_id":"cebpf4jnsgd1na2vs0mg"},{"bike_id":"c2b72fe0-bae6-4c7b-ad48-9e771b203dc8","system_id":"levelo_inurba_marseille","lat":43.31361,"lon":5.38443,"is_reserved":false,"is_disabled":false,"rental_uris":{"android":"levelo://app?vid=c2b72fe0-bae6-4c7b-ad48-9e771b203dc8","ios":"levelo://app?vid=c2b72fe0-bae6-4c7b-ad48-9e771b203dc8"},"vehicle_type_id":"4","last_reported":1751325016,"current_range_meters":16400,"station_id":"ce4bgt92rcd13ifvqcf0","pricing_plan_id":"cebpf4jnsgd1na2vs0mg"},{"bike_id":"5a241ec5-42a7-42f6-811d-22aea44c2b2e","system_id":"levelo_inurba_marseille","lat":43.313621,"lon":5.384871,"is_reserved":false,"is_disabled":false,"rental_uris":{"android":"levelo://app?vid=5a241ec5-42a7-42f6-811d-22aea44c2b2e","ios":"levelo://app?vid=5a241ec5-42a7-42f6-811d-22aea44c2b2e"},"vehicle_type_id":"4","last_reported":1751325016,"current_range_meters":16400,"station_id":"ce4bgt92rcd13ifvqcf0","pricing_plan_id":"cebpf4jnsgd1na2vs0mg"},{"bike_id":"66b02702-1400-4f82-9fa9-b2a3b012550c","system_id":"levelo_inurba_marseille","lat":43.27491,"lon":5.4246,"is_reserved":false,"is_disabled":false,"rental_uris":{"android":"levelo://app?vid=66b02702-1400-4f82-9fa9-b2a3b012550c","ios":"levelo://app?vid=66b02702-1400-4f82-9fa9-b2a3b012550c"},"vehicle_type_id":"4","last_reported":1751325016,"current_range_meters":16400,"station_id":"ce4bhn92rcd13ifvqgrg","pricing_plan_id":"cebpf4jnsgd1na2vs0mg"},{"bike_id":"f9db2c8a-43a9-49a9-8872-c2f18fda3970","system_id":"levelo_inurba_marseille","lat":43.330245,"lon":5.390389,"is_reserved":false,"is_disabled":false,"rental_uris":{"android":"levelo://app?vid=f9db2c8a-43a9-49a9-8872-c2f18fda3970","ios":"levelo://app?vid=f9db2c8a-43a9-49a9-8872-c2f18fda3970"},"vehicle_type_id":"4","last_reported":1751325016,"current_range_meters":16400,"station_id":"ce4bhr92rcd13ifvqhrg","pricing_plan_id":"cebpf4jnsgd1na2vs0mg"},{"bike_id":"b13877a6-4825-4d82-b46b-67fa8ad66c5d","system_id":"levelo_inurba_marseille","lat":43.21178,"lon":5.35108,"is_reserved":false,"is_disabled":false,"rental_uris":{"android":"levelo://app?vid=b13877a6-4825-4d82-b46b-67fa8ad66c5d","ios":"levelo://app?vid=b13877a6-4825-4d82-b46b-67fa8ad66c5d"},"vehicle_type_id":"4","last_reported":1751325016,"current_range_meters":16400,"station_id":"st_cvj6sg6p6f1abm77japg","pricing_plan_id":"cebpf4jnsgd1na2vs0mg"},{"bike_id":"86b7f1ee-30a3-4c47-a5cc-5fc9090ac0b9","system_id":"levelo_inurba_marseille","lat":43.301835,"lon":5.366286,"is_reserved":false,"is_disabled":false,"rental_uris":{"android":"levelo://app?vid=86b7f1ee-30a3-4c47-a5cc-5fc9090ac0b9","ios":"levelo://app?vid=86b7f1ee-30a3-4c47-a5cc-5fc9090ac0b9"},"vehicle_type_id":"4","last_reported":1751325016,"current_range_meters":16800,"station_id":"","pricing_plan_id":"cebpf4jnsgd1na2vs0mg"},{"bike_id":"ee056fe6-4420-48e4-b29f-c1e756467534","system_id":"levelo_inurba_marseille","lat":43.273343,"lon":5.390698,"is_reserved":false,"is_disabled":false,"rental_uris":{"android":"levelo://app?vid=ee056fe6-4420-48e4-b29f-c1e756467534","ios":"levelo://app?vid=ee056fe6-4420-48e4-b29f-c1e756467534"},"vehicle_type_id":"4","last_reported":1751325016,"current_range_meters":16800,"station_id":"","pricing_plan_id":"cebpf4jnsgd1na2vs0mg"},{"bike_id":"a0cef316-ad95-4855-8f78-a31341a2b90e","system_id":"levelo_inurba_marseille","lat":43.33171,"lon":5.37832,"is_reserved":false,"is_disabled":false,"rental_uris":{"android":"levelo://app?vid=a0cef316-ad95-4855-8f78-a31341a2b90e","ios":"levelo://app?vid=a0cef316-ad95-4855-8f78-a31341a2b90e"},"vehicle_type_id":"4","last_reported":1751325016,"current_range_meters":16800,"station_id":"","pricing_plan_id":"cebpf4jnsgd1na2vs0mg"},{"bike_id":"f610f114-c0ca-4f2e-84ff-07a24d51f2d3","system_id":"levelo_inurba_marseille","lat":43.28719,"lon":5.37948,"is_reserved":false,"is_disabled":false,"rental_uris":{"android":"levelo://app?vid=f610f114-c0ca-4f2e-84ff-07a24d51f2d3","ios":"levelo://app?vid=f610f114-c0ca-4f2e-84ff-07a24d51f2d3"},"vehicle_type_id":"4","last_reported":1751325016,"current_range_meters":16800,"station_id":"ce4bh9p2rcd13ifvqec0","pricing_plan_id":"cebpf4jnsgd1na2vs0mg"},{"bike_id":"f603f3aa-5bf7-4a19-a8a1-b47909f854c7","system_id":"levelo_inurba_marseille","lat":43.21187,"lon":5.35046,"is_reserved":false,"is_disabled":false,"rental_uris":{"android":"levelo://app?vid=f603f3aa-5bf7-4a19-a8a1-b47909f854c7","ios":"levelo://app?vid=f603f3aa-5bf7-4a19-a8a1-b47909f854c7"},"vehicle_type_id":"4","last_reported":1751325016,"current_range_meters":16800,"station_id":"st_cvj6sg6p6f1abm77japg","pricing_plan_id":"cebpf4jnsgd1na2vs0mg"},{"bike_id":"6d67446a-041a-428d-8b9e-a7d63bdc0433","system_id":"levelo_inurba_marseille","lat":43.307921,"lon":5.376521,"is_reserved":false,"is_disabled":false,"rental_uris":{"android":"levelo://app?vid=6d67446a-041a-428d-8b9e-a7d63bdc0433","ios":"levelo://app?vid=6d67446a-041a-428d-8b9e-a7d63bdc0433"},"vehicle_type_id":"4","last_reported":1751325016,"current_range_meters":17200,"station_id":"ce4bgv92rcd13ifvqcq0","pricing_plan_id":"cebpf4jnsgd1na2vs0mg"},{"bike_id":"20a109cb-81e8-4592-a3f0-537c9bdfa847","system_id":"levelo_inurba_marseille","lat":43.2315,"lon":5.43725,"is_reserved":false,"is_disabled":false,"rental_uris":{"android":"levelo://app?vid=20a109cb-81e8-4592-a3f0-537c9bdfa847","ios":"levelo://app?vid=20a109cb-81e8-4592-a3f0-537c9bdfa847"},"vehicle_type_id":"4","last_reported":1751325016,"current_range_meters":17200,"station_id":"ce4bhmp2rcd13ifvqgog","pricing_plan_id":"cebpf4jnsgd1na2vs0mg"},{"bike_id":"a2864fe7-1184-48ae-a023-a28908a07e8e","system_id":"levelo_inurba_marseille","lat":43.27494,"lon":5.42451,"is_reserved":false,"is_disabled":false,"rental_uris":{"android":"levelo://app?vid=a2864fe7-1184-48ae-a023-a28908a07e8e","ios":"levelo://app?vid=a2864fe7-1184-48ae-a023-a28908a07e8e"},"vehicle_type_id":"4","last_reported":1751325016,"current_range_meters":17200,"station_id":"ce4bhn92rcd13ifvqgrg","pricing_plan_id":"cebpf4jnsgd1na2vs0mg"},{"bike_id":"c0228700-5312-4a39-89af-ec53a5d729c5","system_id":"levelo_inurba_marseille","lat":43.28318,"lon":5.43232,"is_reserved":false,"is_disabled":false,"rental_uris":{"android":"levelo://app?vid=c0228700-5312-4a39-89af-ec53a5d729c5","ios":"levelo://app?vid=c0228700-5312-4a39-89af-ec53a5d729c5"},"vehicle_type_id":"4","last_reported":1751325016,"current_range_meters":17600,"station_id":"","pricing_plan_id":"cebpf4jnsgd1na2vs0mg"},{"bike_id":"66b0cf37-6349-47ff-87f9-f5502505e84b","system_id":"levelo_inurba_marseille","lat":43.29701,"lon":5.36613,"is_reserved":false,"is_disabled":false,"rental_uris":{"android":"levelo://app?vid=66b0cf37-6349-47ff-87f9-f5502505e84b","ios":"levelo://app?vid=66b0cf37-6349-47ff-87f9-f5502505e84b"},"vehicle_type_id":"4","last_reported":1751325016,"current_range_meters":17600,"station_id":"ce4bgn12rcd13ifvqbt0","pricing_plan_id":"cebpf4jnsgd1na2vs0mg"},{"bike_id":"18811a6a-8db1-4eb3-b65a-217e308db49b","system_id":"levelo_inurba_marseille","lat":43.28483,"lon":5.384152,"is_reserved":false,"is_disabled":false,"rental_uris":{"android":"levelo://app?vid=18811a6a-8db1-4eb3-b65a-217e308db49b","ios":"levelo://app?vid=18811a6a-8db1-4eb3-b65a-217e308db49b"},"vehicle_type_id":"4","last_reported":1751325016,"current_range_meters":17600,"station_id":"ce4bh512rcd13ifvqe3g","pricing_plan_id":"cebpf4jnsgd1na2vs0mg"},{"bike_id":"722db8eb-e3d0-4579-8aed-5b7119d05865","system_id":"levelo_inurba_marseille","lat":43.28108,"lon":5.37836,"is_reserved":false,"is_disabled":false,"rental_uris":{"android":"levelo://app?vid=722db8eb-e3d0-4579-8aed-5b7119d05865","ios":"levelo://app?vid=722db8eb-e3d0-4579-8aed-5b7119d05865"},"vehicle_type_id":"4","last_reported":1751325016,"current_range_meters":17600,"station_id":"ce4bha12rcd13ifvqee0","pricing_plan_id":"cebpf4jnsgd1na2vs0mg"},{"bike_id":"89468642-e3e5-4617-8147-6859ea4c11dc","system_id":"levelo_inurba_marseille","lat":43.27893,"lon":5.37999,"is_reserved":false,"is_disabled":false,"rental_uris":{"android":"levelo://app?vid=89468642-e3e5-4617-8147-6859ea4c11dc","ios":"levelo://app?vid=89468642-e3e5-4617-8147-6859ea4c11dc"},"vehicle_type_id":"4","last_reported":1751325016,"current_range_meters":17600,"station_id":"ce4bhf92rcd13ifvqf50","pricing_plan_id":"cebpf4jnsgd1na2vs0mg"},{"bike_id":"d0b2f4a7-e242-4703-926d-40f0be1abcaa","system_id":"levelo_inurba_marseille","lat":43.24656,"lon":5.38152,"is_reserved":false,"is_disabled":false,"rental_uris":{"android":"levelo://app?vid=d0b2f4a7-e242-4703-926d-40f0be1abcaa","ios":"levelo://app?vid=d0b2f4a7-e242-4703-926d-40f0be1abcaa"},"vehicle_type_id":"4","last_reported":1751325016,"current_range_meters":17600,"station_id":"ce4bhih2rcd13ifvqfr0","pricing_plan_id":"cebpf4jnsgd1na2vs0mg"},{"bike_id":"0a5a6df3-791d-4e1e-9f7c-cb1cf013a1c7","system_id":"levelo_inurba_marseille","lat":43.25709,"lon":5.4113,"is_reserved":false,"is_disabled":false,"rental_uris":{"android":"levelo://app?vid=0a5a6df3-791d-4e1e-9f7c-cb1cf013a1c7","ios":"levelo://app?vid=0a5a6df3-791d-4e1e-9f7c-cb1cf013a1c7"},"vehicle_type_id":"4","last_reported":1751325016,"current_range_meters":17600,"station_id":"ce4bhkp2rcd13ifvqgd0","pricing_plan_id":"cebpf4jnsgd1na2vs0mg"},{"bike_id":"d67ecffe-4463-4724-8c61-0e1fce7455b0","system_id":"levelo_inurba_marseille","lat":43.32366,"lon":5.38884,"is_reserved":false,"is_disabled":false,"rental_uris":{"android":"levelo://app?vid=d67ecffe-4463-4724-8c61-0e1fce7455b0","ios":"levelo://app?vid=d67ecffe-4463-4724-8c61-0e1fce7455b0"},"vehicle_type_id":"4","last_reported":1751325016,"current_range_meters":17600,"station_id":"ce4bhqp2rcd13ifvqhog","pricing_plan_id":"cebpf4jnsgd1na2vs0mg"},{"bike_id":"bf93d8fd-5e88-4f81-b040-2d31f5fb36b5","system_id":"levelo_inurba_marseille","lat":43.29923,"lon":5.37477,"is_reserved":false,"is_disabled":false,"rental_uris":{"android":"levelo://app?vid=bf93d8fd-5e88-4f81-b040-2d31f5fb36b5","ios":"levelo://app?vid=bf93d8fd-5e88-4f81-b040-2d31f5fb36b5"},"vehicle_type_id":"4","last_reported":1751325016,"current_range_meters":18000,"station_id":"ce4bgjh2rcd13ifvqbg0","pricing_plan_id":"cebpf4jnsgd1na2vs0mg"},{"bike_id":"adee5e5a-f89e-4c15-81b3-223b6edf027d","system_id":"levelo_inurba_marseille","lat":43.315049,"lon":5.372887,"is_reserved":false,"is_disabled":false,"rental_uris":{"android":"levelo://app?vid=adee5e5a-f89e-4c15-81b3-223b6edf027d","ios":"levelo://app?vid=adee5e5a-f89e-4c15-81b3-223b6edf027d"},"vehicle_type_id":"4","last_reported":1751325016,"current_range_meters":18000,"station_id":"ce4bgt12rcd13ifvqcd0","pricing_plan_id":"cebpf4jnsgd1na2vs0mg"},{"bike_id":"6000b31a-c9a0-413a-a8ca-a6fd804f263b","system_id":"levelo_inurba_marseille","lat":43.30936,"lon":5.40139,"is_reserved":false,"is_disabled":false,"rental_uris":{"android":"levelo://app?vid=6000b31a-c9a0-413a-a8ca-a6fd804f263b","ios":"levelo://app?vid=6000b31a-c9a0-413a-a8ca-a6fd804f263b"},"vehicle_type_id":"4","last_reported":1751325016,"current_range_meters":18000,"station_id":"ce4bgvp2rcd13ifvqct0","pricing_plan_id":"cebpf4jnsgd1na2vs0mg"},{"bike_id":"da155a5d-ef1d-417b-ba71-1916a126e497","system_id":"levelo_inurba_marseille","lat":43.312696,"lon":5.40168,"is_reserved":false,"is_disabled":false,"rental_uris":{"android":"levelo://app?vid=da155a5d-ef1d-417b-ba71-1916a126e497","ios":"levelo://app?vid=da155a5d-ef1d-417b-ba71-1916a126e497"},"vehicle_type_id":"4","last_reported":1751325016,"current_range_meters":18000,"station_id":"ce4bh092rcd13ifvqd30","pricing_plan_id":"cebpf4jnsgd1na2vs0mg"},{"bike_id":"597d6c22-d2db-47c9-b69a-564f51b2a20e","system_id":"levelo_inurba_marseille","lat":43.28921,"lon":5.383973,"is_reserved":false,"is_disabled":false,"rental_uris":{"android":"levelo://app?vid=597d6c22-d2db-47c9-b69a-564f51b2a20e","ios":"levelo://app?vid=597d6c22-d2db-47c9-b69a-564f51b2a20e"},"vehicle_type_id":"4","last_reported":1751325016,"current_range_meters":18000,"station_id":"ce4bh612rcd13ifvqe6g","pricing_plan_id":"cebpf4jnsgd1na2vs0mg"},{"bike_id":"c8542b34-a211-4fd0-a74b-85a27b3ff274","system_id":"levelo_inurba_marseille","lat":43.25726,"lon":5.41122,"is_reserved":false,"is_disabled":false,"rental_uris":{"android":"levelo://app?vid=c8542b34-a211-4fd0-a74b-85a27b3ff274","ios":"levelo://app?vid=c8542b34-a211-4fd0-a74b-85a27b3ff274"},"vehicle_type_id":"4","last_reported":1751325016,"current_range_meters":18000,"station_id":"ce4bhkp2rcd13ifvqgd0","pricing_plan_id":"cebpf4jnsgd1na2vs0mg"},{"bike_id":"8ad53220-e0dc-4223-912a-b0b7e0e87b8e","system_id":"levelo_inurba_marseille","lat":43.24535,"lon":5.39493,"is_reserved":false,"is_disabled":false,"rental_uris":{"android":"levelo://app?vid=8ad53220-e0dc-4223-912a-b0b7e0e87b8e","ios":"levelo://app?vid=8ad53220-e0dc-4223-912a-b0b7e0e87b8e"},"vehicle_type_id":"4","last_reported":1751325016,"current_range_meters":18000,"station_id":"ce4bhlp2rcd13ifvqgjg","pricing_plan_id":"cebpf4jnsgd1na2vs0mg"},{"bike_id":"a3f98b39-f001-4c77-bddf-e7be4fb0924a","system_id":"levelo_inurba_marseille","lat":43.320563,"lon":5.415412,"is_reserved":false,"is_disabled":false,"rental_uris":{"android":"levelo://app?vid=a3f98b39-f001-4c77-bddf-e7be4fb0924a","ios":"levelo://app?vid=a3f98b39-f001-4c77-bddf-e7be4fb0924a"},"vehicle_type_id":"4","last_reported":1751325016,"current_range_meters":18000,"station_id":"ce4bhq92rcd13ifvqhkg","pricing_plan_id":"cebpf4jnsgd1na2vs0mg"},{"bike_id":"1caca1fc-4911-4e37-9aeb-383803780faf","system_id":"levelo_inurba_marseille","lat":43.321125,"lon":5.36766,"is_reserved":false,"is_disabled":false,"rental_uris":{"android":"levelo://app?vid=1caca1fc-4911-4e37-9aeb-383803780faf","ios":"levelo://app?vid=1caca1fc-4911-4e37-9aeb-383803780faf"},"vehicle_type_id":"4","last_reported":1751325016,"current_range_meters":18000,"station_id":"ce4bhrh2rcd13ifvqhug","pricing_plan_id":"cebpf4jnsgd1na2vs0mg"},{"bike_id":"86fa6ce7-8cbe-47ff-b5d3-c2b4938fd05c","system_id":"levelo_inurba_marseille","lat":43.21182,"lon":5.35064,"is_reserved":false,"is_disabled":false,"rental_uris":{"android":"levelo://app?vid=86fa6ce7-8cbe-47ff-b5d3-c2b4938fd05c","ios":"levelo://app?vid=86fa6ce7-8cbe-47ff-b5d3-c2b4938fd05c"},"vehicle_type_id":"4","last_reported":1751325016,"current_range_meters":18000,"station_id":"st_cvj6sg6p6f1abm77japg","pricing_plan_id":"cebpf4jnsgd1na2vs0mg"},{"bike_id":"5767b9e4-81ec-40bf-bccc-db289ba35b4e","system_id":"levelo_inurba_marseille","lat":43.27384,"lon":5.41247,"is_reserved":false,"is_disabled":false,"rental_uris":{"android":"levelo://app?vid=5767b9e4-81ec-40bf-bccc-db289ba35b4e","ios":"levelo://app?vid=5767b9e4-81ec-40bf-bccc-db289ba35b4e"},"vehicle_type_id":"4","last_reported":1751325016,"current_range_meters":18800,"station_id":"","pricing_plan_id":"cebpf4jnsgd1na2vs0mg"},{"bike_id":"8159cbea-0c93-476c-9b13-248a8f46e22e","system_id":"levelo_inurba_marseille","lat":43.31166,"lon":5.38721,"is_reserved":false,"is_disabled":false,"rental_uris":{"android":"levelo://app?vid=8159cbea-0c93-476c-9b13-248a8f46e22e","ios":"levelo://app?vid=8159cbea-0c93-476c-9b13-248a8f46e22e"},"vehicle_type_id":"4","last_reported":1751325016,"current_range_meters":18800,"station_id":"ce4bgv12rcd13ifvqcp0","pricing_plan_id":"cebpf4jnsgd1na2vs0mg"},{"bike_id":"38d45616-ccbd-4a45-81db-de5f93d1a992","system_id":"levelo_inurba_marseille","lat":43.30654,"lon":5.40103,"is_reserved":false,"is_disabled":false,"rental_uris":{"android":"levelo://app?vid=38d45616-ccbd-4a45-81db-de5f93d1a992","ios":"levelo://app?vid=38d45616-ccbd-4a45-81db-de5f93d1a992"},"vehicle_type_id":"4","last_reported":1751325016,"current_range_meters":18800,"station_id":"ce4bh112rcd13ifvqda0","pricing_plan_id":"cebpf4jnsgd1na2vs0mg"},{"bike_id":"62c8f44d-07be-4d1e-a1a1-b48fcea16336","system_id":"levelo_inurba_marseille","lat":43.264952,"lon":5.395601,"is_reserved":false,"is_disabled":false,"rental_uris":{"android":"levelo://app?vid=62c8f44d-07be-4d1e-a1a1-b48fcea16336","ios":"levelo://app?vid=62c8f44d-07be-4d1e-a1a1-b48fcea16336"},"vehicle_type_id":"4","last_reported":1751325016,"current_range_meters":18800,"station_id":"ce4bhi12rcd13ifvqfq0","pricing_plan_id":"cebpf4jnsgd1na2vs0mg"},{"bike_id":"958a71f2-9754-4acc-9155-79a885cf1020","system_id":"levelo_inurba_marseille","lat":43.25575,"lon":5.38228,"is_reserved":false,"is_disabled":false,"rental_uris":{"android":"levelo://app?vid=958a71f2-9754-4acc-9155-79a885cf1020","ios":"levelo://app?vid=958a71f2-9754-4acc-9155-79a885cf1020"},"vehicle_type_id":"4","last_reported":1751325016,"current_range_meters":18800,"station_id":"ce4bhih2rcd13ifvqfs0","pricing_plan_id":"cebpf4jnsgd1na2vs0mg"},{"bike_id":"3a33ebd2-49a2-4e39-92d7-f09d7dd08672","system_id":"levelo_inurba_marseille","lat":43.212225,"lon":5.350686,"is_reserved":false,"is_disabled":false,"rental_uris":{"android":"levelo://app?vid=3a33ebd2-49a2-4e39-92d7-f09d7dd08672","ios":"levelo://app?vid=3a33ebd2-49a2-4e39-92d7-f09d7dd08672"},"vehicle_type_id":"4","last_reported":1751325016,"current_range_meters":18800,"station_id":"st_cvj6sg6p6f1abm77japg","pricing_plan_id":"cebpf4jnsgd1na2vs0mg"},{"bike_id":"f567bb89-2e53-47f6-a00f-3b2e3393b62b","system_id":"levelo_inurba_marseille","lat":43.28346,"lon":5.38106,"is_reserved":false,"is_disabled":false,"rental_uris":{"android":"levelo://app?vid=f567bb89-2e53-47f6-a00f-3b2e3393b62b","ios":"levelo://app?vid=f567bb89-2e53-47f6-a00f-3b2e3393b62b"},"vehicle_type_id":"4","last_reported":1751325016,"current_range_meters":19200,"station_id":"ce4bh412rcd13ifvqdr0","pricing_plan_id":"cebpf4jnsgd1na2vs0mg"},{"bike_id":"d2f72e45-6b0c-4b36-9924-deef3cd98510","system_id":"levelo_inurba_marseille","lat":43.274926,"lon":5.424536,"is_reserved":false,"is_disabled":false,"rental_uris":{"android":"levelo://app?vid=d2f72e45-6b0c-4b36-9924-deef3cd98510","ios":"levelo://app?vid=d2f72e45-6b0c-4b36-9924-deef3cd98510"},"vehicle_type_id":"4","last_reported":1751325016,"current_range_meters":19200,"station_id":"ce4bhn92rcd13ifvqgrg","pricing_plan_id":"cebpf4jnsgd1na2vs0mg"},{"bike_id":"e8121254-761c-41c4-af89-71ccf8fe2230","system_id":"levelo_inurba_marseille","lat":43.31712,"lon":5.4371,"is_reserved":false,"is_disabled":false,"rental_uris":{"android":"levelo://app?vid=e8121254-761c-41c4-af89-71ccf8fe2230","ios":"levelo://app?vid=e8121254-761c-41c4-af89-71ccf8fe2230"},"vehicle_type_id":"4","last_reported":1751325016,"current_range_meters":19200,"station_id":"ce4bhp92rcd13ifvqhcg","pricing_plan_id":"cebpf4jnsgd1na2vs0mg"},{"bike_id":"d11fe4c9-c130-42ee-bb73-8c70d6efcfc0","system_id":"levelo_inurba_marseille","lat":43.28985,"lon":5.36658,"is_reserved":false,"is_disabled":false,"rental_uris":{"android":"levelo://app?vid=d11fe4c9-c130-42ee-bb73-8c70d6efcfc0","ios":"levelo://app?vid=d11fe4c9-c130-42ee-bb73-8c70d6efcfc0"},"vehicle_type_id":"4","last_reported":1751325016,"current_range_meters":19600,"station_id":"","pricing_plan_id":"cebpf4jnsgd1na2vs0mg"},{"bike_id":"539ed013-9e80-448a-999f-a7819f54786a","system_id":"levelo_inurba_marseille","lat":43.290309,"lon":5.375668,"is_reserved":false,"is_disabled":false,"rental_uris":{"android":"levelo://app?vid=539ed013-9e80-448a-999f-a7819f54786a","ios":"levelo://app?vid=539ed013-9e80-448a-999f-a7819f54786a"},"vehicle_type_id":"4","last_reported":1751325016,"current_range_meters":19600,"station_id":"","pricing_plan_id":"cebpf4jnsgd1na2vs0mg"},{"bike_id":"52c1329a-9043-4783-87db-7db2dde62914","system_id":"levelo_inurba_marseille","lat":43.302703,"lon":5.400694,"is_reserved":false,"is_disabled":false,"rental_uris":{"android":"levelo://app?vid=52c1329a-9043-4783-87db-7db2dde62914","ios":"levelo://app?vid=52c1329a-9043-4783-87db-7db2dde62914"},"vehicle_type_id":"4","last_reported":1751325016,"current_range_meters":19600,"station_id":"ce4bgvh2rcd13ifvqcs0","pricing_plan_id":"cebpf4jnsgd1na2vs0mg"},{"bike_id":"fceb16de-6a79-427a-b828-bfdb30836d2e","system_id":"levelo_inurba_marseille","lat":43.23187,"lon":5.39969,"is_reserved":false,"is_disabled":false,"rental_uris":{"android":"levelo://app?vid=fceb16de-6a79-427a-b828-bfdb30836d2e","ios":"levelo://app?vid=fceb16de-6a79-427a-b828-bfdb30836d2e"},"vehicle_type_id":"4","last_reported":1751325016,"current_range_meters":19600,"station_id":"ce4bhn12rcd13ifvqgqg","pricing_plan_id":"cebpf4jnsgd1na2vs0mg"},{"bike_id":"090abbf3-178b-4dd9-a8ca-96b99bc91404","system_id":"levelo_inurba_marseille","lat":43.286926,"lon":5.400006,"is_reserved":false,"is_disabled":false,"rental_uris":{"android":"levelo://app?vid=090abbf3-178b-4dd9-a8ca-96b99bc91404","ios":"levelo://app?vid=090abbf3-178b-4dd9-a8ca-96b99bc91404"},"vehicle_type_id":"4","last_reported":1751325016,"current_range_meters":19600,"station_id":"ce4bho92rcd13ifvqh3g","pricing_plan_id":"cebpf4jnsgd1na2vs0mg"},{"bike_id":"085cb0a3-0e2b-4045-8db2-40c671535edd","system_id":"levelo_inurba_marseille","lat":43.30735,"lon":5.42446,"is_reserved":false,"is_disabled":false,"rental_uris":{"android":"levelo://app?vid=085cb0a3-0e2b-4045-8db2-40c671535edd","ios":"levelo://app?vid=085cb0a3-0e2b-4045-8db2-40c671535edd"},"vehicle_type_id":"4","last_reported":1751325016,"current_range_meters":19600,"station_id":"st_cvj6ca6bvosntc0bfgr0","pricing_plan_id":"cebpf4jnsgd1na2vs0mg"},{"bike_id":"934beea3-881e-4441-a5ff-95e7b68ba97b","system_id":"levelo_inurba_marseille","lat":43.34447,"lon":5.35975,"is_reserved":false,"is_disabled":false,"rental_uris":{"android":"levelo://app?vid=934beea3-881e-4441-a5ff-95e7b68ba97b","ios":"levelo://app?vid=934beea3-881e-4441-a5ff-95e7b68ba97b"},"vehicle_type_id":"4","last_reported":1751325016,"current_range_meters":20000,"station_id":"","pricing_plan_id":"cebpf4jnsgd1na2vs0mg"},{"bike_id":"7c058e8c-8b18-4b77-988c-8e2e2fdd6882","system_id":"levelo_inurba_marseille","lat":43.287008,"lon":5.373835,"is_reserved":false,"is_disabled":false,"rental_uris":{"android":"levelo://app?vid=7c058e8c-8b18-4b77-988c-8e2e2fdd6882","ios":"levelo://app?vid=7c058e8c-8b18-4b77-988c-8e2e2fdd6882"},"vehicle_type_id":"4","last_reported":1751325016,"current_range_meters":20000,"station_id":"ce4bh3p2rcd13ifvqdq0","pricing_plan_id":"cebpf4jnsgd1na2vs0mg"},{"bike_id":"08697d29-f1ed-4b0a-b171-3f895d6da0cd","system_id":"levelo_inurba_marseille","lat":43.28703,"lon":5.37924,"is_reserved":false,"is_disabled":false,"rental_uris":{"android":"levelo://app?vid=08697d29-f1ed-4b0a-b171-3f895d6da0cd","ios":"levelo://app?vid=08697d29-f1ed-4b0a-b171-3f895d6da0cd"},"vehicle_type_id":"4","last_reported":1751325016,"current_range_meters":20000,"station_id":"ce4bh9p2rcd13ifvqec0","pricing_plan_id":"cebpf4jnsgd1na2vs0mg"},{"bike_id":"1835ac27-d7cb-4ce6-8ab5-7ecfd586b01e","system_id":"levelo_inurba_marseille","lat":43.25085,"lon":5.39528,"is_reserved":false,"is_disabled":false,"rental_uris":{"android":"levelo://app?vid=1835ac27-d7cb-4ce6-8ab5-7ecfd586b01e","ios":"levelo://app?vid=1835ac27-d7cb-4ce6-8ab5-7ecfd586b01e"},"vehicle_type_id":"4","last_reported":1751325016,"current_range_meters":20000,"station_id":"ce4bhm12rcd13ifvqgkg","pricing_plan_id":"cebpf4jnsgd1na2vs0mg"},{"bike_id":"a9a1c616-c54a-4a89-8bc3-4d89aa348d04","system_id":"levelo_inurba_marseille","lat":43.2319,"lon":5.39986,"is_reserved":false,"is_disabled":false,"rental_uris":{"android":"levelo://app?vid=a9a1c616-c54a-4a89-8bc3-4d89aa348d04","ios":"levelo://app?vid=a9a1c616-c54a-4a89-8bc3-4d89aa348d04"},"vehicle_type_id":"4","last_reported":1751325016,"current_range_meters":20000,"station_id":"ce4bhn12rcd13ifvqgqg","pricing_plan_id":"cebpf4jnsgd1na2vs0mg"},{"bike_id":"2c460162-df67-45cc-9e05-d15156a9c9b0","system_id":"levelo_inurba_marseille","lat":43.336063,"lon":5.410329,"is_reserved":false,"is_disabled":false,"rental_uris":{"android":"levelo://app?vid=2c460162-df67-45cc-9e05-d15156a9c9b0","ios":"levelo://app?vid=2c460162-df67-45cc-9e05-d15156a9c9b0"},"vehicle_type_id":"4","last_reported":1751325016,"current_range_meters":20000,"station_id":"ce4bhqh2rcd13ifvqhmg","pricing_plan_id":"cebpf4jnsgd1na2vs0mg"},{"bike_id":"e827d361-3f2a-4da5-9f30-b117f4b8a3ee","system_id":"levelo_inurba_marseille","lat":43.32045,"lon":5.41563,"is_reserved":false,"is_disabled":false,"rental_uris":{"android":"levelo://app?vid=e827d361-3f2a-4da5-9f30-b117f4b8a3ee","ios":"levelo://app?vid=e827d361-3f2a-4da5-9f30-b117f4b8a3ee"},"vehicle_type_id":"4","last_reported":1751325016,"current_range_meters":20000,"station_id":"ce4bhqh2rcd13ifvqhmg","pricing_plan_id":"cebpf4jnsgd1na2vs0mg"},{"bike_id":"a3e377bd-40ca-4a8f-b208-5a6ef2b9eecd","system_id":"levelo_inurba_marseille","lat":43.31752,"lon":5.39018,"is_reserved":false,"is_disabled":false,"rental_uris":{"android":"levelo://app?vid=a3e377bd-40ca-4a8f-b208-5a6ef2b9eecd","ios":"levelo://app?vid=a3e377bd-40ca-4a8f-b208-5a6ef2b9eecd"},"vehicle_type_id":"4","last_reported":1751325016,"current_range_meters":20000,"station_id":"ce4bhqp2rcd13ifvqhng","pricing_plan_id":"cebpf4jnsgd1na2vs0mg"},{"bike_id":"64cf4897-88d2-46b9-994f-e4c449f50938","system_id":"levelo_inurba_marseille","lat":43.33015,"lon":5.39041,"is_reserved":false,"is_disabled":false,"rental_uris":{"android":"levelo://app?vid=64cf4897-88d2-46b9-994f-e4c449f50938","ios":"levelo://app?vid=64cf4897-88d2-46b9-994f-e4c449f50938"},"vehicle_type_id":"4","last_reported":1751325016,"current_range_meters":20000,"station_id":"ce4bhr92rcd13ifvqhrg","pricing_plan_id":"cebpf4jnsgd1na2vs0mg"},{"bike_id":"0c1b4f74-5294-4b59-932d-b742ce647d9e","system_id":"levelo_inurba_marseille","lat":43.21172,"lon":5.35073,"is_reserved":false,"is_disabled":false,"rental_uris":{"android":"levelo://app?vid=0c1b4f74-5294-4b59-932d-b742ce647d9e","ios":"levelo://app?vid=0c1b4f74-5294-4b59-932d-b742ce647d9e"},"vehicle_type_id":"4","last_reported":1751325016,"current_range_meters":20000,"station_id":"st_cvj6sg6p6f1abm77japg","pricing_plan_id":"cebpf4jnsgd1na2vs0mg"},{"bike_id":"87fc5543-3ec4-42b4-9a24-dd59e17f4f17","system_id":"levelo_inurba_marseille","lat":43.31823,"lon":5.38495,"is_reserved":false,"is_disabled":false,"rental_uris":{"android":"levelo://app?vid=87fc5543-3ec4-42b4-9a24-dd59e17f4f17","ios":"levelo://app?vid=87fc5543-3ec4-42b4-9a24-dd59e17f4f17"},"vehicle_type_id":"4","last_reported":1751325016,"current_range_meters":20400,"station_id":"","pricing_plan_id":"cebpf4jnsgd1na2vs0mg"},{"bike_id":"2a0d262e-536a-4e19-a974-390966a160fe","system_id":"levelo_inurba_marseille","lat":43.30381,"lon":5.424786,"is_reserved":false,"is_disabled":false,"rental_uris":{"android":"levelo://app?vid=2a0d262e-536a-4e19-a974-390966a160fe","ios":"levelo://app?vid=2a0d262e-536a-4e19-a974-390966a160fe"},"vehicle_type_id":"4","last_reported":1751325016,"current_range_meters":20400,"station_id":"","pricing_plan_id":"cebpf4jnsgd1na2vs0mg"},{"bike_id":"3a85d05e-59a1-400e-a13c-8cdeea93a5dc","system_id":"levelo_inurba_marseille","lat":43.30602,"lon":5.37233,"is_reserved":false,"is_disabled":false,"rental_uris":{"android":"levelo://app?vid=3a85d05e-59a1-400e-a13c-8cdeea93a5dc","ios":"levelo://app?vid=3a85d05e-59a1-400e-a13c-8cdeea93a5dc"},"vehicle_type_id":"4","last_reported":1751325016,"current_range_meters":20400,"station_id":"ce4bgqh2rcd13ifvqc4g","pricing_plan_id":"cebpf4jnsgd1na2vs0mg"},{"bike_id":"70acf3cf-0520-44c5-ac1d-bc719bb919d6","system_id":"levelo_inurba_marseille","lat":43.30935,"lon":5.40145,"is_reserved":false,"is_disabled":false,"rental_uris":{"android":"levelo://app?vid=70acf3cf-0520-44c5-ac1d-bc719bb919d6","ios":"levelo://app?vid=70acf3cf-0520-44c5-ac1d-bc719bb919d6"},"vehicle_type_id":"4","last_reported":1751325016,"current_range_meters":20400,"station_id":"ce4bgvp2rcd13ifvqct0","pricing_plan_id":"cebpf4jnsgd1na2vs0mg"},{"bike_id":"84c9b38b-2eb7-44ac-bcc0-0988046676b5","system_id":"levelo_inurba_marseille","lat":43.29196,"lon":5.39321,"is_reserved":false,"is_disabled":false,"rental_uris":{"android":"levelo://app?vid=84c9b38b-2eb7-44ac-bcc0-0988046676b5","ios":"levelo://app?vid=84c9b38b-2eb7-44ac-bcc0-0988046676b5"},"vehicle_type_id":"4","last_reported":1751325016,"current_range_meters":20400,"station_id":"ce4bh192rcd13ifvqdd0","pricing_plan_id":"cebpf4jnsgd1na2vs0mg"},{"bike_id":"b705df74-f98e-448d-acff-cbe02a85d173","system_id":"levelo_inurba_marseille","lat":43.28335,"lon":5.3811,"is_reserved":false,"is_disabled":false,"rental_uris":{"android":"levelo://app?vid=b705df74-f98e-448d-acff-cbe02a85d173","ios":"levelo://app?vid=b705df74-f98e-448d-acff-cbe02a85d173"},"vehicle_type_id":"4","last_reported":1751325016,"current_range_meters":20400,"station_id":"ce4bh412rcd13ifvqdr0","pricing_plan_id":"cebpf4jnsgd1na2vs0mg"},{"bike_id":"c2cc3873-3136-4ba7-984d-6514f2a6bcc2","system_id":"levelo_inurba_marseille","lat":43.26692,"lon":5.3827,"is_reserved":false,"is_disabled":false,"rental_uris":{"android":"levelo://app?vid=c2cc3873-3136-4ba7-984d-6514f2a6bcc2","ios":"levelo://app?vid=c2cc3873-3136-4ba7-984d-6514f2a6bcc2"},"vehicle_type_id":"4","last_reported":1751325016,"current_range_meters":20400,"station_id":"ce4bhg92rcd13ifvqf90","pricing_plan_id":"cebpf4jnsgd1na2vs0mg"},{"bike_id":"c5ebba43-88d3-4aee-b16c-2bf790ef726b","system_id":"levelo_inurba_marseille","lat":43.299116,"lon":5.414082,"is_reserved":false,"is_disabled":false,"rental_uris":{"android":"levelo://app?vid=c5ebba43-88d3-4aee-b16c-2bf790ef726b","ios":"levelo://app?vid=c5ebba43-88d3-4aee-b16c-2bf790ef726b"},"vehicle_type_id":"4","last_reported":1751325016,"current_range_meters":20400,"station_id":"ce4bhp12rcd13ifvqh9g","pricing_plan_id":"cebpf4jnsgd1na2vs0mg"},{"bike_id":"2561d315-fcc8-4635-a79f-e4bd78e42d68","system_id":"levelo_inurba_marseille","lat":43.32104,"lon":5.36772,"is_reserved":false,"is_disabled":false,"rental_uris":{"android":"levelo://app?vid=2561d315-fcc8-4635-a79f-e4bd78e42d68","ios":"levelo://app?vid=2561d315-fcc8-4635-a79f-e4bd78e42d68"},"vehicle_type_id":"4","last_reported":1751325016,"current_range_meters":20400,"station_id":"ce4bhrh2rcd13ifvqhug","pricing_plan_id":"cebpf4jnsgd1na2vs0mg"},{"bike_id":"8a74f5cd-9efa-4362-bea7-a32db4dcc85c","system_id":"levelo_inurba_marseille","lat":43.21212,"lon":5.35115,"is_reserved":false,"is_disabled":false,"rental_uris":{"android":"levelo://app?vid=8a74f5cd-9efa-4362-bea7-a32db4dcc85c","ios":"levelo://app?vid=8a74f5cd-9efa-4362-bea7-a32db4dcc85c"},"vehicle_type_id":"4","last_reported":1751325016,"current_range_meters":20400,"station_id":"st_cvj6sg6p6f1abm77japg","pricing_plan_id":"cebpf4jnsgd1na2vs0mg"},{"bike_id":"10cf647c-01ac-45e6-9b56-d68e0a6e5b45","system_id":"levelo_inurba_marseille","lat":43.298936,"lon":5.383073,"is_reserved":false,"is_disabled":false,"rental_uris":{"android":"levelo://app?vid=10cf647c-01ac-45e6-9b56-d68e0a6e5b45","ios":"levelo://app?vid=10cf647c-01ac-45e6-9b56-d68e0a6e5b45"},"vehicle_type_id":"4","last_reported":1751325016,"current_range_meters":20800,"station_id":"","pricing_plan_id":"cebpf4jnsgd1na2vs0mg"},{"bike_id":"ccd6ce85-04c5-4bea-8274-67ca9ff9b3f0","system_id":"levelo_inurba_marseille","lat":43.305423,"lon":5.367272,"is_reserved":false,"is_disabled":false,"rental_uris":{"android":"levelo://app?vid=ccd6ce85-04c5-4bea-8274-67ca9ff9b3f0","ios":"levelo://app?vid=ccd6ce85-04c5-4bea-8274-67ca9ff9b3f0"},"vehicle_type_id":"4","last_reported":1751325016,"current_range_meters":20800,"station_id":"ce4bgrp2rcd13ifvqc9g","pricing_plan_id":"cebpf4jnsgd1na2vs0mg"},{"bike_id":"4de11bd9-ff05-45b0-80e8-2ccfafa16b64","system_id":"levelo_inurba_marseille","lat":43.311659,"lon":5.387234,"is_reserved":false,"is_disabled":false,"rental_uris":{"android":"levelo://app?vid=4de11bd9-ff05-45b0-80e8-2ccfafa16b64","ios":"levelo://app?vid=4de11bd9-ff05-45b0-80e8-2ccfafa16b64"},"vehicle_type_id":"4","last_reported":1751325016,"current_range_meters":20800,"station_id":"ce4bgv12rcd13ifvqcp0","pricing_plan_id":"cebpf4jnsgd1na2vs0mg"},{"bike_id":"b7b4c829-ad47-4511-bb32-e6bd8754f076","system_id":"levelo_inurba_marseille","lat":43.29255,"lon":5.40907,"is_reserved":false,"is_disabled":false,"rental_uris":{"android":"levelo://app?vid=b7b4c829-ad47-4511-bb32-e6bd8754f076","ios":"levelo://app?vid=b7b4c829-ad47-4511-bb32-e6bd8754f076"},"vehicle_type_id":"4","last_reported":1751325016,"current_range_meters":20800,"station_id":"ce4bh192rcd13ifvqdc0","pricing_plan_id":"cebpf4jnsgd1na2vs0mg"},{"bike_id":"e840d036-638e-44d6-bdb0-6425b8097043","system_id":"levelo_inurba_marseille","lat":43.28842,"lon":5.39329,"is_reserved":false,"is_disabled":false,"rental_uris":{"android":"levelo://app?vid=e840d036-638e-44d6-bdb0-6425b8097043","ios":"levelo://app?vid=e840d036-638e-44d6-bdb0-6425b8097043"},"vehicle_type_id":"4","last_reported":1751325016,"current_range_meters":20800,"station_id":"ce4bh2p2rcd13ifvqdi0","pricing_plan_id":"cebpf4jnsgd1na2vs0mg"},{"bike_id":"8b90ef18-13e8-4441-b1c5-b55de6a43ef3","system_id":"levelo_inurba_marseille","lat":43.249986,"lon":5.389278,"is_reserved":false,"is_disabled":false,"rental_uris":{"android":"levelo://app?vid=8b90ef18-13e8-4441-b1c5-b55de6a43ef3","ios":"levelo://app?vid=8b90ef18-13e8-4441-b1c5-b55de6a43ef3"},"vehicle_type_id":"4","last_reported":1751325016,"current_range_meters":20800,"station_id":"ce4bhgp2rcd13ifvqfd0","pricing_plan_id":"cebpf4jnsgd1na2vs0mg"},{"bike_id":"fdcc33b3-b27b-4fd9-90cb-c9421efe9db6","system_id":"levelo_inurba_marseille","lat":43.2781,"lon":5.41453,"is_reserved":false,"is_disabled":false,"rental_uris":{"android":"levelo://app?vid=fdcc33b3-b27b-4fd9-90cb-c9421efe9db6","ios":"levelo://app?vid=fdcc33b3-b27b-4fd9-90cb-c9421efe9db6"},"vehicle_type_id":"4","last_reported":1751325016,"current_range_meters":21600,"station_id":"","pricing_plan_id":"cebpf4jnsgd1na2vs0mg"},{"bike_id":"f29f6164-965b-427f-a703-e4fc68c477aa","system_id":"levelo_inurba_marseille","lat":43.31364,"lon":5.38488,"is_reserved":false,"is_disabled":false,"rental_uris":{"android":"levelo://app?vid=f29f6164-965b-427f-a703-e4fc68c477aa","ios":"levelo://app?vid=f29f6164-965b-427f-a703-e4fc68c477aa"},"vehicle_type_id":"4","last_reported":1751325016,"current_range_meters":21600,"station_id":"ce4bgt92rcd13ifvqcf0","pricing_plan_id":"cebpf4jnsgd1na2vs0mg"},{"bike_id":"96b6ce62-3a2a-47ef-bc9f-81dd941f4690","system_id":"levelo_inurba_marseille","lat":43.29263,"lon":5.40918,"is_reserved":false,"is_disabled":false,"rental_uris":{"android":"levelo://app?vid=96b6ce62-3a2a-47ef-bc9f-81dd941f4690","ios":"levelo://app?vid=96b6ce62-3a2a-47ef-bc9f-81dd941f4690"},"vehicle_type_id":"4","last_reported":1751325016,"current_range_meters":21600,"station_id":"ce4bh192rcd13ifvqdc0","pricing_plan_id":"cebpf4jnsgd1na2vs0mg"},{"bike_id":"58c4c14b-e77e-4996-acb3-695be6a4b82a","system_id":"levelo_inurba_marseille","lat":43.28108,"lon":5.37837,"is_reserved":false,"is_disabled":false,"rental_uris":{"android":"levelo://app?vid=58c4c14b-e77e-4996-acb3-695be6a4b82a","ios":"levelo://app?vid=58c4c14b-e77e-4996-acb3-695be6a4b82a"},"vehicle_type_id":"4","last_reported":1751325016,"current_range_meters":21600,"station_id":"ce4bha12rcd13ifvqee0","pricing_plan_id":"cebpf4jnsgd1na2vs0mg"},{"bike_id":"9ec078ce-277c-4102-803f-32a65bb77d03","system_id":"levelo_inurba_marseille","lat":43.260611,"lon":5.394003,"is_reserved":false,"is_disabled":false,"rental_uris":{"android":"levelo://app?vid=9ec078ce-277c-4102-803f-32a65bb77d03","ios":"levelo://app?vid=9ec078ce-277c-4102-803f-32a65bb77d03"},"vehicle_type_id":"4","last_reported":1751325016,"current_range_meters":21600,"station_id":"ce4bhh92rcd13ifvqfj0","pricing_plan_id":"cebpf4jnsgd1na2vs0mg"},{"bike_id":"afb78327-cc2c-423c-9e7b-9e6a58647879","system_id":"levelo_inurba_marseille","lat":43.33689,"lon":5.39213,"is_reserved":false,"is_disabled":false,"rental_uris":{"android":"levelo://app?vid=afb78327-cc2c-423c-9e7b-9e6a58647879","ios":"levelo://app?vid=afb78327-cc2c-423c-9e7b-9e6a58647879"},"vehicle_type_id":"4","last_reported":1751325016,"current_range_meters":21600,"station_id":"ce4bhr92rcd13ifvqhsg","pricing_plan_id":"cebpf4jnsgd1na2vs0mg"},{"bike_id":"34c1f271-445e-4382-9172-52190bc6a97c","system_id":"levelo_inurba_marseille","lat":43.32121,"lon":5.36741,"is_reserved":false,"is_disabled":false,"rental_uris":{"android":"levelo://app?vid=34c1f271-445e-4382-9172-52190bc6a97c","ios":"levelo://app?vid=34c1f271-445e-4382-9172-52190bc6a97c"},"vehicle_type_id":"4","last_reported":1751325016,"current_range_meters":21600,"station_id":"ce4bhrh2rcd13ifvqhug","pricing_plan_id":"cebpf4jnsgd1na2vs0mg"},{"bike_id":"74707156-75bf-43bd-864e-1aa4be703d7d","system_id":"levelo_inurba_marseille","lat":43.30064,"lon":5.37426,"is_reserved":false,"is_disabled":false,"rental_uris":{"android":"levelo://app?vid=74707156-75bf-43bd-864e-1aa4be703d7d","ios":"levelo://app?vid=74707156-75bf-43bd-864e-1aa4be703d7d"},"vehicle_type_id":"4","last_reported":1751325016,"current_range_meters":22000,"station_id":"","pricing_plan_id":"cebpf4jnsgd1na2vs0mg"},{"bike_id":"1608cdbb-6c10-487c-a113-6852fd684d45","system_id":"levelo_inurba_marseille","lat":43.309283,"lon":5.401372,"is_reserved":false,"is_disabled":false,"rental_uris":{"android":"levelo://app?vid=1608cdbb-6c10-487c-a113-6852fd684d45","ios":"levelo://app?vid=1608cdbb-6c10-487c-a113-6852fd684d45"},"vehicle_type_id":"4","last_reported":1751325016,"current_range_meters":22000,"station_id":"ce4bgvp2rcd13ifvqct0","pricing_plan_id":"cebpf4jnsgd1na2vs0mg"},{"bike_id":"148f63da-9f87-4be3-b858-1fe29b2a044e","system_id":"levelo_inurba_marseille","lat":43.30639,"lon":5.40098,"is_reserved":false,"is_disabled":false,"rental_uris":{"android":"levelo://app?vid=148f63da-9f87-4be3-b858-1fe29b2a044e","ios":"levelo://app?vid=148f63da-9f87-4be3-b858-1fe29b2a044e"},"vehicle_type_id":"4","last_reported":1751325016,"current_range_meters":22000,"station_id":"ce4bh112rcd13ifvqda0","pricing_plan_id":"cebpf4jnsgd1na2vs0mg"},{"bike_id":"0e637dc2-a00c-4577-8c31-56fb97eba2d7","system_id":"levelo_inurba_marseille","lat":43.29253,"lon":5.40907,"is_reserved":false,"is_disabled":false,"rental_uris":{"android":"levelo://app?vid=0e637dc2-a00c-4577-8c31-56fb97eba2d7","ios":"levelo://app?vid=0e637dc2-a00c-4577-8c31-56fb97eba2d7"},"vehicle_type_id":"4","last_reported":1751325016,"current_range_meters":22000,"station_id":"ce4bh192rcd13ifvqdc0","pricing_plan_id":"cebpf4jnsgd1na2vs0mg"},{"bike_id":"bccca57d-b464-436f-975f-a6b03bee09c6","system_id":"levelo_inurba_marseille","lat":43.25082,"lon":5.39528,"is_reserved":false,"is_disabled":false,"rental_uris":{"android":"levelo://app?vid=bccca57d-b464-436f-975f-a6b03bee09c6","ios":"levelo://app?vid=bccca57d-b464-436f-975f-a6b03bee09c6"},"vehicle_type_id":"4","last_reported":1751325016,"current_range_meters":22000,"station_id":"ce4bhm12rcd13ifvqgkg","pricing_plan_id":"cebpf4jnsgd1na2vs0mg"},{"bike_id":"835e9ca7-ba53-4349-aeb7-aeea6aab98f8","system_id":"levelo_inurba_marseille","lat":43.281589,"lon":5.426396,"is_reserved":false,"is_disabled":false,"rental_uris":{"android":"levelo://app?vid=835e9ca7-ba53-4349-aeb7-aeea6aab98f8","ios":"levelo://app?vid=835e9ca7-ba53-4349-aeb7-aeea6aab98f8"},"vehicle_type_id":"4","last_reported":1751325016,"current_range_meters":22000,"station_id":"ce4bhnh2rcd13ifvqgug","pricing_plan_id":"cebpf4jnsgd1na2vs0mg"},{"bike_id":"6668f4b1-9acc-4af5-b6c1-865efea33477","system_id":"levelo_inurba_marseille","lat":43.313385,"lon":5.367218,"is_reserved":false,"is_disabled":false,"rental_uris":{"android":"levelo://app?vid=6668f4b1-9acc-4af5-b6c1-865efea33477","ios":"levelo://app?vid=6668f4b1-9acc-4af5-b6c1-865efea33477"},"vehicle_type_id":"4","last_reported":1751325016,"current_range_meters":22400,"station_id":"ce4bgr92rcd13ifvqc6g","pricing_plan_id":"cebpf4jnsgd1na2vs0mg"},{"bike_id":"5874e202-d4a4-453b-a683-7ae1af5d78c8","system_id":"levelo_inurba_marseille","lat":43.31169,"lon":5.38708,"is_reserved":false,"is_disabled":false,"rental_uris":{"android":"levelo://app?vid=5874e202-d4a4-453b-a683-7ae1af5d78c8","ios":"levelo://app?vid=5874e202-d4a4-453b-a683-7ae1af5d78c8"},"vehicle_type_id":"4","last_reported":1751325016,"current_range_meters":22400,"station_id":"ce4bgv12rcd13ifvqcp0","pricing_plan_id":"cebpf4jnsgd1na2vs0mg"},{"bike_id":"e24f3557-5450-4913-a9cb-a8b073092416","system_id":"levelo_inurba_marseille","lat":43.31166,"lon":5.38716,"is_reserved":false,"is_disabled":false,"rental_uris":{"android":"levelo://app?vid=e24f3557-5450-4913-a9cb-a8b073092416","ios":"levelo://app?vid=e24f3557-5450-4913-a9cb-a8b073092416"},"vehicle_type_id":"4","last_reported":1751325016,"current_range_meters":22400,"station_id":"ce4bgv12rcd13ifvqcp0","pricing_plan_id":"cebpf4jnsgd1na2vs0mg"},{"bike_id":"a604321c-d3da-4f96-96eb-a9f2e908df51","system_id":"levelo_inurba_marseille","lat":43.274934,"lon":5.424414,"is_reserved":false,"is_disabled":false,"rental_uris":{"android":"levelo://app?vid=a604321c-d3da-4f96-96eb-a9f2e908df51","ios":"levelo://app?vid=a604321c-d3da-4f96-96eb-a9f2e908df51"},"vehicle_type_id":"4","last_reported":1751325016,"current_range_meters":22400,"station_id":"ce4bhn92rcd13ifvqgrg","pricing_plan_id":"cebpf4jnsgd1na2vs0mg"},{"bike_id":"8ba75751-6897-4b5f-994c-8346ca99dddd","system_id":"levelo_inurba_marseille","lat":43.326552,"lon":5.409905,"is_reserved":false,"is_disabled":false,"rental_uris":{"android":"levelo://app?vid=8ba75751-6897-4b5f-994c-8346ca99dddd","ios":"levelo://app?vid=8ba75751-6897-4b5f-994c-8346ca99dddd"},"vehicle_type_id":"4","last_reported":1751325016,"current_range_meters":22400,"station_id":"ce4bhpp2rcd13ifvqhgg","pricing_plan_id":"cebpf4jnsgd1na2vs0mg"},{"bike_id":"de51ba4a-cc8c-45b7-bb0f-801e91b4741f","system_id":"levelo_inurba_marseille","lat":43.268002,"lon":5.402756,"is_reserved":false,"is_disabled":false,"rental_uris":{"android":"levelo://app?vid=de51ba4a-cc8c-45b7-bb0f-801e91b4741f","ios":"levelo://app?vid=de51ba4a-cc8c-45b7-bb0f-801e91b4741f"},"vehicle_type_id":"4","last_reported":1751325016,"current_range_meters":22400,"station_id":"ce501612rcd8frsf0b60","pricing_plan_id":"cebpf4jnsgd1na2vs0mg"},{"bike_id":"d0f90c24-dd03-411b-9731-55305f76b7c8","system_id":"levelo_inurba_marseille","lat":43.21168,"lon":5.35102,"is_reserved":false,"is_disabled":false,"rental_uris":{"android":"levelo://app?vid=d0f90c24-dd03-411b-9731-55305f76b7c8","ios":"levelo://app?vid=d0f90c24-dd03-411b-9731-55305f76b7c8"},"vehicle_type_id":"4","last_reported":1751325016,"current_range_meters":22400,"station_id":"st_cvj6sg6p6f1abm77japg","pricing_plan_id":"cebpf4jnsgd1na2vs0mg"},{"bike_id":"7c3f9eb4-b638-4250-ad69-b0819d2fa803","system_id":"levelo_inurba_marseille","lat":43.30125,"lon":5.39874,"is_reserved":false,"is_disabled":false,"rental_uris":{"android":"levelo://app?vid=7c3f9eb4-b638-4250-ad69-b0819d2fa803","ios":"levelo://app?vid=7c3f9eb4-b638-4250-ad69-b0819d2fa803"},"vehicle_type_id":"4","last_reported":1751325016,"current_range_meters":22800,"station_id":"","pricing_plan_id":"cebpf4jnsgd1na2vs0mg"},{"bike_id":"60b598c1-abf5-4317-b567-56bf31a6f899","system_id":"levelo_inurba_marseille","lat":43.30252,"lon":5.4008,"is_reserved":false,"is_disabled":false,"rental_uris":{"android":"levelo://app?vid=60b598c1-abf5-4317-b567-56bf31a6f899","ios":"levelo://app?vid=60b598c1-abf5-4317-b567-56bf31a6f899"},"vehicle_type_id":"4","last_reported":1751325016,"current_range_meters":22800,"station_id":"ce4bgvh2rcd13ifvqcs0","pricing_plan_id":"cebpf4jnsgd1na2vs0mg"},{"bike_id":"10302077-9505-4609-8c1e-5cb2ec4dd5fb","system_id":"levelo_inurba_marseille","lat":43.24663,"lon":5.3815,"is_reserved":false,"is_disabled":false,"rental_uris":{"android":"levelo://app?vid=10302077-9505-4609-8c1e-5cb2ec4dd5fb","ios":"levelo://app?vid=10302077-9505-4609-8c1e-5cb2ec4dd5fb"},"vehicle_type_id":"4","last_reported":1751325016,"current_range_meters":22800,"station_id":"ce4bhih2rcd13ifvqfr0","pricing_plan_id":"cebpf4jnsgd1na2vs0mg"},{"bike_id":"81b9753f-aa28-4513-89a4-3ee72628d38d","system_id":"levelo_inurba_marseille","lat":43.32094,"lon":5.36774,"is_reserved":false,"is_disabled":false,"rental_uris":{"android":"levelo://app?vid=81b9753f-aa28-4513-89a4-3ee72628d38d","ios":"levelo://app?vid=81b9753f-aa28-4513-89a4-3ee72628d38d"},"vehicle_type_id":"4","last_reported":1751325016,"current_range_meters":22800,"station_id":"ce4bhrh2rcd13ifvqhug","pricing_plan_id":"cebpf4jnsgd1na2vs0mg"},{"bike_id":"16a8afe6-e43e-4d1b-a7bd-ed83d113735a","system_id":"levelo_inurba_marseille","lat":43.32436,"lon":5.41185,"is_reserved":false,"is_disabled":false,"rental_uris":{"android":"levelo://app?vid=16a8afe6-e43e-4d1b-a7bd-ed83d113735a","ios":"levelo://app?vid=16a8afe6-e43e-4d1b-a7bd-ed83d113735a"},"vehicle_type_id":"4","last_reported":1751325016,"current_range_meters":23200,"station_id":"","pricing_plan_id":"cebpf4jnsgd1na2vs0mg"},{"bike_id":"dbe6a7d8-6edc-4015-8658-f68eeb46a661","system_id":"levelo_inurba_marseille","lat":43.33474,"lon":5.39976,"is_reserved":false,"is_disabled":false,"rental_uris":{"android":"levelo://app?vid=dbe6a7d8-6edc-4015-8658-f68eeb46a661","ios":"levelo://app?vid=dbe6a7d8-6edc-4015-8658-f68eeb46a661"},"vehicle_type_id":"4","last_reported":1751325016,"current_range_meters":23200,"station_id":"","pricing_plan_id":"cebpf4jnsgd1na2vs0mg"},{"bike_id":"cbf52a0c-a647-4b5d-a233-68a6b571bc96","system_id":"levelo_inurba_marseille","lat":43.30796,"lon":5.38156,"is_reserved":false,"is_disabled":false,"rental_uris":{"android":"levelo://app?vid=cbf52a0c-a647-4b5d-a233-68a6b571bc96","ios":"levelo://app?vid=cbf52a0c-a647-4b5d-a233-68a6b571bc96"},"vehicle_type_id":"4","last_reported":1751325016,"current_range_meters":23200,"station_id":"ce4bgt12rcd13ifvqce0","pricing_plan_id":"cebpf4jnsgd1na2vs0mg"},{"bike_id":"a189ddb0-faf4-409e-a0be-2ca2f8c01715","system_id":"levelo_inurba_marseille","lat":43.31358,"lon":5.38484,"is_reserved":false,"is_disabled":false,"rental_uris":{"android":"levelo://app?vid=a189ddb0-faf4-409e-a0be-2ca2f8c01715","ios":"levelo://app?vid=a189ddb0-faf4-409e-a0be-2ca2f8c01715"},"vehicle_type_id":"4","last_reported":1751325016,"current_range_meters":23200,"station_id":"ce4bgt92rcd13ifvqcf0","pricing_plan_id":"cebpf4jnsgd1na2vs0mg"},{"bike_id":"629dafe4-3451-41f2-9e50-54581b291ab0","system_id":"levelo_inurba_marseille","lat":43.311143,"lon":5.377882,"is_reserved":false,"is_disabled":false,"rental_uris":{"android":"levelo://app?vid=629dafe4-3451-41f2-9e50-54581b291ab0","ios":"levelo://app?vid=629dafe4-3451-41f2-9e50-54581b291ab0"},"vehicle_type_id":"4","last_reported":1751325016,"current_range_meters":23200,"station_id":"ce4bgt92rcd13ifvqcg0","pricing_plan_id":"cebpf4jnsgd1na2vs0mg"},{"bike_id":"3310b076-46fd-42a3-ace4-2508aba652fb","system_id":"levelo_inurba_marseille","lat":43.28711,"lon":5.3794,"is_reserved":false,"is_disabled":false,"rental_uris":{"android":"levelo://app?vid=3310b076-46fd-42a3-ace4-2508aba652fb","ios":"levelo://app?vid=3310b076-46fd-42a3-ace4-2508aba652fb"},"vehicle_type_id":"4","last_reported":1751325016,"current_range_meters":23200,"station_id":"ce4bh9p2rcd13ifvqec0","pricing_plan_id":"cebpf4jnsgd1na2vs0mg"},{"bike_id":"08c2af53-535d-4f9f-bb55-d647eb8cf08f","system_id":"levelo_inurba_marseille","lat":43.240663,"lon":5.377611,"is_reserved":false,"is_disabled":false,"rental_uris":{"android":"levelo://app?vid=08c2af53-535d-4f9f-bb55-d647eb8cf08f","ios":"levelo://app?vid=08c2af53-535d-4f9f-bb55-d647eb8cf08f"},"vehicle_type_id":"4","last_reported":1751325016,"current_range_meters":23200,"station_id":"ce4bhnp2rcd13ifvqgvg","pricing_plan_id":"cebpf4jnsgd1na2vs0mg"},{"bike_id":"68734e6d-f813-4b13-bfa5-58eb7b3acd65","system_id":"levelo_inurba_marseille","lat":43.318817,"lon":5.407483,"is_reserved":false,"is_disabled":false,"rental_uris":{"android":"levelo://app?vid=68734e6d-f813-4b13-bfa5-58eb7b3acd65","ios":"levelo://app?vid=68734e6d-f813-4b13-bfa5-58eb7b3acd65"},"vehicle_type_id":"4","last_reported":1751325016,"current_range_meters":23200,"station_id":"ce4bhq12rcd13ifvqhig","pricing_plan_id":"cebpf4jnsgd1na2vs0mg"},{"bike_id":"5c3fcb2c-7de9-4630-8123-1d366ee66383","system_id":"levelo_inurba_marseille","lat":43.286865,"lon":5.373989,"is_reserved":false,"is_disabled":false,"rental_uris":{"android":"levelo://app?vid=5c3fcb2c-7de9-4630-8123-1d366ee66383","ios":"levelo://app?vid=5c3fcb2c-7de9-4630-8123-1d366ee66383"},"vehicle_type_id":"4","last_reported":1751325016,"current_range_meters":24000,"station_id":"","pricing_plan_id":"cebpf4jnsgd1na2vs0mg"},{"bike_id":"cf8300b0-9f1f-482d-b996-7681ee658d7b","system_id":"levelo_inurba_marseille","lat":43.319756,"lon":5.380008,"is_reserved":false,"is_disabled":false,"rental_uris":{"android":"levelo://app?vid=cf8300b0-9f1f-482d-b996-7681ee658d7b","ios":"levelo://app?vid=cf8300b0-9f1f-482d-b996-7681ee658d7b"},"vehicle_type_id":"4","last_reported":1751325016,"current_range_meters":24000,"station_id":"","pricing_plan_id":"cebpf4jnsgd1na2vs0mg"},{"bike_id":"50992241-98cd-47d8-9726-3b37079ceb25","system_id":"levelo_inurba_marseille","lat":43.285156,"lon":5.385416,"is_reserved":false,"is_disabled":false,"rental_uris":{"android":"levelo://app?vid=50992241-98cd-47d8-9726-3b37079ceb25","ios":"levelo://app?vid=50992241-98cd-47d8-9726-3b37079ceb25"},"vehicle_type_id":"4","last_reported":1751325016,"current_range_meters":24000,"station_id":"","pricing_plan_id":"cebpf4jnsgd1na2vs0mg"},{"bike_id":"27d3ed94-9794-43c5-b411-63166ee4fe18","system_id":"levelo_inurba_marseille","lat":43.28713,"lon":5.37396,"is_reserved":false,"is_disabled":false,"rental_uris":{"android":"levelo://app?vid=27d3ed94-9794-43c5-b411-63166ee4fe18","ios":"levelo://app?vid=27d3ed94-9794-43c5-b411-63166ee4fe18"},"vehicle_type_id":"4","last_reported":1751325016,"current_range_meters":24000,"station_id":"ce4bh3p2rcd13ifvqdq0","pricing_plan_id":"cebpf4jnsgd1na2vs0mg"},{"bike_id":"886b40c3-675c-475e-a5dc-db591e669a1d","system_id":"levelo_inurba_marseille","lat":43.28723,"lon":5.37936,"is_reserved":false,"is_disabled":false,"rental_uris":{"android":"levelo://app?vid=886b40c3-675c-475e-a5dc-db591e669a1d","ios":"levelo://app?vid=886b40c3-675c-475e-a5dc-db591e669a1d"},"vehicle_type_id":"4","last_reported":1751325016,"current_range_meters":24000,"station_id":"ce4bh9p2rcd13ifvqec0","pricing_plan_id":"cebpf4jnsgd1na2vs0mg"},{"bike_id":"d950976e-6ed2-4d61-8faf-c5f8920c89c1","system_id":"levelo_inurba_marseille","lat":43.282799,"lon":5.350714,"is_reserved":false,"is_disabled":false,"rental_uris":{"android":"levelo://app?vid=d950976e-6ed2-4d61-8faf-c5f8920c89c1","ios":"levelo://app?vid=d950976e-6ed2-4d61-8faf-c5f8920c89c1"},"vehicle_type_id":"4","last_reported":1751325016,"current_range_meters":24000,"station_id":"ce4bhbp2rcd13ifvqerg","pricing_plan_id":"cebpf4jnsgd1na2vs0mg"},{"bike_id":"ff0d5132-8169-4f83-bd24-477c8a8930a0","system_id":"levelo_inurba_marseille","lat":43.26173,"lon":5.40503,"is_reserved":false,"is_disabled":false,"rental_uris":{"android":"levelo://app?vid=ff0d5132-8169-4f83-bd24-477c8a8930a0","ios":"levelo://app?vid=ff0d5132-8169-4f83-bd24-477c8a8930a0"},"vehicle_type_id":"4","last_reported":1751325016,"current_range_meters":24000,"station_id":"ce4bhmh2rcd13ifvqgmg","pricing_plan_id":"cebpf4jnsgd1na2vs0mg"},{"bike_id":"b6cd20cd-88ff-48c9-be4d-0841423d05d0","system_id":"levelo_inurba_marseille","lat":43.29886,"lon":5.43685,"is_reserved":false,"is_disabled":false,"rental_uris":{"android":"levelo://app?vid=b6cd20cd-88ff-48c9-be4d-0841423d05d0","ios":"levelo://app?vid=b6cd20cd-88ff-48c9-be4d-0841423d05d0"},"vehicle_type_id":"4","last_reported":1751325016,"current_range_meters":24000,"station_id":"ce4bhpp2rcd13ifvqhfg","pricing_plan_id":"cebpf4jnsgd1na2vs0mg"},{"bike_id":"d04ebb7b-386e-4d00-8fd9-c4126b7c64e3","system_id":"levelo_inurba_marseille","lat":43.31897,"lon":5.4073,"is_reserved":false,"is_disabled":false,"rental_uris":{"android":"levelo://app?vid=d04ebb7b-386e-4d00-8fd9-c4126b7c64e3","ios":"levelo://app?vid=d04ebb7b-386e-4d00-8fd9-c4126b7c64e3"},"vehicle_type_id":"4","last_reported":1751325016,"current_range_meters":24000,"station_id":"ce4bhq12rcd13ifvqhig","pricing_plan_id":"cebpf4jnsgd1na2vs0mg"},{"bike_id":"e36b7219-2510-425a-a146-702b7e71350e","system_id":"levelo_inurba_marseille","lat":43.297791,"lon":5.393349,"is_reserved":false,"is_disabled":false,"rental_uris":{"android":"levelo://app?vid=e36b7219-2510-425a-a146-702b7e71350e","ios":"levelo://app?vid=e36b7219-2510-425a-a146-702b7e71350e"},"vehicle_type_id":"4","last_reported":1751325016,"current_range_meters":24000,"station_id":"chh1huq6cuj3fo74tm60","pricing_plan_id":"cebpf4jnsgd1na2vs0mg"},{"bike_id":"09a94feb-8911-4d3d-9f22-a7f611710ea1","system_id":"levelo_inurba_marseille","lat":43.21183,"lon":5.35075,"is_reserved":false,"is_disabled":false,"rental_uris":{"android":"levelo://app?vid=09a94feb-8911-4d3d-9f22-a7f611710ea1","ios":"levelo://app?vid=09a94feb-8911-4d3d-9f22-a7f611710ea1"},"vehicle_type_id":"4","last_reported":1751325016,"current_range_meters":24000,"station_id":"st_cvj6sg6p6f1abm77japg","pricing_plan_id":"cebpf4jnsgd1na2vs0mg"},{"bike_id":"8bf0d992-d2a0-428e-940a-091ee9b7c2a4","system_id":"levelo_inurba_marseille","lat":43.21232,"lon":5.3504,"is_reserved":false,"is_disabled":false,"rental_uris":{"android":"levelo://app?vid=8bf0d992-d2a0-428e-940a-091ee9b7c2a4","ios":"levelo://app?vid=8bf0d992-d2a0-428e-940a-091ee9b7c2a4"},"vehicle_type_id":"4","last_reported":1751325016,"current_range_meters":24400,"station_id":"","pricing_plan_id":"cebpf4jnsgd1na2vs0mg"},{"bike_id":"7e62b058-a7ed-4634-80f1-04d3de596de7","system_id":"levelo_inurba_marseille","lat":43.29883,"lon":5.3684,"is_reserved":false,"is_disabled":false,"rental_uris":{"android":"levelo://app?vid=7e62b058-a7ed-4634-80f1-04d3de596de7","ios":"levelo://app?vid=7e62b058-a7ed-4634-80f1-04d3de596de7"},"vehicle_type_id":"4","last_reported":1751325016,"current_range_meters":24400,"station_id":"","pricing_plan_id":"cebpf4jnsgd1na2vs0mg"},{"bike_id":"12968da4-6587-4337-b41d-8c292aea852f","system_id":"levelo_inurba_marseille","lat":43.297803,"lon":5.381016,"is_reserved":false,"is_disabled":false,"rental_uris":{"android":"levelo://app?vid=12968da4-6587-4337-b41d-8c292aea852f","ios":"levelo://app?vid=12968da4-6587-4337-b41d-8c292aea852f"},"vehicle_type_id":"4","last_reported":1751325016,"current_range_meters":24400,"station_id":"","pricing_plan_id":"cebpf4jnsgd1na2vs0mg"},