{"last_updated":1679259940,"ttl":30,"version":"2.2","data":{"bikes":[{"bike_id":"438a0e52-831f-4bfc-881f-407d8d3b351c","system_id":"levelo_inurba_marseille","lat":43.312239,"lon":5.368562,"is_reserved":false,"is_disabled":false,"rental_uris":{"android":"levelo://app?vid=438a0e52-831f-4bfc-881f-407d8d3b351c","ios":"levelo://app?vid=438a0e52-831f-4bfc-881f-407d8d3b351c"},"vehicle_type_id":"4","last_reported":1679259941,"current_range_meters":400,"station_id":"ce4bgl92rcd13ifvqbq0","pricing_plan_id":"free"},{"bike_id":"d1d53a01-2978-4949-a6a4-ad0cca60a10b","system_id":"levelo_inurba_marseille","lat":43.31221,"lon":5.36862,"is_reserved":false,"is_disabled":false,"rental_uris":{"android":"levelo://app?vid=d1d53a01-2978-4949-a6a4-ad0cca60a10b","ios":"levelo://app?vid=d1d53a01-2978-4949-a6a4-ad0cca60a10b"},"vehicle_type_id":"4","last_reported":1679259941,"current_range_meters":10400,"station_id":"ce4bgl92rcd13ifvqbq0","pricing_plan_id":"free"},{"bike_id":"647590c1-72a5-4adf-8cfc-b6b9648afb66","system_id":"levelo_inurba_marseille","lat":43.31486,"lon":5.37307,"is_reserved":false,"is_disabled":false,"rental_uris":{"android":"levelo://app?vid=647590c1-72a5-4adf-8cfc-b6b9648afb66","ios":"levelo://app?vid=647590c1-72a5-4adf-8cfc-b6b9648afb66"},"vehicle_type_id":"4","last_reported":1679259941,"current_range_meters":6800,"station_id":"","pricing_plan_id":"free"},{"bike_id":"88d83271-896b-4d1a-9a1a-199a7fc7d556","system_id":"levelo_inurba_marseille","lat":43.314811,"lon":5.373103,"is_reserved":false,"is_disabled":false,"rental_uris":{"android":"levelo://app?vid=88d83271-896b-4d1a-9a1a-199a7fc7d556","ios":"levelo://app?vid=88d83271-896b-4d1a-9a1a-199a7fc7d556"},"vehicle_type_id":"4","last_reported":1679259941,"current_range_meters":9600,"station_id":"ce4bgt12rcd13ifvqcd0","pricing_plan_id":"free"},{"bike_id":"050cc297-ddd7-4817-8deb-3bb353d1051c","system_id":"levelo_inurba_marseille","lat":43.30882,"lon":5.37192,"is_reserved":false,"is_disabled":false,"rental_uris":{"android":"levelo://app?vid=050cc297-ddd7-4817-8deb-3bb353d1051c","ios":"levelo://app?vid=050cc297-ddd7-4817-8deb-3bb353d1051c"},"vehicle_type_id":"4","last_reported":1679259941,"current_range_meters":0,"station_id":"","pricing_plan_id":"free"},{"bike_id":"87ed0d44-23a5-443a-b7d9-7a2cdb73f737","system_id":"levelo_inurba_marseille","lat":43.305343,"lon":5.367075,"is_reserved":false,"is_disabled":false,"rental_uris":{"android":"levelo://app?vid=87ed0d44-23a5-443a-b7d9-7a2cdb73f737","ios":"levelo://app?vid=87ed0d44-23a5-443a-b7d9-7a2cdb73f737"},"vehicle_type_id":"4","last_reported":1679259941,"current_range_meters":4400,"station_id":"","pricing_plan_id":"free"},{"bike_id":"0beac2b4-d832-4f58-bc25-b3d80562cc40","system_id":"levelo_inurba_marseille","lat":43.30611,"lon":5.37231,"is_reserved":false,"is_disabled":false,"rental_uris":{"android":"levelo://app?vid=0beac2b4-d832-4f58-bc25-b3d80562cc40","ios":"levelo://app?vid=0beac2b4-d832-4f58-bc25-b3d80562cc40"},"vehicle_type_id":"4","last_reported":1679259941,"current_range_meters":27200,"station_id":"ce4bgqh2rcd13ifvqc4g","pricing_plan_id":"free"},{"bike_id":"a90baea1-d832-4860-b738-8333df8e6649","system_id":"levelo_inurba_marseille","lat":43.317075,"lon":5.377367,"is_reserved":false,"is_disabled":false,"rental_uris":{"android":"levelo://app?vid=a90baea1-d832-4860-b738-8333df8e6649","ios":"levelo://app?vid=a90baea1-d832-4860-b738-8333df8e6649"},"vehicle_type_id":"4","last_reported":1679259941,"current_range_meters":7600,"station_id":"ce4bgth2rcd13ifvqch0","pricing_plan_id":"free"},{"bike_id":"5fd19675-1d7d-49a3-a625-ceb7b3fac817","system_id":"levelo_inurba_marseille","lat":43.317075,"lon":5.377367,"is_reserved":false,"is_disabled":false,"rental_uris":{"android":"levelo://app?vid=5fd19675-1d7d-49a3-a625-ceb7b3fac817","ios":"levelo://app?vid=5fd19675-1d7d-49a3-a625-ceb7b3fac817"},"vehicle_type_id":"4","last_reported":1679259941,"current_range_meters":11200,"station_id":"ce4bgth2rcd13ifvqch0","pricing_plan_id":"free"},{"bike_id":"30a66106-dfca-45e6-a61b-20fe6e89e756","system_id":"levelo_inurba_marseille","lat":43.317075,"lon":5.377367,"is_reserved":false,"is_disabled":false,"rental_uris":{"android":"levelo://app?vid=30a66106-dfca-45e6-a61b-20fe6e89e756","ios":"levelo://app?vid=30a66106-dfca-45e6-a61b-20fe6e89e756"},"vehicle_type_id":"4","last_reported":1679259941,"current_range_meters":2800,"station_id":"ce4bgth2rcd13ifvqch0","pricing_plan_id":"free"},{"bike_id":"4e6fea43-a84e-480c-a0c8-d11b281bd231","system_id":"levelo_inurba_marseille","lat":43.305485,"lon":5.376145,"is_reserved":false,"is_disabled":false,"rental_uris":{"android":"levelo://app?vid=4e6fea43-a84e-480c-a0c8-d11b281bd231","ios":"levelo://app?vid=4e6fea43-a84e-480c-a0c8-d11b281bd231"},"vehicle_type_id":"4","last_reported":1679259941,"current_range_meters":4000,"station_id":"","pricing_plan_id":"free"},{"bike_id":"65a03aa4-9a29-43f7-a298-87699747a243","system_id":"levelo_inurba_marseille","lat":43.30859,"lon":5.380778,"is_reserved":false,"is_disabled":false,"rental_uris":{"android":"levelo://app?vid=65a03aa4-9a29-43f7-a298-87699747a243","ios":"levelo://app?vid=65a03aa4-9a29-43f7-a298-87699747a243"},"vehicle_type_id":"4","last_reported":1679259941,"current_range_meters":0,"station_id":"","pricing_plan_id":"free"},{"bike_id":"ecedca64-ac57-4f6e-b440-d0efd3de68e9","system_id":"levelo_inurba_marseille","lat":43.301939,"lon":5.366286,"is_reserved":false,"is_disabled":false,"rental_uris":{"android":"levelo://app?vid=ecedca64-ac57-4f6e-b440-d0efd3de68e9","ios":"levelo://app?vid=ecedca64-ac57-4f6e-b440-d0efd3de68e9"},"vehicle_type_id":"4","last_reported":1679259941,"current_range_meters":13200,"station_id":"ce4bgrh2rcd13ifvqc8g","pricing_plan_id":"free"},{"bike_id":"836cb766-0b83-493b-96c2-571d0df0d4fa","system_id":"levelo_inurba_marseille","lat":43.308012,"lon":5.381511,"is_reserved":false,"is_disabled":false,"rental_uris":{"android":"levelo://app?vid=836cb766-0b83-493b-96c2-571d0df0d4fa","ios":"levelo://app?vid=836cb766-0b83-493b-96c2-571d0df0d4fa"},"vehicle_type_id":"4","last_reported":1679259941,"current_range_meters":3600,"station_id":"ce4bgt12rcd13ifvqce0","pricing_plan_id":"free"},{"bike_id":"f14a7db1-247f-4a66-a689-9a828c067b8a","system_id":"levelo_inurba_marseille","lat":43.313571,"lon":5.384829,"is_reserved":false,"is_disabled":false,"rental_uris":{"android":"levelo://app?vid=f14a7db1-247f-4a66-a689-9a828c067b8a","ios":"levelo://app?vid=f14a7db1-247f-4a66-a689-9a828c067b8a"},"vehicle_type_id":"4","last_reported":1679259941,"current_range_meters":20400,"station_id":"ce4bgt92rcd13ifvqcf0","pricing_plan_id":"free"},{"bike_id":"25686d9e-e43a-4c4d-a693-05294dd88c4f","system_id":"levelo_inurba_marseille","lat":43.29838,"lon":5.362637,"is_reserved":false,"is_disabled":false,"rental_uris":{"android":"levelo://app?vid=25686d9e-e43a-4c4d-a693-05294dd88c4f","ios":"levelo://app?vid=25686d9e-e43a-4c4d-a693-05294dd88c4f"},"vehicle_type_id":"4","last_reported":1679259941,"current_range_meters":6000,"station_id":"","pricing_plan_id":"free"},{"bike_id":"1f50a77f-c815-47d0-9a95-4aa1a7265cee","system_id":"levelo_inurba_marseille","lat":43.311722,"lon":5.387247,"is_reserved":false,"is_disabled":false,"rental_uris":{"android":"levelo://app?vid=1f50a77f-c815-47d0-9a95-4aa1a7265cee","ios":"levelo://app?vid=1f50a77f-c815-47d0-9a95-4aa1a7265cee"},"vehicle_type_id":"4","last_reported":1679259941,"current_range_meters":15600,"station_id":"ce4bgv12rcd13ifvqcp0","pricing_plan_id":"free"},{"bike_id":"04828532-ba93-4038-a742-9ab68a2bcc6b","system_id":"levelo_inurba_marseille","lat":43.311722,"lon":5.387247,"is_reserved":false,"is_disabled":false,"rental_uris":{"android":"levelo://app?vid=04828532-ba93-4038-a742-9ab68a2bcc6b","ios":"levelo://app?vid=04828532-ba93-4038-a742-9ab68a2bcc6b"},"vehicle_type_id":"4","last_reported":1679259941,"current_range_meters":20400,"station_id":"ce4bgv12rcd13ifvqcp0","pricing_plan_id":"free"},{"bike_id":"7b38ce2a-d95e-4fe6-82ed-235640470951","system_id":"levelo_inurba_marseille","lat":43.328371,"lon":5.366909,"is_reserved":false,"is_disabled":false,"rental_uris":{"android":"levelo://app?vid=7b38ce2a-d95e-4fe6-82ed-235640470951","ios":"levelo://app?vid=7b38ce2a-d95e-4fe6-82ed-235640470951"},"vehicle_type_id":"4","last_reported":1679259941,"current_range_meters":9200,"station_id":"ce4bhs92rcd13ifvqi0g","pricing_plan_id":"free"},{"bike_id":"f79fc366-a3ec-48e5-aa42-45166ee1f331","system_id":"levelo_inurba_marseille","lat":43.29681,"lon":5.37293,"is_reserved":false,"is_disabled":false,"rental_uris":{"android":"levelo://app?vid=f79fc366-a3ec-48e5-aa42-45166ee1f331","ios":"levelo://app?vid=f79fc366-a3ec-48e5-aa42-45166ee1f331"},"vehicle_type_id":"4","last_reported":1679259941,"current_range_meters":0,"station_id":"","pricing_plan_id":"free"},{"bike_id":"d8138fa9-3eed-4446-86bd-aac2e2d19b66","system_id":"levelo_inurba_marseille","lat":43.296813,"lon":5.372967,"is_reserved":false,"is_disabled":false,"rental_uris":{"android":"levelo://app?vid=d8138fa9-3eed-4446-86bd-aac2e2d19b66","ios":"levelo://app?vid=d8138fa9-3eed-4446-86bd-aac2e2d19b66"},"vehicle_type_id":"4","last_reported":1679259941,"current_range_meters":16400,"station_id":"","pricing_plan_id":"free"},{"bike_id":"013d55aa-dde2-4987-9af5-784f54551cab","system_id":"levelo_inurba_marseille","lat":43.32842,"lon":5.37534,"is_reserved":false,"is_disabled":false,"rental_uris":{"android":"levelo://app?vid=013d55aa-dde2-4987-9af5-784f54551cab","ios":"levelo://app?vid=013d55aa-dde2-4987-9af5-784f54551cab"},"vehicle_type_id":"4","last_reported":1679259941,"current_range_meters":7200,"station_id":"","pricing_plan_id":"free"},{"bike_id":"218031da-e57a-4bad-a01c-f4d0db60befc","system_id":"levelo_inurba_marseille","lat":43.29573,"lon":5.367355,"is_reserved":false,"is_disabled":false,"rental_uris":{"android":"levelo://app?vid=218031da-e57a-4bad-a01c-f4d0db60befc","ios":"levelo://app?vid=218031da-e57a-4bad-a01c-f4d0db60befc"},"vehicle_type_id":"4","last_reported":1679259941,"current_range_meters":3600,"station_id":"ce4bgph2rcd13ifvqc2g","pricing_plan_id":"free"},{"bike_id":"03bd547c-9bda-4b7d-8704-53e2a98a820b","system_id":"levelo_inurba_marseille","lat":43.309589,"lon":5.390258,"is_reserved":false,"is_disabled":false,"rental_uris":{"android":"levelo://app?vid=03bd547c-9bda-4b7d-8704-53e2a98a820b","ios":"levelo://app?vid=03bd547c-9bda-4b7d-8704-53e2a98a820b"},"vehicle_type_id":"4","last_reported":1679259941,"current_range_meters":400,"station_id":"ce4bgup2rcd13ifvqco0","pricing_plan_id":"free"},{"bike_id":"9dd46a1f-549f-4e6a-9388-b19070774e1a","system_id":"levelo_inurba_marseille","lat":43.309589,"lon":5.390258,"is_reserved":false,"is_disabled":false,"rental_uris":{"android":"levelo://app?vid=9dd46a1f-549f-4e6a-9388-b19070774e1a","ios":"levelo://app?vid=9dd46a1f-549f-4e6a-9388-b19070774e1a"},"vehicle_type_id":"4","last_reported":1679259941,"current_range_meters":24000,"station_id":"ce4bgup2rcd13ifvqco0","pricing_plan_id":"free"},{"bike_id":"d2806991-aca0-4e2f-823e-8c134a702787","system_id":"levelo_inurba_marseille","lat":43.31758,"lon":5.39011,"is_reserved":false,"is_disabled":false,"rental_uris":{"android":"levelo://app?vid=d2806991-aca0-4e2f-823e-8c134a702787","ios":"levelo://app?vid=d2806991-aca0-4e2f-823e-8c134a702787"},"vehicle_type_id":"4","last_reported":1679259941,"current_range_meters":12800,"station_id":"ce4bhqp2rcd13ifvqhng","pricing_plan_id":"free"},{"bike_id":"8f0253d3-dd17-42cf-841b-2d4082d06618","system_id":"levelo_inurba_marseille","lat":43.298037,"lon":5.380921,"is_reserved":false,"is_disabled":false,"rental_uris":{"android":"levelo://app?vid=8f0253d3-dd17-42cf-841b-2d4082d06618","ios":"levelo://app?vid=8f0253d3-dd17-42cf-841b-2d4082d06618"},"vehicle_type_id":"4","last_reported":1679259941,"current_range_meters":0,"station_id":"ce4bgip2rcd13ifvqbb0","pricing_plan_id":"free"},{"bike_id":"d90fab33-dca8-49bc-a52a-f0faf74c6f4c","system_id":"levelo_inurba_marseille","lat":43.297921,"lon":5.380744,"is_reserved":false,"is_disabled":false,"rental_uris":{"android":"levelo://app?vid=d90fab33-dca8-49bc-a52a-f0faf74c6f4c","ios":"levelo://app?vid=d90fab33-dca8-49bc-a52a-f0faf74c6f4c"},"vehicle_type_id":"4","last_reported":1679259941,"current_range_meters":5600,"station_id":"ce4bgip2rcd13ifvqbb0","pricing_plan_id":"free"},{"bike_id":"0e04e4ad-fc5b-4c29-a382-4d082ae503af","system_id":"levelo_inurba_marseille","lat":43.29803,"lon":5.38111,"is_reserved":false,"is_disabled":false,"rental_uris":{"android":"levelo://app?vid=0e04e4ad-fc5b-4c29-a382-4d082ae503af","ios":"levelo://app?vid=0e04e4ad-fc5b-4c29-a382-4d082ae503af"},"vehicle_type_id":"4","last_reported":1679259941,"current_range_meters":24400,"station_id":"","pricing_plan_id":"free"},{"bike_id":"8f0ad1aa-e08e-477b-9b3b-91b84b9d04e1","system_id":"levelo_inurba_marseille","lat":43.30428,"lon":5.38877,"is_reserved":false,"is_disabled":false,"rental_uris":{"android":"levelo://app?vid=8f0ad1aa-e08e-477b-9b3b-91b84b9d04e1","ios":"levelo://app?vid=8f0ad1aa-e08e-477b-9b3b-91b84b9d04e1"},"vehicle_type_id":"4","last_reported":1679259941,"current_range_meters":13600,"station_id":"ce4bgk12rcd13ifvqbi0","pricing_plan_id":"free"},{"bike_id":"dc2a66cb-9f68-41ff-afd4-106736553a96","system_id":"levelo_inurba_marseille","lat":43.32363,"lon":5.38884,"is_reserved":false,"is_disabled":false,"rental_uris":{"android":"levelo://app?vid=dc2a66cb-9f68-41ff-afd4-106736553a96","ios":"levelo://app?vid=dc2a66cb-9f68-41ff-afd4-106736553a96"},"vehicle_type_id":"4","last_reported":1679259941,"current_range_meters":7200,"station_id":"","pricing_plan_id":"free"},{"bike_id":"cea4a03a-e515-4d25-a56d-fccc2b4996fd","system_id":"levelo_inurba_marseille","lat":43.323637,"lon":5.388853,"is_reserved":false,"is_disabled":false,"rental_uris":{"android":"levelo://app?vid=cea4a03a-e515-4d25-a56d-fccc2b4996fd","ios":"levelo://app?vid=cea4a03a-e515-4d25-a56d-fccc2b4996fd"},"vehicle_type_id":"4","last_reported":1679259941,"current_range_meters":0,"station_id":"","pricing_plan_id":"free"},{"bike_id":"25a690a1-8ce6-46a3-bda6-cea29969af9d","system_id":"levelo_inurba_marseille","lat":43.32362,"lon":5.38887,"is_reserved":false,"is_disabled":false,"rental_uris":{"android":"levelo://app?vid=25a690a1-8ce6-46a3-bda6-cea29969af9d","ios":"levelo://app?vid=25a690a1-8ce6-46a3-bda6-cea29969af9d"},"vehicle_type_id":"4","last_reported":1679259941,"current_range_meters":2800,"station_id":"","pricing_plan_id":"free"},{"bike_id":"c97df904-3ae9-4d69-937d-efcf85a8a2a5","system_id":"levelo_inurba_marseille","lat":43.32366,"lon":5.38893,"is_reserved":false,"is_disabled":false,"rental_uris":{"android":"levelo://app?vid=c97df904-3ae9-4d69-937d-efcf85a8a2a5","ios":"levelo://app?vid=c97df904-3ae9-4d69-937d-efcf85a8a2a5"},"vehicle_type_id":"4","last_reported":1679259941,"current_range_meters":0,"station_id":"","pricing_plan_id":"free"},{"bike_id":"a7c9c825-6c67-40ef-a66e-ee6e04cb45db","system_id":"levelo_inurba_marseille","lat":43.293249,"lon":5.371578,"is_reserved":false,"is_disabled":false,"rental_uris":{"android":"levelo://app?vid=a7c9c825-6c67-40ef-a66e-ee6e04cb45db","ios":"levelo://app?vid=a7c9c825-6c67-40ef-a66e-ee6e04cb45db"},"vehicle_type_id":"4","last_reported":1679259941,"current_range_meters":400,"station_id":"ce4bgh92rcd13ifvqb40","pricing_plan_id":"free"},{"bike_id":"8a507086-3444-4ed9-b2ea-b6f2afff32a0","system_id":"levelo_inurba_marseille","lat":43.300124,"lon":5.388969,"is_reserved":false,"is_disabled":false,"rental_uris":{"android":"levelo://app?vid=8a507086-3444-4ed9-b2ea-b6f2afff32a0","ios":"levelo://app?vid=8a507086-3444-4ed9-b2ea-b6f2afff32a0"},"vehicle_type_id":"4","last_reported":1679259941,"current_range_meters":0,"station_id":"","pricing_plan_id":"free"},{"bike_id":"4b8164cf-9f03-4bdf-89e3-f717a628b5e6","system_id":"levelo_inurba_marseille","lat":43.292311,"lon":5.360731,"is_reserved":false,"is_disabled":false,"rental_uris":{"android":"levelo://app?vid=4b8164cf-9f03-4bdf-89e3-f717a628b5e6","ios":"levelo://app?vid=4b8164cf-9f03-4bdf-89e3-f717a628b5e6"},"vehicle_type_id":"4","last_reported":1679259941,"current_range_meters":19600,"station_id":"ce4bhbh2rcd13ifvqeqg","pricing_plan_id":"free"},{"bike_id":"d88a6ad3-4c42-45af-8c1a-7cd35290aa61","system_id":"levelo_inurba_marseille","lat":43.300852,"lon":5.390859,"is_reserved":false,"is_disabled":false,"rental_uris":{"android":"levelo://app?vid=d88a6ad3-4c42-45af-8c1a-7cd35290aa61","ios":"levelo://app?vid=d88a6ad3-4c42-45af-8c1a-7cd35290aa61"},"vehicle_type_id":"4","last_reported":1679259941,"current_range_meters":0,"station_id":"ce4bh192rcd13ifvqdb0","pricing_plan_id":"free"},{"bike_id":"d3428953-8929-429e-a382-eb984c3c2ab4","system_id":"levelo_inurba_marseille","lat":43.313291,"lon":5.396838,"is_reserved":false,"is_disabled":false,"rental_uris":{"android":"levelo://app?vid=d3428953-8929-429e-a382-eb984c3c2ab4","ios":"levelo://app?vid=d3428953-8929-429e-a382-eb984c3c2ab4"},"vehicle_type_id":"4","last_reported":1679259941,"current_range_meters":0,"station_id":"ce4bgvp2rcd13ifvqcu0","pricing_plan_id":"free"},{"bike_id":"b2b00d11-4fa9-4d2e-88a8-9a24ccf7d766","system_id":"levelo_inurba_marseille","lat":43.313291,"lon":5.396838,"is_reserved":false,"is_disabled":false,"rental_uris":{"android":"levelo://app?vid=b2b00d11-4fa9-4d2e-88a8-9a24ccf7d766","ios":"levelo://app?vid=b2b00d11-4fa9-4d2e-88a8-9a24ccf7d766"},"vehicle_type_id":"4","last_reported":1679259941,"current_range_meters":8800,"station_id":"ce4bgvp2rcd13ifvqcu0","pricing_plan_id":"free"},{"bike_id":"44f7d5af-0afb-4c05-aa8a-ac1c30a8558c","system_id":"levelo_inurba_marseille","lat":43.313291,"lon":5.396838,"is_reserved":false,"is_disabled":false,"rental_uris":{"android":"levelo://app?vid=44f7d5af-0afb-4c05-aa8a-ac1c30a8558c","ios":"levelo://app?vid=44f7d5af-0afb-4c05-aa8a-ac1c30a8558c"},"vehicle_type_id":"4","last_reported":1679259941,"current_range_meters":8800,"station_id":"ce4bgvp2rcd13ifvqcu0","pricing_plan_id":"free"},{"bike_id":"ff0dee68-ef24-4e19-b81d-797e1d4ca79e","system_id":"levelo_inurba_marseille","lat":43.29529,"lon":5.385581,"is_reserved":false,"is_disabled":false,"rental_uris":{"android":"levelo://app?vid=ff0dee68-ef24-4e19-b81d-797e1d4ca79e","ios":"levelo://app?vid=ff0dee68-ef24-4e19-b81d-797e1d4ca79e"},"vehicle_type_id":"4","last_reported":1679259941,"current_range_meters":800,"station_id":"ce4bgih2rcd13ifvqba0","pricing_plan_id":"free"},{"bike_id":"f9662c37-a3b8-4979-8355-4f367a98b4e1","system_id":"levelo_inurba_marseille","lat":43.294162,"lon":5.386292,"is_reserved":false,"is_disabled":false,"rental_uris":{"android":"levelo://app?vid=f9662c37-a3b8-4979-8355-4f367a98b4e1","ios":"levelo://app?vid=f9662c37-a3b8-4979-8355-4f367a98b4e1"},"vehicle_type_id":"4","last_reported":1679259941,"current_range_meters":0,"station_id":"ce4bh2h2rcd13ifvqdh0","pricing_plan_id":"free"},{"bike_id":"ae424dc6-33c9-4a49-9803-8dc3be119b4c","system_id":"levelo_inurba_marseille","lat":43.292644,"lon":5.384257,"is_reserved":false,"is_disabled":false,"rental_uris":{"android":"levelo://app?vid=ae424dc6-33c9-4a49-9803-8dc3be119b4c","ios":"levelo://app?vid=ae424dc6-33c9-4a49-9803-8dc3be119b4c"},"vehicle_type_id":"4","last_reported":1679259941,"current_range_meters":1600,"station_id":"ce4bh692rcd13ifvqea0","pricing_plan_id":"free"},{"bike_id":"0c52e680-a20e-4844-9b0d-0a917044c9e9","system_id":"levelo_inurba_marseille","lat":43.33045,"lon":5.38914,"is_reserved":false,"is_disabled":false,"rental_uris":{"android":"levelo://app?vid=0c52e680-a20e-4844-9b0d-0a917044c9e9","ios":"levelo://app?vid=0c52e680-a20e-4844-9b0d-0a917044c9e9"},"vehicle_type_id":"4","last_reported":1679259941,"current_range_meters":800,"station_id":"ce4bhr92rcd13ifvqhrg","pricing_plan_id":"free"},{"bike_id":"7126e8e7-9377-41c8-986f-68efccc35b56","system_id":"levelo_inurba_marseille","lat":43.290104,"lon":5.356111,"is_reserved":false,"is_disabled":false,"rental_uris":{"android":"levelo://app?vid=7126e8e7-9377-41c8-986f-68efccc35b56","ios":"levelo://app?vid=7126e8e7-9377-41c8-986f-68efccc35b56"},"vehicle_type_id":"4","last_reported":1679259941,"current_range_meters":0,"station_id":"ce4bhb92rcd13ifvqen0","pricing_plan_id":"free"},{"bike_id":"635da83a-0acd-47f6-88c5-8d5856068bdf","system_id":"levelo_inurba_marseille","lat":43.330442,"lon":5.389148,"is_reserved":false,"is_disabled":false,"rental_uris":{"android":"levelo://app?vid=635da83a-0acd-47f6-88c5-8d5856068bdf","ios":"levelo://app?vid=635da83a-0acd-47f6-88c5-8d5856068bdf"},"vehicle_type_id":"4","last_reported":1679259941,"current_range_meters":4400,"station_id":"ce4bhr92rcd13ifvqhrg","pricing_plan_id":"free"},{"bike_id":"8b658899-106d-47b1-95f8-87eea0db38ca","system_id":"levelo_inurba_marseille","lat":43.290995,"lon":5.381361,"is_reserved":false,"is_disabled":false,"rental_uris":{"android":"levelo://app?vid=8b658899-106d-47b1-95f8-87eea0db38ca","ios":"levelo://app?vid=8b658899-106d-47b1-95f8-87eea0db38ca"},"vehicle_type_id":"4","last_reported":1679259941,"current_range_meters":400,"station_id":"ce4bh512rcd13ifvqe2g","pricing_plan_id":"free"},{"bike_id":"3b0dc526-890a-4c46-91ac-cd25841e56b9","system_id":"levelo_inurba_marseille","lat":43.289759,"lon":5.378371,"is_reserved":false,"is_disabled":false,"rental_uris":{"android":"levelo://app?vid=3b0dc526-890a-4c46-91ac-cd25841e56b9","ios":"levelo://app?vid=3b0dc526-890a-4c46-91ac-cd25841e56b9"},"vehicle_type_id":"4","last_reported":1679259941,"current_range_meters":0,"station_id":"","pricing_plan_id":"free"},{"bike_id":"033d0060-f7e8-4d5d-9d3d-eec87f1e2ffc","system_id":"levelo_inurba_marseille","lat":43.28856,"lon":5.358371,"is_reserved":false,"is_disabled":false,"rental_uris":{"android":"levelo://app?vid=033d0060-f7e8-4d5d-9d3d-eec87f1e2ffc","ios":"levelo://app?vid=033d0060-f7e8-4d5d-9d3d-eec87f1e2ffc"},"vehicle_type_id":"4","last_reported":1679259941,"current_range_meters":11600,"station_id":"ce4bhb12rcd13ifvqem0","pricing_plan_id":"free"},{"bike_id":"3854bf92-2131-4a68-934b-797a1cb0c973","system_id":"levelo_inurba_marseille","lat":43.28856,"lon":5.358371,"is_reserved":false,"is_disabled":false,"rental_uris":{"android":"levelo://app?vid=3854bf92-2131-4a68-934b-797a1cb0c973","ios":"levelo://app?vid=3854bf92-2131-4a68-934b-797a1cb0c973"},"vehicle_type_id":"4","last_reported":1679259941,"current_range_meters":6000,"station_id":"ce4bhb12rcd13ifvqem0","pricing_plan_id":"free"},{"bike_id":"8d3ca5c6-c3be-4616-aca7-dd23811b1c7a","system_id":"levelo_inurba_marseille","lat":43.290136,"lon":5.382001,"is_reserved":false,"is_disabled":false,"rental_uris":{"android":"levelo://app?vid=8d3ca5c6-c3be-4616-aca7-dd23811b1c7a","ios":"levelo://app?vid=8d3ca5c6-c3be-4616-aca7-dd23811b1c7a"},"vehicle_type_id":"4","last_reported":1679259941,"current_range_meters":0,"station_id":"","pricing_plan_id":"free"},{"bike_id":"d0d7df32-c37a-428a-9862-70b0480dd19b","system_id":"levelo_inurba_marseille","lat":43.337455,"lon":5.374605,"is_reserved":false,"is_disabled":false,"rental_uris":{"android":"levelo://app?vid=d0d7df32-c37a-428a-9862-70b0480dd19b","ios":"levelo://app?vid=d0d7df32-c37a-428a-9862-70b0480dd19b"},"vehicle_type_id":"4","last_reported":1679259941,"current_range_meters":3600,"station_id":"","pricing_plan_id":"free"},{"bike_id":"3691d997-1cad-46ed-b7e6-586680d35f2f","system_id":"levelo_inurba_marseille","lat":43.337474,"lon":5.374566,"is_reserved":false,"is_disabled":false,"rental_uris":{"android":"levelo://app?vid=3691d997-1cad-46ed-b7e6-586680d35f2f","ios":"levelo://app?vid=3691d997-1cad-46ed-b7e6-586680d35f2f"},"vehicle_type_id":"4","last_reported":1679259941,"current_range_meters":16000,"station_id":"","pricing_plan_id":"free"},{"bike_id":"228f65ff-6b04-4dbc-b939-c1fa72d1be5e","system_id":"levelo_inurba_marseille","lat":43.337604,"lon":5.37467,"is_reserved":false,"is_disabled":false,"rental_uris":{"android":"levelo://app?vid=228f65ff-6b04-4dbc-b939-c1fa72d1be5e","ios":"levelo://app?vid=228f65ff-6b04-4dbc-b939-c1fa72d1be5e"},"vehicle_type_id":"4","last_reported":1679259941,"current_range_meters":20400,"station_id":"","pricing_plan_id":"free"},{"bike_id":"64e6c722-78a7-4d91-850e-505653766173","system_id":"levelo_inurba_marseille","lat":43.30642,"lon":5.401031,"is_reserved":false,"is_disabled":false,"rental_uris":{"android":"levelo://app?vid=64e6c722-78a7-4d91-850e-505653766173","ios":"levelo://app?vid=64e6c722-78a7-4d91-850e-505653766173"},"vehicle_type_id":"4","last_reported":1679259941,"current_range_meters":13600,"station_id":"ce4bh112rcd13ifvqda0","pricing_plan_id":"free"},{"bike_id":"a94248f1-3c0d-42e2-8cb1-cf4fa92ab279","system_id":"levelo_inurba_marseille","lat":43.286593,"lon":5.363346,"is_reserved":false,"is_disabled":false,"rental_uris":{"android":"levelo://app?vid=a94248f1-3c0d-42e2-8cb1-cf4fa92ab279","ios":"levelo://app?vid=a94248f1-3c0d-42e2-8cb1-cf4fa92ab279"},"vehicle_type_id":"4","last_reported":1679259941,"current_range_meters":0,"station_id":"ce4bhah2rcd13ifvqej0","pricing_plan_id":"free"},{"bike_id":"531aa688-521f-4a9d-951b-cf3af815b252","system_id":"levelo_inurba_marseille","lat":43.298681,"lon":5.397225,"is_reserved":false,"is_disabled":false,"rental_uris":{"android":"levelo://app?vid=531aa688-521f-4a9d-951b-cf3af815b252","ios":"levelo://app?vid=531aa688-521f-4a9d-951b-cf3af815b252"},"vehicle_type_id":"4","last_reported":1679259941,"current_range_meters":19600,"station_id":"ce4bh0h2rcd13ifvqd50","pricing_plan_id":"free"},{"bike_id":"13daf331-d4da-4609-b100-9d9d574ca585","system_id":"levelo_inurba_marseille","lat":43.286593,"lon":5.363346,"is_reserved":false,"is_disabled":false,"rental_uris":{"android":"levelo://app?vid=13daf331-d4da-4609-b100-9d9d574ca585","ios":"levelo://app?vid=13daf331-d4da-4609-b100-9d9d574ca585"},"vehicle_type_id":"4","last_reported":1679259941,"current_range_meters":4400,"station_id":"ce4bhah2rcd13ifvqej0","pricing_plan_id":"free"},{"bike_id":"b3ef11c0-4a95-445d-87a2-62843d16b93c","system_id":"levelo_inurba_marseille","lat":43.300926,"lon":5.399676,"is_reserved":false,"is_disabled":false,"rental_uris":{"android":"levelo://app?vid=b3ef11c0-4a95-445d-87a2-62843d16b93c","ios":"levelo://app?vid=b3ef11c0-4a95-445d-87a2-62843d16b93c"},"vehicle_type_id":"4","last_reported":1679259941,"current_range_meters":0,"station_id":"","pricing_plan_id":"free"},{"bike_id":"a8f5114f-9270-4c90-a713-38638b616ecd","system_id":"levelo_inurba_marseille","lat":43.28452,"lon":5.35886,"is_reserved":false,"is_disabled":false,"rental_uris":{"android":"levelo://app?vid=a8f5114f-9270-4c90-a713-38638b616ecd","ios":"levelo://app?vid=a8f5114f-9270-4c90-a713-38638b616ecd"},"vehicle_type_id":"4","last_reported":1679259941,"current_range_meters":1200,"station_id":"","pricing_plan_id":"free"},{"bike_id":"c68b2668-cffe-4791-a977-7f5d532a0d43","system_id":"levelo_inurba_marseille","lat":43.286595,"lon":5.386795,"is_reserved":false,"is_disabled":false,"rental_uris":{"android":"levelo://app?vid=c68b2668-cffe-4791-a977-7f5d532a0d43","ios":"levelo://app?vid=c68b2668-cffe-4791-a977-7f5d532a0d43"},"vehicle_type_id":"4","last_reported":1679259941,"current_range_meters":3600,"station_id":"ce4bh492rcd13ifvqdug","pricing_plan_id":"free"},{"bike_id":"1430011a-0610-46a9-9f8e-d7433f5de21d","system_id":"levelo_inurba_marseille","lat":43.324437,"lon":5.404417,"is_reserved":false,"is_disabled":false,"rental_uris":{"android":"levelo://app?vid=1430011a-0610-46a9-9f8e-d7433f5de21d","ios":"levelo://app?vid=1430011a-0610-46a9-9f8e-d7433f5de21d"},"vehicle_type_id":"4","last_reported":1679259941,"current_range_meters":14000,"station_id":"","pricing_plan_id":"free"},{"bike_id":"e9cb0e2d-8177-4918-a403-d0982d23c890","system_id":"levelo_inurba_marseille","lat":43.284793,"lon":5.384113,"is_reserved":false,"is_disabled":false,"rental_uris":{"android":"levelo://app?vid=e9cb0e2d-8177-4918-a403-d0982d23c890","ios":"levelo://app?vid=e9cb0e2d-8177-4918-a403-d0982d23c890"},"vehicle_type_id":"4","last_reported":1679259941,"current_range_meters":800,"station_id":"ce4bh512rcd13ifvqe3g","pricing_plan_id":"free"},{"bike_id":"483534fc-5208-4d5a-b6c9-db2003345a82","system_id":"levelo_inurba_marseille","lat":43.288497,"lon":5.393089,"is_reserved":false,"is_disabled":false,"rental_uris":{"android":"levelo://app?vid=483534fc-5208-4d5a-b6c9-db2003345a82","ios":"levelo://app?vid=483534fc-5208-4d5a-b6c9-db2003345a82"},"vehicle_type_id":"4","last_reported":1679259941,"current_range_meters":6800,"station_id":"ce4bh2p2rcd13ifvqdi0","pricing_plan_id":"free"},{"bike_id":"b53a6293-de7e-4d26-a412-b98e70b928ae","system_id":"levelo_inurba_marseille","lat":43.2835,"lon":5.38112,"is_reserved":false,"is_disabled":false,"rental_uris":{"android":"levelo://app?vid=b53a6293-de7e-4d26-a412-b98e70b928ae","ios":"levelo://app?vid=b53a6293-de7e-4d26-a412-b98e70b928ae"},"vehicle_type_id":"4","last_reported":1679259941,"current_range_meters":18000,"station_id":"","pricing_plan_id":"free"},{"bike_id":"a915e190-db75-4cf8-93bd-052cba387278","system_id":"levelo_inurba_marseille","lat":43.284219,"lon":5.3497,"is_reserved":false,"is_disabled":false,"rental_uris":{"android":"levelo://app?vid=a915e190-db75-4cf8-93bd-052cba387278","ios":"levelo://app?vid=a915e190-db75-4cf8-93bd-052cba387278"},"vehicle_type_id":"4","last_reported":1679259941,"current_range_meters":3200,"station_id":"ce4bhbh2rcd13ifvqepg","pricing_plan_id":"free"},{"bike_id":"d050add3-8d58-4dc9-ad09-a95be4d68f89","system_id":"levelo_inurba_marseille","lat":43.292724,"lon":5.401131,"is_reserved":false,"is_disabled":false,"rental_uris":{"android":"levelo://app?vid=d050add3-8d58-4dc9-ad09-a95be4d68f89","ios":"levelo://app?vid=d050add3-8d58-4dc9-ad09-a95be4d68f89"},"vehicle_type_id":"4","last_reported":1679259941,"current_range_meters":20400,"station_id":"ce4bh312rcd13ifvqdk0","pricing_plan_id":"free"},{"bike_id":"b579ed3b-0bb7-4676-9c85-1d760474f33b","system_id":"levelo_inurba_marseille","lat":43.292724,"lon":5.401131,"is_reserved":false,"is_disabled":false,"rental_uris":{"android":"levelo://app?vid=b579ed3b-0bb7-4676-9c85-1d760474f33b","ios":"levelo://app?vid=b579ed3b-0bb7-4676-9c85-1d760474f33b"},"vehicle_type_id":"4","last_reported":1679259941,"current_range_meters":5600,"station_id":"ce4bh312rcd13ifvqdk0","pricing_plan_id":"free"},{"bike_id":"22f00f91-1583-48b1-b691-708679555aaf","system_id":"levelo_inurba_marseille","lat":43.28273,"lon":5.35063,"is_reserved":false,"is_disabled":false,"rental_uris":{"android":"levelo://app?vid=22f00f91-1583-48b1-b691-708679555aaf","ios":"levelo://app?vid=22f00f91-1583-48b1-b691-708679555aaf"},"vehicle_type_id":"4","last_reported":1679259941,"current_range_meters":23200,"station_id":"ce4bhbp2rcd13ifvqerg","pricing_plan_id":"free"},{"bike_id":"5b08c331-ef19-42fe-a477-f52633e953fb","system_id":"levelo_inurba_marseille","lat":43.281789,"lon":5.352736,"is_reserved":false,"is_disabled":false,"rental_uris":{"android":"levelo://app?vid=5b08c331-ef19-42fe-a477-f52633e953fb","ios":"levelo://app?vid=5b08c331-ef19-42fe-a477-f52633e953fb"},"vehicle_type_id":"4","last_reported":1679259941,"current_range_meters":0,"station_id":"","pricing_plan_id":"free"},{"bike_id":"c78c7551-d0a9-471f-a85d-a99ea05154bb","system_id":"levelo_inurba_marseille","lat":43.28102,"lon":5.37835,"is_reserved":false,"is_disabled":false,"rental_uris":{"android":"levelo://app?vid=c78c7551-d0a9-471f-a85d-a99ea05154bb","ios":"levelo://app?vid=c78c7551-d0a9-471f-a85d-a99ea05154bb"},"vehicle_type_id":"4","last_reported":1679259941,"current_range_meters":0,"station_id":"","pricing_plan_id":"free"},{"bike_id":"aabe9928-f5bb-480a-8a55-ba7337746ed0","system_id":"levelo_inurba_marseille","lat":43.281044,"lon":5.378308,"is_reserved":false,"is_disabled":false,"rental_uris":{"android":"levelo://app?vid=aabe9928-f5bb-480a-8a55-ba7337746ed0","ios":"levelo://app?vid=aabe9928-f5bb-480a-8a55-ba7337746ed0"},"vehicle_type_id":"4","last_reported":1679259941,"current_range_meters":12000,"station_id":"ce4bha12rcd13ifvqee0","pricing_plan_id":"free"},{"bike_id":"0b1a93c2-4ecb-4280-900f-5c9a8b7756e9","system_id":"levelo_inurba_marseille","lat":43.28099,"lon":5.3784,"is_reserved":false,"is_disabled":false,"rental_uris":{"android":"levelo://app?vid=0b1a93c2-4ecb-4280-900f-5c9a8b7756e9","ios":"levelo://app?vid=0b1a93c2-4ecb-4280-900f-5c9a8b7756e9"},"vehicle_type_id":"4","last_reported":1679259941,"current_range_meters":0,"station_id":"","pricing_plan_id":"free"},{"bike_id":"a28e1d42-4c50-42e1-8e26-ee31c2601144","system_id":"levelo_inurba_marseille","lat":43.284462,"lon":5.392121,"is_reserved":false,"is_disabled":false,"rental_uris":{"android":"levelo://app?vid=a28e1d42-4c50-42e1-8e26-ee31c2601144","ios":"levelo://app?vid=a28e1d42-4c50-42e1-8e26-ee31c2601144"},"vehicle_type_id":"4","last_reported":1679259941,"current_range_meters":27600,"station_id":"ce4bhoh2rcd13ifvqh5g","pricing_plan_id":"free"},{"bike_id":"e66e09fa-38ac-422e-80bd-f7f779b61d79","system_id":"levelo_inurba_marseille","lat":43.284462,"lon":5.392121,"is_reserved":false,"is_disabled":false,"rental_uris":{"android":"levelo://app?vid=e66e09fa-38ac-422e-80bd-f7f779b61d79","ios":"levelo://app?vid=e66e09fa-38ac-422e-80bd-f7f779b61d79"},"vehicle_type_id":"4","last_reported":1679259941,"current_range_meters":11600,"station_id":"ce4bhoh2rcd13ifvqh5g","pricing_plan_id":"free"},{"bike_id":"ac5e5f56-fb51-4e39-83f9-f7368de9a02f","system_id":"levelo_inurba_marseille","lat":43.304188,"lon":5.412904,"is_reserved":false,"is_disabled":false,"rental_uris":{"android":"levelo://app?vid=ac5e5f56-fb51-4e39-83f9-f7368de9a02f","ios":"levelo://app?vid=ac5e5f56-fb51-4e39-83f9-f7368de9a02f"},"vehicle_type_id":"4","last_reported":1679259941,"current_range_meters":27200,"station_id":"ce4bhop2rcd13ifvqh8g","pricing_plan_id":"free"},{"bike_id":"55f2c8c4-a1b3-4e25-85e3-0dc931df826e","system_id":"levelo_inurba_marseille","lat":43.304188,"lon":5.412904,"is_reserved":false,"is_disabled":false,"rental_uris":{"android":"levelo://app?vid=55f2c8c4-a1b3-4e25-85e3-0dc931df826e","ios":"levelo://app?vid=55f2c8c4-a1b3-4e25-85e3-0dc931df826e"},"vehicle_type_id":"4","last_reported":1679259941,"current_range_meters":27200,"station_id":"ce4bhop2rcd13ifvqh8g","pricing_plan_id":"free"},{"bike_id":"4d522258-b09a-4d86-b552-96502ed212da","system_id":"levelo_inurba_marseille","lat":43.304188,"lon":5.412904,"is_reserved":false,"is_disabled":false,"rental_uris":{"android":"levelo://app?vid=4d522258-b09a-4d86-b552-96502ed212da","ios":"levelo://app?vid=4d522258-b09a-4d86-b552-96502ed212da"},"vehicle_type_id":"4","last_reported":1679259941,"current_range_meters":4000,"station_id":"ce4bhop2rcd13ifvqh8g","pricing_plan_id":"free"},{"bike_id":"29671d63-0cc7-4cdf-8065-727b82ee79aa","system_id":"levelo_inurba_marseille","lat":43.304188,"lon":5.412904,"is_reserved":false,"is_disabled":false,"rental_uris":{"android":"levelo://app?vid=29671d63-0cc7-4cdf-8065-727b82ee79aa","ios":"levelo://app?vid=29671d63-0cc7-4cdf-8065-727b82ee79aa"},"vehicle_type_id":"4","last_reported":1679259941,"current_range_meters":31600,"station_id":"ce4bhop2rcd13ifvqh8g","pricing_plan_id":"free"},{"bike_id":"aaadd3ef-8cfa-41e9-a331-3709c11904e1","system_id":"levelo_inurba_marseille","lat":43.299577,"lon":5.413277,"is_reserved":false,"is_disabled":false,"rental_uris":{"android":"levelo://app?vid=aaadd3ef-8cfa-41e9-a331-3709c11904e1","ios":"levelo://app?vid=aaadd3ef-8cfa-41e9-a331-3709c11904e1"},"vehicle_type_id":"4","last_reported":1679259941,"current_range_meters":12400,"station_id":"ce4bhp12rcd13ifvqh9g","pricing_plan_id":"free"},{"bike_id":"e9d41ed9-6722-49f9-9845-ae38f2ce7d48","system_id":"levelo_inurba_marseille","lat":43.29952,"lon":5.41318,"is_reserved":false,"is_disabled":false,"rental_uris":{"android":"levelo://app?vid=e9d41ed9-6722-49f9-9845-ae38f2ce7d48","ios":"levelo://app?vid=e9d41ed9-6722-49f9-9845-ae38f2ce7d48"},"vehicle_type_id":"4","last_reported":1679259941,"current_range_meters":3200,"station_id":"","pricing_plan_id":"free"},{"bike_id":"1d9cd785-35c2-4153-afee-e820fc6587d5","system_id":"levelo_inurba_marseille","lat":43.299577,"lon":5.413277,"is_reserved":false,"is_disabled":false,"rental_uris":{"android":"levelo://app?vid=1d9cd785-35c2-4153-afee-e820fc6587d5","ios":"levelo://app?vid=1d9cd785-35c2-4153-afee-e820fc6587d5"},"vehicle_type_id":"4","last_reported":1679259941,"current_range_meters":23600,"station_id":"ce4bhp12rcd13ifvqh9g","pricing_plan_id":"free"},{"bike_id":"679fd8f8-2235-438a-a9e9-ce3e34fe297a","system_id":"levelo_inurba_marseille","lat":43.32473,"lon":5.414311,"is_reserved":false,"is_disabled":false,"rental_uris":{"android":"levelo://app?vid=679fd8f8-2235-438a-a9e9-ce3e34fe297a","ios":"levelo://app?vid=679fd8f8-2235-438a-a9e9-ce3e34fe297a"},"vehicle_type_id":"4","last_reported":1679259941,"current_range_meters":4000,"station_id":"","pricing_plan_id":"free"},{"bike_id":"1745123a-25f7-4bce-a1f8-2ff755a9b2d4","system_id":"levelo_inurba_marseille","lat":43.32542,"lon":5.41435,"is_reserved":false,"is_disabled":false,"rental_uris":{"android":"levelo://app?vid=1745123a-25f7-4bce-a1f8-2ff755a9b2d4","ios":"levelo://app?vid=1745123a-25f7-4bce-a1f8-2ff755a9b2d4"},"vehicle_type_id":"4","last_reported":1679259941,"current_range_meters":9200,"station_id":"ce4bhq12rcd13ifvqhhg","pricing_plan_id":"free"},{"bike_id":"e653bbca-3bef-48e1-a043-60ce594de97d","system_id":"levelo_inurba_marseille","lat":43.292569,"lon":5.409107,"is_reserved":false,"is_disabled":false,"rental_uris":{"android":"levelo://app?vid=e653bbca-3bef-48e1-a043-60ce594de97d","ios":"levelo://app?vid=e653bbca-3bef-48e1-a043-60ce594de97d"},"vehicle_type_id":"4","last_reported":1679259941,"current_range_meters":0,"station_id":"ce4bh192rcd13ifvqdc0","pricing_plan_id":"free"},{"bike_id":"5f4b27df-7370-4663-9882-3043aab0ae75","system_id":"levelo_inurba_marseille","lat":43.281845,"lon":5.3972,"is_reserved":false,"is_disabled":false,"rental_uris":{"android":"levelo://app?vid=5f4b27df-7370-4663-9882-3043aab0ae75","ios":"levelo://app?vid=5f4b27df-7370-4663-9882-3043aab0ae75"},"vehicle_type_id":"4","last_reported":1679259941,"current_range_meters":19200,"station_id":"","pricing_plan_id":"free"},{"bike_id":"38038e58-a818-4e1c-9c10-2a9f0d41e457","system_id":"levelo_inurba_marseille","lat":43.336134,"lon":5.410341,"is_reserved":false,"is_disabled":false,"rental_uris":{"android":"levelo://app?vid=38038e58-a818-4e1c-9c10-2a9f0d41e457","ios":"levelo://app?vid=38038e58-a818-4e1c-9c10-2a9f0d41e457"},"vehicle_type_id":"4","last_reported":1679259941,"current_range_meters":20400,"station_id":"ce4bhqh2rcd13ifvqhmg","pricing_plan_id":"free"},{"bike_id":"32f7f410-8568-4be2-93f2-3fd243e9feee","system_id":"levelo_inurba_marseille","lat":43.33603,"lon":5.41028,"is_reserved":false,"is_disabled":false,"rental_uris":{"android":"levelo://app?vid=32f7f410-8568-4be2-93f2-3fd243e9feee","ios":"levelo://app?vid=32f7f410-8568-4be2-93f2-3fd243e9feee"},"vehicle_type_id":"4","last_reported":1679259941,"current_range_meters":4000,"station_id":"","pricing_plan_id":"free"},{"bike_id":"bf1fbe30-2902-4f49-a183-f265bbbc264c","system_id":"levelo_inurba_marseille","lat":43.33612,"lon":5.410321,"is_reserved":false,"is_disabled":false,"rental_uris":{"android":"levelo://app?vid=bf1fbe30-2902-4f49-a183-f265bbbc264c","ios":"levelo://app?vid=bf1fbe30-2902-4f49-a183-f265bbbc264c"},"vehicle_type_id":"4","last_reported":1679259941,"current_range_meters":8000,"station_id":"ce4bhqh2rcd13ifvqhmg","pricing_plan_id":"free"},{"bike_id":"6f7c456f-25b6-4043-8d52-78cb6427cc6b","system_id":"levelo_inurba_marseille","lat":43.336134,"lon":5.410341,"is_reserved":false,"is_disabled":false,"rental_uris":{"android":"levelo://app?vid=6f7c456f-25b6-4043-8d52-78cb6427cc6b","ios":"levelo://app?vid=6f7c456f-25b6-4043-8d52-78cb6427cc6b"},"vehicle_type_id":"4","last_reported":1679259941,"current_range_meters":5200,"station_id":"ce4bhqh2rcd13ifvqhmg","pricing_plan_id":"free"},{"bike_id":"d3ff9249-c181-4ac9-b814-cd9425a2b806","system_id":"levelo_inurba_marseille","lat":43.336134,"lon":5.410341,"is_reserved":false,"is_disabled":false,"rental_uris":{"android":"levelo://app?vid=d3ff9249-c181-4ac9-b814-cd9425a2b806","ios":"levelo://app?vid=d3ff9249-c181-4ac9-b814-cd9425a2b806"},"vehicle_type_id":"4","last_reported":1679259941,"current_range_meters":17600,"station_id":"ce4bhqh2rcd13ifvqhmg","pricing_plan_id":"free"},{"bike_id":"06c2a2b5-0a03-480c-85d3-eeaeb4322949","system_id":"levelo_inurba_marseille","lat":43.27667,"lon":5.38916,"is_reserved":false,"is_disabled":false,"rental_uris":{"android":"levelo://app?vid=06c2a2b5-0a03-480c-85d3-eeaeb4322949","ios":"levelo://app?vid=06c2a2b5-0a03-480c-85d3-eeaeb4322949"},"vehicle_type_id":"4","last_reported":1679259941,"current_range_meters":0,"station_id":"","pricing_plan_id":"free"},{"bike_id":"238003c8-733e-4f09-acce-6dc0592f4cd8","system_id":"levelo_inurba_marseille","lat":43.274103,"lon":5.394016,"is_reserved":false,"is_disabled":false,"rental_uris":{"android":"levelo://app?vid=238003c8-733e-4f09-acce-6dc0592f4cd8","ios":"levelo://app?vid=238003c8-733e-4f09-acce-6dc0592f4cd8"},"vehicle_type_id":"4","last_reported":1679259941,"current_range_meters":4400,"station_id":"ce4bhdp2rcd13ifvqf20","pricing_plan_id":"free"},{"bike_id":"4f958feb-9223-4a85-ae9d-6bbeb24b0ace","system_id":"levelo_inurba_marseille","lat":43.30413,"lon":5.42542,"is_reserved":false,"is_disabled":false,"rental_uris":{"android":"levelo://app?vid=4f958feb-9223-4a85-ae9d-6bbeb24b0ace","ios":"levelo://app?vid=4f958feb-9223-4a85-ae9d-6bbeb24b0ace"},"vehicle_type_id":"4","last_reported":1679259941,"current_range_meters":5200,"station_id":"","pricing_plan_id":"free"},{"bike_id":"294524a0-48d8-47f8-a638-1a025f7bfc14","system_id":"levelo_inurba_marseille","lat":43.295523,"lon":5.422926,"is_reserved":false,"is_disabled":false,"rental_uris":{"android":"levelo://app?vid=294524a0-48d8-47f8-a638-1a025f7bfc14","ios":"levelo://app?vid=294524a0-48d8-47f8-a638-1a025f7bfc14"},"vehicle_type_id":"4","last_reported":1679259941,"current_range_meters":9600,"station_id":"ce4bhph2rcd13ifvqhdg","pricing_plan_id":"free"},{"bike_id":"7c25627b-52d2-4e1f-a2c5-ff281379658a","system_id":"levelo_inurba_marseille","lat":43.29552,"lon":5.42279,"is_reserved":false,"is_disabled":false,"rental_uris":{"android":"levelo://app?vid=7c25627b-52d2-4e1f-a2c5-ff281379658a","ios":"levelo://app?vid=7c25627b-52d2-4e1f-a2c5-ff281379658a"},"vehicle_type_id":"4","last_reported":1679259941,"current_range_meters":19200,"station_id":"ce4bhph2rcd13ifvqhdg","pricing_plan_id":"free"},{"bike_id":"15357db7-2348-4275-97d7-f561e492026c","system_id":"levelo_inurba_marseille","lat":43.29556,"lon":5.42287,"is_reserved":false,"is_disabled":false,"rental_uris":{"android":"levelo://app?vid=15357db7-2348-4275-97d7-f561e492026c","ios":"levelo://app?vid=15357db7-2348-4275-97d7-f561e492026c"},"vehicle_type_id":"4","last_reported":1679259941,"current_range_meters":1600,"station_id":"ce4bhph2rcd13ifvqhdg","pricing_plan_id":"free"},{"bike_id":"bc064ba5-50f6-4ce3-8d9b-1239bb2d9bd3","system_id":"levelo_inurba_marseille","lat":43.29551,"lon":5.42285,"is_reserved":false,"is_disabled":false,"rental_uris":{"android":"levelo://app?vid=bc064ba5-50f6-4ce3-8d9b-1239bb2d9bd3","ios":"levelo://app?vid=bc064ba5-50f6-4ce3-8d9b-1239bb2d9bd3"},"vehicle_type_id":"4","last_reported":1679259941,"current_range_meters":400,"station_id":"","pricing_plan_id":"free"},{"bike_id":"94c91f66-5bf8-4124-bd49-21f28584ac87","system_id":"levelo_inurba_marseille","lat":43.29557,"lon":5.42292,"is_reserved":false,"is_disabled":false,"rental_uris":{"android":"levelo://app?vid=94c91f66-5bf8-4124-bd49-21f28584ac87","ios":"levelo://app?vid=94c91f66-5bf8-4124-bd49-21f28584ac87"},"vehicle_type_id":"4","last_reported":1679259941,"current_range_meters":800,"station_id":"ce4bhph2rcd13ifvqhdg","pricing_plan_id":"free"},{"bike_id":"87f0a20b-30d2-431b-9d8c-bbe200acabae","system_id":"levelo_inurba_marseille","lat":43.29547,"lon":5.42287,"is_reserved":false,"is_disabled":false,"rental_uris":{"android":"levelo://app?vid=87f0a20b-30d2-431b-9d8c-bbe200acabae","ios":"levelo://app?vid=87f0a20b-30d2-431b-9d8c-bbe200acabae"},"vehicle_type_id":"4","last_reported":1679259941,"current_range_meters":21600,"station_id":"ce4bhph2rcd13ifvqhdg","pricing_plan_id":"free"},{"bike_id":"4ae28330-4dc7-41ac-8350-92623a8d789a","system_id":"levelo_inurba_marseille","lat":43.271931,"lon":5.391591,"is_reserved":false,"is_disabled":false,"rental_uris":{"android":"levelo://app?vid=4ae28330-4dc7-41ac-8350-92623a8d789a","ios":"levelo://app?vid=4ae28330-4dc7-41ac-8350-92623a8d789a"},"vehicle_type_id":"4","last_reported":1679259941,"current_range_meters":20400,"station_id":"ce4bhhp2rcd13ifvqfm0","pricing_plan_id":"free"},{"bike_id":"310cec5a-c1bf-4258-a0f9-9ea9f627edda","system_id":"levelo_inurba_marseille","lat":43.278128,"lon":5.407195,"is_reserved":false,"is_disabled":false,"rental_uris":{"android":"levelo://app?vid=310cec5a-c1bf-4258-a0f9-9ea9f627edda","ios":"levelo://app?vid=310cec5a-c1bf-4258-a0f9-9ea9f627edda"},"vehicle_type_id":"4","last_reported":1679259941,"current_range_meters":16000,"station_id":"ce4bhnh2rcd13ifvqgtg","pricing_plan_id":"free"},{"bike_id":"26281bd3-e23f-4c66-bbcd-853fa0bbcb20","system_id":"levelo_inurba_marseille","lat":43.278128,"lon":5.407195,"is_reserved":false,"is_disabled":false,"rental_uris":{"android":"levelo://app?vid=26281bd3-e23f-4c66-bbcd-853fa0bbcb20","ios":"levelo://app?vid=26281bd3-e23f-4c66-bbcd-853fa0bbcb20"},"vehicle_type_id":"4","last_reported":1679259941,"current_range_meters":22400,"station_id":"ce4bhnh2rcd13ifvqgtg","pricing_plan_id":"free"},{"bike_id":"4034f9c3-0ccb-46b6-8961-50741cfd0c27","system_id":"levelo_inurba_marseille","lat":43.278128,"lon":5.407195,"is_reserved":false,"is_disabled":false,"rental_uris":{"android":"levelo://app?vid=4034f9c3-0ccb-46b6-8961-50741cfd0c27","ios":"levelo://app?vid=4034f9c3-0ccb-46b6-8961-50741cfd0c27"},"vehicle_type_id":"4","last_reported":1679259941,"current_range_meters":31600,"station_id":"ce4bhnh2rcd13ifvqgtg","pricing_plan_id":"free"},{"bike_id":"1fe4aaa4-e376-48d4-b0fd-c776d6c9c3c9","system_id":"levelo_inurba_marseille","lat":43.269243,"lon":5.38926,"is_reserved":false,"is_disabled":false,"rental_uris":{"android":"levelo://app?vid=1fe4aaa4-e376-48d4-b0fd-c776d6c9c3c9","ios":"levelo://app?vid=1fe4aaa4-e376-48d4-b0fd-c776d6c9c3c9"},"vehicle_type_id":"4","last_reported":1679259941,"current_range_meters":0,"station_id":"ce4bhhh2rcd13ifvqfl0","pricing_plan_id":"free"},{"bike_id":"efa38077-8d8b-4846-9329-4529a5e3ae41","system_id":"levelo_inurba_marseille","lat":43.279973,"lon":5.41655,"is_reserved":false,"is_disabled":false,"rental_uris":{"android":"levelo://app?vid=efa38077-8d8b-4846-9329-4529a5e3ae41","ios":"levelo://app?vid=efa38077-8d8b-4846-9329-4529a5e3ae41"},"vehicle_type_id":"4","last_reported":1679259941,"current_range_meters":22400,"station_id":"","pricing_plan_id":"free"},{"bike_id":"b59ea7a0-1c83-42ec-bfd5-7331f7f03af8","system_id":"levelo_inurba_marseille","lat":43.27996,"lon":5.416624,"is_reserved":false,"is_disabled":false,"rental_uris":{"android":"levelo://app?vid=b59ea7a0-1c83-42ec-bfd5-7331f7f03af8","ios":"levelo://app?vid=b59ea7a0-1c83-42ec-bfd5-7331f7f03af8"},"vehicle_type_id":"4","last_reported":1679259941,"current_range_meters":0,"station_id":"ce4bho12rcd13ifvqh1g","pricing_plan_id":"free"},{"bike_id":"6f76e659-0d63-437b-aa9b-b1d2a0f4217c","system_id":"levelo_inurba_marseille","lat":43.27996,"lon":5.416624,"is_reserved":false,"is_disabled":false,"rental_uris":{"android":"levelo://app?vid=6f76e659-0d63-437b-aa9b-b1d2a0f4217c","ios":"levelo://app?vid=6f76e659-0d63-437b-aa9b-b1d2a0f4217c"},"vehicle_type_id":"4","last_reported":1679259941,"current_range_meters":1200,"station_id":"ce4bho12rcd13ifvqh1g","pricing_plan_id":"free"},{"bike_id":"cdda3a14-eaed-489a-b24c-a79f7e4e5923","system_id":"levelo_inurba_marseille","lat":43.265715,"lon":5.39002,"is_reserved":false,"is_disabled":false,"rental_uris":{"android":"levelo://app?vid=cdda3a14-eaed-489a-b24c-a79f7e4e5923","ios":"levelo://app?vid=cdda3a14-eaed-489a-b24c-a79f7e4e5923"},"vehicle_type_id":"4","last_reported":1679259941,"current_range_meters":2400,"station_id":"ce4bhe12rcd13ifvqf30","pricing_plan_id":"free"},{"bike_id":"9aac5d88-84f2-49d4-8de1-83fbe49ab068","system_id":"levelo_inurba_marseille","lat":43.2607,"lon":5.393983,"is_reserved":false,"is_disabled":false,"rental_uris":{"android":"levelo://app?vid=9aac5d88-84f2-49d4-8de1-83fbe49ab068","ios":"levelo://app?vid=9aac5d88-84f2-49d4-8de1-83fbe49ab068"},"vehicle_type_id":"4","last_reported":1679259941,"current_range_meters":12000,"station_id":"ce4bhh92rcd13ifvqfj0","pricing_plan_id":"free"},{"bike_id":"39ae7553-5b15-41ed-be49-d087d1ff66f8","system_id":"levelo_inurba_marseille","lat":43.2607,"lon":5.393983,"is_reserved":false,"is_disabled":false,"rental_uris":{"android":"levelo://app?vid=39ae7553-5b15-41ed-be49-d087d1ff66f8","ios":"levelo://app?vid=39ae7553-5b15-41ed-be49-d087d1ff66f8"},"vehicle_type_id":"4","last_reported":1679259941,"current_range_meters":2800,"station_id":"ce4bhh92rcd13ifvqfj0","pricing_plan_id":"free"},{"bike_id":"0312c11b-f530-4c74-8298-1f0b15885c6d","system_id":"levelo_inurba_marseille","lat":43.2607,"lon":5.393983,"is_reserved":false,"is_disabled":false,"rental_uris":{"android":"levelo://app?vid=0312c11b-f530-4c74-8298-1f0b15885c6d","ios":"levelo://app?vid=0312c11b-f530-4c74-8298-1f0b15885c6d"},"vehicle_type_id":"4","last_reported":1679259941,"current_range_meters":1600,"station_id":"ce4bhh92rcd13ifvqfj0","pricing_plan_id":"free"},{"bike_id":"b5fd0508-197a-4071-8a3a-2378b72b0be9","system_id":"levelo_inurba_marseille","lat":43.2607,"lon":5.393983,"is_reserved":false,"is_disabled":false,"rental_uris":{"android":"levelo://app?vid=b5fd0508-197a-4071-8a3a-2378b72b0be9","ios":"levelo://app?vid=b5fd0508-197a-4071-8a3a-2378b72b0be9"},"vehicle_type_id":"4","last_reported":1679259941,"current_range_meters":31600,"station_id":"ce4bhh92rcd13ifvqfj0","pricing_plan_id":"free"},{"bike_id":"106ba0d7-eee6-4035-a2fc-25d6d4db5d3a","system_id":"levelo_inurba_marseille","lat":43.2607,"lon":5.393983,"is_reserved":false,"is_disabled":false,"rental_uris":{"android":"levelo://app?vid=106ba0d7-eee6-4035-a2fc-25d6d4db5d3a","ios":"levelo://app?vid=106ba0d7-eee6-4035-a2fc-25d6d4db5d3a"},"vehicle_type_id":"4","last_reported":1679259941,"current_range_meters":800,"station_id":"ce4bhh92rcd13ifvqfj0","pricing_plan_id":"free"},{"bike_id":"1d029ce5-36f7-4b74-b4fe-5432b4551522","system_id":"levelo_inurba_marseille","lat":43.260909,"lon":5.397624,"is_reserved":false,"is_disabled":false,"rental_uris":{"android":"levelo://app?vid=1d029ce5-36f7-4b74-b4fe-5432b4551522","ios":"levelo://app?vid=1d029ce5-36f7-4b74-b4fe-5432b4551522"},"vehicle_type_id":"4","last_reported":1679259941,"current_range_meters":18800,"station_id":"","pricing_plan_id":"free"},{"bike_id":"217a32fe-0161-43b0-bec3-ad3345425f35","system_id":"levelo_inurba_marseille","lat":43.29255,"lon":5.44146,"is_reserved":false,"is_disabled":false,"rental_uris":{"android":"levelo://app?vid=217a32fe-0161-43b0-bec3-ad3345425f35","ios":"levelo://app?vid=217a32fe-0161-43b0-bec3-ad3345425f35"},"vehicle_type_id":"4","last_reported":1679259941,"current_range_meters":18000,"station_id":"","pricing_plan_id":"free"},{"bike_id":"22eb2a93-8530-4d89-81c3-2ee96c198141","system_id":"levelo_inurba_marseille","lat":43.270721,"lon":5.422764,"is_reserved":false,"is_disabled":false,"rental_uris":{"android":"levelo://app?vid=22eb2a93-8530-4d89-81c3-2ee96c198141","ios":"levelo://app?vid=22eb2a93-8530-4d89-81c3-2ee96c198141"},"vehicle_type_id":"4","last_reported":1679259941,"current_range_meters":19600,"station_id":"ce4bhk92rcd13ifvqgb0","pricing_plan_id":"free"},{"bike_id":"3647aa3d-2a3f-41e2-8431-ae491d547389","system_id":"levelo_inurba_marseille","lat":43.250023,"lon":5.38919,"is_reserved":false,"is_disabled":false,"rental_uris":{"android":"levelo://app?vid=3647aa3d-2a3f-41e2-8431-ae491d547389","ios":"levelo://app?vid=3647aa3d-2a3f-41e2-8431-ae491d547389"},"vehicle_type_id":"4","last_reported":1679259941,"current_range_meters":0,"station_id":"ce4bhgp2rcd13ifvqfd0","pricing_plan_id":"free"},{"bike_id":"6b0d3edd-1eff-4b01-8433-ca67158991b2","system_id":"levelo_inurba_marseille","lat":43.250023,"lon":5.38919,"is_reserved":false,"is_disabled":false,"rental_uris":{"android":"levelo://app?vid=6b0d3edd-1eff-4b01-8433-ca67158991b2","ios":"levelo://app?vid=6b0d3edd-1eff-4b01-8433-ca67158991b2"},"vehicle_type_id":"4","last_reported":1679259941,"current_range_meters":6800,"station_id":"ce4bhgp2rcd13ifvqfd0","pricing_plan_id":"free"},{"bike_id":"d6ba5441-e7f8-4d02-bff7-30e543542b95","system_id":"levelo_inurba_marseille","lat":43.250009,"lon":5.389195,"is_reserved":false,"is_disabled":false,"rental_uris":{"android":"levelo://app?vid=d6ba5441-e7f8-4d02-bff7-30e543542b95","ios":"levelo://app?vid=d6ba5441-e7f8-4d02-bff7-30e543542b95"},"vehicle_type_id":"4","last_reported":1679259941,"current_range_meters":3600,"station_id":"ce4bhgp2rcd13ifvqfd0","pricing_plan_id":"free"},{"bike_id":"da99ef17-7f7a-4319-8014-293645ffe646","system_id":"levelo_inurba_marseille","lat":43.250966,"lon":5.395186,"is_reserved":false,"is_disabled":false,"rental_uris":{"android":"levelo://app?vid=da99ef17-7f7a-4319-8014-293645ffe646","ios":"levelo://app?vid=da99ef17-7f7a-4319-8014-293645ffe646"},"vehicle_type_id":"4","last_reported":1679259941,"current_range_meters":23600,"station_id":"ce4bhm12rcd13ifvqgkg","pricing_plan_id":"free"},{"bike_id":"ca97ab45-0cf2-48cb-b71c-19ef4310206b","system_id":"levelo_inurba_marseille","lat":43.24693,"lon":5.382096,"is_reserved":false,"is_disabled":false,"rental_uris":{"android":"levelo://app?vid=ca97ab45-0cf2-48cb-b71c-19ef4310206b","ios":"levelo://app?vid=ca97ab45-0cf2-48cb-b71c-19ef4310206b"},"vehicle_type_id":"4","last_reported":1679259941,"current_range_meters":0,"station_id":"ce4bhih2rcd13ifvqfr0","pricing_plan_id":"free"},{"bike_id":"c01836ea-60b2-49aa-85ba-dea461a3aee0","system_id":"levelo_inurba_marseille","lat":43.24693,"lon":5.382096,"is_reserved":false,"is_disabled":false,"rental_uris":{"android":"levelo://app?vid=c01836ea-60b2-49aa-85ba-dea461a3aee0","ios":"levelo://app?vid=c01836ea-60b2-49aa-85ba-dea461a3aee0"},"vehicle_type_id":"4","last_reported":1679259941,"current_range_meters":7200,"station_id":"ce4bhih2rcd13ifvqfr0","pricing_plan_id":"free"},{"bike_id":"d957e401-9174-4dbb-97ec-0b162098761a","system_id":"levelo_inurba_marseille","lat":43.25102,"lon":5.403214,"is_reserved":false,"is_disabled":false,"rental_uris":{"android":"levelo://app?vid=d957e401-9174-4dbb-97ec-0b162098761a","ios":"levelo://app?vid=d957e401-9174-4dbb-97ec-0b162098761a"},"vehicle_type_id":"4","last_reported":1679259941,"current_range_meters":2400,"station_id":"ce4bhlh2rcd13ifvqgig","pricing_plan_id":"free"},{"bike_id":"c5a78ac4-6a0c-4509-8ff5-2c5b371e7357","system_id":"levelo_inurba_marseille","lat":43.25102,"lon":5.403214,"is_reserved":false,"is_disabled":false,"rental_uris":{"android":"levelo://app?vid=c5a78ac4-6a0c-4509-8ff5-2c5b371e7357","ios":"levelo://app?vid=c5a78ac4-6a0c-4509-8ff5-2c5b371e7357"},"vehicle_type_id":"4","last_reported":1679259941,"current_range_meters":27200,"station_id":"ce4bhlh2rcd13ifvqgig","pricing_plan_id":"free"},{"bike_id":"936ecc25-fffa-4bca-810c-08d9cae0872b","system_id":"levelo_inurba_marseille","lat":43.245581,"lon":5.395069,"is_reserved":false,"is_disabled":false,"rental_uris":{"android":"levelo://app?vid=936ecc25-fffa-4bca-810c-08d9cae0872b","ios":"levelo://app?vid=936ecc25-fffa-4bca-810c-08d9cae0872b"},"vehicle_type_id":"4","last_reported":1679259941,"current_range_meters":9600,"station_id":"ce4bhlp2rcd13ifvqgjg","pricing_plan_id":"free"},{"bike_id":"6517cd95-8881-4095-a72f-d78547f4b481","system_id":"levelo_inurba_marseille","lat":43.240623,"lon":5.377642,"is_reserved":false,"is_disabled":false,"rental_uris":{"android":"levelo://app?vid=6517cd95-8881-4095-a72f-d78547f4b481","ios":"levelo://app?vid=6517cd95-8881-4095-a72f-d78547f4b481"},"vehicle_type_id":"4","last_reported":1679259941,"current_range_meters":13600,"station_id":"ce4bhnp2rcd13ifvqgvg","pricing_plan_id":"free"},{"bike_id":"eb982e6f-872d-4cea-b0c2-84d869b0cc85","system_id":"levelo_inurba_marseille","lat":43.23962,"lon":5.36635,"is_reserved":false,"is_disabled":false,"rental_uris":{"android":"levelo://app?vid=eb982e6f-872d-4cea-b0c2-84d869b0cc85","ios":"levelo://app?vid=eb982e6f-872d-4cea-b0c2-84d869b0cc85"},"vehicle_type_id":"4","last_reported":1679259941,"current_range_meters":0,"station_id":"ce4bhi12rcd13ifvqfp0","pricing_plan_id":"free"},{"bike_id":"7b490dfd-52ab-4c51-9942-deb1ac519639","system_id":"levelo_inurba_marseille","lat":43.241782,"lon":5.397264,"is_reserved":false,"is_disabled":false,"rental_uris":{"android":"levelo://app?vid=7b490dfd-52ab-4c51-9942-deb1ac519639","ios":"levelo://app?vid=7b490dfd-52ab-4c51-9942-deb1ac519639"},"vehicle_type_id":"4","last_reported":1679259941,"current_range_meters":0,"station_id":"ce4bhn12rcd13ifvqgpg","pricing_plan_id":"free"},{"bike_id":"cd92189d-efdf-449d-afe7-7dd47aa547ce","system_id":"levelo_inurba_marseille","lat":43.241782,"lon":5.397261,"is_reserved":false,"is_disabled":false,"rental_uris":{"android":"levelo://app?vid=cd92189d-efdf-449d-afe7-7dd47aa547ce","ios":"levelo://app?vid=cd92189d-efdf-449d-afe7-7dd47aa547ce"},"vehicle_type_id":"4","last_reported":1679259941,"current_range_meters":2800,"station_id":"ce4bhn12rcd13ifvqgpg","pricing_plan_id":"free"},{"bike_id":"334e498b-b826-46b9-9de7-4687ff6c9d3a","system_id":"levelo_inurba_marseille","lat":43.2383,"lon":5.37561,"is_reserved":false,"is_disabled":false,"rental_uris":{"android":"levelo://app?vid=334e498b-b826-46b9-9de7-4687ff6c9d3a","ios":"levelo://app?vid=334e498b-b826-46b9-9de7-4687ff6c9d3a"},"vehicle_type_id":"4","last_reported":1679259941,"current_range_meters":1600,"station_id":"","pricing_plan_id":"free"},{"bike_id":"5dda21a0-4fd2-4ce0-bc65-60056dc23de8","system_id":"levelo_inurba_marseille","lat":43.23186,"lon":5.35555,"is_reserved":false,"is_disabled":false,"rental_uris":{"android":"levelo://app?vid=5dda21a0-4fd2-4ce0-bc65-60056dc23de8","ios":"levelo://app?vid=5dda21a0-4fd2-4ce0-bc65-60056dc23de8"},"vehicle_type_id":"4","last_reported":1679259941,"current_range_meters":6000,"station_id":"ce4bhu92rcd13ifvqi70","pricing_plan_id":"free"},{"bike_id":"2330a857-0775-4481-8767-6dfc1bdded79","system_id":"levelo_inurba_marseille","lat":43.28626,"lon":5.47504,"is_reserved":false,"is_disabled":false,"rental_uris":{"android":"levelo://app?vid=2330a857-0775-4481-8767-6dfc1bdded79","ios":"levelo://app?vid=2330a857-0775-4481-8767-6dfc1bdded79"},"vehicle_type_id":"4","last_reported":1679259941,"current_range_meters":16800,"station_id":"","pricing_plan_id":"free"},{"bike_id":"dc46f849-62cf-47d9-993c-25d51a98d655","system_id":"levelo_inurba_marseille","lat":43.2807,"lon":5.50556,"is_reserved":false,"is_disabled":false,"rental_uris":{"android":"levelo://app?vid=dc46f849-62cf-47d9-993c-25d51a98d655","ios":"levelo://app?vid=dc46f849-62cf-47d9-993c-25d51a98d655"},"vehicle_type_id":"4","last_reported":1679259941,"current_range_meters":6000,"station_id":"","pricing_plan_id":"free"}]}}