{"last_updated":1723911032,"ttl":30,"version":"2.2","data":{"bikes":[{"bike_id":"53ac0825-1ec7-49bc-83b7-75bbded31f0a","system_id":"levelo_inurba_marseille","lat":43.31341,"lon":5.367098,"is_reserved":false,"is_disabled":false,"rental_uris":{"android":"levelo://app?vid=53ac0825-1ec7-49bc-83b7-75bbded31f0a","ios":"levelo://app?vid=53ac0825-1ec7-49bc-83b7-75bbded31f0a"},"vehicle_type_id":"4","last_reported":1723911032,"current_range_meters":31200,"station_id":"ce4bgr92rcd13ifvqc6g","pricing_plan_id":"cebpf4jnsgd1na2vs0mg"},{"bike_id":"b56f336e-8723-4eb2-a73f-dcb5a59309e4","system_id":"levelo_inurba_marseille","lat":43.31341,"lon":5.367098,"is_reserved":false,"is_disabled":false,"rental_uris":{"android":"levelo://app?vid=b56f336e-8723-4eb2-a73f-dcb5a59309e4","ios":"levelo://app?vid=b56f336e-8723-4eb2-a73f-dcb5a59309e4"},"vehicle_type_id":"4","last_reported":1723911032,"current_range_meters":5600,"station_id":"ce4bgr92rcd13ifvqc6g","pricing_plan_id":"cebpf4jnsgd1na2vs0mg"},{"bike_id":"c3f87838-609e-41bd-b7f0-cb656e12bc25","system_id":"levelo_inurba_marseille","lat":43.312239,"lon":5.368562,"is_reserved":false,"is_disabled":false,"rental_uris":{"android":"levelo://app?vid=c3f87838-609e-41bd-b7f0-cb656e12bc25","ios":"levelo://app?vid=c3f87838-609e-41bd-b7f0-cb656e12bc25"},"vehicle_type_id":"4","last_reported":1723911032,"current_range_meters":31600,"station_id":"ce4bgl92rcd13ifvqbq0","pricing_plan_id":"cebpf4jnsgd1na2vs0mg"},{"bike_id":"3fdc6ed3-bbbd-489e-be49-a82674a39a6a","system_id":"levelo_inurba_marseille","lat":43.312239,"lon":5.368562,"is_reserved":false,"is_disabled":false,"rental_uris":{"android":"levelo://app?vid=3fdc6ed3-bbbd-489e-be49-a82674a39a6a","ios":"levelo://app?vid=3fdc6ed3-bbbd-489e-be49-a82674a39a6a"},"vehicle_type_id":"4","last_reported":1723911032,"current_range_meters":30800,"station_id":"ce4bgl92rcd13ifvqbq0","pricing_plan_id":"cebpf4jnsgd1na2vs0mg"},{"bike_id":"97cdb7ff-c699-4005-a77c-893922655b48","system_id":"levelo_inurba_marseille","lat":43.309076,"lon":5.368465,"is_reserved":false,"is_disabled":false,"rental_uris":{"android":"levelo://app?vid=97cdb7ff-c699-4005-a77c-893922655b48","ios":"levelo://app?vid=97cdb7ff-c699-4005-a77c-893922655b48"},"vehicle_type_id":"4","last_reported":1723911032,"current_range_meters":18400,"station_id":"ce4bgn92rcd13ifvqbvg","pricing_plan_id":"cebpf4jnsgd1na2vs0mg"},{"bike_id":"74d0b034-5541-40f6-a9bb-3b6b535e7f46","system_id":"levelo_inurba_marseille","lat":43.309076,"lon":5.368465,"is_reserved":false,"is_disabled":false,"rental_uris":{"android":"levelo://app?vid=74d0b034-5541-40f6-a9bb-3b6b535e7f46","ios":"levelo://app?vid=74d0b034-5541-40f6-a9bb-3b6b535e7f46"},"vehicle_type_id":"4","last_reported":1723911032,"current_range_meters":31600,"station_id":"ce4bgn92rcd13ifvqbvg","pricing_plan_id":"cebpf4jnsgd1na2vs0mg"},{"bike_id":"219c2f4b-c115-4c7b-9592-afd4f5f975f5","system_id":"levelo_inurba_marseille","lat":43.31485,"lon":5.37303,"is_reserved":false,"is_disabled":false,"rental_uris":{"android":"levelo://app?vid=219c2f4b-c115-4c7b-9592-afd4f5f975f5","ios":"levelo://app?vid=219c2f4b-c115-4c7b-9592-afd4f5f975f5"},"vehicle_type_id":"4","last_reported":1723911032,"current_range_meters":31200,"station_id":"","pricing_plan_id":"cebpf4jnsgd1na2vs0mg"},{"bike_id":"3948aab0-751f-4543-acac-d0c25af31cca","system_id":"levelo_inurba_marseille","lat":43.314811,"lon":5.373103,"is_reserved":false,"is_disabled":false,"rental_uris":{"android":"levelo://app?vid=3948aab0-751f-4543-acac-d0c25af31cca","ios":"levelo://app?vid=3948aab0-751f-4543-acac-d0c25af31cca"},"vehicle_type_id":"4","last_reported":1723911032,"current_range_meters":29200,"station_id":"ce4bgt12rcd13ifvqcd0","pricing_plan_id":"cebpf4jnsgd1na2vs0mg"},{"bike_id":"0c49fe8f-a641-4a0d-85fa-b154107fbdf9","system_id":"levelo_inurba_marseille","lat":43.31499,"lon":5.37308,"is_reserved":false,"is_disabled":false,"rental_uris":{"android":"levelo://app?vid=0c49fe8f-a641-4a0d-85fa-b154107fbdf9","ios":"levelo://app?vid=0c49fe8f-a641-4a0d-85fa-b154107fbdf9"},"vehicle_type_id":"4","last_reported":1723911032,"current_range_meters":27200,"station_id":"ce4bgt12rcd13ifvqcd0","pricing_plan_id":"cebpf4jnsgd1na2vs0mg"},{"bike_id":"2e6ea24b-d2ba-4caf-9485-7942fa2ac9d1","system_id":"levelo_inurba_marseille","lat":43.314811,"lon":5.373103,"is_reserved":false,"is_disabled":false,"rental_uris":{"android":"levelo://app?vid=2e6ea24b-d2ba-4caf-9485-7942fa2ac9d1","ios":"levelo://app?vid=2e6ea24b-d2ba-4caf-9485-7942fa2ac9d1"},"vehicle_type_id":"4","last_reported":1723911032,"current_range_meters":24400,"station_id":"ce4bgt12rcd13ifvqcd0","pricing_plan_id":"cebpf4jnsgd1na2vs0mg"},{"bike_id":"f4bb82aa-3d7e-4385-85c7-5b03e7cceb50","system_id":"levelo_inurba_marseille","lat":43.31541,"lon":5.374253,"is_reserved":false,"is_disabled":false,"rental_uris":{"android":"levelo://app?vid=f4bb82aa-3d7e-4385-85c7-5b03e7cceb50","ios":"levelo://app?vid=f4bb82aa-3d7e-4385-85c7-5b03e7cceb50"},"vehicle_type_id":"4","last_reported":1723911032,"current_range_meters":6400,"station_id":"","pricing_plan_id":"cebpf4jnsgd1na2vs0mg"},{"bike_id":"ec26b9ca-8625-455e-b5ba-34534ffd47a6","system_id":"levelo_inurba_marseille","lat":43.305368,"lon":5.367343,"is_reserved":false,"is_disabled":false,"rental_uris":{"android":"levelo://app?vid=ec26b9ca-8625-455e-b5ba-34534ffd47a6","ios":"levelo://app?vid=ec26b9ca-8625-455e-b5ba-34534ffd47a6"},"vehicle_type_id":"4","last_reported":1723911032,"current_range_meters":31200,"station_id":"ce4bgrp2rcd13ifvqc9g","pricing_plan_id":"cebpf4jnsgd1na2vs0mg"},{"bike_id":"8dfee2f1-abbd-4cf9-94e2-a901373b87b9","system_id":"levelo_inurba_marseille","lat":43.3055,"lon":5.36551,"is_reserved":false,"is_disabled":false,"rental_uris":{"android":"levelo://app?vid=8dfee2f1-abbd-4cf9-94e2-a901373b87b9","ios":"levelo://app?vid=8dfee2f1-abbd-4cf9-94e2-a901373b87b9"},"vehicle_type_id":"4","last_reported":1723911032,"current_range_meters":0,"station_id":"ce4bgs12rcd13ifvqcag","pricing_plan_id":"cebpf4jnsgd1na2vs0mg"},{"bike_id":"a5d41c50-dc64-42c8-b1b8-d8c7e7c4e399","system_id":"levelo_inurba_marseille","lat":43.305989,"lon":5.37225,"is_reserved":false,"is_disabled":false,"rental_uris":{"android":"levelo://app?vid=a5d41c50-dc64-42c8-b1b8-d8c7e7c4e399","ios":"levelo://app?vid=a5d41c50-dc64-42c8-b1b8-d8c7e7c4e399"},"vehicle_type_id":"4","last_reported":1723911032,"current_range_meters":31600,"station_id":"ce4bgqh2rcd13ifvqc4g","pricing_plan_id":"cebpf4jnsgd1na2vs0mg"},{"bike_id":"3893729c-f004-49b6-9e56-788f8dc90931","system_id":"levelo_inurba_marseille","lat":43.305714,"lon":5.365633,"is_reserved":false,"is_disabled":false,"rental_uris":{"android":"levelo://app?vid=3893729c-f004-49b6-9e56-788f8dc90931","ios":"levelo://app?vid=3893729c-f004-49b6-9e56-788f8dc90931"},"vehicle_type_id":"4","last_reported":1723911032,"current_range_meters":31200,"station_id":"ce4bgs12rcd13ifvqcag","pricing_plan_id":"cebpf4jnsgd1na2vs0mg"},{"bike_id":"7176e93b-a397-4f79-ae2d-430667d85950","system_id":"levelo_inurba_marseille","lat":43.305989,"lon":5.37225,"is_reserved":false,"is_disabled":false,"rental_uris":{"android":"levelo://app?vid=7176e93b-a397-4f79-ae2d-430667d85950","ios":"levelo://app?vid=7176e93b-a397-4f79-ae2d-430667d85950"},"vehicle_type_id":"4","last_reported":1723911032,"current_range_meters":8400,"station_id":"ce4bgqh2rcd13ifvqc4g","pricing_plan_id":"cebpf4jnsgd1na2vs0mg"},{"bike_id":"7d4b034d-642d-4d74-8498-9f4fdeb267cc","system_id":"levelo_inurba_marseille","lat":43.305989,"lon":5.37225,"is_reserved":false,"is_disabled":false,"rental_uris":{"android":"levelo://app?vid=7d4b034d-642d-4d74-8498-9f4fdeb267cc","ios":"levelo://app?vid=7d4b034d-642d-4d74-8498-9f4fdeb267cc"},"vehicle_type_id":"4","last_reported":1723911032,"current_range_meters":31600,"station_id":"ce4bgqh2rcd13ifvqc4g","pricing_plan_id":"cebpf4jnsgd1na2vs0mg"},{"bike_id":"a90f6931-8871-436d-ba79-41e78a0d87bd","system_id":"levelo_inurba_marseille","lat":43.306006,"lon":5.372261,"is_reserved":false,"is_disabled":false,"rental_uris":{"android":"levelo://app?vid=a90f6931-8871-436d-ba79-41e78a0d87bd","ios":"levelo://app?vid=a90f6931-8871-436d-ba79-41e78a0d87bd"},"vehicle_type_id":"4","last_reported":1723911032,"current_range_meters":23200,"station_id":"ce4bgqh2rcd13ifvqc4g","pricing_plan_id":"cebpf4jnsgd1na2vs0mg"},{"bike_id":"2f7b45a2-a57b-42bc-aacb-de22e6724dc1","system_id":"levelo_inurba_marseille","lat":43.307945,"lon":5.376487,"is_reserved":false,"is_disabled":false,"rental_uris":{"android":"levelo://app?vid=2f7b45a2-a57b-42bc-aacb-de22e6724dc1","ios":"levelo://app?vid=2f7b45a2-a57b-42bc-aacb-de22e6724dc1"},"vehicle_type_id":"4","last_reported":1723911032,"current_range_meters":10000,"station_id":"ce4bgv92rcd13ifvqcq0","pricing_plan_id":"cebpf4jnsgd1na2vs0mg"},{"bike_id":"83a382b2-f029-476d-8d5c-a7d079386355","system_id":"levelo_inurba_marseille","lat":43.307945,"lon":5.376487,"is_reserved":false,"is_disabled":false,"rental_uris":{"android":"levelo://app?vid=83a382b2-f029-476d-8d5c-a7d079386355","ios":"levelo://app?vid=83a382b2-f029-476d-8d5c-a7d079386355"},"vehicle_type_id":"4","last_reported":1723911032,"current_range_meters":7200,"station_id":"ce4bgv92rcd13ifvqcq0","pricing_plan_id":"cebpf4jnsgd1na2vs0mg"},{"bike_id":"e4d5fbd9-fce7-421d-9329-11fecac3c797","system_id":"levelo_inurba_marseille","lat":43.307945,"lon":5.376487,"is_reserved":false,"is_disabled":false,"rental_uris":{"android":"levelo://app?vid=e4d5fbd9-fce7-421d-9329-11fecac3c797","ios":"levelo://app?vid=e4d5fbd9-fce7-421d-9329-11fecac3c797"},"vehicle_type_id":"4","last_reported":1723911032,"current_range_meters":20800,"station_id":"ce4bgv92rcd13ifvqcq0","pricing_plan_id":"cebpf4jnsgd1na2vs0mg"},{"bike_id":"6f3b0fff-03c6-4bf2-bf94-008f2d7ba3a4","system_id":"levelo_inurba_marseille","lat":43.3137,"lon":5.3792,"is_reserved":false,"is_disabled":false,"rental_uris":{"android":"levelo://app?vid=6f3b0fff-03c6-4bf2-bf94-008f2d7ba3a4","ios":"levelo://app?vid=6f3b0fff-03c6-4bf2-bf94-008f2d7ba3a4"},"vehicle_type_id":"4","last_reported":1723911032,"current_range_meters":2400,"station_id":"","pricing_plan_id":"cebpf4jnsgd1na2vs0mg"},{"bike_id":"be86603f-f6dc-43d5-91e4-34b51aac6f9e","system_id":"levelo_inurba_marseille","lat":43.30304,"lon":5.368987,"is_reserved":false,"is_disabled":false,"rental_uris":{"android":"levelo://app?vid=be86603f-f6dc-43d5-91e4-34b51aac6f9e","ios":"levelo://app?vid=be86603f-f6dc-43d5-91e4-34b51aac6f9e"},"vehicle_type_id":"4","last_reported":1723911032,"current_range_meters":0,"station_id":"ce4bgqh2rcd13ifvqc5g","pricing_plan_id":"cebpf4jnsgd1na2vs0mg"},{"bike_id":"b228d08b-33d0-434f-9897-2139b0ad2069","system_id":"levelo_inurba_marseille","lat":43.315289,"lon":5.380349,"is_reserved":false,"is_disabled":false,"rental_uris":{"android":"levelo://app?vid=b228d08b-33d0-434f-9897-2139b0ad2069","ios":"levelo://app?vid=b228d08b-33d0-434f-9897-2139b0ad2069"},"vehicle_type_id":"4","last_reported":1723911032,"current_range_meters":6800,"station_id":"ce4bhsp2rcd13ifvqi50","pricing_plan_id":"cebpf4jnsgd1na2vs0mg"},{"bike_id":"66b961cd-c008-4a61-961f-c052d78284f0","system_id":"levelo_inurba_marseille","lat":43.32271,"lon":5.3643,"is_reserved":false,"is_disabled":false,"rental_uris":{"android":"levelo://app?vid=66b961cd-c008-4a61-961f-c052d78284f0","ios":"levelo://app?vid=66b961cd-c008-4a61-961f-c052d78284f0"},"vehicle_type_id":"4","last_reported":1723911032,"current_range_meters":0,"station_id":"","pricing_plan_id":"cebpf4jnsgd1na2vs0mg"},{"bike_id":"3ecaacc4-a174-454a-87ee-66ae2927f762","system_id":"levelo_inurba_marseille","lat":43.31419,"lon":5.38074,"is_reserved":false,"is_disabled":false,"rental_uris":{"android":"levelo://app?vid=3ecaacc4-a174-454a-87ee-66ae2927f762","ios":"levelo://app?vid=3ecaacc4-a174-454a-87ee-66ae2927f762"},"vehicle_type_id":"4","last_reported":1723911032,"current_range_meters":1200,"station_id":"","pricing_plan_id":"cebpf4jnsgd1na2vs0mg"},{"bike_id":"6525aa52-816a-4c8e-ad78-f32505ccdfba","system_id":"levelo_inurba_marseille","lat":43.31027,"lon":5.38064,"is_reserved":false,"is_disabled":false,"rental_uris":{"android":"levelo://app?vid=6525aa52-816a-4c8e-ad78-f32505ccdfba","ios":"levelo://app?vid=6525aa52-816a-4c8e-ad78-f32505ccdfba"},"vehicle_type_id":"4","last_reported":1723911032,"current_range_meters":4800,"station_id":"","pricing_plan_id":"cebpf4jnsgd1na2vs0mg"},{"bike_id":"c867e4fa-ca77-4754-ac6b-ee5239945874","system_id":"levelo_inurba_marseille","lat":43.308601,"lon":5.380812,"is_reserved":false,"is_disabled":false,"rental_uris":{"android":"levelo://app?vid=c867e4fa-ca77-4754-ac6b-ee5239945874","ios":"levelo://app?vid=c867e4fa-ca77-4754-ac6b-ee5239945874"},"vehicle_type_id":"4","last_reported":1723911032,"current_range_meters":13600,"station_id":"","pricing_plan_id":"cebpf4jnsgd1na2vs0mg"},{"bike_id":"2cc6356a-ab01-451c-aadd-5de1b980f636","system_id":"levelo_inurba_marseille","lat":43.324771,"lon":5.36557,"is_reserved":false,"is_disabled":false,"rental_uris":{"android":"levelo://app?vid=2cc6356a-ab01-451c-aadd-5de1b980f636","ios":"levelo://app?vid=2cc6356a-ab01-451c-aadd-5de1b980f636"},"vehicle_type_id":"4","last_reported":1723911032,"current_range_meters":10000,"station_id":"ce4bhs12rcd13ifvqhvg","pricing_plan_id":"cebpf4jnsgd1na2vs0mg"},{"bike_id":"59747f8d-0b96-48d0-bcc9-621f2ef0df90","system_id":"levelo_inurba_marseille","lat":43.32485,"lon":5.36571,"is_reserved":false,"is_disabled":false,"rental_uris":{"android":"levelo://app?vid=59747f8d-0b96-48d0-bcc9-621f2ef0df90","ios":"levelo://app?vid=59747f8d-0b96-48d0-bcc9-621f2ef0df90"},"vehicle_type_id":"4","last_reported":1723911032,"current_range_meters":20000,"station_id":"ce4bhs12rcd13ifvqhvg","pricing_plan_id":"cebpf4jnsgd1na2vs0mg"},{"bike_id":"756aeab3-2325-4807-b1aa-6fbe6e32b280","system_id":"levelo_inurba_marseille","lat":43.324771,"lon":5.36557,"is_reserved":false,"is_disabled":false,"rental_uris":{"android":"levelo://app?vid=756aeab3-2325-4807-b1aa-6fbe6e32b280","ios":"levelo://app?vid=756aeab3-2325-4807-b1aa-6fbe6e32b280"},"vehicle_type_id":"4","last_reported":1723911032,"current_range_meters":26400,"station_id":"ce4bhs12rcd13ifvqhvg","pricing_plan_id":"cebpf4jnsgd1na2vs0mg"},{"bike_id":"3002f280-7517-4418-82ef-061406a0cac0","system_id":"levelo_inurba_marseille","lat":43.324903,"lon":5.368718,"is_reserved":false,"is_disabled":false,"rental_uris":{"android":"levelo://app?vid=3002f280-7517-4418-82ef-061406a0cac0","ios":"levelo://app?vid=3002f280-7517-4418-82ef-061406a0cac0"},"vehicle_type_id":"4","last_reported":1723911032,"current_range_meters":3200,"station_id":"","pricing_plan_id":"cebpf4jnsgd1na2vs0mg"},{"bike_id":"c31c16a1-46a0-4b6f-ba56-ade25c395383","system_id":"levelo_inurba_marseille","lat":43.30143,"lon":5.37413,"is_reserved":false,"is_disabled":false,"rental_uris":{"android":"levelo://app?vid=c31c16a1-46a0-4b6f-ba56-ade25c395383","ios":"levelo://app?vid=c31c16a1-46a0-4b6f-ba56-ade25c395383"},"vehicle_type_id":"4","last_reported":1723911032,"current_range_meters":800,"station_id":"ce4bgs92rcd13ifvqcc0","pricing_plan_id":"cebpf4jnsgd1na2vs0mg"},{"bike_id":"12f24074-b3ed-4294-9712-3012f3f35e88","system_id":"levelo_inurba_marseille","lat":43.30577,"lon":5.38181,"is_reserved":false,"is_disabled":false,"rental_uris":{"android":"levelo://app?vid=12f24074-b3ed-4294-9712-3012f3f35e88","ios":"levelo://app?vid=12f24074-b3ed-4294-9712-3012f3f35e88"},"vehicle_type_id":"4","last_reported":1723911032,"current_range_meters":18000,"station_id":"","pricing_plan_id":"cebpf4jnsgd1na2vs0mg"},{"bike_id":"c9852958-5f58-42ad-9b66-e0fcedbb5e1d","system_id":"levelo_inurba_marseille","lat":43.299724,"lon":5.371829,"is_reserved":false,"is_disabled":false,"rental_uris":{"android":"levelo://app?vid=c9852958-5f58-42ad-9b66-e0fcedbb5e1d","ios":"levelo://app?vid=c9852958-5f58-42ad-9b66-e0fcedbb5e1d"},"vehicle_type_id":"4","last_reported":1723911032,"current_range_meters":800,"station_id":"ce4bgr92rcd13ifvqc7g","pricing_plan_id":"cebpf4jnsgd1na2vs0mg"},{"bike_id":"860cc59b-d6b9-47f1-bab2-16122508d7c5","system_id":"levelo_inurba_marseille","lat":43.299724,"lon":5.371829,"is_reserved":false,"is_disabled":false,"rental_uris":{"android":"levelo://app?vid=860cc59b-d6b9-47f1-bab2-16122508d7c5","ios":"levelo://app?vid=860cc59b-d6b9-47f1-bab2-16122508d7c5"},"vehicle_type_id":"4","last_reported":1723911032,"current_range_meters":0,"station_id":"ce4bgr92rcd13ifvqc7g","pricing_plan_id":"cebpf4jnsgd1na2vs0mg"},{"bike_id":"e380a16c-fb96-4f4f-a843-3ff103fd6840","system_id":"levelo_inurba_marseille","lat":43.299724,"lon":5.371829,"is_reserved":false,"is_disabled":false,"rental_uris":{"android":"levelo://app?vid=e380a16c-fb96-4f4f-a843-3ff103fd6840","ios":"levelo://app?vid=e380a16c-fb96-4f4f-a843-3ff103fd6840"},"vehicle_type_id":"4","last_reported":1723911032,"current_range_meters":22000,"station_id":"ce4bgr92rcd13ifvqc7g","pricing_plan_id":"cebpf4jnsgd1na2vs0mg"},{"bike_id":"735548fb-64b5-46d8-bc74-4fc47794355a","system_id":"levelo_inurba_marseille","lat":43.298433,"lon":5.362774,"is_reserved":false,"is_disabled":false,"rental_uris":{"android":"levelo://app?vid=735548fb-64b5-46d8-bc74-4fc47794355a","ios":"levelo://app?vid=735548fb-64b5-46d8-bc74-4fc47794355a"},"vehicle_type_id":"4","last_reported":1723911032,"current_range_meters":0,"station_id":"ce4bgpp2rcd13ifvqc3g","pricing_plan_id":"cebpf4jnsgd1na2vs0mg"},{"bike_id":"8f6fbb8a-d9f0-4ecc-9e6b-14b3065c040c","system_id":"levelo_inurba_marseille","lat":43.298433,"lon":5.362774,"is_reserved":false,"is_disabled":false,"rental_uris":{"android":"levelo://app?vid=8f6fbb8a-d9f0-4ecc-9e6b-14b3065c040c","ios":"levelo://app?vid=8f6fbb8a-d9f0-4ecc-9e6b-14b3065c040c"},"vehicle_type_id":"4","last_reported":1723911032,"current_range_meters":17200,"station_id":"ce4bgpp2rcd13ifvqc3g","pricing_plan_id":"cebpf4jnsgd1na2vs0mg"},{"bike_id":"fc370c8a-be46-409e-9f55-88af7e23c59e","system_id":"levelo_inurba_marseille","lat":43.298433,"lon":5.362774,"is_reserved":false,"is_disabled":false,"rental_uris":{"android":"levelo://app?vid=fc370c8a-be46-409e-9f55-88af7e23c59e","ios":"levelo://app?vid=fc370c8a-be46-409e-9f55-88af7e23c59e"},"vehicle_type_id":"4","last_reported":1723911032,"current_range_meters":20400,"station_id":"ce4bgpp2rcd13ifvqc3g","pricing_plan_id":"cebpf4jnsgd1na2vs0mg"},{"bike_id":"e1333b05-78f8-4e9e-b75a-21417198a02b","system_id":"levelo_inurba_marseille","lat":43.311722,"lon":5.387247,"is_reserved":false,"is_disabled":false,"rental_uris":{"android":"levelo://app?vid=e1333b05-78f8-4e9e-b75a-21417198a02b","ios":"levelo://app?vid=e1333b05-78f8-4e9e-b75a-21417198a02b"},"vehicle_type_id":"4","last_reported":1723911032,"current_range_meters":4000,"station_id":"ce4bgv12rcd13ifvqcp0","pricing_plan_id":"cebpf4jnsgd1na2vs0mg"},{"bike_id":"22c11111-d277-4824-b088-bea56e25e453","system_id":"levelo_inurba_marseille","lat":43.30151,"lon":5.38077,"is_reserved":false,"is_disabled":false,"rental_uris":{"android":"levelo://app?vid=22c11111-d277-4824-b088-bea56e25e453","ios":"levelo://app?vid=22c11111-d277-4824-b088-bea56e25e453"},"vehicle_type_id":"4","last_reported":1723911032,"current_range_meters":0,"station_id":"ce4bgjp2rcd13ifvqbh0","pricing_plan_id":"cebpf4jnsgd1na2vs0mg"},{"bike_id":"4b7054a4-91be-4bc0-ae99-6f8b65a0f22b","system_id":"levelo_inurba_marseille","lat":43.30148,"lon":5.38083,"is_reserved":false,"is_disabled":false,"rental_uris":{"android":"levelo://app?vid=4b7054a4-91be-4bc0-ae99-6f8b65a0f22b","ios":"levelo://app?vid=4b7054a4-91be-4bc0-ae99-6f8b65a0f22b"},"vehicle_type_id":"4","last_reported":1723911032,"current_range_meters":0,"station_id":"ce4bgjp2rcd13ifvqbh0","pricing_plan_id":"cebpf4jnsgd1na2vs0mg"},{"bike_id":"513e6b2f-b412-47fc-91d8-424f8b7f1114","system_id":"levelo_inurba_marseille","lat":43.297774,"lon":5.370875,"is_reserved":false,"is_disabled":false,"rental_uris":{"android":"levelo://app?vid=513e6b2f-b412-47fc-91d8-424f8b7f1114","ios":"levelo://app?vid=513e6b2f-b412-47fc-91d8-424f8b7f1114"},"vehicle_type_id":"4","last_reported":1723911032,"current_range_meters":6800,"station_id":"ce4bgop2rcd13ifvqc1g","pricing_plan_id":"cebpf4jnsgd1na2vs0mg"},{"bike_id":"e0351634-cfd3-4ede-b9c6-58441e4dbee4","system_id":"levelo_inurba_marseille","lat":43.298567,"lon":5.374643,"is_reserved":false,"is_disabled":false,"rental_uris":{"android":"levelo://app?vid=e0351634-cfd3-4ede-b9c6-58441e4dbee4","ios":"levelo://app?vid=e0351634-cfd3-4ede-b9c6-58441e4dbee4"},"vehicle_type_id":"4","last_reported":1723911032,"current_range_meters":18000,"station_id":"","pricing_plan_id":"cebpf4jnsgd1na2vs0mg"},{"bike_id":"7d9319a8-e10f-4377-bcd0-c13f64eda417","system_id":"levelo_inurba_marseille","lat":43.322872,"lon":5.382756,"is_reserved":false,"is_disabled":false,"rental_uris":{"android":"levelo://app?vid=7d9319a8-e10f-4377-bcd0-c13f64eda417","ios":"levelo://app?vid=7d9319a8-e10f-4377-bcd0-c13f64eda417"},"vehicle_type_id":"4","last_reported":1723911032,"current_range_meters":22000,"station_id":"ce4bhr12rcd13ifvqhqg","pricing_plan_id":"cebpf4jnsgd1na2vs0mg"},{"bike_id":"e83bc34a-7b8e-4fe1-b589-176aa19c08ee","system_id":"levelo_inurba_marseille","lat":43.3231,"lon":5.38291,"is_reserved":false,"is_disabled":false,"rental_uris":{"android":"levelo://app?vid=e83bc34a-7b8e-4fe1-b589-176aa19c08ee","ios":"levelo://app?vid=e83bc34a-7b8e-4fe1-b589-176aa19c08ee"},"vehicle_type_id":"4","last_reported":1723911032,"current_range_meters":26000,"station_id":"ce4bhr12rcd13ifvqhqg","pricing_plan_id":"cebpf4jnsgd1na2vs0mg"},{"bike_id":"c33ecb0a-d650-4c6a-9153-1b045d935642","system_id":"levelo_inurba_marseille","lat":43.311722,"lon":5.387247,"is_reserved":false,"is_disabled":false,"rental_uris":{"android":"levelo://app?vid=c33ecb0a-d650-4c6a-9153-1b045d935642","ios":"levelo://app?vid=c33ecb0a-d650-4c6a-9153-1b045d935642"},"vehicle_type_id":"4","last_reported":1723911032,"current_range_meters":0,"station_id":"ce4bgv12rcd13ifvqcp0","pricing_plan_id":"cebpf4jnsgd1na2vs0mg"},{"bike_id":"1b90cf06-f2ae-423e-b7fc-3ffc5738d256","system_id":"levelo_inurba_marseille","lat":43.32377,"lon":5.38422,"is_reserved":false,"is_disabled":false,"rental_uris":{"android":"levelo://app?vid=1b90cf06-f2ae-423e-b7fc-3ffc5738d256","ios":"levelo://app?vid=1b90cf06-f2ae-423e-b7fc-3ffc5738d256"},"vehicle_type_id":"4","last_reported":1723911032,"current_range_meters":15600,"station_id":"","pricing_plan_id":"cebpf4jnsgd1na2vs0mg"},{"bike_id":"af6edc6a-03c1-4096-b8b0-80be441139a2","system_id":"levelo_inurba_marseille","lat":43.322827,"lon":5.385337,"is_reserved":false,"is_disabled":false,"rental_uris":{"android":"levelo://app?vid=af6edc6a-03c1-4096-b8b0-80be441139a2","ios":"levelo://app?vid=af6edc6a-03c1-4096-b8b0-80be441139a2"},"vehicle_type_id":"4","last_reported":1723911032,"current_range_meters":6000,"station_id":"","pricing_plan_id":"cebpf4jnsgd1na2vs0mg"},{"bike_id":"21230ba1-ad7c-46cf-b5d8-bff14cf74a26","system_id":"levelo_inurba_marseille","lat":43.29628,"lon":5.37147,"is_reserved":false,"is_disabled":false,"rental_uris":{"android":"levelo://app?vid=21230ba1-ad7c-46cf-b5d8-bff14cf74a26","ios":"levelo://app?vid=21230ba1-ad7c-46cf-b5d8-bff14cf74a26"},"vehicle_type_id":"4","last_reported":1723911032,"current_range_meters":23600,"station_id":"ce4bgnh2rcd13ifvqc0g","pricing_plan_id":"cebpf4jnsgd1na2vs0mg"},{"bike_id":"5af759cf-5e4b-45a0-be27-1a98e1b64717","system_id":"levelo_inurba_marseille","lat":43.296131,"lon":5.370791,"is_reserved":false,"is_disabled":false,"rental_uris":{"android":"levelo://app?vid=5af759cf-5e4b-45a0-be27-1a98e1b64717","ios":"levelo://app?vid=5af759cf-5e4b-45a0-be27-1a98e1b64717"},"vehicle_type_id":"4","last_reported":1723911032,"current_range_meters":0,"station_id":"ce4bgnh2rcd13ifvqc0g","pricing_plan_id":"cebpf4jnsgd1na2vs0mg"},{"bike_id":"4c0fb495-8b83-4a06-9fa2-c8e91bffa027","system_id":"levelo_inurba_marseille","lat":43.296935,"lon":5.376544,"is_reserved":false,"is_disabled":false,"rental_uris":{"android":"levelo://app?vid=4c0fb495-8b83-4a06-9fa2-c8e91bffa027","ios":"levelo://app?vid=4c0fb495-8b83-4a06-9fa2-c8e91bffa027"},"vehicle_type_id":"4","last_reported":1723911032,"current_range_meters":22800,"station_id":"ce4bgkh2rcd13ifvqbl0","pricing_plan_id":"cebpf4jnsgd1na2vs0mg"},{"bike_id":"f55776c1-a52a-45b6-9dc2-65393bc9fc15","system_id":"levelo_inurba_marseille","lat":43.309589,"lon":5.390258,"is_reserved":false,"is_disabled":false,"rental_uris":{"android":"levelo://app?vid=f55776c1-a52a-45b6-9dc2-65393bc9fc15","ios":"levelo://app?vid=f55776c1-a52a-45b6-9dc2-65393bc9fc15"},"vehicle_type_id":"4","last_reported":1723911032,"current_range_meters":28000,"station_id":"ce4bgup2rcd13ifvqco0","pricing_plan_id":"cebpf4jnsgd1na2vs0mg"},{"bike_id":"e0c8aa0d-d7c9-4377-9380-73b0a15ceccc","system_id":"levelo_inurba_marseille","lat":43.309589,"lon":5.390258,"is_reserved":false,"is_disabled":false,"rental_uris":{"android":"levelo://app?vid=e0c8aa0d-d7c9-4377-9380-73b0a15ceccc","ios":"levelo://app?vid=e0c8aa0d-d7c9-4377-9380-73b0a15ceccc"},"vehicle_type_id":"4","last_reported":1723911032,"current_range_meters":16400,"station_id":"ce4bgup2rcd13ifvqco0","pricing_plan_id":"cebpf4jnsgd1na2vs0mg"},{"bike_id":"9edcb24a-b803-445e-b345-5bad5e26fc01","system_id":"levelo_inurba_marseille","lat":43.29589,"lon":5.37493,"is_reserved":false,"is_disabled":false,"rental_uris":{"android":"levelo://app?vid=9edcb24a-b803-445e-b345-5bad5e26fc01","ios":"levelo://app?vid=9edcb24a-b803-445e-b345-5bad5e26fc01"},"vehicle_type_id":"4","last_reported":1723911032,"current_range_meters":14000,"station_id":"ce4bgh92rcd13ifvqb50","pricing_plan_id":"cebpf4jnsgd1na2vs0mg"},{"bike_id":"b6b9c264-8290-4252-bf2c-60e0b3eeb254","system_id":"levelo_inurba_marseille","lat":43.29798,"lon":5.38089,"is_reserved":false,"is_disabled":false,"rental_uris":{"android":"levelo://app?vid=b6b9c264-8290-4252-bf2c-60e0b3eeb254","ios":"levelo://app?vid=b6b9c264-8290-4252-bf2c-60e0b3eeb254"},"vehicle_type_id":"4","last_reported":1723911032,"current_range_meters":0,"station_id":"ce4bgip2rcd13ifvqbb0","pricing_plan_id":"cebpf4jnsgd1na2vs0mg"},{"bike_id":"f52b708a-e896-4b54-9caa-1dbbff85f07d","system_id":"levelo_inurba_marseille","lat":43.295748,"lon":5.37522,"is_reserved":false,"is_disabled":false,"rental_uris":{"android":"levelo://app?vid=f52b708a-e896-4b54-9caa-1dbbff85f07d","ios":"levelo://app?vid=f52b708a-e896-4b54-9caa-1dbbff85f07d"},"vehicle_type_id":"4","last_reported":1723911032,"current_range_meters":2400,"station_id":"ce4bgh92rcd13ifvqb50","pricing_plan_id":"cebpf4jnsgd1na2vs0mg"},{"bike_id":"9fe2b0d1-0b27-49f8-85a4-cc0cd7b4c903","system_id":"levelo_inurba_marseille","lat":43.304274,"lon":5.388873,"is_reserved":false,"is_disabled":false,"rental_uris":{"android":"levelo://app?vid=9fe2b0d1-0b27-49f8-85a4-cc0cd7b4c903","ios":"levelo://app?vid=9fe2b0d1-0b27-49f8-85a4-cc0cd7b4c903"},"vehicle_type_id":"4","last_reported":1723911032,"current_range_meters":20400,"station_id":"ce4bgk12rcd13ifvqbi0","pricing_plan_id":"cebpf4jnsgd1na2vs0mg"},{"bike_id":"d46effae-b0df-487c-9852-f680dbdb388a","system_id":"levelo_inurba_marseille","lat":43.295748,"lon":5.37522,"is_reserved":false,"is_disabled":false,"rental_uris":{"android":"levelo://app?vid=d46effae-b0df-487c-9852-f680dbdb388a","ios":"levelo://app?vid=d46effae-b0df-487c-9852-f680dbdb388a"},"vehicle_type_id":"4","last_reported":1723911032,"current_range_meters":6800,"station_id":"ce4bgh92rcd13ifvqb50","pricing_plan_id":"cebpf4jnsgd1na2vs0mg"},{"bike_id":"71a2593f-58a1-46c8-84e1-187b25b2e74e","system_id":"levelo_inurba_marseille","lat":43.295748,"lon":5.37522,"is_reserved":false,"is_disabled":false,"rental_uris":{"android":"levelo://app?vid=71a2593f-58a1-46c8-84e1-187b25b2e74e","ios":"levelo://app?vid=71a2593f-58a1-46c8-84e1-187b25b2e74e"},"vehicle_type_id":"4","last_reported":1723911032,"current_range_meters":4800,"station_id":"ce4bgh92rcd13ifvqb50","pricing_plan_id":"cebpf4jnsgd1na2vs0mg"},{"bike_id":"2017b4a6-8a81-4025-9751-10fdd862ff04","system_id":"levelo_inurba_marseille","lat":43.295748,"lon":5.37522,"is_reserved":false,"is_disabled":false,"rental_uris":{"android":"levelo://app?vid=2017b4a6-8a81-4025-9751-10fdd862ff04","ios":"levelo://app?vid=2017b4a6-8a81-4025-9751-10fdd862ff04"},"vehicle_type_id":"4","last_reported":1723911032,"current_range_meters":20000,"station_id":"ce4bgh92rcd13ifvqb50","pricing_plan_id":"cebpf4jnsgd1na2vs0mg"},{"bike_id":"e08fcc60-f2bc-4399-992f-6c02d1ff05a8","system_id":"levelo_inurba_marseille","lat":43.296263,"lon":5.377094,"is_reserved":false,"is_disabled":false,"rental_uris":{"android":"levelo://app?vid=e08fcc60-f2bc-4399-992f-6c02d1ff05a8","ios":"levelo://app?vid=e08fcc60-f2bc-4399-992f-6c02d1ff05a8"},"vehicle_type_id":"4","last_reported":1723911032,"current_range_meters":12400,"station_id":"ce4bgi92rcd13ifvqb90","pricing_plan_id":"cebpf4jnsgd1na2vs0mg"},{"bike_id":"098f9425-b1f9-46fd-80f4-98430eb22807","system_id":"levelo_inurba_marseille","lat":43.296263,"lon":5.377094,"is_reserved":false,"is_disabled":false,"rental_uris":{"android":"levelo://app?vid=098f9425-b1f9-46fd-80f4-98430eb22807","ios":"levelo://app?vid=098f9425-b1f9-46fd-80f4-98430eb22807"},"vehicle_type_id":"4","last_reported":1723911032,"current_range_meters":5200,"station_id":"ce4bgi92rcd13ifvqb90","pricing_plan_id":"cebpf4jnsgd1na2vs0mg"},{"bike_id":"551f7b2f-7a09-4eae-9eb6-25ddca4fc133","system_id":"levelo_inurba_marseille","lat":43.295279,"lon":5.375048,"is_reserved":false,"is_disabled":false,"rental_uris":{"android":"levelo://app?vid=551f7b2f-7a09-4eae-9eb6-25ddca4fc133","ios":"levelo://app?vid=551f7b2f-7a09-4eae-9eb6-25ddca4fc133"},"vehicle_type_id":"4","last_reported":1723911032,"current_range_meters":30400,"station_id":"ce4bgkp2rcd13ifvqbmg","pricing_plan_id":"cebpf4jnsgd1na2vs0mg"},{"bike_id":"fb69f310-afa7-4ab8-9059-22551930e2ef","system_id":"levelo_inurba_marseille","lat":43.29974,"lon":5.38487,"is_reserved":false,"is_disabled":false,"rental_uris":{"android":"levelo://app?vid=fb69f310-afa7-4ab8-9059-22551930e2ef","ios":"levelo://app?vid=fb69f310-afa7-4ab8-9059-22551930e2ef"},"vehicle_type_id":"4","last_reported":1723911032,"current_range_meters":16800,"station_id":"ce4bgj92rcd13ifvqbd0","pricing_plan_id":"cebpf4jnsgd1na2vs0mg"},{"bike_id":"706c79d3-e026-4c34-aa4a-7fa731731655","system_id":"levelo_inurba_marseille","lat":43.29974,"lon":5.3849,"is_reserved":false,"is_disabled":false,"rental_uris":{"android":"levelo://app?vid=706c79d3-e026-4c34-aa4a-7fa731731655","ios":"levelo://app?vid=706c79d3-e026-4c34-aa4a-7fa731731655"},"vehicle_type_id":"4","last_reported":1723911032,"current_range_meters":10400,"station_id":"ce4bgj92rcd13ifvqbd0","pricing_plan_id":"cebpf4jnsgd1na2vs0mg"},{"bike_id":"c23f0572-f9d8-44ed-8150-d9e0d6617f03","system_id":"levelo_inurba_marseille","lat":43.29974,"lon":5.38493,"is_reserved":false,"is_disabled":false,"rental_uris":{"android":"levelo://app?vid=c23f0572-f9d8-44ed-8150-d9e0d6617f03","ios":"levelo://app?vid=c23f0572-f9d8-44ed-8150-d9e0d6617f03"},"vehicle_type_id":"4","last_reported":1723911032,"current_range_meters":14800,"station_id":"ce4bgj92rcd13ifvqbd0","pricing_plan_id":"cebpf4jnsgd1na2vs0mg"},{"bike_id":"7b3ef70f-0c16-41c1-9422-b38d8bb3b09a","system_id":"levelo_inurba_marseille","lat":43.29968,"lon":5.385,"is_reserved":false,"is_disabled":false,"rental_uris":{"android":"levelo://app?vid=7b3ef70f-0c16-41c1-9422-b38d8bb3b09a","ios":"levelo://app?vid=7b3ef70f-0c16-41c1-9422-b38d8bb3b09a"},"vehicle_type_id":"4","last_reported":1723911032,"current_range_meters":26000,"station_id":"ce4bgj92rcd13ifvqbd0","pricing_plan_id":"cebpf4jnsgd1na2vs0mg"},{"bike_id":"f243d49e-57e5-4eac-9cd2-d435db3c1001","system_id":"levelo_inurba_marseille","lat":43.301396,"lon":5.387812,"is_reserved":false,"is_disabled":false,"rental_uris":{"android":"levelo://app?vid=f243d49e-57e5-4eac-9cd2-d435db3c1001","ios":"levelo://app?vid=f243d49e-57e5-4eac-9cd2-d435db3c1001"},"vehicle_type_id":"4","last_reported":1723911032,"current_range_meters":26000,"station_id":"ce4bghh2rcd13ifvqb60","pricing_plan_id":"cebpf4jnsgd1na2vs0mg"},{"bike_id":"0651b77d-db26-4104-9326-94571074f2c2","system_id":"levelo_inurba_marseille","lat":43.301396,"lon":5.387812,"is_reserved":false,"is_disabled":false,"rental_uris":{"android":"levelo://app?vid=0651b77d-db26-4104-9326-94571074f2c2","ios":"levelo://app?vid=0651b77d-db26-4104-9326-94571074f2c2"},"vehicle_type_id":"4","last_reported":1723911032,"current_range_meters":0,"station_id":"ce4bghh2rcd13ifvqb60","pricing_plan_id":"cebpf4jnsgd1na2vs0mg"},{"bike_id":"4695654e-795a-4819-9c9a-657df6327031","system_id":"levelo_inurba_marseille","lat":43.301396,"lon":5.387812,"is_reserved":false,"is_disabled":false,"rental_uris":{"android":"levelo://app?vid=4695654e-795a-4819-9c9a-657df6327031","ios":"levelo://app?vid=4695654e-795a-4819-9c9a-657df6327031"},"vehicle_type_id":"4","last_reported":1723911032,"current_range_meters":2000,"station_id":"ce4bghh2rcd13ifvqb60","pricing_plan_id":"cebpf4jnsgd1na2vs0mg"},{"bike_id":"7972dc04-0f6e-4c65-879f-4545ee2046c2","system_id":"levelo_inurba_marseille","lat":43.32336,"lon":5.38904,"is_reserved":false,"is_disabled":false,"rental_uris":{"android":"levelo://app?vid=7972dc04-0f6e-4c65-879f-4545ee2046c2","ios":"levelo://app?vid=7972dc04-0f6e-4c65-879f-4545ee2046c2"},"vehicle_type_id":"4","last_reported":1723911032,"current_range_meters":16800,"station_id":"ce4bhqp2rcd13ifvqhog","pricing_plan_id":"cebpf4jnsgd1na2vs0mg"},{"bike_id":"49a012ae-770c-427d-b839-fbad34fb430e","system_id":"levelo_inurba_marseille","lat":43.29317,"lon":5.37171,"is_reserved":false,"is_disabled":false,"rental_uris":{"android":"levelo://app?vid=49a012ae-770c-427d-b839-fbad34fb430e","ios":"levelo://app?vid=49a012ae-770c-427d-b839-fbad34fb430e"},"vehicle_type_id":"4","last_reported":1723911032,"current_range_meters":4800,"station_id":"ce4bgh92rcd13ifvqb40","pricing_plan_id":"cebpf4jnsgd1na2vs0mg"},{"bike_id":"41fbb765-291b-4f77-89f8-0db743390a8e","system_id":"levelo_inurba_marseille","lat":43.293249,"lon":5.371578,"is_reserved":false,"is_disabled":false,"rental_uris":{"android":"levelo://app?vid=41fbb765-291b-4f77-89f8-0db743390a8e","ios":"levelo://app?vid=41fbb765-291b-4f77-89f8-0db743390a8e"},"vehicle_type_id":"4","last_reported":1723911032,"current_range_meters":22400,"station_id":"ce4bgh92rcd13ifvqb40","pricing_plan_id":"cebpf4jnsgd1na2vs0mg"},{"bike_id":"0be16c90-252d-4957-8c0c-37f8754570ad","system_id":"levelo_inurba_marseille","lat":43.293259,"lon":5.371586,"is_reserved":false,"is_disabled":false,"rental_uris":{"android":"levelo://app?vid=0be16c90-252d-4957-8c0c-37f8754570ad","ios":"levelo://app?vid=0be16c90-252d-4957-8c0c-37f8754570ad"},"vehicle_type_id":"4","last_reported":1723911032,"current_range_meters":18800,"station_id":"ce4bgh92rcd13ifvqb40","pricing_plan_id":"cebpf4jnsgd1na2vs0mg"},{"bike_id":"0d0a27dd-50c1-4ec2-a9c5-87248a8082c7","system_id":"levelo_inurba_marseille","lat":43.29306,"lon":5.37171,"is_reserved":false,"is_disabled":false,"rental_uris":{"android":"levelo://app?vid=0d0a27dd-50c1-4ec2-a9c5-87248a8082c7","ios":"levelo://app?vid=0d0a27dd-50c1-4ec2-a9c5-87248a8082c7"},"vehicle_type_id":"4","last_reported":1723911032,"current_range_meters":8000,"station_id":"ce4bgh92rcd13ifvqb40","pricing_plan_id":"cebpf4jnsgd1na2vs0mg"},{"bike_id":"3990ae32-ae7c-4f17-bb15-d0b159e67e07","system_id":"levelo_inurba_marseille","lat":43.292749,"lon":5.368398,"is_reserved":false,"is_disabled":false,"rental_uris":{"android":"levelo://app?vid=3990ae32-ae7c-4f17-bb15-d0b159e67e07","ios":"levelo://app?vid=3990ae32-ae7c-4f17-bb15-d0b159e67e07"},"vehicle_type_id":"4","last_reported":1723911032,"current_range_meters":800,"station_id":"ce4bhbp2rcd13ifvqesg","pricing_plan_id":"cebpf4jnsgd1na2vs0mg"},{"bike_id":"86d6c402-340f-442d-bae3-12a3bb6d8b6f","system_id":"levelo_inurba_marseille","lat":43.29304,"lon":5.37174,"is_reserved":false,"is_disabled":false,"rental_uris":{"android":"levelo://app?vid=86d6c402-340f-442d-bae3-12a3bb6d8b6f","ios":"levelo://app?vid=86d6c402-340f-442d-bae3-12a3bb6d8b6f"},"vehicle_type_id":"4","last_reported":1723911032,"current_range_meters":0,"station_id":"ce4bgh92rcd13ifvqb40","pricing_plan_id":"cebpf4jnsgd1na2vs0mg"},{"bike_id":"9a4be0c4-ce46-456c-8398-e2a7e2bd6bea","system_id":"levelo_inurba_marseille","lat":43.292749,"lon":5.368402,"is_reserved":false,"is_disabled":false,"rental_uris":{"android":"levelo://app?vid=9a4be0c4-ce46-456c-8398-e2a7e2bd6bea","ios":"levelo://app?vid=9a4be0c4-ce46-456c-8398-e2a7e2bd6bea"},"vehicle_type_id":"4","last_reported":1723911032,"current_range_meters":4800,"station_id":"ce4bhbp2rcd13ifvqesg","pricing_plan_id":"cebpf4jnsgd1na2vs0mg"},{"bike_id":"d0131b23-c69b-4ea7-8b65-2a1b5f03e086","system_id":"levelo_inurba_marseille","lat":43.292733,"lon":5.368411,"is_reserved":false,"is_disabled":false,"rental_uris":{"android":"levelo://app?vid=d0131b23-c69b-4ea7-8b65-2a1b5f03e086","ios":"levelo://app?vid=d0131b23-c69b-4ea7-8b65-2a1b5f03e086"},"vehicle_type_id":"4","last_reported":1723911032,"current_range_meters":7600,"station_id":"","pricing_plan_id":"cebpf4jnsgd1na2vs0mg"},{"bike_id":"979befda-3ccb-4363-8a7b-a2d4cbae0b40","system_id":"levelo_inurba_marseille","lat":43.292749,"lon":5.368402,"is_reserved":false,"is_disabled":false,"rental_uris":{"android":"levelo://app?vid=979befda-3ccb-4363-8a7b-a2d4cbae0b40","ios":"levelo://app?vid=979befda-3ccb-4363-8a7b-a2d4cbae0b40"},"vehicle_type_id":"4","last_reported":1723911032,"current_range_meters":15600,"station_id":"ce4bhbp2rcd13ifvqesg","pricing_plan_id":"cebpf4jnsgd1na2vs0mg"},{"bike_id":"514cd054-2f8b-46e6-a072-3f8ffcb358df","system_id":"levelo_inurba_marseille","lat":43.292749,"lon":5.368402,"is_reserved":false,"is_disabled":false,"rental_uris":{"android":"levelo://app?vid=514cd054-2f8b-46e6-a072-3f8ffcb358df","ios":"levelo://app?vid=514cd054-2f8b-46e6-a072-3f8ffcb358df"},"vehicle_type_id":"4","last_reported":1723911032,"current_range_meters":7200,"station_id":"ce4bhbp2rcd13ifvqesg","pricing_plan_id":"cebpf4jnsgd1na2vs0mg"},{"bike_id":"c6ad2796-03da-4cbe-80f6-af6aacb75223","system_id":"levelo_inurba_marseille","lat":43.292749,"lon":5.368398,"is_reserved":false,"is_disabled":false,"rental_uris":{"android":"levelo://app?vid=c6ad2796-03da-4cbe-80f6-af6aacb75223","ios":"levelo://app?vid=c6ad2796-03da-4cbe-80f6-af6aacb75223"},"vehicle_type_id":"4","last_reported":1723911032,"current_range_meters":30000,"station_id":"ce4bhbp2rcd13ifvqesg","pricing_plan_id":"cebpf4jnsgd1na2vs0mg"},{"bike_id":"bb79d882-eb01-4463-b910-515c1c783237","system_id":"levelo_inurba_marseille","lat":43.293259,"lon":5.371586,"is_reserved":false,"is_disabled":false,"rental_uris":{"android":"levelo://app?vid=bb79d882-eb01-4463-b910-515c1c783237","ios":"levelo://app?vid=bb79d882-eb01-4463-b910-515c1c783237"},"vehicle_type_id":"4","last_reported":1723911032,"current_range_meters":26400,"station_id":"ce4bgh92rcd13ifvqb40","pricing_plan_id":"cebpf4jnsgd1na2vs0mg"},{"bike_id":"1c740438-5045-4186-99df-75944fac87d9","system_id":"levelo_inurba_marseille","lat":43.29305,"lon":5.37466,"is_reserved":false,"is_disabled":false,"rental_uris":{"android":"levelo://app?vid=1c740438-5045-4186-99df-75944fac87d9","ios":"levelo://app?vid=1c740438-5045-4186-99df-75944fac87d9"},"vehicle_type_id":"4","last_reported":1723911032,"current_range_meters":0,"station_id":"ce4bgi12rcd13ifvqb70","pricing_plan_id":"cebpf4jnsgd1na2vs0mg"},{"bike_id":"fd2f7eed-606a-492f-b7c1-21dc8a580a33","system_id":"levelo_inurba_marseille","lat":43.293009,"lon":5.374584,"is_reserved":false,"is_disabled":false,"rental_uris":{"android":"levelo://app?vid=fd2f7eed-606a-492f-b7c1-21dc8a580a33","ios":"levelo://app?vid=fd2f7eed-606a-492f-b7c1-21dc8a580a33"},"vehicle_type_id":"4","last_reported":1723911032,"current_range_meters":12000,"station_id":"ce4bgi12rcd13ifvqb70","pricing_plan_id":"cebpf4jnsgd1na2vs0mg"},{"bike_id":"95afc017-9fc3-4c23-9a7f-7de6d86607a1","system_id":"levelo_inurba_marseille","lat":43.30506,"lon":5.39367,"is_reserved":false,"is_disabled":false,"rental_uris":{"android":"levelo://app?vid=95afc017-9fc3-4c23-9a7f-7de6d86607a1","ios":"levelo://app?vid=95afc017-9fc3-4c23-9a7f-7de6d86607a1"},"vehicle_type_id":"4","last_reported":1723911032,"current_range_meters":12800,"station_id":"","pricing_plan_id":"cebpf4jnsgd1na2vs0mg"},{"bike_id":"883fc9de-5c90-4b36-b08a-03106a3ce308","system_id":"levelo_inurba_marseille","lat":43.30085,"lon":5.390856,"is_reserved":false,"is_disabled":false,"rental_uris":{"android":"levelo://app?vid=883fc9de-5c90-4b36-b08a-03106a3ce308","ios":"levelo://app?vid=883fc9de-5c90-4b36-b08a-03106a3ce308"},"vehicle_type_id":"4","last_reported":1723911032,"current_range_meters":4800,"station_id":"ce4bh192rcd13ifvqdb0","pricing_plan_id":"cebpf4jnsgd1na2vs0mg"},{"bike_id":"7c41665a-0a60-4405-90c0-f5c59b3a29a9","system_id":"levelo_inurba_marseille","lat":43.30085,"lon":5.390856,"is_reserved":false,"is_disabled":false,"rental_uris":{"android":"levelo://app?vid=7c41665a-0a60-4405-90c0-f5c59b3a29a9","ios":"levelo://app?vid=7c41665a-0a60-4405-90c0-f5c59b3a29a9"},"vehicle_type_id":"4","last_reported":1723911032,"current_range_meters":0,"station_id":"ce4bh192rcd13ifvqdb0","pricing_plan_id":"cebpf4jnsgd1na2vs0mg"},{"bike_id":"9eff3b63-c324-408c-9a6d-24bebb59aeac","system_id":"levelo_inurba_marseille","lat":43.292311,"lon":5.360731,"is_reserved":false,"is_disabled":false,"rental_uris":{"android":"levelo://app?vid=9eff3b63-c324-408c-9a6d-24bebb59aeac","ios":"levelo://app?vid=9eff3b63-c324-408c-9a6d-24bebb59aeac"},"vehicle_type_id":"4","last_reported":1723911032,"current_range_meters":1200,"station_id":"ce4bhbh2rcd13ifvqeqg","pricing_plan_id":"cebpf4jnsgd1na2vs0mg"},{"bike_id":"b61c3283-a6f9-49f1-8ced-755927e4bcaa","system_id":"levelo_inurba_marseille","lat":43.292311,"lon":5.360731,"is_reserved":false,"is_disabled":false,"rental_uris":{"android":"levelo://app?vid=b61c3283-a6f9-49f1-8ced-755927e4bcaa","ios":"levelo://app?vid=b61c3283-a6f9-49f1-8ced-755927e4bcaa"},"vehicle_type_id":"4","last_reported":1723911032,"current_range_meters":14400,"station_id":"ce4bhbh2rcd13ifvqeqg","pricing_plan_id":"cebpf4jnsgd1na2vs0mg"},{"bike_id":"d5b3c047-5c26-4b79-b328-ecefa741b928","system_id":"levelo_inurba_marseille","lat":43.29172,"lon":5.37161,"is_reserved":false,"is_disabled":false,"rental_uris":{"android":"levelo://app?vid=d5b3c047-5c26-4b79-b328-ecefa741b928","ios":"levelo://app?vid=d5b3c047-5c26-4b79-b328-ecefa741b928"},"vehicle_type_id":"4","last_reported":1723911032,"current_range_meters":29200,"station_id":"ce4bha92rcd13ifvqeh0","pricing_plan_id":"cebpf4jnsgd1na2vs0mg"},{"bike_id":"ad840156-3ecf-4474-b297-9bb1ab279b7e","system_id":"levelo_inurba_marseille","lat":43.29168,"lon":5.37142,"is_reserved":false,"is_disabled":false,"rental_uris":{"android":"levelo://app?vid=ad840156-3ecf-4474-b297-9bb1ab279b7e","ios":"levelo://app?vid=ad840156-3ecf-4474-b297-9bb1ab279b7e"},"vehicle_type_id":"4","last_reported":1723911032,"current_range_meters":0,"station_id":"ce4bha92rcd13ifvqeh0","pricing_plan_id":"cebpf4jnsgd1na2vs0mg"},{"bike_id":"6bb0a033-8e32-41e0-8b6f-ace59fcfe712","system_id":"levelo_inurba_marseille","lat":43.298764,"lon":5.388973,"is_reserved":false,"is_disabled":false,"rental_uris":{"android":"levelo://app?vid=6bb0a033-8e32-41e0-8b6f-ace59fcfe712","ios":"levelo://app?vid=6bb0a033-8e32-41e0-8b6f-ace59fcfe712"},"vehicle_type_id":"4","last_reported":1723911032,"current_range_meters":24800,"station_id":"ce4bh392rcd13ifvqdl0","pricing_plan_id":"cebpf4jnsgd1na2vs0mg"},{"bike_id":"e4e14d48-fea8-4f00-bd1c-2dcae0b4f397","system_id":"levelo_inurba_marseille","lat":43.29165,"lon":5.371637,"is_reserved":false,"is_disabled":false,"rental_uris":{"android":"levelo://app?vid=e4e14d48-fea8-4f00-bd1c-2dcae0b4f397","ios":"levelo://app?vid=e4e14d48-fea8-4f00-bd1c-2dcae0b4f397"},"vehicle_type_id":"4","last_reported":1723911032,"current_range_meters":0,"station_id":"ce4bha92rcd13ifvqeh0","pricing_plan_id":"cebpf4jnsgd1na2vs0mg"},{"bike_id":"77a8a44b-79db-4d47-ae63-bf0aec17b87d","system_id":"levelo_inurba_marseille","lat":43.32936,"lon":5.385685,"is_reserved":false,"is_disabled":false,"rental_uris":{"android":"levelo://app?vid=77a8a44b-79db-4d47-ae63-bf0aec17b87d","ios":"levelo://app?vid=77a8a44b-79db-4d47-ae63-bf0aec17b87d"},"vehicle_type_id":"4","last_reported":1723911032,"current_range_meters":5200,"station_id":"","pricing_plan_id":"cebpf4jnsgd1na2vs0mg"},{"bike_id":"b803f57c-0459-4b77-8ed3-68f64c0f1d23","system_id":"levelo_inurba_marseille","lat":43.29186,"lon":5.35792,"is_reserved":false,"is_disabled":false,"rental_uris":{"android":"levelo://app?vid=b803f57c-0459-4b77-8ed3-68f64c0f1d23","ios":"levelo://app?vid=b803f57c-0459-4b77-8ed3-68f64c0f1d23"},"vehicle_type_id":"4","last_reported":1723911032,"current_range_meters":0,"station_id":"ce4bhb12rcd13ifvqel0","pricing_plan_id":"cebpf4jnsgd1na2vs0mg"},{"bike_id":"26de9e09-ca41-4299-9028-af0939710205","system_id":"levelo_inurba_marseille","lat":43.29529,"lon":5.385581,"is_reserved":false,"is_disabled":false,"rental_uris":{"android":"levelo://app?vid=26de9e09-ca41-4299-9028-af0939710205","ios":"levelo://app?vid=26de9e09-ca41-4299-9028-af0939710205"},"vehicle_type_id":"4","last_reported":1723911032,"current_range_meters":12800,"station_id":"ce4bgih2rcd13ifvqba0","pricing_plan_id":"cebpf4jnsgd1na2vs0mg"},{"bike_id":"903287e6-23c7-4621-997b-08b4ff1f41cd","system_id":"levelo_inurba_marseille","lat":43.29529,"lon":5.385581,"is_reserved":false,"is_disabled":false,"rental_uris":{"android":"levelo://app?vid=903287e6-23c7-4621-997b-08b4ff1f41cd","ios":"levelo://app?vid=903287e6-23c7-4621-997b-08b4ff1f41cd"},"vehicle_type_id":"4","last_reported":1723911032,"current_range_meters":24800,"station_id":"ce4bgih2rcd13ifvqba0","pricing_plan_id":"cebpf4jnsgd1na2vs0mg"},{"bike_id":"47e06a25-8dbf-43ea-9cd4-f238a3494d9d","system_id":"levelo_inurba_marseille","lat":43.315356,"lon":5.397055,"is_reserved":false,"is_disabled":false,"rental_uris":{"android":"levelo://app?vid=47e06a25-8dbf-43ea-9cd4-f238a3494d9d","ios":"levelo://app?vid=47e06a25-8dbf-43ea-9cd4-f238a3494d9d"},"vehicle_type_id":"4","last_reported":1723911032,"current_range_meters":0,"station_id":"","pricing_plan_id":"cebpf4jnsgd1na2vs0mg"},{"bike_id":"18b64814-5e06-4d6e-84fc-e2465edb06b4","system_id":"levelo_inurba_marseille","lat":43.290779,"lon":5.371482,"is_reserved":false,"is_disabled":false,"rental_uris":{"android":"levelo://app?vid=18b64814-5e06-4d6e-84fc-e2465edb06b4","ios":"levelo://app?vid=18b64814-5e06-4d6e-84fc-e2465edb06b4"},"vehicle_type_id":"4","last_reported":1723911032,"current_range_meters":16000,"station_id":"ce4bh5p2rcd13ifvqe4g","pricing_plan_id":"cebpf4jnsgd1na2vs0mg"},{"bike_id":"e7c4dc85-3321-41e6-abe5-73384368a466","system_id":"levelo_inurba_marseille","lat":43.290327,"lon":5.375711,"is_reserved":false,"is_disabled":false,"rental_uris":{"android":"levelo://app?vid=e7c4dc85-3321-41e6-abe5-73384368a466","ios":"levelo://app?vid=e7c4dc85-3321-41e6-abe5-73384368a466"},"vehicle_type_id":"4","last_reported":1723911032,"current_range_meters":27600,"station_id":"ce4bh692rcd13ifvqe90","pricing_plan_id":"cebpf4jnsgd1na2vs0mg"},{"bike_id":"91852eea-7948-4dce-9012-625950078f22","system_id":"levelo_inurba_marseille","lat":43.294162,"lon":5.386292,"is_reserved":false,"is_disabled":false,"rental_uris":{"android":"levelo://app?vid=91852eea-7948-4dce-9012-625950078f22","ios":"levelo://app?vid=91852eea-7948-4dce-9012-625950078f22"},"vehicle_type_id":"4","last_reported":1723911032,"current_range_meters":14400,"station_id":"ce4bh2h2rcd13ifvqdh0","pricing_plan_id":"cebpf4jnsgd1na2vs0mg"},{"bike_id":"378e5980-b90f-455b-9f57-7106e4913e02","system_id":"levelo_inurba_marseille","lat":43.28903,"lon":5.36645,"is_reserved":false,"is_disabled":false,"rental_uris":{"android":"levelo://app?vid=378e5980-b90f-455b-9f57-7106e4913e02","ios":"levelo://app?vid=378e5980-b90f-455b-9f57-7106e4913e02"},"vehicle_type_id":"4","last_reported":1723911032,"current_range_meters":16000,"station_id":"ce4bhap2rcd13ifvqek0","pricing_plan_id":"cebpf4jnsgd1na2vs0mg"},{"bike_id":"b8ccc94f-0dad-45cf-a43f-51974c4207e8","system_id":"levelo_inurba_marseille","lat":43.292644,"lon":5.384257,"is_reserved":false,"is_disabled":false,"rental_uris":{"android":"levelo://app?vid=b8ccc94f-0dad-45cf-a43f-51974c4207e8","ios":"levelo://app?vid=b8ccc94f-0dad-45cf-a43f-51974c4207e8"},"vehicle_type_id":"4","last_reported":1723911032,"current_range_meters":10400,"station_id":"ce4bh692rcd13ifvqea0","pricing_plan_id":"cebpf4jnsgd1na2vs0mg"},{"bike_id":"6f47d0c0-3198-4ae3-925c-a6d21aa4a733","system_id":"levelo_inurba_marseille","lat":43.292644,"lon":5.384257,"is_reserved":false,"is_disabled":false,"rental_uris":{"android":"levelo://app?vid=6f47d0c0-3198-4ae3-925c-a6d21aa4a733","ios":"levelo://app?vid=6f47d0c0-3198-4ae3-925c-a6d21aa4a733"},"vehicle_type_id":"4","last_reported":1723911032,"current_range_meters":8000,"station_id":"ce4bh692rcd13ifvqea0","pricing_plan_id":"cebpf4jnsgd1na2vs0mg"},{"bike_id":"b06d8529-34ca-4b6f-8f60-61e953156cbc","system_id":"levelo_inurba_marseille","lat":43.292642,"lon":5.384254,"is_reserved":false,"is_disabled":false,"rental_uris":{"android":"levelo://app?vid=b06d8529-34ca-4b6f-8f60-61e953156cbc","ios":"levelo://app?vid=b06d8529-34ca-4b6f-8f60-61e953156cbc"},"vehicle_type_id":"4","last_reported":1723911032,"current_range_meters":16000,"station_id":"ce4bh692rcd13ifvqea0","pricing_plan_id":"cebpf4jnsgd1na2vs0mg"},{"bike_id":"1e9a0b7f-0093-42e0-9f1b-4d3c6cde6ed8","system_id":"levelo_inurba_marseille","lat":43.292642,"lon":5.384254,"is_reserved":false,"is_disabled":false,"rental_uris":{"android":"levelo://app?vid=1e9a0b7f-0093-42e0-9f1b-4d3c6cde6ed8","ios":"levelo://app?vid=1e9a0b7f-0093-42e0-9f1b-4d3c6cde6ed8"},"vehicle_type_id":"4","last_reported":1723911032,"current_range_meters":5600,"station_id":"ce4bh692rcd13ifvqea0","pricing_plan_id":"cebpf4jnsgd1na2vs0mg"},{"bike_id":"78c13ebc-1e13-4e0a-846f-9f3c968093d8","system_id":"levelo_inurba_marseille","lat":43.292644,"lon":5.384257,"is_reserved":false,"is_disabled":false,"rental_uris":{"android":"levelo://app?vid=78c13ebc-1e13-4e0a-846f-9f3c968093d8","ios":"levelo://app?vid=78c13ebc-1e13-4e0a-846f-9f3c968093d8"},"vehicle_type_id":"4","last_reported":1723911032,"current_range_meters":7600,"station_id":"ce4bh692rcd13ifvqea0","pricing_plan_id":"cebpf4jnsgd1na2vs0mg"},{"bike_id":"6ba011e6-4ede-434e-995c-3b217ae57186","system_id":"levelo_inurba_marseille","lat":43.29265,"lon":5.38439,"is_reserved":false,"is_disabled":false,"rental_uris":{"android":"levelo://app?vid=6ba011e6-4ede-434e-995c-3b217ae57186","ios":"levelo://app?vid=6ba011e6-4ede-434e-995c-3b217ae57186"},"vehicle_type_id":"4","last_reported":1723911032,"current_range_meters":0,"station_id":"ce4bh692rcd13ifvqea0","pricing_plan_id":"cebpf4jnsgd1na2vs0mg"},{"bike_id":"38ddf44b-d218-48ad-996d-1596311ff076","system_id":"levelo_inurba_marseille","lat":43.29262,"lon":5.38436,"is_reserved":false,"is_disabled":false,"rental_uris":{"android":"levelo://app?vid=38ddf44b-d218-48ad-996d-1596311ff076","ios":"levelo://app?vid=38ddf44b-d218-48ad-996d-1596311ff076"},"vehicle_type_id":"4","last_reported":1723911032,"current_range_meters":0,"station_id":"ce4bh692rcd13ifvqea0","pricing_plan_id":"cebpf4jnsgd1na2vs0mg"},{"bike_id":"4a9cea6c-5f3c-4fc6-a3a0-20d6fc8b683c","system_id":"levelo_inurba_marseille","lat":43.292644,"lon":5.384257,"is_reserved":false,"is_disabled":false,"rental_uris":{"android":"levelo://app?vid=4a9cea6c-5f3c-4fc6-a3a0-20d6fc8b683c","ios":"levelo://app?vid=4a9cea6c-5f3c-4fc6-a3a0-20d6fc8b683c"},"vehicle_type_id":"4","last_reported":1723911032,"current_range_meters":0,"station_id":"ce4bh692rcd13ifvqea0","pricing_plan_id":"cebpf4jnsgd1na2vs0mg"},{"bike_id":"5f51450d-39d9-43d5-b9b3-22f90fb803eb","system_id":"levelo_inurba_marseille","lat":43.292644,"lon":5.384257,"is_reserved":false,"is_disabled":false,"rental_uris":{"android":"levelo://app?vid=5f51450d-39d9-43d5-b9b3-22f90fb803eb","ios":"levelo://app?vid=5f51450d-39d9-43d5-b9b3-22f90fb803eb"},"vehicle_type_id":"4","last_reported":1723911032,"current_range_meters":21200,"station_id":"ce4bh692rcd13ifvqea0","pricing_plan_id":"cebpf4jnsgd1na2vs0mg"},{"bike_id":"29321de8-836c-4c95-b139-9e5913f59177","system_id":"levelo_inurba_marseille","lat":43.292644,"lon":5.384257,"is_reserved":false,"is_disabled":false,"rental_uris":{"android":"levelo://app?vid=29321de8-836c-4c95-b139-9e5913f59177","ios":"levelo://app?vid=29321de8-836c-4c95-b139-9e5913f59177"},"vehicle_type_id":"4","last_reported":1723911032,"current_range_meters":14800,"station_id":"ce4bh692rcd13ifvqea0","pricing_plan_id":"cebpf4jnsgd1na2vs0mg"},{"bike_id":"2384f208-9d2a-4c7e-954e-f8a5624c923e","system_id":"levelo_inurba_marseille","lat":43.2926,"lon":5.38443,"is_reserved":false,"is_disabled":false,"rental_uris":{"android":"levelo://app?vid=2384f208-9d2a-4c7e-954e-f8a5624c923e","ios":"levelo://app?vid=2384f208-9d2a-4c7e-954e-f8a5624c923e"},"vehicle_type_id":"4","last_reported":1723911032,"current_range_meters":2400,"station_id":"ce4bh692rcd13ifvqea0","pricing_plan_id":"cebpf4jnsgd1na2vs0mg"},{"bike_id":"31340aab-7c41-4dfc-bde7-0b5de8aa9f2d","system_id":"levelo_inurba_marseille","lat":43.292644,"lon":5.384257,"is_reserved":false,"is_disabled":false,"rental_uris":{"android":"levelo://app?vid=31340aab-7c41-4dfc-bde7-0b5de8aa9f2d","ios":"levelo://app?vid=31340aab-7c41-4dfc-bde7-0b5de8aa9f2d"},"vehicle_type_id":"4","last_reported":1723911032,"current_range_meters":16000,"station_id":"ce4bh692rcd13ifvqea0","pricing_plan_id":"cebpf4jnsgd1na2vs0mg"},{"bike_id":"71d7e0b1-0f95-4332-9005-b1a1e4fcd520","system_id":"levelo_inurba_marseille","lat":43.292644,"lon":5.384257,"is_reserved":false,"is_disabled":false,"rental_uris":{"android":"levelo://app?vid=71d7e0b1-0f95-4332-9005-b1a1e4fcd520","ios":"levelo://app?vid=71d7e0b1-0f95-4332-9005-b1a1e4fcd520"},"vehicle_type_id":"4","last_reported":1723911032,"current_range_meters":22400,"station_id":"ce4bh692rcd13ifvqea0","pricing_plan_id":"cebpf4jnsgd1na2vs0mg"},{"bike_id":"2b1b1f88-eea6-47f8-a66a-ac2306b60460","system_id":"levelo_inurba_marseille","lat":43.290103,"lon":5.356114,"is_reserved":false,"is_disabled":false,"rental_uris":{"android":"levelo://app?vid=2b1b1f88-eea6-47f8-a66a-ac2306b60460","ios":"levelo://app?vid=2b1b1f88-eea6-47f8-a66a-ac2306b60460"},"vehicle_type_id":"4","last_reported":1723911032,"current_range_meters":31600,"station_id":"ce4bhb92rcd13ifvqen0","pricing_plan_id":"cebpf4jnsgd1na2vs0mg"},{"bike_id":"53d75328-d903-4d49-904b-ae20e683ef17","system_id":"levelo_inurba_marseille","lat":43.29095,"lon":5.38146,"is_reserved":false,"is_disabled":false,"rental_uris":{"android":"levelo://app?vid=53d75328-d903-4d49-904b-ae20e683ef17","ios":"levelo://app?vid=53d75328-d903-4d49-904b-ae20e683ef17"},"vehicle_type_id":"4","last_reported":1723911032,"current_range_meters":0,"station_id":"ce4bh512rcd13ifvqe2g","pricing_plan_id":"cebpf4jnsgd1na2vs0mg"},{"bike_id":"1c32afee-8869-4d40-8d10-be6b53e1a42f","system_id":"levelo_inurba_marseille","lat":43.297807,"lon":5.393533,"is_reserved":false,"is_disabled":false,"rental_uris":{"android":"levelo://app?vid=1c32afee-8869-4d40-8d10-be6b53e1a42f","ios":"levelo://app?vid=1c32afee-8869-4d40-8d10-be6b53e1a42f"},"vehicle_type_id":"4","last_reported":1723911032,"current_range_meters":27600,"station_id":"chh1huq6cuj3fo74tm60","pricing_plan_id":"cebpf4jnsgd1na2vs0mg"},{"bike_id":"81d48cca-1544-4ed3-937d-a7b93091a7a3","system_id":"levelo_inurba_marseille","lat":43.28978,"lon":5.37835,"is_reserved":false,"is_disabled":false,"rental_uris":{"android":"levelo://app?vid=81d48cca-1544-4ed3-937d-a7b93091a7a3","ios":"levelo://app?vid=81d48cca-1544-4ed3-937d-a7b93091a7a3"},"vehicle_type_id":"4","last_reported":1723911032,"current_range_meters":22000,"station_id":"ce4bh9p2rcd13ifvqed0","pricing_plan_id":"cebpf4jnsgd1na2vs0mg"},{"bike_id":"c4a83548-a315-4c6d-9402-55e4d4c358b2","system_id":"levelo_inurba_marseille","lat":43.295169,"lon":5.390426,"is_reserved":false,"is_disabled":false,"rental_uris":{"android":"levelo://app?vid=c4a83548-a315-4c6d-9402-55e4d4c358b2","ios":"levelo://app?vid=c4a83548-a315-4c6d-9402-55e4d4c358b2"},"vehicle_type_id":"4","last_reported":1723911032,"current_range_meters":0,"station_id":"ce4bh3p2rcd13ifvqdp0","pricing_plan_id":"cebpf4jnsgd1na2vs0mg"},{"bike_id":"5a469170-0205-403a-89f3-7796ef54c710","system_id":"levelo_inurba_marseille","lat":43.28974,"lon":5.37831,"is_reserved":false,"is_disabled":false,"rental_uris":{"android":"levelo://app?vid=5a469170-0205-403a-89f3-7796ef54c710","ios":"levelo://app?vid=5a469170-0205-403a-89f3-7796ef54c710"},"vehicle_type_id":"4","last_reported":1723911032,"current_range_meters":26800,"station_id":"ce4bh9p2rcd13ifvqed0","pricing_plan_id":"cebpf4jnsgd1na2vs0mg"},{"bike_id":"4940423d-c1b2-4040-8a53-cd68b3962fa4","system_id":"levelo_inurba_marseille","lat":43.33025,"lon":5.39042,"is_reserved":false,"is_disabled":false,"rental_uris":{"android":"levelo://app?vid=4940423d-c1b2-4040-8a53-cd68b3962fa4","ios":"levelo://app?vid=4940423d-c1b2-4040-8a53-cd68b3962fa4"},"vehicle_type_id":"4","last_reported":1723911032,"current_range_meters":26400,"station_id":"ce4bhr92rcd13ifvqhrg","pricing_plan_id":"cebpf4jnsgd1na2vs0mg"},{"bike_id":"20bb52d3-58bc-4c8b-8501-eb01e70943a7","system_id":"levelo_inurba_marseille","lat":43.330442,"lon":5.389148,"is_reserved":false,"is_disabled":false,"rental_uris":{"android":"levelo://app?vid=20bb52d3-58bc-4c8b-8501-eb01e70943a7","ios":"levelo://app?vid=20bb52d3-58bc-4c8b-8501-eb01e70943a7"},"vehicle_type_id":"4","last_reported":1723911032,"current_range_meters":13200,"station_id":"ce4bhr92rcd13ifvqhrg","pricing_plan_id":"cebpf4jnsgd1na2vs0mg"},{"bike_id":"222e800e-40d2-4b8c-8f85-5b5fd51f821c","system_id":"levelo_inurba_marseille","lat":43.330442,"lon":5.389148,"is_reserved":false,"is_disabled":false,"rental_uris":{"android":"levelo://app?vid=222e800e-40d2-4b8c-8f85-5b5fd51f821c","ios":"levelo://app?vid=222e800e-40d2-4b8c-8f85-5b5fd51f821c"},"vehicle_type_id":"4","last_reported":1723911032,"current_range_meters":10800,"station_id":"ce4bhr92rcd13ifvqhrg","pricing_plan_id":"cebpf4jnsgd1na2vs0mg"},{"bike_id":"4e39553a-0ddf-4470-b045-0a24907120f4","system_id":"levelo_inurba_marseille","lat":43.33029,"lon":5.39045,"is_reserved":false,"is_disabled":false,"rental_uris":{"android":"levelo://app?vid=4e39553a-0ddf-4470-b045-0a24907120f4","ios":"levelo://app?vid=4e39553a-0ddf-4470-b045-0a24907120f4"},"vehicle_type_id":"4","last_reported":1723911032,"current_range_meters":6400,"station_id":"ce4bhr92rcd13ifvqhrg","pricing_plan_id":"cebpf4jnsgd1na2vs0mg"},{"bike_id":"c03d6845-ce4b-4e05-8c27-3ef5c06e3a8c","system_id":"levelo_inurba_marseille","lat":43.28856,"lon":5.358371,"is_reserved":false,"is_disabled":false,"rental_uris":{"android":"levelo://app?vid=c03d6845-ce4b-4e05-8c27-3ef5c06e3a8c","ios":"levelo://app?vid=c03d6845-ce4b-4e05-8c27-3ef5c06e3a8c"},"vehicle_type_id":"4","last_reported":1723911032,"current_range_meters":0,"station_id":"ce4bhb12rcd13ifvqem0","pricing_plan_id":"cebpf4jnsgd1na2vs0mg"},{"bike_id":"79ed7954-0ea7-472e-9c73-0430bfc384be","system_id":"levelo_inurba_marseille","lat":43.310595,"lon":5.40114,"is_reserved":false,"is_disabled":false,"rental_uris":{"android":"levelo://app?vid=79ed7954-0ea7-472e-9c73-0430bfc384be","ios":"levelo://app?vid=79ed7954-0ea7-472e-9c73-0430bfc384be"},"vehicle_type_id":"4","last_reported":1723911032,"current_range_meters":20800,"station_id":"","pricing_plan_id":"cebpf4jnsgd1na2vs0mg"},{"bike_id":"1a0ed33d-b637-4979-9291-d6068203da3c","system_id":"levelo_inurba_marseille","lat":43.28856,"lon":5.358371,"is_reserved":false,"is_disabled":false,"rental_uris":{"android":"levelo://app?vid=1a0ed33d-b637-4979-9291-d6068203da3c","ios":"levelo://app?vid=1a0ed33d-b637-4979-9291-d6068203da3c"},"vehicle_type_id":"4","last_reported":1723911032,"current_range_meters":24800,"station_id":"ce4bhb12rcd13ifvqem0","pricing_plan_id":"cebpf4jnsgd1na2vs0mg"},{"bike_id":"a7b4db1a-e582-4380-a76d-e7169b47bb7c","system_id":"levelo_inurba_marseille","lat":43.3374,"lon":5.37451,"is_reserved":false,"is_disabled":false,"rental_uris":{"android":"levelo://app?vid=a7b4db1a-e582-4380-a76d-e7169b47bb7c","ios":"levelo://app?vid=a7b4db1a-e582-4380-a76d-e7169b47bb7c"},"vehicle_type_id":"4","last_reported":1723911032,"current_range_meters":1600,"station_id":"","pricing_plan_id":"cebpf4jnsgd1na2vs0mg"},{"bike_id":"48b837f6-d14c-4f41-b715-a940335020ff","system_id":"levelo_inurba_marseille","lat":43.312609,"lon":5.401662,"is_reserved":false,"is_disabled":false,"rental_uris":{"android":"levelo://app?vid=48b837f6-d14c-4f41-b715-a940335020ff","ios":"levelo://app?vid=48b837f6-d14c-4f41-b715-a940335020ff"},"vehicle_type_id":"4","last_reported":1723911032,"current_range_meters":2800,"station_id":"ce4bh092rcd13ifvqd30","pricing_plan_id":"cebpf4jnsgd1na2vs0mg"},{"bike_id":"ac75d8e5-5139-4e43-a64e-51e7994c2517","system_id":"levelo_inurba_marseille","lat":43.337444,"lon":5.374475,"is_reserved":false,"is_disabled":false,"rental_uris":{"android":"levelo://app?vid=ac75d8e5-5139-4e43-a64e-51e7994c2517","ios":"levelo://app?vid=ac75d8e5-5139-4e43-a64e-51e7994c2517"},"vehicle_type_id":"3","last_reported":1723911032,"current_range_meters":24800,"station_id":"","pricing_plan_id":"cebpf4jnsgd1na2vs0mg"},{"bike_id":"013cfb55-a2ad-4416-a977-5534ff73af07","system_id":"levelo_inurba_marseille","lat":43.337622,"lon":5.374694,"is_reserved":false,"is_disabled":false,"rental_uris":{"android":"levelo://app?vid=013cfb55-a2ad-4416-a977-5534ff73af07","ios":"levelo://app?vid=013cfb55-a2ad-4416-a977-5534ff73af07"},"vehicle_type_id":"4","last_reported":1723911032,"current_range_meters":27600,"station_id":"","pricing_plan_id":"cebpf4jnsgd1na2vs0mg"},{"bike_id":"df025819-33d0-4b81-a177-31eb84b4626f","system_id":"levelo_inurba_marseille","lat":43.306412,"lon":5.401035,"is_reserved":false,"is_disabled":false,"rental_uris":{"android":"levelo://app?vid=df025819-33d0-4b81-a177-31eb84b4626f","ios":"levelo://app?vid=df025819-33d0-4b81-a177-31eb84b4626f"},"vehicle_type_id":"4","last_reported":1723911032,"current_range_meters":14400,"station_id":"ce4bh112rcd13ifvqda0","pricing_plan_id":"cebpf4jnsgd1na2vs0mg"},{"bike_id":"16a958e0-aafc-4396-b634-1d8af67abff0","system_id":"levelo_inurba_marseille","lat":43.33768,"lon":5.37483,"is_reserved":false,"is_disabled":false,"rental_uris":{"android":"levelo://app?vid=16a958e0-aafc-4396-b634-1d8af67abff0","ios":"levelo://app?vid=16a958e0-aafc-4396-b634-1d8af67abff0"},"vehicle_type_id":"4","last_reported":1723911032,"current_range_meters":24800,"station_id":"","pricing_plan_id":"cebpf4jnsgd1na2vs0mg"},{"bike_id":"17506a18-ef4c-4f67-8f27-fd9c09192e41","system_id":"levelo_inurba_marseille","lat":43.337704,"lon":5.374725,"is_reserved":false,"is_disabled":false,"rental_uris":{"android":"levelo://app?vid=17506a18-ef4c-4f67-8f27-fd9c09192e41","ios":"levelo://app?vid=17506a18-ef4c-4f67-8f27-fd9c09192e41"},"vehicle_type_id":"4","last_reported":1723911032,"current_range_meters":25200,"station_id":"","pricing_plan_id":"cebpf4jnsgd1na2vs0mg"},{"bike_id":"3c41009f-2d18-48d8-a23d-2ea0c78e24ec","system_id":"levelo_inurba_marseille","lat":43.33769,"lon":5.37484,"is_reserved":false,"is_disabled":false,"rental_uris":{"android":"levelo://app?vid=3c41009f-2d18-48d8-a23d-2ea0c78e24ec","ios":"levelo://app?vid=3c41009f-2d18-48d8-a23d-2ea0c78e24ec"},"vehicle_type_id":"4","last_reported":1723911032,"current_range_meters":24800,"station_id":"","pricing_plan_id":"cebpf4jnsgd1na2vs0mg"},{"bike_id":"cd7ef2ad-f91c-4cda-975b-45e9692366ae","system_id":"levelo_inurba_marseille","lat":43.33771,"lon":5.3748,"is_reserved":false,"is_disabled":false,"rental_uris":{"android":"levelo://app?vid=cd7ef2ad-f91c-4cda-975b-45e9692366ae","ios":"levelo://app?vid=cd7ef2ad-f91c-4cda-975b-45e9692366ae"},"vehicle_type_id":"4","last_reported":1723911032,"current_range_meters":18000,"station_id":"","pricing_plan_id":"cebpf4jnsgd1na2vs0mg"},{"bike_id":"bb4fd307-20f4-470b-9ffc-c0b6a07c0a37","system_id":"levelo_inurba_marseille","lat":43.298681,"lon":5.397225,"is_reserved":false,"is_disabled":false,"rental_uris":{"android":"levelo://app?vid=bb4fd307-20f4-470b-9ffc-c0b6a07c0a37","ios":"levelo://app?vid=bb4fd307-20f4-470b-9ffc-c0b6a07c0a37"},"vehicle_type_id":"4","last_reported":1723911032,"current_range_meters":14400,"station_id":"ce4bh0h2rcd13ifvqd50","pricing_plan_id":"cebpf4jnsgd1na2vs0mg"},{"bike_id":"4b9cc27d-3160-4d7a-af42-c218b59c28ce","system_id":"levelo_inurba_marseille","lat":43.28667,"lon":5.36346,"is_reserved":false,"is_disabled":false,"rental_uris":{"android":"levelo://app?vid=4b9cc27d-3160-4d7a-af42-c218b59c28ce","ios":"levelo://app?vid=4b9cc27d-3160-4d7a-af42-c218b59c28ce"},"vehicle_type_id":"4","last_reported":1723911032,"current_range_meters":18400,"station_id":"ce4bhah2rcd13ifvqej0","pricing_plan_id":"cebpf4jnsgd1na2vs0mg"},{"bike_id":"1af2290c-c007-42d3-85d2-88030816c5cb","system_id":"levelo_inurba_marseille","lat":43.298681,"lon":5.397225,"is_reserved":false,"is_disabled":false,"rental_uris":{"android":"levelo://app?vid=1af2290c-c007-42d3-85d2-88030816c5cb","ios":"levelo://app?vid=1af2290c-c007-42d3-85d2-88030816c5cb"},"vehicle_type_id":"4","last_reported":1723911032,"current_range_meters":4400,"station_id":"ce4bh0h2rcd13ifvqd50","pricing_plan_id":"cebpf4jnsgd1na2vs0mg"},{"bike_id":"ea00ed9d-e0c2-4377-90fa-7395f21634c4","system_id":"levelo_inurba_marseille","lat":43.28664,"lon":5.36361,"is_reserved":false,"is_disabled":false,"rental_uris":{"android":"levelo://app?vid=ea00ed9d-e0c2-4377-90fa-7395f21634c4","ios":"levelo://app?vid=ea00ed9d-e0c2-4377-90fa-7395f21634c4"},"vehicle_type_id":"4","last_reported":1723911032,"current_range_meters":0,"station_id":"ce4bhah2rcd13ifvqej0","pricing_plan_id":"cebpf4jnsgd1na2vs0mg"},{"bike_id":"9522e784-3d80-4282-8a4a-90a103489d93","system_id":"levelo_inurba_marseille","lat":43.286593,"lon":5.363346,"is_reserved":false,"is_disabled":false,"rental_uris":{"android":"levelo://app?vid=9522e784-3d80-4282-8a4a-90a103489d93","ios":"levelo://app?vid=9522e784-3d80-4282-8a4a-90a103489d93"},"vehicle_type_id":"4","last_reported":1723911032,"current_range_meters":14400,"station_id":"ce4bhah2rcd13ifvqej0","pricing_plan_id":"cebpf4jnsgd1na2vs0mg"},{"bike_id":"77090217-1769-4b5d-8487-ed64bdeeb5cc","system_id":"levelo_inurba_marseille","lat":43.286593,"lon":5.363346,"is_reserved":false,"is_disabled":false,"rental_uris":{"android":"levelo://app?vid=77090217-1769-4b5d-8487-ed64bdeeb5cc","ios":"levelo://app?vid=77090217-1769-4b5d-8487-ed64bdeeb5cc"},"vehicle_type_id":"4","last_reported":1723911032,"current_range_meters":16000,"station_id":"ce4bhah2rcd13ifvqej0","pricing_plan_id":"cebpf4jnsgd1na2vs0mg"},{"bike_id":"83a6f757-2f69-4675-9ed3-2a8e5d6cd016","system_id":"levelo_inurba_marseille","lat":43.298681,"lon":5.397225,"is_reserved":false,"is_disabled":false,"rental_uris":{"android":"levelo://app?vid=83a6f757-2f69-4675-9ed3-2a8e5d6cd016","ios":"levelo://app?vid=83a6f757-2f69-4675-9ed3-2a8e5d6cd016"},"vehicle_type_id":"4","last_reported":1723911032,"current_range_meters":15600,"station_id":"ce4bh0h2rcd13ifvqd50","pricing_plan_id":"cebpf4jnsgd1na2vs0mg"},{"bike_id":"12af7425-37f4-4586-b913-4a2a9bb100f6","system_id":"levelo_inurba_marseille","lat":43.302759,"lon":5.400793,"is_reserved":false,"is_disabled":false,"rental_uris":{"android":"levelo://app?vid=12af7425-37f4-4586-b913-4a2a9bb100f6","ios":"levelo://app?vid=12af7425-37f4-4586-b913-4a2a9bb100f6"},"vehicle_type_id":"4","last_reported":1723911032,"current_range_meters":800,"station_id":"ce4bgvh2rcd13ifvqcs0","pricing_plan_id":"cebpf4jnsgd1na2vs0mg"},{"bike_id":"b70fb4b1-f9e3-4f56-8dd0-3450a109c2e9","system_id":"levelo_inurba_marseille","lat":43.289307,"lon":5.38406,"is_reserved":false,"is_disabled":false,"rental_uris":{"android":"levelo://app?vid=b70fb4b1-f9e3-4f56-8dd0-3450a109c2e9","ios":"levelo://app?vid=b70fb4b1-f9e3-4f56-8dd0-3450a109c2e9"},"vehicle_type_id":"4","last_reported":1723911032,"current_range_meters":0,"station_id":"ce4bh612rcd13ifvqe6g","pricing_plan_id":"cebpf4jnsgd1na2vs0mg"},{"bike_id":"3eaccbbb-99d8-4604-ac39-3eb1590a8ed1","system_id":"levelo_inurba_marseille","lat":43.289307,"lon":5.38406,"is_reserved":false,"is_disabled":false,"rental_uris":{"android":"levelo://app?vid=3eaccbbb-99d8-4604-ac39-3eb1590a8ed1","ios":"levelo://app?vid=3eaccbbb-99d8-4604-ac39-3eb1590a8ed1"},"vehicle_type_id":"4","last_reported":1723911032,"current_range_meters":12400,"station_id":"ce4bh612rcd13ifvqe6g","pricing_plan_id":"cebpf4jnsgd1na2vs0mg"},{"bike_id":"b61f1f3d-7325-4bf4-acfc-6e38f106fe7d","system_id":"levelo_inurba_marseille","lat":43.290336,"lon":5.386425,"is_reserved":false,"is_disabled":false,"rental_uris":{"android":"levelo://app?vid=b61f1f3d-7325-4bf4-acfc-6e38f106fe7d","ios":"levelo://app?vid=b61f1f3d-7325-4bf4-acfc-6e38f106fe7d"},"vehicle_type_id":"4","last_reported":1723911032,"current_range_meters":12000,"station_id":"ce4bh4p2rcd13ifvqe0g","pricing_plan_id":"cebpf4jnsgd1na2vs0mg"},{"bike_id":"5b8cfafd-f7a2-4c0e-bfb7-a957d925cedf","system_id":"levelo_inurba_marseille","lat":43.302759,"lon":5.400793,"is_reserved":false,"is_disabled":false,"rental_uris":{"android":"levelo://app?vid=5b8cfafd-f7a2-4c0e-bfb7-a957d925cedf","ios":"levelo://app?vid=5b8cfafd-f7a2-4c0e-bfb7-a957d925cedf"},"vehicle_type_id":"4","last_reported":1723911032,"current_range_meters":7200,"station_id":"ce4bgvh2rcd13ifvqcs0","pricing_plan_id":"cebpf4jnsgd1na2vs0mg"},{"bike_id":"0ef70f75-a294-4080-8d25-1c5da513e81a","system_id":"levelo_inurba_marseille","lat":43.302759,"lon":5.400793,"is_reserved":false,"is_disabled":false,"rental_uris":{"android":"levelo://app?vid=0ef70f75-a294-4080-8d25-1c5da513e81a","ios":"levelo://app?vid=0ef70f75-a294-4080-8d25-1c5da513e81a"},"vehicle_type_id":"4","last_reported":1723911032,"current_range_meters":28400,"station_id":"ce4bgvh2rcd13ifvqcs0","pricing_plan_id":"cebpf4jnsgd1na2vs0mg"},{"bike_id":"b8502ff2-a9bf-4272-845f-a89896bf65b7","system_id":"levelo_inurba_marseille","lat":43.279087,"lon":5.380114,"is_reserved":false,"is_disabled":false,"rental_uris":{"android":"levelo://app?vid=b8502ff2-a9bf-4272-845f-a89896bf65b7","ios":"levelo://app?vid=b8502ff2-a9bf-4272-845f-a89896bf65b7"},"vehicle_type_id":"4","last_reported":1723911032,"current_range_meters":2400,"station_id":"ce4bhf92rcd13ifvqf50","pricing_plan_id":"cebpf4jnsgd1na2vs0mg"},{"bike_id":"74b0a690-9eef-4d88-9ea5-d8503da42737","system_id":"levelo_inurba_marseille","lat":43.28812,"lon":5.3814,"is_reserved":false,"is_disabled":false,"rental_uris":{"android":"levelo://app?vid=74b0a690-9eef-4d88-9ea5-d8503da42737","ios":"levelo://app?vid=74b0a690-9eef-4d88-9ea5-d8503da42737"},"vehicle_type_id":"4","last_reported":1723911032,"current_range_meters":20000,"station_id":"","pricing_plan_id":"cebpf4jnsgd1na2vs0mg"},{"bike_id":"f65652e9-740a-45d6-a9b6-bb7c3796b0e7","system_id":"levelo_inurba_marseille","lat":43.31688,"lon":5.4048,"is_reserved":false,"is_disabled":false,"rental_uris":{"android":"levelo://app?vid=f65652e9-740a-45d6-a9b6-bb7c3796b0e7","ios":"levelo://app?vid=f65652e9-740a-45d6-a9b6-bb7c3796b0e7"},"vehicle_type_id":"4","last_reported":1723911032,"current_range_meters":8400,"station_id":"ce4bh012rcd13ifvqd00","pricing_plan_id":"cebpf4jnsgd1na2vs0mg"},{"bike_id":"ed72a879-95d4-47fb-921a-dff8d4dcbc86","system_id":"levelo_inurba_marseille","lat":43.29955,"lon":5.40095,"is_reserved":false,"is_disabled":false,"rental_uris":{"android":"levelo://app?vid=ed72a879-95d4-47fb-921a-dff8d4dcbc86","ios":"levelo://app?vid=ed72a879-95d4-47fb-921a-dff8d4dcbc86"},"vehicle_type_id":"4","last_reported":1723911032,"current_range_meters":800,"station_id":"ce4bgvh2rcd13ifvqcs0","pricing_plan_id":"cebpf4jnsgd1na2vs0mg"},{"bike_id":"609dabaf-116b-446a-8e29-af1c24aac49a","system_id":"levelo_inurba_marseille","lat":43.291994,"lon":5.392907,"is_reserved":false,"is_disabled":false,"rental_uris":{"android":"levelo://app?vid=609dabaf-116b-446a-8e29-af1c24aac49a","ios":"levelo://app?vid=609dabaf-116b-446a-8e29-af1c24aac49a"},"vehicle_type_id":"4","last_reported":1723911032,"current_range_meters":4400,"station_id":"ce4bh192rcd13ifvqdd0","pricing_plan_id":"cebpf4jnsgd1na2vs0mg"},{"bike_id":"528bad51-c392-4450-8bc5-80be2bc6a93f","system_id":"levelo_inurba_marseille","lat":43.291994,"lon":5.392907,"is_reserved":false,"is_disabled":false,"rental_uris":{"android":"levelo://app?vid=528bad51-c392-4450-8bc5-80be2bc6a93f","ios":"levelo://app?vid=528bad51-c392-4450-8bc5-80be2bc6a93f"},"vehicle_type_id":"4","last_reported":1723911032,"current_range_meters":5600,"station_id":"ce4bh192rcd13ifvqdd0","pricing_plan_id":"cebpf4jnsgd1na2vs0mg"},{"bike_id":"8e9ce6b7-1107-49ba-a201-d08af9756fec","system_id":"levelo_inurba_marseille","lat":43.291994,"lon":5.392907,"is_reserved":false,"is_disabled":false,"rental_uris":{"android":"levelo://app?vid=8e9ce6b7-1107-49ba-a201-d08af9756fec","ios":"levelo://app?vid=8e9ce6b7-1107-49ba-a201-d08af9756fec"},"vehicle_type_id":"4","last_reported":1723911032,"current_range_meters":3600,"station_id":"ce4bh192rcd13ifvqdd0","pricing_plan_id":"cebpf4jnsgd1na2vs0mg"},{"bike_id":"50bc3851-695a-4532-804d-74251e261163","system_id":"levelo_inurba_marseille","lat":43.284534,"lon":5.358662,"is_reserved":false,"is_disabled":false,"rental_uris":{"android":"levelo://app?vid=50bc3851-695a-4532-804d-74251e261163","ios":"levelo://app?vid=50bc3851-695a-4532-804d-74251e261163"},"vehicle_type_id":"4","last_reported":1723911032,"current_range_meters":19200,"station_id":"ce4bhah2rcd13ifvqei0","pricing_plan_id":"cebpf4jnsgd1na2vs0mg"},{"bike_id":"266a4bc9-e3af-4e93-8522-0115353194de","system_id":"levelo_inurba_marseille","lat":43.284538,"lon":5.358657,"is_reserved":false,"is_disabled":false,"rental_uris":{"android":"levelo://app?vid=266a4bc9-e3af-4e93-8522-0115353194de","ios":"levelo://app?vid=266a4bc9-e3af-4e93-8522-0115353194de"},"vehicle_type_id":"4","last_reported":1723911032,"current_range_meters":2400,"station_id":"ce4bhah2rcd13ifvqei0","pricing_plan_id":"cebpf4jnsgd1na2vs0mg"},{"bike_id":"c9673b68-daa0-45a5-be6a-0d43404bdbb6","system_id":"levelo_inurba_marseille","lat":43.28459,"lon":5.3589,"is_reserved":false,"is_disabled":false,"rental_uris":{"android":"levelo://app?vid=c9673b68-daa0-45a5-be6a-0d43404bdbb6","ios":"levelo://app?vid=c9673b68-daa0-45a5-be6a-0d43404bdbb6"},"vehicle_type_id":"4","last_reported":1723911032,"current_range_meters":27600,"station_id":"ce4bhah2rcd13ifvqei0","pricing_plan_id":"cebpf4jnsgd1na2vs0mg"},{"bike_id":"8993957b-4115-4d9d-a23e-a5277b82e40d","system_id":"levelo_inurba_marseille","lat":43.284538,"lon":5.358657,"is_reserved":false,"is_disabled":false,"rental_uris":{"android":"levelo://app?vid=8993957b-4115-4d9d-a23e-a5277b82e40d","ios":"levelo://app?vid=8993957b-4115-4d9d-a23e-a5277b82e40d"},"vehicle_type_id":"4","last_reported":1723911032,"current_range_meters":9200,"station_id":"ce4bhah2rcd13ifvqei0","pricing_plan_id":"cebpf4jnsgd1na2vs0mg"},{"bike_id":"0dade856-7fc6-4fde-8d3f-c20e7e9eda80","system_id":"levelo_inurba_marseille","lat":43.28454,"lon":5.35888,"is_reserved":false,"is_disabled":false,"rental_uris":{"android":"levelo://app?vid=0dade856-7fc6-4fde-8d3f-c20e7e9eda80","ios":"levelo://app?vid=0dade856-7fc6-4fde-8d3f-c20e7e9eda80"},"vehicle_type_id":"4","last_reported":1723911032,"current_range_meters":4800,"station_id":"ce4bhah2rcd13ifvqei0","pricing_plan_id":"cebpf4jnsgd1na2vs0mg"},{"bike_id":"3c22aa84-5879-4f7b-9463-2bffdb64a336","system_id":"levelo_inurba_marseille","lat":43.294314,"lon":5.397498,"is_reserved":false,"is_disabled":false,"rental_uris":{"android":"levelo://app?vid=3c22aa84-5879-4f7b-9463-2bffdb64a336","ios":"levelo://app?vid=3c22aa84-5879-4f7b-9463-2bffdb64a336"},"vehicle_type_id":"4","last_reported":1723911032,"current_range_meters":20400,"station_id":"ce4bh3h2rcd13ifvqdo0","pricing_plan_id":"cebpf4jnsgd1na2vs0mg"},{"bike_id":"2215ee4d-edfa-4060-b304-397efb93c711","system_id":"levelo_inurba_marseille","lat":43.294314,"lon":5.397498,"is_reserved":false,"is_disabled":false,"rental_uris":{"android":"levelo://app?vid=2215ee4d-edfa-4060-b304-397efb93c711","ios":"levelo://app?vid=2215ee4d-edfa-4060-b304-397efb93c711"},"vehicle_type_id":"4","last_reported":1723911032,"current_range_meters":4000,"station_id":"ce4bh3h2rcd13ifvqdo0","pricing_plan_id":"cebpf4jnsgd1na2vs0mg"},{"bike_id":"c295395e-b988-473b-b454-f5fab8286685","system_id":"levelo_inurba_marseille","lat":43.286222,"lon":5.350988,"is_reserved":false,"is_disabled":false,"rental_uris":{"android":"levelo://app?vid=c295395e-b988-473b-b454-f5fab8286685","ios":"levelo://app?vid=c295395e-b988-473b-b454-f5fab8286685"},"vehicle_type_id":"4","last_reported":1723911032,"current_range_meters":28400,"station_id":"ce4bhch2rcd13ifvqeug","pricing_plan_id":"cebpf4jnsgd1na2vs0mg"},{"bike_id":"c38fa8a4-c44f-4347-b4dc-042e32d24b9c","system_id":"levelo_inurba_marseille","lat":43.28618,"lon":5.35105,"is_reserved":false,"is_disabled":false,"rental_uris":{"android":"levelo://app?vid=c38fa8a4-c44f-4347-b4dc-042e32d24b9c","ios":"levelo://app?vid=c38fa8a4-c44f-4347-b4dc-042e32d24b9c"},"vehicle_type_id":"4","last_reported":1723911032,"current_range_meters":0,"station_id":"ce4bhch2rcd13ifvqeug","pricing_plan_id":"cebpf4jnsgd1na2vs0mg"},{"bike_id":"4562d7c4-0652-460c-a2d2-8914291f0da5","system_id":"levelo_inurba_marseille","lat":43.28617,"lon":5.35106,"is_reserved":false,"is_disabled":false,"rental_uris":{"android":"levelo://app?vid=4562d7c4-0652-460c-a2d2-8914291f0da5","ios":"levelo://app?vid=4562d7c4-0652-460c-a2d2-8914291f0da5"},"vehicle_type_id":"4","last_reported":1723911032,"current_range_meters":9200,"station_id":"ce4bhch2rcd13ifvqeug","pricing_plan_id":"cebpf4jnsgd1na2vs0mg"},{"bike_id":"3d171e7e-1ecb-44fd-89fa-89ffd2bb5aa6","system_id":"levelo_inurba_marseille","lat":43.28615,"lon":5.35109,"is_reserved":false,"is_disabled":false,"rental_uris":{"android":"levelo://app?vid=3d171e7e-1ecb-44fd-89fa-89ffd2bb5aa6","ios":"levelo://app?vid=3d171e7e-1ecb-44fd-89fa-89ffd2bb5aa6"},"vehicle_type_id":"4","last_reported":1723911032,"current_range_meters":11600,"station_id":"ce4bhch2rcd13ifvqeug","pricing_plan_id":"cebpf4jnsgd1na2vs0mg"},{"bike_id":"4656d95a-7ab6-4cd1-9708-a2754004bbd6","system_id":"levelo_inurba_marseille","lat":43.28616,"lon":5.35105,"is_reserved":false,"is_disabled":false,"rental_uris":{"android":"levelo://app?vid=4656d95a-7ab6-4cd1-9708-a2754004bbd6","ios":"levelo://app?vid=4656d95a-7ab6-4cd1-9708-a2754004bbd6"},"vehicle_type_id":"4","last_reported":1723911032,"current_range_meters":0,"station_id":"ce4bhch2rcd13ifvqeug","pricing_plan_id":"cebpf4jnsgd1na2vs0mg"},{"bike_id":"22d8f0c2-c1bd-48a1-a4ac-0fa5caaa03a1","system_id":"levelo_inurba_marseille","lat":43.28618,"lon":5.350983,"is_reserved":false,"is_disabled":false,"rental_uris":{"android":"levelo://app?vid=22d8f0c2-c1bd-48a1-a4ac-0fa5caaa03a1","ios":"levelo://app?vid=22d8f0c2-c1bd-48a1-a4ac-0fa5caaa03a1"},"vehicle_type_id":"4","last_reported":1723911032,"current_range_meters":14800,"station_id":"ce4bhch2rcd13ifvqeug","pricing_plan_id":"cebpf4jnsgd1na2vs0mg"},{"bike_id":"2ab809aa-8ac5-4ee6-9c3b-43b029093860","system_id":"levelo_inurba_marseille","lat":43.28617,"lon":5.35099,"is_reserved":false,"is_disabled":false,"rental_uris":{"android":"levelo://app?vid=2ab809aa-8ac5-4ee6-9c3b-43b029093860","ios":"levelo://app?vid=2ab809aa-8ac5-4ee6-9c3b-43b029093860"},"vehicle_type_id":"4","last_reported":1723911032,"current_range_meters":400,"station_id":"ce4bhch2rcd13ifvqeug","pricing_plan_id":"cebpf4jnsgd1na2vs0mg"},{"bike_id":"f7816a23-73d7-4e3d-bf4b-53c4d53e09cc","system_id":"levelo_inurba_marseille","lat":43.28614,"lon":5.35105,"is_reserved":false,"is_disabled":false,"rental_uris":{"android":"levelo://app?vid=f7816a23-73d7-4e3d-bf4b-53c4d53e09cc","ios":"levelo://app?vid=f7816a23-73d7-4e3d-bf4b-53c4d53e09cc"},"vehicle_type_id":"4","last_reported":1723911032,"current_range_meters":31200,"station_id":"ce4bhch2rcd13ifvqeug","pricing_plan_id":"cebpf4jnsgd1na2vs0mg"},{"bike_id":"e3e35316-94f3-400e-9cfb-3a2dfd1ce2ab","system_id":"levelo_inurba_marseille","lat":43.28616,"lon":5.35098,"is_reserved":false,"is_disabled":false,"rental_uris":{"android":"levelo://app?vid=e3e35316-94f3-400e-9cfb-3a2dfd1ce2ab","ios":"levelo://app?vid=e3e35316-94f3-400e-9cfb-3a2dfd1ce2ab"},"vehicle_type_id":"4","last_reported":1723911032,"current_range_meters":0,"station_id":"ce4bhch2rcd13ifvqeug","pricing_plan_id":"cebpf4jnsgd1na2vs0mg"},{"bike_id":"15b3a690-1073-4c4e-86b8-a3bdd7acdf38","system_id":"levelo_inurba_marseille","lat":43.286122,"lon":5.351051,"is_reserved":false,"is_disabled":false,"rental_uris":{"android":"levelo://app?vid=15b3a690-1073-4c4e-86b8-a3bdd7acdf38","ios":"levelo://app?vid=15b3a690-1073-4c4e-86b8-a3bdd7acdf38"},"vehicle_type_id":"4","last_reported":1723911032,"current_range_meters":9600,"station_id":"ce4bhch2rcd13ifvqeug","pricing_plan_id":"cebpf4jnsgd1na2vs0mg"},{"bike_id":"52488300-81a3-405b-ae64-7decce584798","system_id":"levelo_inurba_marseille","lat":43.28607,"lon":5.35099,"is_reserved":false,"is_disabled":false,"rental_uris":{"android":"levelo://app?vid=52488300-81a3-405b-ae64-7decce584798","ios":"levelo://app?vid=52488300-81a3-405b-ae64-7decce584798"},"vehicle_type_id":"4","last_reported":1723911032,"current_range_meters":31200,"station_id":"ce4bhch2rcd13ifvqeug","pricing_plan_id":"cebpf4jnsgd1na2vs0mg"},{"bike_id":"5a3451e9-93d2-4ef9-b67a-f5b00ca20540","system_id":"levelo_inurba_marseille","lat":43.2861,"lon":5.35048,"is_reserved":false,"is_disabled":false,"rental_uris":{"android":"levelo://app?vid=5a3451e9-93d2-4ef9-b67a-f5b00ca20540","ios":"levelo://app?vid=5a3451e9-93d2-4ef9-b67a-f5b00ca20540"},"vehicle_type_id":"4","last_reported":1723911032,"current_range_meters":24000,"station_id":"","pricing_plan_id":"cebpf4jnsgd1na2vs0mg"},{"bike_id":"9923e0bc-eeef-4b7a-a786-b6d94eb57db4","system_id":"levelo_inurba_marseille","lat":43.283998,"lon":5.375062,"is_reserved":false,"is_disabled":false,"rental_uris":{"android":"levelo://app?vid=9923e0bc-eeef-4b7a-a786-b6d94eb57db4","ios":"levelo://app?vid=9923e0bc-eeef-4b7a-a786-b6d94eb57db4"},"vehicle_type_id":"4","last_reported":1723911032,"current_range_meters":21600,"station_id":"ce4bh412rcd13ifvqds0","pricing_plan_id":"cebpf4jnsgd1na2vs0mg"},{"bike_id":"b718d710-906d-47f7-95cf-6e6cee8868ec","system_id":"levelo_inurba_marseille","lat":43.2879,"lon":5.38854,"is_reserved":false,"is_disabled":false,"rental_uris":{"android":"levelo://app?vid=b718d710-906d-47f7-95cf-6e6cee8868ec","ios":"levelo://app?vid=b718d710-906d-47f7-95cf-6e6cee8868ec"},"vehicle_type_id":"4","last_reported":1723911032,"current_range_meters":16400,"station_id":"","pricing_plan_id":"cebpf4jnsgd1na2vs0mg"},{"bike_id":"e51d7832-275c-4ac6-a361-1f0bc1d6ad7a","system_id":"levelo_inurba_marseille","lat":43.28678,"lon":5.3865,"is_reserved":false,"is_disabled":false,"rental_uris":{"android":"levelo://app?vid=e51d7832-275c-4ac6-a361-1f0bc1d6ad7a","ios":"levelo://app?vid=e51d7832-275c-4ac6-a361-1f0bc1d6ad7a"},"vehicle_type_id":"4","last_reported":1723911032,"current_range_meters":0,"station_id":"ce4bh492rcd13ifvqdug","pricing_plan_id":"cebpf4jnsgd1na2vs0mg"},{"bike_id":"695e6e25-2ebc-4e17-b1d6-787e184ef16a","system_id":"levelo_inurba_marseille","lat":43.286595,"lon":5.386795,"is_reserved":false,"is_disabled":false,"rental_uris":{"android":"levelo://app?vid=695e6e25-2ebc-4e17-b1d6-787e184ef16a","ios":"levelo://app?vid=695e6e25-2ebc-4e17-b1d6-787e184ef16a"},"vehicle_type_id":"4","last_reported":1723911032,"current_range_meters":17600,"station_id":"ce4bh492rcd13ifvqdug","pricing_plan_id":"cebpf4jnsgd1na2vs0mg"},{"bike_id":"2847562b-e789-4756-8517-6a899174433e","system_id":"levelo_inurba_marseille","lat":43.337168,"lon":5.391825,"is_reserved":false,"is_disabled":false,"rental_uris":{"android":"levelo://app?vid=2847562b-e789-4756-8517-6a899174433e","ios":"levelo://app?vid=2847562b-e789-4756-8517-6a899174433e"},"vehicle_type_id":"4","last_reported":1723911032,"current_range_meters":20000,"station_id":"ce4bhr92rcd13ifvqhsg","pricing_plan_id":"cebpf4jnsgd1na2vs0mg"},{"bike_id":"f6211ddf-2334-43e9-8699-efdc43d5fe36","system_id":"levelo_inurba_marseille","lat":43.319179,"lon":5.407725,"is_reserved":false,"is_disabled":false,"rental_uris":{"android":"levelo://app?vid=f6211ddf-2334-43e9-8699-efdc43d5fe36","ios":"levelo://app?vid=f6211ddf-2334-43e9-8699-efdc43d5fe36"},"vehicle_type_id":"4","last_reported":1723911032,"current_range_meters":31600,"station_id":"ce4bhq12rcd13ifvqhig","pricing_plan_id":"cebpf4jnsgd1na2vs0mg"},{"bike_id":"18fff16e-1ce6-4c94-8223-0e646c7faa52","system_id":"levelo_inurba_marseille","lat":43.319179,"lon":5.407725,"is_reserved":false,"is_disabled":false,"rental_uris":{"android":"levelo://app?vid=18fff16e-1ce6-4c94-8223-0e646c7faa52","ios":"levelo://app?vid=18fff16e-1ce6-4c94-8223-0e646c7faa52"},"vehicle_type_id":"4","last_reported":1723911032,"current_range_meters":12000,"station_id":"ce4bhq12rcd13ifvqhig","pricing_plan_id":"cebpf4jnsgd1na2vs0mg"},{"bike_id":"1fb9ef5c-d8ba-4e20-bb59-5f7789a70d05","system_id":"levelo_inurba_marseille","lat":43.318941,"lon":5.407389,"is_reserved":false,"is_disabled":false,"rental_uris":{"android":"levelo://app?vid=1fb9ef5c-d8ba-4e20-bb59-5f7789a70d05","ios":"levelo://app?vid=1fb9ef5c-d8ba-4e20-bb59-5f7789a70d05"},"vehicle_type_id":"4","last_reported":1723911032,"current_range_meters":0,"station_id":"ce4bhq12rcd13ifvqhig","pricing_plan_id":"cebpf4jnsgd1na2vs0mg"},{"bike_id":"8d48801e-9dab-4005-8d2b-1de958101246","system_id":"levelo_inurba_marseille","lat":43.32334,"lon":5.40624,"is_reserved":false,"is_disabled":false,"rental_uris":{"android":"levelo://app?vid=8d48801e-9dab-4005-8d2b-1de958101246","ios":"levelo://app?vid=8d48801e-9dab-4005-8d2b-1de958101246"},"vehicle_type_id":"4","last_reported":1723911032,"current_range_meters":3600,"station_id":"ce4bhq92rcd13ifvqhjg","pricing_plan_id":"cebpf4jnsgd1na2vs0mg"},{"bike_id":"d647fb6e-89d9-427e-8c43-b2f78cf88b86","system_id":"levelo_inurba_marseille","lat":43.323464,"lon":5.406297,"is_reserved":false,"is_disabled":false,"rental_uris":{"android":"levelo://app?vid=d647fb6e-89d9-427e-8c43-b2f78cf88b86","ios":"levelo://app?vid=d647fb6e-89d9-427e-8c43-b2f78cf88b86"},"vehicle_type_id":"4","last_reported":1723911032,"current_range_meters":9200,"station_id":"ce4bhq92rcd13ifvqhjg","pricing_plan_id":"cebpf4jnsgd1na2vs0mg"},{"bike_id":"321b02c1-bc5a-4819-8af2-f9be8c04883f","system_id":"levelo_inurba_marseille","lat":43.33731,"lon":5.391997,"is_reserved":false,"is_disabled":false,"rental_uris":{"android":"levelo://app?vid=321b02c1-bc5a-4819-8af2-f9be8c04883f","ios":"levelo://app?vid=321b02c1-bc5a-4819-8af2-f9be8c04883f"},"vehicle_type_id":"4","last_reported":1723911032,"current_range_meters":7600,"station_id":"ce4bhr92rcd13ifvqhsg","pricing_plan_id":"cebpf4jnsgd1na2vs0mg"},{"bike_id":"5d2f18d8-f63e-47ab-b26e-6a78f90186b5","system_id":"levelo_inurba_marseille","lat":43.284793,"lon":5.384113,"is_reserved":false,"is_disabled":false,"rental_uris":{"android":"levelo://app?vid=5d2f18d8-f63e-47ab-b26e-6a78f90186b5","ios":"levelo://app?vid=5d2f18d8-f63e-47ab-b26e-6a78f90186b5"},"vehicle_type_id":"4","last_reported":1723911032,"current_range_meters":29200,"station_id":"ce4bh512rcd13ifvqe3g","pricing_plan_id":"cebpf4jnsgd1na2vs0mg"},{"bike_id":"fb3b4e5e-2d4d-4142-8d36-f78ee03ae8a1","system_id":"levelo_inurba_marseille","lat":43.288497,"lon":5.393089,"is_reserved":false,"is_disabled":false,"rental_uris":{"android":"levelo://app?vid=fb3b4e5e-2d4d-4142-8d36-f78ee03ae8a1","ios":"levelo://app?vid=fb3b4e5e-2d4d-4142-8d36-f78ee03ae8a1"},"vehicle_type_id":"4","last_reported":1723911032,"current_range_meters":2000,"station_id":"ce4bh2p2rcd13ifvqdi0","pricing_plan_id":"cebpf4jnsgd1na2vs0mg"},{"bike_id":"34c4a38f-f53e-40da-ae9e-4e1b0320fdf8","system_id":"levelo_inurba_marseille","lat":43.284793,"lon":5.384119,"is_reserved":false,"is_disabled":false,"rental_uris":{"android":"levelo://app?vid=34c4a38f-f53e-40da-ae9e-4e1b0320fdf8","ios":"levelo://app?vid=34c4a38f-f53e-40da-ae9e-4e1b0320fdf8"},"vehicle_type_id":"4","last_reported":1723911032,"current_range_meters":26400,"station_id":"ce4bh512rcd13ifvqe3g","pricing_plan_id":"cebpf4jnsgd1na2vs0mg"},{"bike_id":"bd428343-1029-4285-83ed-e073ab88f5df","system_id":"levelo_inurba_marseille","lat":43.288497,"lon":5.393089,"is_reserved":false,"is_disabled":false,"rental_uris":{"android":"levelo://app?vid=bd428343-1029-4285-83ed-e073ab88f5df","ios":"levelo://app?vid=bd428343-1029-4285-83ed-e073ab88f5df"},"vehicle_type_id":"4","last_reported":1723911032,"current_range_meters":9200,"station_id":"ce4bh2p2rcd13ifvqdi0","pricing_plan_id":"cebpf4jnsgd1na2vs0mg"},{"bike_id":"1e2fd918-a049-4035-b429-329571dafec1","system_id":"levelo_inurba_marseille","lat":43.284793,"lon":5.384119,"is_reserved":false,"is_disabled":false,"rental_uris":{"android":"levelo://app?vid=1e2fd918-a049-4035-b429-329571dafec1","ios":"levelo://app?vid=1e2fd918-a049-4035-b429-329571dafec1"},"vehicle_type_id":"4","last_reported":1723911032,"current_range_meters":0,"station_id":"ce4bh512rcd13ifvqe3g","pricing_plan_id":"cebpf4jnsgd1na2vs0mg"},{"bike_id":"77c11623-decc-4757-a0aa-15b2ad4be3d7","system_id":"levelo_inurba_marseille","lat":43.288497,"lon":5.393089,"is_reserved":false,"is_disabled":false,"rental_uris":{"android":"levelo://app?vid=77c11623-decc-4757-a0aa-15b2ad4be3d7","ios":"levelo://app?vid=77c11623-decc-4757-a0aa-15b2ad4be3d7"},"vehicle_type_id":"4","last_reported":1723911032,"current_range_meters":0,"station_id":"ce4bh2p2rcd13ifvqdi0","pricing_plan_id":"cebpf4jnsgd1na2vs0mg"},{"bike_id":"7b83bda5-9e02-4954-bfd3-c0deba13ff2a","system_id":"levelo_inurba_marseille","lat":43.288501,"lon":5.393087,"is_reserved":false,"is_disabled":false,"rental_uris":{"android":"levelo://app?vid=7b83bda5-9e02-4954-bfd3-c0deba13ff2a","ios":"levelo://app?vid=7b83bda5-9e02-4954-bfd3-c0deba13ff2a"},"vehicle_type_id":"4","last_reported":1723911032,"current_range_meters":1200,"station_id":"ce4bh2p2rcd13ifvqdi0","pricing_plan_id":"cebpf4jnsgd1na2vs0mg"},{"bike_id":"62f115c9-5d69-4c7e-8261-911845a656f1","system_id":"levelo_inurba_marseille","lat":43.28433,"lon":5.34995,"is_reserved":false,"is_disabled":false,"rental_uris":{"android":"levelo://app?vid=62f115c9-5d69-4c7e-8261-911845a656f1","ios":"levelo://app?vid=62f115c9-5d69-4c7e-8261-911845a656f1"},"vehicle_type_id":"4","last_reported":1723911032,"current_range_meters":30400,"station_id":"ce4bhbh2rcd13ifvqepg","pricing_plan_id":"cebpf4jnsgd1na2vs0mg"},{"bike_id":"35dd489b-3a03-45c3-9b93-0a31635681d4","system_id":"levelo_inurba_marseille","lat":43.284312,"lon":5.349869,"is_reserved":false,"is_disabled":false,"rental_uris":{"android":"levelo://app?vid=35dd489b-3a03-45c3-9b93-0a31635681d4","ios":"levelo://app?vid=35dd489b-3a03-45c3-9b93-0a31635681d4"},"vehicle_type_id":"4","last_reported":1723911032,"current_range_meters":30400,"station_id":"ce4bhbh2rcd13ifvqepg","pricing_plan_id":"cebpf4jnsgd1na2vs0mg"},{"bike_id":"2984a26c-0813-4e7e-8984-db918fbc7ff8","system_id":"levelo_inurba_marseille","lat":43.2843,"lon":5.3499,"is_reserved":false,"is_disabled":false,"rental_uris":{"android":"levelo://app?vid=2984a26c-0813-4e7e-8984-db918fbc7ff8","ios":"levelo://app?vid=2984a26c-0813-4e7e-8984-db918fbc7ff8"},"vehicle_type_id":"4","last_reported":1723911032,"current_range_meters":22400,"station_id":"ce4bhbh2rcd13ifvqepg","pricing_plan_id":"cebpf4jnsgd1na2vs0mg"},{"bike_id":"902cc3c5-c39c-417d-b7ad-ced40f6366c7","system_id":"levelo_inurba_marseille","lat":43.284214,"lon":5.349706,"is_reserved":false,"is_disabled":false,"rental_uris":{"android":"levelo://app?vid=902cc3c5-c39c-417d-b7ad-ced40f6366c7","ios":"levelo://app?vid=902cc3c5-c39c-417d-b7ad-ced40f6366c7"},"vehicle_type_id":"4","last_reported":1723911032,"current_range_meters":9600,"station_id":"ce4bhbh2rcd13ifvqepg","pricing_plan_id":"cebpf4jnsgd1na2vs0mg"},{"bike_id":"83e5f5cf-5e7a-493c-8395-9f62e382c1b0","system_id":"levelo_inurba_marseille","lat":43.2843,"lon":5.34987,"is_reserved":false,"is_disabled":false,"rental_uris":{"android":"levelo://app?vid=83e5f5cf-5e7a-493c-8395-9f62e382c1b0","ios":"levelo://app?vid=83e5f5cf-5e7a-493c-8395-9f62e382c1b0"},"vehicle_type_id":"4","last_reported":1723911032,"current_range_meters":31200,"station_id":"ce4bhbh2rcd13ifvqepg","pricing_plan_id":"cebpf4jnsgd1na2vs0mg"},{"bike_id":"d805a3bb-5fcf-490f-abcf-4e6c660bd3f0","system_id":"levelo_inurba_marseille","lat":43.28431,"lon":5.34981,"is_reserved":false,"is_disabled":false,"rental_uris":{"android":"levelo://app?vid=d805a3bb-5fcf-490f-abcf-4e6c660bd3f0","ios":"levelo://app?vid=d805a3bb-5fcf-490f-abcf-4e6c660bd3f0"},"vehicle_type_id":"4","last_reported":1723911032,"current_range_meters":23200,"station_id":"ce4bhbh2rcd13ifvqepg","pricing_plan_id":"cebpf4jnsgd1na2vs0mg"},{"bike_id":"f03c75e7-e37f-42f5-b6ce-7a9d11c27110","system_id":"levelo_inurba_marseille","lat":43.28429,"lon":5.34986,"is_reserved":false,"is_disabled":false,"rental_uris":{"android":"levelo://app?vid=f03c75e7-e37f-42f5-b6ce-7a9d11c27110","ios":"levelo://app?vid=f03c75e7-e37f-42f5-b6ce-7a9d11c27110"},"vehicle_type_id":"4","last_reported":1723911032,"current_range_meters":21600,"station_id":"ce4bhbh2rcd13ifvqepg","pricing_plan_id":"cebpf4jnsgd1na2vs0mg"},{"bike_id":"90553dfe-7279-470b-a56c-d3e4a019c8c0","system_id":"levelo_inurba_marseille","lat":43.28429,"lon":5.34984,"is_reserved":false,"is_disabled":false,"rental_uris":{"android":"levelo://app?vid=90553dfe-7279-470b-a56c-d3e4a019c8c0","ios":"levelo://app?vid=90553dfe-7279-470b-a56c-d3e4a019c8c0"},"vehicle_type_id":"4","last_reported":1723911032,"current_range_meters":15600,"station_id":"ce4bhbh2rcd13ifvqepg","pricing_plan_id":"cebpf4jnsgd1na2vs0mg"},{"bike_id":"b6a854cd-7133-4089-b11b-42fa9ea2ab95","system_id":"levelo_inurba_marseille","lat":43.28429,"lon":5.34983,"is_reserved":false,"is_disabled":false,"rental_uris":{"android":"levelo://app?vid=b6a854cd-7133-4089-b11b-42fa9ea2ab95","ios":"levelo://app?vid=b6a854cd-7133-4089-b11b-42fa9ea2ab95"},"vehicle_type_id":"4","last_reported":1723911032,"current_range_meters":28000,"station_id":"ce4bhbh2rcd13ifvqepg","pricing_plan_id":"cebpf4jnsgd1na2vs0mg"},{"bike_id":"56b44b80-6097-4691-9daa-bcb86daf1301","system_id":"levelo_inurba_marseille","lat":43.28429,"lon":5.34982,"is_reserved":false,"is_disabled":false,"rental_uris":{"android":"levelo://app?vid=56b44b80-6097-4691-9daa-bcb86daf1301","ios":"levelo://app?vid=56b44b80-6097-4691-9daa-bcb86daf1301"},"vehicle_type_id":"4","last_reported":1723911032,"current_range_meters":0,"station_id":"ce4bhbh2rcd13ifvqepg","pricing_plan_id":"cebpf4jnsgd1na2vs0mg"},{"bike_id":"664a0b6e-52d7-412f-8c4c-3d557bc33837","system_id":"levelo_inurba_marseille","lat":43.28425,"lon":5.34993,"is_reserved":false,"is_disabled":false,"rental_uris":{"android":"levelo://app?vid=664a0b6e-52d7-412f-8c4c-3d557bc33837","ios":"levelo://app?vid=664a0b6e-52d7-412f-8c4c-3d557bc33837"},"vehicle_type_id":"4","last_reported":1723911032,"current_range_meters":0,"station_id":"ce4bhbh2rcd13ifvqepg","pricing_plan_id":"cebpf4jnsgd1na2vs0mg"},{"bike_id":"5a94e7ec-c570-4d14-8e78-ec236ba5c427","system_id":"levelo_inurba_marseille","lat":43.284255,"lon":5.349898,"is_reserved":false,"is_disabled":false,"rental_uris":{"android":"levelo://app?vid=5a94e7ec-c570-4d14-8e78-ec236ba5c427","ios":"levelo://app?vid=5a94e7ec-c570-4d14-8e78-ec236ba5c427"},"vehicle_type_id":"4","last_reported":1723911032,"current_range_meters":28800,"station_id":"ce4bhbh2rcd13ifvqepg","pricing_plan_id":"cebpf4jnsgd1na2vs0mg"},{"bike_id":"65e09344-93af-48e8-ac6d-214efc531dac","system_id":"levelo_inurba_marseille","lat":43.284277,"lon":5.349823,"is_reserved":false,"is_disabled":false,"rental_uris":{"android":"levelo://app?vid=65e09344-93af-48e8-ac6d-214efc531dac","ios":"levelo://app?vid=65e09344-93af-48e8-ac6d-214efc531dac"},"vehicle_type_id":"4","last_reported":1723911032,"current_range_meters":31200,"station_id":"ce4bhbh2rcd13ifvqepg","pricing_plan_id":"cebpf4jnsgd1na2vs0mg"},{"bike_id":"557e7ebd-f7e3-4104-b2eb-1569b9b00652","system_id":"levelo_inurba_marseille","lat":43.28425,"lon":5.349907,"is_reserved":false,"is_disabled":false,"rental_uris":{"android":"levelo://app?vid=557e7ebd-f7e3-4104-b2eb-1569b9b00652","ios":"levelo://app?vid=557e7ebd-f7e3-4104-b2eb-1569b9b00652"},"vehicle_type_id":"4","last_reported":1723911032,"current_range_meters":20000,"station_id":"ce4bhbh2rcd13ifvqepg","pricing_plan_id":"cebpf4jnsgd1na2vs0mg"},{"bike_id":"a74b86b9-8e59-4bc4-aa39-657851b9f551","system_id":"levelo_inurba_marseille","lat":43.284266,"lon":5.349851,"is_reserved":false,"is_disabled":false,"rental_uris":{"android":"levelo://app?vid=a74b86b9-8e59-4bc4-aa39-657851b9f551","ios":"levelo://app?vid=a74b86b9-8e59-4bc4-aa39-657851b9f551"},"vehicle_type_id":"4","last_reported":1723911032,"current_range_meters":30400,"station_id":"ce4bhbh2rcd13ifvqepg","pricing_plan_id":"cebpf4jnsgd1na2vs0mg"},{"bike_id":"194a4003-9a50-4f64-a8a5-7d7f726403b2","system_id":"levelo_inurba_marseille","lat":43.28427,"lon":5.34982,"is_reserved":false,"is_disabled":false,"rental_uris":{"android":"levelo://app?vid=194a4003-9a50-4f64-a8a5-7d7f726403b2","ios":"levelo://app?vid=194a4003-9a50-4f64-a8a5-7d7f726403b2"},"vehicle_type_id":"4","last_reported":1723911032,"current_range_meters":30800,"station_id":"ce4bhbh2rcd13ifvqepg","pricing_plan_id":"cebpf4jnsgd1na2vs0mg"},{"bike_id":"862a3614-d5b8-41d7-b4c7-1156a50de4c4","system_id":"levelo_inurba_marseille","lat":43.28423,"lon":5.34993,"is_reserved":false,"is_disabled":false,"rental_uris":{"android":"levelo://app?vid=862a3614-d5b8-41d7-b4c7-1156a50de4c4","ios":"levelo://app?vid=862a3614-d5b8-41d7-b4c7-1156a50de4c4"},"vehicle_type_id":"4","last_reported":1723911032,"current_range_meters":30400,"station_id":"ce4bhbh2rcd13ifvqepg","pricing_plan_id":"cebpf4jnsgd1na2vs0mg"},{"bike_id":"2e83ba4e-de67-44ea-9892-c63ca6899c37","system_id":"levelo_inurba_marseille","lat":43.28427,"lon":5.3498,"is_reserved":false,"is_disabled":false,"rental_uris":{"android":"levelo://app?vid=2e83ba4e-de67-44ea-9892-c63ca6899c37","ios":"levelo://app?vid=2e83ba4e-de67-44ea-9892-c63ca6899c37"},"vehicle_type_id":"4","last_reported":1723911032,"current_range_meters":30400,"station_id":"ce4bhbh2rcd13ifvqepg","pricing_plan_id":"cebpf4jnsgd1na2vs0mg"},{"bike_id":"a77e6ba5-a2db-45b1-a93e-6148c5952336","system_id":"levelo_inurba_marseille","lat":43.284248,"lon":5.349853,"is_reserved":false,"is_disabled":false,"rental_uris":{"android":"levelo://app?vid=a77e6ba5-a2db-45b1-a93e-6148c5952336","ios":"levelo://app?vid=a77e6ba5-a2db-45b1-a93e-6148c5952336"},"vehicle_type_id":"4","last_reported":1723911032,"current_range_meters":27600,"station_id":"ce4bhbh2rcd13ifvqepg","pricing_plan_id":"cebpf4jnsgd1na2vs0mg"},{"bike_id":"5e59276e-9d12-4934-a567-4e9e0d7be12f","system_id":"levelo_inurba_marseille","lat":43.28422,"lon":5.34994,"is_reserved":false,"is_disabled":false,"rental_uris":{"android":"levelo://app?vid=5e59276e-9d12-4934-a567-4e9e0d7be12f","ios":"levelo://app?vid=5e59276e-9d12-4934-a567-4e9e0d7be12f"},"vehicle_type_id":"4","last_reported":1723911032,"current_range_meters":31200,"station_id":"ce4bhbh2rcd13ifvqepg","pricing_plan_id":"cebpf4jnsgd1na2vs0mg"},{"bike_id":"f5154227-f8b2-4e39-8344-5793f93d2f5a","system_id":"levelo_inurba_marseille","lat":43.28425,"lon":5.34982,"is_reserved":false,"is_disabled":false,"rental_uris":{"android":"levelo://app?vid=f5154227-f8b2-4e39-8344-5793f93d2f5a","ios":"levelo://app?vid=f5154227-f8b2-4e39-8344-5793f93d2f5a"},"vehicle_type_id":"4","last_reported":1723911032,"current_range_meters":31200,"station_id":"ce4bhbh2rcd13ifvqepg","pricing_plan_id":"cebpf4jnsgd1na2vs0mg"},{"bike_id":"7bddb89a-3b03-48e9-8e49-0edaa4efdc47","system_id":"levelo_inurba_marseille","lat":43.284236,"lon":5.349856,"is_reserved":false,"is_disabled":false,"rental_uris":{"android":"levelo://app?vid=7bddb89a-3b03-48e9-8e49-0edaa4efdc47","ios":"levelo://app?vid=7bddb89a-3b03-48e9-8e49-0edaa4efdc47"},"vehicle_type_id":"4","last_reported":1723911032,"current_range_meters":10000,"station_id":"ce4bhbh2rcd13ifvqepg","pricing_plan_id":"cebpf4jnsgd1na2vs0mg"},{"bike_id":"f34e2aae-1c70-4ac7-8ab6-a05a4af29508","system_id":"levelo_inurba_marseille","lat":43.28424,"lon":5.34983,"is_reserved":false,"is_disabled":false,"rental_uris":{"android":"levelo://app?vid=f34e2aae-1c70-4ac7-8ab6-a05a4af29508","ios":"levelo://app?vid=f34e2aae-1c70-4ac7-8ab6-a05a4af29508"},