{"last_updated":1748614234,"ttl":60,"version":"2.2","data":{"bikes":[{"bike_id":"55d42eeb-6b71-4987-a0f2-3d758b10d43e","system_id":"levelo_inurba_marseille","lat":43.33771,"lon":5.37424,"is_reserved":false,"is_disabled":true,"rental_uris":{"android":"levelo://app?vid=55d42eeb-6b71-4987-a0f2-3d758b10d43e","ios":"levelo://app?vid=55d42eeb-6b71-4987-a0f2-3d758b10d43e"},"vehicle_type_id":"4","last_reported":1748614235,"current_range_meters":0,"station_id":"","pricing_plan_id":"cebpf4jnsgd1na2vs0mg"},{"bike_id":"b7fe4621-b706-42f0-9085-4811142f84e8","system_id":"levelo_inurba_marseille","lat":43.337499,"lon":5.374469,"is_reserved":false,"is_disabled":true,"rental_uris":{"android":"levelo://app?vid=b7fe4621-b706-42f0-9085-4811142f84e8","ios":"levelo://app?vid=b7fe4621-b706-42f0-9085-4811142f84e8"},"vehicle_type_id":"4","last_reported":1748614235,"current_range_meters":0,"station_id":"","pricing_plan_id":"cebpf4jnsgd1na2vs0mg"},{"bike_id":"ad402f0f-3192-410c-afac-8cf064a40c6d","system_id":"levelo_inurba_marseille","lat":43.337444,"lon":5.374475,"is_reserved":false,"is_disabled":true,"rental_uris":{"android":"levelo://app?vid=ad402f0f-3192-410c-afac-8cf064a40c6d","ios":"levelo://app?vid=ad402f0f-3192-410c-afac-8cf064a40c6d"},"vehicle_type_id":"4","last_reported":1748614235,"current_range_meters":0,"station_id":"","pricing_plan_id":"cebpf4jnsgd1na2vs0mg"},{"bike_id":"697d9367-9253-4cd9-bf9c-fe41669285d2","system_id":"levelo_inurba_marseille","lat":43.273769,"lon":5.362565,"is_reserved":false,"is_disabled":true,"rental_uris":{"android":"levelo://app?vid=697d9367-9253-4cd9-bf9c-fe41669285d2","ios":"levelo://app?vid=697d9367-9253-4cd9-bf9c-fe41669285d2"},"vehicle_type_id":"4","last_reported":1748614235,"current_range_meters":0,"station_id":"","pricing_plan_id":"cebpf4jnsgd1na2vs0mg"},{"bike_id":"d90baf97-e6b3-4c48-bcd2-63bc44243da4","system_id":"levelo_inurba_marseille","lat":43.216438,"lon":5.34298,"is_reserved":false,"is_disabled":true,"rental_uris":{"android":"levelo://app?vid=d90baf97-e6b3-4c48-bcd2-63bc44243da4","ios":"levelo://app?vid=d90baf97-e6b3-4c48-bcd2-63bc44243da4"},"vehicle_type_id":"4","last_reported":1748614235,"current_range_meters":0,"station_id":"","pricing_plan_id":"cebpf4jnsgd1na2vs0mg"},{"bike_id":"80dc1064-d63f-4a22-ad21-d8abd70986c0","system_id":"levelo_inurba_marseille","lat":43.337558,"lon":5.374801,"is_reserved":false,"is_disabled":true,"rental_uris":{"android":"levelo://app?vid=80dc1064-d63f-4a22-ad21-d8abd70986c0","ios":"levelo://app?vid=80dc1064-d63f-4a22-ad21-d8abd70986c0"},"vehicle_type_id":"4","last_reported":1748614235,"current_range_meters":0,"station_id":"","pricing_plan_id":"cebpf4jnsgd1na2vs0mg"},{"bike_id":"e85986f7-78ee-45ca-a51c-ad41979e478c","system_id":"levelo_inurba_marseille","lat":43.295166,"lon":5.375107,"is_reserved":false,"is_disabled":true,"rental_uris":{"android":"levelo://app?vid=e85986f7-78ee-45ca-a51c-ad41979e478c","ios":"levelo://app?vid=e85986f7-78ee-45ca-a51c-ad41979e478c"},"vehicle_type_id":"4","last_reported":1748614235,"current_range_meters":0,"station_id":"","pricing_plan_id":"cebpf4jnsgd1na2vs0mg"},{"bike_id":"bc4bb38f-7311-46d6-a8ac-87cfb8735f7e","system_id":"levelo_inurba_marseille","lat":43.225006,"lon":5.347851,"is_reserved":false,"is_disabled":true,"rental_uris":{"android":"levelo://app?vid=bc4bb38f-7311-46d6-a8ac-87cfb8735f7e","ios":"levelo://app?vid=bc4bb38f-7311-46d6-a8ac-87cfb8735f7e"},"vehicle_type_id":"4","last_reported":1748614235,"current_range_meters":0,"station_id":"","pricing_plan_id":"cebpf4jnsgd1na2vs0mg"},{"bike_id":"9b03ac79-706c-4471-9806-4679084631eb","system_id":"levelo_inurba_marseille","lat":43.29908,"lon":5.38145,"is_reserved":false,"is_disabled":true,"rental_uris":{"android":"levelo://app?vid=9b03ac79-706c-4471-9806-4679084631eb","ios":"levelo://app?vid=9b03ac79-706c-4471-9806-4679084631eb"},"vehicle_type_id":"4","last_reported":1748614235,"current_range_meters":0,"station_id":"ce4bgj12rcd13ifvqbc0","pricing_plan_id":"cebpf4jnsgd1na2vs0mg"},{"bike_id":"2e6713f1-00ad-4265-a3f5-fe679445c419","system_id":"levelo_inurba_marseille","lat":43.299591,"lon":5.384813,"is_reserved":false,"is_disabled":true,"rental_uris":{"android":"levelo://app?vid=2e6713f1-00ad-4265-a3f5-fe679445c419","ios":"levelo://app?vid=2e6713f1-00ad-4265-a3f5-fe679445c419"},"vehicle_type_id":"4","last_reported":1748614235,"current_range_meters":0,"station_id":"ce4bgj92rcd13ifvqbd0","pricing_plan_id":"cebpf4jnsgd1na2vs0mg"},{"bike_id":"ec1073fb-3071-4d11-8f55-4241a13f9b5c","system_id":"levelo_inurba_marseille","lat":43.31075,"lon":5.38352,"is_reserved":false,"is_disabled":true,"rental_uris":{"android":"levelo://app?vid=ec1073fb-3071-4d11-8f55-4241a13f9b5c","ios":"levelo://app?vid=ec1073fb-3071-4d11-8f55-4241a13f9b5c"},"vehicle_type_id":"4","last_reported":1748614235,"current_range_meters":0,"station_id":"ce4bgv92rcd13ifvqcr0","pricing_plan_id":"cebpf4jnsgd1na2vs0mg"},{"bike_id":"160c6e8a-dac6-4670-81b3-ef5cea527bf1","system_id":"levelo_inurba_marseille","lat":43.28465,"lon":5.35893,"is_reserved":false,"is_disabled":true,"rental_uris":{"android":"levelo://app?vid=160c6e8a-dac6-4670-81b3-ef5cea527bf1","ios":"levelo://app?vid=160c6e8a-dac6-4670-81b3-ef5cea527bf1"},"vehicle_type_id":"4","last_reported":1748614235,"current_range_meters":0,"station_id":"ce4bhah2rcd13ifvqei0","pricing_plan_id":"cebpf4jnsgd1na2vs0mg"},{"bike_id":"da4e85f2-114b-49b3-81f9-a2221ab823d6","system_id":"levelo_inurba_marseille","lat":43.27369,"lon":5.36251,"is_reserved":false,"is_disabled":true,"rental_uris":{"android":"levelo://app?vid=da4e85f2-114b-49b3-81f9-a2221ab823d6","ios":"levelo://app?vid=da4e85f2-114b-49b3-81f9-a2221ab823d6"},"vehicle_type_id":"4","last_reported":1748614235,"current_range_meters":0,"station_id":"ce4bhbh2rcd13ifvqeo0","pricing_plan_id":"cebpf4jnsgd1na2vs0mg"},{"bike_id":"51952210-8d87-4997-9eec-051a1de17a82","system_id":"levelo_inurba_marseille","lat":43.28272,"lon":5.35064,"is_reserved":false,"is_disabled":true,"rental_uris":{"android":"levelo://app?vid=51952210-8d87-4997-9eec-051a1de17a82","ios":"levelo://app?vid=51952210-8d87-4997-9eec-051a1de17a82"},"vehicle_type_id":"4","last_reported":1748614235,"current_range_meters":0,"station_id":"ce4bhbp2rcd13ifvqerg","pricing_plan_id":"cebpf4jnsgd1na2vs0mg"},{"bike_id":"ba1ebcc8-540c-4e36-b211-223decc4fb14","system_id":"levelo_inurba_marseille","lat":43.28266,"lon":5.35067,"is_reserved":false,"is_disabled":true,"rental_uris":{"android":"levelo://app?vid=ba1ebcc8-540c-4e36-b211-223decc4fb14","ios":"levelo://app?vid=ba1ebcc8-540c-4e36-b211-223decc4fb14"},"vehicle_type_id":"4","last_reported":1748614235,"current_range_meters":0,"station_id":"ce4bhbp2rcd13ifvqerg","pricing_plan_id":"cebpf4jnsgd1na2vs0mg"},{"bike_id":"300c3511-49b5-4a66-8335-d3bb03650cb4","system_id":"levelo_inurba_marseille","lat":43.292662,"lon":5.368493,"is_reserved":false,"is_disabled":true,"rental_uris":{"android":"levelo://app?vid=300c3511-49b5-4a66-8335-d3bb03650cb4","ios":"levelo://app?vid=300c3511-49b5-4a66-8335-d3bb03650cb4"},"vehicle_type_id":"4","last_reported":1748614235,"current_range_meters":0,"station_id":"ce4bhbp2rcd13ifvqesg","pricing_plan_id":"cebpf4jnsgd1na2vs0mg"},{"bike_id":"694c15ac-b25b-45e6-8053-a5ab81a0a02c","system_id":"levelo_inurba_marseille","lat":43.28615,"lon":5.35101,"is_reserved":false,"is_disabled":true,"rental_uris":{"android":"levelo://app?vid=694c15ac-b25b-45e6-8053-a5ab81a0a02c","ios":"levelo://app?vid=694c15ac-b25b-45e6-8053-a5ab81a0a02c"},"vehicle_type_id":"4","last_reported":1748614235,"current_range_meters":0,"station_id":"ce4bhch2rcd13ifvqeug","pricing_plan_id":"cebpf4jnsgd1na2vs0mg"},{"bike_id":"f4e9494a-7110-4ed0-8a2c-d6bac25b193e","system_id":"levelo_inurba_marseille","lat":43.28618,"lon":5.35105,"is_reserved":false,"is_disabled":true,"rental_uris":{"android":"levelo://app?vid=f4e9494a-7110-4ed0-8a2c-d6bac25b193e","ios":"levelo://app?vid=f4e9494a-7110-4ed0-8a2c-d6bac25b193e"},"vehicle_type_id":"4","last_reported":1748614235,"current_range_meters":0,"station_id":"ce4bhch2rcd13ifvqeug","pricing_plan_id":"cebpf4jnsgd1na2vs0mg"},{"bike_id":"ebe1be11-6b23-4e79-99e2-5b120042bf6c","system_id":"levelo_inurba_marseille","lat":43.26552,"lon":5.3729,"is_reserved":false,"is_disabled":true,"rental_uris":{"android":"levelo://app?vid=ebe1be11-6b23-4e79-99e2-5b120042bf6c","ios":"levelo://app?vid=ebe1be11-6b23-4e79-99e2-5b120042bf6c"},"vehicle_type_id":"4","last_reported":1748614235,"current_range_meters":0,"station_id":"ce4bhg12rcd13ifvqf70","pricing_plan_id":"cebpf4jnsgd1na2vs0mg"},{"bike_id":"ea0a6d20-f630-4702-8cc8-daefc0c39fd8","system_id":"levelo_inurba_marseille","lat":43.26215,"lon":5.37441,"is_reserved":false,"is_disabled":true,"rental_uris":{"android":"levelo://app?vid=ea0a6d20-f630-4702-8cc8-daefc0c39fd8","ios":"levelo://app?vid=ea0a6d20-f630-4702-8cc8-daefc0c39fd8"},"vehicle_type_id":"4","last_reported":1748614235,"current_range_meters":0,"station_id":"ce4bhgp2rcd13ifvqfc0","pricing_plan_id":"cebpf4jnsgd1na2vs0mg"},{"bike_id":"b50ba5ef-b518-4ff7-b20d-d3157bb3f2db","system_id":"levelo_inurba_marseille","lat":43.26188,"lon":5.37432,"is_reserved":false,"is_disabled":true,"rental_uris":{"android":"levelo://app?vid=b50ba5ef-b518-4ff7-b20d-d3157bb3f2db","ios":"levelo://app?vid=b50ba5ef-b518-4ff7-b20d-d3157bb3f2db"},"vehicle_type_id":"4","last_reported":1748614235,"current_range_meters":0,"station_id":"ce4bhgp2rcd13ifvqfc0","pricing_plan_id":"cebpf4jnsgd1na2vs0mg"},{"bike_id":"080d7bbc-6d13-48d4-8587-ea583fed9783","system_id":"levelo_inurba_marseille","lat":43.26196,"lon":5.37447,"is_reserved":false,"is_disabled":true,"rental_uris":{"android":"levelo://app?vid=080d7bbc-6d13-48d4-8587-ea583fed9783","ios":"levelo://app?vid=080d7bbc-6d13-48d4-8587-ea583fed9783"},"vehicle_type_id":"4","last_reported":1748614235,"current_range_meters":0,"station_id":"ce4bhgp2rcd13ifvqfc0","pricing_plan_id":"cebpf4jnsgd1na2vs0mg"},{"bike_id":"538f994a-34b8-4dd3-9c39-e9196029819d","system_id":"levelo_inurba_marseille","lat":43.243928,"lon":5.370585,"is_reserved":false,"is_disabled":true,"rental_uris":{"android":"levelo://app?vid=538f994a-34b8-4dd3-9c39-e9196029819d","ios":"levelo://app?vid=538f994a-34b8-4dd3-9c39-e9196029819d"},"vehicle_type_id":"4","last_reported":1748614235,"current_range_meters":0,"station_id":"ce4bhhh2rcd13ifvqfk0","pricing_plan_id":"cebpf4jnsgd1na2vs0mg"},{"bike_id":"b6a9e15f-7b3b-4557-a698-5cc3414effcc","system_id":"levelo_inurba_marseille","lat":43.24388,"lon":5.37065,"is_reserved":false,"is_disabled":true,"rental_uris":{"android":"levelo://app?vid=b6a9e15f-7b3b-4557-a698-5cc3414effcc","ios":"levelo://app?vid=b6a9e15f-7b3b-4557-a698-5cc3414effcc"},"vehicle_type_id":"4","last_reported":1748614235,"current_range_meters":0,"station_id":"ce4bhhh2rcd13ifvqfk0","pricing_plan_id":"cebpf4jnsgd1na2vs0mg"},{"bike_id":"7847f305-f89a-41ce-b132-df90225e4673","system_id":"levelo_inurba_marseille","lat":43.23963,"lon":5.36638,"is_reserved":false,"is_disabled":true,"rental_uris":{"android":"levelo://app?vid=7847f305-f89a-41ce-b132-df90225e4673","ios":"levelo://app?vid=7847f305-f89a-41ce-b132-df90225e4673"},"vehicle_type_id":"4","last_reported":1748614235,"current_range_meters":0,"station_id":"ce4bhi12rcd13ifvqfp0","pricing_plan_id":"cebpf4jnsgd1na2vs0mg"},{"bike_id":"ff65314b-c6d7-4480-ae07-5fd9dfc89f84","system_id":"levelo_inurba_marseille","lat":43.2707,"lon":5.42279,"is_reserved":false,"is_disabled":true,"rental_uris":{"android":"levelo://app?vid=ff65314b-c6d7-4480-ae07-5fd9dfc89f84","ios":"levelo://app?vid=ff65314b-c6d7-4480-ae07-5fd9dfc89f84"},"vehicle_type_id":"4","last_reported":1748614235,"current_range_meters":0,"station_id":"ce4bhk92rcd13ifvqgb0","pricing_plan_id":"cebpf4jnsgd1na2vs0mg"},{"bike_id":"9c99db04-0d32-4c37-8274-6c6e3f096fc5","system_id":"levelo_inurba_marseille","lat":43.25724,"lon":5.4111,"is_reserved":false,"is_disabled":true,"rental_uris":{"android":"levelo://app?vid=9c99db04-0d32-4c37-8274-6c6e3f096fc5","ios":"levelo://app?vid=9c99db04-0d32-4c37-8274-6c6e3f096fc5"},"vehicle_type_id":"4","last_reported":1748614235,"current_range_meters":0,"station_id":"ce4bhkp2rcd13ifvqgd0","pricing_plan_id":"cebpf4jnsgd1na2vs0mg"},{"bike_id":"d15385dd-e601-4661-b726-8b3c4d3a429c","system_id":"levelo_inurba_marseille","lat":43.241853,"lon":5.39715,"is_reserved":false,"is_disabled":true,"rental_uris":{"android":"levelo://app?vid=d15385dd-e601-4661-b726-8b3c4d3a429c","ios":"levelo://app?vid=d15385dd-e601-4661-b726-8b3c4d3a429c"},"vehicle_type_id":"4","last_reported":1748614235,"current_range_meters":0,"station_id":"ce4bhn12rcd13ifvqgpg","pricing_plan_id":"cebpf4jnsgd1na2vs0mg"},{"bike_id":"4e5a1d5f-5a6a-4a83-a5ff-d402a6d6435b","system_id":"levelo_inurba_marseille","lat":43.27849,"lon":5.40721,"is_reserved":false,"is_disabled":true,"rental_uris":{"android":"levelo://app?vid=4e5a1d5f-5a6a-4a83-a5ff-d402a6d6435b","ios":"levelo://app?vid=4e5a1d5f-5a6a-4a83-a5ff-d402a6d6435b"},"vehicle_type_id":"4","last_reported":1748614235,"current_range_meters":0,"station_id":"ce4bhnh2rcd13ifvqgtg","pricing_plan_id":"cebpf4jnsgd1na2vs0mg"},{"bike_id":"61fd3d58-2ef0-4e8c-bb45-c9e7bc79660b","system_id":"levelo_inurba_marseille","lat":43.23199,"lon":5.35548,"is_reserved":false,"is_disabled":true,"rental_uris":{"android":"levelo://app?vid=61fd3d58-2ef0-4e8c-bb45-c9e7bc79660b","ios":"levelo://app?vid=61fd3d58-2ef0-4e8c-bb45-c9e7bc79660b"},"vehicle_type_id":"4","last_reported":1748614235,"current_range_meters":0,"station_id":"ce4bhu92rcd13ifvqi70","pricing_plan_id":"cebpf4jnsgd1na2vs0mg"},{"bike_id":"0b603e0a-df90-4fa6-b945-fbb8f205a73d","system_id":"levelo_inurba_marseille","lat":43.24171,"lon":5.36408,"is_reserved":false,"is_disabled":true,"rental_uris":{"android":"levelo://app?vid=0b603e0a-df90-4fa6-b945-fbb8f205a73d","ios":"levelo://app?vid=0b603e0a-df90-4fa6-b945-fbb8f205a73d"},"vehicle_type_id":"4","last_reported":1748614235,"current_range_meters":0,"station_id":"cpo36qri1sfpv3e86is0","pricing_plan_id":"cebpf4jnsgd1na2vs0mg"},{"bike_id":"73692252-284e-452c-9b85-90a54145fcf6","system_id":"levelo_inurba_marseille","lat":43.21754,"lon":5.34598,"is_reserved":false,"is_disabled":true,"rental_uris":{"android":"levelo://app?vid=73692252-284e-452c-9b85-90a54145fcf6","ios":"levelo://app?vid=73692252-284e-452c-9b85-90a54145fcf6"},"vehicle_type_id":"4","last_reported":1748614235,"current_range_meters":0,"station_id":"st_cvj6r9ubvosntc0bgbag","pricing_plan_id":"cebpf4jnsgd1na2vs0mg"},{"bike_id":"55084d5d-7e2e-478e-939b-c31f48c3985f","system_id":"levelo_inurba_marseille","lat":43.21186,"lon":5.35059,"is_reserved":false,"is_disabled":true,"rental_uris":{"android":"levelo://app?vid=55084d5d-7e2e-478e-939b-c31f48c3985f","ios":"levelo://app?vid=55084d5d-7e2e-478e-939b-c31f48c3985f"},"vehicle_type_id":"4","last_reported":1748614235,"current_range_meters":0,"station_id":"st_cvj6sg6p6f1abm77japg","pricing_plan_id":"cebpf4jnsgd1na2vs0mg"},{"bike_id":"5278b434-6c84-40e9-b526-dac962bdf780","system_id":"levelo_inurba_marseille","lat":43.23492,"lon":5.36022,"is_reserved":false,"is_disabled":true,"rental_uris":{"android":"levelo://app?vid=5278b434-6c84-40e9-b526-dac962bdf780","ios":"levelo://app?vid=5278b434-6c84-40e9-b526-dac962bdf780"},"vehicle_type_id":"4","last_reported":1748614235,"current_range_meters":400,"station_id":"","pricing_plan_id":"cebpf4jnsgd1na2vs0mg"},{"bike_id":"fa3974fd-90f4-4aaa-9a2f-1e00ae865ae4","system_id":"levelo_inurba_marseille","lat":43.286407,"lon":5.394872,"is_reserved":false,"is_disabled":true,"rental_uris":{"android":"levelo://app?vid=fa3974fd-90f4-4aaa-9a2f-1e00ae865ae4","ios":"levelo://app?vid=fa3974fd-90f4-4aaa-9a2f-1e00ae865ae4"},"vehicle_type_id":"4","last_reported":1748614235,"current_range_meters":400,"station_id":"ce4bh292rcd13ifvqdg0","pricing_plan_id":"cebpf4jnsgd1na2vs0mg"},{"bike_id":"806c5563-2edd-4048-9455-b94bd5613866","system_id":"levelo_inurba_marseille","lat":43.28614,"lon":5.35109,"is_reserved":false,"is_disabled":true,"rental_uris":{"android":"levelo://app?vid=806c5563-2edd-4048-9455-b94bd5613866","ios":"levelo://app?vid=806c5563-2edd-4048-9455-b94bd5613866"},"vehicle_type_id":"4","last_reported":1748614235,"current_range_meters":400,"station_id":"ce4bhch2rcd13ifvqeug","pricing_plan_id":"cebpf4jnsgd1na2vs0mg"},{"bike_id":"308275e5-6099-4ddb-82e1-1aba680b542b","system_id":"levelo_inurba_marseille","lat":43.25577,"lon":5.38236,"is_reserved":false,"is_disabled":true,"rental_uris":{"android":"levelo://app?vid=308275e5-6099-4ddb-82e1-1aba680b542b","ios":"levelo://app?vid=308275e5-6099-4ddb-82e1-1aba680b542b"},"vehicle_type_id":"4","last_reported":1748614235,"current_range_meters":400,"station_id":"ce4bhih2rcd13ifvqfs0","pricing_plan_id":"cebpf4jnsgd1na2vs0mg"},{"bike_id":"b80ee325-09b2-4724-993d-4f8d3707c41c","system_id":"levelo_inurba_marseille","lat":43.25862,"lon":5.39902,"is_reserved":false,"is_disabled":true,"rental_uris":{"android":"levelo://app?vid=b80ee325-09b2-4724-993d-4f8d3707c41c","ios":"levelo://app?vid=b80ee325-09b2-4724-993d-4f8d3707c41c"},"vehicle_type_id":"4","last_reported":1748614235,"current_range_meters":400,"station_id":"ce4bhl92rcd13ifvqghg","pricing_plan_id":"cebpf4jnsgd1na2vs0mg"},{"bike_id":"a9c8cc09-b81f-4b6d-ae1a-4da7ee8da825","system_id":"levelo_inurba_marseille","lat":43.25931,"lon":5.40898,"is_reserved":false,"is_disabled":true,"rental_uris":{"android":"levelo://app?vid=a9c8cc09-b81f-4b6d-ae1a-4da7ee8da825","ios":"levelo://app?vid=a9c8cc09-b81f-4b6d-ae1a-4da7ee8da825"},"vehicle_type_id":"4","last_reported":1748614235,"current_range_meters":400,"station_id":"ce4bhm92rcd13ifvqglg","pricing_plan_id":"cebpf4jnsgd1na2vs0mg"},{"bike_id":"97d9bf3e-5537-44fb-ae8f-043cd11395f2","system_id":"levelo_inurba_marseille","lat":43.23056,"lon":5.3549,"is_reserved":false,"is_disabled":true,"rental_uris":{"android":"levelo://app?vid=97d9bf3e-5537-44fb-ae8f-043cd11395f2","ios":"levelo://app?vid=97d9bf3e-5537-44fb-ae8f-043cd11395f2"},"vehicle_type_id":"4","last_reported":1748614235,"current_range_meters":400,"station_id":"cpo3342slgdg3j2ifvpg","pricing_plan_id":"cebpf4jnsgd1na2vs0mg"},{"bike_id":"44557b00-7288-4daa-a534-4d6b378dc9dd","system_id":"levelo_inurba_marseille","lat":43.31189,"lon":5.38753,"is_reserved":false,"is_disabled":true,"rental_uris":{"android":"levelo://app?vid=44557b00-7288-4daa-a534-4d6b378dc9dd","ios":"levelo://app?vid=44557b00-7288-4daa-a534-4d6b378dc9dd"},"vehicle_type_id":"4","last_reported":1748614235,"current_range_meters":800,"station_id":"ce4bgv12rcd13ifvqcp0","pricing_plan_id":"cebpf4jnsgd1na2vs0mg"},{"bike_id":"4de3348d-1d40-411f-b09b-e9040c59edd5","system_id":"levelo_inurba_marseille","lat":43.290771,"lon":5.371545,"is_reserved":false,"is_disabled":true,"rental_uris":{"android":"levelo://app?vid=4de3348d-1d40-411f-b09b-e9040c59edd5","ios":"levelo://app?vid=4de3348d-1d40-411f-b09b-e9040c59edd5"},"vehicle_type_id":"4","last_reported":1748614235,"current_range_meters":800,"station_id":"ce4bh5p2rcd13ifvqe4g","pricing_plan_id":"cebpf4jnsgd1na2vs0mg"},{"bike_id":"4d38e9c4-bfd2-4a43-b41c-972a847b15d5","system_id":"levelo_inurba_marseille","lat":43.26561,"lon":5.37293,"is_reserved":false,"is_disabled":true,"rental_uris":{"android":"levelo://app?vid=4d38e9c4-bfd2-4a43-b41c-972a847b15d5","ios":"levelo://app?vid=4d38e9c4-bfd2-4a43-b41c-972a847b15d5"},"vehicle_type_id":"4","last_reported":1748614235,"current_range_meters":800,"station_id":"ce4bhg12rcd13ifvqf70","pricing_plan_id":"cebpf4jnsgd1na2vs0mg"},{"bike_id":"f95007fb-3e5b-41e7-93f9-8fca69e0d136","system_id":"levelo_inurba_marseille","lat":43.25569,"lon":5.38255,"is_reserved":false,"is_disabled":true,"rental_uris":{"android":"levelo://app?vid=f95007fb-3e5b-41e7-93f9-8fca69e0d136","ios":"levelo://app?vid=f95007fb-3e5b-41e7-93f9-8fca69e0d136"},"vehicle_type_id":"4","last_reported":1748614235,"current_range_meters":800,"station_id":"ce4bhih2rcd13ifvqfs0","pricing_plan_id":"cebpf4jnsgd1na2vs0mg"},{"bike_id":"2104fef3-b801-49f0-bc7e-c95fb5468f5f","system_id":"levelo_inurba_marseille","lat":43.2319,"lon":5.35584,"is_reserved":false,"is_disabled":true,"rental_uris":{"android":"levelo://app?vid=2104fef3-b801-49f0-bc7e-c95fb5468f5f","ios":"levelo://app?vid=2104fef3-b801-49f0-bc7e-c95fb5468f5f"},"vehicle_type_id":"4","last_reported":1748614235,"current_range_meters":800,"station_id":"ce4bhu92rcd13ifvqi70","pricing_plan_id":"cebpf4jnsgd1na2vs0mg"},{"bike_id":"26b5c2b4-94cd-4dd8-bba5-ec447d478a00","system_id":"levelo_inurba_marseille","lat":43.24168,"lon":5.36409,"is_reserved":false,"is_disabled":true,"rental_uris":{"android":"levelo://app?vid=26b5c2b4-94cd-4dd8-bba5-ec447d478a00","ios":"levelo://app?vid=26b5c2b4-94cd-4dd8-bba5-ec447d478a00"},"vehicle_type_id":"4","last_reported":1748614235,"current_range_meters":800,"station_id":"cpo36qri1sfpv3e86is0","pricing_plan_id":"cebpf4jnsgd1na2vs0mg"},{"bike_id":"a082c4c3-f994-4db6-a156-3b51ec84c64e","system_id":"levelo_inurba_marseille","lat":43.303722,"lon":5.388893,"is_reserved":false,"is_disabled":true,"rental_uris":{"android":"levelo://app?vid=a082c4c3-f994-4db6-a156-3b51ec84c64e","ios":"levelo://app?vid=a082c4c3-f994-4db6-a156-3b51ec84c64e"},"vehicle_type_id":"4","last_reported":1748614235,"current_range_meters":1200,"station_id":"","pricing_plan_id":"cebpf4jnsgd1na2vs0mg"},{"bike_id":"ee811be6-56da-4b7b-b1b5-2f7e8687681c","system_id":"levelo_inurba_marseille","lat":43.31166,"lon":5.38723,"is_reserved":false,"is_disabled":true,"rental_uris":{"android":"levelo://app?vid=ee811be6-56da-4b7b-b1b5-2f7e8687681c","ios":"levelo://app?vid=ee811be6-56da-4b7b-b1b5-2f7e8687681c"},"vehicle_type_id":"4","last_reported":1748614235,"current_range_meters":1200,"station_id":"ce4bgv12rcd13ifvqcp0","pricing_plan_id":"cebpf4jnsgd1na2vs0mg"},{"bike_id":"13b0af23-cd14-4443-951f-8d68e6675bd1","system_id":"levelo_inurba_marseille","lat":43.27907,"lon":5.39589,"is_reserved":false,"is_disabled":true,"rental_uris":{"android":"levelo://app?vid=13b0af23-cd14-4443-951f-8d68e6675bd1","ios":"levelo://app?vid=13b0af23-cd14-4443-951f-8d68e6675bd1"},"vehicle_type_id":"4","last_reported":1748614235,"current_range_meters":1200,"station_id":"ce4bhf92rcd13ifvqf40","pricing_plan_id":"cebpf4jnsgd1na2vs0mg"},{"bike_id":"b1277fb2-77ff-4436-9c9e-525e26c80bc7","system_id":"levelo_inurba_marseille","lat":43.24166,"lon":5.36402,"is_reserved":false,"is_disabled":true,"rental_uris":{"android":"levelo://app?vid=b1277fb2-77ff-4436-9c9e-525e26c80bc7","ios":"levelo://app?vid=b1277fb2-77ff-4436-9c9e-525e26c80bc7"},"vehicle_type_id":"4","last_reported":1748614235,"current_range_meters":1200,"station_id":"cpo36qri1sfpv3e86is0","pricing_plan_id":"cebpf4jnsgd1na2vs0mg"},{"bike_id":"e150ba52-4294-4c56-a114-81b72738bd97","system_id":"levelo_inurba_marseille","lat":43.229339,"lon":5.353764,"is_reserved":false,"is_disabled":true,"rental_uris":{"android":"levelo://app?vid=e150ba52-4294-4c56-a114-81b72738bd97","ios":"levelo://app?vid=e150ba52-4294-4c56-a114-81b72738bd97"},"vehicle_type_id":"4","last_reported":1748614235,"current_range_meters":1600,"station_id":"","pricing_plan_id":"cebpf4jnsgd1na2vs0mg"},{"bike_id":"c1117fd7-65f6-4efd-8a4c-c93f54155199","system_id":"levelo_inurba_marseille","lat":43.25513,"lon":5.37639,"is_reserved":false,"is_disabled":true,"rental_uris":{"android":"levelo://app?vid=c1117fd7-65f6-4efd-8a4c-c93f54155199","ios":"levelo://app?vid=c1117fd7-65f6-4efd-8a4c-c93f54155199"},"vehicle_type_id":"4","last_reported":1748614235,"current_range_meters":1600,"station_id":"ce4bhh12rcd13ifvqff0","pricing_plan_id":"cebpf4jnsgd1na2vs0mg"},{"bike_id":"028b93d7-85a5-4119-8f00-6efb1c34269a","system_id":"levelo_inurba_marseille","lat":43.27934,"lon":5.41057,"is_reserved":false,"is_disabled":true,"rental_uris":{"android":"levelo://app?vid=028b93d7-85a5-4119-8f00-6efb1c34269a","ios":"levelo://app?vid=028b93d7-85a5-4119-8f00-6efb1c34269a"},"vehicle_type_id":"4","last_reported":1748614235,"current_range_meters":1600,"station_id":"ce4bhnp2rcd13ifvqh0g","pricing_plan_id":"cebpf4jnsgd1na2vs0mg"},{"bike_id":"24204c04-5d8c-4ac1-bc38-3e364dee5b7a","system_id":"levelo_inurba_marseille","lat":43.30246,"lon":5.41311,"is_reserved":false,"is_disabled":true,"rental_uris":{"android":"levelo://app?vid=24204c04-5d8c-4ac1-bc38-3e364dee5b7a","ios":"levelo://app?vid=24204c04-5d8c-4ac1-bc38-3e364dee5b7a"},"vehicle_type_id":"4","last_reported":1748614235,"current_range_meters":2000,"station_id":"","pricing_plan_id":"cebpf4jnsgd1na2vs0mg"},{"bike_id":"77e04ab8-b44f-40dc-908e-e5838eb58075","system_id":"levelo_inurba_marseille","lat":43.23549,"lon":5.36059,"is_reserved":false,"is_disabled":true,"rental_uris":{"android":"levelo://app?vid=77e04ab8-b44f-40dc-908e-e5838eb58075","ios":"levelo://app?vid=77e04ab8-b44f-40dc-908e-e5838eb58075"},"vehicle_type_id":"4","last_reported":1748614235,"current_range_meters":2000,"station_id":"","pricing_plan_id":"cebpf4jnsgd1na2vs0mg"},{"bike_id":"53cdcfc6-3108-48e7-bed3-4a61d6b83a47","system_id":"levelo_inurba_marseille","lat":43.26558,"lon":5.37306,"is_reserved":false,"is_disabled":true,"rental_uris":{"android":"levelo://app?vid=53cdcfc6-3108-48e7-bed3-4a61d6b83a47","ios":"levelo://app?vid=53cdcfc6-3108-48e7-bed3-4a61d6b83a47"},"vehicle_type_id":"4","last_reported":1748614235,"current_range_meters":2000,"station_id":"ce4bhg12rcd13ifvqf70","pricing_plan_id":"cebpf4jnsgd1na2vs0mg"},{"bike_id":"ece2e841-6dc8-4db9-a828-6878246ae068","system_id":"levelo_inurba_marseille","lat":43.24387,"lon":5.37052,"is_reserved":false,"is_disabled":true,"rental_uris":{"android":"levelo://app?vid=ece2e841-6dc8-4db9-a828-6878246ae068","ios":"levelo://app?vid=ece2e841-6dc8-4db9-a828-6878246ae068"},"vehicle_type_id":"4","last_reported":1748614235,"current_range_meters":2000,"station_id":"ce4bhhh2rcd13ifvqfk0","pricing_plan_id":"cebpf4jnsgd1na2vs0mg"},{"bike_id":"832765b1-8eef-4ffb-b398-7a3dc1187e49","system_id":"levelo_inurba_marseille","lat":43.32336,"lon":5.40619,"is_reserved":false,"is_disabled":true,"rental_uris":{"android":"levelo://app?vid=832765b1-8eef-4ffb-b398-7a3dc1187e49","ios":"levelo://app?vid=832765b1-8eef-4ffb-b398-7a3dc1187e49"},"vehicle_type_id":"4","last_reported":1748614235,"current_range_meters":2000,"station_id":"ce4bhq92rcd13ifvqhjg","pricing_plan_id":"cebpf4jnsgd1na2vs0mg"},{"bike_id":"0b4a470a-0e16-40da-a3ae-eede967464d7","system_id":"levelo_inurba_marseille","lat":43.2961,"lon":5.37717,"is_reserved":false,"is_disabled":false,"rental_uris":{"android":"levelo://app?vid=0b4a470a-0e16-40da-a3ae-eede967464d7","ios":"levelo://app?vid=0b4a470a-0e16-40da-a3ae-eede967464d7"},"vehicle_type_id":"4","last_reported":1748614235,"current_range_meters":2800,"station_id":"ce4bgi92rcd13ifvqb90","pricing_plan_id":"cebpf4jnsgd1na2vs0mg"},{"bike_id":"2ba0002e-0db6-43c8-bec0-a746e949ed44","system_id":"levelo_inurba_marseille","lat":43.29964,"lon":5.38494,"is_reserved":false,"is_disabled":false,"rental_uris":{"android":"levelo://app?vid=2ba0002e-0db6-43c8-bec0-a746e949ed44","ios":"levelo://app?vid=2ba0002e-0db6-43c8-bec0-a746e949ed44"},"vehicle_type_id":"4","last_reported":1748614235,"current_range_meters":2800,"station_id":"ce4bgj92rcd13ifvqbd0","pricing_plan_id":"cebpf4jnsgd1na2vs0mg"},{"bike_id":"2f650bb1-6027-4191-83d2-16315820a0a7","system_id":"levelo_inurba_marseille","lat":43.29982,"lon":5.37357,"is_reserved":false,"is_disabled":false,"rental_uris":{"android":"levelo://app?vid=2f650bb1-6027-4191-83d2-16315820a0a7","ios":"levelo://app?vid=2f650bb1-6027-4191-83d2-16315820a0a7"},"vehicle_type_id":"4","last_reported":1748614235,"current_range_meters":3200,"station_id":"","pricing_plan_id":"cebpf4jnsgd1na2vs0mg"},{"bike_id":"b6d7201f-b0c8-4bf9-a5a3-0209897c022d","system_id":"levelo_inurba_marseille","lat":43.24661,"lon":5.38176,"is_reserved":false,"is_disabled":false,"rental_uris":{"android":"levelo://app?vid=b6d7201f-b0c8-4bf9-a5a3-0209897c022d","ios":"levelo://app?vid=b6d7201f-b0c8-4bf9-a5a3-0209897c022d"},"vehicle_type_id":"4","last_reported":1748614235,"current_range_meters":3200,"station_id":"ce4bhih2rcd13ifvqfr0","pricing_plan_id":"cebpf4jnsgd1na2vs0mg"},{"bike_id":"73c25ebd-6e32-4265-9d65-d80a6144d650","system_id":"levelo_inurba_marseille","lat":43.25584,"lon":5.38259,"is_reserved":false,"is_disabled":false,"rental_uris":{"android":"levelo://app?vid=73c25ebd-6e32-4265-9d65-d80a6144d650","ios":"levelo://app?vid=73c25ebd-6e32-4265-9d65-d80a6144d650"},"vehicle_type_id":"4","last_reported":1748614235,"current_range_meters":3200,"station_id":"ce4bhih2rcd13ifvqfs0","pricing_plan_id":"cebpf4jnsgd1na2vs0mg"},{"bike_id":"6c1d7733-ace6-44b2-b328-1bc0f2d1a038","system_id":"levelo_inurba_marseille","lat":43.22935,"lon":5.35375,"is_reserved":false,"is_disabled":false,"rental_uris":{"android":"levelo://app?vid=6c1d7733-ace6-44b2-b328-1bc0f2d1a038","ios":"levelo://app?vid=6c1d7733-ace6-44b2-b328-1bc0f2d1a038"},"vehicle_type_id":"4","last_reported":1748614235,"current_range_meters":3200,"station_id":"cpo3532slgdg3j2ikp40","pricing_plan_id":"cebpf4jnsgd1na2vs0mg"},{"bike_id":"c254bbe3-2dba-4a9f-9336-418969b865d2","system_id":"levelo_inurba_marseille","lat":43.29053,"lon":5.35932,"is_reserved":false,"is_disabled":false,"rental_uris":{"android":"levelo://app?vid=c254bbe3-2dba-4a9f-9336-418969b865d2","ios":"levelo://app?vid=c254bbe3-2dba-4a9f-9336-418969b865d2"},"vehicle_type_id":"4","last_reported":1748614235,"current_range_meters":3600,"station_id":"ce4bha92rcd13ifvqeg0","pricing_plan_id":"cebpf4jnsgd1na2vs0mg"},{"bike_id":"3c8a5c1e-a25f-4975-8d3e-585e822506f1","system_id":"levelo_inurba_marseille","lat":43.24814,"lon":5.37445,"is_reserved":false,"is_disabled":false,"rental_uris":{"android":"levelo://app?vid=3c8a5c1e-a25f-4975-8d3e-585e822506f1","ios":"levelo://app?vid=3c8a5c1e-a25f-4975-8d3e-585e822506f1"},"vehicle_type_id":"4","last_reported":1748614235,"current_range_meters":3600,"station_id":"ce4bhgh2rcd13ifvqfb0","pricing_plan_id":"cebpf4jnsgd1na2vs0mg"},{"bike_id":"45a75893-ef59-480d-aa3b-33e3d38ca68f","system_id":"levelo_inurba_marseille","lat":43.25498,"lon":5.37665,"is_reserved":false,"is_disabled":false,"rental_uris":{"android":"levelo://app?vid=45a75893-ef59-480d-aa3b-33e3d38ca68f","ios":"levelo://app?vid=45a75893-ef59-480d-aa3b-33e3d38ca68f"},"vehicle_type_id":"4","last_reported":1748614235,"current_range_meters":3600,"station_id":"ce4bhh12rcd13ifvqff0","pricing_plan_id":"cebpf4jnsgd1na2vs0mg"},{"bike_id":"afaafb81-c1da-4abd-b048-f0280e38264f","system_id":"levelo_inurba_marseille","lat":43.23146,"lon":5.43724,"is_reserved":false,"is_disabled":false,"rental_uris":{"android":"levelo://app?vid=afaafb81-c1da-4abd-b048-f0280e38264f","ios":"levelo://app?vid=afaafb81-c1da-4abd-b048-f0280e38264f"},"vehicle_type_id":"4","last_reported":1748614235,"current_range_meters":3600,"station_id":"ce4bhmp2rcd13ifvqgog","pricing_plan_id":"cebpf4jnsgd1na2vs0mg"},{"bike_id":"3f0441b1-6cb6-41fd-b679-f454d34b2118","system_id":"levelo_inurba_marseille","lat":43.21187,"lon":5.35029,"is_reserved":false,"is_disabled":false,"rental_uris":{"android":"levelo://app?vid=3f0441b1-6cb6-41fd-b679-f454d34b2118","ios":"levelo://app?vid=3f0441b1-6cb6-41fd-b679-f454d34b2118"},"vehicle_type_id":"4","last_reported":1748614235,"current_range_meters":3600,"station_id":"st_cvj6sg6p6f1abm77japg","pricing_plan_id":"cebpf4jnsgd1na2vs0mg"},{"bike_id":"50006c34-e9cb-45ab-af3f-b8fe5e64ec77","system_id":"levelo_inurba_marseille","lat":43.300252,"lon":5.38601,"is_reserved":false,"is_disabled":false,"rental_uris":{"android":"levelo://app?vid=50006c34-e9cb-45ab-af3f-b8fe5e64ec77","ios":"levelo://app?vid=50006c34-e9cb-45ab-af3f-b8fe5e64ec77"},"vehicle_type_id":"4","last_reported":1748614235,"current_range_meters":4000,"station_id":"ce4bgj92rcd13ifvqbd0","pricing_plan_id":"cebpf4jnsgd1na2vs0mg"},{"bike_id":"6d48df37-451c-49e8-89e8-2962f640cc00","system_id":"levelo_inurba_marseille","lat":43.27969,"lon":5.38738,"is_reserved":false,"is_disabled":false,"rental_uris":{"android":"levelo://app?vid=6d48df37-451c-49e8-89e8-2962f640cc00","ios":"levelo://app?vid=6d48df37-451c-49e8-89e8-2962f640cc00"},"vehicle_type_id":"4","last_reported":1748614235,"current_range_meters":4000,"station_id":"ce4bhg12rcd13ifvqf80","pricing_plan_id":"cebpf4jnsgd1na2vs0mg"},{"bike_id":"eb3ac2d8-1d63-40bc-80ec-4184cb3dbff7","system_id":"levelo_inurba_marseille","lat":43.23195,"lon":5.35557,"is_reserved":false,"is_disabled":false,"rental_uris":{"android":"levelo://app?vid=eb3ac2d8-1d63-40bc-80ec-4184cb3dbff7","ios":"levelo://app?vid=eb3ac2d8-1d63-40bc-80ec-4184cb3dbff7"},"vehicle_type_id":"4","last_reported":1748614235,"current_range_meters":4000,"station_id":"ce4bhu92rcd13ifvqi70","pricing_plan_id":"cebpf4jnsgd1na2vs0mg"},{"bike_id":"4a94e360-a777-4b7f-9ae7-87425906cf43","system_id":"levelo_inurba_marseille","lat":43.29306,"lon":5.37469,"is_reserved":false,"is_disabled":false,"rental_uris":{"android":"levelo://app?vid=4a94e360-a777-4b7f-9ae7-87425906cf43","ios":"levelo://app?vid=4a94e360-a777-4b7f-9ae7-87425906cf43"},"vehicle_type_id":"4","last_reported":1748614235,"current_range_meters":4400,"station_id":"ce4bgi12rcd13ifvqb70","pricing_plan_id":"cebpf4jnsgd1na2vs0mg"},{"bike_id":"183ca748-cc81-4ba8-9e3c-3d9c6d9417e2","system_id":"levelo_inurba_marseille","lat":43.28611,"lon":5.35105,"is_reserved":false,"is_disabled":false,"rental_uris":{"android":"levelo://app?vid=183ca748-cc81-4ba8-9e3c-3d9c6d9417e2","ios":"levelo://app?vid=183ca748-cc81-4ba8-9e3c-3d9c6d9417e2"},"vehicle_type_id":"4","last_reported":1748614235,"current_range_meters":4400,"station_id":"ce4bhch2rcd13ifvqeug","pricing_plan_id":"cebpf4jnsgd1na2vs0mg"},{"bike_id":"00350137-3402-4c7e-8388-2b4482fec484","system_id":"levelo_inurba_marseille","lat":43.27209,"lon":5.39184,"is_reserved":false,"is_disabled":false,"rental_uris":{"android":"levelo://app?vid=00350137-3402-4c7e-8388-2b4482fec484","ios":"levelo://app?vid=00350137-3402-4c7e-8388-2b4482fec484"},"vehicle_type_id":"4","last_reported":1748614235,"current_range_meters":4400,"station_id":"ce4bhhp2rcd13ifvqfm0","pricing_plan_id":"cebpf4jnsgd1na2vs0mg"},{"bike_id":"19834792-54a0-4d94-b291-150b8fb45e6c","system_id":"levelo_inurba_marseille","lat":43.23958,"lon":5.36627,"is_reserved":false,"is_disabled":false,"rental_uris":{"android":"levelo://app?vid=19834792-54a0-4d94-b291-150b8fb45e6c","ios":"levelo://app?vid=19834792-54a0-4d94-b291-150b8fb45e6c"},"vehicle_type_id":"4","last_reported":1748614235,"current_range_meters":4400,"station_id":"ce4bhi12rcd13ifvqfp0","pricing_plan_id":"cebpf4jnsgd1na2vs0mg"},{"bike_id":"df75dfa5-4789-4c41-adc0-5638f8028d33","system_id":"levelo_inurba_marseille","lat":43.23961,"lon":5.36627,"is_reserved":false,"is_disabled":false,"rental_uris":{"android":"levelo://app?vid=df75dfa5-4789-4c41-adc0-5638f8028d33","ios":"levelo://app?vid=df75dfa5-4789-4c41-adc0-5638f8028d33"},"vehicle_type_id":"4","last_reported":1748614235,"current_range_meters":4400,"station_id":"ce4bhi12rcd13ifvqfp0","pricing_plan_id":"cebpf4jnsgd1na2vs0mg"},{"bike_id":"b7011a74-3659-47d4-88d1-d4c40873856a","system_id":"levelo_inurba_marseille","lat":43.307999,"lon":5.43528,"is_reserved":false,"is_disabled":false,"rental_uris":{"android":"levelo://app?vid=b7011a74-3659-47d4-88d1-d4c40873856a","ios":"levelo://app?vid=b7011a74-3659-47d4-88d1-d4c40873856a"},"vehicle_type_id":"4","last_reported":1748614235,"current_range_meters":4400,"station_id":"ce4bhph2rcd13ifvqheg","pricing_plan_id":"cebpf4jnsgd1na2vs0mg"},{"bike_id":"97924de5-704b-4335-bfa8-efb0fb5c5565","system_id":"levelo_inurba_marseille","lat":43.24168,"lon":5.36412,"is_reserved":false,"is_disabled":false,"rental_uris":{"android":"levelo://app?vid=97924de5-704b-4335-bfa8-efb0fb5c5565","ios":"levelo://app?vid=97924de5-704b-4335-bfa8-efb0fb5c5565"},"vehicle_type_id":"4","last_reported":1748614235,"current_range_meters":4400,"station_id":"cpo36qri1sfpv3e86is0","pricing_plan_id":"cebpf4jnsgd1na2vs0mg"},{"bike_id":"7c6e48ab-b87e-4e89-9339-a1a2992e6797","system_id":"levelo_inurba_marseille","lat":43.261146,"lon":5.414648,"is_reserved":false,"is_disabled":false,"rental_uris":{"android":"levelo://app?vid=7c6e48ab-b87e-4e89-9339-a1a2992e6797","ios":"levelo://app?vid=7c6e48ab-b87e-4e89-9339-a1a2992e6797"},"vehicle_type_id":"4","last_reported":1748614235,"current_range_meters":4800,"station_id":"","pricing_plan_id":"cebpf4jnsgd1na2vs0mg"},{"bike_id":"93222ebe-437b-49ba-b05e-139fa3159770","system_id":"levelo_inurba_marseille","lat":43.22874,"lon":5.35334,"is_reserved":false,"is_disabled":false,"rental_uris":{"android":"levelo://app?vid=93222ebe-437b-49ba-b05e-139fa3159770","ios":"levelo://app?vid=93222ebe-437b-49ba-b05e-139fa3159770"},"vehicle_type_id":"4","last_reported":1748614235,"current_range_meters":4800,"station_id":"","pricing_plan_id":"cebpf4jnsgd1na2vs0mg"},{"bike_id":"7f723188-e02d-4470-9dd3-5cb6b18e2a3c","system_id":"levelo_inurba_marseille","lat":43.28269,"lon":5.35064,"is_reserved":false,"is_disabled":false,"rental_uris":{"android":"levelo://app?vid=7f723188-e02d-4470-9dd3-5cb6b18e2a3c","ios":"levelo://app?vid=7f723188-e02d-4470-9dd3-5cb6b18e2a3c"},"vehicle_type_id":"4","last_reported":1748614235,"current_range_meters":4800,"station_id":"ce4bhbp2rcd13ifvqerg","pricing_plan_id":"cebpf4jnsgd1na2vs0mg"},{"bike_id":"f960d8ba-ade2-43b1-99a8-5ef59b64688c","system_id":"levelo_inurba_marseille","lat":43.26571,"lon":5.39009,"is_reserved":false,"is_disabled":false,"rental_uris":{"android":"levelo://app?vid=f960d8ba-ade2-43b1-99a8-5ef59b64688c","ios":"levelo://app?vid=f960d8ba-ade2-43b1-99a8-5ef59b64688c"},"vehicle_type_id":"4","last_reported":1748614235,"current_range_meters":4800,"station_id":"ce4bhe12rcd13ifvqf30","pricing_plan_id":"cebpf4jnsgd1na2vs0mg"},{"bike_id":"9c577ffd-c617-42a2-81e0-c523deb63b21","system_id":"levelo_inurba_marseille","lat":43.248076,"lon":5.374534,"is_reserved":false,"is_disabled":false,"rental_uris":{"android":"levelo://app?vid=9c577ffd-c617-42a2-81e0-c523deb63b21","ios":"levelo://app?vid=9c577ffd-c617-42a2-81e0-c523deb63b21"},"vehicle_type_id":"4","last_reported":1748614235,"current_range_meters":4800,"station_id":"ce4bhgh2rcd13ifvqfb0","pricing_plan_id":"cebpf4jnsgd1na2vs0mg"},{"bike_id":"7eddb50a-72f6-4756-b339-aecc8eaadd16","system_id":"levelo_inurba_marseille","lat":43.24805,"lon":5.37453,"is_reserved":false,"is_disabled":false,"rental_uris":{"android":"levelo://app?vid=7eddb50a-72f6-4756-b339-aecc8eaadd16","ios":"levelo://app?vid=7eddb50a-72f6-4756-b339-aecc8eaadd16"},"vehicle_type_id":"4","last_reported":1748614235,"current_range_meters":4800,"station_id":"ce4bhgh2rcd13ifvqfb0","pricing_plan_id":"cebpf4jnsgd1na2vs0mg"},{"bike_id":"6db1ae95-8a89-4cad-9123-35febb8c5f64","system_id":"levelo_inurba_marseille","lat":43.21747,"lon":5.34606,"is_reserved":false,"is_disabled":false,"rental_uris":{"android":"levelo://app?vid=6db1ae95-8a89-4cad-9123-35febb8c5f64","ios":"levelo://app?vid=6db1ae95-8a89-4cad-9123-35febb8c5f64"},"vehicle_type_id":"4","last_reported":1748614235,"current_range_meters":4800,"station_id":"st_cvj6r9ubvosntc0bgbag","pricing_plan_id":"cebpf4jnsgd1na2vs0mg"},{"bike_id":"f643d6ce-9596-419e-b71d-198dba66fb04","system_id":"levelo_inurba_marseille","lat":43.27423,"lon":5.362,"is_reserved":false,"is_disabled":false,"rental_uris":{"android":"levelo://app?vid=f643d6ce-9596-419e-b71d-198dba66fb04","ios":"levelo://app?vid=f643d6ce-9596-419e-b71d-198dba66fb04"},"vehicle_type_id":"4","last_reported":1748614235,"current_range_meters":5600,"station_id":"","pricing_plan_id":"cebpf4jnsgd1na2vs0mg"},{"bike_id":"23ad7f56-3cef-4ec3-82b0-599c4a5529d5","system_id":"levelo_inurba_marseille","lat":43.28573,"lon":5.39509,"is_reserved":false,"is_disabled":false,"rental_uris":{"android":"levelo://app?vid=23ad7f56-3cef-4ec3-82b0-599c4a5529d5","ios":"levelo://app?vid=23ad7f56-3cef-4ec3-82b0-599c4a5529d5"},"vehicle_type_id":"4","last_reported":1748614235,"current_range_meters":5600,"station_id":"ce4bh292rcd13ifvqdg0","pricing_plan_id":"cebpf4jnsgd1na2vs0mg"},{"bike_id":"a294e1fe-11d3-4cb3-9a2f-ce3f4dc4dc29","system_id":"levelo_inurba_marseille","lat":43.26553,"lon":5.37288,"is_reserved":false,"is_disabled":false,"rental_uris":{"android":"levelo://app?vid=a294e1fe-11d3-4cb3-9a2f-ce3f4dc4dc29","ios":"levelo://app?vid=a294e1fe-11d3-4cb3-9a2f-ce3f4dc4dc29"},"vehicle_type_id":"4","last_reported":1748614235,"current_range_meters":5600,"station_id":"ce4bhg12rcd13ifvqf70","pricing_plan_id":"cebpf4jnsgd1na2vs0mg"},{"bike_id":"f2ed85a8-5e4e-477a-90f0-8de9914d5ea9","system_id":"levelo_inurba_marseille","lat":43.272339,"lon":5.390774,"is_reserved":false,"is_disabled":false,"rental_uris":{"android":"levelo://app?vid=f2ed85a8-5e4e-477a-90f0-8de9914d5ea9","ios":"levelo://app?vid=f2ed85a8-5e4e-477a-90f0-8de9914d5ea9"},"vehicle_type_id":"4","last_reported":1748614235,"current_range_meters":5600,"station_id":"ce4bhgp2rcd13ifvqfe0","pricing_plan_id":"cebpf4jnsgd1na2vs0mg"},{"bike_id":"ebcb19a3-3535-49ce-8e6e-d39aacbb7de6","system_id":"levelo_inurba_marseille","lat":43.21742,"lon":5.34584,"is_reserved":false,"is_disabled":false,"rental_uris":{"android":"levelo://app?vid=ebcb19a3-3535-49ce-8e6e-d39aacbb7de6","ios":"levelo://app?vid=ebcb19a3-3535-49ce-8e6e-d39aacbb7de6"},"vehicle_type_id":"4","last_reported":1748614235,"current_range_meters":5600,"station_id":"st_cvj6r9ubvosntc0bgbag","pricing_plan_id":"cebpf4jnsgd1na2vs0mg"},{"bike_id":"e07cc524-3ce0-4125-9993-eff353b566da","system_id":"levelo_inurba_marseille","lat":43.23492,"lon":5.360293,"is_reserved":false,"is_disabled":false,"rental_uris":{"android":"levelo://app?vid=e07cc524-3ce0-4125-9993-eff353b566da","ios":"levelo://app?vid=e07cc524-3ce0-4125-9993-eff353b566da"},"vehicle_type_id":"4","last_reported":1748614235,"current_range_meters":6000,"station_id":"","pricing_plan_id":"cebpf4jnsgd1na2vs0mg"},{"bike_id":"eb6f7b70-b554-4f0b-9071-c468db80e368","system_id":"levelo_inurba_marseille","lat":43.23986,"lon":5.36276,"is_reserved":false,"is_disabled":false,"rental_uris":{"android":"levelo://app?vid=eb6f7b70-b554-4f0b-9071-c468db80e368","ios":"levelo://app?vid=eb6f7b70-b554-4f0b-9071-c468db80e368"},"vehicle_type_id":"4","last_reported":1748614235,"current_range_meters":6000,"station_id":"","pricing_plan_id":"cebpf4jnsgd1na2vs0mg"},{"bike_id":"cb88469c-8067-43f3-83f6-c881895e7713","system_id":"levelo_inurba_marseille","lat":43.239662,"lon":5.366252,"is_reserved":false,"is_disabled":false,"rental_uris":{"android":"levelo://app?vid=cb88469c-8067-43f3-83f6-c881895e7713","ios":"levelo://app?vid=cb88469c-8067-43f3-83f6-c881895e7713"},"vehicle_type_id":"4","last_reported":1748614235,"current_range_meters":6000,"station_id":"ce4bhi12rcd13ifvqfp0","pricing_plan_id":"cebpf4jnsgd1na2vs0mg"},{"bike_id":"e3a48ac8-3f62-4fe5-ae3c-afba376480c2","system_id":"levelo_inurba_marseille","lat":43.24074,"lon":5.37758,"is_reserved":false,"is_disabled":false,"rental_uris":{"android":"levelo://app?vid=e3a48ac8-3f62-4fe5-ae3c-afba376480c2","ios":"levelo://app?vid=e3a48ac8-3f62-4fe5-ae3c-afba376480c2"},"vehicle_type_id":"4","last_reported":1748614235,"current_range_meters":6000,"station_id":"ce4bhnp2rcd13ifvqgvg","pricing_plan_id":"cebpf4jnsgd1na2vs0mg"},{"bike_id":"697d924a-ea53-411b-88e3-ed7542c4178d","system_id":"levelo_inurba_marseille","lat":43.22501,"lon":5.34778,"is_reserved":false,"is_disabled":false,"rental_uris":{"android":"levelo://app?vid=697d924a-ea53-411b-88e3-ed7542c4178d","ios":"levelo://app?vid=697d924a-ea53-411b-88e3-ed7542c4178d"},"vehicle_type_id":"4","last_reported":1748614235,"current_range_meters":6000,"station_id":"st_cvj5dfep6f1abm77gieg","pricing_plan_id":"cebpf4jnsgd1na2vs0mg"},{"bike_id":"f8ceddd8-f543-4c12-9473-84eba22f1583","system_id":"levelo_inurba_marseille","lat":43.30889,"lon":5.39667,"is_reserved":false,"is_disabled":false,"rental_uris":{"android":"levelo://app?vid=f8ceddd8-f543-4c12-9473-84eba22f1583","ios":"levelo://app?vid=f8ceddd8-f543-4c12-9473-84eba22f1583"},"vehicle_type_id":"4","last_reported":1748614235,"current_range_meters":6400,"station_id":"ce4bh012rcd13ifvqcv0","pricing_plan_id":"cebpf4jnsgd1na2vs0mg"},{"bike_id":"34534097-66d3-4c43-bb79-1b5860a8b342","system_id":"levelo_inurba_marseille","lat":43.28272,"lon":5.35071,"is_reserved":false,"is_disabled":false,"rental_uris":{"android":"levelo://app?vid=34534097-66d3-4c43-bb79-1b5860a8b342","ios":"levelo://app?vid=34534097-66d3-4c43-bb79-1b5860a8b342"},"vehicle_type_id":"4","last_reported":1748614235,"current_range_meters":6400,"station_id":"ce4bhbp2rcd13ifvqerg","pricing_plan_id":"cebpf4jnsgd1na2vs0mg"},{"bike_id":"3a4ed1b9-d9d0-4e9b-b167-82eccb3a2ead","system_id":"levelo_inurba_marseille","lat":43.262073,"lon":5.374439,"is_reserved":false,"is_disabled":false,"rental_uris":{"android":"levelo://app?vid=3a4ed1b9-d9d0-4e9b-b167-82eccb3a2ead","ios":"levelo://app?vid=3a4ed1b9-d9d0-4e9b-b167-82eccb3a2ead"},"vehicle_type_id":"4","last_reported":1748614235,"current_range_meters":6400,"station_id":"ce4bhgp2rcd13ifvqfc0","pricing_plan_id":"cebpf4jnsgd1na2vs0mg"},{"bike_id":"d5ff8c51-7b82-4388-badf-c0561526b4df","system_id":"levelo_inurba_marseille","lat":43.26207,"lon":5.37444,"is_reserved":false,"is_disabled":false,"rental_uris":{"android":"levelo://app?vid=d5ff8c51-7b82-4388-badf-c0561526b4df","ios":"levelo://app?vid=d5ff8c51-7b82-4388-badf-c0561526b4df"},"vehicle_type_id":"4","last_reported":1748614235,"current_range_meters":6400,"station_id":"ce4bhgp2rcd13ifvqfc0","pricing_plan_id":"cebpf4jnsgd1na2vs0mg"},{"bike_id":"299bc464-0062-40b9-b8fd-94e53cb49a69","system_id":"levelo_inurba_marseille","lat":43.29686,"lon":5.36267,"is_reserved":false,"is_disabled":false,"rental_uris":{"android":"levelo://app?vid=299bc464-0062-40b9-b8fd-94e53cb49a69","ios":"levelo://app?vid=299bc464-0062-40b9-b8fd-94e53cb49a69"},"vehicle_type_id":"4","last_reported":1748614235,"current_range_meters":6800,"station_id":"","pricing_plan_id":"cebpf4jnsgd1na2vs0mg"},{"bike_id":"756d6195-ff7d-45a3-bff5-150df4065d34","system_id":"levelo_inurba_marseille","lat":43.273783,"lon":5.362604,"is_reserved":false,"is_disabled":false,"rental_uris":{"android":"levelo://app?vid=756d6195-ff7d-45a3-bff5-150df4065d34","ios":"levelo://app?vid=756d6195-ff7d-45a3-bff5-150df4065d34"},"vehicle_type_id":"4","last_reported":1748614235,"current_range_meters":6800,"station_id":"ce4bhbh2rcd13ifvqeo0","pricing_plan_id":"cebpf4jnsgd1na2vs0mg"},{"bike_id":"5116f85d-3376-4256-aeec-0bb71aff7725","system_id":"levelo_inurba_marseille","lat":43.28268,"lon":5.3506,"is_reserved":false,"is_disabled":false,"rental_uris":{"android":"levelo://app?vid=5116f85d-3376-4256-aeec-0bb71aff7725","ios":"levelo://app?vid=5116f85d-3376-4256-aeec-0bb71aff7725"},"vehicle_type_id":"4","last_reported":1748614235,"current_range_meters":6800,"station_id":"ce4bhbp2rcd13ifvqerg","pricing_plan_id":"cebpf4jnsgd1na2vs0mg"},{"bike_id":"fda844f5-d600-4be6-9201-9d299e18c631","system_id":"levelo_inurba_marseille","lat":43.25114,"lon":5.40331,"is_reserved":false,"is_disabled":false,"rental_uris":{"android":"levelo://app?vid=fda844f5-d600-4be6-9201-9d299e18c631","ios":"levelo://app?vid=fda844f5-d600-4be6-9201-9d299e18c631"},"vehicle_type_id":"4","last_reported":1748614235,"current_range_meters":6800,"station_id":"ce4bhlh2rcd13ifvqgig","pricing_plan_id":"cebpf4jnsgd1na2vs0mg"},{"bike_id":"42dca157-bdb0-4361-8022-7979135f94aa","system_id":"levelo_inurba_marseille","lat":43.285656,"lon":5.365511,"is_reserved":false,"is_disabled":false,"rental_uris":{"android":"levelo://app?vid=42dca157-bdb0-4361-8022-7979135f94aa","ios":"levelo://app?vid=42dca157-bdb0-4361-8022-7979135f94aa"},"vehicle_type_id":"4","last_reported":1748614235,"current_range_meters":7200,"station_id":"","pricing_plan_id":"cebpf4jnsgd1na2vs0mg"},{"bike_id":"a4d08ee9-f263-4f1b-a383-6abd10721bee","system_id":"levelo_inurba_marseille","lat":43.28409,"lon":5.34998,"is_reserved":false,"is_disabled":false,"rental_uris":{"android":"levelo://app?vid=a4d08ee9-f263-4f1b-a383-6abd10721bee","ios":"levelo://app?vid=a4d08ee9-f263-4f1b-a383-6abd10721bee"},"vehicle_type_id":"4","last_reported":1748614235,"current_range_meters":7200,"station_id":"ce4bhbh2rcd13ifvqepg","pricing_plan_id":"cebpf4jnsgd1na2vs0mg"},{"bike_id":"abfe4519-e2a3-4aea-a6a9-016dba2ff093","system_id":"levelo_inurba_marseille","lat":43.26554,"lon":5.37304,"is_reserved":false,"is_disabled":false,"rental_uris":{"android":"levelo://app?vid=abfe4519-e2a3-4aea-a6a9-016dba2ff093","ios":"levelo://app?vid=abfe4519-e2a3-4aea-a6a9-016dba2ff093"},"vehicle_type_id":"4","last_reported":1748614235,"current_range_meters":7200,"station_id":"ce4bhg12rcd13ifvqf70","pricing_plan_id":"cebpf4jnsgd1na2vs0mg"},{"bike_id":"1462bc66-e18e-4258-a649-68d7ead28b4b","system_id":"levelo_inurba_marseille","lat":43.27559,"lon":5.38414,"is_reserved":false,"is_disabled":false,"rental_uris":{"android":"levelo://app?vid=1462bc66-e18e-4258-a649-68d7ead28b4b","ios":"levelo://app?vid=1462bc66-e18e-4258-a649-68d7ead28b4b"},"vehicle_type_id":"4","last_reported":1748614235,"current_range_meters":7200,"station_id":"ce4bhh92rcd13ifvqfi0","pricing_plan_id":"cebpf4jnsgd1na2vs0mg"},{"bike_id":"6fdc4299-6802-439d-a809-304047183056","system_id":"levelo_inurba_marseille","lat":43.21756,"lon":5.34592,"is_reserved":false,"is_disabled":false,"rental_uris":{"android":"levelo://app?vid=6fdc4299-6802-439d-a809-304047183056","ios":"levelo://app?vid=6fdc4299-6802-439d-a809-304047183056"},"vehicle_type_id":"4","last_reported":1748614235,"current_range_meters":7200,"station_id":"st_cvj6r9ubvosntc0bgbag","pricing_plan_id":"cebpf4jnsgd1na2vs0mg"},{"bike_id":"3a9dde02-c5af-42c0-a956-b9063ad69494","system_id":"levelo_inurba_marseille","lat":43.24398,"lon":5.37069,"is_reserved":false,"is_disabled":false,"rental_uris":{"android":"levelo://app?vid=3a9dde02-c5af-42c0-a956-b9063ad69494","ios":"levelo://app?vid=3a9dde02-c5af-42c0-a956-b9063ad69494"},"vehicle_type_id":"4","last_reported":1748614235,"current_range_meters":8000,"station_id":"ce4bhhh2rcd13ifvqfk0","pricing_plan_id":"cebpf4jnsgd1na2vs0mg"},{"bike_id":"a0b44b20-89b3-41fb-bb26-259cf1852531","system_id":"levelo_inurba_marseille","lat":43.25725,"lon":5.41105,"is_reserved":false,"is_disabled":false,"rental_uris":{"android":"levelo://app?vid=a0b44b20-89b3-41fb-bb26-259cf1852531","ios":"levelo://app?vid=a0b44b20-89b3-41fb-bb26-259cf1852531"},"vehicle_type_id":"4","last_reported":1748614235,"current_range_meters":8000,"station_id":"ce4bhkp2rcd13ifvqgd0","pricing_plan_id":"cebpf4jnsgd1na2vs0mg"},{"bike_id":"0f693537-f29f-46ad-b810-7782b1dee7cf","system_id":"levelo_inurba_marseille","lat":43.24069,"lon":5.37764,"is_reserved":false,"is_disabled":false,"rental_uris":{"android":"levelo://app?vid=0f693537-f29f-46ad-b810-7782b1dee7cf","ios":"levelo://app?vid=0f693537-f29f-46ad-b810-7782b1dee7cf"},"vehicle_type_id":"4","last_reported":1748614235,"current_range_meters":8000,"station_id":"ce4bhnp2rcd13ifvqgvg","pricing_plan_id":"cebpf4jnsgd1na2vs0mg"},{"bike_id":"80636d8b-805f-4980-87ce-733bce60c199","system_id":"levelo_inurba_marseille","lat":43.23199,"lon":5.35559,"is_reserved":false,"is_disabled":false,"rental_uris":{"android":"levelo://app?vid=80636d8b-805f-4980-87ce-733bce60c199","ios":"levelo://app?vid=80636d8b-805f-4980-87ce-733bce60c199"},"vehicle_type_id":"4","last_reported":1748614235,"current_range_meters":8000,"station_id":"ce4bhu92rcd13ifvqi70","pricing_plan_id":"cebpf4jnsgd1na2vs0mg"},{"bike_id":"b3111b4f-85cc-4e24-958b-a02b1c9e9cfc","system_id":"levelo_inurba_marseille","lat":43.23195,"lon":5.35569,"is_reserved":false,"is_disabled":false,"rental_uris":{"android":"levelo://app?vid=b3111b4f-85cc-4e24-958b-a02b1c9e9cfc","ios":"levelo://app?vid=b3111b4f-85cc-4e24-958b-a02b1c9e9cfc"},"vehicle_type_id":"4","last_reported":1748614235,"current_range_meters":8000,"station_id":"ce4bhu92rcd13ifvqi70","pricing_plan_id":"cebpf4jnsgd1na2vs0mg"},{"bike_id":"00f77637-c960-45d0-b516-a2f6a0285858","system_id":"levelo_inurba_marseille","lat":43.29732,"lon":5.38557,"is_reserved":false,"is_disabled":false,"rental_uris":{"android":"levelo://app?vid=00f77637-c960-45d0-b516-a2f6a0285858","ios":"levelo://app?vid=00f77637-c960-45d0-b516-a2f6a0285858"},"vehicle_type_id":"4","last_reported":1748614235,"current_range_meters":8400,"station_id":"","pricing_plan_id":"cebpf4jnsgd1na2vs0mg"},{"bike_id":"fe4389d7-2508-4600-a67c-4a0ce44c49f1","system_id":"levelo_inurba_marseille","lat":43.28862,"lon":5.35861,"is_reserved":false,"is_disabled":false,"rental_uris":{"android":"levelo://app?vid=fe4389d7-2508-4600-a67c-4a0ce44c49f1","ios":"levelo://app?vid=fe4389d7-2508-4600-a67c-4a0ce44c49f1"},"vehicle_type_id":"4","last_reported":1748614235,"current_range_meters":8400,"station_id":"ce4bhb12rcd13ifvqem0","pricing_plan_id":"cebpf4jnsgd1na2vs0mg"},{"bike_id":"450ab149-9e09-4034-ba27-50e7136191a5","system_id":"levelo_inurba_marseille","lat":43.27381,"lon":5.36256,"is_reserved":false,"is_disabled":false,"rental_uris":{"android":"levelo://app?vid=450ab149-9e09-4034-ba27-50e7136191a5","ios":"levelo://app?vid=450ab149-9e09-4034-ba27-50e7136191a5"},"vehicle_type_id":"4","last_reported":1748614235,"current_range_meters":8400,"station_id":"ce4bhbh2rcd13ifvqeo0","pricing_plan_id":"cebpf4jnsgd1na2vs0mg"},{"bike_id":"15059740-9eec-4a62-9f3d-9db09662395f","system_id":"levelo_inurba_marseille","lat":43.26566,"lon":5.37287,"is_reserved":false,"is_disabled":false,"rental_uris":{"android":"levelo://app?vid=15059740-9eec-4a62-9f3d-9db09662395f","ios":"levelo://app?vid=15059740-9eec-4a62-9f3d-9db09662395f"},"vehicle_type_id":"4","last_reported":1748614235,"current_range_meters":8400,"station_id":"ce4bhg12rcd13ifvqf70","pricing_plan_id":"cebpf4jnsgd1na2vs0mg"},{"bike_id":"cc1357d6-9e6d-4205-aeaf-50a8aa0a518e","system_id":"levelo_inurba_marseille","lat":43.26214,"lon":5.37453,"is_reserved":false,"is_disabled":false,"rental_uris":{"android":"levelo://app?vid=cc1357d6-9e6d-4205-aeaf-50a8aa0a518e","ios":"levelo://app?vid=cc1357d6-9e6d-4205-aeaf-50a8aa0a518e"},"vehicle_type_id":"4","last_reported":1748614235,"current_range_meters":8400,"station_id":"ce4bhgp2rcd13ifvqfc0","pricing_plan_id":"cebpf4jnsgd1na2vs0mg"},{"bike_id":"8f072c00-e1ac-48ef-9a83-5013c76d36c1","system_id":"levelo_inurba_marseille","lat":43.25534,"lon":5.37633,"is_reserved":false,"is_disabled":false,"rental_uris":{"android":"levelo://app?vid=8f072c00-e1ac-48ef-9a83-5013c76d36c1","ios":"levelo://app?vid=8f072c00-e1ac-48ef-9a83-5013c76d36c1"},"vehicle_type_id":"4","last_reported":1748614235,"current_range_meters":8400,"station_id":"ce4bhh12rcd13ifvqff0","pricing_plan_id":"cebpf4jnsgd1na2vs0mg"},{"bike_id":"819614a9-f229-46c8-8c9c-c87935c406a6","system_id":"levelo_inurba_marseille","lat":43.25087,"lon":5.39521,"is_reserved":false,"is_disabled":false,"rental_uris":{"android":"levelo://app?vid=819614a9-f229-46c8-8c9c-c87935c406a6","ios":"levelo://app?vid=819614a9-f229-46c8-8c9c-c87935c406a6"},"vehicle_type_id":"4","last_reported":1748614235,"current_range_meters":8400,"station_id":"ce4bhm12rcd13ifvqgkg","pricing_plan_id":"cebpf4jnsgd1na2vs0mg"},{"bike_id":"ae3b3dce-af27-4783-b46b-aceacebb4963","system_id":"levelo_inurba_marseille","lat":43.23053,"lon":5.35499,"is_reserved":false,"is_disabled":false,"rental_uris":{"android":"levelo://app?vid=ae3b3dce-af27-4783-b46b-aceacebb4963","ios":"levelo://app?vid=ae3b3dce-af27-4783-b46b-aceacebb4963"},"vehicle_type_id":"4","last_reported":1748614235,"current_range_meters":8400,"station_id":"cpo3342slgdg3j2ifvpg","pricing_plan_id":"cebpf4jnsgd1na2vs0mg"},{"bike_id":"589d2674-f00d-4f0b-ba06-62403023c413","system_id":"levelo_inurba_marseille","lat":43.24162,"lon":5.36406,"is_reserved":false,"is_disabled":false,"rental_uris":{"android":"levelo://app?vid=589d2674-f00d-4f0b-ba06-62403023c413","ios":"levelo://app?vid=589d2674-f00d-4f0b-ba06-62403023c413"},"vehicle_type_id":"4","last_reported":1748614235,"current_range_meters":8400,"station_id":"cpo36qri1sfpv3e86is0","pricing_plan_id":"cebpf4jnsgd1na2vs0mg"},{"bike_id":"f5733814-9732-4748-bcc9-3b2fac8e1564","system_id":"levelo_inurba_marseille","lat":43.31256,"lon":5.37829,"is_reserved":false,"is_disabled":false,"rental_uris":{"android":"levelo://app?vid=f5733814-9732-4748-bcc9-3b2fac8e1564","ios":"levelo://app?vid=f5733814-9732-4748-bcc9-3b2fac8e1564"},"vehicle_type_id":"4","last_reported":1748614235,"current_range_meters":8800,"station_id":"","pricing_plan_id":"cebpf4jnsgd1na2vs0mg"},{"bike_id":"6ae58fa4-ed65-48d4-9c3a-0dc47e3e4714","system_id":"levelo_inurba_marseille","lat":43.29004,"lon":5.35609,"is_reserved":false,"is_disabled":false,"rental_uris":{"android":"levelo://app?vid=6ae58fa4-ed65-48d4-9c3a-0dc47e3e4714","ios":"levelo://app?vid=6ae58fa4-ed65-48d4-9c3a-0dc47e3e4714"},"vehicle_type_id":"4","last_reported":1748614235,"current_range_meters":8800,"station_id":"ce4bhb92rcd13ifvqen0","pricing_plan_id":"cebpf4jnsgd1na2vs0mg"},{"bike_id":"d319a0af-7535-43c8-9f87-2134a0475e70","system_id":"levelo_inurba_marseille","lat":43.26931,"lon":5.38915,"is_reserved":false,"is_disabled":false,"rental_uris":{"android":"levelo://app?vid=d319a0af-7535-43c8-9f87-2134a0475e70","ios":"levelo://app?vid=d319a0af-7535-43c8-9f87-2134a0475e70"},"vehicle_type_id":"4","last_reported":1748614235,"current_range_meters":8800,"station_id":"ce4bhhh2rcd13ifvqfl0","pricing_plan_id":"cebpf4jnsgd1na2vs0mg"},{"bike_id":"a426f99b-d34a-41bf-bbda-59f7dfd6939b","system_id":"levelo_inurba_marseille","lat":43.255796,"lon":5.382262,"is_reserved":false,"is_disabled":false,"rental_uris":{"android":"levelo://app?vid=a426f99b-d34a-41bf-bbda-59f7dfd6939b","ios":"levelo://app?vid=a426f99b-d34a-41bf-bbda-59f7dfd6939b"},"vehicle_type_id":"4","last_reported":1748614235,"current_range_meters":8800,"station_id":"ce501612rcd8frsf0b60","pricing_plan_id":"cebpf4jnsgd1na2vs0mg"},{"bike_id":"c484e154-33d2-4c69-98f9-ca095b2175da","system_id":"levelo_inurba_marseille","lat":43.21195,"lon":5.35067,"is_reserved":false,"is_disabled":false,"rental_uris":{"android":"levelo://app?vid=c484e154-33d2-4c69-98f9-ca095b2175da","ios":"levelo://app?vid=c484e154-33d2-4c69-98f9-ca095b2175da"},"vehicle_type_id":"4","last_reported":1748614235,"current_range_meters":8800,"station_id":"st_cvj6sg6p6f1abm77japg","pricing_plan_id":"cebpf4jnsgd1na2vs0mg"},{"bike_id":"814786a7-be65-4a69-8a96-2d9db6815a00","system_id":"levelo_inurba_marseille","lat":43.273682,"lon":5.362544,"is_reserved":false,"is_disabled":false,"rental_uris":{"android":"levelo://app?vid=814786a7-be65-4a69-8a96-2d9db6815a00","ios":"levelo://app?vid=814786a7-be65-4a69-8a96-2d9db6815a00"},"vehicle_type_id":"4","last_reported":1748614235,"current_range_meters":9200,"station_id":"","pricing_plan_id":"cebpf4jnsgd1na2vs0mg"},{"bike_id":"e9cda520-c6f4-465d-ad7f-8c059b3dc45a","system_id":"levelo_inurba_marseille","lat":43.313967,"lon":5.383993,"is_reserved":false,"is_disabled":false,"rental_uris":{"android":"levelo://app?vid=e9cda520-c6f4-465d-ad7f-8c059b3dc45a","ios":"levelo://app?vid=e9cda520-c6f4-465d-ad7f-8c059b3dc45a"},"vehicle_type_id":"4","last_reported":1748614235,"current_range_meters":9200,"station_id":"","pricing_plan_id":"cebpf4jnsgd1na2vs0mg"},{"bike_id":"13317da2-5f9d-497b-9e0c-31000a27ff01","system_id":"levelo_inurba_marseille","lat":43.30141,"lon":5.3878,"is_reserved":false,"is_disabled":false,"rental_uris":{"android":"levelo://app?vid=13317da2-5f9d-497b-9e0c-31000a27ff01","ios":"levelo://app?vid=13317da2-5f9d-497b-9e0c-31000a27ff01"},"vehicle_type_id":"4","last_reported":1748614235,"current_range_meters":9200,"station_id":"ce4bghh2rcd13ifvqb60","pricing_plan_id":"cebpf4jnsgd1na2vs0mg"},{"bike_id":"cab5d4a0-9c24-44e9-a136-403fa3c688f8","system_id":"levelo_inurba_marseille","lat":43.2894,"lon":5.36641,"is_reserved":false,"is_disabled":false,"rental_uris":{"android":"levelo://app?vid=cab5d4a0-9c24-44e9-a136-403fa3c688f8","ios":"levelo://app?vid=cab5d4a0-9c24-44e9-a136-403fa3c688f8"},"vehicle_type_id":"4","last_reported":1748614235,"current_range_meters":9200,"station_id":"ce4bhap2rcd13ifvqek0","pricing_plan_id":"cebpf4jnsgd1na2vs0mg"},{"bike_id":"32bbb78f-b019-4b4a-a1ee-e7a5f1d1ee03","system_id":"levelo_inurba_marseille","lat":43.27375,"lon":5.36257,"is_reserved":false,"is_disabled":false,"rental_uris":{"android":"levelo://app?vid=32bbb78f-b019-4b4a-a1ee-e7a5f1d1ee03","ios":"levelo://app?vid=32bbb78f-b019-4b4a-a1ee-e7a5f1d1ee03"},"vehicle_type_id":"4","last_reported":1748614235,"current_range_meters":9200,"station_id":"ce4bhbh2rcd13ifvqeo0","pricing_plan_id":"cebpf4jnsgd1na2vs0mg"},{"bike_id":"283fa37b-83b7-45f1-8667-b41ec760f474","system_id":"levelo_inurba_marseille","lat":43.26555,"lon":5.37284,"is_reserved":false,"is_disabled":false,"rental_uris":{"android":"levelo://app?vid=283fa37b-83b7-45f1-8667-b41ec760f474","ios":"levelo://app?vid=283fa37b-83b7-45f1-8667-b41ec760f474"},"vehicle_type_id":"4","last_reported":1748614235,"current_range_meters":9200,"station_id":"ce4bhg12rcd13ifvqf70","pricing_plan_id":"cebpf4jnsgd1na2vs0mg"},{"bike_id":"6948c974-658b-4326-bce1-cc610112daaa","system_id":"levelo_inurba_marseille","lat":43.2604,"lon":5.37543,"is_reserved":false,"is_disabled":false,"rental_uris":{"android":"levelo://app?vid=6948c974-658b-4326-bce1-cc610112daaa","ios":"levelo://app?vid=6948c974-658b-4326-bce1-cc610112daaa"},"vehicle_type_id":"4","last_reported":1748614235,"current_range_meters":9200,"station_id":"ce4bhgh2rcd13ifvqfa0","pricing_plan_id":"cebpf4jnsgd1na2vs0mg"},{"bike_id":"4258291f-daf6-4adf-952f-cf27f3ce12b6","system_id":"levelo_inurba_marseille","lat":43.26205,"lon":5.37467,"is_reserved":false,"is_disabled":false,"rental_uris":{"android":"levelo://app?vid=4258291f-daf6-4adf-952f-cf27f3ce12b6","ios":"levelo://app?vid=4258291f-daf6-4adf-952f-cf27f3ce12b6"},"vehicle_type_id":"4","last_reported":1748614235,"current_range_meters":9200,"station_id":"ce4bhgp2rcd13ifvqfc0","pricing_plan_id":"cebpf4jnsgd1na2vs0mg"},{"bike_id":"95e94d21-fa3a-45ee-8cc8-1599a8ab56a1","system_id":"levelo_inurba_marseille","lat":43.27206,"lon":5.39184,"is_reserved":false,"is_disabled":false,"rental_uris":{"android":"levelo://app?vid=95e94d21-fa3a-45ee-8cc8-1599a8ab56a1","ios":"levelo://app?vid=95e94d21-fa3a-45ee-8cc8-1599a8ab56a1"},"vehicle_type_id":"4","last_reported":1748614235,"current_range_meters":9200,"station_id":"ce4bhhp2rcd13ifvqfm0","pricing_plan_id":"cebpf4jnsgd1na2vs0mg"},{"bike_id":"c666405f-462c-40b6-aad2-05c3e84c9054","system_id":"levelo_inurba_marseille","lat":43.241785,"lon":5.363924,"is_reserved":false,"is_disabled":false,"rental_uris":{"android":"levelo://app?vid=c666405f-462c-40b6-aad2-05c3e84c9054","ios":"levelo://app?vid=c666405f-462c-40b6-aad2-05c3e84c9054"},"vehicle_type_id":"4","last_reported":1748614235,"current_range_meters":9200,"station_id":"cpo36qri1sfpv3e86is0","pricing_plan_id":"cebpf4jnsgd1na2vs0mg"},{"bike_id":"a807c8dd-75ce-4f49-b322-50ddd08ec8d0","system_id":"levelo_inurba_marseille","lat":43.347445,"lon":5.373159,"is_reserved":false,"is_disabled":false,"rental_uris":{"android":"levelo://app?vid=a807c8dd-75ce-4f49-b322-50ddd08ec8d0","ios":"levelo://app?vid=a807c8dd-75ce-4f49-b322-50ddd08ec8d0"},"vehicle_type_id":"4","last_reported":1748614235,"current_range_meters":9600,"station_id":"","pricing_plan_id":"cebpf4jnsgd1na2vs0mg"},{"bike_id":"4d78e84e-9b3b-4ac9-8d25-ca032492c620","system_id":"levelo_inurba_marseille","lat":43.27616,"lon":5.36115,"is_reserved":false,"is_disabled":false,"rental_uris":{"android":"levelo://app?vid=4d78e84e-9b3b-4ac9-8d25-ca032492c620","ios":"levelo://app?vid=4d78e84e-9b3b-4ac9-8d25-ca032492c620"},"vehicle_type_id":"4","last_reported":1748614235,"current_range_meters":9600,"station_id":"ce4bgj92rcd13ifvqbe0","pricing_plan_id":"cebpf4jnsgd1na2vs0mg"},{"bike_id":"2588802e-20ed-4e4b-a568-c0d3edb00998","system_id":"levelo_inurba_marseille","lat":43.28941,"lon":5.36648,"is_reserved":false,"is_disabled":false,"rental_uris":{"android":"levelo://app?vid=2588802e-20ed-4e4b-a568-c0d3edb00998","ios":"levelo://app?vid=2588802e-20ed-4e4b-a568-c0d3edb00998"},"vehicle_type_id":"4","last_reported":1748614235,"current_range_meters":9600,"station_id":"ce4bhap2rcd13ifvqek0","pricing_plan_id":"cebpf4jnsgd1na2vs0mg"},{"bike_id":"3accf359-53db-4876-b9b2-db28d524af3e","system_id":"levelo_inurba_marseille","lat":43.2901,"lon":5.35614,"is_reserved":false,"is_disabled":false,"rental_uris":{"android":"levelo://app?vid=3accf359-53db-4876-b9b2-db28d524af3e","ios":"levelo://app?vid=3accf359-53db-4876-b9b2-db28d524af3e"},"vehicle_type_id":"4","last_reported":1748614235,"current_range_meters":9600,"station_id":"ce4bhb92rcd13ifvqen0","pricing_plan_id":"cebpf4jnsgd1na2vs0mg"},{"bike_id":"7f8081d1-6ab1-4bea-b581-83c3b69d4e7a","system_id":"levelo_inurba_marseille","lat":43.27377,"lon":5.36236,"is_reserved":false,"is_disabled":false,"rental_uris":{"android":"levelo://app?vid=7f8081d1-6ab1-4bea-b581-83c3b69d4e7a","ios":"levelo://app?vid=7f8081d1-6ab1-4bea-b581-83c3b69d4e7a"},"vehicle_type_id":"4","last_reported":1748614235,"current_range_meters":9600,"station_id":"ce4bhbh2rcd13ifvqeo0","pricing_plan_id":"cebpf4jnsgd1na2vs0mg"},{"bike_id":"989a1ecf-aa55-4df2-882a-159d0020a5e8","system_id":"levelo_inurba_marseille","lat":43.28418,"lon":5.34972,"is_reserved":false,"is_disabled":false,"rental_uris":{"android":"levelo://app?vid=989a1ecf-aa55-4df2-882a-159d0020a5e8","ios":"levelo://app?vid=989a1ecf-aa55-4df2-882a-159d0020a5e8"},"vehicle_type_id":"4","last_reported":1748614235,"current_range_meters":9600,"station_id":"ce4bhbh2rcd13ifvqepg","pricing_plan_id":"cebpf4jnsgd1na2vs0mg"},{"bike_id":"e6fd2ca1-d968-4e6d-950a-3de70295f052","system_id":"levelo_inurba_marseille","lat":43.28428,"lon":5.35004,"is_reserved":false,"is_disabled":false,"rental_uris":{"android":"levelo://app?vid=e6fd2ca1-d968-4e6d-950a-3de70295f052","ios":"levelo://app?vid=e6fd2ca1-d968-4e6d-950a-3de70295f052"},"vehicle_type_id":"4","last_reported":1748614235,"current_range_meters":9600,"station_id":"ce4bhbh2rcd13ifvqepg","pricing_plan_id":"cebpf4jnsgd1na2vs0mg"},{"bike_id":"ecb899e4-5bba-4150-a9a4-2d0719522eb3","system_id":"levelo_inurba_marseille","lat":43.28268,"lon":5.35061,"is_reserved":false,"is_disabled":false,"rental_uris":{"android":"levelo://app?vid=ecb899e4-5bba-4150-a9a4-2d0719522eb3","ios":"levelo://app?vid=ecb899e4-5bba-4150-a9a4-2d0719522eb3"},"vehicle_type_id":"4","last_reported":1748614235,"current_range_meters":9600,"station_id":"ce4bhbp2rcd13ifvqerg","pricing_plan_id":"cebpf4jnsgd1na2vs0mg"},{"bike_id":"cf12dbcb-2ace-43c7-94ae-aecbbc931bea","system_id":"levelo_inurba_marseille","lat":43.27565,"lon":5.38427,"is_reserved":false,"is_disabled":false,"rental_uris":{"android":"levelo://app?vid=cf12dbcb-2ace-43c7-94ae-aecbbc931bea","ios":"levelo://app?vid=cf12dbcb-2ace-43c7-94ae-aecbbc931bea"},"vehicle_type_id":"4","last_reported":1748614235,"current_range_meters":9600,"station_id":"ce4bhh92rcd13ifvqfi0","pricing_plan_id":"cebpf4jnsgd1na2vs0mg"},{"bike_id":"74aefd90-ef51-4b59-858f-8628389423f7","system_id":"levelo_inurba_marseille","lat":43.240901,"lon":5.378161,"is_reserved":false,"is_disabled":false,"rental_uris":{"android":"levelo://app?vid=74aefd90-ef51-4b59-858f-8628389423f7","ios":"levelo://app?vid=74aefd90-ef51-4b59-858f-8628389423f7"},"vehicle_type_id":"4","last_reported":1748614235,"current_range_meters":9600,"station_id":"ce4bhnp2rcd13ifvqgvg","pricing_plan_id":"cebpf4jnsgd1na2vs0mg"},{"bike_id":"b20bbe32-37ed-4b7f-abe4-fbeece7bebaa","system_id":"levelo_inurba_marseille","lat":43.21741,"lon":5.34625,"is_reserved":false,"is_disabled":false,"rental_uris":{"android":"levelo://app?vid=b20bbe32-37ed-4b7f-abe4-fbeece7bebaa","ios":"levelo://app?vid=b20bbe32-37ed-4b7f-abe4-fbeece7bebaa"},"vehicle_type_id":"4","last_reported":1748614235,"current_range_meters":9600,"station_id":"st_cvj6r9ubvosntc0bgbag","pricing_plan_id":"cebpf4jnsgd1na2vs0mg"},{"bike_id":"6f5d2562-d039-445f-babd-9933b541c70b","system_id":"levelo_inurba_marseille","lat":43.3028,"lon":5.37727,"is_reserved":false,"is_disabled":false,"rental_uris":{"android":"levelo://app?vid=6f5d2562-d039-445f-babd-9933b541c70b","ios":"levelo://app?vid=6f5d2562-d039-445f-babd-9933b541c70b"},"vehicle_type_id":"4","last_reported":1748614235,"current_range_meters":10000,"station_id":"ce4bguh2rcd13ifvqcj0","pricing_plan_id":"cebpf4jnsgd1na2vs0mg"},{"bike_id":"410fa20d-05c5-46b1-b12e-3639a205195c","system_id":"levelo_inurba_marseille","lat":43.28724,"lon":5.37948,"is_reserved":false,"is_disabled":false,"rental_uris":{"android":"levelo://app?vid=410fa20d-05c5-46b1-b12e-3639a205195c","ios":"levelo://app?vid=410fa20d-05c5-46b1-b12e-3639a205195c"},"vehicle_type_id":"4","last_reported":1748614235,"current_range_meters":10000,"station_id":"ce4bh9p2rcd13ifvqec0","pricing_plan_id":"cebpf4jnsgd1na2vs0mg"},{"bike_id":"fbf62787-a3c6-4f23-83c5-9f8471a73f2d","system_id":"levelo_inurba_marseille","lat":43.265582,"lon":5.372836,"is_reserved":false,"is_disabled":false,"rental_uris":{"android":"levelo://app?vid=fbf62787-a3c6-4f23-83c5-9f8471a73f2d","ios":"levelo://app?vid=fbf62787-a3c6-4f23-83c5-9f8471a73f2d"},"vehicle_type_id":"4","last_reported":1748614235,"current_range_meters":10000,"station_id":"ce4bhg12rcd13ifvqf70","pricing_plan_id":"cebpf4jnsgd1na2vs0mg"},{"bike_id":"3cfcd708-bb66-4827-988c-59ab1f9ea42d","system_id":"levelo_inurba_marseille","lat":43.26225,"lon":5.40448,"is_reserved":false,"is_disabled":false,"rental_uris":{"android":"levelo://app?vid=3cfcd708-bb66-4827-988c-59ab1f9ea42d","ios":"levelo://app?vid=3cfcd708-bb66-4827-988c-59ab1f9ea42d"},"vehicle_type_id":"4","last_reported":1748614235,"current_range_meters":10000,"station_id":"ce4bhmh2rcd13ifvqgmg","pricing_plan_id":"cebpf4jnsgd1na2vs0mg"},{"bike_id":"452cbfa7-e61c-418a-859f-e52bd574a645","system_id":"levelo_inurba_marseille","lat":43.2315,"lon":5.43692,"is_reserved":false,"is_disabled":false,"rental_uris":{"android":"levelo://app?vid=452cbfa7-e61c-418a-859f-e52bd574a645","ios":"levelo://app?vid=452cbfa7-e61c-418a-859f-e52bd574a645"},"vehicle_type_id":"4","last_reported":1748614235,"current_range_meters":10000,"station_id":"ce4bhmp2rcd13ifvqgog","pricing_plan_id":"cebpf4jnsgd1na2vs0mg"},{"bike_id":"9eb5f20b-f84b-439d-a872-4006298f514f","system_id":"levelo_inurba_marseille","lat":43.24075,"lon":5.37758,"is_reserved":false,"is_disabled":false,"rental_uris":{"android":"levelo://app?vid=9eb5f20b-f84b-439d-a872-4006298f514f","ios":"levelo://app?vid=9eb5f20b-f84b-439d-a872-4006298f514f"},"vehicle_type_id":"4","last_reported":1748614235,"current_range_meters":10000,"station_id":"ce4bhnp2rcd13ifvqgvg","pricing_plan_id":"cebpf4jnsgd1na2vs0mg"},{"bike_id":"3ab45d98-928c-4bc3-9e44-82e086861b1b","system_id":"levelo_inurba_marseille","lat":43.262054,"lon":5.374511,"is_reserved":false,"is_disabled":false,"rental_uris":{"android":"levelo://app?vid=3ab45d98-928c-4bc3-9e44-82e086861b1b","ios":"levelo://app?vid=3ab45d98-928c-4bc3-9e44-82e086861b1b"},"vehicle_type_id":"4","last_reported":1748614235,"current_range_meters":10000,"station_id":"ce4bhr12rcd13ifvqhqg","pricing_plan_id":"cebpf4jnsgd1na2vs0mg"},{"bike_id":"10506cb7-ecd1-4b9a-8a8d-ad241d961b8c","system_id":"levelo_inurba_marseille","lat":43.23196,"lon":5.35547,"is_reserved":false,"is_disabled":false,"rental_uris":{"android":"levelo://app?vid=10506cb7-ecd1-4b9a-8a8d-ad241d961b8c","ios":"levelo://app?vid=10506cb7-ecd1-4b9a-8a8d-ad241d961b8c"},"vehicle_type_id":"4","last_reported":1748614235,"current_range_meters":10000,"station_id":"ce4bhu92rcd13ifvqi70","pricing_plan_id":"cebpf4jnsgd1na2vs0mg"},{"bike_id":"6f06ad6c-0890-469e-9036-ed89578384a3","system_id":"levelo_inurba_marseille","lat":43.29788,"lon":5.39338,"is_reserved":false,"is_disabled":false,"rental_uris":{"android":"levelo://app?vid=6f06ad6c-0890-469e-9036-ed89578384a3","ios":"levelo://app?vid=6f06ad6c-0890-469e-9036-ed89578384a3"},"vehicle_type_id":"4","last_reported":1748614235,"current_range_meters":10000,"station_id":"chh1huq6cuj3fo74tm60","pricing_plan_id":"cebpf4jnsgd1na2vs0mg"},{"bike_id":"c7c3a5a4-b6e4-462b-80c7-827e33b91cd7","system_id":"levelo_inurba_marseille","lat":43.26546,"lon":5.37342,"is_reserved":false,"is_disabled":false,"rental_uris":{"android":"levelo://app?vid=c7c3a5a4-b6e4-462b-80c7-827e33b91cd7","ios":"levelo://app?vid=c7c3a5a4-b6e4-462b-80c7-827e33b91cd7"},"vehicle_type_id":"4","last_reported":1748614235,"current_range_meters":10800,"station_id":"","pricing_plan_id":"cebpf4jnsgd1na2vs0mg"},{"bike_id":"fd48a4cf-a9af-4050-93c5-ad684b79e166","system_id":"levelo_inurba_marseille","lat":43.2737,"lon":5.3626,"is_reserved":false,"is_disabled":false,"rental_uris":{"android":"levelo://app?vid=fd48a4cf-a9af-4050-93c5-ad684b79e166","ios":"levelo://app?vid=fd48a4cf-a9af-4050-93c5-ad684b79e166"},"vehicle_type_id":"4","last_reported":1748614235,"current_range_meters":10800,"station_id":"ce4bhbh2rcd13ifvqeo0","pricing_plan_id":"cebpf4jnsgd1na2vs0mg"},{"bike_id":"29583412-a764-4207-876e-198c2047a7f1","system_id":"levelo_inurba_marseille","lat":43.27384,"lon":5.36266,"is_reserved":false,"is_disabled":false,"rental_uris":{"android":"levelo://app?vid=29583412-a764-4207-876e-198c2047a7f1","ios":"levelo://app?vid=29583412-a764-4207-876e-198c2047a7f1"},"vehicle_type_id":"4","last_reported":1748614235,"current_range_meters":10800,"station_id":"ce4bhbh2rcd13ifvqeo0","pricing_plan_id":"cebpf4jnsgd1na2vs0mg"},{"bike_id":"b4762fa1-e596-4ef5-8381-22e8d18b51b2","system_id":"levelo_inurba_marseille","lat":43.28424,"lon":5.35005,"is_reserved":false,"is_disabled":false,"rental_uris":{"android":"levelo://app?vid=b4762fa1-e596-4ef5-8381-22e8d18b51b2","ios":"levelo://app?vid=b4762fa1-e596-4ef5-8381-22e8d18b51b2"},"vehicle_type_id":"4","last_reported":1748614235,"current_range_meters":10800,"station_id":"ce4bhbh2rcd13ifvqepg","pricing_plan_id":"cebpf4jnsgd1na2vs0mg"},{"bike_id":"2d6dcd56-cc08-4d1a-9a9d-eb70fd337b3a","system_id":"levelo_inurba_marseille","lat":43.25498,"lon":5.37648,"is_reserved":false,"is_disabled":false,"rental_uris":{"android":"levelo://app?vid=2d6dcd56-cc08-4d1a-9a9d-eb70fd337b3a","ios":"levelo://app?vid=2d6dcd56-cc08-4d1a-9a9d-eb70fd337b3a"},"vehicle_type_id":"4","last_reported":1748614235,"current_range_meters":10800,"station_id":"ce4bhh12rcd13ifvqff0","pricing_plan_id":"cebpf4jnsgd1na2vs0mg"},{"bike_id":"c77823f5-8280-4286-913c-075655ea1d03","system_id":"levelo_inurba_marseille","lat":43.24387,"lon":5.37074,"is_reserved":false,"is_disabled":false,"rental_uris":{"android":"levelo://app?vid=c77823f5-8280-4286-913c-075655ea1d03","ios":"levelo://app?vid=c77823f5-8280-4286-913c-075655ea1d03"},"vehicle_type_id":"4","last_reported":1748614235,"current_range_meters":10800,"station_id":"ce4bhhh2rcd13ifvqfk0","pricing_plan_id":"cebpf4jnsgd1na2vs0mg"},{"bike_id":"012d531b-231a-4e6d-987a-752741e99f91","system_id":"levelo_inurba_marseille","lat":43.23151,"lon":5.43713,"is_reserved":false,"is_disabled":false,"rental_uris":{"android":"levelo://app?vid=012d531b-231a-4e6d-987a-752741e99f91","ios":"levelo://app?vid=012d531b-231a-4e6d-987a-752741e99f91"},"vehicle_type_id":"4","last_reported":1748614235,"current_range_meters":10800,"station_id":"ce4bhmp2rcd13ifvqgog","pricing_plan_id":"cebpf4jnsgd1na2vs0mg"},{"bike_id":"f209eeb1-23a1-4c5c-a4ab-d73fae8b1898","system_id":"levelo_inurba_marseille","lat":43.31994,"lon":5.38166,"is_reserved":false,"is_disabled":false,"rental_uris":{"android":"levelo://app?vid=f209eeb1-23a1-4c5c-a4ab-d73fae8b1898","ios":"levelo://app?vid=f209eeb1-23a1-4c5c-a4ab-d73fae8b1898"},"vehicle_type_id":"4","last_reported":1748614235,"current_range_meters":10800,"station_id":"ce4bhr12rcd13ifvqhpg","pricing_plan_id":"cebpf4jnsgd1na2vs0mg"},{"bike_id":"af78cd64-d0b1-4ec8-8285-880188198f73","system_id":"levelo_inurba_marseille","lat":43.23188,"lon":5.35554,"is_reserved":false,"is_disabled":false,"rental_uris":{"android":"levelo://app?vid=af78cd64-d0b1-4ec8-8285-880188198f73","ios":"levelo://app?vid=af78cd64-d0b1-4ec8-8285-880188198f73"},"vehicle_type_id":"4","last_reported":1748614235,"current_range_meters":10800,"station_id":"ce4bhu92rcd13ifvqi70","pricing_plan_id":"cebpf4jnsgd1na2vs0mg"},{"bike_id":"f46a5942-aa0f-498b-ae15-e1f7f612e9d2","system_id":"levelo_inurba_marseille","lat":43.24161,"lon":5.36403,"is_reserved":false,"is_disabled":false,"rental_uris":{"android":"levelo://app?vid=f46a5942-aa0f-498b-ae15-e1f7f612e9d2","ios":"levelo://app?vid=f46a5942-aa0f-498b-ae15-e1f7f612e9d2"},"vehicle_type_id":"4","last_reported":1748614235,"current_range_meters":10800,"station_id":"cpo36qri1sfpv3e86is0","pricing_plan_id":"cebpf4jnsgd1na2vs0mg"},{"bike_id":"17a6a597-6c90-4e59-afac-82ff62983552","system_id":"levelo_inurba_marseille","lat":43.21188,"lon":5.35073,"is_reserved":false,"is_disabled":false,"rental_uris":{"android":"levelo://app?vid=17a6a597-6c90-4e59-afac-82ff62983552","ios":"levelo://app?vid=17a6a597-6c90-4e59-afac-82ff62983552"},"vehicle_type_id":"4","last_reported":1748614235,"current_range_meters":10800,"station_id":"st_cvj6sg6p6f1abm77japg","pricing_plan_id":"cebpf4jnsgd1na2vs0mg"},{"bike_id":"245778e8-54ea-47a0-a032-f5a878d27661","system_id":"levelo_inurba_marseille","lat":43.30248,"lon":5.4008,"is_reserved":false,"is_disabled":false,"rental_uris":{"android":"levelo://app?vid=245778e8-54ea-47a0-a032-f5a878d27661","ios":"levelo://app?vid=245778e8-54ea-47a0-a032-f5a878d27661"},"vehicle_type_id":"4","last_reported":1748614235,"current_range_meters":11200,"station_id":"ce4bgvh2rcd13ifvqcs0","pricing_plan_id":"cebpf4jnsgd1na2vs0mg"},{"bike_id":"e88454e9-5108-4967-a989-df9e4e3590e1","system_id":"levelo_inurba_marseille","lat":43.27386,"lon":5.36265,"is_reserved":false,"is_disabled":false,"rental_uris":{"android":"levelo://app?vid=e88454e9-5108-4967-a989-df9e4e3590e1","ios":"levelo://app?vid=e88454e9-5108-4967-a989-df9e4e3590e1"},"vehicle_type_id":"4","last_reported":1748614235,"current_range_meters":11200,"station_id":"ce4bhbh2rcd13ifvqeo0","pricing_plan_id":"cebpf4jnsgd1na2vs0mg"},{"bike_id":"892e080a-ee99-4a5f-968b-89d9c21db061","system_id":"levelo_inurba_marseille","lat":43.28417,"lon":5.34988,"is_reserved":false,"is_disabled":false,"rental_uris":{"android":"levelo://app?vid=892e080a-ee99-4a5f-968b-89d9c21db061","ios":"levelo://app?vid=892e080a-ee99-4a5f-968b-89d9c21db061"},"vehicle_type_id":"4","last_reported":1748614235,"current_range_meters":11200,"station_id":"ce4bhbh2rcd13ifvqepg","pricing_plan_id":"cebpf4jnsgd1na2vs0mg"},{"bike_id":"f67c0dea-1fe5-4948-9215-8f57b4153744","system_id":"levelo_inurba_marseille","lat":43.284167,"lon":5.349813,"is_reserved":false,"is_disabled":false,"rental_uris":{"android":"levelo://app?vid=f67c0dea-1fe5-4948-9215-8f57b4153744","ios":"levelo://app?vid=f67c0dea-1fe5-4948-9215-8f57b4153744"},"vehicle_type_id":"4","last_reported":1748614235,"current_range_meters":11200,"station_id":"ce4bhbh2rcd13ifvqepg","pricing_plan_id":"cebpf4jnsgd1na2vs0mg"},{"bike_id":"2bab18aa-61cd-4c18-a24b-1032bd90bb09","system_id":"levelo_inurba_marseille","lat":43.26026,"lon":5.37533,"is_reserved":false,"is_disabled":false,"rental_uris":{"android":"levelo://app?vid=2bab18aa-61cd-4c18-a24b-1032bd90bb09","ios":"levelo://app?vid=2bab18aa-61cd-4c18-a24b-1032bd90bb09"},"vehicle_type_id":"4","last_reported":1748614235,"current_range_meters":11200,"station_id":"ce4bhgh2rcd13ifvqfa0","pricing_plan_id":"cebpf4jnsgd1na2vs0mg"},{"bike_id":"c1c2d85c-5c42-48f8-b1ee-87631c48c9eb","system_id":"levelo_inurba_marseille","lat":43.24808,"lon":5.37455,"is_reserved":false,"is_disabled":false,"rental_uris":{"android":"levelo://app?vid=c1c2d85c-5c42-48f8-b1ee-87631c48c9eb","ios":"levelo://app?vid=c1c2d85c-5c42-48f8-b1ee-87631c48c9eb"},"vehicle_type_id":"4","last_reported":1748614235,"current_range_meters":11200,"station_id":"ce4bhgh2rcd13ifvqfb0","pricing_plan_id":"cebpf4jnsgd1na2vs0mg"},{"bike_id":"c6e1381c-bac9-4582-bfb9-1739ba44fe83","system_id":"levelo_inurba_marseille","lat":43.26206,"lon":5.37442,"is_reserved":false,"is_disabled":false,"rental_uris":{"android":"levelo://app?vid=c6e1381c-bac9-4582-bfb9-1739ba44fe83","ios":"levelo://app?vid=c6e1381c-bac9-4582-bfb9-1739ba44fe83"},"vehicle_type_id":"4","last_reported":1748614235,"current_range_meters":11200,"station_id":"ce4bhgp2rcd13ifvqfc0","pricing_plan_id":"cebpf4jnsgd1na2vs0mg"},{"bike_id":"3dd1b342-5d0a-4155-9da3-0dd9cd16e16e","system_id":"levelo_inurba_marseille","lat":43.22961,"lon":5.35409,"is_reserved":false,"is_disabled":false,"rental_uris":{"android":"levelo://app?vid=3dd1b342-5d0a-4155-9da3-0dd9cd16e16e","ios":"levelo://app?vid=3dd1b342-5d0a-4155-9da3-0dd9cd16e16e"},"vehicle_type_id":"4","last_reported":1748614235,"current_range_meters":11200,"station_id":"cpo3532slgdg3j2ikp40","pricing_plan_id":"cebpf4jnsgd1na2vs0mg"},{"bike_id":"882f96e6-6d51-400c-b332-99ec0e88ba27","system_id":"levelo_inurba_marseille","lat":43.27615,"lon":5.36121,"is_reserved":false,"is_disabled":false,"rental_uris":{"android":"levelo://app?vid=882f96e6-6d51-400c-b332-99ec0e88ba27","ios":"levelo://app?vid=882f96e6-6d51-400c-b332-99ec0e88ba27"},"vehicle_type_id":"4","last_reported":1748614235,"current_range_meters":11600,"station_id":"ce4bgj92rcd13ifvqbe0","pricing_plan_id":"cebpf4jnsgd1na2vs0mg"},{"bike_id":"5ab0c034-8d81-4e39-bd05-94047d723c15","system_id":"levelo_inurba_marseille","lat":43.27376,"lon":5.3626,"is_reserved":false,"is_disabled":false,"rental_uris":{"android":"levelo://app?vid=5ab0c034-8d81-4e39-bd05-94047d723c15","ios":"levelo://app?vid=5ab0c034-8d81-4e39-bd05-94047d723c15"},"vehicle_type_id":"4","last_reported":1748614235,"current_range_meters":11600,"station_id":"ce4bhbh2rcd13ifvqeo0","pricing_plan_id":"cebpf4jnsgd1na2vs0mg"},{"bike_id":"41b3dd32-a65a-44b0-9bc5-cf1d4d4e6b59","system_id":"levelo_inurba_marseille","lat":43.29958,"lon":5.41315,"is_reserved":false,"is_disabled":false,"rental_uris":{"android":"levelo://app?vid=41b3dd32-a65a-44b0-9bc5-cf1d4d4e6b59","ios":"levelo://app?vid=41b3dd32-a65a-44b0-9bc5-cf1d4d4e6b59"},"vehicle_type_id":"4","last_reported":1748614235,"current_range_meters":11600,"station_id":"ce4bhp12rcd13ifvqh9g","pricing_plan_id":"cebpf4jnsgd1na2vs0mg"},{"bike_id":"7243d7c8-02f5-4392-89cf-8c360e846d55","system_id":"levelo_inurba_marseille","lat":43.25278,"lon":5.378263,"is_reserved":false,"is_disabled":false,"rental_uris":{"android":"levelo://app?vid=7243d7c8-02f5-4392-89cf-8c360e846d55","ios":"levelo://app?vid=7243d7c8-02f5-4392-89cf-8c360e846d55"},"vehicle_type_id":"4","last_reported":1748614235,"current_range_meters":12000,"station_id":"","pricing_plan_id":"cebpf4jnsgd1na2vs0mg"},{"bike_id":"30cc988c-6cc0-4202-a51f-50d42755dd67","system_id":"levelo_inurba_marseille","lat":43.31174,"lon":5.38717,"is_reserved":false,"is_disabled":false,"rental_uris":{"android":"levelo://app?vid=30cc988c-6cc0-4202-a51f-50d42755dd67","ios":"levelo://app?vid=30cc988c-6cc0-4202-a51f-50d42755dd67"},"vehicle_type_id":"4","last_reported":1748614235,"current_range_meters":12000,"station_id":"ce4bgv12rcd13ifvqcp0","pricing_plan_id":"cebpf4jnsgd1na2vs0mg"},{"bike_id":"4e7eaec8-b2c8-4351-8131-6316d0b2e027","system_id":"levelo_inurba_marseille","lat":43.28271,"lon":5.35081,"is_reserved":false,"is_disabled":false,"rental_uris":{"android":"levelo://app?vid=4e7eaec8-b2c8-4351-8131-6316d0b2e027","ios":"levelo://app?vid=4e7eaec8-b2c8-4351-8131-6316d0b2e027"},"vehicle_type_id":"4","last_reported":1748614235,"current_range_meters":12000,"station_id":"ce4bhbp2rcd13ifvqerg","pricing_plan_id":"cebpf4jnsgd1na2vs0mg"},{"bike_id":"6e02306c-1a76-42f5-b6b1-6382a9b8efd9","system_id":"levelo_inurba_marseille","lat":43.26551,"lon":5.37282,"is_reserved":false,"is_disabled":false,"rental_uris":{"android":"levelo://app?vid=6e02306c-1a76-42f5-b6b1-6382a9b8efd9","ios":"levelo://app?vid=6e02306c-1a76-42f5-b6b1-6382a9b8efd9"},"vehicle_type_id":"4","last_reported":1748614235,"current_range_meters":12000,"station_id":"ce4bhg12rcd13ifvqf70","pricing_plan_id":"cebpf4jnsgd1na2vs0mg"},{"bike_id":"376e3220-304c-4620-9a1d-a8a356335e66","system_id":"levelo_inurba_marseille","lat":43.24801,"lon":5.37472,"is_reserved":false,"is_disabled":false,"rental_uris":{"android":"levelo://app?vid=376e3220-304c-4620-9a1d-a8a356335e66","ios":"levelo://app?vid=376e3220-304c-4620-9a1d-a8a356335e66"},"vehicle_type_id":"4","last_reported":1748614235,"current_range_meters":12000,"station_id":"ce4bhgh2rcd13ifvqfb0","pricing_plan_id":"cebpf4jnsgd1na2vs0mg"},{"bike_id":"d51d1b55-e49b-4aab-b17a-941d1955bf76","system_id":"levelo_inurba_marseille","lat":43.26194,"lon":5.37454,"is_reserved":false,"is_disabled":false,"rental_uris":{"android":"levelo://app?vid=d51d1b55-e49b-4aab-b17a-941d1955bf76","ios":"levelo://app?vid=d51d1b55-e49b-4aab-b17a-941d1955bf76"},"vehicle_type_id":"4","last_reported":1748614235,"current_range_meters":12000,"station_id":"ce4bhgp2rcd13ifvqfc0","pricing_plan_id":"cebpf4jnsgd1na2vs0mg"},{"bike_id":"c84b262f-a7bc-41ef-9e31-2b5b3d827e0f","system_id":"levelo_inurba_marseille","lat":43.27947,"lon":5.41051,"is_reserved":false,"is_disabled":false,"rental_uris":{"android":"levelo://app?vid=c84b262f-a7bc-41ef-9e31-2b5b3d827e0f","ios":"levelo://app?vid=c84b262f-a7bc-41ef-9e31-2b5b3d827e0f"},"vehicle_type_id":"4","last_reported":1748614235,"current_range_meters":12000,"station_id":"ce4bhnp2rcd13ifvqh0g","pricing_plan_id":"cebpf4jnsgd1na2vs0mg"},{"bike_id":"07c38af0-9fa2-41ca-af0d-4f3033b090c9","system_id":"levelo_inurba_marseille","lat":43.24163,"lon":5.36416,"is_reserved":false,"is_disabled":false,"rental_uris":{"android":"levelo://app?vid=07c38af0-9fa2-41ca-af0d-4f3033b090c9","ios":"levelo://app?vid=07c38af0-9fa2-41ca-af0d-4f3033b090c9"},"vehicle_type_id":"4","last_reported":1748614235,"current_range_meters":12000,"station_id":"cpo36qri1sfpv3e86is0","pricing_plan_id":"cebpf4jnsgd1na2vs0mg"},{"bike_id":"d2a74900-f6fd-4a8f-b142-f5b4a0aa1483","system_id":"levelo_inurba_marseille","lat":43.30136,"lon":5.39892,"is_reserved":false,"is_disabled":false,"rental_uris":{"android":"levelo://app?vid=d2a74900-f6fd-4a8f-b142-f5b4a0aa1483","ios":"levelo://app?vid=d2a74900-f6fd-4a8f-b142-f5b4a0aa1483"},"vehicle_type_id":"4","last_reported":1748614235,"current_range_meters":12400,"station_id":"ce4bh0h2rcd13ifvqd40","pricing_plan_id":"cebpf4jnsgd1na2vs0mg"},{"bike_id":"529137a1-0fec-4a4c-bbe8-03949b5f4bac","system_id":"levelo_inurba_marseille","lat":43.28404,"lon":5.35006,"is_reserved":false,"is_disabled":false,"rental_uris":{"android":"levelo://app?vid=529137a1-0fec-4a4c-bbe8-03949b5f4bac","ios":"levelo://app?vid=529137a1-0fec-4a4c-bbe8-03949b5f4bac"},"vehicle_type_id":"4","last_reported":1748614235,"current_range_meters":12400,"station_id":"ce4bhbh2rcd13ifvqepg","pricing_plan_id":"cebpf4jnsgd1na2vs0mg"},{"bike_id":"251b376d-12c6-4d2b-9389-376fcda55c7f","system_id":"levelo_inurba_marseille","lat":43.28419,"lon":5.35,"is_reserved":false,"is_disabled":false,"rental_uris":{"android":"levelo://app?vid=251b376d-12c6-4d2b-9389-376fcda55c7f","ios":"levelo://app?vid=251b376d-12c6-4d2b-9389-376fcda55c7f"},"vehicle_type_id":"4","last_reported":1748614235,"current_range_meters":12400,"station_id":"ce4bhbh2rcd13ifvqepg","pricing_plan_id":"cebpf4jnsgd1na2vs0mg"},{"bike_id":"c5955212-23b9-47a9-8fed-0e2d976ea049","system_id":"levelo_inurba_marseille","lat":43.265574,"lon":5.372835,"is_reserved":false,"is_disabled":false,"rental_uris":{"android":"levelo://app?vid=c5955212-23b9-47a9-8fed-0e2d976ea049","ios":"levelo://app?vid=c5955212-23b9-47a9-8fed-0e2d976ea049"},"vehicle_type_id":"4","last_reported":1748614235,"current_range_meters":12400,"station_id":"ce4bhg12rcd13ifvqf70","pricing_plan_id":"cebpf4jnsgd1na2vs0mg"},{"bike_id":"81929695-c996-4344-b136-61f971835187","system_id":"levelo_inurba_marseille","lat":43.262135,"lon":5.374394,"is_reserved":false,"is_disabled":false,"rental_uris":{"android":"levelo://app?vid=81929695-c996-4344-b136-61f971835187","ios":"levelo://app?vid=81929695-c996-4344-b136-61f971835187"},"vehicle_type_id":"4","last_reported":1748614235,"current_range_meters":12400,"station_id":"ce4bhgp2rcd13ifvqfc0","pricing_plan_id":"cebpf4jnsgd1na2vs0mg"},{"bike_id":"d7f814fc-63e5-472c-a467-6aa6f3dbf571","system_id":"levelo_inurba_marseille","lat":43.25721,"lon":5.41112,"is_reserved":false,"is_disabled":false,"rental_uris":{"android":"levelo://app?vid=d7f814fc-63e5-472c-a467-6aa6f3dbf571","ios":"levelo://app?vid=d7f814fc-63e5-472c-a467-6aa6f3dbf571"},"vehicle_type_id":"4","last_reported":1748614235,"current_range_meters":12400,"station_id":"ce4bhkp2rcd13ifvqgd0","pricing_plan_id":"cebpf4jnsgd1na2vs0mg"},{"bike_id":"943f5533-6d6e-4501-8871-cedef1956a6e","system_id":"levelo_inurba_marseille","lat":43.24179,"lon":5.39734,"is_reserved":false,"is_disabled":false,"rental_uris":{"android":"levelo://app?vid=943f5533-6d6e-4501-8871-cedef1956a6e","ios":"levelo://app?vid=943f5533-6d6e-4501-8871-cedef1956a6e"},"vehicle_type_id":"4","last_reported":1748614235,"current_range_meters":12400,"station_id":"ce4bhn12rcd13ifvqgpg","pricing_plan_id":"cebpf4jnsgd1na2vs0mg"},{"bike_id":"55c20d8c-96d6-42d9-8b9f-63ef79776ce4","system_id":"levelo_inurba_marseille","lat":43.33024,"lon":5.39045,"is_reserved":false,"is_disabled":false,"rental_uris":{"android":"levelo://app?vid=55c20d8c-96d6-42d9-8b9f-63ef79776ce4","ios":"levelo://app?vid=55c20d8c-96d6-42d9-8b9f-63ef79776ce4"},"vehicle_type_id":"4","last_reported":1748614235,"current_range_meters":12400,"station_id":"ce4bhr92rcd13ifvqhrg","pricing_plan_id":"cebpf4jnsgd1na2vs0mg"},{"bike_id":"b433ccd5-cacf-41ad-b027-1bfde740b889","system_id":"levelo_inurba_marseille","lat":43.23041,"lon":5.35522,"is_reserved":false,"is_disabled":false,"rental_uris":{"android":"levelo://app?vid=b433ccd5-cacf-41ad-b027-1bfde740b889","ios":"levelo://app?vid=b433ccd5-cacf-41ad-b027-1bfde740b889"},"vehicle_type_id":"4","last_reported":1748614235,"current_range_meters":12400,"station_id":"cpo3342slgdg3j2ifvpg","pricing_plan_id":"cebpf4jnsgd1na2vs0mg"},{"bike_id":"dfe8fe35-d227-47d8-ac09-653652305ce4","system_id":"levelo_inurba_marseille","lat":43.21746,"lon":5.34612,"is_reserved":false,"is_disabled":false,"rental_uris":{"android":"levelo://app?vid=dfe8fe35-d227-47d8-ac09-653652305ce4","ios":"levelo://app?vid=dfe8fe35-d227-47d8-ac09-653652305ce4"},"vehicle_type_id":"4","last_reported":1748614235,"current_range_meters":12400,"station_id":"st_cvj6r9ubvosntc0bgbag","pricing_plan_id":"cebpf4jnsgd1na2vs0mg"},{"bike_id":"3e80678d-b658-4260-baf6-660f8b511aa0","system_id":"levelo_inurba_marseille","lat":43.323533,"lon":5.367512,"is_reserved":false,"is_disabled":false,"rental_uris":{"android":"levelo://app?vid=3e80678d-b658-4260-baf6-660f8b511aa0","ios":"levelo://app?vid=3e80678d-b658-4260-baf6-660f8b511aa0"},"vehicle_type_id":"4","last_reported":1748614235,"current_range_meters":12800,"station_id":"","pricing_plan_id":"cebpf4jnsgd1na2vs0mg"},{"bike_id":"990df701-79a7-41ec-b963-3693dc590a87","system_id":"levelo_inurba_marseille","lat":43.301982,"lon":5.37917,"is_reserved":false,"is_disabled":false,"rental_uris":{"android":"levelo://app?vid=990df701-79a7-41ec-b963-3693dc590a87","ios":"levelo://app?vid=990df701-79a7-41ec-b963-3693dc590a87"},"vehicle_type_id":"4","last_reported":1748614235,"current_range_meters":12800,"station_id":"","pricing_plan_id":"cebpf4jnsgd1na2vs0mg"},{"bike_id":"a4dcd63c-212a-4d34-8feb-4220e4ed3774","system_id":"levelo_inurba_marseille","lat":43.28405,"lon":5.35005,"is_reserved":false,"is_disabled":false,"rental_uris":{"android":"levelo://app?vid=a4dcd63c-212a-4d34-8feb-4220e4ed3774","ios":"levelo://app?vid=a4dcd63c-212a-4d34-8feb-4220e4ed3774"},"vehicle_type_id":"4","last_reported":1748614235,"current_range_meters":12800,"station_id":"ce4bhbh2rcd13ifvqepg","pricing_plan_id":"cebpf4jnsgd1na2vs0mg"},{"bike_id":"fb0d61b3-ca32-4b71-8d47-f2817f6eb08b","system_id":"levelo_inurba_marseille","lat":43.28275,"lon":5.35083,"is_reserved":false,"is_disabled":false,"rental_uris":{"android":"levelo://app?vid=fb0d61b3-ca32-4b71-8d47-f2817f6eb08b","ios":"levelo://app?vid=fb0d61b3-ca32-4b71-8d47-f2817f6eb08b"},"vehicle_type_id":"4","last_reported":1748614235,"current_range_meters":12800,"station_id":"ce4bhbp2rcd13ifvqerg","pricing_plan_id":"cebpf4jnsgd1na2vs0mg"},{"bike_id":"b1809466-5092-4500-9392-90442aa6acf8","system_id":"levelo_inurba_marseille","lat":43.262,"lon":5.37473,"is_reserved":false,"is_disabled":false,"rental_uris":{"android":"levelo://app?vid=b1809466-5092-4500-9392-90442aa6acf8","ios":"levelo://app?vid=b1809466-5092-4500-9392-90442aa6acf8"},"vehicle_type_id":"4","last_reported":1748614235,"current_range_meters":12800,"station_id":"ce4bhgp2rcd13ifvqfc0","pricing_plan_id":"cebpf4jnsgd1na2vs0mg"},{"bike_id":"3d93e3b5-1695-4b44-810e-867cba932a70","system_id":"levelo_inurba_marseille","lat":43.242147,"lon":5.396944,"is_reserved":false,"is_disabled":false,"rental_uris":{"android":"levelo://app?vid=3d93e3b5-1695-4b44-810e-867cba932a70","ios":"levelo://app?vid=3d93e3b5-1695-4b44-810e-867cba932a70"},"vehicle_type_id":"4","last_reported":1748614235,"current_range_meters":12800,"station_id":"ce4bhn12rcd13ifvqgpg","pricing_plan_id":"cebpf4jnsgd1na2vs0mg"},{"bike_id":"e2323763-e8bc-4c18-8623-deb9c58bfd9b","system_id":"levelo_inurba_marseille","lat":43.24169,"lon":5.36397,"is_reserved":false,"is_disabled":false,"rental_uris":{"android":"levelo://app?vid=e2323763-e8bc-4c18-8623-deb9c58bfd9b","ios":"levelo://app?vid=e2323763-e8bc-4c18-8623-deb9c58bfd9b"},"vehicle_type_id":"4","last_reported":1748614235,"current_range_meters":12800,"station_id":"cpo36qri1sfpv3e86is0","pricing_plan_id":"cebpf4jnsgd1na2vs0mg"},{"bike_id":"7920e439-3ff5-4641-aa23-192c084545b7","system_id":"levelo_inurba_marseille","lat":43.21744,"lon":5.34606,"is_reserved":false,"is_disabled":false,"rental_uris":{"android":"levelo://app?vid=7920e439-3ff5-4641-aa23-192c084545b7","ios":"levelo://app?vid=7920e439-3ff5-4641-aa23-192c084545b7"},"vehicle_type_id":"4","last_reported":1748614235,"current_range_meters":12800,"station_id":"st_cvj6r9ubvosntc0bgbag","pricing_plan_id":"cebpf4jnsgd1na2vs0mg"},{"bike_id":"38fdae8c-d43d-4127-8d9e-88b5bf19f301","system_id":"levelo_inurba_marseille","lat":43.28559,"lon":5.39508,"is_reserved":false,"is_disabled":false,"rental_uris":{"android":"levelo://app?vid=38fdae8c-d43d-4127-8d9e-88b5bf19f301","ios":"levelo://app?vid=38fdae8c-d43d-4127-8d9e-88b5bf19f301"},"vehicle_type_id":"4","last_reported":1748614235,"current_range_meters":13600,"station_id":"ce4bh292rcd13ifvqdg0","pricing_plan_id":"cebpf4jnsgd1na2vs0mg"},{"bike_id":"bac667cf-137e-4ea7-b037-7ebd6a2ad77c","system_id":"levelo_inurba_marseille","lat":43.2826,"lon":5.3511,"is_reserved":false,"is_disabled":false,"rental_uris":{"android":"levelo://app?vid=bac667cf-137e-4ea7-b037-7ebd6a2ad77c","ios":"levelo://app?vid=bac667cf-137e-4ea7-b037-7ebd6a2ad77c"},"vehicle_type_id":"4","last_reported":1748614235,"current_range_meters":13600,"station_id":"ce4bhbp2rcd13ifvqerg","pricing_plan_id":"cebpf4jnsgd1na2vs0mg"},{"bike_id":"950a66c6-0112-4714-a007-202e42172c1f","system_id":"levelo_inurba_marseille","lat":43.248096,"lon":5.374558,"is_reserved":false,"is_disabled":false,"rental_uris":{"android":"levelo://app?vid=950a66c6-0112-4714-a007-202e42172c1f","ios":"levelo://app?vid=950a66c6-0112-4714-a007-202e42172c1f"},"vehicle_type_id":"4","last_reported":1748614235,"current_range_meters":13600,"station_id":"ce4bhgh2rcd13ifvqfb0","pricing_plan_id":"cebpf4jnsgd1na2vs0mg"},{"bike_id":"9c8f2851-b94a-491b-9cb6-2e6f5d4c91c2","system_id":"levelo_inurba_marseille","lat":43.26214,"lon":5.37438,"is_reserved":false,"is_disabled":false,"rental_uris":{"android":"levelo://app?vid=9c8f2851-b94a-491b-9cb6-2e6f5d4c91c2","ios":"levelo://app?vid=9c8f2851-b94a-491b-9cb6-2e6f5d4c91c2"},"vehicle_type_id":"4","last_reported":1748614235,"current_range_meters":13600,"station_id":"ce4bhgp2rcd13ifvqfc0","pricing_plan_id":"cebpf4jnsgd1na2vs0mg"},{"bike_id":"c26ac557-6686-4a41-b08a-99321e938004","system_id":"levelo_inurba_marseille","lat":43.26189,"lon":5.37445,"is_reserved":false,"is_disabled":false,"rental_uris":{"android":"levelo://app?vid=c26ac557-6686-4a41-b08a-99321e938004","ios":"levelo://app?vid=c26ac557-6686-4a41-b08a-99321e938004"},"vehicle_type_id":"4","last_reported":1748614235,"current_range_meters":13600,"station_id":"ce4bhgp2rcd13ifvqfc0","pricing_plan_id":"cebpf4jnsgd1na2vs0mg"},{"bike_id":"1b4baf80-e71a-4d81-a05c-f59a75670d6f","system_id":"levelo_inurba_marseille","lat":43.27605,"lon":5.36115,"is_reserved":false,"is_disabled":false,"rental_uris":{"android":"levelo://app?vid=1b4baf80-e71a-4d81-a05c-f59a75670d6f","ios":"levelo://app?vid=1b4baf80-e71a-4d81-a05c-f59a75670d6f"},"vehicle_type_id":"4","last_reported":1748614235,"current_range_meters":14000,"station_id":"ce4bgj92rcd13ifvqbe0","pricing_plan_id":"cebpf4jnsgd1na2vs0mg"},{"bike_id":"9038d539-3cd1-4774-ad19-95195325836e","system_id":"levelo_inurba_marseille","lat":43.28263,"lon":5.35077,"is_reserved":false,"is_disabled":false,"rental_uris":{"android":"levelo://app?vid=9038d539-3cd1-4774-ad19-95195325836e","ios":"levelo://app?vid=9038d539-3cd1-4774-ad19-95195325836e"},"vehicle_type_id":"4","last_reported":1748614235,"current_range_meters":14000,"station_id":"ce4bhbp2rcd13ifvqerg","pricing_plan_id":"cebpf4jnsgd1na2vs0mg"},{"bike_id":"358741c1-a919-46a4-a998-b4e14055be8b","system_id":"levelo_inurba_marseille","lat":43.2862,"lon":5.35143,"is_reserved":false,"is_disabled":false,"rental_uris":{"android":"levelo://app?vid=358741c1-a919-46a4-a998-b4e14055be8b","ios":"levelo://app?vid=358741c1-a919-46a4-a998-b4e14055be8b"},"vehicle_type_id":"4","last_reported":1748614235,"current_range_meters":14000,"station_id":"ce4bhch2rcd13ifvqeug","pricing_plan_id":"cebpf4jnsgd1na2vs0mg"},{"bike_id":"066fee4c-3548-41d5-b3dc-29b19bbb0136","system_id":"levelo_inurba_marseille","lat":43.26032,"lon":5.37547,"is_reserved":false,"is_disabled":false,"rental_uris":{"android":"levelo://app?vid=066fee4c-3548-41d5-b3dc-29b19bbb0136","ios":"levelo://app?vid=066fee4c-3548-41d5-b3dc-29b19bbb0136"},"vehicle_type_id":"4","last_reported":1748614235,"current_range_meters":14000,"station_id":"ce4bhgh2rcd13ifvqfa0","pricing_plan_id":"cebpf4jnsgd1na2vs0mg"},{"bike_id":"3ed5c2bb-0885-4b42-8f64-ca5c421e2fc0","system_id":"levelo_inurba_marseille","lat":43.23964,"lon":5.36648,"is_reserved":false,"is_disabled":false,"rental_uris":{"android":"levelo://app?vid=3ed5c2bb-0885-4b42-8f64-ca5c421e2fc0","ios":"levelo://app?vid=3ed5c2bb-0885-4b42-8f64-ca5c421e2fc0"},"vehicle_type_id":"4","last_reported":1748614235,"current_range_meters":14000,"station_id":"ce4bhi12rcd13ifvqfp0","pricing_plan_id":"cebpf4jnsgd1na2vs0mg"},{"bike_id":"7be2354b-6ae0-479f-be18-8c0cf1d8be2e","system_id":"levelo_inurba_marseille","lat":43.25118,"lon":5.40315,"is_reserved":false,"is_disabled":false,"rental_uris":{"android":"levelo://app?vid=7be2354b-6ae0-479f-be18-8c0cf1d8be2e","ios":"levelo://app?vid=7be2354b-6ae0-479f-be18-8c0cf1d8be2e"},"vehicle_type_id":"4","last_reported":1748614235,"current_range_meters":14000,"station_id":"ce4bhlh2rcd13ifvqgig","pricing_plan_id":"cebpf4jnsgd1na2vs0mg"},{"bike_id":"a880c703-54c6-4c7f-a753-2af950420730","system_id":"levelo_inurba_marseille","lat":43.22506,"lon":5.34772,"is_reserved":false,"is_disabled":false,"rental_uris":{"android":"levelo://app?vid=a880c703-54c6-4c7f-a753-2af950420730","ios":"levelo://app?vid=a880c703-54c6-4c7f-a753-2af950420730"},"vehicle_type_id":"4","last_reported":1748614235,"current_range_meters":14000,"station_id":"st_cvj5dfep6f1abm77gieg","pricing_plan_id":"cebpf4jnsgd1na2vs0mg"},{"bike_id":"c5920169-3583-4c5e-acb5-6aee94a72b98","system_id":"levelo_inurba_marseille","lat":43.2119,"lon":5.35092,"is_reserved":false,"is_disabled":false,"rental_uris":{"android":"levelo://app?vid=c5920169-3583-4c5e-acb5-6aee94a72b98","ios":"levelo://app?vid=c5920169-3583-4c5e-acb5-6aee94a72b98"},"vehicle_type_id":"4","last_reported":1748614235,"current_range_meters":14000,"station_id":"st_cvj6sg6p6f1abm77japg","pricing_plan_id":"cebpf4jnsgd1na2vs0mg"},{"bike_id":"caed8174-199f-47b2-a36a-d066cb3c05d1","system_id":"levelo_inurba_marseille","lat":43.26232,"lon":5.37451,"is_reserved":false,"is_disabled":false,"rental_uris":{"android":"levelo://app?vid=caed8174-199f-47b2-a36a-d066cb3c05d1","ios":"levelo://app?vid=caed8174-199f-47b2-a36a-d066cb3c05d1"},"vehicle_type_id":"4","last_reported":1748614235,"current_range_meters":14400,"station_id":"","pricing_plan_id":"cebpf4jnsgd1na2vs0mg"},