{"last_updated":1731780650,"ttl":60,"version":"2.2","data":{"bikes":[{"bike_id":"d6be07c9-c70f-479a-b511-d8b12867ba9b","system_id":"levelo_inurba_marseille","lat":43.28694,"lon":5.37375,"is_reserved":false,"is_disabled":false,"rental_uris":{"android":"levelo://app?vid=d6be07c9-c70f-479a-b511-d8b12867ba9b","ios":"levelo://app?vid=d6be07c9-c70f-479a-b511-d8b12867ba9b"},"vehicle_type_id":"4","last_reported":1731780650,"current_range_meters":38800,"station_id":"ce4bh3p2rcd13ifvqdq0","pricing_plan_id":"cebpf4jnsgd1na2vs0mg"},{"bike_id":"91b8182b-5335-4b93-9267-3c96c19bc443","system_id":"levelo_inurba_marseille","lat":43.28444,"lon":5.39187,"is_reserved":false,"is_disabled":false,"rental_uris":{"android":"levelo://app?vid=91b8182b-5335-4b93-9267-3c96c19bc443","ios":"levelo://app?vid=91b8182b-5335-4b93-9267-3c96c19bc443"},"vehicle_type_id":"4","last_reported":1731780650,"current_range_meters":10000,"station_id":"ce4bhoh2rcd13ifvqh5g","pricing_plan_id":"cebpf4jnsgd1na2vs0mg"},{"bike_id":"137c96a6-b436-40ba-8e6d-f2832ab2b29b","system_id":"levelo_inurba_marseille","lat":43.29247,"lon":5.40909,"is_reserved":false,"is_disabled":false,"rental_uris":{"android":"levelo://app?vid=137c96a6-b436-40ba-8e6d-f2832ab2b29b","ios":"levelo://app?vid=137c96a6-b436-40ba-8e6d-f2832ab2b29b"},"vehicle_type_id":"4","last_reported":1731780650,"current_range_meters":14800,"station_id":"ce4bh192rcd13ifvqdc0","pricing_plan_id":"cebpf4jnsgd1na2vs0mg"},{"bike_id":"565f51a7-c9d5-4f77-bbe6-5cb62c260d23","system_id":"levelo_inurba_marseille","lat":43.29906,"lon":5.38899,"is_reserved":false,"is_disabled":false,"rental_uris":{"android":"levelo://app?vid=565f51a7-c9d5-4f77-bbe6-5cb62c260d23","ios":"levelo://app?vid=565f51a7-c9d5-4f77-bbe6-5cb62c260d23"},"vehicle_type_id":"4","last_reported":1731780650,"current_range_meters":38000,"station_id":"ce4bh392rcd13ifvqdl0","pricing_plan_id":"cebpf4jnsgd1na2vs0mg"},{"bike_id":"12aa5ede-a12c-4041-ba8d-292720f85568","system_id":"levelo_inurba_marseille","lat":43.28925,"lon":5.38385,"is_reserved":false,"is_disabled":false,"rental_uris":{"android":"levelo://app?vid=12aa5ede-a12c-4041-ba8d-292720f85568","ios":"levelo://app?vid=12aa5ede-a12c-4041-ba8d-292720f85568"},"vehicle_type_id":"4","last_reported":1731780650,"current_range_meters":18800,"station_id":"ce4bh612rcd13ifvqe6g","pricing_plan_id":"cebpf4jnsgd1na2vs0mg"},{"bike_id":"2a30a211-4cce-4ce8-a5b4-f56f86813d46","system_id":"levelo_inurba_marseille","lat":43.31073,"lon":5.38359,"is_reserved":false,"is_disabled":false,"rental_uris":{"android":"levelo://app?vid=2a30a211-4cce-4ce8-a5b4-f56f86813d46","ios":"levelo://app?vid=2a30a211-4cce-4ce8-a5b4-f56f86813d46"},"vehicle_type_id":"4","last_reported":1731780650,"current_range_meters":20800,"station_id":"ce4bgv92rcd13ifvqcr0","pricing_plan_id":"cebpf4jnsgd1na2vs0mg"},{"bike_id":"fe7748b6-9d91-4994-bdd2-fe51f904eb01","system_id":"levelo_inurba_marseille","lat":43.29947,"lon":5.3738,"is_reserved":false,"is_disabled":false,"rental_uris":{"android":"levelo://app?vid=fe7748b6-9d91-4994-bdd2-fe51f904eb01","ios":"levelo://app?vid=fe7748b6-9d91-4994-bdd2-fe51f904eb01"},"vehicle_type_id":"4","last_reported":1731780650,"current_range_meters":21600,"station_id":"ce4bgjh2rcd13ifvqbg0","pricing_plan_id":"cebpf4jnsgd1na2vs0mg"},{"bike_id":"43038cfa-c3ef-4248-9250-cdda1bec13e6","system_id":"levelo_inurba_marseille","lat":43.24999,"lon":5.38932,"is_reserved":false,"is_disabled":false,"rental_uris":{"android":"levelo://app?vid=43038cfa-c3ef-4248-9250-cdda1bec13e6","ios":"levelo://app?vid=43038cfa-c3ef-4248-9250-cdda1bec13e6"},"vehicle_type_id":"4","last_reported":1731780650,"current_range_meters":24400,"station_id":"ce4bhgp2rcd13ifvqfd0","pricing_plan_id":"cebpf4jnsgd1na2vs0mg"},{"bike_id":"d9d8a7d9-cde4-4fab-ab69-fcee8fe6a6da","system_id":"levelo_inurba_marseille","lat":43.25015,"lon":5.38915,"is_reserved":false,"is_disabled":false,"rental_uris":{"android":"levelo://app?vid=d9d8a7d9-cde4-4fab-ab69-fcee8fe6a6da","ios":"levelo://app?vid=d9d8a7d9-cde4-4fab-ab69-fcee8fe6a6da"},"vehicle_type_id":"4","last_reported":1731780650,"current_range_meters":12000,"station_id":"ce4bhgp2rcd13ifvqfd0","pricing_plan_id":"cebpf4jnsgd1na2vs0mg"},{"bike_id":"083dbee0-0e04-4a5e-93ff-4f8789a778b7","system_id":"levelo_inurba_marseille","lat":43.2293,"lon":5.35383,"is_reserved":false,"is_disabled":false,"rental_uris":{"android":"levelo://app?vid=083dbee0-0e04-4a5e-93ff-4f8789a778b7","ios":"levelo://app?vid=083dbee0-0e04-4a5e-93ff-4f8789a778b7"},"vehicle_type_id":"4","last_reported":1731780650,"current_range_meters":40000,"station_id":"cpo3532slgdg3j2ikp40","pricing_plan_id":"cebpf4jnsgd1na2vs0mg"},{"bike_id":"8e9c8815-da3e-4c2c-a45a-0993ae1758ce","system_id":"levelo_inurba_marseille","lat":43.28703,"lon":5.37398,"is_reserved":false,"is_disabled":false,"rental_uris":{"android":"levelo://app?vid=8e9c8815-da3e-4c2c-a45a-0993ae1758ce","ios":"levelo://app?vid=8e9c8815-da3e-4c2c-a45a-0993ae1758ce"},"vehicle_type_id":"4","last_reported":1731780650,"current_range_meters":40000,"station_id":"ce4bh3p2rcd13ifvqdq0","pricing_plan_id":"cebpf4jnsgd1na2vs0mg"},{"bike_id":"4c167bc3-2964-4625-adc0-c92e539ad80f","system_id":"levelo_inurba_marseille","lat":43.31368,"lon":5.37429,"is_reserved":false,"is_disabled":false,"rental_uris":{"android":"levelo://app?vid=4c167bc3-2964-4625-adc0-c92e539ad80f","ios":"levelo://app?vid=4c167bc3-2964-4625-adc0-c92e539ad80f"},"vehicle_type_id":"4","last_reported":1731780650,"current_range_meters":38400,"station_id":"","pricing_plan_id":"cebpf4jnsgd1na2vs0mg"},{"bike_id":"fbac4bf3-cc3f-4735-a4b9-b954f06b40d6","system_id":"levelo_inurba_marseille","lat":43.29588,"lon":5.36752,"is_reserved":false,"is_disabled":false,"rental_uris":{"android":"levelo://app?vid=fbac4bf3-cc3f-4735-a4b9-b954f06b40d6","ios":"levelo://app?vid=fbac4bf3-cc3f-4735-a4b9-b954f06b40d6"},"vehicle_type_id":"4","last_reported":1731780650,"current_range_meters":2000,"station_id":"ce4bgph2rcd13ifvqc2g","pricing_plan_id":"cebpf4jnsgd1na2vs0mg"},{"bike_id":"5c8f882d-7a6f-41f6-8199-3c87df3d20ef","system_id":"levelo_inurba_marseille","lat":43.34146,"lon":5.40897,"is_reserved":false,"is_disabled":false,"rental_uris":{"android":"levelo://app?vid=5c8f882d-7a6f-41f6-8199-3c87df3d20ef","ios":"levelo://app?vid=5c8f882d-7a6f-41f6-8199-3c87df3d20ef"},"vehicle_type_id":"4","last_reported":1731780650,"current_range_meters":22000,"station_id":"ce4bhqh2rcd13ifvqhlg","pricing_plan_id":"cebpf4jnsgd1na2vs0mg"},{"bike_id":"53b1720a-db0a-4d15-b749-904a010eb61e","system_id":"levelo_inurba_marseille","lat":43.31537,"lon":5.38031,"is_reserved":false,"is_disabled":false,"rental_uris":{"android":"levelo://app?vid=53b1720a-db0a-4d15-b749-904a010eb61e","ios":"levelo://app?vid=53b1720a-db0a-4d15-b749-904a010eb61e"},"vehicle_type_id":"4","last_reported":1731780650,"current_range_meters":38400,"station_id":"ce4bhsp2rcd13ifvqi50","pricing_plan_id":"cebpf4jnsgd1na2vs0mg"},{"bike_id":"6b0ea79e-cb12-4a50-9845-e4686b3cacc8","system_id":"levelo_inurba_marseille","lat":43.295751,"lon":5.399791,"is_reserved":false,"is_disabled":false,"rental_uris":{"android":"levelo://app?vid=6b0ea79e-cb12-4a50-9845-e4686b3cacc8","ios":"levelo://app?vid=6b0ea79e-cb12-4a50-9845-e4686b3cacc8"},"vehicle_type_id":"4","last_reported":1731780650,"current_range_meters":12800,"station_id":"","pricing_plan_id":"cebpf4jnsgd1na2vs0mg"},{"bike_id":"de1803ab-f938-4433-afc7-ff8590d80fb7","system_id":"levelo_inurba_marseille","lat":43.291982,"lon":5.3932,"is_reserved":false,"is_disabled":false,"rental_uris":{"android":"levelo://app?vid=de1803ab-f938-4433-afc7-ff8590d80fb7","ios":"levelo://app?vid=de1803ab-f938-4433-afc7-ff8590d80fb7"},"vehicle_type_id":"4","last_reported":1731780650,"current_range_meters":38800,"station_id":"ce4bh192rcd13ifvqdd0","pricing_plan_id":"cebpf4jnsgd1na2vs0mg"},{"bike_id":"72499688-a320-4333-843e-c093213a74e4","system_id":"levelo_inurba_marseille","lat":43.23061,"lon":5.35493,"is_reserved":false,"is_disabled":false,"rental_uris":{"android":"levelo://app?vid=72499688-a320-4333-843e-c093213a74e4","ios":"levelo://app?vid=72499688-a320-4333-843e-c093213a74e4"},"vehicle_type_id":"4","last_reported":1731780650,"current_range_meters":8400,"station_id":"cpo3342slgdg3j2ifvpg","pricing_plan_id":"cebpf4jnsgd1na2vs0mg"},{"bike_id":"be7b6632-f3b8-440f-b37a-a743de747592","system_id":"levelo_inurba_marseille","lat":43.25002,"lon":5.38929,"is_reserved":false,"is_disabled":false,"rental_uris":{"android":"levelo://app?vid=be7b6632-f3b8-440f-b37a-a743de747592","ios":"levelo://app?vid=be7b6632-f3b8-440f-b37a-a743de747592"},"vehicle_type_id":"4","last_reported":1731780650,"current_range_meters":33600,"station_id":"ce4bhgp2rcd13ifvqfd0","pricing_plan_id":"cebpf4jnsgd1na2vs0mg"},{"bike_id":"9bdbbea6-de7f-47e2-ad09-75a80ae4f781","system_id":"levelo_inurba_marseille","lat":43.29528,"lon":5.38552,"is_reserved":false,"is_disabled":false,"rental_uris":{"android":"levelo://app?vid=9bdbbea6-de7f-47e2-ad09-75a80ae4f781","ios":"levelo://app?vid=9bdbbea6-de7f-47e2-ad09-75a80ae4f781"},"vehicle_type_id":"4","last_reported":1731780650,"current_range_meters":8000,"station_id":"ce4bgih2rcd13ifvqba0","pricing_plan_id":"cebpf4jnsgd1na2vs0mg"},{"bike_id":"0e1d2e7a-8318-45fe-af1b-31857eb1aac8","system_id":"levelo_inurba_marseille","lat":43.23962,"lon":5.36622,"is_reserved":false,"is_disabled":false,"rental_uris":{"android":"levelo://app?vid=0e1d2e7a-8318-45fe-af1b-31857eb1aac8","ios":"levelo://app?vid=0e1d2e7a-8318-45fe-af1b-31857eb1aac8"},"vehicle_type_id":"4","last_reported":1731780650,"current_range_meters":28400,"station_id":"ce4bhi12rcd13ifvqfp0","pricing_plan_id":"cebpf4jnsgd1na2vs0mg"},{"bike_id":"3ee6405b-3792-499e-89a5-7c338c1ed054","system_id":"levelo_inurba_marseille","lat":43.33611,"lon":5.41035,"is_reserved":false,"is_disabled":false,"rental_uris":{"android":"levelo://app?vid=3ee6405b-3792-499e-89a5-7c338c1ed054","ios":"levelo://app?vid=3ee6405b-3792-499e-89a5-7c338c1ed054"},"vehicle_type_id":"4","last_reported":1731780650,"current_range_meters":34000,"station_id":"ce4bhqh2rcd13ifvqhmg","pricing_plan_id":"cebpf4jnsgd1na2vs0mg"},{"bike_id":"5c63929e-e1d7-44f3-a2c3-9ea2fd6e7f86","system_id":"levelo_inurba_marseille","lat":43.28822,"lon":5.41041,"is_reserved":false,"is_disabled":false,"rental_uris":{"android":"levelo://app?vid=5c63929e-e1d7-44f3-a2c3-9ea2fd6e7f86","ios":"levelo://app?vid=5c63929e-e1d7-44f3-a2c3-9ea2fd6e7f86"},"vehicle_type_id":"4","last_reported":1731780650,"current_range_meters":10000,"station_id":"ce4bhnh2rcd13ifvqgug","pricing_plan_id":"cebpf4jnsgd1na2vs0mg"},{"bike_id":"b6496658-fb6b-45a5-931a-53a18fb4f8b3","system_id":"levelo_inurba_marseille","lat":43.2916,"lon":5.3717,"is_reserved":false,"is_disabled":false,"rental_uris":{"android":"levelo://app?vid=b6496658-fb6b-45a5-931a-53a18fb4f8b3","ios":"levelo://app?vid=b6496658-fb6b-45a5-931a-53a18fb4f8b3"},"vehicle_type_id":"4","last_reported":1731780650,"current_range_meters":3200,"station_id":"ce4bha92rcd13ifvqeh0","pricing_plan_id":"cebpf4jnsgd1na2vs0mg"},{"bike_id":"9285810a-20e7-4d99-a229-aafe61f891bd","system_id":"levelo_inurba_marseille","lat":43.30302,"lon":5.38632,"is_reserved":false,"is_disabled":false,"rental_uris":{"android":"levelo://app?vid=9285810a-20e7-4d99-a229-aafe61f891bd","ios":"levelo://app?vid=9285810a-20e7-4d99-a229-aafe61f891bd"},"vehicle_type_id":"4","last_reported":1731780650,"current_range_meters":16000,"station_id":"","pricing_plan_id":"cebpf4jnsgd1na2vs0mg"},{"bike_id":"2a04060c-c6ee-4885-bc9c-4326b2013a7b","system_id":"levelo_inurba_marseille","lat":43.29423,"lon":5.38626,"is_reserved":false,"is_disabled":false,"rental_uris":{"android":"levelo://app?vid=2a04060c-c6ee-4885-bc9c-4326b2013a7b","ios":"levelo://app?vid=2a04060c-c6ee-4885-bc9c-4326b2013a7b"},"vehicle_type_id":"4","last_reported":1731780650,"current_range_meters":36000,"station_id":"ce4bh2h2rcd13ifvqdh0","pricing_plan_id":"cebpf4jnsgd1na2vs0mg"},{"bike_id":"b73a69d4-735e-4d58-bded-288003cc9f43","system_id":"levelo_inurba_marseille","lat":43.24164,"lon":5.36393,"is_reserved":false,"is_disabled":false,"rental_uris":{"android":"levelo://app?vid=b73a69d4-735e-4d58-bded-288003cc9f43","ios":"levelo://app?vid=b73a69d4-735e-4d58-bded-288003cc9f43"},"vehicle_type_id":"4","last_reported":1731780650,"current_range_meters":36800,"station_id":"cpo36qri1sfpv3e86is0","pricing_plan_id":"cebpf4jnsgd1na2vs0mg"},{"bike_id":"7b4d112e-75c8-42d9-b420-467e02cd9b69","system_id":"levelo_inurba_marseille","lat":43.30087,"lon":5.39096,"is_reserved":false,"is_disabled":false,"rental_uris":{"android":"levelo://app?vid=7b4d112e-75c8-42d9-b420-467e02cd9b69","ios":"levelo://app?vid=7b4d112e-75c8-42d9-b420-467e02cd9b69"},"vehicle_type_id":"4","last_reported":1731780650,"current_range_meters":29600,"station_id":"ce4bh192rcd13ifvqdb0","pricing_plan_id":"cebpf4jnsgd1na2vs0mg"},{"bike_id":"3fcbe528-45e3-439d-80db-ce667e24fe73","system_id":"levelo_inurba_marseille","lat":43.23059,"lon":5.35494,"is_reserved":false,"is_disabled":false,"rental_uris":{"android":"levelo://app?vid=3fcbe528-45e3-439d-80db-ce667e24fe73","ios":"levelo://app?vid=3fcbe528-45e3-439d-80db-ce667e24fe73"},"vehicle_type_id":"4","last_reported":1731780650,"current_range_meters":20800,"station_id":"cpo3342slgdg3j2ifvpg","pricing_plan_id":"cebpf4jnsgd1na2vs0mg"},{"bike_id":"4e95b88b-6c4b-4e62-a3b7-6aba6d9f91df","system_id":"levelo_inurba_marseille","lat":43.31537,"lon":5.38028,"is_reserved":false,"is_disabled":false,"rental_uris":{"android":"levelo://app?vid=4e95b88b-6c4b-4e62-a3b7-6aba6d9f91df","ios":"levelo://app?vid=4e95b88b-6c4b-4e62-a3b7-6aba6d9f91df"},"vehicle_type_id":"4","last_reported":1731780650,"current_range_meters":32800,"station_id":"ce4bhsp2rcd13ifvqi50","pricing_plan_id":"cebpf4jnsgd1na2vs0mg"},{"bike_id":"b2f45d15-d036-4f36-a361-a492e289342e","system_id":"levelo_inurba_marseille","lat":43.22933,"lon":5.35377,"is_reserved":false,"is_disabled":false,"rental_uris":{"android":"levelo://app?vid=b2f45d15-d036-4f36-a361-a492e289342e","ios":"levelo://app?vid=b2f45d15-d036-4f36-a361-a492e289342e"},"vehicle_type_id":"4","last_reported":1731780650,"current_range_meters":38400,"station_id":"cpo3532slgdg3j2ikp40","pricing_plan_id":"cebpf4jnsgd1na2vs0mg"},{"bike_id":"b24daa4a-c960-4b4d-af23-7439fb891afe","system_id":"levelo_inurba_marseille","lat":43.3032,"lon":5.40436,"is_reserved":false,"is_disabled":false,"rental_uris":{"android":"levelo://app?vid=b24daa4a-c960-4b4d-af23-7439fb891afe","ios":"levelo://app?vid=b24daa4a-c960-4b4d-af23-7439fb891afe"},"vehicle_type_id":"4","last_reported":1731780650,"current_range_meters":10000,"station_id":"ce4bh012rcd13ifvqd10","pricing_plan_id":"cebpf4jnsgd1na2vs0mg"},{"bike_id":"5abc6597-eebd-4631-bbb9-53e00142f37a","system_id":"levelo_inurba_marseille","lat":43.28153,"lon":5.42644,"is_reserved":false,"is_disabled":false,"rental_uris":{"android":"levelo://app?vid=5abc6597-eebd-4631-bbb9-53e00142f37a","ios":"levelo://app?vid=5abc6597-eebd-4631-bbb9-53e00142f37a"},"vehicle_type_id":"4","last_reported":1731780650,"current_range_meters":4000,"station_id":"ce4bhnh2rcd13ifvqgug","pricing_plan_id":"cebpf4jnsgd1na2vs0mg"},{"bike_id":"31ca1d08-a150-4c78-95f6-a85784f8ff06","system_id":"levelo_inurba_marseille","lat":43.34129,"lon":5.4091,"is_reserved":false,"is_disabled":false,"rental_uris":{"android":"levelo://app?vid=31ca1d08-a150-4c78-95f6-a85784f8ff06","ios":"levelo://app?vid=31ca1d08-a150-4c78-95f6-a85784f8ff06"},"vehicle_type_id":"4","last_reported":1731780650,"current_range_meters":33600,"station_id":"ce4bhqh2rcd13ifvqhlg","pricing_plan_id":"cebpf4jnsgd1na2vs0mg"},{"bike_id":"e80e8c0f-1427-426f-87d5-e2f196f3e466","system_id":"levelo_inurba_marseille","lat":43.29599,"lon":5.38101,"is_reserved":false,"is_disabled":false,"rental_uris":{"android":"levelo://app?vid=e80e8c0f-1427-426f-87d5-e2f196f3e466","ios":"levelo://app?vid=e80e8c0f-1427-426f-87d5-e2f196f3e466"},"vehicle_type_id":"4","last_reported":1731780650,"current_range_meters":5600,"station_id":"ce4bgl12rcd13ifvqbo0","pricing_plan_id":"cebpf4jnsgd1na2vs0mg"},{"bike_id":"0445ba38-2035-4813-9e7a-fe50a9b9a7a4","system_id":"levelo_inurba_marseille","lat":43.2783,"lon":5.39216,"is_reserved":false,"is_disabled":false,"rental_uris":{"android":"levelo://app?vid=0445ba38-2035-4813-9e7a-fe50a9b9a7a4","ios":"levelo://app?vid=0445ba38-2035-4813-9e7a-fe50a9b9a7a4"},"vehicle_type_id":"4","last_reported":1731780650,"current_range_meters":37600,"station_id":"ce4bhjp2rcd13ifvqga0","pricing_plan_id":"cebpf4jnsgd1na2vs0mg"},{"bike_id":"10d657a8-8cd0-4969-bf72-f4e74655639d","system_id":"levelo_inurba_marseille","lat":43.30286,"lon":5.377021,"is_reserved":false,"is_disabled":false,"rental_uris":{"android":"levelo://app?vid=10d657a8-8cd0-4969-bf72-f4e74655639d","ios":"levelo://app?vid=10d657a8-8cd0-4969-bf72-f4e74655639d"},"vehicle_type_id":"4","last_reported":1731780650,"current_range_meters":8800,"station_id":"ce4bguh2rcd13ifvqcj0","pricing_plan_id":"cebpf4jnsgd1na2vs0mg"},{"bike_id":"8b69564b-3e53-4466-a131-506a49c7729f","system_id":"levelo_inurba_marseille","lat":43.29193,"lon":5.380264,"is_reserved":false,"is_disabled":false,"rental_uris":{"android":"levelo://app?vid=8b69564b-3e53-4466-a131-506a49c7729f","ios":"levelo://app?vid=8b69564b-3e53-4466-a131-506a49c7729f"},"vehicle_type_id":"4","last_reported":1731780650,"current_range_meters":5600,"station_id":"ce4bh3p2rcd13ifvqdp0","pricing_plan_id":"cebpf4jnsgd1na2vs0mg"},{"bike_id":"6d6a0dde-c067-4493-bad2-5ee0d9b9474d","system_id":"levelo_inurba_marseille","lat":43.29295,"lon":5.3747,"is_reserved":false,"is_disabled":false,"rental_uris":{"android":"levelo://app?vid=6d6a0dde-c067-4493-bad2-5ee0d9b9474d","ios":"levelo://app?vid=6d6a0dde-c067-4493-bad2-5ee0d9b9474d"},"vehicle_type_id":"4","last_reported":1731780650,"current_range_meters":35600,"station_id":"ce4bgi12rcd13ifvqb70","pricing_plan_id":"cebpf4jnsgd1na2vs0mg"},{"bike_id":"9f517b98-b68d-4d6d-9fc3-aedb2693f4b3","system_id":"levelo_inurba_marseille","lat":43.29961,"lon":5.38487,"is_reserved":false,"is_disabled":false,"rental_uris":{"android":"levelo://app?vid=9f517b98-b68d-4d6d-9fc3-aedb2693f4b3","ios":"levelo://app?vid=9f517b98-b68d-4d6d-9fc3-aedb2693f4b3"},"vehicle_type_id":"4","last_reported":1731780650,"current_range_meters":18800,"station_id":"ce4bgj92rcd13ifvqbd0","pricing_plan_id":"cebpf4jnsgd1na2vs0mg"},{"bike_id":"0c3da04d-bbeb-4adc-b75e-0ef40b12da9d","system_id":"levelo_inurba_marseille","lat":43.25116,"lon":5.40319,"is_reserved":false,"is_disabled":false,"rental_uris":{"android":"levelo://app?vid=0c3da04d-bbeb-4adc-b75e-0ef40b12da9d","ios":"levelo://app?vid=0c3da04d-bbeb-4adc-b75e-0ef40b12da9d"},"vehicle_type_id":"4","last_reported":1731780650,"current_range_meters":20000,"station_id":"ce4bhlh2rcd13ifvqgig","pricing_plan_id":"cebpf4jnsgd1na2vs0mg"},{"bike_id":"a5b4ef50-227b-41e3-8a78-79dc3d16c66a","system_id":"levelo_inurba_marseille","lat":43.30215,"lon":5.39463,"is_reserved":false,"is_disabled":false,"rental_uris":{"android":"levelo://app?vid=a5b4ef50-227b-41e3-8a78-79dc3d16c66a","ios":"levelo://app?vid=a5b4ef50-227b-41e3-8a78-79dc3d16c66a"},"vehicle_type_id":"4","last_reported":1731780650,"current_range_meters":20400,"station_id":"ce4bh0p2rcd13ifvqd70","pricing_plan_id":"cebpf4jnsgd1na2vs0mg"},{"bike_id":"f4e4b43e-2e45-4477-a41e-7fcacb840a9c","system_id":"levelo_inurba_marseille","lat":43.26198,"lon":5.37934,"is_reserved":false,"is_disabled":false,"rental_uris":{"android":"levelo://app?vid=f4e4b43e-2e45-4477-a41e-7fcacb840a9c","ios":"levelo://app?vid=f4e4b43e-2e45-4477-a41e-7fcacb840a9c"},"vehicle_type_id":"4","last_reported":1731780650,"current_range_meters":14400,"station_id":"ce4bhjp2rcd13ifvqg90","pricing_plan_id":"cebpf4jnsgd1na2vs0mg"},{"bike_id":"2423f2a9-c81e-48f6-8baa-d86e2049c321","system_id":"levelo_inurba_marseille","lat":43.29258,"lon":5.40923,"is_reserved":false,"is_disabled":false,"rental_uris":{"android":"levelo://app?vid=2423f2a9-c81e-48f6-8baa-d86e2049c321","ios":"levelo://app?vid=2423f2a9-c81e-48f6-8baa-d86e2049c321"},"vehicle_type_id":"4","last_reported":1731780650,"current_range_meters":27200,"station_id":"ce4bh192rcd13ifvqdc0","pricing_plan_id":"cebpf4jnsgd1na2vs0mg"},{"bike_id":"ece66c20-7804-4762-8f45-f8f4af9a52a4","system_id":"levelo_inurba_marseille","lat":43.3414,"lon":5.40908,"is_reserved":false,"is_disabled":false,"rental_uris":{"android":"levelo://app?vid=ece66c20-7804-4762-8f45-f8f4af9a52a4","ios":"levelo://app?vid=ece66c20-7804-4762-8f45-f8f4af9a52a4"},"vehicle_type_id":"4","last_reported":1731780650,"current_range_meters":22400,"station_id":"ce4bhqh2rcd13ifvqhlg","pricing_plan_id":"cebpf4jnsgd1na2vs0mg"},{"bike_id":"dc8dc3bd-4d86-4b41-9dd1-b867de5f5630","system_id":"levelo_inurba_marseille","lat":43.296671,"lon":5.378517,"is_reserved":false,"is_disabled":false,"rental_uris":{"android":"levelo://app?vid=dc8dc3bd-4d86-4b41-9dd1-b867de5f5630","ios":"levelo://app?vid=dc8dc3bd-4d86-4b41-9dd1-b867de5f5630"},"vehicle_type_id":"4","last_reported":1731780650,"current_range_meters":11600,"station_id":"ce4bh3p2rcd13ifvqdq0","pricing_plan_id":"cebpf4jnsgd1na2vs0mg"},{"bike_id":"a6f99e63-3ea9-4657-a833-451ede5bc3cb","system_id":"levelo_inurba_marseille","lat":43.30155,"lon":5.39862,"is_reserved":false,"is_disabled":false,"rental_uris":{"android":"levelo://app?vid=a6f99e63-3ea9-4657-a833-451ede5bc3cb","ios":"levelo://app?vid=a6f99e63-3ea9-4657-a833-451ede5bc3cb"},"vehicle_type_id":"4","last_reported":1731780650,"current_range_meters":39200,"station_id":"ce4bh0h2rcd13ifvqd40","pricing_plan_id":"cebpf4jnsgd1na2vs0mg"},{"bike_id":"0b580216-b07f-4821-a19d-686462be0488","system_id":"levelo_inurba_marseille","lat":43.2293,"lon":5.35381,"is_reserved":false,"is_disabled":false,"rental_uris":{"android":"levelo://app?vid=0b580216-b07f-4821-a19d-686462be0488","ios":"levelo://app?vid=0b580216-b07f-4821-a19d-686462be0488"},"vehicle_type_id":"4","last_reported":1731780650,"current_range_meters":38800,"station_id":"cpo3532slgdg3j2ikp40","pricing_plan_id":"cebpf4jnsgd1na2vs0mg"},{"bike_id":"8ec12441-0a09-48b5-9b60-4ec15c08e11c","system_id":"levelo_inurba_marseille","lat":43.23199,"lon":5.39975,"is_reserved":false,"is_disabled":false,"rental_uris":{"android":"levelo://app?vid=8ec12441-0a09-48b5-9b60-4ec15c08e11c","ios":"levelo://app?vid=8ec12441-0a09-48b5-9b60-4ec15c08e11c"},"vehicle_type_id":"4","last_reported":1731780650,"current_range_meters":10800,"station_id":"ce4bhn12rcd13ifvqgqg","pricing_plan_id":"cebpf4jnsgd1na2vs0mg"},{"bike_id":"dc148b60-efee-45c2-af1f-26a46263cd7d","system_id":"levelo_inurba_marseille","lat":43.29833,"lon":5.36246,"is_reserved":false,"is_disabled":false,"rental_uris":{"android":"levelo://app?vid=dc148b60-efee-45c2-af1f-26a46263cd7d","ios":"levelo://app?vid=dc148b60-efee-45c2-af1f-26a46263cd7d"},"vehicle_type_id":"4","last_reported":1731780650,"current_range_meters":30400,"station_id":"ce4bgpp2rcd13ifvqc3g","pricing_plan_id":"cebpf4jnsgd1na2vs0mg"},{"bike_id":"9e80fa8f-f0eb-4404-9b0d-a93074af700f","system_id":"levelo_inurba_marseille","lat":43.24172,"lon":5.36397,"is_reserved":false,"is_disabled":false,"rental_uris":{"android":"levelo://app?vid=9e80fa8f-f0eb-4404-9b0d-a93074af700f","ios":"levelo://app?vid=9e80fa8f-f0eb-4404-9b0d-a93074af700f"},"vehicle_type_id":"4","last_reported":1731780650,"current_range_meters":29600,"station_id":"cpo36qri1sfpv3e86is0","pricing_plan_id":"cebpf4jnsgd1na2vs0mg"},{"bike_id":"5d358c73-88a0-4ea9-ae1c-aeb2ba81ec7f","system_id":"levelo_inurba_marseille","lat":43.26587,"lon":5.39043,"is_reserved":false,"is_disabled":false,"rental_uris":{"android":"levelo://app?vid=5d358c73-88a0-4ea9-ae1c-aeb2ba81ec7f","ios":"levelo://app?vid=5d358c73-88a0-4ea9-ae1c-aeb2ba81ec7f"},"vehicle_type_id":"4","last_reported":1731780650,"current_range_meters":39200,"station_id":"ce4bhe12rcd13ifvqf30","pricing_plan_id":"cebpf4jnsgd1na2vs0mg"},{"bike_id":"4138345b-cc1d-40b0-8916-e8013770729a","system_id":"levelo_inurba_marseille","lat":43.24645,"lon":5.38894,"is_reserved":false,"is_disabled":false,"rental_uris":{"android":"levelo://app?vid=4138345b-cc1d-40b0-8916-e8013770729a","ios":"levelo://app?vid=4138345b-cc1d-40b0-8916-e8013770729a"},"vehicle_type_id":"4","last_reported":1731780650,"current_range_meters":39200,"station_id":"ce4bhg12rcd13ifvqf60","pricing_plan_id":"cebpf4jnsgd1na2vs0mg"},{"bike_id":"edddcd90-7851-442b-8e40-8c2e797c9bb9","system_id":"levelo_inurba_marseille","lat":43.29908,"lon":5.38535,"is_reserved":false,"is_disabled":false,"rental_uris":{"android":"levelo://app?vid=edddcd90-7851-442b-8e40-8c2e797c9bb9","ios":"levelo://app?vid=edddcd90-7851-442b-8e40-8c2e797c9bb9"},"vehicle_type_id":"4","last_reported":1731780650,"current_range_meters":35600,"station_id":"","pricing_plan_id":"cebpf4jnsgd1na2vs0mg"},{"bike_id":"d2cfc3e9-d7d3-4827-bd7c-01e3252d4319","system_id":"levelo_inurba_marseille","lat":43.31535,"lon":5.38035,"is_reserved":false,"is_disabled":false,"rental_uris":{"android":"levelo://app?vid=d2cfc3e9-d7d3-4827-bd7c-01e3252d4319","ios":"levelo://app?vid=d2cfc3e9-d7d3-4827-bd7c-01e3252d4319"},"vehicle_type_id":"4","last_reported":1731780650,"current_range_meters":39200,"station_id":"ce4bhsp2rcd13ifvqi50","pricing_plan_id":"cebpf4jnsgd1na2vs0mg"},{"bike_id":"89c7f0b5-420b-46aa-b8b1-97a7a0871666","system_id":"levelo_inurba_marseille","lat":43.3188,"lon":5.38216,"is_reserved":false,"is_disabled":false,"rental_uris":{"android":"levelo://app?vid=89c7f0b5-420b-46aa-b8b1-97a7a0871666","ios":"levelo://app?vid=89c7f0b5-420b-46aa-b8b1-97a7a0871666"},"vehicle_type_id":"4","last_reported":1731780650,"current_range_meters":14000,"station_id":"","pricing_plan_id":"cebpf4jnsgd1na2vs0mg"},{"bike_id":"ca8542a7-392d-4521-8203-879c6d07ae3f","system_id":"levelo_inurba_marseille","lat":43.30811,"lon":5.37003,"is_reserved":false,"is_disabled":false,"rental_uris":{"android":"levelo://app?vid=ca8542a7-392d-4521-8203-879c6d07ae3f","ios":"levelo://app?vid=ca8542a7-392d-4521-8203-879c6d07ae3f"},"vehicle_type_id":"4","last_reported":1731780650,"current_range_meters":33200,"station_id":"","pricing_plan_id":"cebpf4jnsgd1na2vs0mg"},{"bike_id":"bae81943-f1eb-4f58-8fe3-254cd012d472","system_id":"levelo_inurba_marseille","lat":43.25488,"lon":5.37647,"is_reserved":false,"is_disabled":false,"rental_uris":{"android":"levelo://app?vid=bae81943-f1eb-4f58-8fe3-254cd012d472","ios":"levelo://app?vid=bae81943-f1eb-4f58-8fe3-254cd012d472"},"vehicle_type_id":"4","last_reported":1731780650,"current_range_meters":38800,"station_id":"ce4bhh12rcd13ifvqff0","pricing_plan_id":"cebpf4jnsgd1na2vs0mg"},{"bike_id":"46632805-d598-46ca-8978-4f5e71b702c6","system_id":"levelo_inurba_marseille","lat":43.28156,"lon":5.42636,"is_reserved":false,"is_disabled":false,"rental_uris":{"android":"levelo://app?vid=46632805-d598-46ca-8978-4f5e71b702c6","ios":"levelo://app?vid=46632805-d598-46ca-8978-4f5e71b702c6"},"vehicle_type_id":"4","last_reported":1731780650,"current_range_meters":36800,"station_id":"ce4bhnh2rcd13ifvqgug","pricing_plan_id":"cebpf4jnsgd1na2vs0mg"},{"bike_id":"a6a31327-35ee-44aa-80e9-47de1dc9f4e2","system_id":"levelo_inurba_marseille","lat":43.30422,"lon":5.38901,"is_reserved":false,"is_disabled":false,"rental_uris":{"android":"levelo://app?vid=a6a31327-35ee-44aa-80e9-47de1dc9f4e2","ios":"levelo://app?vid=a6a31327-35ee-44aa-80e9-47de1dc9f4e2"},"vehicle_type_id":"4","last_reported":1731780650,"current_range_meters":23200,"station_id":"ce4bgk12rcd13ifvqbi0","pricing_plan_id":"cebpf4jnsgd1na2vs0mg"},{"bike_id":"328b03f6-cb56-40ba-adb9-9b7acac37b5d","system_id":"levelo_inurba_marseille","lat":43.29596,"lon":5.38096,"is_reserved":false,"is_disabled":false,"rental_uris":{"android":"levelo://app?vid=328b03f6-cb56-40ba-adb9-9b7acac37b5d","ios":"levelo://app?vid=328b03f6-cb56-40ba-adb9-9b7acac37b5d"},"vehicle_type_id":"4","last_reported":1731780650,"current_range_meters":38800,"station_id":"ce4bgl12rcd13ifvqbo0","pricing_plan_id":"cebpf4jnsgd1na2vs0mg"},{"bike_id":"48fe9fcd-4aca-46d4-b126-ef0b6c0f1050","system_id":"levelo_inurba_marseille","lat":43.28823,"lon":5.39317,"is_reserved":false,"is_disabled":false,"rental_uris":{"android":"levelo://app?vid=48fe9fcd-4aca-46d4-b126-ef0b6c0f1050","ios":"levelo://app?vid=48fe9fcd-4aca-46d4-b126-ef0b6c0f1050"},"vehicle_type_id":"4","last_reported":1731780650,"current_range_meters":22800,"station_id":"ce4bh2p2rcd13ifvqdi0","pricing_plan_id":"cebpf4jnsgd1na2vs0mg"},{"bike_id":"a2488f74-f126-4808-a29f-30e15f73a8ff","system_id":"levelo_inurba_marseille","lat":43.28074,"lon":5.39661,"is_reserved":false,"is_disabled":false,"rental_uris":{"android":"levelo://app?vid=a2488f74-f126-4808-a29f-30e15f73a8ff","ios":"levelo://app?vid=a2488f74-f126-4808-a29f-30e15f73a8ff"},"vehicle_type_id":"4","last_reported":1731780650,"current_range_meters":9600,"station_id":"ce4bho12rcd13ifvqh2g","pricing_plan_id":"cebpf4jnsgd1na2vs0mg"},{"bike_id":"d294c6c0-fe13-4943-b29d-176a7b957ac8","system_id":"levelo_inurba_marseille","lat":43.30541,"lon":5.36553,"is_reserved":false,"is_disabled":false,"rental_uris":{"android":"levelo://app?vid=d294c6c0-fe13-4943-b29d-176a7b957ac8","ios":"levelo://app?vid=d294c6c0-fe13-4943-b29d-176a7b957ac8"},"vehicle_type_id":"4","last_reported":1731780650,"current_range_meters":33200,"station_id":"ce4bgs12rcd13ifvqcag","pricing_plan_id":"cebpf4jnsgd1na2vs0mg"},{"bike_id":"b228fd20-f2ea-4fb7-a8af-eff617a89106","system_id":"levelo_inurba_marseille","lat":43.29571,"lon":5.39982,"is_reserved":false,"is_disabled":false,"rental_uris":{"android":"levelo://app?vid=b228fd20-f2ea-4fb7-a8af-eff617a89106","ios":"levelo://app?vid=b228fd20-f2ea-4fb7-a8af-eff617a89106"},"vehicle_type_id":"4","last_reported":1731780650,"current_range_meters":4800,"station_id":"ce4bh312rcd13ifvqdj0","pricing_plan_id":"cebpf4jnsgd1na2vs0mg"},{"bike_id":"09cb9798-9ffd-4b95-9c1a-c7da8c3efec9","system_id":"levelo_inurba_marseille","lat":43.2707,"lon":5.42278,"is_reserved":false,"is_disabled":false,"rental_uris":{"android":"levelo://app?vid=09cb9798-9ffd-4b95-9c1a-c7da8c3efec9","ios":"levelo://app?vid=09cb9798-9ffd-4b95-9c1a-c7da8c3efec9"},"vehicle_type_id":"4","last_reported":1731780650,"current_range_meters":38800,"station_id":"ce4bhk92rcd13ifvqgb0","pricing_plan_id":"cebpf4jnsgd1na2vs0mg"},{"bike_id":"ac54a5d6-3db1-4981-8f47-59368d5d00e0","system_id":"levelo_inurba_marseille","lat":43.29805,"lon":5.38084,"is_reserved":false,"is_disabled":false,"rental_uris":{"android":"levelo://app?vid=ac54a5d6-3db1-4981-8f47-59368d5d00e0","ios":"levelo://app?vid=ac54a5d6-3db1-4981-8f47-59368d5d00e0"},"vehicle_type_id":"4","last_reported":1731780650,"current_range_meters":24000,"station_id":"ce4bgip2rcd13ifvqbb0","pricing_plan_id":"cebpf4jnsgd1na2vs0mg"},{"bike_id":"12867844-fa2a-41b2-8d74-706d4ef15909","system_id":"levelo_inurba_marseille","lat":43.33768,"lon":5.3743,"is_reserved":false,"is_disabled":false,"rental_uris":{"android":"levelo://app?vid=12867844-fa2a-41b2-8d74-706d4ef15909","ios":"levelo://app?vid=12867844-fa2a-41b2-8d74-706d4ef15909"},"vehicle_type_id":"4","last_reported":1731780650,"current_range_meters":36800,"station_id":"","pricing_plan_id":"cebpf4jnsgd1na2vs0mg"},{"bike_id":"3455c789-2e35-4152-8de0-fa613ba872df","system_id":"levelo_inurba_marseille","lat":43.32362,"lon":5.38883,"is_reserved":false,"is_disabled":false,"rental_uris":{"android":"levelo://app?vid=3455c789-2e35-4152-8de0-fa613ba872df","ios":"levelo://app?vid=3455c789-2e35-4152-8de0-fa613ba872df"},"vehicle_type_id":"4","last_reported":1731780650,"current_range_meters":38400,"station_id":"ce4bhqp2rcd13ifvqhog","pricing_plan_id":"cebpf4jnsgd1na2vs0mg"},{"bike_id":"d627bf00-f9a0-4fec-895e-a3aa39ba114e","system_id":"levelo_inurba_marseille","lat":43.29607,"lon":5.38102,"is_reserved":false,"is_disabled":false,"rental_uris":{"android":"levelo://app?vid=d627bf00-f9a0-4fec-895e-a3aa39ba114e","ios":"levelo://app?vid=d627bf00-f9a0-4fec-895e-a3aa39ba114e"},"vehicle_type_id":"4","last_reported":1731780650,"current_range_meters":36000,"station_id":"ce4bgl12rcd13ifvqbo0","pricing_plan_id":"cebpf4jnsgd1na2vs0mg"},{"bike_id":"b9d77e4f-248c-4f1e-80c9-e1cff783ef95","system_id":"levelo_inurba_marseille","lat":43.29606,"lon":5.38126,"is_reserved":false,"is_disabled":false,"rental_uris":{"android":"levelo://app?vid=b9d77e4f-248c-4f1e-80c9-e1cff783ef95","ios":"levelo://app?vid=b9d77e4f-248c-4f1e-80c9-e1cff783ef95"},"vehicle_type_id":"4","last_reported":1731780650,"current_range_meters":38800,"station_id":"ce4bgl12rcd13ifvqbo0","pricing_plan_id":"cebpf4jnsgd1na2vs0mg"},{"bike_id":"7b653ce7-e720-4dfd-b44a-6539bb341b30","system_id":"levelo_inurba_marseille","lat":43.28456,"lon":5.35897,"is_reserved":false,"is_disabled":false,"rental_uris":{"android":"levelo://app?vid=7b653ce7-e720-4dfd-b44a-6539bb341b30","ios":"levelo://app?vid=7b653ce7-e720-4dfd-b44a-6539bb341b30"},"vehicle_type_id":"4","last_reported":1731780650,"current_range_meters":3200,"station_id":"ce4bhah2rcd13ifvqei0","pricing_plan_id":"cebpf4jnsgd1na2vs0mg"},{"bike_id":"0373b315-d828-4b7a-9079-3bd5a9eb0b50","system_id":"levelo_inurba_marseille","lat":43.29633,"lon":5.40596,"is_reserved":false,"is_disabled":false,"rental_uris":{"android":"levelo://app?vid=0373b315-d828-4b7a-9079-3bd5a9eb0b50","ios":"levelo://app?vid=0373b315-d828-4b7a-9079-3bd5a9eb0b50"},"vehicle_type_id":"4","last_reported":1731780650,"current_range_meters":30400,"station_id":"ce4bh0h2rcd13ifvqd60","pricing_plan_id":"cebpf4jnsgd1na2vs0mg"},{"bike_id":"89dddfc4-ec44-4327-b3aa-c350546d94f0","system_id":"levelo_inurba_marseille","lat":43.24814,"lon":5.3746,"is_reserved":false,"is_disabled":false,"rental_uris":{"android":"levelo://app?vid=89dddfc4-ec44-4327-b3aa-c350546d94f0","ios":"levelo://app?vid=89dddfc4-ec44-4327-b3aa-c350546d94f0"},"vehicle_type_id":"4","last_reported":1731780650,"current_range_meters":38800,"station_id":"ce4bhgh2rcd13ifvqfb0","pricing_plan_id":"cebpf4jnsgd1na2vs0mg"},{"bike_id":"b4f0c3a0-9b14-4375-8e12-6df631be02a7","system_id":"levelo_inurba_marseille","lat":43.27374,"lon":5.36255,"is_reserved":false,"is_disabled":false,"rental_uris":{"android":"levelo://app?vid=b4f0c3a0-9b14-4375-8e12-6df631be02a7","ios":"levelo://app?vid=b4f0c3a0-9b14-4375-8e12-6df631be02a7"},"vehicle_type_id":"4","last_reported":1731780650,"current_range_meters":38800,"station_id":"ce4bhbh2rcd13ifvqeo0","pricing_plan_id":"cebpf4jnsgd1na2vs0mg"},{"bike_id":"5d5505be-3a03-4d64-8ce2-797d9a3b3a5b","system_id":"levelo_inurba_marseille","lat":43.27813,"lon":5.40715,"is_reserved":false,"is_disabled":false,"rental_uris":{"android":"levelo://app?vid=5d5505be-3a03-4d64-8ce2-797d9a3b3a5b","ios":"levelo://app?vid=5d5505be-3a03-4d64-8ce2-797d9a3b3a5b"},"vehicle_type_id":"4","last_reported":1731780650,"current_range_meters":20800,"station_id":"ce4bhnh2rcd13ifvqgtg","pricing_plan_id":"cebpf4jnsgd1na2vs0mg"},{"bike_id":"6b76da8b-8346-4b5f-a49b-cdde5bffd08b","system_id":"levelo_inurba_marseille","lat":43.27819,"lon":5.40712,"is_reserved":false,"is_disabled":false,"rental_uris":{"android":"levelo://app?vid=6b76da8b-8346-4b5f-a49b-cdde5bffd08b","ios":"levelo://app?vid=6b76da8b-8346-4b5f-a49b-cdde5bffd08b"},"vehicle_type_id":"4","last_reported":1731780650,"current_range_meters":28800,"station_id":"ce4bhnh2rcd13ifvqgtg","pricing_plan_id":"cebpf4jnsgd1na2vs0mg"},{"bike_id":"9e732a4d-06c5-42dd-826b-4e56caf97d10","system_id":"levelo_inurba_marseille","lat":43.30783,"lon":5.37639,"is_reserved":false,"is_disabled":false,"rental_uris":{"android":"levelo://app?vid=9e732a4d-06c5-42dd-826b-4e56caf97d10","ios":"levelo://app?vid=9e732a4d-06c5-42dd-826b-4e56caf97d10"},"vehicle_type_id":"4","last_reported":1731780650,"current_range_meters":24800,"station_id":"ce4bgv92rcd13ifvqcq0","pricing_plan_id":"cebpf4jnsgd1na2vs0mg"},{"bike_id":"b9f561fd-036c-4d30-82dc-5ad04fc447d6","system_id":"levelo_inurba_marseille","lat":43.29418,"lon":5.38625,"is_reserved":false,"is_disabled":false,"rental_uris":{"android":"levelo://app?vid=b9f561fd-036c-4d30-82dc-5ad04fc447d6","ios":"levelo://app?vid=b9f561fd-036c-4d30-82dc-5ad04fc447d6"},"vehicle_type_id":"4","last_reported":1731780650,"current_range_meters":24000,"station_id":"ce4bh2h2rcd13ifvqdh0","pricing_plan_id":"cebpf4jnsgd1na2vs0mg"},{"bike_id":"809a283f-bc95-40a4-9863-a084b1dc45a4","system_id":"levelo_inurba_marseille","lat":43.29027,"lon":5.38653,"is_reserved":false,"is_disabled":false,"rental_uris":{"android":"levelo://app?vid=809a283f-bc95-40a4-9863-a084b1dc45a4","ios":"levelo://app?vid=809a283f-bc95-40a4-9863-a084b1dc45a4"},"vehicle_type_id":"4","last_reported":1731780650,"current_range_meters":24000,"station_id":"ce4bh4p2rcd13ifvqe0g","pricing_plan_id":"cebpf4jnsgd1na2vs0mg"},{"bike_id":"d457edc8-277c-4518-991c-b399b8cf0adf","system_id":"levelo_inurba_marseille","lat":43.33603,"lon":5.41032,"is_reserved":false,"is_disabled":false,"rental_uris":{"android":"levelo://app?vid=d457edc8-277c-4518-991c-b399b8cf0adf","ios":"levelo://app?vid=d457edc8-277c-4518-991c-b399b8cf0adf"},"vehicle_type_id":"4","last_reported":1731780650,"current_range_meters":18800,"station_id":"ce4bhqh2rcd13ifvqhmg","pricing_plan_id":"cebpf4jnsgd1na2vs0mg"},{"bike_id":"2270d711-3e0c-4574-a8bf-e5faae65aef2","system_id":"levelo_inurba_marseille","lat":43.26595,"lon":5.39037,"is_reserved":false,"is_disabled":false,"rental_uris":{"android":"levelo://app?vid=2270d711-3e0c-4574-a8bf-e5faae65aef2","ios":"levelo://app?vid=2270d711-3e0c-4574-a8bf-e5faae65aef2"},"vehicle_type_id":"4","last_reported":1731780650,"current_range_meters":39200,"station_id":"ce4bhe12rcd13ifvqf30","pricing_plan_id":"cebpf4jnsgd1na2vs0mg"},{"bike_id":"952bd126-1921-439c-96e4-5475560ea94e","system_id":"levelo_inurba_marseille","lat":43.27832,"lon":5.39214,"is_reserved":false,"is_disabled":false,"rental_uris":{"android":"levelo://app?vid=952bd126-1921-439c-96e4-5475560ea94e","ios":"levelo://app?vid=952bd126-1921-439c-96e4-5475560ea94e"},"vehicle_type_id":"4","last_reported":1731780650,"current_range_meters":28400,"station_id":"ce4bhjp2rcd13ifvqga0","pricing_plan_id":"cebpf4jnsgd1na2vs0mg"},{"bike_id":"be5549e0-6a61-4f78-b016-482b2c9514bd","system_id":"levelo_inurba_marseille","lat":43.29051,"lon":5.35908,"is_reserved":false,"is_disabled":false,"rental_uris":{"android":"levelo://app?vid=be5549e0-6a61-4f78-b016-482b2c9514bd","ios":"levelo://app?vid=be5549e0-6a61-4f78-b016-482b2c9514bd"},"vehicle_type_id":"4","last_reported":1731780650,"current_range_meters":7200,"station_id":"ce4bha92rcd13ifvqeg0","pricing_plan_id":"cebpf4jnsgd1na2vs0mg"},{"bike_id":"2cb52dd6-5250-405e-bd2e-32018dd851b2","system_id":"levelo_inurba_marseille","lat":43.28367,"lon":5.38628,"is_reserved":false,"is_disabled":false,"rental_uris":{"android":"levelo://app?vid=2cb52dd6-5250-405e-bd2e-32018dd851b2","ios":"levelo://app?vid=2cb52dd6-5250-405e-bd2e-32018dd851b2"},"vehicle_type_id":"4","last_reported":1731780650,"current_range_meters":39200,"station_id":"ce4bh492rcd13ifvqdvg","pricing_plan_id":"cebpf4jnsgd1na2vs0mg"},{"bike_id":"addeedfd-eb09-4fd9-9027-2c9712d2e7d5","system_id":"levelo_inurba_marseille","lat":43.29259,"lon":5.38436,"is_reserved":false,"is_disabled":false,"rental_uris":{"android":"levelo://app?vid=addeedfd-eb09-4fd9-9027-2c9712d2e7d5","ios":"levelo://app?vid=addeedfd-eb09-4fd9-9027-2c9712d2e7d5"},"vehicle_type_id":"4","last_reported":1731780650,"current_range_meters":6400,"station_id":"ce4bh692rcd13ifvqea0","pricing_plan_id":"cebpf4jnsgd1na2vs0mg"},{"bike_id":"2e9743ca-457b-411e-8f5f-0ec0f7e949b3","system_id":"levelo_inurba_marseille","lat":43.30662,"lon":5.40098,"is_reserved":false,"is_disabled":false,"rental_uris":{"android":"levelo://app?vid=2e9743ca-457b-411e-8f5f-0ec0f7e949b3","ios":"levelo://app?vid=2e9743ca-457b-411e-8f5f-0ec0f7e949b3"},"vehicle_type_id":"4","last_reported":1731780650,"current_range_meters":38400,"station_id":"ce4bh112rcd13ifvqda0","pricing_plan_id":"cebpf4jnsgd1na2vs0mg"},{"bike_id":"b72312a3-0c53-4c51-b2ac-82510a00c53e","system_id":"levelo_inurba_marseille","lat":43.284792,"lon":5.385618,"is_reserved":false,"is_disabled":false,"rental_uris":{"android":"levelo://app?vid=b72312a3-0c53-4c51-b2ac-82510a00c53e","ios":"levelo://app?vid=b72312a3-0c53-4c51-b2ac-82510a00c53e"},"vehicle_type_id":"4","last_reported":1731780650,"current_range_meters":34000,"station_id":"ce4bh8p2rcd13ifvqeb0","pricing_plan_id":"cebpf4jnsgd1na2vs0mg"},{"bike_id":"aa0ad7c0-020e-488f-8ba8-d4230de12a3d","system_id":"levelo_inurba_marseille","lat":43.31268,"lon":5.40167,"is_reserved":false,"is_disabled":false,"rental_uris":{"android":"levelo://app?vid=aa0ad7c0-020e-488f-8ba8-d4230de12a3d","ios":"levelo://app?vid=aa0ad7c0-020e-488f-8ba8-d4230de12a3d"},"vehicle_type_id":"4","last_reported":1731780650,"current_range_meters":37600,"station_id":"ce4bh092rcd13ifvqd30","pricing_plan_id":"cebpf4jnsgd1na2vs0mg"},{"bike_id":"58fa935f-906e-4e7b-a8d1-dfdd9fa0d99a","system_id":"levelo_inurba_marseille","lat":43.29526,"lon":5.38539,"is_reserved":false,"is_disabled":false,"rental_uris":{"android":"levelo://app?vid=58fa935f-906e-4e7b-a8d1-dfdd9fa0d99a","ios":"levelo://app?vid=58fa935f-906e-4e7b-a8d1-dfdd9fa0d99a"},"vehicle_type_id":"4","last_reported":1731780650,"current_range_meters":22400,"station_id":"ce4bgih2rcd13ifvqba0","pricing_plan_id":"cebpf4jnsgd1na2vs0mg"},{"bike_id":"d6029a07-4312-42af-9590-5c6b5c606e61","system_id":"levelo_inurba_marseille","lat":43.25577,"lon":5.38241,"is_reserved":false,"is_disabled":false,"rental_uris":{"android":"levelo://app?vid=d6029a07-4312-42af-9590-5c6b5c606e61","ios":"levelo://app?vid=d6029a07-4312-42af-9590-5c6b5c606e61"},"vehicle_type_id":"4","last_reported":1731780650,"current_range_meters":37600,"station_id":"ce4bhih2rcd13ifvqfs0","pricing_plan_id":"cebpf4jnsgd1na2vs0mg"},{"bike_id":"258f5355-2b2b-4b17-9367-a6f3e3d6181d","system_id":"levelo_inurba_marseille","lat":43.28419,"lon":5.34987,"is_reserved":false,"is_disabled":false,"rental_uris":{"android":"levelo://app?vid=258f5355-2b2b-4b17-9367-a6f3e3d6181d","ios":"levelo://app?vid=258f5355-2b2b-4b17-9367-a6f3e3d6181d"},"vehicle_type_id":"4","last_reported":1731780650,"current_range_meters":4800,"station_id":"ce4bhbh2rcd13ifvqepg","pricing_plan_id":"cebpf4jnsgd1na2vs0mg"},{"bike_id":"76592bfc-9d80-4ca9-9b10-03df50b2419c","system_id":"levelo_inurba_marseille","lat":43.30136,"lon":5.39854,"is_reserved":false,"is_disabled":false,"rental_uris":{"android":"levelo://app?vid=76592bfc-9d80-4ca9-9b10-03df50b2419c","ios":"levelo://app?vid=76592bfc-9d80-4ca9-9b10-03df50b2419c"},"vehicle_type_id":"4","last_reported":1731780650,"current_range_meters":26000,"station_id":"ce4bh0h2rcd13ifvqd40","pricing_plan_id":"cebpf4jnsgd1na2vs0mg"},{"bike_id":"c26153b3-dabb-463a-97e2-9d3e34892dcc","system_id":"levelo_inurba_marseille","lat":43.33024,"lon":5.39049,"is_reserved":false,"is_disabled":false,"rental_uris":{"android":"levelo://app?vid=c26153b3-dabb-463a-97e2-9d3e34892dcc","ios":"levelo://app?vid=c26153b3-dabb-463a-97e2-9d3e34892dcc"},"vehicle_type_id":"4","last_reported":1731780650,"current_range_meters":27600,"station_id":"ce4bhr92rcd13ifvqhrg","pricing_plan_id":"cebpf4jnsgd1na2vs0mg"},{"bike_id":"b4e6c1b5-e1a6-48a7-9a13-24fff75eb7d5","system_id":"levelo_inurba_marseille","lat":43.303036,"lon":5.392151,"is_reserved":false,"is_disabled":false,"rental_uris":{"android":"levelo://app?vid=b4e6c1b5-e1a6-48a7-9a13-24fff75eb7d5","ios":"levelo://app?vid=b4e6c1b5-e1a6-48a7-9a13-24fff75eb7d5"},"vehicle_type_id":"4","last_reported":1731780650,"current_range_meters":30400,"station_id":"ce4bgkh2rcd13ifvqbk0","pricing_plan_id":"cebpf4jnsgd1na2vs0mg"},{"bike_id":"28085e6e-24bb-4c49-bb8e-2c51dd3784a9","system_id":"levelo_inurba_marseille","lat":43.29971,"lon":5.38511,"is_reserved":false,"is_disabled":false,"rental_uris":{"android":"levelo://app?vid=28085e6e-24bb-4c49-bb8e-2c51dd3784a9","ios":"levelo://app?vid=28085e6e-24bb-4c49-bb8e-2c51dd3784a9"},"vehicle_type_id":"4","last_reported":1731780650,"current_range_meters":38800,"station_id":"ce4bgj92rcd13ifvqbd0","pricing_plan_id":"cebpf4jnsgd1na2vs0mg"},{"bike_id":"61eb0401-26b4-4cd0-b94f-86a0e60974b4","system_id":"levelo_inurba_marseille","lat":43.29521,"lon":5.38545,"is_reserved":false,"is_disabled":false,"rental_uris":{"android":"levelo://app?vid=61eb0401-26b4-4cd0-b94f-86a0e60974b4","ios":"levelo://app?vid=61eb0401-26b4-4cd0-b94f-86a0e60974b4"},"vehicle_type_id":"4","last_reported":1731780650,"current_range_meters":19600,"station_id":"ce4bgih2rcd13ifvqba0","pricing_plan_id":"cebpf4jnsgd1na2vs0mg"},{"bike_id":"5392ebd6-00c3-43c5-82c5-4bc675d0ea53","system_id":"levelo_inurba_marseille","lat":43.30666,"lon":5.40082,"is_reserved":false,"is_disabled":false,"rental_uris":{"android":"levelo://app?vid=5392ebd6-00c3-43c5-82c5-4bc675d0ea53","ios":"levelo://app?vid=5392ebd6-00c3-43c5-82c5-4bc675d0ea53"},"vehicle_type_id":"4","last_reported":1731780650,"current_range_meters":27200,"station_id":"ce4bh112rcd13ifvqda0","pricing_plan_id":"cebpf4jnsgd1na2vs0mg"},{"bike_id":"d54f2dfa-2ad2-469a-8720-163ef98eb87d","system_id":"levelo_inurba_marseille","lat":43.25088,"lon":5.39519,"is_reserved":false,"is_disabled":false,"rental_uris":{"android":"levelo://app?vid=d54f2dfa-2ad2-469a-8720-163ef98eb87d","ios":"levelo://app?vid=d54f2dfa-2ad2-469a-8720-163ef98eb87d"},"vehicle_type_id":"4","last_reported":1731780650,"current_range_meters":22400,"station_id":"ce4bhm12rcd13ifvqgkg","pricing_plan_id":"cebpf4jnsgd1na2vs0mg"},{"bike_id":"631a9c43-79f3-4ac2-a348-81cc0fbabe81","system_id":"levelo_inurba_marseille","lat":43.31065,"lon":5.3835,"is_reserved":false,"is_disabled":false,"rental_uris":{"android":"levelo://app?vid=631a9c43-79f3-4ac2-a348-81cc0fbabe81","ios":"levelo://app?vid=631a9c43-79f3-4ac2-a348-81cc0fbabe81"},"vehicle_type_id":"4","last_reported":1731780650,"current_range_meters":6400,"station_id":"ce4bgv92rcd13ifvqcr0","pricing_plan_id":"cebpf4jnsgd1na2vs0mg"},{"bike_id":"634dbc16-8491-4980-baf5-1f3a95f823e2","system_id":"levelo_inurba_marseille","lat":43.29797,"lon":5.40412,"is_reserved":false,"is_disabled":false,"rental_uris":{"android":"levelo://app?vid=634dbc16-8491-4980-baf5-1f3a95f823e2","ios":"levelo://app?vid=634dbc16-8491-4980-baf5-1f3a95f823e2"},"vehicle_type_id":"4","last_reported":1731780650,"current_range_meters":36800,"station_id":"ce4bh112rcd13ifvqd90","pricing_plan_id":"cebpf4jnsgd1na2vs0mg"},{"bike_id":"6ef04d4e-e466-4267-913b-b166fcdaddc7","system_id":"levelo_inurba_marseille","lat":43.31721,"lon":5.42399,"is_reserved":false,"is_disabled":false,"rental_uris":{"android":"levelo://app?vid=6ef04d4e-e466-4267-913b-b166fcdaddc7","ios":"levelo://app?vid=6ef04d4e-e466-4267-913b-b166fcdaddc7"},"vehicle_type_id":"4","last_reported":1731780650,"current_range_meters":25600,"station_id":"ce4bhp92rcd13ifvqhbg","pricing_plan_id":"cebpf4jnsgd1na2vs0mg"},{"bike_id":"6d757fef-4f26-43f9-ac2c-ffab39bf7dae","system_id":"levelo_inurba_marseille","lat":43.32249,"lon":5.36901,"is_reserved":false,"is_disabled":false,"rental_uris":{"android":"levelo://app?vid=6d757fef-4f26-43f9-ac2c-ffab39bf7dae","ios":"levelo://app?vid=6d757fef-4f26-43f9-ac2c-ffab39bf7dae"},"vehicle_type_id":"4","last_reported":1731780650,"current_range_meters":18800,"station_id":"","pricing_plan_id":"cebpf4jnsgd1na2vs0mg"},{"bike_id":"10e8770a-7e7c-48f0-8bdc-b5f989237eaa","system_id":"levelo_inurba_marseille","lat":43.29562,"lon":5.42271,"is_reserved":false,"is_disabled":false,"rental_uris":{"android":"levelo://app?vid=10e8770a-7e7c-48f0-8bdc-b5f989237eaa","ios":"levelo://app?vid=10e8770a-7e7c-48f0-8bdc-b5f989237eaa"},"vehicle_type_id":"4","last_reported":1731780650,"current_range_meters":38800,"station_id":"ce4bhph2rcd13ifvqhdg","pricing_plan_id":"cebpf4jnsgd1na2vs0mg"},{"bike_id":"20f1830f-98c4-40f6-8bdc-f6986cdfa638","system_id":"levelo_inurba_marseille","lat":43.30434,"lon":5.36723,"is_reserved":false,"is_disabled":false,"rental_uris":{"android":"levelo://app?vid=20f1830f-98c4-40f6-8bdc-f6986cdfa638","ios":"levelo://app?vid=20f1830f-98c4-40f6-8bdc-f6986cdfa638"},"vehicle_type_id":"4","last_reported":1731780650,"current_range_meters":36000,"station_id":"","pricing_plan_id":"cebpf4jnsgd1na2vs0mg"},{"bike_id":"a1cb3456-5a8a-4b57-aaab-defec060abf5","system_id":"levelo_inurba_marseille","lat":43.29583,"lon":5.36744,"is_reserved":false,"is_disabled":false,"rental_uris":{"android":"levelo://app?vid=a1cb3456-5a8a-4b57-aaab-defec060abf5","ios":"levelo://app?vid=a1cb3456-5a8a-4b57-aaab-defec060abf5"},"vehicle_type_id":"4","last_reported":1731780650,"current_range_meters":13600,"station_id":"ce4bgph2rcd13ifvqc2g","pricing_plan_id":"cebpf4jnsgd1na2vs0mg"},{"bike_id":"25fa1bce-a871-45b5-938d-08e3402ae84a","system_id":"levelo_inurba_marseille","lat":43.28438,"lon":5.3918,"is_reserved":false,"is_disabled":false,"rental_uris":{"android":"levelo://app?vid=25fa1bce-a871-45b5-938d-08e3402ae84a","ios":"levelo://app?vid=25fa1bce-a871-45b5-938d-08e3402ae84a"},"vehicle_type_id":"4","last_reported":1731780650,"current_range_meters":39200,"station_id":"ce4bhoh2rcd13ifvqh5g","pricing_plan_id":"cebpf4jnsgd1na2vs0mg"},{"bike_id":"180e1e05-f758-41ce-bd24-5696fef1f1d3","system_id":"levelo_inurba_marseille","lat":43.29618,"lon":5.37151,"is_reserved":false,"is_disabled":false,"rental_uris":{"android":"levelo://app?vid=180e1e05-f758-41ce-bd24-5696fef1f1d3","ios":"levelo://app?vid=180e1e05-f758-41ce-bd24-5696fef1f1d3"},"vehicle_type_id":"4","last_reported":1731780650,"current_range_meters":17600,"station_id":"ce4bgnh2rcd13ifvqc0g","pricing_plan_id":"cebpf4jnsgd1na2vs0mg"},{"bike_id":"3cb028b2-e9b4-4b5d-869e-e3723400af16","system_id":"levelo_inurba_marseille","lat":43.33024,"lon":5.39042,"is_reserved":false,"is_disabled":false,"rental_uris":{"android":"levelo://app?vid=3cb028b2-e9b4-4b5d-869e-e3723400af16","ios":"levelo://app?vid=3cb028b2-e9b4-4b5d-869e-e3723400af16"},"vehicle_type_id":"4","last_reported":1731780650,"current_range_meters":36400,"station_id":"ce4bhr92rcd13ifvqhrg","pricing_plan_id":"cebpf4jnsgd1na2vs0mg"},{"bike_id":"a585ac06-f4c8-4495-b753-2550cc35a978","system_id":"levelo_inurba_marseille","lat":43.2799,"lon":5.41659,"is_reserved":false,"is_disabled":false,"rental_uris":{"android":"levelo://app?vid=a585ac06-f4c8-4495-b753-2550cc35a978","ios":"levelo://app?vid=a585ac06-f4c8-4495-b753-2550cc35a978"},"vehicle_type_id":"4","last_reported":1731780650,"current_range_meters":6400,"station_id":"ce4bho12rcd13ifvqh1g","pricing_plan_id":"cebpf4jnsgd1na2vs0mg"},{"bike_id":"aeabefb1-31bd-43e7-bef4-23ffa50940fb","system_id":"levelo_inurba_marseille","lat":43.23965,"lon":5.36632,"is_reserved":false,"is_disabled":false,"rental_uris":{"android":"levelo://app?vid=aeabefb1-31bd-43e7-bef4-23ffa50940fb","ios":"levelo://app?vid=aeabefb1-31bd-43e7-bef4-23ffa50940fb"},"vehicle_type_id":"4","last_reported":1731780650,"current_range_meters":16800,"station_id":"ce4bhi12rcd13ifvqfp0","pricing_plan_id":"cebpf4jnsgd1na2vs0mg"},{"bike_id":"0a5fd5fe-25e8-42f7-9b0d-5721b76ebb9e","system_id":"levelo_inurba_marseille","lat":43.30918,"lon":5.40152,"is_reserved":false,"is_disabled":false,"rental_uris":{"android":"levelo://app?vid=0a5fd5fe-25e8-42f7-9b0d-5721b76ebb9e","ios":"levelo://app?vid=0a5fd5fe-25e8-42f7-9b0d-5721b76ebb9e"},"vehicle_type_id":"4","last_reported":1731780650,"current_range_meters":3600,"station_id":"ce4bgvp2rcd13ifvqct0","pricing_plan_id":"cebpf4jnsgd1na2vs0mg"},{"bike_id":"cc6d78f4-1a1a-4298-a2e6-4cd8256ad633","system_id":"levelo_inurba_marseille","lat":43.29601,"lon":5.38104,"is_reserved":false,"is_disabled":false,"rental_uris":{"android":"levelo://app?vid=cc6d78f4-1a1a-4298-a2e6-4cd8256ad633","ios":"levelo://app?vid=cc6d78f4-1a1a-4298-a2e6-4cd8256ad633"},"vehicle_type_id":"4","last_reported":1731780650,"current_range_meters":28000,"station_id":"ce4bgl12rcd13ifvqbo0","pricing_plan_id":"cebpf4jnsgd1na2vs0mg"},{"bike_id":"7847be02-d678-4754-a29e-2e3c8f7fb572","system_id":"levelo_inurba_marseille","lat":43.29874,"lon":5.38909,"is_reserved":false,"is_disabled":false,"rental_uris":{"android":"levelo://app?vid=7847be02-d678-4754-a29e-2e3c8f7fb572","ios":"levelo://app?vid=7847be02-d678-4754-a29e-2e3c8f7fb572"},"vehicle_type_id":"4","last_reported":1731780650,"current_range_meters":38800,"station_id":"ce4bh392rcd13ifvqdl0","pricing_plan_id":"cebpf4jnsgd1na2vs0mg"},{"bike_id":"731ceed9-9bd6-4a53-a2da-3cd41ca547b7","system_id":"levelo_inurba_marseille","lat":43.3035,"lon":5.41878,"is_reserved":false,"is_disabled":false,"rental_uris":{"android":"levelo://app?vid=731ceed9-9bd6-4a53-a2da-3cd41ca547b7","ios":"levelo://app?vid=731ceed9-9bd6-4a53-a2da-3cd41ca547b7"},"vehicle_type_id":"4","last_reported":1731780650,"current_range_meters":31200,"station_id":"ce4bhop2rcd13ifvqh7g","pricing_plan_id":"cebpf4jnsgd1na2vs0mg"},{"bike_id":"8a485606-2884-4480-b7ef-6988528b4cd6","system_id":"levelo_inurba_marseille","lat":43.30493,"lon":5.381,"is_reserved":false,"is_disabled":false,"rental_uris":{"android":"levelo://app?vid=8a485606-2884-4480-b7ef-6988528b4cd6","ios":"levelo://app?vid=8a485606-2884-4480-b7ef-6988528b4cd6"},"vehicle_type_id":"4","last_reported":1731780650,"current_range_meters":19200,"station_id":"","pricing_plan_id":"cebpf4jnsgd1na2vs0mg"},{"bike_id":"33455612-653a-4c8d-83ce-d44bb2f057ba","system_id":"levelo_inurba_marseille","lat":43.29881,"lon":5.38909,"is_reserved":false,"is_disabled":false,"rental_uris":{"android":"levelo://app?vid=33455612-653a-4c8d-83ce-d44bb2f057ba","ios":"levelo://app?vid=33455612-653a-4c8d-83ce-d44bb2f057ba"},"vehicle_type_id":"4","last_reported":1731780650,"current_range_meters":28000,"station_id":"ce4bh392rcd13ifvqdl0","pricing_plan_id":"cebpf4jnsgd1na2vs0mg"},{"bike_id":"a4e8e96c-867e-4521-9861-087b3f6c78bd","system_id":"levelo_inurba_marseille","lat":43.24991,"lon":5.38929,"is_reserved":false,"is_disabled":false,"rental_uris":{"android":"levelo://app?vid=a4e8e96c-867e-4521-9861-087b3f6c78bd","ios":"levelo://app?vid=a4e8e96c-867e-4521-9861-087b3f6c78bd"},"vehicle_type_id":"4","last_reported":1731780650,"current_range_meters":38800,"station_id":"ce4bhgp2rcd13ifvqfd0","pricing_plan_id":"cebpf4jnsgd1na2vs0mg"},{"bike_id":"4bec674f-80fd-4ca1-9acc-556a79f7dd4f","system_id":"levelo_inurba_marseille","lat":43.313273,"lon":5.396853,"is_reserved":false,"is_disabled":false,"rental_uris":{"android":"levelo://app?vid=4bec674f-80fd-4ca1-9acc-556a79f7dd4f","ios":"levelo://app?vid=4bec674f-80fd-4ca1-9acc-556a79f7dd4f"},"vehicle_type_id":"4","last_reported":1731780650,"current_range_meters":20400,"station_id":"ce4bgvp2rcd13ifvqcu0","pricing_plan_id":"cebpf4jnsgd1na2vs0mg"},{"bike_id":"34086fed-aa86-4e74-a4e7-9fb1ff2b340d","system_id":"levelo_inurba_marseille","lat":43.27178,"lon":5.40991,"is_reserved":false,"is_disabled":false,"rental_uris":{"android":"levelo://app?vid=34086fed-aa86-4e74-a4e7-9fb1ff2b340d","ios":"levelo://app?vid=34086fed-aa86-4e74-a4e7-9fb1ff2b340d"},"vehicle_type_id":"4","last_reported":1731780650,"current_range_meters":38000,"station_id":"ce4bhl12rcd13ifvqgf0","pricing_plan_id":"cebpf4jnsgd1na2vs0mg"},{"bike_id":"781cd583-79a2-4c0e-8743-2513bac4b47c","system_id":"levelo_inurba_marseille","lat":43.26781,"lon":5.39414,"is_reserved":false,"is_disabled":false,"rental_uris":{"android":"levelo://app?vid=781cd583-79a2-4c0e-8743-2513bac4b47c","ios":"levelo://app?vid=781cd583-79a2-4c0e-8743-2513bac4b47c"},"vehicle_type_id":"4","last_reported":1731780650,"current_range_meters":10000,"station_id":"ce4bhh12rcd13ifvqfg0","pricing_plan_id":"cebpf4jnsgd1na2vs0mg"},{"bike_id":"9b99e18b-1cfb-49eb-9130-93a7c80e7907","system_id":"levelo_inurba_marseille","lat":43.24999,"lon":5.3893,"is_reserved":false,"is_disabled":false,"rental_uris":{"android":"levelo://app?vid=9b99e18b-1cfb-49eb-9130-93a7c80e7907","ios":"levelo://app?vid=9b99e18b-1cfb-49eb-9130-93a7c80e7907"},"vehicle_type_id":"4","last_reported":1731780650,"current_range_meters":38800,"station_id":"ce4bhgp2rcd13ifvqfd0","pricing_plan_id":"cebpf4jnsgd1na2vs0mg"},{"bike_id":"61d19ec1-4bcf-41b3-a294-869431422c0e","system_id":"levelo_inurba_marseille","lat":43.3055,"lon":5.36533,"is_reserved":false,"is_disabled":false,"rental_uris":{"android":"levelo://app?vid=61d19ec1-4bcf-41b3-a294-869431422c0e","ios":"levelo://app?vid=61d19ec1-4bcf-41b3-a294-869431422c0e"},"vehicle_type_id":"4","last_reported":1731780650,"current_range_meters":26000,"station_id":"ce4bgs12rcd13ifvqcag","pricing_plan_id":"cebpf4jnsgd1na2vs0mg"},{"bike_id":"53f3493d-aa1d-41ce-974b-f1f6a141cc6a","system_id":"levelo_inurba_marseille","lat":43.31992,"lon":5.38166,"is_reserved":false,"is_disabled":false,"rental_uris":{"android":"levelo://app?vid=53f3493d-aa1d-41ce-974b-f1f6a141cc6a","ios":"levelo://app?vid=53f3493d-aa1d-41ce-974b-f1f6a141cc6a"},"vehicle_type_id":"4","last_reported":1731780650,"current_range_meters":36000,"station_id":"ce4bhr12rcd13ifvqhpg","pricing_plan_id":"cebpf4jnsgd1na2vs0mg"},{"bike_id":"55de28cf-e37c-4724-b81f-8a648780c5b9","system_id":"levelo_inurba_marseille","lat":43.23193,"lon":5.35556,"is_reserved":false,"is_disabled":false,"rental_uris":{"android":"levelo://app?vid=55de28cf-e37c-4724-b81f-8a648780c5b9","ios":"levelo://app?vid=55de28cf-e37c-4724-b81f-8a648780c5b9"},"vehicle_type_id":"4","last_reported":1731780650,"current_range_meters":25600,"station_id":"ce4bhu92rcd13ifvqi70","pricing_plan_id":"cebpf4jnsgd1na2vs0mg"},{"bike_id":"92013f25-a882-4442-97df-7f5c74b2c6da","system_id":"levelo_inurba_marseille","lat":43.276831,"lon":5.389017,"is_reserved":false,"is_disabled":false,"rental_uris":{"android":"levelo://app?vid=92013f25-a882-4442-97df-7f5c74b2c6da","ios":"levelo://app?vid=92013f25-a882-4442-97df-7f5c74b2c6da"},"vehicle_type_id":"4","last_reported":1731780650,"current_range_meters":4400,"station_id":"ce4bhi12rcd13ifvqfo0","pricing_plan_id":"cebpf4jnsgd1na2vs0mg"},{"bike_id":"9f900b2c-2d1b-474f-bfc9-5b2995097c0a","system_id":"levelo_inurba_marseille","lat":43.25087,"lon":5.39516,"is_reserved":false,"is_disabled":false,"rental_uris":{"android":"levelo://app?vid=9f900b2c-2d1b-474f-bfc9-5b2995097c0a","ios":"levelo://app?vid=9f900b2c-2d1b-474f-bfc9-5b2995097c0a"},"vehicle_type_id":"4","last_reported":1731780650,"current_range_meters":16000,"station_id":"ce4bhm12rcd13ifvqgkg","pricing_plan_id":"cebpf4jnsgd1na2vs0mg"},{"bike_id":"e5431fb4-fc17-4a76-82ba-77f8f23d6673","system_id":"levelo_inurba_marseille","lat":43.28416,"lon":5.37519,"is_reserved":false,"is_disabled":false,"rental_uris":{"android":"levelo://app?vid=e5431fb4-fc17-4a76-82ba-77f8f23d6673","ios":"levelo://app?vid=e5431fb4-fc17-4a76-82ba-77f8f23d6673"},"vehicle_type_id":"4","last_reported":1731780650,"current_range_meters":31200,"station_id":"ce4bh412rcd13ifvqds0","pricing_plan_id":"cebpf4jnsgd1na2vs0mg"},{"bike_id":"9cac2ab8-c5a9-407a-a660-a6be3b9e52fd","system_id":"levelo_inurba_marseille","lat":43.30133,"lon":5.38782,"is_reserved":false,"is_disabled":false,"rental_uris":{"android":"levelo://app?vid=9cac2ab8-c5a9-407a-a660-a6be3b9e52fd","ios":"levelo://app?vid=9cac2ab8-c5a9-407a-a660-a6be3b9e52fd"},"vehicle_type_id":"4","last_reported":1731780650,"current_range_meters":16400,"station_id":"ce4bghh2rcd13ifvqb60","pricing_plan_id":"cebpf4jnsgd1na2vs0mg"},{"bike_id":"d99c76e7-a4ff-42ce-9645-32c72feab23f","system_id":"levelo_inurba_marseille","lat":43.28151,"lon":5.42641,"is_reserved":false,"is_disabled":false,"rental_uris":{"android":"levelo://app?vid=d99c76e7-a4ff-42ce-9645-32c72feab23f","ios":"levelo://app?vid=d99c76e7-a4ff-42ce-9645-32c72feab23f"},"vehicle_type_id":"4","last_reported":1731780650,"current_range_meters":16800,"station_id":"ce4bhnh2rcd13ifvqgug","pricing_plan_id":"cebpf4jnsgd1na2vs0mg"},{"bike_id":"2435da41-d74a-416b-a90b-a1cf3e7dcb5f","system_id":"levelo_inurba_marseille","lat":43.282363,"lon":5.385495,"is_reserved":false,"is_disabled":false,"rental_uris":{"android":"levelo://app?vid=2435da41-d74a-416b-a90b-a1cf3e7dcb5f","ios":"levelo://app?vid=2435da41-d74a-416b-a90b-a1cf3e7dcb5f"},"vehicle_type_id":"4","last_reported":1731780650,"current_range_meters":12800,"station_id":"","pricing_plan_id":"cebpf4jnsgd1na2vs0mg"},{"bike_id":"f3fe112d-bf29-4621-a795-f193f2d2276c","system_id":"levelo_inurba_marseille","lat":43.24658,"lon":5.38166,"is_reserved":false,"is_disabled":false,"rental_uris":{"android":"levelo://app?vid=f3fe112d-bf29-4621-a795-f193f2d2276c","ios":"levelo://app?vid=f3fe112d-bf29-4621-a795-f193f2d2276c"},"vehicle_type_id":"4","last_reported":1731780650,"current_range_meters":20400,"station_id":"ce4bhih2rcd13ifvqfr0","pricing_plan_id":"cebpf4jnsgd1na2vs0mg"},{"bike_id":"e355a415-719c-493f-b7be-34adb1f180bc","system_id":"levelo_inurba_marseille","lat":43.29524,"lon":5.38545,"is_reserved":false,"is_disabled":false,"rental_uris":{"android":"levelo://app?vid=e355a415-719c-493f-b7be-34adb1f180bc","ios":"levelo://app?vid=e355a415-719c-493f-b7be-34adb1f180bc"},"vehicle_type_id":"4","last_reported":1731780650,"current_range_meters":22800,"station_id":"ce4bgih2rcd13ifvqba0","pricing_plan_id":"cebpf4jnsgd1na2vs0mg"},{"bike_id":"eb9a84f5-6092-4dc4-a3c0-a07efb437c77","system_id":"levelo_inurba_marseille","lat":43.33774,"lon":5.37439,"is_reserved":false,"is_disabled":false,"rental_uris":{"android":"levelo://app?vid=eb9a84f5-6092-4dc4-a3c0-a07efb437c77","ios":"levelo://app?vid=eb9a84f5-6092-4dc4-a3c0-a07efb437c77"},"vehicle_type_id":"4","last_reported":1731780650,"current_range_meters":9200,"station_id":"","pricing_plan_id":"cebpf4jnsgd1na2vs0mg"},{"bike_id":"aaa16ae6-ba8d-4484-8cf1-b98e0f6847a4","system_id":"levelo_inurba_marseille","lat":43.2408,"lon":5.37756,"is_reserved":false,"is_disabled":false,"rental_uris":{"android":"levelo://app?vid=aaa16ae6-ba8d-4484-8cf1-b98e0f6847a4","ios":"levelo://app?vid=aaa16ae6-ba8d-4484-8cf1-b98e0f6847a4"},"vehicle_type_id":"4","last_reported":1731780650,"current_range_meters":16400,"station_id":"ce4bhnp2rcd13ifvqgvg","pricing_plan_id":"cebpf4jnsgd1na2vs0mg"},{"bike_id":"22ea48db-755d-43c3-a7d2-0beff01815d8","system_id":"levelo_inurba_marseille","lat":43.33772,"lon":5.37435,"is_reserved":false,"is_disabled":false,"rental_uris":{"android":"levelo://app?vid=22ea48db-755d-43c3-a7d2-0beff01815d8","ios":"levelo://app?vid=22ea48db-755d-43c3-a7d2-0beff01815d8"},"vehicle_type_id":"4","last_reported":1731780650,"current_range_meters":12000,"station_id":"","pricing_plan_id":"cebpf4jnsgd1na2vs0mg"},{"bike_id":"b4076924-95e1-4670-8052-a245348dc9ce","system_id":"levelo_inurba_marseille","lat":43.27815,"lon":5.4072,"is_reserved":false,"is_disabled":false,"rental_uris":{"android":"levelo://app?vid=b4076924-95e1-4670-8052-a245348dc9ce","ios":"levelo://app?vid=b4076924-95e1-4670-8052-a245348dc9ce"},"vehicle_type_id":"4","last_reported":1731780650,"current_range_meters":8400,"station_id":"ce4bhnh2rcd13ifvqgtg","pricing_plan_id":"cebpf4jnsgd1na2vs0mg"},{"bike_id":"28c8fbbd-de42-48e6-8ec5-1a0b47f0dcae","system_id":"levelo_inurba_marseille","lat":43.29797,"lon":5.38105,"is_reserved":false,"is_disabled":false,"rental_uris":{"android":"levelo://app?vid=28c8fbbd-de42-48e6-8ec5-1a0b47f0dcae","ios":"levelo://app?vid=28c8fbbd-de42-48e6-8ec5-1a0b47f0dcae"},"vehicle_type_id":"4","last_reported":1731780650,"current_range_meters":10000,"station_id":"ce4bgip2rcd13ifvqbb0","pricing_plan_id":"cebpf4jnsgd1na2vs0mg"},{"bike_id":"d503e50a-86c7-4c22-8e03-b09f541cca89","system_id":"levelo_inurba_marseille","lat":43.30559,"lon":5.36533,"is_reserved":false,"is_disabled":false,"rental_uris":{"android":"levelo://app?vid=d503e50a-86c7-4c22-8e03-b09f541cca89","ios":"levelo://app?vid=d503e50a-86c7-4c22-8e03-b09f541cca89"},"vehicle_type_id":"4","last_reported":1731780650,"current_range_meters":16000,"station_id":"ce4bgs12rcd13ifvqcag","pricing_plan_id":"cebpf4jnsgd1na2vs0mg"},{"bike_id":"a1862017-f597-4949-a306-4d7c53cc8b86","system_id":"levelo_inurba_marseille","lat":43.24169,"lon":5.364,"is_reserved":false,"is_disabled":false,"rental_uris":{"android":"levelo://app?vid=a1862017-f597-4949-a306-4d7c53cc8b86","ios":"levelo://app?vid=a1862017-f597-4949-a306-4d7c53cc8b86"},"vehicle_type_id":"4","last_reported":1731780650,"current_range_meters":12000,"station_id":"cpo36qri1sfpv3e86is0","pricing_plan_id":"cebpf4jnsgd1na2vs0mg"},{"bike_id":"93d2376b-d24b-4c4a-bf7c-d9d7da5c25f0","system_id":"levelo_inurba_marseille","lat":43.23055,"lon":5.35493,"is_reserved":false,"is_disabled":false,"rental_uris":{"android":"levelo://app?vid=93d2376b-d24b-4c4a-bf7c-d9d7da5c25f0","ios":"levelo://app?vid=93d2376b-d24b-4c4a-bf7c-d9d7da5c25f0"},"vehicle_type_id":"4","last_reported":1731780650,"current_range_meters":15200,"station_id":"cpo3342slgdg3j2ifvpg","pricing_plan_id":"cebpf4jnsgd1na2vs0mg"},{"bike_id":"c57e7b98-4ef3-401c-b08a-dc58040a3e50","system_id":"levelo_inurba_marseille","lat":43.26931,"lon":5.38918,"is_reserved":false,"is_disabled":false,"rental_uris":{"android":"levelo://app?vid=c57e7b98-4ef3-401c-b08a-dc58040a3e50","ios":"levelo://app?vid=c57e7b98-4ef3-401c-b08a-dc58040a3e50"},"vehicle_type_id":"4","last_reported":1731780650,"current_range_meters":31200,"station_id":"ce4bhhh2rcd13ifvqfl0","pricing_plan_id":"cebpf4jnsgd1na2vs0mg"},{"bike_id":"eb0b6258-25b5-4174-825d-16bccd206154","system_id":"levelo_inurba_marseille","lat":43.33029,"lon":5.39045,"is_reserved":false,"is_disabled":false,"rental_uris":{"android":"levelo://app?vid=eb0b6258-25b5-4174-825d-16bccd206154","ios":"levelo://app?vid=eb0b6258-25b5-4174-825d-16bccd206154"},"vehicle_type_id":"4","last_reported":1731780650,"current_range_meters":8400,"station_id":"ce4bhr92rcd13ifvqhrg","pricing_plan_id":"cebpf4jnsgd1na2vs0mg"},{"bike_id":"ca655f3b-8380-4045-b3f8-8acaa0e83ede","system_id":"levelo_inurba_marseille","lat":43.33739,"lon":5.37423,"is_reserved":false,"is_disabled":false,"rental_uris":{"android":"levelo://app?vid=ca655f3b-8380-4045-b3f8-8acaa0e83ede","ios":"levelo://app?vid=ca655f3b-8380-4045-b3f8-8acaa0e83ede"},"vehicle_type_id":"4","last_reported":1731780650,"current_range_meters":36400,"station_id":"","pricing_plan_id":"cebpf4jnsgd1na2vs0mg"},{"bike_id":"3bec9701-1266-4cd8-9789-f238163e8695","system_id":"levelo_inurba_marseille","lat":43.324766,"lon":5.365608,"is_reserved":false,"is_disabled":false,"rental_uris":{"android":"levelo://app?vid=3bec9701-1266-4cd8-9789-f238163e8695","ios":"levelo://app?vid=3bec9701-1266-4cd8-9789-f238163e8695"},"vehicle_type_id":"4","last_reported":1731780650,"current_range_meters":38800,"station_id":"ce4bhs12rcd13ifvqhvg","pricing_plan_id":"cebpf4jnsgd1na2vs0mg"},{"bike_id":"a6b8c285-acc9-4039-9531-1aae39136a33","system_id":"levelo_inurba_marseille","lat":43.312042,"lon":5.367348,"is_reserved":false,"is_disabled":false,"rental_uris":{"android":"levelo://app?vid=a6b8c285-acc9-4039-9531-1aae39136a33","ios":"levelo://app?vid=a6b8c285-acc9-4039-9531-1aae39136a33"},"vehicle_type_id":"4","last_reported":1731780650,"current_range_meters":14000,"station_id":"","pricing_plan_id":"cebpf4jnsgd1na2vs0mg"},{"bike_id":"9bcfed07-c3a6-4c68-8e2e-1c76df283863","system_id":"levelo_inurba_marseille","lat":43.24809,"lon":5.37464,"is_reserved":false,"is_disabled":false,"rental_uris":{"android":"levelo://app?vid=9bcfed07-c3a6-4c68-8e2e-1c76df283863","ios":"levelo://app?vid=9bcfed07-c3a6-4c68-8e2e-1c76df283863"},"vehicle_type_id":"4","last_reported":1731780650,"current_range_meters":28400,"station_id":"ce4bhgh2rcd13ifvqfb0","pricing_plan_id":"cebpf4jnsgd1na2vs0mg"},{"bike_id":"5c254126-8805-4ed8-9520-9f63561143b3","system_id":"levelo_inurba_marseille","lat":43.24167,"lon":5.36401,"is_reserved":false,"is_disabled":false,"rental_uris":{"android":"levelo://app?vid=5c254126-8805-4ed8-9520-9f63561143b3","ios":"levelo://app?vid=5c254126-8805-4ed8-9520-9f63561143b3"},"vehicle_type_id":"4","last_reported":1731780650,"current_range_meters":19600,"station_id":"cpo36qri1sfpv3e86is0","pricing_plan_id":"cebpf4jnsgd1na2vs0mg"},{"bike_id":"b20c2f60-9544-4da8-84fe-236810634080","system_id":"levelo_inurba_marseille","lat":43.25001,"lon":5.38924,"is_reserved":false,"is_disabled":false,"rental_uris":{"android":"levelo://app?vid=b20c2f60-9544-4da8-84fe-236810634080","ios":"levelo://app?vid=b20c2f60-9544-4da8-84fe-236810634080"},"vehicle_type_id":"4","last_reported":1731780650,"current_range_meters":28800,"station_id":"ce4bhgp2rcd13ifvqfd0","pricing_plan_id":"cebpf4jnsgd1na2vs0mg"},{"bike_id":"a6a073a3-29b7-4484-87c1-444d9a2c0b4a","system_id":"levelo_inurba_marseille","lat":43.29258,"lon":5.38444,"is_reserved":false,"is_disabled":false,"rental_uris":{"android":"levelo://app?vid=a6a073a3-29b7-4484-87c1-444d9a2c0b4a","ios":"levelo://app?vid=a6a073a3-29b7-4484-87c1-444d9a2c0b4a"},"vehicle_type_id":"4","last_reported":1731780650,"current_range_meters":28000,"station_id":"ce4bh692rcd13ifvqea0","pricing_plan_id":"cebpf4jnsgd1na2vs0mg"},{"bike_id":"776c19bb-9271-4d1b-b450-71b28ade05f5","system_id":"levelo_inurba_marseille","lat":43.23169,"lon":5.35592,"is_reserved":false,"is_disabled":false,"rental_uris":{"android":"levelo://app?vid=776c19bb-9271-4d1b-b450-71b28ade05f5","ios":"levelo://app?vid=776c19bb-9271-4d1b-b450-71b28ade05f5"},"vehicle_type_id":"4","last_reported":1731780650,"current_range_meters":38000,"station_id":"ce4bhu92rcd13ifvqi70","pricing_plan_id":"cebpf4jnsgd1na2vs0mg"},{"bike_id":"3731846e-2218-45f1-ac96-76a41185ff9d","system_id":"levelo_inurba_marseille","lat":43.24171,"lon":5.36405,"is_reserved":false,"is_disabled":false,"rental_uris":{"android":"levelo://app?vid=3731846e-2218-45f1-ac96-76a41185ff9d","ios":"levelo://app?vid=3731846e-2218-45f1-ac96-76a41185ff9d"},"vehicle_type_id":"4","last_reported":1731780650,"current_range_meters":38800,"station_id":"cpo36qri1sfpv3e86is0","pricing_plan_id":"cebpf4jnsgd1na2vs0mg"},{"bike_id":"b497c4c1-47c5-46df-89b4-3a0f01d4aeca","system_id":"levelo_inurba_marseille","lat":43.32109,"lon":5.36772,"is_reserved":false,"is_disabled":false,"rental_uris":{"android":"levelo://app?vid=b497c4c1-47c5-46df-89b4-3a0f01d4aeca","ios":"levelo://app?vid=b497c4c1-47c5-46df-89b4-3a0f01d4aeca"},"vehicle_type_id":"4","last_reported":1731780650,"current_range_meters":27600,"station_id":"ce4bhrh2rcd13ifvqhug","pricing_plan_id":"cebpf4jnsgd1na2vs0mg"},{"bike_id":"92ac4858-87d6-4ceb-8f6e-004635a816a8","system_id":"levelo_inurba_marseille","lat":43.27792,"lon":5.40724,"is_reserved":false,"is_disabled":false,"rental_uris":{"android":"levelo://app?vid=92ac4858-87d6-4ceb-8f6e-004635a816a8","ios":"levelo://app?vid=92ac4858-87d6-4ceb-8f6e-004635a816a8"},"vehicle_type_id":"4","last_reported":1731780650,"current_range_meters":30400,"station_id":"ce4bhnh2rcd13ifvqgtg","pricing_plan_id":"cebpf4jnsgd1na2vs0mg"},{"bike_id":"46a1c268-93ce-4edc-9cec-00798270020c","system_id":"levelo_inurba_marseille","lat":43.265772,"lon":5.39004,"is_reserved":false,"is_disabled":false,"rental_uris":{"android":"levelo://app?vid=46a1c268-93ce-4edc-9cec-00798270020c","ios":"levelo://app?vid=46a1c268-93ce-4edc-9cec-00798270020c"},"vehicle_type_id":"4","last_reported":1731780650,"current_range_meters":39200,"station_id":"ce4bhe12rcd13ifvqf30","pricing_plan_id":"cebpf4jnsgd1na2vs0mg"},{"bike_id":"5837896b-5dca-4d49-b05e-cc1583710155","system_id":"levelo_inurba_marseille","lat":43.24994,"lon":5.38932,"is_reserved":false,"is_disabled":false,"rental_uris":{"android":"levelo://app?vid=5837896b-5dca-4d49-b05e-cc1583710155","ios":"levelo://app?vid=5837896b-5dca-4d49-b05e-cc1583710155"},"vehicle_type_id":"4","last_reported":1731780650,"current_range_meters":35600,"station_id":"ce4bhgp2rcd13ifvqfd0","pricing_plan_id":"cebpf4jnsgd1na2vs0mg"},{"bike_id":"41b56539-4f7d-46d8-9fa9-3498d0d1f67f","system_id":"levelo_inurba_marseille","lat":43.24171,"lon":5.36402,"is_reserved":false,"is_disabled":false,"rental_uris":{"android":"levelo://app?vid=41b56539-4f7d-46d8-9fa9-3498d0d1f67f","ios":"levelo://app?vid=41b56539-4f7d-46d8-9fa9-3498d0d1f67f"},"vehicle_type_id":"4","last_reported":1731780650,"current_range_meters":18800,"station_id":"cpo36qri1sfpv3e86is0","pricing_plan_id":"cebpf4jnsgd1na2vs0mg"},{"bike_id":"fe54786d-fa39-4189-bcc9-1fda09522774","system_id":"levelo_inurba_marseille","lat":43.29041,"lon":5.38627,"is_reserved":false,"is_disabled":false,"rental_uris":{"android":"levelo://app?vid=fe54786d-fa39-4189-bcc9-1fda09522774","ios":"levelo://app?vid=fe54786d-fa39-4189-bcc9-1fda09522774"},"vehicle_type_id":"4","last_reported":1731780650,"current_range_meters":30800,"station_id":"ce4bh4p2rcd13ifvqe0g","pricing_plan_id":"cebpf4jnsgd1na2vs0mg"},{"bike_id":"4f072872-5e38-4a4b-9811-1d9e60a837c4","system_id":"levelo_inurba_marseille","lat":43.23072,"lon":5.35495,"is_reserved":false,"is_disabled":false,"rental_uris":{"android":"levelo://app?vid=4f072872-5e38-4a4b-9811-1d9e60a837c4","ios":"levelo://app?vid=4f072872-5e38-4a4b-9811-1d9e60a837c4"},"vehicle_type_id":"4","last_reported":1731780650,"current_range_meters":10000,"station_id":"cpo3342slgdg3j2ifvpg","pricing_plan_id":"cebpf4jnsgd1na2vs0mg"},{"bike_id":"21383402-24e9-4441-aa76-14cd9507f776","system_id":"levelo_inurba_marseille","lat":43.26955,"lon":5.38628,"is_reserved":false,"is_disabled":false,"rental_uris":{"android":"levelo://app?vid=21383402-24e9-4441-aa76-14cd9507f776","ios":"levelo://app?vid=21383402-24e9-4441-aa76-14cd9507f776"},"vehicle_type_id":"4","last_reported":1731780650,"current_range_meters":39200,"station_id":"ce4bhh92rcd13ifvqfh0","pricing_plan_id":"cebpf4jnsgd1na2vs0mg"},{"bike_id":"a925a68e-f982-4993-9184-96298fb198c2","system_id":"levelo_inurba_marseille","lat":43.31998,"lon":5.38164,"is_reserved":false,"is_disabled":false,"rental_uris":{"android":"levelo://app?vid=a925a68e-f982-4993-9184-96298fb198c2","ios":"levelo://app?vid=a925a68e-f982-4993-9184-96298fb198c2"},"vehicle_type_id":"4","last_reported":1731780650,"current_range_meters":22000,"station_id":"ce4bhr12rcd13ifvqhpg","pricing_plan_id":"cebpf4jnsgd1na2vs0mg"},{"bike_id":"e79c1d71-1ce6-4d60-8fff-1fc1acef8ee4","system_id":"levelo_inurba_marseille","lat":43.23959,"lon":5.36631,"is_reserved":false,"is_disabled":false,"rental_uris":{"android":"levelo://app?vid=e79c1d71-1ce6-4d60-8fff-1fc1acef8ee4","ios":"levelo://app?vid=e79c1d71-1ce6-4d60-8fff-1fc1acef8ee4"},"vehicle_type_id":"4","last_reported":1731780650,"current_range_meters":22800,"station_id":"ce4bhi12rcd13ifvqfp0","pricing_plan_id":"cebpf4jnsgd1na2vs0mg"},{"bike_id":"078df6ce-6d07-4116-b603-4ad6083763d7","system_id":"levelo_inurba_marseille","lat":43.28402,"lon":5.37506,"is_reserved":false,"is_disabled":false,"rental_uris":{"android":"levelo://app?vid=078df6ce-6d07-4116-b603-4ad6083763d7","ios":"levelo://app?vid=078df6ce-6d07-4116-b603-4ad6083763d7"},"vehicle_type_id":"4","last_reported":1731780650,"current_range_meters":30800,"station_id":"ce4bh412rcd13ifvqds0","pricing_plan_id":"cebpf4jnsgd1na2vs0mg"},{"bike_id":"a84f5389-258d-4508-9c0f-32ee5d326b43","system_id":"levelo_inurba_marseille","lat":43.33767,"lon":5.37475,"is_reserved":false,"is_disabled":false,"rental_uris":{"android":"levelo://app?vid=a84f5389-258d-4508-9c0f-32ee5d326b43","ios":"levelo://app?vid=a84f5389-258d-4508-9c0f-32ee5d326b43"},"vehicle_type_id":"4","last_reported":1731780650,"current_range_meters":33200,"station_id":"","pricing_plan_id":"cebpf4jnsgd1na2vs0mg"},{"bike_id":"677b1346-6b24-4862-a336-1a90171c8f18","system_id":"levelo_inurba_marseille","lat":43.250887,"lon":5.395196,"is_reserved":false,"is_disabled":false,"rental_uris":{"android":"levelo://app?vid=677b1346-6b24-4862-a336-1a90171c8f18","ios":"levelo://app?vid=677b1346-6b24-4862-a336-1a90171c8f18"},"vehicle_type_id":"4","last_reported":1731780650,"current_range_meters":38800,"station_id":"ce4bhm12rcd13ifvqgkg","pricing_plan_id":"cebpf4jnsgd1na2vs0mg"},{"bike_id":"382b4f83-5661-4d99-8a45-dd37126a30b9","system_id":"levelo_inurba_marseille","lat":43.29589,"lon":5.38108,"is_reserved":false,"is_disabled":false,"rental_uris":{"android":"levelo://app?vid=382b4f83-5661-4d99-8a45-dd37126a30b9","ios":"levelo://app?vid=382b4f83-5661-4d99-8a45-dd37126a30b9"},"vehicle_type_id":"4","last_reported":1731780650,"current_range_meters":36800,"station_id":"ce4bgl12rcd13ifvqbo0","pricing_plan_id":"cebpf4jnsgd1na2vs0mg"},{"bike_id":"a8903aa5-61b0-4cab-ade5-a80d6706ea54","system_id":"levelo_inurba_marseille","lat":43.31079,"lon":5.42433,"is_reserved":false,"is_disabled":false,"rental_uris":{"android":"levelo://app?vid=a8903aa5-61b0-4cab-ade5-a80d6706ea54","ios":"levelo://app?vid=a8903aa5-61b0-4cab-ade5-a80d6706ea54"},"vehicle_type_id":"4","last_reported":1731780650,"current_range_meters":24800,"station_id":"ce4bhp92rcd13ifvqhag","pricing_plan_id":"cebpf4jnsgd1na2vs0mg"},{"bike_id":"b5ce9235-4ffb-4d40-a9ab-7ab7ce5a79f6","system_id":"levelo_inurba_marseille","lat":43.24813,"lon":5.37465,"is_reserved":false,"is_disabled":false,"rental_uris":{"android":"levelo://app?vid=b5ce9235-4ffb-4d40-a9ab-7ab7ce5a79f6","ios":"levelo://app?vid=b5ce9235-4ffb-4d40-a9ab-7ab7ce5a79f6"},"vehicle_type_id":"4","last_reported":1731780650,"current_range_meters":38400,"station_id":"ce4bhgh2rcd13ifvqfb0","pricing_plan_id":"cebpf4jnsgd1na2vs0mg"},{"bike_id":"0bdc4ebb-8ae3-48a0-915a-ada36e03fd3e","system_id":"levelo_inurba_marseille","lat":43.279054,"lon":5.380152,"is_reserved":false,"is_disabled":false,"rental_uris":{"android":"levelo://app?vid=0bdc4ebb-8ae3-48a0-915a-ada36e03fd3e","ios":"levelo://app?vid=0bdc4ebb-8ae3-48a0-915a-ada36e03fd3e"},"vehicle_type_id":"4","last_reported":1731780650,"current_range_meters":38800,"station_id":"ce4bhf92rcd13ifvqf50","pricing_plan_id":"cebpf4jnsgd1na2vs0mg"},{"bike_id":"23dc3eca-7aa2-42ee-a821-5901eae129f9","system_id":"levelo_inurba_marseille","lat":43.32367,"lon":5.38884,"is_reserved":false,"is_disabled":false,"rental_uris":{"android":"levelo://app?vid=23dc3eca-7aa2-42ee-a821-5901eae129f9","ios":"levelo://app?vid=23dc3eca-7aa2-42ee-a821-5901eae129f9"},"vehicle_type_id":"4","last_reported":1731780650,"current_range_meters":8000,"station_id":"ce4bhqp2rcd13ifvqhog","pricing_plan_id":"cebpf4jnsgd1na2vs0mg"},{"bike_id":"6d6992bf-ade3-4a22-a168-306dafdc4544","system_id":"levelo_inurba_marseille","lat":43.2417,"lon":5.36406,"is_reserved":false,"is_disabled":false,"rental_uris":{"android":"levelo://app?vid=6d6992bf-ade3-4a22-a168-306dafdc4544","ios":"levelo://app?vid=6d6992bf-ade3-4a22-a168-306dafdc4544"},"vehicle_type_id":"4","last_reported":1731780650,"current_range_meters":32400,"station_id":"cpo36qri1sfpv3e86is0","pricing_plan_id":"cebpf4jnsgd1na2vs0mg"},{"bike_id":"074c6971-4ae7-4906-8673-1607af29a7e1","system_id":"levelo_inurba_marseille","lat":43.25094,"lon":5.39508,"is_reserved":false,"is_disabled":false,"rental_uris":{"android":"levelo://app?vid=074c6971-4ae7-4906-8673-1607af29a7e1","ios":"levelo://app?vid=074c6971-4ae7-4906-8673-1607af29a7e1"},"vehicle_type_id":"4","last_reported":1731780650,"current_range_meters":32000,"station_id":"ce4bhm12rcd13ifvqgkg","pricing_plan_id":"cebpf4jnsgd1na2vs0mg"},{"bike_id":"6ec0a8f2-a285-489c-87b6-74163e297eb9","system_id":"levelo_inurba_marseille","lat":43.299,"lon":5.38151,"is_reserved":false,"is_disabled":false,"rental_uris":{"android":"levelo://app?vid=6ec0a8f2-a285-489c-87b6-74163e297eb9","ios":"levelo://app?vid=6ec0a8f2-a285-489c-87b6-74163e297eb9"},"vehicle_type_id":"4","last_reported":1731780650,"current_range_meters":30800,"station_id":"ce4bgj12rcd13ifvqbc0","pricing_plan_id":"cebpf4jnsgd1na2vs0mg"},{"bike_id":"f7612cb9-64e6-456e-b407-47173cb6e342","system_id":"levelo_inurba_marseille","lat":43.28613,"lon":5.37064,"is_reserved":false,"is_disabled":false,"rental_uris":{"android":"levelo://app?vid=f7612cb9-64e6-456e-b407-47173cb6e342","ios":"levelo://app?vid=f7612cb9-64e6-456e-b407-47173cb6e342"},"vehicle_type_id":"4","last_reported":1731780650,"current_range_meters":8400,"station_id":"ce4bht12rcd13ifvqi60","pricing_plan_id":"cebpf4jnsgd1na2vs0mg"},{"bike_id":"0f973193-e2ef-4af2-9612-a6da6523c6bf","system_id":"levelo_inurba_marseille","lat":43.29306,"lon":5.37169,"is_reserved":false,"is_disabled":false,"rental_uris":{"android":"levelo://app?vid=0f973193-e2ef-4af2-9612-a6da6523c6bf","ios":"levelo://app?vid=0f973193-e2ef-4af2-9612-a6da6523c6bf"},"vehicle_type_id":"4","last_reported":1731780650,"current_range_meters":36400,"station_id":"ce4bgh92rcd13ifvqb40","pricing_plan_id":"cebpf4jnsgd1na2vs0mg"},{"bike_id":"18fc8acc-46ba-44ab-a6b9-4fba32cc92a5","system_id":"levelo_inurba_marseille","lat":43.29229,"lon":5.3617,"is_reserved":false,"is_disabled":false,"rental_uris":{"android":"levelo://app?vid=18fc8acc-46ba-44ab-a6b9-4fba32cc92a5","ios":"levelo://app?vid=18fc8acc-46ba-44ab-a6b9-4fba32cc92a5"},"vehicle_type_id":"4","last_reported":1731780650,"current_range_meters":25600,"station_id":"ce4bgih2rcd13ifvqba0","pricing_plan_id":"cebpf4jnsgd1na2vs0mg"},{"bike_id":"f977d484-43b9-4a08-9f25-946507f2ea63","system_id":"levelo_inurba_marseille","lat":43.31431,"lon":5.37394,"is_reserved":false,"is_disabled":false,"rental_uris":{"android":"levelo://app?vid=f977d484-43b9-4a08-9f25-946507f2ea63","ios":"levelo://app?vid=f977d484-43b9-4a08-9f25-946507f2ea63"},"vehicle_type_id":"4","last_reported":1731780650,"current_range_meters":24000,"station_id":"","pricing_plan_id":"cebpf4jnsgd1na2vs0mg"},{"bike_id":"20f256c9-a4c1-486d-83bc-b5fc0afa0d8f","system_id":"levelo_inurba_marseille","lat":43.308031,"lon":5.435244,"is_reserved":false,"is_disabled":false,"rental_uris":{"android":"levelo://app?vid=20f256c9-a4c1-486d-83bc-b5fc0afa0d8f","ios":"levelo://app?vid=20f256c9-a4c1-486d-83bc-b5fc0afa0d8f"},"vehicle_type_id":"4","last_reported":1731780650,"current_range_meters":38400,"station_id":"ce4bhph2rcd13ifvqheg","pricing_plan_id":"cebpf4jnsgd1na2vs0mg"},{"bike_id":"4ee4605c-22f2-4532-b44d-f5fb03fd5142","system_id":"levelo_inurba_marseille","lat":43.30797,"lon":5.43519,"is_reserved":false,"is_disabled":false,"rental_uris":{"android":"levelo://app?vid=4ee4605c-22f2-4532-b44d-f5fb03fd5142","ios":"levelo://app?vid=4ee4605c-22f2-4532-b44d-f5fb03fd5142"},"vehicle_type_id":"4","last_reported":1731780650,"current_range_meters":13600,"station_id":"ce4bhph2rcd13ifvqheg","pricing_plan_id":"cebpf4jnsgd1na2vs0mg"},{"bike_id":"d12776dd-7ba2-49d7-a666-159758337c79","system_id":"levelo_inurba_marseille","lat":43.32482,"lon":5.36588,"is_reserved":false,"is_disabled":false,"rental_uris":{"android":"levelo://app?vid=d12776dd-7ba2-49d7-a666-159758337c79","ios":"levelo://app?vid=d12776dd-7ba2-49d7-a666-159758337c79"},"vehicle_type_id":"4","last_reported":1731780650,"current_range_meters":38800,"station_id":"ce4bhs12rcd13ifvqhvg","pricing_plan_id":"cebpf4jnsgd1na2vs0mg"},{"bike_id":"75640bac-21f1-4ab0-8ea2-4cf4071e2349","system_id":"levelo_inurba_marseille","lat":43.2767,"lon":5.38866,"is_reserved":false,"is_disabled":false,"rental_uris":{"android":"levelo://app?vid=75640bac-21f1-4ab0-8ea2-4cf4071e2349","ios":"levelo://app?vid=75640bac-21f1-4ab0-8ea2-4cf4071e2349"},"vehicle_type_id":"4","last_reported":1731780650,"current_range_meters":3600,"station_id":"ce4bhi12rcd13ifvqfo0","pricing_plan_id":"cebpf4jnsgd1na2vs0mg"},{"bike_id":"e9485bed-988c-415a-9917-c526f71f9da2","system_id":"levelo_inurba_marseille","lat":43.3091,"lon":5.36858,"is_reserved":false,"is_disabled":false,"rental_uris":{"android":"levelo://app?vid=e9485bed-988c-415a-9917-c526f71f9da2","ios":"levelo://app?vid=e9485bed-988c-415a-9917-c526f71f9da2"},"vehicle_type_id":"4","last_reported":1731780650,"current_range_meters":38800,"station_id":"ce4bgn92rcd13ifvqbvg","pricing_plan_id":"cebpf4jnsgd1na2vs0mg"},{"bike_id":"e76da8ba-a81e-43b6-9913-2c51ed117e7a","system_id":"levelo_inurba_marseille","lat":43.2978,"lon":5.39342,"is_reserved":false,"is_disabled":false,"rental_uris":{"android":"levelo://app?vid=e76da8ba-a81e-43b6-9913-2c51ed117e7a","ios":"levelo://app?vid=e76da8ba-a81e-43b6-9913-2c51ed117e7a"},"vehicle_type_id":"4","last_reported":1731780650,"current_range_meters":4000,"station_id":"chh1huq6cuj3fo74tm60","pricing_plan_id":"cebpf4jnsgd1na2vs0mg"},{"bike_id":"d4775f56-8908-488d-8360-95a3b9066370","system_id":"levelo_inurba_marseille","lat":43.26799,"lon":5.39404,"is_reserved":false,"is_disabled":false,"rental_uris":{"android":"levelo://app?vid=d4775f56-8908-488d-8360-95a3b9066370","ios":"levelo://app?vid=d4775f56-8908-488d-8360-95a3b9066370"},"vehicle_type_id":"4","last_reported":1731780650,"current_range_meters":16400,"station_id":"ce4bhh12rcd13ifvqfg0","pricing_plan_id":"cebpf4jnsgd1na2vs0mg"},{"bike_id":"022f478e-da93-4eda-9d1b-2d0e36905c07","system_id":"levelo_inurba_marseille","lat":43.33757,"lon":5.37435,"is_reserved":false,"is_disabled":false,"rental_uris":{"android":"levelo://app?vid=022f478e-da93-4eda-9d1b-2d0e36905c07","ios":"levelo://app?vid=022f478e-da93-4eda-9d1b-2d0e36905c07"},"vehicle_type_id":"4","last_reported":1731780650,"current_range_meters":16000,"station_id":"","pricing_plan_id":"cebpf4jnsgd1na2vs0mg"},{"bike_id":"3c7108fb-85fe-43b6-95ce-e6a5e6d34b1a","system_id":"levelo_inurba_marseille","lat":43.33729,"lon":5.39179,"is_reserved":false,"is_disabled":false,"rental_uris":{"android":"levelo://app?vid=3c7108fb-85fe-43b6-95ce-e6a5e6d34b1a","ios":"levelo://app?vid=3c7108fb-85fe-43b6-95ce-e6a5e6d34b1a"},"vehicle_type_id":"4","last_reported":1731780650,"current_range_meters":30400,"station_id":"ce4bhr92rcd13ifvqhsg","pricing_plan_id":"cebpf4jnsgd1na2vs0mg"},{"bike_id":"c9881312-aa8c-4cd2-91da-3beaaf817eb3","system_id":"levelo_inurba_marseille","lat":43.30911,"lon":5.36846,"is_reserved":false,"is_disabled":false,"rental_uris":{"android":"levelo://app?vid=c9881312-aa8c-4cd2-91da-3beaaf817eb3","ios":"levelo://app?vid=c9881312-aa8c-4cd2-91da-3beaaf817eb3"},"vehicle_type_id":"4","last_reported":1731780650,"current_range_meters":4800,"station_id":"ce4bgn92rcd13ifvqbvg","pricing_plan_id":"cebpf4jnsgd1na2vs0mg"},{"bike_id":"73478797-105d-4789-81c6-684e471f3436","system_id":"levelo_inurba_marseille","lat":43.29252,"lon":5.3845,"is_reserved":false,"is_disabled":false,"rental_uris":{"android":"levelo://app?vid=73478797-105d-4789-81c6-684e471f3436","ios":"levelo://app?vid=73478797-105d-4789-81c6-684e471f3436"},"vehicle_type_id":"4","last_reported":1731780650,"current_range_meters":37600,"station_id":"ce4bh692rcd13ifvqea0","pricing_plan_id":"cebpf4jnsgd1na2vs0mg"},{"bike_id":"cda4f533-8733-4307-807d-9c1677b28a30","system_id":"levelo_inurba_marseille","lat":43.3126,"lon":5.40165,"is_reserved":false,"is_disabled":false,"rental_uris":{"android":"levelo://app?vid=cda4f533-8733-4307-807d-9c1677b28a30","ios":"levelo://app?vid=cda4f533-8733-4307-807d-9c1677b28a30"},"vehicle_type_id":"4","last_reported":1731780650,"current_range_meters":30000,"station_id":"ce4bh092rcd13ifvqd30","pricing_plan_id":"cebpf4jnsgd1na2vs0mg"},{"bike_id":"251d8918-1250-4853-9293-89ee39d3be92","system_id":"levelo_inurba_marseille","lat":43.33022,"lon":5.39038,"is_reserved":false,"is_disabled":false,"rental_uris":{"android":"levelo://app?vid=251d8918-1250-4853-9293-89ee39d3be92","ios":"levelo://app?vid=251d8918-1250-4853-9293-89ee39d3be92"},"vehicle_type_id":"4","last_reported":1731780650,"current_range_meters":36000,"station_id":"ce4bhr92rcd13ifvqhrg","pricing_plan_id":"cebpf4jnsgd1na2vs0mg"},{"bike_id":"d95b4d50-3556-45fe-8cbb-c33d5fd58715","system_id":"levelo_inurba_marseille","lat":43.3229,"lon":5.38272,"is_reserved":false,"is_disabled":false,"rental_uris":{"android":"levelo://app?vid=d95b4d50-3556-45fe-8cbb-c33d5fd58715","ios":"levelo://app?vid=d95b4d50-3556-45fe-8cbb-c33d5fd58715"},"vehicle_type_id":"4","last_reported":1731780650,"current_range_meters":4000,"station_id":"ce4bhr12rcd13ifvqhqg","pricing_plan_id":"cebpf4jnsgd1na2vs0mg"},{"bike_id":"809471e3-ec39-4f2b-b271-49c8263623d6","system_id":"levelo_inurba_marseille","lat":43.24988,"lon":5.38933,"is_reserved":false,"is_disabled":false,"rental_uris":{"android":"levelo://app?vid=809471e3-ec39-4f2b-b271-49c8263623d6","ios":"levelo://app?vid=809471e3-ec39-4f2b-b271-49c8263623d6"},"vehicle_type_id":"4","last_reported":1731780650,"current_range_meters":39200,"station_id":"ce4bhgp2rcd13ifvqfd0","pricing_plan_id":"cebpf4jnsgd1na2vs0mg"},{"bike_id":"feb05bf3-007e-48f2-ab6a-8f462f701f94","system_id":"levelo_inurba_marseille","lat":43.2841,"lon":5.37516,"is_reserved":false,"is_disabled":false,"rental_uris":{"android":"levelo://app?vid=feb05bf3-007e-48f2-ab6a-8f462f701f94","ios":"levelo://app?vid=feb05bf3-007e-48f2-ab6a-8f462f701f94"},"vehicle_type_id":"4","last_reported":1731780650,"current_range_meters":4000,"station_id":"ce4bh412rcd13ifvqds0","pricing_plan_id":"cebpf4jnsgd1na2vs0mg"},{"bike_id":"9e5dc250-b6a5-41ce-8a87-894e843c1424","system_id":"levelo_inurba_marseille","lat":43.28022,"lon":5.36935,"is_reserved":false,"is_disabled":false,"rental_uris":{"android":"levelo://app?vid=9e5dc250-b6a5-41ce-8a87-894e843c1424","ios":"levelo://app?vid=9e5dc250-b6a5-41ce-8a87-894e843c1424"},"vehicle_type_id":"4","last_reported":1731780650,"current_range_meters":38800,"station_id":"ce4bha12rcd13ifvqef0","pricing_plan_id":"cebpf4jnsgd1na2vs0mg"},{"bike_id":"ddcf2083-2477-42a7-b76d-c98616de5dcb","system_id":"levelo_inurba_marseille","lat":43.26031,"lon":5.37548,"is_reserved":false,"is_disabled":false,"rental_uris":{"android":"levelo://app?vid=ddcf2083-2477-42a7-b76d-c98616de5dcb","ios":"levelo://app?vid=ddcf2083-2477-42a7-b76d-c98616de5dcb"},"vehicle_type_id":"4","last_reported":1731780650,"current_range_meters":27600,"station_id":"ce4bhgh2rcd13ifvqfa0","pricing_plan_id":"cebpf4jnsgd1na2vs0mg"},{"bike_id":"ff00f73b-a79e-42c6-acbe-193949fdcfc6","system_id":"levelo_inurba_marseille","lat":43.28334,"lon":5.3811,"is_reserved":false,"is_disabled":false,"rental_uris":{"android":"levelo://app?vid=ff00f73b-a79e-42c6-acbe-193949fdcfc6","ios":"levelo://app?vid=ff00f73b-a79e-42c6-acbe-193949fdcfc6"},"vehicle_type_id":"4","last_reported":1731780650,"current_range_meters":17600,"station_id":"ce4bh412rcd13ifvqdr0","pricing_plan_id":"cebpf4jnsgd1na2vs0mg"},{"bike_id":"0defbaaf-820c-412e-8e18-87120d39f4b3","system_id":"levelo_inurba_marseille","lat":43.31998,"lon":5.38151,"is_reserved":false,"is_disabled":false,"rental_uris":{"android":"levelo://app?vid=0defbaaf-820c-412e-8e18-87120d39f4b3","ios":"levelo://app?vid=0defbaaf-820c-412e-8e18-87120d39f4b3"},"vehicle_type_id":"4","last_reported":1731780650,"current_range_meters":38800,"station_id":"ce4bhr12rcd13ifvqhpg","pricing_plan_id":"cebpf4jnsgd1na2vs0mg"},{"bike_id":"b9a0692f-1f3a-4fe8-bf07-b346390bcd78","system_id":"levelo_inurba_marseille","lat":43.32103,"lon":5.38111,"is_reserved":false,"is_disabled":false,"rental_uris":{"android":"levelo://app?vid=b9a0692f-1f3a-4fe8-bf07-b346390bcd78","ios":"levelo://app?vid=b9a0692f-1f3a-4fe8-bf07-b346390bcd78"},"vehicle_type_id":"4","last_reported":1731780650,"current_range_meters":30800,"station_id":"","pricing_plan_id":"cebpf4jnsgd1na2vs0mg"},{"bike_id":"b6cce17f-c8e1-47f7-bbc2-6d8486c80087","system_id":"levelo_inurba_marseille","lat":43.2791,"lon":5.39586,"is_reserved":false,"is_disabled":false,"rental_uris":{"android":"levelo://app?vid=b6cce17f-c8e1-47f7-bbc2-6d8486c80087","ios":"levelo://app?vid=b6cce17f-c8e1-47f7-bbc2-6d8486c80087"},"vehicle_type_id":"4","last_reported":1731780650,"current_range_meters":30800,"station_id":"ce4bhf92rcd13ifvqf40","pricing_plan_id":"cebpf4jnsgd1na2vs0mg"},{"bike_id":"442c0903-f40e-4bdf-be0d-6587cc076f59","system_id":"levelo_inurba_marseille","lat":43.23192,"lon":5.35555,"is_reserved":false,"is_disabled":false,"rental_uris":{"android":"levelo://app?vid=442c0903-f40e-4bdf-be0d-6587cc076f59","ios":"levelo://app?vid=442c0903-f40e-4bdf-be0d-6587cc076f59"},"vehicle_type_id":"4","last_reported":1731780650,"current_range_meters":33200,"station_id":"ce4bhu92rcd13ifvqi70","pricing_plan_id":"cebpf4jnsgd1na2vs0mg"},{"bike_id":"1c4774a7-a2d4-4020-9a1a-c36e307e75d8","system_id":"levelo_inurba_marseille","lat":43.32372,"lon":5.38878,"is_reserved":false,"is_disabled":false,"rental_uris":{"android":"levelo://app?vid=1c4774a7-a2d4-4020-9a1a-c36e307e75d8","ios":"levelo://app?vid=1c4774a7-a2d4-4020-9a1a-c36e307e75d8"},"vehicle_type_id":"4","last_reported":1731780650,"current_range_meters":25600,"station_id":"ce4bhqp2rcd13ifvqhog","pricing_plan_id":"cebpf4jnsgd1na2vs0mg"},{"bike_id":"fe044a61-f10d-4bd7-84b9-a7a5b6d86113","system_id":"levelo_inurba_marseille","lat":43.30793,"lon":5.43523,"is_reserved":false,"is_disabled":false,"rental_uris":{"android":"levelo://app?vid=fe044a61-f10d-4bd7-84b9-a7a5b6d86113","ios":"levelo://app?vid=fe044a61-f10d-4bd7-84b9-a7a5b6d86113"},"vehicle_type_id":"4","last_reported":1731780650,"current_range_meters":38800,"station_id":"ce4bhph2rcd13ifvqheg","pricing_plan_id":"cebpf4jnsgd1na2vs0mg"},{"bike_id":"5962e039-9036-4944-b5c6-f1a6c4a87b96","system_id":"levelo_inurba_marseille","lat":43.28017,"lon":5.36939,"is_reserved":false,"is_disabled":false,"rental_uris":{"android":"levelo://app?vid=5962e039-9036-4944-b5c6-f1a6c4a87b96","ios":"levelo://app?vid=5962e039-9036-4944-b5c6-f1a6c4a87b96"},"vehicle_type_id":"4","last_reported":1731780650,"current_range_meters":32000,"station_id":"ce4bha12rcd13ifvqef0","pricing_plan_id":"cebpf4jnsgd1na2vs0mg"},{"bike_id":"0cf92e02-9711-4bbf-a4c8-e1d6bc246a00","system_id":"levelo_inurba_marseille","lat":43.30434,"lon":5.38905,"is_reserved":false,"is_disabled":false,"rental_uris":{"android":"levelo://app?vid=0cf92e02-9711-4bbf-a4c8-e1d6bc246a00","ios":"levelo://app?vid=0cf92e02-9711-4bbf-a4c8-e1d6bc246a00"},"vehicle_type_id":"4","last_reported":1731780650,"current_range_meters":28400,"station_id":"ce4bgk12rcd13ifvqbi0","pricing_plan_id":"cebpf4jnsgd1na2vs0mg"},{"bike_id":"7d7d12f3-12a1-47c8-b4ba-b8a4e0a8b2cd","system_id":"levelo_inurba_marseille","lat":43.24646,"lon":5.38889,"is_reserved":false,"is_disabled":false,"rental_uris":{"android":"levelo://app?vid=7d7d12f3-12a1-47c8-b4ba-b8a4e0a8b2cd","ios":"levelo://app?vid=7d7d12f3-12a1-47c8-b4ba-b8a4e0a8b2cd"},"vehicle_type_id":"4","last_reported":1731780650,"current_range_meters":28000,"station_id":"ce4bhg12rcd13ifvqf60","pricing_plan_id":"cebpf4jnsgd1na2vs0mg"},{"bike_id":"3d1e60ca-0ef4-4d61-bde3-33dddb055cfa","system_id":"levelo_inurba_marseille","lat":43.29533,"lon":5.38549,"is_reserved":false,"is_disabled":false,"rental_uris":{"android":"levelo://app?vid=3d1e60ca-0ef4-4d61-bde3-33dddb055cfa","ios":"levelo://app?vid=3d1e60ca-0ef4-4d61-bde3-33dddb055cfa"},"vehicle_type_id":"4","last_reported":1731780650,"current_range_meters":38800,"station_id":"ce4bgih2rcd13ifvqba0","pricing_plan_id":"cebpf4jnsgd1na2vs0mg"},{"bike_id":"b29c8adc-8b51-422e-8eb5-f35d7a44b017","system_id":"levelo_inurba_marseille","lat":43.30931,"lon":5.39041,"is_reserved":false,"is_disabled":false,"rental_uris":{"android":"levelo://app?vid=b29c8adc-8b51-422e-8eb5-f35d7a44b017","ios":"levelo://app?vid=b29c8adc-8b51-422e-8eb5-f35d7a44b017"},"vehicle_type_id":"4","last_reported":1731780650,"current_range_meters":34000,"station_id":"ce4bguh2rcd13ifvqcj0","pricing_plan_id":"cebpf4jnsgd1na2vs0mg"},{"bike_id":"f029ded0-af77-4568-9b68-158e1070f9fb","system_id":"levelo_inurba_marseille","lat":43.29417,"lon":5.38619,"is_reserved":false,"is_disabled":false,"rental_uris":{"android":"levelo://app?vid=f029ded0-af77-4568-9b68-158e1070f9fb","ios":"levelo://app?vid=f029ded0-af77-4568-9b68-158e1070f9fb"},"vehicle_type_id":"4","last_reported":1731780650,"current_range_meters":34000,"station_id":"ce4bh2h2rcd13ifvqdh0","pricing_plan_id":"cebpf4jnsgd1na2vs0mg"},{"bike_id":"21d98bf0-03c3-4a4e-bc00-2daa40e0d68e","system_id":"levelo_inurba_marseille","lat":43.27817,"lon":5.40712,"is_reserved":false,"is_disabled":false,"rental_uris":{"android":"levelo://app?vid=21d98bf0-03c3-4a4e-bc00-2daa40e0d68e","ios":"levelo://app?vid=21d98bf0-03c3-4a4e-bc00-2daa40e0d68e"},"vehicle_type_id":"4","last_reported":1731780650,"current_range_meters":30800,"station_id":"ce4bhnh2rcd13ifvqgtg","pricing_plan_id":"cebpf4jnsgd1na2vs0mg"},{"bike_id":"02fffb81-2633-493e-b02a-21f871d3bf6e","system_id":"levelo_inurba_marseille","lat":43.29253,"lon":5.40904,"is_reserved":false,"is_disabled":false,"rental_uris":{"android":"levelo://app?vid=02fffb81-2633-493e-b02a-21f871d3bf6e","ios":"levelo://app?vid=02fffb81-2633-493e-b02a-21f871d3bf6e"},"vehicle_type_id":"4","last_reported":1731780650,"current_range_meters":24400,"station_id":"ce4bh192rcd13ifvqdc0","pricing_plan_id":"cebpf4jnsgd1na2vs0mg"},{"bike_id":"a5b34461-15f1-43b3-89cc-365983118043","system_id":"levelo_inurba_marseille","lat":43.2903,"lon":5.38645,"is_reserved":false,"is_disabled":false,"rental_uris":{"android":"levelo://app?vid=a5b34461-15f1-43b3-89cc-365983118043","ios":"levelo://app?vid=a5b34461-15f1-43b3-89cc-365983118043"},"vehicle_type_id":"4","last_reported":1731780650,"current_range_meters":4000,"station_id":"ce4bh4p2rcd13ifvqe0g","pricing_plan_id":"cebpf4jnsgd1na2vs0mg"},{"bike_id":"370f0033-4285-4847-a78b-2a63bd799fd3","system_id":"levelo_inurba_marseille","lat":43.31127,"lon":5.37761,"is_reserved":false,"is_disabled":false,"rental_uris":{"android":"levelo://app?vid=370f0033-4285-4847-a78b-2a63bd799fd3","ios":"levelo://app?vid=370f0033-4285-4847-a78b-2a63bd799fd3"},"vehicle_type_id":"4","last_reported":1731780650,"current_range_meters":16400,"station_id":"ce4bgt92rcd13ifvqcg0","pricing_plan_id":"cebpf4jnsgd1na2vs0mg"},{"bike_id":"9cd1608c-3446-423a-9429-14ba6f370cbe","system_id":"levelo_inurba_marseille","lat":43.31162,"lon":5.38434,"is_reserved":false,"is_disabled":false,"rental_uris":{"android":"levelo://app?vid=9cd1608c-3446-423a-9429-14ba6f370cbe","ios":"levelo://app?vid=9cd1608c-3446-423a-9429-14ba6f370cbe"},"vehicle_type_id":"4","last_reported":1731780650,"current_range_meters":8400,"station_id":"ce4bgv12rcd13ifvqcp0","pricing_plan_id":"cebpf4jnsgd1na2vs0mg"},{"bike_id":"8e3c2712-1827-48eb-9cf1-5d16e84b4703","system_id":"levelo_inurba_marseille","lat":43.31715,"lon":5.43707,"is_reserved":false,"is_disabled":false,"rental_uris":{"android":"levelo://app?vid=8e3c2712-1827-48eb-9cf1-5d16e84b4703","ios":"levelo://app?vid=8e3c2712-1827-48eb-9cf1-5d16e84b4703"},"vehicle_type_id":"4","last_reported":1731780650,"current_range_meters":28400,"station_id":"ce4bhp92rcd13ifvqhcg","pricing_plan_id":"cebpf4jnsgd1na2vs0mg"},{"bike_id":"07a90658-abe8-4ac4-a2da-750bde3cc039","system_id":"levelo_inurba_marseille","lat":43.23174,"lon":5.39989,"is_reserved":false,"is_disabled":false,"rental_uris":{"android":"levelo://app?vid=07a90658-abe8-4ac4-a2da-750bde3cc039","ios":"levelo://app?vid=07a90658-abe8-4ac4-a2da-750bde3cc039"},"vehicle_type_id":"4","last_reported":1731780650,"current_range_meters":25200,"station_id":"ce4bhn12rcd13ifvqgqg","pricing_plan_id":"cebpf4jnsgd1na2vs0mg"},{"bike_id":"f3969a8f-a5bb-4f36-a813-95e9e6d1db34","system_id":"levelo_inurba_marseille","lat":43.27901,"lon":5.38007,"is_reserved":false,"is_disabled":false,"rental_uris":{"android":"levelo://app?vid=f3969a8f-a5bb-4f36-a813-95e9e6d1db34","ios":"levelo://app?vid=f3969a8f-a5bb-4f36-a813-95e9e6d1db34"},"vehicle_type_id":"4","last_reported":1731780650,"current_range_meters":38800,"station_id":"ce4bhf92rcd13ifvqf50","pricing_plan_id":"cebpf4jnsgd1na2vs0mg"},{"bike_id":"d396cd80-4582-4421-b914-07d83e5709c9","system_id":"levelo_inurba_marseille","lat":43.29964,"lon":5.38498,"is_reserved":false,"is_disabled":false,"rental_uris":{"android":"levelo://app?vid=d396cd80-4582-4421-b914-07d83e5709c9","ios":"levelo://app?vid=d396cd80-4582-4421-b914-07d83e5709c9"},"vehicle_type_id":"4","last_reported":1731780650,"current_range_meters":30400,"station_id":"ce4bgj92rcd13ifvqbd0","pricing_plan_id":"cebpf4jnsgd1na2vs0mg"},{"bike_id":"1efe22a0-e8cc-4f16-93c9-999e66c5fbf6","system_id":"levelo_inurba_marseille","lat":43.28653,"lon":5.36339,"is_reserved":false,"is_disabled":false,"rental_uris":{"android":"levelo://app?vid=1efe22a0-e8cc-4f16-93c9-999e66c5fbf6","ios":"levelo://app?vid=1efe22a0-e8cc-4f16-93c9-999e66c5fbf6"},"vehicle_type_id":"4","last_reported":1731780650,"current_range_meters":6800,"station_id":"ce4bhah2rcd13ifvqej0","pricing_plan_id":"cebpf4jnsgd1na2vs0mg"},{"bike_id":"7b76f7eb-5990-4745-bfda-68fbe5b47b7f","system_id":"levelo_inurba_marseille","lat":43.24179,"lon":5.39731,"is_reserved":false,"is_disabled":false,"rental_uris":{"android":"levelo://app?vid=7b76f7eb-5990-4745-bfda-68fbe5b47b7f","ios":"levelo://app?vid=7b76f7eb-5990-4745-bfda-68fbe5b47b7f"},"vehicle_type_id":"4","last_reported":1731780650,"current_range_meters":10800,"station_id":"ce4bhn12rcd13ifvqgpg","pricing_plan_id":"cebpf4jnsgd1na2vs0mg"},