{"last_updated":1723651900,"ttl":30,"version":"2.2","data":{"bikes":[{"bike_id":"0d7153db-3e87-4f30-b34d-9f2743d4107e","system_id":"levelo_inurba_marseille","lat":43.31335,"lon":5.36711,"is_reserved":false,"is_disabled":false,"rental_uris":{"android":"levelo://app?vid=0d7153db-3e87-4f30-b34d-9f2743d4107e","ios":"levelo://app?vid=0d7153db-3e87-4f30-b34d-9f2743d4107e"},"vehicle_type_id":"4","last_reported":1723651900,"current_range_meters":0,"station_id":"ce4bgr92rcd13ifvqc6g","pricing_plan_id":"cebpf4jnsgd1na2vs0mg"},{"bike_id":"0a31d920-2d06-4d77-a686-5b125eb69fba","system_id":"levelo_inurba_marseille","lat":43.312239,"lon":5.368562,"is_reserved":false,"is_disabled":false,"rental_uris":{"android":"levelo://app?vid=0a31d920-2d06-4d77-a686-5b125eb69fba","ios":"levelo://app?vid=0a31d920-2d06-4d77-a686-5b125eb69fba"},"vehicle_type_id":"4","last_reported":1723651900,"current_range_meters":23200,"station_id":"ce4bgl92rcd13ifvqbq0","pricing_plan_id":"cebpf4jnsgd1na2vs0mg"},{"bike_id":"036e2ca7-82c7-4209-b487-612db3175421","system_id":"levelo_inurba_marseille","lat":43.312239,"lon":5.368562,"is_reserved":false,"is_disabled":false,"rental_uris":{"android":"levelo://app?vid=036e2ca7-82c7-4209-b487-612db3175421","ios":"levelo://app?vid=036e2ca7-82c7-4209-b487-612db3175421"},"vehicle_type_id":"4","last_reported":1723651900,"current_range_meters":31200,"station_id":"ce4bgl92rcd13ifvqbq0","pricing_plan_id":"cebpf4jnsgd1na2vs0mg"},{"bike_id":"53d21828-1d10-4f4c-b81c-c30812a8dae5","system_id":"levelo_inurba_marseille","lat":43.309076,"lon":5.368465,"is_reserved":false,"is_disabled":false,"rental_uris":{"android":"levelo://app?vid=53d21828-1d10-4f4c-b81c-c30812a8dae5","ios":"levelo://app?vid=53d21828-1d10-4f4c-b81c-c30812a8dae5"},"vehicle_type_id":"4","last_reported":1723651900,"current_range_meters":31200,"station_id":"ce4bgn92rcd13ifvqbvg","pricing_plan_id":"cebpf4jnsgd1na2vs0mg"},{"bike_id":"ae102078-a4b4-44eb-95cf-a8426dc677f8","system_id":"levelo_inurba_marseille","lat":43.314811,"lon":5.373103,"is_reserved":false,"is_disabled":false,"rental_uris":{"android":"levelo://app?vid=ae102078-a4b4-44eb-95cf-a8426dc677f8","ios":"levelo://app?vid=ae102078-a4b4-44eb-95cf-a8426dc677f8"},"vehicle_type_id":"4","last_reported":1723651900,"current_range_meters":0,"station_id":"ce4bgt12rcd13ifvqcd0","pricing_plan_id":"cebpf4jnsgd1na2vs0mg"},{"bike_id":"c2474936-2f7d-4be4-b43d-a64a60107534","system_id":"levelo_inurba_marseille","lat":43.31485,"lon":5.37311,"is_reserved":false,"is_disabled":false,"rental_uris":{"android":"levelo://app?vid=c2474936-2f7d-4be4-b43d-a64a60107534","ios":"levelo://app?vid=c2474936-2f7d-4be4-b43d-a64a60107534"},"vehicle_type_id":"4","last_reported":1723651900,"current_range_meters":0,"station_id":"ce4bgt12rcd13ifvqcd0","pricing_plan_id":"cebpf4jnsgd1na2vs0mg"},{"bike_id":"6f98a237-4b2f-4235-b0fb-58167508e15c","system_id":"levelo_inurba_marseille","lat":43.314811,"lon":5.373103,"is_reserved":false,"is_disabled":false,"rental_uris":{"android":"levelo://app?vid=6f98a237-4b2f-4235-b0fb-58167508e15c","ios":"levelo://app?vid=6f98a237-4b2f-4235-b0fb-58167508e15c"},"vehicle_type_id":"4","last_reported":1723651900,"current_range_meters":0,"station_id":"ce4bgt12rcd13ifvqcd0","pricing_plan_id":"cebpf4jnsgd1na2vs0mg"},{"bike_id":"a2b0a6e3-f8fe-4761-b065-b43e0cdd5db0","system_id":"levelo_inurba_marseille","lat":43.305714,"lon":5.365633,"is_reserved":false,"is_disabled":false,"rental_uris":{"android":"levelo://app?vid=a2b0a6e3-f8fe-4761-b065-b43e0cdd5db0","ios":"levelo://app?vid=a2b0a6e3-f8fe-4761-b065-b43e0cdd5db0"},"vehicle_type_id":"4","last_reported":1723651900,"current_range_meters":24000,"station_id":"ce4bgs12rcd13ifvqcag","pricing_plan_id":"cebpf4jnsgd1na2vs0mg"},{"bike_id":"16ce72aa-e515-462a-a798-442ca174bc87","system_id":"levelo_inurba_marseille","lat":43.31596,"lon":5.37609,"is_reserved":false,"is_disabled":false,"rental_uris":{"android":"levelo://app?vid=16ce72aa-e515-462a-a798-442ca174bc87","ios":"levelo://app?vid=16ce72aa-e515-462a-a798-442ca174bc87"},"vehicle_type_id":"4","last_reported":1723651900,"current_range_meters":0,"station_id":"","pricing_plan_id":"cebpf4jnsgd1na2vs0mg"},{"bike_id":"12b36fef-f111-4700-bffe-31d526a70c27","system_id":"levelo_inurba_marseille","lat":43.305706,"lon":5.365654,"is_reserved":false,"is_disabled":false,"rental_uris":{"android":"levelo://app?vid=12b36fef-f111-4700-bffe-31d526a70c27","ios":"levelo://app?vid=12b36fef-f111-4700-bffe-31d526a70c27"},"vehicle_type_id":"4","last_reported":1723651900,"current_range_meters":0,"station_id":"ce4bgs12rcd13ifvqcag","pricing_plan_id":"cebpf4jnsgd1na2vs0mg"},{"bike_id":"a4b61c05-0495-4172-983c-826ff3a5674b","system_id":"levelo_inurba_marseille","lat":43.305706,"lon":5.365654,"is_reserved":false,"is_disabled":false,"rental_uris":{"android":"levelo://app?vid=a4b61c05-0495-4172-983c-826ff3a5674b","ios":"levelo://app?vid=a4b61c05-0495-4172-983c-826ff3a5674b"},"vehicle_type_id":"4","last_reported":1723651900,"current_range_meters":0,"station_id":"ce4bgs12rcd13ifvqcag","pricing_plan_id":"cebpf4jnsgd1na2vs0mg"},{"bike_id":"0c198a30-8773-4ee4-aa6e-fddba69887d8","system_id":"levelo_inurba_marseille","lat":43.305989,"lon":5.37225,"is_reserved":false,"is_disabled":false,"rental_uris":{"android":"levelo://app?vid=0c198a30-8773-4ee4-aa6e-fddba69887d8","ios":"levelo://app?vid=0c198a30-8773-4ee4-aa6e-fddba69887d8"},"vehicle_type_id":"4","last_reported":1723651900,"current_range_meters":18000,"station_id":"ce4bgqh2rcd13ifvqc4g","pricing_plan_id":"cebpf4jnsgd1na2vs0mg"},{"bike_id":"bf6ae298-dbe0-4a0d-a049-b852f3f0fcd3","system_id":"levelo_inurba_marseille","lat":43.3112,"lon":5.37767,"is_reserved":false,"is_disabled":false,"rental_uris":{"android":"levelo://app?vid=bf6ae298-dbe0-4a0d-a049-b852f3f0fcd3","ios":"levelo://app?vid=bf6ae298-dbe0-4a0d-a049-b852f3f0fcd3"},"vehicle_type_id":"4","last_reported":1723651900,"current_range_meters":0,"station_id":"ce4bgt92rcd13ifvqcg0","pricing_plan_id":"cebpf4jnsgd1na2vs0mg"},{"bike_id":"96851ea3-4c47-450b-944d-8f437574ab1c","system_id":"levelo_inurba_marseille","lat":43.317075,"lon":5.377367,"is_reserved":false,"is_disabled":false,"rental_uris":{"android":"levelo://app?vid=96851ea3-4c47-450b-944d-8f437574ab1c","ios":"levelo://app?vid=96851ea3-4c47-450b-944d-8f437574ab1c"},"vehicle_type_id":"4","last_reported":1723651900,"current_range_meters":2800,"station_id":"ce4bgth2rcd13ifvqch0","pricing_plan_id":"cebpf4jnsgd1na2vs0mg"},{"bike_id":"af363963-8165-4825-84b3-ab658201a1f8","system_id":"levelo_inurba_marseille","lat":43.303046,"lon":5.368981,"is_reserved":false,"is_disabled":false,"rental_uris":{"android":"levelo://app?vid=af363963-8165-4825-84b3-ab658201a1f8","ios":"levelo://app?vid=af363963-8165-4825-84b3-ab658201a1f8"},"vehicle_type_id":"4","last_reported":1723651900,"current_range_meters":2800,"station_id":"ce4bgqh2rcd13ifvqc5g","pricing_plan_id":"cebpf4jnsgd1na2vs0mg"},{"bike_id":"3eb04d60-a52f-4863-8c1b-6d1114dc2310","system_id":"levelo_inurba_marseille","lat":43.315215,"lon":5.380355,"is_reserved":false,"is_disabled":false,"rental_uris":{"android":"levelo://app?vid=3eb04d60-a52f-4863-8c1b-6d1114dc2310","ios":"levelo://app?vid=3eb04d60-a52f-4863-8c1b-6d1114dc2310"},"vehicle_type_id":"4","last_reported":1723651900,"current_range_meters":30400,"station_id":"ce4bhsp2rcd13ifvqi50","pricing_plan_id":"cebpf4jnsgd1na2vs0mg"},{"bike_id":"53916b41-cb16-4204-910e-a48ca144c9a3","system_id":"levelo_inurba_marseille","lat":43.308012,"lon":5.381511,"is_reserved":false,"is_disabled":false,"rental_uris":{"android":"levelo://app?vid=53916b41-cb16-4204-910e-a48ca144c9a3","ios":"levelo://app?vid=53916b41-cb16-4204-910e-a48ca144c9a3"},"vehicle_type_id":"4","last_reported":1723651900,"current_range_meters":0,"station_id":"ce4bgt12rcd13ifvqce0","pricing_plan_id":"cebpf4jnsgd1na2vs0mg"},{"bike_id":"99637c9f-35ab-4dd6-b115-39dd0951cde3","system_id":"levelo_inurba_marseille","lat":43.308012,"lon":5.381511,"is_reserved":false,"is_disabled":false,"rental_uris":{"android":"levelo://app?vid=99637c9f-35ab-4dd6-b115-39dd0951cde3","ios":"levelo://app?vid=99637c9f-35ab-4dd6-b115-39dd0951cde3"},"vehicle_type_id":"4","last_reported":1723651900,"current_range_meters":20800,"station_id":"ce4bgt12rcd13ifvqce0","pricing_plan_id":"cebpf4jnsgd1na2vs0mg"},{"bike_id":"f76d6812-7814-4d31-b6a6-811638068cde","system_id":"levelo_inurba_marseille","lat":43.30813,"lon":5.3819,"is_reserved":false,"is_disabled":false,"rental_uris":{"android":"levelo://app?vid=f76d6812-7814-4d31-b6a6-811638068cde","ios":"levelo://app?vid=f76d6812-7814-4d31-b6a6-811638068cde"},"vehicle_type_id":"4","last_reported":1723651900,"current_range_meters":18800,"station_id":"ce4bgt12rcd13ifvqce0","pricing_plan_id":"cebpf4jnsgd1na2vs0mg"},{"bike_id":"7a42f9fb-ab87-4d29-890a-60f5de93af2a","system_id":"levelo_inurba_marseille","lat":43.30132,"lon":5.372023,"is_reserved":false,"is_disabled":false,"rental_uris":{"android":"levelo://app?vid=7a42f9fb-ab87-4d29-890a-60f5de93af2a","ios":"levelo://app?vid=7a42f9fb-ab87-4d29-890a-60f5de93af2a"},"vehicle_type_id":"4","last_reported":1723651900,"current_range_meters":20400,"station_id":"","pricing_plan_id":"cebpf4jnsgd1na2vs0mg"},{"bike_id":"2cb1bea5-3dca-4a80-b1fa-1e304ed8121a","system_id":"levelo_inurba_marseille","lat":43.324732,"lon":5.36562,"is_reserved":false,"is_disabled":false,"rental_uris":{"android":"levelo://app?vid=2cb1bea5-3dca-4a80-b1fa-1e304ed8121a","ios":"levelo://app?vid=2cb1bea5-3dca-4a80-b1fa-1e304ed8121a"},"vehicle_type_id":"4","last_reported":1723651900,"current_range_meters":1600,"station_id":"ce4bhs12rcd13ifvqhvg","pricing_plan_id":"cebpf4jnsgd1na2vs0mg"},{"bike_id":"509a30cd-91a9-46bc-9332-08b97e7e5c43","system_id":"levelo_inurba_marseille","lat":43.324771,"lon":5.36557,"is_reserved":false,"is_disabled":false,"rental_uris":{"android":"levelo://app?vid=509a30cd-91a9-46bc-9332-08b97e7e5c43","ios":"levelo://app?vid=509a30cd-91a9-46bc-9332-08b97e7e5c43"},"vehicle_type_id":"4","last_reported":1723651900,"current_range_meters":8400,"station_id":"ce4bhs12rcd13ifvqhvg","pricing_plan_id":"cebpf4jnsgd1na2vs0mg"},{"bike_id":"5bb173e3-407f-403f-a43d-e2072f86d564","system_id":"levelo_inurba_marseille","lat":43.324771,"lon":5.36557,"is_reserved":false,"is_disabled":false,"rental_uris":{"android":"levelo://app?vid=5bb173e3-407f-403f-a43d-e2072f86d564","ios":"levelo://app?vid=5bb173e3-407f-403f-a43d-e2072f86d564"},"vehicle_type_id":"4","last_reported":1723651900,"current_range_meters":31200,"station_id":"ce4bhs12rcd13ifvqhvg","pricing_plan_id":"cebpf4jnsgd1na2vs0mg"},{"bike_id":"27ea9797-f891-4d99-be0c-2c02bc0c959d","system_id":"levelo_inurba_marseille","lat":43.324771,"lon":5.36557,"is_reserved":false,"is_disabled":false,"rental_uris":{"android":"levelo://app?vid=27ea9797-f891-4d99-be0c-2c02bc0c959d","ios":"levelo://app?vid=27ea9797-f891-4d99-be0c-2c02bc0c959d"},"vehicle_type_id":"4","last_reported":1723651900,"current_range_meters":20000,"station_id":"ce4bhs12rcd13ifvqhvg","pricing_plan_id":"cebpf4jnsgd1na2vs0mg"},{"bike_id":"fff97d24-6f11-4a81-83e3-60cca19db482","system_id":"levelo_inurba_marseille","lat":43.324771,"lon":5.36557,"is_reserved":false,"is_disabled":false,"rental_uris":{"android":"levelo://app?vid=fff97d24-6f11-4a81-83e3-60cca19db482","ios":"levelo://app?vid=fff97d24-6f11-4a81-83e3-60cca19db482"},"vehicle_type_id":"4","last_reported":1723651900,"current_range_meters":15200,"station_id":"ce4bhs12rcd13ifvqhvg","pricing_plan_id":"cebpf4jnsgd1na2vs0mg"},{"bike_id":"48bd7453-3506-45ff-8bd9-0703bbe5a86d","system_id":"levelo_inurba_marseille","lat":43.324771,"lon":5.36557,"is_reserved":false,"is_disabled":false,"rental_uris":{"android":"levelo://app?vid=48bd7453-3506-45ff-8bd9-0703bbe5a86d","ios":"levelo://app?vid=48bd7453-3506-45ff-8bd9-0703bbe5a86d"},"vehicle_type_id":"4","last_reported":1723651900,"current_range_meters":26400,"station_id":"ce4bhs12rcd13ifvqhvg","pricing_plan_id":"cebpf4jnsgd1na2vs0mg"},{"bike_id":"705ea8fb-731e-4f24-84ba-93a6e359399f","system_id":"levelo_inurba_marseille","lat":43.310804,"lon":5.38359,"is_reserved":false,"is_disabled":false,"rental_uris":{"android":"levelo://app?vid=705ea8fb-731e-4f24-84ba-93a6e359399f","ios":"levelo://app?vid=705ea8fb-731e-4f24-84ba-93a6e359399f"},"vehicle_type_id":"4","last_reported":1723651900,"current_range_meters":22000,"station_id":"ce4bgv92rcd13ifvqcr0","pricing_plan_id":"cebpf4jnsgd1na2vs0mg"},{"bike_id":"7c57244d-385d-4740-aab3-8fc86ebdf6da","system_id":"levelo_inurba_marseille","lat":43.310804,"lon":5.38359,"is_reserved":false,"is_disabled":false,"rental_uris":{"android":"levelo://app?vid=7c57244d-385d-4740-aab3-8fc86ebdf6da","ios":"levelo://app?vid=7c57244d-385d-4740-aab3-8fc86ebdf6da"},"vehicle_type_id":"4","last_reported":1723651900,"current_range_meters":15600,"station_id":"ce4bgv92rcd13ifvqcr0","pricing_plan_id":"cebpf4jnsgd1na2vs0mg"},{"bike_id":"a53c443b-dae5-46e3-82e4-e460aba67b1e","system_id":"levelo_inurba_marseille","lat":43.302767,"lon":5.37701,"is_reserved":false,"is_disabled":false,"rental_uris":{"android":"levelo://app?vid=a53c443b-dae5-46e3-82e4-e460aba67b1e","ios":"levelo://app?vid=a53c443b-dae5-46e3-82e4-e460aba67b1e"},"vehicle_type_id":"4","last_reported":1723651900,"current_range_meters":0,"station_id":"ce4bguh2rcd13ifvqcj0","pricing_plan_id":"cebpf4jnsgd1na2vs0mg"},{"bike_id":"7137d73c-9c52-4115-ba8d-baa74e07367d","system_id":"levelo_inurba_marseille","lat":43.30143,"lon":5.37413,"is_reserved":false,"is_disabled":false,"rental_uris":{"android":"levelo://app?vid=7137d73c-9c52-4115-ba8d-baa74e07367d","ios":"levelo://app?vid=7137d73c-9c52-4115-ba8d-baa74e07367d"},"vehicle_type_id":"4","last_reported":1723651900,"current_range_meters":0,"station_id":"ce4bgs92rcd13ifvqcc0","pricing_plan_id":"cebpf4jnsgd1na2vs0mg"},{"bike_id":"a776f9f6-5cd7-4e92-947b-aa3ac5c26ddd","system_id":"levelo_inurba_marseille","lat":43.30603,"lon":5.3815,"is_reserved":false,"is_disabled":false,"rental_uris":{"android":"levelo://app?vid=a776f9f6-5cd7-4e92-947b-aa3ac5c26ddd","ios":"levelo://app?vid=a776f9f6-5cd7-4e92-947b-aa3ac5c26ddd"},"vehicle_type_id":"4","last_reported":1723651900,"current_range_meters":22800,"station_id":"","pricing_plan_id":"cebpf4jnsgd1na2vs0mg"},{"bike_id":"9a1fc124-e25a-408f-a97e-a128f908aa20","system_id":"levelo_inurba_marseille","lat":43.319935,"lon":5.381699,"is_reserved":false,"is_disabled":false,"rental_uris":{"android":"levelo://app?vid=9a1fc124-e25a-408f-a97e-a128f908aa20","ios":"levelo://app?vid=9a1fc124-e25a-408f-a97e-a128f908aa20"},"vehicle_type_id":"4","last_reported":1723651900,"current_range_meters":17600,"station_id":"ce4bhr12rcd13ifvqhpg","pricing_plan_id":"cebpf4jnsgd1na2vs0mg"},{"bike_id":"feb90931-eb40-43f0-953e-3a0a29648df1","system_id":"levelo_inurba_marseille","lat":43.313571,"lon":5.384829,"is_reserved":false,"is_disabled":false,"rental_uris":{"android":"levelo://app?vid=feb90931-eb40-43f0-953e-3a0a29648df1","ios":"levelo://app?vid=feb90931-eb40-43f0-953e-3a0a29648df1"},"vehicle_type_id":"4","last_reported":1723651900,"current_range_meters":10800,"station_id":"ce4bgt92rcd13ifvqcf0","pricing_plan_id":"cebpf4jnsgd1na2vs0mg"},{"bike_id":"1d696228-2441-4184-9837-df788482e21c","system_id":"levelo_inurba_marseille","lat":43.313571,"lon":5.384829,"is_reserved":false,"is_disabled":false,"rental_uris":{"android":"levelo://app?vid=1d696228-2441-4184-9837-df788482e21c","ios":"levelo://app?vid=1d696228-2441-4184-9837-df788482e21c"},"vehicle_type_id":"4","last_reported":1723651900,"current_range_meters":6000,"station_id":"ce4bgt92rcd13ifvqcf0","pricing_plan_id":"cebpf4jnsgd1na2vs0mg"},{"bike_id":"1ee384d1-f45a-455d-9bb6-4ca10ea0b8fe","system_id":"levelo_inurba_marseille","lat":43.29993,"lon":5.37187,"is_reserved":false,"is_disabled":false,"rental_uris":{"android":"levelo://app?vid=1ee384d1-f45a-455d-9bb6-4ca10ea0b8fe","ios":"levelo://app?vid=1ee384d1-f45a-455d-9bb6-4ca10ea0b8fe"},"vehicle_type_id":"4","last_reported":1723651900,"current_range_meters":4000,"station_id":"ce4bgr92rcd13ifvqc7g","pricing_plan_id":"cebpf4jnsgd1na2vs0mg"},{"bike_id":"c9f3f6b1-523b-4a2a-a0e3-851607dadda3","system_id":"levelo_inurba_marseille","lat":43.299222,"lon":5.365554,"is_reserved":false,"is_disabled":false,"rental_uris":{"android":"levelo://app?vid=c9f3f6b1-523b-4a2a-a0e3-851607dadda3","ios":"levelo://app?vid=c9f3f6b1-523b-4a2a-a0e3-851607dadda3"},"vehicle_type_id":"4","last_reported":1723651900,"current_range_meters":14400,"station_id":"ce4bgm92rcd13ifvqbr0","pricing_plan_id":"cebpf4jnsgd1na2vs0mg"},{"bike_id":"c1fffb10-0c46-4823-b13b-e0c01bfb1716","system_id":"levelo_inurba_marseille","lat":43.299724,"lon":5.371829,"is_reserved":false,"is_disabled":false,"rental_uris":{"android":"levelo://app?vid=c1fffb10-0c46-4823-b13b-e0c01bfb1716","ios":"levelo://app?vid=c1fffb10-0c46-4823-b13b-e0c01bfb1716"},"vehicle_type_id":"4","last_reported":1723651900,"current_range_meters":28400,"station_id":"ce4bgr92rcd13ifvqc7g","pricing_plan_id":"cebpf4jnsgd1na2vs0mg"},{"bike_id":"2c691196-a117-479d-b9e6-cf2ed20266a5","system_id":"levelo_inurba_marseille","lat":43.299222,"lon":5.365554,"is_reserved":false,"is_disabled":false,"rental_uris":{"android":"levelo://app?vid=2c691196-a117-479d-b9e6-cf2ed20266a5","ios":"levelo://app?vid=2c691196-a117-479d-b9e6-cf2ed20266a5"},"vehicle_type_id":"4","last_reported":1723651900,"current_range_meters":10400,"station_id":"ce4bgm92rcd13ifvqbr0","pricing_plan_id":"cebpf4jnsgd1na2vs0mg"},{"bike_id":"7ac2250f-a281-4977-8a6a-2d74450ad16c","system_id":"levelo_inurba_marseille","lat":43.299222,"lon":5.365554,"is_reserved":false,"is_disabled":false,"rental_uris":{"android":"levelo://app?vid=7ac2250f-a281-4977-8a6a-2d74450ad16c","ios":"levelo://app?vid=7ac2250f-a281-4977-8a6a-2d74450ad16c"},"vehicle_type_id":"4","last_reported":1723651900,"current_range_meters":20400,"station_id":"ce4bgm92rcd13ifvqbr0","pricing_plan_id":"cebpf4jnsgd1na2vs0mg"},{"bike_id":"a07e5f3e-8b50-42be-a7bd-bde44e65a946","system_id":"levelo_inurba_marseille","lat":43.299724,"lon":5.371829,"is_reserved":false,"is_disabled":false,"rental_uris":{"android":"levelo://app?vid=a07e5f3e-8b50-42be-a7bd-bde44e65a946","ios":"levelo://app?vid=a07e5f3e-8b50-42be-a7bd-bde44e65a946"},"vehicle_type_id":"4","last_reported":1723651900,"current_range_meters":10800,"station_id":"ce4bgr92rcd13ifvqc7g","pricing_plan_id":"cebpf4jnsgd1na2vs0mg"},{"bike_id":"3491d840-e490-4791-aa17-63d56ed8c3f8","system_id":"levelo_inurba_marseille","lat":43.299222,"lon":5.365554,"is_reserved":false,"is_disabled":false,"rental_uris":{"android":"levelo://app?vid=3491d840-e490-4791-aa17-63d56ed8c3f8","ios":"levelo://app?vid=3491d840-e490-4791-aa17-63d56ed8c3f8"},"vehicle_type_id":"4","last_reported":1723651900,"current_range_meters":800,"station_id":"ce4bgm92rcd13ifvqbr0","pricing_plan_id":"cebpf4jnsgd1na2vs0mg"},{"bike_id":"d17e30e9-0938-4c6a-a1f2-1e3d25de7fb9","system_id":"levelo_inurba_marseille","lat":43.305364,"lon":5.384119,"is_reserved":false,"is_disabled":false,"rental_uris":{"android":"levelo://app?vid=d17e30e9-0938-4c6a-a1f2-1e3d25de7fb9","ios":"levelo://app?vid=d17e30e9-0938-4c6a-a1f2-1e3d25de7fb9"},"vehicle_type_id":"4","last_reported":1723651900,"current_range_meters":2400,"station_id":"ce4bgg92rcd13ifvqb30","pricing_plan_id":"cebpf4jnsgd1na2vs0mg"},{"bike_id":"b841c3be-2aa0-4a26-9ca7-4b1f5751278c","system_id":"levelo_inurba_marseille","lat":43.305364,"lon":5.384119,"is_reserved":false,"is_disabled":false,"rental_uris":{"android":"levelo://app?vid=b841c3be-2aa0-4a26-9ca7-4b1f5751278c","ios":"levelo://app?vid=b841c3be-2aa0-4a26-9ca7-4b1f5751278c"},"vehicle_type_id":"4","last_reported":1723651900,"current_range_meters":9600,"station_id":"ce4bgg92rcd13ifvqb30","pricing_plan_id":"cebpf4jnsgd1na2vs0mg"},{"bike_id":"7f1eb614-13b8-49e8-9d20-f98c46674f42","system_id":"levelo_inurba_marseille","lat":43.298433,"lon":5.362774,"is_reserved":false,"is_disabled":false,"rental_uris":{"android":"levelo://app?vid=7f1eb614-13b8-49e8-9d20-f98c46674f42","ios":"levelo://app?vid=7f1eb614-13b8-49e8-9d20-f98c46674f42"},"vehicle_type_id":"4","last_reported":1723651900,"current_range_meters":0,"station_id":"ce4bgpp2rcd13ifvqc3g","pricing_plan_id":"cebpf4jnsgd1na2vs0mg"},{"bike_id":"d48c40bb-200c-4fec-967b-fb75a88bd046","system_id":"levelo_inurba_marseille","lat":43.299243,"lon":5.374807,"is_reserved":false,"is_disabled":false,"rental_uris":{"android":"levelo://app?vid=d48c40bb-200c-4fec-967b-fb75a88bd046","ios":"levelo://app?vid=d48c40bb-200c-4fec-967b-fb75a88bd046"},"vehicle_type_id":"4","last_reported":1723651900,"current_range_meters":2800,"station_id":"ce4bgjh2rcd13ifvqbg0","pricing_plan_id":"cebpf4jnsgd1na2vs0mg"},{"bike_id":"bfe0a92c-f8dd-4767-b6fa-164481101ba9","system_id":"levelo_inurba_marseille","lat":43.311722,"lon":5.387247,"is_reserved":false,"is_disabled":false,"rental_uris":{"android":"levelo://app?vid=bfe0a92c-f8dd-4767-b6fa-164481101ba9","ios":"levelo://app?vid=bfe0a92c-f8dd-4767-b6fa-164481101ba9"},"vehicle_type_id":"4","last_reported":1723651900,"current_range_meters":0,"station_id":"ce4bgv12rcd13ifvqcp0","pricing_plan_id":"cebpf4jnsgd1na2vs0mg"},{"bike_id":"76917b4c-8f83-4407-9e9e-1d543344ffdb","system_id":"levelo_inurba_marseille","lat":43.297163,"lon":5.365866,"is_reserved":false,"is_disabled":false,"rental_uris":{"android":"levelo://app?vid=76917b4c-8f83-4407-9e9e-1d543344ffdb","ios":"levelo://app?vid=76917b4c-8f83-4407-9e9e-1d543344ffdb"},"vehicle_type_id":"4","last_reported":1723651900,"current_range_meters":27600,"station_id":"ce4bgn12rcd13ifvqbt0","pricing_plan_id":"cebpf4jnsgd1na2vs0mg"},{"bike_id":"fabbdb5d-9105-4640-a897-be0933478a7b","system_id":"levelo_inurba_marseille","lat":43.297163,"lon":5.365866,"is_reserved":false,"is_disabled":false,"rental_uris":{"android":"levelo://app?vid=fabbdb5d-9105-4640-a897-be0933478a7b","ios":"levelo://app?vid=fabbdb5d-9105-4640-a897-be0933478a7b"},"vehicle_type_id":"4","last_reported":1723651900,"current_range_meters":800,"station_id":"ce4bgn12rcd13ifvqbt0","pricing_plan_id":"cebpf4jnsgd1na2vs0mg"},{"bike_id":"dda1b2b8-f425-44cb-8f6a-e58c179f956c","system_id":"levelo_inurba_marseille","lat":43.296718,"lon":5.36857,"is_reserved":false,"is_disabled":false,"rental_uris":{"android":"levelo://app?vid=dda1b2b8-f425-44cb-8f6a-e58c179f956c","ios":"levelo://app?vid=dda1b2b8-f425-44cb-8f6a-e58c179f956c"},"vehicle_type_id":"4","last_reported":1723651900,"current_range_meters":4400,"station_id":"","pricing_plan_id":"cebpf4jnsgd1na2vs0mg"},{"bike_id":"83725c55-1bed-4c09-9eee-f4eecc37da73","system_id":"levelo_inurba_marseille","lat":43.29675,"lon":5.37037,"is_reserved":false,"is_disabled":false,"rental_uris":{"android":"levelo://app?vid=83725c55-1bed-4c09-9eee-f4eecc37da73","ios":"levelo://app?vid=83725c55-1bed-4c09-9eee-f4eecc37da73"},"vehicle_type_id":"4","last_reported":1723651900,"current_range_meters":800,"station_id":"","pricing_plan_id":"cebpf4jnsgd1na2vs0mg"},{"bike_id":"00d00075-b858-4789-8a0f-c05c26e628f9","system_id":"levelo_inurba_marseille","lat":43.2968,"lon":5.37291,"is_reserved":false,"is_disabled":false,"rental_uris":{"android":"levelo://app?vid=00d00075-b858-4789-8a0f-c05c26e628f9","ios":"levelo://app?vid=00d00075-b858-4789-8a0f-c05c26e628f9"},"vehicle_type_id":"4","last_reported":1723651900,"current_range_meters":800,"station_id":"ce4bgk12rcd13ifvqbj0","pricing_plan_id":"cebpf4jnsgd1na2vs0mg"},{"bike_id":"a62d60dd-5a5e-4848-80b7-9d3db6664858","system_id":"levelo_inurba_marseille","lat":43.296921,"lon":5.376579,"is_reserved":false,"is_disabled":false,"rental_uris":{"android":"levelo://app?vid=a62d60dd-5a5e-4848-80b7-9d3db6664858","ios":"levelo://app?vid=a62d60dd-5a5e-4848-80b7-9d3db6664858"},"vehicle_type_id":"4","last_reported":1723651900,"current_range_meters":0,"station_id":"ce4bgkh2rcd13ifvqbl0","pricing_plan_id":"cebpf4jnsgd1na2vs0mg"},{"bike_id":"13671db5-2fb1-4865-ac20-cc4f56568285","system_id":"levelo_inurba_marseille","lat":43.309589,"lon":5.390258,"is_reserved":false,"is_disabled":false,"rental_uris":{"android":"levelo://app?vid=13671db5-2fb1-4865-ac20-cc4f56568285","ios":"levelo://app?vid=13671db5-2fb1-4865-ac20-cc4f56568285"},"vehicle_type_id":"4","last_reported":1723651900,"current_range_meters":18400,"station_id":"ce4bgup2rcd13ifvqco0","pricing_plan_id":"cebpf4jnsgd1na2vs0mg"},{"bike_id":"654d450e-151f-482b-807f-bf436edcc72d","system_id":"levelo_inurba_marseille","lat":43.309589,"lon":5.390258,"is_reserved":false,"is_disabled":false,"rental_uris":{"android":"levelo://app?vid=654d450e-151f-482b-807f-bf436edcc72d","ios":"levelo://app?vid=654d450e-151f-482b-807f-bf436edcc72d"},"vehicle_type_id":"4","last_reported":1723651900,"current_range_meters":21600,"station_id":"ce4bgup2rcd13ifvqco0","pricing_plan_id":"cebpf4jnsgd1na2vs0mg"},{"bike_id":"58e4e102-d8f4-4fa9-bdc3-9cc435063f54","system_id":"levelo_inurba_marseille","lat":43.31758,"lon":5.39017,"is_reserved":false,"is_disabled":false,"rental_uris":{"android":"levelo://app?vid=58e4e102-d8f4-4fa9-bdc3-9cc435063f54","ios":"levelo://app?vid=58e4e102-d8f4-4fa9-bdc3-9cc435063f54"},"vehicle_type_id":"4","last_reported":1723651900,"current_range_meters":1200,"station_id":"ce4bhqp2rcd13ifvqhng","pricing_plan_id":"cebpf4jnsgd1na2vs0mg"},{"bike_id":"be47bb4c-58c0-429f-af7c-81e36f16e8e0","system_id":"levelo_inurba_marseille","lat":43.295748,"lon":5.37522,"is_reserved":false,"is_disabled":false,"rental_uris":{"android":"levelo://app?vid=be47bb4c-58c0-429f-af7c-81e36f16e8e0","ios":"levelo://app?vid=be47bb4c-58c0-429f-af7c-81e36f16e8e0"},"vehicle_type_id":"4","last_reported":1723651900,"current_range_meters":0,"station_id":"ce4bgh92rcd13ifvqb50","pricing_plan_id":"cebpf4jnsgd1na2vs0mg"},{"bike_id":"88fb42b6-7d0c-42a7-9b47-c59a5e2063e6","system_id":"levelo_inurba_marseille","lat":43.304278,"lon":5.388868,"is_reserved":false,"is_disabled":false,"rental_uris":{"android":"levelo://app?vid=88fb42b6-7d0c-42a7-9b47-c59a5e2063e6","ios":"levelo://app?vid=88fb42b6-7d0c-42a7-9b47-c59a5e2063e6"},"vehicle_type_id":"4","last_reported":1723651900,"current_range_meters":0,"station_id":"ce4bgk12rcd13ifvqbi0","pricing_plan_id":"cebpf4jnsgd1na2vs0mg"},{"bike_id":"80dc9295-3448-4cf6-9c9c-b1a1a55a3c57","system_id":"levelo_inurba_marseille","lat":43.299724,"lon":5.384848,"is_reserved":false,"is_disabled":false,"rental_uris":{"android":"levelo://app?vid=80dc9295-3448-4cf6-9c9c-b1a1a55a3c57","ios":"levelo://app?vid=80dc9295-3448-4cf6-9c9c-b1a1a55a3c57"},"vehicle_type_id":"4","last_reported":1723651900,"current_range_meters":0,"station_id":"ce4bgj92rcd13ifvqbd0","pricing_plan_id":"cebpf4jnsgd1na2vs0mg"},{"bike_id":"b55da16a-5c6a-4435-8eb9-aa8c640c4ac6","system_id":"levelo_inurba_marseille","lat":43.296549,"lon":5.379693,"is_reserved":false,"is_disabled":false,"rental_uris":{"android":"levelo://app?vid=b55da16a-5c6a-4435-8eb9-aa8c640c4ac6","ios":"levelo://app?vid=b55da16a-5c6a-4435-8eb9-aa8c640c4ac6"},"vehicle_type_id":"4","last_reported":1723651900,"current_range_meters":15600,"station_id":"","pricing_plan_id":"cebpf4jnsgd1na2vs0mg"},{"bike_id":"a8485a56-3c0b-41e7-ae0d-ee481e84c156","system_id":"levelo_inurba_marseille","lat":43.301361,"lon":5.38769,"is_reserved":false,"is_disabled":false,"rental_uris":{"android":"levelo://app?vid=a8485a56-3c0b-41e7-ae0d-ee481e84c156","ios":"levelo://app?vid=a8485a56-3c0b-41e7-ae0d-ee481e84c156"},"vehicle_type_id":"4","last_reported":1723651900,"current_range_meters":18800,"station_id":"ce4bghh2rcd13ifvqb60","pricing_plan_id":"cebpf4jnsgd1na2vs0mg"},{"bike_id":"2346e180-4f32-43a3-aaa1-213c575f6716","system_id":"levelo_inurba_marseille","lat":43.30135,"lon":5.38771,"is_reserved":false,"is_disabled":false,"rental_uris":{"android":"levelo://app?vid=2346e180-4f32-43a3-aaa1-213c575f6716","ios":"levelo://app?vid=2346e180-4f32-43a3-aaa1-213c575f6716"},"vehicle_type_id":"4","last_reported":1723651900,"current_range_meters":2400,"station_id":"ce4bghh2rcd13ifvqb60","pricing_plan_id":"cebpf4jnsgd1na2vs0mg"},{"bike_id":"d6ad820c-9a1e-44fc-80b6-b54a96b4173a","system_id":"levelo_inurba_marseille","lat":43.30137,"lon":5.38783,"is_reserved":false,"is_disabled":false,"rental_uris":{"android":"levelo://app?vid=d6ad820c-9a1e-44fc-80b6-b54a96b4173a","ios":"levelo://app?vid=d6ad820c-9a1e-44fc-80b6-b54a96b4173a"},"vehicle_type_id":"4","last_reported":1723651900,"current_range_meters":0,"station_id":"ce4bghh2rcd13ifvqb60","pricing_plan_id":"cebpf4jnsgd1na2vs0mg"},{"bike_id":"7a3005e5-c810-461c-bf79-404be0da718f","system_id":"levelo_inurba_marseille","lat":43.32367,"lon":5.388836,"is_reserved":false,"is_disabled":false,"rental_uris":{"android":"levelo://app?vid=7a3005e5-c810-461c-bf79-404be0da718f","ios":"levelo://app?vid=7a3005e5-c810-461c-bf79-404be0da718f"},"vehicle_type_id":"4","last_reported":1723651900,"current_range_meters":15600,"station_id":"ce4bhqp2rcd13ifvqhog","pricing_plan_id":"cebpf4jnsgd1na2vs0mg"},{"bike_id":"8461565b-b686-4111-aa0c-32f0016fe9a5","system_id":"levelo_inurba_marseille","lat":43.2968,"lon":5.37291,"is_reserved":false,"is_disabled":false,"rental_uris":{"android":"levelo://app?vid=8461565b-b686-4111-aa0c-32f0016fe9a5","ios":"levelo://app?vid=8461565b-b686-4111-aa0c-32f0016fe9a5"},"vehicle_type_id":"4","last_reported":1723651900,"current_range_meters":11200,"station_id":"ce4bgk12rcd13ifvqbj0","pricing_plan_id":"cebpf4jnsgd1na2vs0mg"},{"bike_id":"17bfcd30-3280-4651-874a-15f9a8f57df2","system_id":"levelo_inurba_marseille","lat":43.29277,"lon":5.368377,"is_reserved":false,"is_disabled":false,"rental_uris":{"android":"levelo://app?vid=17bfcd30-3280-4651-874a-15f9a8f57df2","ios":"levelo://app?vid=17bfcd30-3280-4651-874a-15f9a8f57df2"},"vehicle_type_id":"4","last_reported":1723651900,"current_range_meters":0,"station_id":"ce4bhbp2rcd13ifvqesg","pricing_plan_id":"cebpf4jnsgd1na2vs0mg"},{"bike_id":"9beaf757-0c36-4015-b5f7-c2a6b5461ce0","system_id":"levelo_inurba_marseille","lat":43.29274,"lon":5.36844,"is_reserved":false,"is_disabled":false,"rental_uris":{"android":"levelo://app?vid=9beaf757-0c36-4015-b5f7-c2a6b5461ce0","ios":"levelo://app?vid=9beaf757-0c36-4015-b5f7-c2a6b5461ce0"},"vehicle_type_id":"4","last_reported":1723651900,"current_range_meters":14400,"station_id":"ce4bhbp2rcd13ifvqesg","pricing_plan_id":"cebpf4jnsgd1na2vs0mg"},{"bike_id":"4a4a2cba-c065-462d-9bcb-a96409a54a5a","system_id":"levelo_inurba_marseille","lat":43.29273,"lon":5.3684,"is_reserved":false,"is_disabled":false,"rental_uris":{"android":"levelo://app?vid=4a4a2cba-c065-462d-9bcb-a96409a54a5a","ios":"levelo://app?vid=4a4a2cba-c065-462d-9bcb-a96409a54a5a"},"vehicle_type_id":"4","last_reported":1723651900,"current_range_meters":0,"station_id":"ce4bhbp2rcd13ifvqesg","pricing_plan_id":"cebpf4jnsgd1na2vs0mg"},{"bike_id":"9482da3d-1125-4b65-9621-a588fa95df3a","system_id":"levelo_inurba_marseille","lat":43.293009,"lon":5.374584,"is_reserved":false,"is_disabled":false,"rental_uris":{"android":"levelo://app?vid=9482da3d-1125-4b65-9621-a588fa95df3a","ios":"levelo://app?vid=9482da3d-1125-4b65-9621-a588fa95df3a"},"vehicle_type_id":"4","last_reported":1723651900,"current_range_meters":30400,"station_id":"ce4bgi12rcd13ifvqb70","pricing_plan_id":"cebpf4jnsgd1na2vs0mg"},{"bike_id":"08bc3417-7f51-4a38-8e77-a542cfe0e876","system_id":"levelo_inurba_marseille","lat":43.293009,"lon":5.374584,"is_reserved":false,"is_disabled":false,"rental_uris":{"android":"levelo://app?vid=08bc3417-7f51-4a38-8e77-a542cfe0e876","ios":"levelo://app?vid=08bc3417-7f51-4a38-8e77-a542cfe0e876"},"vehicle_type_id":"4","last_reported":1723651900,"current_range_meters":11200,"station_id":"ce4bgi12rcd13ifvqb70","pricing_plan_id":"cebpf4jnsgd1na2vs0mg"},{"bike_id":"4f8dadeb-bbda-478a-ac4b-ed2927c96e83","system_id":"levelo_inurba_marseille","lat":43.293009,"lon":5.374584,"is_reserved":false,"is_disabled":false,"rental_uris":{"android":"levelo://app?vid=4f8dadeb-bbda-478a-ac4b-ed2927c96e83","ios":"levelo://app?vid=4f8dadeb-bbda-478a-ac4b-ed2927c96e83"},"vehicle_type_id":"4","last_reported":1723651900,"current_range_meters":3600,"station_id":"ce4bgi12rcd13ifvqb70","pricing_plan_id":"cebpf4jnsgd1na2vs0mg"},{"bike_id":"af69ccac-3fa8-41af-82be-2bbe87fd2ff1","system_id":"levelo_inurba_marseille","lat":43.305994,"lon":5.393687,"is_reserved":false,"is_disabled":false,"rental_uris":{"android":"levelo://app?vid=af69ccac-3fa8-41af-82be-2bbe87fd2ff1","ios":"levelo://app?vid=af69ccac-3fa8-41af-82be-2bbe87fd2ff1"},"vehicle_type_id":"4","last_reported":1723651900,"current_range_meters":12400,"station_id":"ce4bh0p2rcd13ifvqd80","pricing_plan_id":"cebpf4jnsgd1na2vs0mg"},{"bike_id":"2b76daab-da52-4896-a125-8c71e7842e5d","system_id":"levelo_inurba_marseille","lat":43.303002,"lon":5.392142,"is_reserved":false,"is_disabled":false,"rental_uris":{"android":"levelo://app?vid=2b76daab-da52-4896-a125-8c71e7842e5d","ios":"levelo://app?vid=2b76daab-da52-4896-a125-8c71e7842e5d"},"vehicle_type_id":"4","last_reported":1723651900,"current_range_meters":1200,"station_id":"ce4bgkh2rcd13ifvqbk0","pricing_plan_id":"cebpf4jnsgd1na2vs0mg"},{"bike_id":"287ff0bc-3550-4820-8afd-d9af65b3ee44","system_id":"levelo_inurba_marseille","lat":43.2936,"lon":5.37835,"is_reserved":false,"is_disabled":false,"rental_uris":{"android":"levelo://app?vid=287ff0bc-3550-4820-8afd-d9af65b3ee44","ios":"levelo://app?vid=287ff0bc-3550-4820-8afd-d9af65b3ee44"},"vehicle_type_id":"4","last_reported":1723651900,"current_range_meters":9600,"station_id":"ce4bgjh2rcd13ifvqbf0","pricing_plan_id":"cebpf4jnsgd1na2vs0mg"},{"bike_id":"15e0a0a6-1f54-4642-b51b-56fcfae11e54","system_id":"levelo_inurba_marseille","lat":43.273613,"lon":5.362705,"is_reserved":false,"is_disabled":false,"rental_uris":{"android":"levelo://app?vid=15e0a0a6-1f54-4642-b51b-56fcfae11e54","ios":"levelo://app?vid=15e0a0a6-1f54-4642-b51b-56fcfae11e54"},"vehicle_type_id":"4","last_reported":1723651900,"current_range_meters":8800,"station_id":"ce4bhbh2rcd13ifvqeo0","pricing_plan_id":"cebpf4jnsgd1na2vs0mg"},{"bike_id":"101a613c-fe0f-465e-ac87-b4902f5d2a8d","system_id":"levelo_inurba_marseille","lat":43.30085,"lon":5.390856,"is_reserved":false,"is_disabled":false,"rental_uris":{"android":"levelo://app?vid=101a613c-fe0f-465e-ac87-b4902f5d2a8d","ios":"levelo://app?vid=101a613c-fe0f-465e-ac87-b4902f5d2a8d"},"vehicle_type_id":"4","last_reported":1723651900,"current_range_meters":14800,"station_id":"ce4bh192rcd13ifvqdb0","pricing_plan_id":"cebpf4jnsgd1na2vs0mg"},{"bike_id":"4ed12842-0e47-422e-bcf7-203932d59d40","system_id":"levelo_inurba_marseille","lat":43.292159,"lon":5.360523,"is_reserved":false,"is_disabled":false,"rental_uris":{"android":"levelo://app?vid=4ed12842-0e47-422e-bcf7-203932d59d40","ios":"levelo://app?vid=4ed12842-0e47-422e-bcf7-203932d59d40"},"vehicle_type_id":"4","last_reported":1723651900,"current_range_meters":31200,"station_id":"ce4bhbh2rcd13ifvqeqg","pricing_plan_id":"cebpf4jnsgd1na2vs0mg"},{"bike_id":"90a14408-f21f-4543-8e51-3ad19a2611b8","system_id":"levelo_inurba_marseille","lat":43.292311,"lon":5.360731,"is_reserved":false,"is_disabled":false,"rental_uris":{"android":"levelo://app?vid=90a14408-f21f-4543-8e51-3ad19a2611b8","ios":"levelo://app?vid=90a14408-f21f-4543-8e51-3ad19a2611b8"},"vehicle_type_id":"4","last_reported":1723651900,"current_range_meters":27600,"station_id":"ce4bhbh2rcd13ifvqeqg","pricing_plan_id":"cebpf4jnsgd1na2vs0mg"},{"bike_id":"7f2f3c3a-1f41-4dea-9413-83091cf2a26c","system_id":"levelo_inurba_marseille","lat":43.30085,"lon":5.390856,"is_reserved":false,"is_disabled":false,"rental_uris":{"android":"levelo://app?vid=7f2f3c3a-1f41-4dea-9413-83091cf2a26c","ios":"levelo://app?vid=7f2f3c3a-1f41-4dea-9413-83091cf2a26c"},"vehicle_type_id":"4","last_reported":1723651900,"current_range_meters":20800,"station_id":"ce4bh192rcd13ifvqdb0","pricing_plan_id":"cebpf4jnsgd1na2vs0mg"},{"bike_id":"c4fef161-ef05-408e-90c4-894653255f90","system_id":"levelo_inurba_marseille","lat":43.29199,"lon":5.35803,"is_reserved":false,"is_disabled":false,"rental_uris":{"android":"levelo://app?vid=c4fef161-ef05-408e-90c4-894653255f90","ios":"levelo://app?vid=c4fef161-ef05-408e-90c4-894653255f90"},"vehicle_type_id":"4","last_reported":1723651900,"current_range_meters":0,"station_id":"ce4bhb12rcd13ifvqel0","pricing_plan_id":"cebpf4jnsgd1na2vs0mg"},{"bike_id":"0f843e46-6ed9-49fa-b2be-3a125ce8eb00","system_id":"levelo_inurba_marseille","lat":43.29191,"lon":5.35805,"is_reserved":false,"is_disabled":false,"rental_uris":{"android":"levelo://app?vid=0f843e46-6ed9-49fa-b2be-3a125ce8eb00","ios":"levelo://app?vid=0f843e46-6ed9-49fa-b2be-3a125ce8eb00"},"vehicle_type_id":"4","last_reported":1723651900,"current_range_meters":14800,"station_id":"ce4bhb12rcd13ifvqel0","pricing_plan_id":"cebpf4jnsgd1na2vs0mg"},{"bike_id":"46844b7a-a734-4ff4-9478-1d933963e955","system_id":"levelo_inurba_marseille","lat":43.31331,"lon":5.39691,"is_reserved":false,"is_disabled":false,"rental_uris":{"android":"levelo://app?vid=46844b7a-a734-4ff4-9478-1d933963e955","ios":"levelo://app?vid=46844b7a-a734-4ff4-9478-1d933963e955"},"vehicle_type_id":"4","last_reported":1723651900,"current_range_meters":18000,"station_id":"ce4bgvp2rcd13ifvqcu0","pricing_plan_id":"cebpf4jnsgd1na2vs0mg"},{"bike_id":"a804f92a-1d44-4d21-b18a-60611e5c7d60","system_id":"levelo_inurba_marseille","lat":43.31331,"lon":5.39696,"is_reserved":false,"is_disabled":false,"rental_uris":{"android":"levelo://app?vid=a804f92a-1d44-4d21-b18a-60611e5c7d60","ios":"levelo://app?vid=a804f92a-1d44-4d21-b18a-60611e5c7d60"},"vehicle_type_id":"4","last_reported":1723651900,"current_range_meters":18800,"station_id":"ce4bgvp2rcd13ifvqcu0","pricing_plan_id":"cebpf4jnsgd1na2vs0mg"},{"bike_id":"c7a3f604-ef21-448e-afa2-393821da168c","system_id":"levelo_inurba_marseille","lat":43.31338,"lon":5.39696,"is_reserved":false,"is_disabled":false,"rental_uris":{"android":"levelo://app?vid=c7a3f604-ef21-448e-afa2-393821da168c","ios":"levelo://app?vid=c7a3f604-ef21-448e-afa2-393821da168c"},"vehicle_type_id":"4","last_reported":1723651900,"current_range_meters":19200,"station_id":"ce4bgvp2rcd13ifvqcu0","pricing_plan_id":"cebpf4jnsgd1na2vs0mg"},{"bike_id":"757f3076-9e3a-4595-a893-a27baf88e594","system_id":"levelo_inurba_marseille","lat":43.29529,"lon":5.385581,"is_reserved":false,"is_disabled":false,"rental_uris":{"android":"levelo://app?vid=757f3076-9e3a-4595-a893-a27baf88e594","ios":"levelo://app?vid=757f3076-9e3a-4595-a893-a27baf88e594"},"vehicle_type_id":"4","last_reported":1723651900,"current_range_meters":400,"station_id":"ce4bgih2rcd13ifvqba0","pricing_plan_id":"cebpf4jnsgd1na2vs0mg"},{"bike_id":"828aafd5-8bdd-4e3c-aaa4-c97669b37598","system_id":"levelo_inurba_marseille","lat":43.29529,"lon":5.385581,"is_reserved":false,"is_disabled":false,"rental_uris":{"android":"levelo://app?vid=828aafd5-8bdd-4e3c-aaa4-c97669b37598","ios":"levelo://app?vid=828aafd5-8bdd-4e3c-aaa4-c97669b37598"},"vehicle_type_id":"4","last_reported":1723651900,"current_range_meters":4400,"station_id":"ce4bgih2rcd13ifvqba0","pricing_plan_id":"cebpf4jnsgd1na2vs0mg"},{"bike_id":"9628bb34-ef82-4f28-a8cf-39d6221beb90","system_id":"levelo_inurba_marseille","lat":43.290779,"lon":5.371482,"is_reserved":false,"is_disabled":false,"rental_uris":{"android":"levelo://app?vid=9628bb34-ef82-4f28-a8cf-39d6221beb90","ios":"levelo://app?vid=9628bb34-ef82-4f28-a8cf-39d6221beb90"},"vehicle_type_id":"4","last_reported":1723651900,"current_range_meters":28400,"station_id":"ce4bh5p2rcd13ifvqe4g","pricing_plan_id":"cebpf4jnsgd1na2vs0mg"},{"bike_id":"2789e3cf-f6aa-4d43-bfa3-b6cf1d8324dd","system_id":"levelo_inurba_marseille","lat":43.290779,"lon":5.371482,"is_reserved":false,"is_disabled":false,"rental_uris":{"android":"levelo://app?vid=2789e3cf-f6aa-4d43-bfa3-b6cf1d8324dd","ios":"levelo://app?vid=2789e3cf-f6aa-4d43-bfa3-b6cf1d8324dd"},"vehicle_type_id":"4","last_reported":1723651900,"current_range_meters":29600,"station_id":"ce4bh5p2rcd13ifvqe4g","pricing_plan_id":"cebpf4jnsgd1na2vs0mg"},{"bike_id":"f3ae02b3-73aa-4b79-bc1f-0547479cc384","system_id":"levelo_inurba_marseille","lat":43.30223,"lon":5.39468,"is_reserved":false,"is_disabled":false,"rental_uris":{"android":"levelo://app?vid=f3ae02b3-73aa-4b79-bc1f-0547479cc384","ios":"levelo://app?vid=f3ae02b3-73aa-4b79-bc1f-0547479cc384"},"vehicle_type_id":"4","last_reported":1723651900,"current_range_meters":0,"station_id":"ce4bh0p2rcd13ifvqd70","pricing_plan_id":"cebpf4jnsgd1na2vs0mg"},{"bike_id":"cd0f73c1-07c1-43af-aef7-2621af514369","system_id":"levelo_inurba_marseille","lat":43.30216,"lon":5.39465,"is_reserved":false,"is_disabled":false,"rental_uris":{"android":"levelo://app?vid=cd0f73c1-07c1-43af-aef7-2621af514369","ios":"levelo://app?vid=cd0f73c1-07c1-43af-aef7-2621af514369"},"vehicle_type_id":"4","last_reported":1723651900,"current_range_meters":7200,"station_id":"ce4bh0p2rcd13ifvqd70","pricing_plan_id":"cebpf4jnsgd1na2vs0mg"},{"bike_id":"7d43ec51-09d5-4b83-be2b-ebb35648eeb9","system_id":"levelo_inurba_marseille","lat":43.290624,"lon":5.359245,"is_reserved":false,"is_disabled":false,"rental_uris":{"android":"levelo://app?vid=7d43ec51-09d5-4b83-be2b-ebb35648eeb9","ios":"levelo://app?vid=7d43ec51-09d5-4b83-be2b-ebb35648eeb9"},"vehicle_type_id":"4","last_reported":1723651900,"current_range_meters":28400,"station_id":"ce4bha92rcd13ifvqeg0","pricing_plan_id":"cebpf4jnsgd1na2vs0mg"},{"bike_id":"c962e926-2ede-4eda-b151-6db65b1e2549","system_id":"levelo_inurba_marseille","lat":43.290624,"lon":5.359245,"is_reserved":false,"is_disabled":false,"rental_uris":{"android":"levelo://app?vid=c962e926-2ede-4eda-b151-6db65b1e2549","ios":"levelo://app?vid=c962e926-2ede-4eda-b151-6db65b1e2549"},"vehicle_type_id":"4","last_reported":1723651900,"current_range_meters":4800,"station_id":"ce4bha92rcd13ifvqeg0","pricing_plan_id":"cebpf4jnsgd1na2vs0mg"},{"bike_id":"b29c082e-9d8a-4983-b492-70e0765897bf","system_id":"levelo_inurba_marseille","lat":43.289468,"lon":5.363719,"is_reserved":false,"is_disabled":false,"rental_uris":{"android":"levelo://app?vid=b29c082e-9d8a-4983-b492-70e0765897bf","ios":"levelo://app?vid=b29c082e-9d8a-4983-b492-70e0765897bf"},"vehicle_type_id":"4","last_reported":1723651900,"current_range_meters":0,"station_id":"ce4bhc92rcd13ifvqetg","pricing_plan_id":"cebpf4jnsgd1na2vs0mg"},{"bike_id":"71f88d6b-401e-4429-8bec-b890ada99697","system_id":"levelo_inurba_marseille","lat":43.290319,"lon":5.375732,"is_reserved":false,"is_disabled":false,"rental_uris":{"android":"levelo://app?vid=71f88d6b-401e-4429-8bec-b890ada99697","ios":"levelo://app?vid=71f88d6b-401e-4429-8bec-b890ada99697"},"vehicle_type_id":"4","last_reported":1723651900,"current_range_meters":0,"station_id":"ce4bh692rcd13ifvqe90","pricing_plan_id":"cebpf4jnsgd1na2vs0mg"},{"bike_id":"6e6b20b9-74bb-4cc0-8e48-e79f2e2beeb5","system_id":"levelo_inurba_marseille","lat":43.294153,"lon":5.386305,"is_reserved":false,"is_disabled":false,"rental_uris":{"android":"levelo://app?vid=6e6b20b9-74bb-4cc0-8e48-e79f2e2beeb5","ios":"levelo://app?vid=6e6b20b9-74bb-4cc0-8e48-e79f2e2beeb5"},"vehicle_type_id":"4","last_reported":1723651900,"current_range_meters":16400,"station_id":"ce4bh2h2rcd13ifvqdh0","pricing_plan_id":"cebpf4jnsgd1na2vs0mg"},{"bike_id":"f4e76a5c-4c4e-4388-bda8-8a50230c643b","system_id":"levelo_inurba_marseille","lat":43.289468,"lon":5.363719,"is_reserved":false,"is_disabled":false,"rental_uris":{"android":"levelo://app?vid=f4e76a5c-4c4e-4388-bda8-8a50230c643b","ios":"levelo://app?vid=f4e76a5c-4c4e-4388-bda8-8a50230c643b"},"vehicle_type_id":"4","last_reported":1723651900,"current_range_meters":27200,"station_id":"ce4bhc92rcd13ifvqetg","pricing_plan_id":"cebpf4jnsgd1na2vs0mg"},{"bike_id":"f794a951-2486-4650-8609-a96469fe7dff","system_id":"levelo_inurba_marseille","lat":43.290493,"lon":5.37783,"is_reserved":false,"is_disabled":false,"rental_uris":{"android":"levelo://app?vid=f794a951-2486-4650-8609-a96469fe7dff","ios":"levelo://app?vid=f794a951-2486-4650-8609-a96469fe7dff"},"vehicle_type_id":"4","last_reported":1723651900,"current_range_meters":0,"station_id":"","pricing_plan_id":"cebpf4jnsgd1na2vs0mg"},{"bike_id":"58281b4b-2c96-46ee-b1fd-68755be41377","system_id":"levelo_inurba_marseille","lat":43.29269,"lon":5.38437,"is_reserved":false,"is_disabled":false,"rental_uris":{"android":"levelo://app?vid=58281b4b-2c96-46ee-b1fd-68755be41377","ios":"levelo://app?vid=58281b4b-2c96-46ee-b1fd-68755be41377"},"vehicle_type_id":"4","last_reported":1723651900,"current_range_meters":0,"station_id":"ce4bh692rcd13ifvqea0","pricing_plan_id":"cebpf4jnsgd1na2vs0mg"},{"bike_id":"f48371d7-f43d-419d-9c02-79b8cdf6bce0","system_id":"levelo_inurba_marseille","lat":43.2901,"lon":5.35613,"is_reserved":false,"is_disabled":false,"rental_uris":{"android":"levelo://app?vid=f48371d7-f43d-419d-9c02-79b8cdf6bce0","ios":"levelo://app?vid=f48371d7-f43d-419d-9c02-79b8cdf6bce0"},"vehicle_type_id":"4","last_reported":1723651900,"current_range_meters":15200,"station_id":"ce4bhb92rcd13ifvqen0","pricing_plan_id":"cebpf4jnsgd1na2vs0mg"},{"bike_id":"d7153ca2-eb4f-41e8-9f64-68671d173291","system_id":"levelo_inurba_marseille","lat":43.29009,"lon":5.3561,"is_reserved":false,"is_disabled":false,"rental_uris":{"android":"levelo://app?vid=d7153ca2-eb4f-41e8-9f64-68671d173291","ios":"levelo://app?vid=d7153ca2-eb4f-41e8-9f64-68671d173291"},"vehicle_type_id":"4","last_reported":1723651900,"current_range_meters":0,"station_id":"ce4bhb92rcd13ifvqen0","pricing_plan_id":"cebpf4jnsgd1na2vs0mg"},{"bike_id":"2f071ecc-fb4c-4f99-ba48-837a645d0c13","system_id":"levelo_inurba_marseille","lat":43.290104,"lon":5.356111,"is_reserved":false,"is_disabled":false,"rental_uris":{"android":"levelo://app?vid=2f071ecc-fb4c-4f99-ba48-837a645d0c13","ios":"levelo://app?vid=2f071ecc-fb4c-4f99-ba48-837a645d0c13"},"vehicle_type_id":"4","last_reported":1723651900,"current_range_meters":1600,"station_id":"ce4bhb92rcd13ifvqen0","pricing_plan_id":"cebpf4jnsgd1na2vs0mg"},{"bike_id":"2b1b1f88-eea6-47f8-a66a-ac2306b60460","system_id":"levelo_inurba_marseille","lat":43.29006,"lon":5.35611,"is_reserved":false,"is_disabled":false,"rental_uris":{"android":"levelo://app?vid=2b1b1f88-eea6-47f8-a66a-ac2306b60460","ios":"levelo://app?vid=2b1b1f88-eea6-47f8-a66a-ac2306b60460"},"vehicle_type_id":"4","last_reported":1723651900,"current_range_meters":31200,"station_id":"ce4bhb92rcd13ifvqen0","pricing_plan_id":"cebpf4jnsgd1na2vs0mg"},{"bike_id":"3586cbfd-671c-4d74-840a-6449fa7a5c00","system_id":"levelo_inurba_marseille","lat":43.290103,"lon":5.356114,"is_reserved":false,"is_disabled":false,"rental_uris":{"android":"levelo://app?vid=3586cbfd-671c-4d74-840a-6449fa7a5c00","ios":"levelo://app?vid=3586cbfd-671c-4d74-840a-6449fa7a5c00"},"vehicle_type_id":"4","last_reported":1723651900,"current_range_meters":19600,"station_id":"ce4bhb92rcd13ifvqen0","pricing_plan_id":"cebpf4jnsgd1na2vs0mg"},{"bike_id":"482cedaa-dc41-4d14-9d4c-80549902b68b","system_id":"levelo_inurba_marseille","lat":43.28821,"lon":5.36426,"is_reserved":false,"is_disabled":false,"rental_uris":{"android":"levelo://app?vid=482cedaa-dc41-4d14-9d4c-80549902b68b","ios":"levelo://app?vid=482cedaa-dc41-4d14-9d4c-80549902b68b"},"vehicle_type_id":"4","last_reported":1723651900,"current_range_meters":8000,"station_id":"","pricing_plan_id":"cebpf4jnsgd1na2vs0mg"},{"bike_id":"65fb5d84-b705-4e30-9725-b9aeb8d8a3b6","system_id":"levelo_inurba_marseille","lat":43.28856,"lon":5.358371,"is_reserved":false,"is_disabled":false,"rental_uris":{"android":"levelo://app?vid=65fb5d84-b705-4e30-9725-b9aeb8d8a3b6","ios":"levelo://app?vid=65fb5d84-b705-4e30-9725-b9aeb8d8a3b6"},"vehicle_type_id":"4","last_reported":1723651900,"current_range_meters":27200,"station_id":"ce4bhb12rcd13ifvqem0","pricing_plan_id":"cebpf4jnsgd1na2vs0mg"},{"bike_id":"2d61d322-3432-4a66-90f0-b96d54dacac4","system_id":"levelo_inurba_marseille","lat":43.31066,"lon":5.400953,"is_reserved":false,"is_disabled":false,"rental_uris":{"android":"levelo://app?vid=2d61d322-3432-4a66-90f0-b96d54dacac4","ios":"levelo://app?vid=2d61d322-3432-4a66-90f0-b96d54dacac4"},"vehicle_type_id":"4","last_reported":1723651900,"current_range_meters":6800,"station_id":"","pricing_plan_id":"cebpf4jnsgd1na2vs0mg"},{"bike_id":"32d16554-5951-49e2-895e-f955294c99aa","system_id":"levelo_inurba_marseille","lat":43.31073,"lon":5.401,"is_reserved":false,"is_disabled":false,"rental_uris":{"android":"levelo://app?vid=32d16554-5951-49e2-895e-f955294c99aa","ios":"levelo://app?vid=32d16554-5951-49e2-895e-f955294c99aa"},"vehicle_type_id":"4","last_reported":1723651900,"current_range_meters":30800,"station_id":"","pricing_plan_id":"cebpf4jnsgd1na2vs0mg"},{"bike_id":"71f10980-56e7-481c-84f0-6be3097c8bdc","system_id":"levelo_inurba_marseille","lat":43.28856,"lon":5.358371,"is_reserved":false,"is_disabled":false,"rental_uris":{"android":"levelo://app?vid=71f10980-56e7-481c-84f0-6be3097c8bdc","ios":"levelo://app?vid=71f10980-56e7-481c-84f0-6be3097c8bdc"},"vehicle_type_id":"4","last_reported":1723651900,"current_range_meters":22000,"station_id":"ce4bhb12rcd13ifvqem0","pricing_plan_id":"cebpf4jnsgd1na2vs0mg"},{"bike_id":"2e2d2365-4c2c-4cee-b67b-9f8a0c4ddb48","system_id":"levelo_inurba_marseille","lat":43.28856,"lon":5.358371,"is_reserved":false,"is_disabled":false,"rental_uris":{"android":"levelo://app?vid=2e2d2365-4c2c-4cee-b67b-9f8a0c4ddb48","ios":"levelo://app?vid=2e2d2365-4c2c-4cee-b67b-9f8a0c4ddb48"},"vehicle_type_id":"4","last_reported":1723651900,"current_range_meters":0,"station_id":"ce4bhb12rcd13ifvqem0","pricing_plan_id":"cebpf4jnsgd1na2vs0mg"},{"bike_id":"1736b6e3-5209-4b56-9ace-f66fcdaad26e","system_id":"levelo_inurba_marseille","lat":43.28856,"lon":5.358371,"is_reserved":false,"is_disabled":false,"rental_uris":{"android":"levelo://app?vid=1736b6e3-5209-4b56-9ace-f66fcdaad26e","ios":"levelo://app?vid=1736b6e3-5209-4b56-9ace-f66fcdaad26e"},"vehicle_type_id":"4","last_reported":1723651900,"current_range_meters":13600,"station_id":"ce4bhb12rcd13ifvqem0","pricing_plan_id":"cebpf4jnsgd1na2vs0mg"},{"bike_id":"65c637fb-522c-4a91-8b75-7ef81fc71ba0","system_id":"levelo_inurba_marseille","lat":43.309371,"lon":5.401449,"is_reserved":false,"is_disabled":false,"rental_uris":{"android":"levelo://app?vid=65c637fb-522c-4a91-8b75-7ef81fc71ba0","ios":"levelo://app?vid=65c637fb-522c-4a91-8b75-7ef81fc71ba0"},"vehicle_type_id":"4","last_reported":1723651900,"current_range_meters":18400,"station_id":"ce4bgvp2rcd13ifvqct0","pricing_plan_id":"cebpf4jnsgd1na2vs0mg"},{"bike_id":"14100eef-46e1-4c61-aa69-dbb202d48c82","system_id":"levelo_inurba_marseille","lat":43.312609,"lon":5.401662,"is_reserved":false,"is_disabled":false,"rental_uris":{"android":"levelo://app?vid=14100eef-46e1-4c61-aa69-dbb202d48c82","ios":"levelo://app?vid=14100eef-46e1-4c61-aa69-dbb202d48c82"},"vehicle_type_id":"4","last_reported":1723651900,"current_range_meters":10800,"station_id":"ce4bh092rcd13ifvqd30","pricing_plan_id":"cebpf4jnsgd1na2vs0mg"},{"bike_id":"ac75d8e5-5139-4e43-a64e-51e7994c2517","system_id":"levelo_inurba_marseille","lat":43.337444,"lon":5.374475,"is_reserved":false,"is_disabled":false,"rental_uris":{"android":"levelo://app?vid=ac75d8e5-5139-4e43-a64e-51e7994c2517","ios":"levelo://app?vid=ac75d8e5-5139-4e43-a64e-51e7994c2517"},"vehicle_type_id":"3","last_reported":1723651900,"current_range_meters":24800,"station_id":"","pricing_plan_id":"cebpf4jnsgd1na2vs0mg"},{"bike_id":"8b50e5ad-5d55-457e-bda9-f44b0e721259","system_id":"levelo_inurba_marseille","lat":43.309371,"lon":5.401449,"is_reserved":false,"is_disabled":false,"rental_uris":{"android":"levelo://app?vid=8b50e5ad-5d55-457e-bda9-f44b0e721259","ios":"levelo://app?vid=8b50e5ad-5d55-457e-bda9-f44b0e721259"},"vehicle_type_id":"4","last_reported":1723651900,"current_range_meters":16800,"station_id":"ce4bgvp2rcd13ifvqct0","pricing_plan_id":"cebpf4jnsgd1na2vs0mg"},{"bike_id":"fcabc2a3-d1a8-42c0-8333-700171eda87f","system_id":"levelo_inurba_marseille","lat":43.312609,"lon":5.401662,"is_reserved":false,"is_disabled":false,"rental_uris":{"android":"levelo://app?vid=fcabc2a3-d1a8-42c0-8333-700171eda87f","ios":"levelo://app?vid=fcabc2a3-d1a8-42c0-8333-700171eda87f"},"vehicle_type_id":"4","last_reported":1723651900,"current_range_meters":30400,"station_id":"ce4bh092rcd13ifvqd30","pricing_plan_id":"cebpf4jnsgd1na2vs0mg"},{"bike_id":"23d673c5-9d2f-494e-9b8b-c92d50f87a3b","system_id":"levelo_inurba_marseille","lat":43.309371,"lon":5.401449,"is_reserved":false,"is_disabled":false,"rental_uris":{"android":"levelo://app?vid=23d673c5-9d2f-494e-9b8b-c92d50f87a3b","ios":"levelo://app?vid=23d673c5-9d2f-494e-9b8b-c92d50f87a3b"},"vehicle_type_id":"4","last_reported":1723651900,"current_range_meters":11200,"station_id":"ce4bgvp2rcd13ifvqct0","pricing_plan_id":"cebpf4jnsgd1na2vs0mg"},{"bike_id":"b2b149a6-e02d-44d5-b369-9d80ef7d1788","system_id":"levelo_inurba_marseille","lat":43.309371,"lon":5.401449,"is_reserved":false,"is_disabled":false,"rental_uris":{"android":"levelo://app?vid=b2b149a6-e02d-44d5-b369-9d80ef7d1788","ios":"levelo://app?vid=b2b149a6-e02d-44d5-b369-9d80ef7d1788"},"vehicle_type_id":"4","last_reported":1723651900,"current_range_meters":20400,"station_id":"ce4bgvp2rcd13ifvqct0","pricing_plan_id":"cebpf4jnsgd1na2vs0mg"},{"bike_id":"c9a48a2b-dc66-4ef2-9dce-2dba31590017","system_id":"levelo_inurba_marseille","lat":43.33749,"lon":5.37459,"is_reserved":false,"is_disabled":false,"rental_uris":{"android":"levelo://app?vid=c9a48a2b-dc66-4ef2-9dce-2dba31590017","ios":"levelo://app?vid=c9a48a2b-dc66-4ef2-9dce-2dba31590017"},"vehicle_type_id":"4","last_reported":1723651900,"current_range_meters":29600,"station_id":"","pricing_plan_id":"cebpf4jnsgd1na2vs0mg"},{"bike_id":"84a0eeef-3a6a-4a61-b5f5-263a18999201","system_id":"levelo_inurba_marseille","lat":43.337506,"lon":5.374581,"is_reserved":false,"is_disabled":false,"rental_uris":{"android":"levelo://app?vid=84a0eeef-3a6a-4a61-b5f5-263a18999201","ios":"levelo://app?vid=84a0eeef-3a6a-4a61-b5f5-263a18999201"},"vehicle_type_id":"4","last_reported":1723651900,"current_range_meters":26000,"station_id":"","pricing_plan_id":"cebpf4jnsgd1na2vs0mg"},{"bike_id":"b7f834fc-727d-4633-a21c-fb42d89ec71c","system_id":"levelo_inurba_marseille","lat":43.30642,"lon":5.401031,"is_reserved":false,"is_disabled":false,"rental_uris":{"android":"levelo://app?vid=b7f834fc-727d-4633-a21c-fb42d89ec71c","ios":"levelo://app?vid=b7f834fc-727d-4633-a21c-fb42d89ec71c"},"vehicle_type_id":"4","last_reported":1723651900,"current_range_meters":24400,"station_id":"ce4bh112rcd13ifvqda0","pricing_plan_id":"cebpf4jnsgd1na2vs0mg"},{"bike_id":"36bf9b78-9359-4b2a-8303-02b7db5e0fdd","system_id":"levelo_inurba_marseille","lat":43.301117,"lon":5.398795,"is_reserved":false,"is_disabled":false,"rental_uris":{"android":"levelo://app?vid=36bf9b78-9359-4b2a-8303-02b7db5e0fdd","ios":"levelo://app?vid=36bf9b78-9359-4b2a-8303-02b7db5e0fdd"},"vehicle_type_id":"4","last_reported":1723651900,"current_range_meters":7600,"station_id":"ce4bh0h2rcd13ifvqd40","pricing_plan_id":"cebpf4jnsgd1na2vs0mg"},{"bike_id":"6ed26414-dca7-4a8a-bb55-8c4d62599636","system_id":"levelo_inurba_marseille","lat":43.301117,"lon":5.398795,"is_reserved":false,"is_disabled":false,"rental_uris":{"android":"levelo://app?vid=6ed26414-dca7-4a8a-bb55-8c4d62599636","ios":"levelo://app?vid=6ed26414-dca7-4a8a-bb55-8c4d62599636"},"vehicle_type_id":"4","last_reported":1723651900,"current_range_meters":18000,"station_id":"ce4bh0h2rcd13ifvqd40","pricing_plan_id":"cebpf4jnsgd1na2vs0mg"},{"bike_id":"93df3cd4-6242-4e40-bd8a-7ce9793a8370","system_id":"levelo_inurba_marseille","lat":43.301117,"lon":5.398795,"is_reserved":false,"is_disabled":false,"rental_uris":{"android":"levelo://app?vid=93df3cd4-6242-4e40-bd8a-7ce9793a8370","ios":"levelo://app?vid=93df3cd4-6242-4e40-bd8a-7ce9793a8370"},"vehicle_type_id":"4","last_reported":1723651900,"current_range_meters":2000,"station_id":"ce4bh0h2rcd13ifvqd40","pricing_plan_id":"cebpf4jnsgd1na2vs0mg"},{"bike_id":"96a6b429-91bc-4dd1-99b8-3fde6664147b","system_id":"levelo_inurba_marseille","lat":43.28727,"lon":5.36078,"is_reserved":false,"is_disabled":false,"rental_uris":{"android":"levelo://app?vid=96a6b429-91bc-4dd1-99b8-3fde6664147b","ios":"levelo://app?vid=96a6b429-91bc-4dd1-99b8-3fde6664147b"},"vehicle_type_id":"4","last_reported":1723651900,"current_range_meters":10400,"station_id":"cki0cbj6b192h4jlfktg","pricing_plan_id":"cebpf4jnsgd1na2vs0mg"},{"bike_id":"2ff55190-2870-4d4c-b651-95856ac29dd0","system_id":"levelo_inurba_marseille","lat":43.28727,"lon":5.36078,"is_reserved":false,"is_disabled":false,"rental_uris":{"android":"levelo://app?vid=2ff55190-2870-4d4c-b651-95856ac29dd0","ios":"levelo://app?vid=2ff55190-2870-4d4c-b651-95856ac29dd0"},"vehicle_type_id":"4","last_reported":1723651900,"current_range_meters":1600,"station_id":"cki0cbj6b192h4jlfktg","pricing_plan_id":"cebpf4jnsgd1na2vs0mg"},{"bike_id":"07597bc0-f6fb-4868-b28d-537ad56bf45e","system_id":"levelo_inurba_marseille","lat":43.286593,"lon":5.363346,"is_reserved":false,"is_disabled":false,"rental_uris":{"android":"levelo://app?vid=07597bc0-f6fb-4868-b28d-537ad56bf45e","ios":"levelo://app?vid=07597bc0-f6fb-4868-b28d-537ad56bf45e"},"vehicle_type_id":"4","last_reported":1723651900,"current_range_meters":19200,"station_id":"ce4bhah2rcd13ifvqej0","pricing_plan_id":"cebpf4jnsgd1na2vs0mg"},{"bike_id":"a579a41f-c353-4fb9-aa10-a1e24bfd6cd9","system_id":"levelo_inurba_marseille","lat":43.298681,"lon":5.397225,"is_reserved":false,"is_disabled":false,"rental_uris":{"android":"levelo://app?vid=a579a41f-c353-4fb9-aa10-a1e24bfd6cd9","ios":"levelo://app?vid=a579a41f-c353-4fb9-aa10-a1e24bfd6cd9"},"vehicle_type_id":"4","last_reported":1723651900,"current_range_meters":20000,"station_id":"ce4bh0h2rcd13ifvqd50","pricing_plan_id":"cebpf4jnsgd1na2vs0mg"},{"bike_id":"2ba073cd-a746-42c3-be1b-1dc65a41a094","system_id":"levelo_inurba_marseille","lat":43.298681,"lon":5.397225,"is_reserved":false,"is_disabled":false,"rental_uris":{"android":"levelo://app?vid=2ba073cd-a746-42c3-be1b-1dc65a41a094","ios":"levelo://app?vid=2ba073cd-a746-42c3-be1b-1dc65a41a094"},"vehicle_type_id":"4","last_reported":1723651900,"current_range_meters":20400,"station_id":"ce4bh0h2rcd13ifvqd50","pricing_plan_id":"cebpf4jnsgd1na2vs0mg"},{"bike_id":"a6b02823-203a-41cc-bf33-e01c082b4ccf","system_id":"levelo_inurba_marseille","lat":43.306412,"lon":5.401035,"is_reserved":false,"is_disabled":false,"rental_uris":{"android":"levelo://app?vid=a6b02823-203a-41cc-bf33-e01c082b4ccf","ios":"levelo://app?vid=a6b02823-203a-41cc-bf33-e01c082b4ccf"},"vehicle_type_id":"4","last_reported":1723651900,"current_range_meters":2800,"station_id":"ce4bh112rcd13ifvqda0","pricing_plan_id":"cebpf4jnsgd1na2vs0mg"},{"bike_id":"20f7af9d-4af8-47d9-a0be-bd8fb80f07a2","system_id":"levelo_inurba_marseille","lat":43.286961,"lon":5.373785,"is_reserved":false,"is_disabled":false,"rental_uris":{"android":"levelo://app?vid=20f7af9d-4af8-47d9-a0be-bd8fb80f07a2","ios":"levelo://app?vid=20f7af9d-4af8-47d9-a0be-bd8fb80f07a2"},"vehicle_type_id":"4","last_reported":1723651900,"current_range_meters":18400,"station_id":"ce4bh3p2rcd13ifvqdq0","pricing_plan_id":"cebpf4jnsgd1na2vs0mg"},{"bike_id":"d2c8023e-9819-4add-9648-cb318b2f5833","system_id":"levelo_inurba_marseille","lat":43.316828,"lon":5.404723,"is_reserved":false,"is_disabled":false,"rental_uris":{"android":"levelo://app?vid=d2c8023e-9819-4add-9648-cb318b2f5833","ios":"levelo://app?vid=d2c8023e-9819-4add-9648-cb318b2f5833"},"vehicle_type_id":"4","last_reported":1723651900,"current_range_meters":14800,"station_id":"ce4bh012rcd13ifvqd00","pricing_plan_id":"cebpf4jnsgd1na2vs0mg"},{"bike_id":"ce6c8fb3-e2bc-481b-9e75-f1a9cc64ca79","system_id":"levelo_inurba_marseille","lat":43.31692,"lon":5.40466,"is_reserved":false,"is_disabled":false,"rental_uris":{"android":"levelo://app?vid=ce6c8fb3-e2bc-481b-9e75-f1a9cc64ca79","ios":"levelo://app?vid=ce6c8fb3-e2bc-481b-9e75-f1a9cc64ca79"},"vehicle_type_id":"4","last_reported":1723651900,"current_range_meters":1600,"station_id":"ce4bh012rcd13ifvqd00","pricing_plan_id":"cebpf4jnsgd1na2vs0mg"},{"bike_id":"e9c094b9-a8bf-49a5-b396-e40015571fc8","system_id":"levelo_inurba_marseille","lat":43.316821,"lon":5.404737,"is_reserved":false,"is_disabled":false,"rental_uris":{"android":"levelo://app?vid=e9c094b9-a8bf-49a5-b396-e40015571fc8","ios":"levelo://app?vid=e9c094b9-a8bf-49a5-b396-e40015571fc8"},"vehicle_type_id":"4","last_reported":1723651900,"current_range_meters":15600,"station_id":"ce4bh012rcd13ifvqd00","pricing_plan_id":"cebpf4jnsgd1na2vs0mg"},{"bike_id":"111c4b89-b147-45c4-aa5a-37fe9814d20e","system_id":"levelo_inurba_marseille","lat":43.291994,"lon":5.392907,"is_reserved":false,"is_disabled":false,"rental_uris":{"android":"levelo://app?vid=111c4b89-b147-45c4-aa5a-37fe9814d20e","ios":"levelo://app?vid=111c4b89-b147-45c4-aa5a-37fe9814d20e"},"vehicle_type_id":"4","last_reported":1723651900,"current_range_meters":24800,"station_id":"ce4bh192rcd13ifvqdd0","pricing_plan_id":"cebpf4jnsgd1na2vs0mg"},{"bike_id":"95bf8baf-ec81-4c4f-a3d0-e5ceeaa78fe8","system_id":"levelo_inurba_marseille","lat":43.284538,"lon":5.358657,"is_reserved":false,"is_disabled":false,"rental_uris":{"android":"levelo://app?vid=95bf8baf-ec81-4c4f-a3d0-e5ceeaa78fe8","ios":"levelo://app?vid=95bf8baf-ec81-4c4f-a3d0-e5ceeaa78fe8"},"vehicle_type_id":"4","last_reported":1723651900,"current_range_meters":20400,"station_id":"ce4bhah2rcd13ifvqei0","pricing_plan_id":"cebpf4jnsgd1na2vs0mg"},{"bike_id":"500b9b51-9871-4fe6-89db-1bb4e3803322","system_id":"levelo_inurba_marseille","lat":43.284534,"lon":5.358662,"is_reserved":false,"is_disabled":false,"rental_uris":{"android":"levelo://app?vid=500b9b51-9871-4fe6-89db-1bb4e3803322","ios":"levelo://app?vid=500b9b51-9871-4fe6-89db-1bb4e3803322"},"vehicle_type_id":"4","last_reported":1723651900,"current_range_meters":0,"station_id":"ce4bhah2rcd13ifvqei0","pricing_plan_id":"cebpf4jnsgd1na2vs0mg"},{"bike_id":"21fa2d86-bc6b-4e1c-9027-363cc9bc16f6","system_id":"levelo_inurba_marseille","lat":43.284538,"lon":5.358657,"is_reserved":false,"is_disabled":false,"rental_uris":{"android":"levelo://app?vid=21fa2d86-bc6b-4e1c-9027-363cc9bc16f6","ios":"levelo://app?vid=21fa2d86-bc6b-4e1c-9027-363cc9bc16f6"},"vehicle_type_id":"4","last_reported":1723651900,"current_range_meters":20400,"station_id":"ce4bhah2rcd13ifvqei0","pricing_plan_id":"cebpf4jnsgd1na2vs0mg"},{"bike_id":"ac23a2c3-240f-4785-afd8-d291d59edb74","system_id":"levelo_inurba_marseille","lat":43.284534,"lon":5.358662,"is_reserved":false,"is_disabled":false,"rental_uris":{"android":"levelo://app?vid=ac23a2c3-240f-4785-afd8-d291d59edb74","ios":"levelo://app?vid=ac23a2c3-240f-4785-afd8-d291d59edb74"},"vehicle_type_id":"4","last_reported":1723651900,"current_range_meters":6400,"station_id":"ce4bhah2rcd13ifvqei0","pricing_plan_id":"cebpf4jnsgd1na2vs0mg"},{"bike_id":"aa67db73-87c2-4af1-ab6a-1456b095bc2c","system_id":"levelo_inurba_marseille","lat":43.284538,"lon":5.358657,"is_reserved":false,"is_disabled":false,"rental_uris":{"android":"levelo://app?vid=aa67db73-87c2-4af1-ab6a-1456b095bc2c","ios":"levelo://app?vid=aa67db73-87c2-4af1-ab6a-1456b095bc2c"},"vehicle_type_id":"4","last_reported":1723651900,"current_range_meters":31200,"station_id":"ce4bhah2rcd13ifvqei0","pricing_plan_id":"cebpf4jnsgd1na2vs0mg"},{"bike_id":"14003976-9023-4ecf-baa2-cea2365fc265","system_id":"levelo_inurba_marseille","lat":43.284534,"lon":5.358662,"is_reserved":false,"is_disabled":false,"rental_uris":{"android":"levelo://app?vid=14003976-9023-4ecf-baa2-cea2365fc265","ios":"levelo://app?vid=14003976-9023-4ecf-baa2-cea2365fc265"},"vehicle_type_id":"4","last_reported":1723651900,"current_range_meters":6400,"station_id":"ce4bhah2rcd13ifvqei0","pricing_plan_id":"cebpf4jnsgd1na2vs0mg"},{"bike_id":"121e6703-0623-465d-b285-2f93a402c406","system_id":"levelo_inurba_marseille","lat":43.285848,"lon":5.350787,"is_reserved":false,"is_disabled":false,"rental_uris":{"android":"levelo://app?vid=121e6703-0623-465d-b285-2f93a402c406","ios":"levelo://app?vid=121e6703-0623-465d-b285-2f93a402c406"},"vehicle_type_id":"4","last_reported":1723651900,"current_range_meters":29200,"station_id":"ce4bhch2rcd13ifvqeug","pricing_plan_id":"cebpf4jnsgd1na2vs0mg"},{"bike_id":"49eff5c2-913c-4835-9726-56acc2168614","system_id":"levelo_inurba_marseille","lat":43.28621,"lon":5.35104,"is_reserved":false,"is_disabled":false,"rental_uris":{"android":"levelo://app?vid=49eff5c2-913c-4835-9726-56acc2168614","ios":"levelo://app?vid=49eff5c2-913c-4835-9726-56acc2168614"},"vehicle_type_id":"4","last_reported":1723651900,"current_range_meters":13600,"station_id":"ce4bhch2rcd13ifvqeug","pricing_plan_id":"cebpf4jnsgd1na2vs0mg"},{"bike_id":"4f29875b-177e-4b27-bd29-182ab7757a65","system_id":"levelo_inurba_marseille","lat":43.2862,"lon":5.35104,"is_reserved":false,"is_disabled":false,"rental_uris":{"android":"levelo://app?vid=4f29875b-177e-4b27-bd29-182ab7757a65","ios":"levelo://app?vid=4f29875b-177e-4b27-bd29-182ab7757a65"},"vehicle_type_id":"4","last_reported":1723651900,"current_range_meters":18000,"station_id":"ce4bhch2rcd13ifvqeug","pricing_plan_id":"cebpf4jnsgd1na2vs0mg"},{"bike_id":"44d03ee8-44c5-48e5-81ee-9f6d3bb4b83a","system_id":"levelo_inurba_marseille","lat":43.2862,"lon":5.35102,"is_reserved":false,"is_disabled":false,"rental_uris":{"android":"levelo://app?vid=44d03ee8-44c5-48e5-81ee-9f6d3bb4b83a","ios":"levelo://app?vid=44d03ee8-44c5-48e5-81ee-9f6d3bb4b83a"},"vehicle_type_id":"4","last_reported":1723651900,"current_range_meters":19200,"station_id":"ce4bhch2rcd13ifvqeug","pricing_plan_id":"cebpf4jnsgd1na2vs0mg"},{"bike_id":"bcd9b6b3-113d-47bc-8110-4fdadec71161","system_id":"levelo_inurba_marseille","lat":43.28618,"lon":5.35107,"is_reserved":false,"is_disabled":false,"rental_uris":{"android":"levelo://app?vid=bcd9b6b3-113d-47bc-8110-4fdadec71161","ios":"levelo://app?vid=bcd9b6b3-113d-47bc-8110-4fdadec71161"},"vehicle_type_id":"4","last_reported":1723651900,"current_range_meters":3200,"station_id":"ce4bhch2rcd13ifvqeug","pricing_plan_id":"cebpf4jnsgd1na2vs0mg"},{"bike_id":"18ea306e-7e17-44c1-943d-c11faefc7b62","system_id":"levelo_inurba_marseille","lat":43.28617,"lon":5.35109,"is_reserved":false,"is_disabled":false,"rental_uris":{"android":"levelo://app?vid=18ea306e-7e17-44c1-943d-c11faefc7b62","ios":"levelo://app?vid=18ea306e-7e17-44c1-943d-c11faefc7b62"},"vehicle_type_id":"4","last_reported":1723651900,"current_range_meters":14000,"station_id":"ce4bhch2rcd13ifvqeug","pricing_plan_id":"cebpf4jnsgd1na2vs0mg"},{"bike_id":"a74fb6ac-c540-4826-ba0f-ffb26da9e3a1","system_id":"levelo_inurba_marseille","lat":43.28618,"lon":5.35105,"is_reserved":false,"is_disabled":false,"rental_uris":{"android":"levelo://app?vid=a74fb6ac-c540-4826-ba0f-ffb26da9e3a1","ios":"levelo://app?vid=a74fb6ac-c540-4826-ba0f-ffb26da9e3a1"},"vehicle_type_id":"4","last_reported":1723651900,"current_range_meters":27200,"station_id":"ce4bhch2rcd13ifvqeug","pricing_plan_id":"cebpf4jnsgd1na2vs0mg"},{"bike_id":"e6cf0569-1d1d-4bf1-8198-244baf27063d","system_id":"levelo_inurba_marseille","lat":43.28618,"lon":5.35104,"is_reserved":false,"is_disabled":false,"rental_uris":{"android":"levelo://app?vid=e6cf0569-1d1d-4bf1-8198-244baf27063d","ios":"levelo://app?vid=e6cf0569-1d1d-4bf1-8198-244baf27063d"},"vehicle_type_id":"4","last_reported":1723651900,"current_range_meters":5200,"station_id":"ce4bhch2rcd13ifvqeug","pricing_plan_id":"cebpf4jnsgd1na2vs0mg"},{"bike_id":"63ac303e-9c84-490c-a823-03456a41c2cf","system_id":"levelo_inurba_marseille","lat":43.28615,"lon":5.35112,"is_reserved":false,"is_disabled":false,"rental_uris":{"android":"levelo://app?vid=63ac303e-9c84-490c-a823-03456a41c2cf","ios":"levelo://app?vid=63ac303e-9c84-490c-a823-03456a41c2cf"},"vehicle_type_id":"4","last_reported":1723651900,"current_range_meters":18000,"station_id":"ce4bhch2rcd13ifvqeug","pricing_plan_id":"cebpf4jnsgd1na2vs0mg"},{"bike_id":"ab0caf5b-7940-4548-b2e3-fd562f708f1a","system_id":"levelo_inurba_marseille","lat":43.28618,"lon":5.35102,"is_reserved":false,"is_disabled":false,"rental_uris":{"android":"levelo://app?vid=ab0caf5b-7940-4548-b2e3-fd562f708f1a","ios":"levelo://app?vid=ab0caf5b-7940-4548-b2e3-fd562f708f1a"},"vehicle_type_id":"4","last_reported":1723651900,"current_range_meters":24000,"station_id":"ce4bhch2rcd13ifvqeug","pricing_plan_id":"cebpf4jnsgd1na2vs0mg"},{"bike_id":"f1912ddf-0ce4-4382-8dba-79aabcf0e7a5","system_id":"levelo_inurba_marseille","lat":43.28617,"lon":5.35104,"is_reserved":false,"is_disabled":false,"rental_uris":{"android":"levelo://app?vid=f1912ddf-0ce4-4382-8dba-79aabcf0e7a5","ios":"levelo://app?vid=f1912ddf-0ce4-4382-8dba-79aabcf0e7a5"},"vehicle_type_id":"4","last_reported":1723651900,"current_range_meters":18800,"station_id":"ce4bhch2rcd13ifvqeug","pricing_plan_id":"cebpf4jnsgd1na2vs0mg"},{"bike_id":"130461ac-d518-4fae-8860-fb33d794737a","system_id":"levelo_inurba_marseille","lat":43.28615,"lon":5.3511,"is_reserved":false,"is_disabled":false,"rental_uris":{"android":"levelo://app?vid=130461ac-d518-4fae-8860-fb33d794737a","ios":"levelo://app?vid=130461ac-d518-4fae-8860-fb33d794737a"},"vehicle_type_id":"4","last_reported":1723651900,"current_range_meters":11600,"station_id":"ce4bhch2rcd13ifvqeug","pricing_plan_id":"cebpf4jnsgd1na2vs0mg"},{"bike_id":"453c73d4-4a78-49d3-96e4-570db40112be","system_id":"levelo_inurba_marseille","lat":43.28616,"lon":5.35105,"is_reserved":false,"is_disabled":false,"rental_uris":{"android":"levelo://app?vid=453c73d4-4a78-49d3-96e4-570db40112be","ios":"levelo://app?vid=453c73d4-4a78-49d3-96e4-570db40112be"},"vehicle_type_id":"4","last_reported":1723651900,"current_range_meters":7200,"station_id":"ce4bhch2rcd13ifvqeug","pricing_plan_id":"cebpf4jnsgd1na2vs0mg"},{"bike_id":"3de45f32-3212-4004-8ba8-d8741ccf71ba","system_id":"levelo_inurba_marseille","lat":43.28616,"lon":5.35105,"is_reserved":false,"is_disabled":false,"rental_uris":{"android":"levelo://app?vid=3de45f32-3212-4004-8ba8-d8741ccf71ba","ios":"levelo://app?vid=3de45f32-3212-4004-8ba8-d8741ccf71ba"},"vehicle_type_id":"4","last_reported":1723651900,"current_range_meters":9600,"station_id":"ce4bhch2rcd13ifvqeug","pricing_plan_id":"cebpf4jnsgd1na2vs0mg"},{"bike_id":"83f7e4f0-a9cd-4ca5-a51b-ff1d158fb582","system_id":"levelo_inurba_marseille","lat":43.28616,"lon":5.35104,"is_reserved":false,"is_disabled":false,"rental_uris":{"android":"levelo://app?vid=83f7e4f0-a9cd-4ca5-a51b-ff1d158fb582","ios":"levelo://app?vid=83f7e4f0-a9cd-4ca5-a51b-ff1d158fb582"},"vehicle_type_id":"4","last_reported":1723651900,"current_range_meters":0,"station_id":"ce4bhch2rcd13ifvqeug","pricing_plan_id":"cebpf4jnsgd1na2vs0mg"},{"bike_id":"37f197f9-bf53-49b0-b0b9-4bfcf52435e4","system_id":"levelo_inurba_marseille","lat":43.286177,"lon":5.35098,"is_reserved":false,"is_disabled":false,"rental_uris":{"android":"levelo://app?vid=37f197f9-bf53-49b0-b0b9-4bfcf52435e4","ios":"levelo://app?vid=37f197f9-bf53-49b0-b0b9-4bfcf52435e4"},"vehicle_type_id":"4","last_reported":1723651900,"current_range_meters":3200,"station_id":"ce4bhch2rcd13ifvqeug","pricing_plan_id":"cebpf4jnsgd1na2vs0mg"},{"bike_id":"19c69424-4979-4f7e-9f2e-24a3ce976360","system_id":"levelo_inurba_marseille","lat":43.28617,"lon":5.351,"is_reserved":false,"is_disabled":false,"rental_uris":{"android":"levelo://app?vid=19c69424-4979-4f7e-9f2e-24a3ce976360","ios":"levelo://app?vid=19c69424-4979-4f7e-9f2e-24a3ce976360"},"vehicle_type_id":"4","last_reported":1723651900,"current_range_meters":9200,"station_id":"ce4bhch2rcd13ifvqeug","pricing_plan_id":"cebpf4jnsgd1na2vs0mg"},{"bike_id":"90bc5d7d-e0b7-4410-92c8-444c09c7d075","system_id":"levelo_inurba_marseille","lat":43.28616,"lon":5.35103,"is_reserved":false,"is_disabled":false,"rental_uris":{"android":"levelo://app?vid=90bc5d7d-e0b7-4410-92c8-444c09c7d075","ios":"levelo://app?vid=90bc5d7d-e0b7-4410-92c8-444c09c7d075"},"vehicle_type_id":"4","last_reported":1723651900,"current_range_meters":13600,"station_id":"ce4bhch2rcd13ifvqeug","pricing_plan_id":"cebpf4jnsgd1na2vs0mg"},{"bike_id":"7cec6ffd-9cb3-4671-be4c-ad4b4a22f25a","system_id":"levelo_inurba_marseille","lat":43.28615,"lon":5.35106,"is_reserved":false,"is_disabled":false,"rental_uris":{"android":"levelo://app?vid=7cec6ffd-9cb3-4671-be4c-ad4b4a22f25a","ios":"levelo://app?vid=7cec6ffd-9cb3-4671-be4c-ad4b4a22f25a"},"vehicle_type_id":"4","last_reported":1723651900,"current_range_meters":25200,"station_id":"ce4bhch2rcd13ifvqeug","pricing_plan_id":"cebpf4jnsgd1na2vs0mg"},{"bike_id":"50591908-0ed4-4645-9f31-327d081200e0","system_id":"levelo_inurba_marseille","lat":43.28616,"lon":5.35102,"is_reserved":false,"is_disabled":false,"rental_uris":{"android":"levelo://app?vid=50591908-0ed4-4645-9f31-327d081200e0","ios":"levelo://app?vid=50591908-0ed4-4645-9f31-327d081200e0"},"vehicle_type_id":"4","last_reported":1723651900,"current_range_meters":800,"station_id":"ce4bhch2rcd13ifvqeug","pricing_plan_id":"cebpf4jnsgd1na2vs0mg"},{"bike_id":"cd1cd192-47f6-4e8a-80c8-ef761988ef10","system_id":"levelo_inurba_marseille","lat":43.28616,"lon":5.351,"is_reserved":false,"is_disabled":false,"rental_uris":{"android":"levelo://app?vid=cd1cd192-47f6-4e8a-80c8-ef761988ef10","ios":"levelo://app?vid=cd1cd192-47f6-4e8a-80c8-ef761988ef10"},"vehicle_type_id":"4","last_reported":1723651900,"current_range_meters":27200,"station_id":"ce4bhch2rcd13ifvqeug","pricing_plan_id":"cebpf4jnsgd1na2vs0mg"},{"bike_id":"8bb65b04-4189-4bef-964c-47f60ce8bf03","system_id":"levelo_inurba_marseille","lat":43.28613,"lon":5.35109,"is_reserved":false,"is_disabled":false,"rental_uris":{"android":"levelo://app?vid=8bb65b04-4189-4bef-964c-47f60ce8bf03","ios":"levelo://app?vid=8bb65b04-4189-4bef-964c-47f60ce8bf03"},"vehicle_type_id":"4","last_reported":1723651900,"current_range_meters":16800,"station_id":"ce4bhch2rcd13ifvqeug","pricing_plan_id":"cebpf4jnsgd1na2vs0mg"},{"bike_id":"2e0b86c6-6ff0-43f8-9058-a972d3299268","system_id":"levelo_inurba_marseille","lat":43.28613,"lon":5.35106,"is_reserved":false,"is_disabled":false,"rental_uris":{"android":"levelo://app?vid=2e0b86c6-6ff0-43f8-9058-a972d3299268","ios":"levelo://app?vid=2e0b86c6-6ff0-43f8-9058-a972d3299268"},"vehicle_type_id":"4","last_reported":1723651900,"current_range_meters":1200,"station_id":"ce4bhch2rcd13ifvqeug","pricing_plan_id":"cebpf4jnsgd1na2vs0mg"},{"bike_id":"a05b9899-264b-45c0-b378-fbd345681dbd","system_id":"levelo_inurba_marseille","lat":43.28613,"lon":5.35105,"is_reserved":false,"is_disabled":false,"rental_uris":{"android":"levelo://app?vid=a05b9899-264b-45c0-b378-fbd345681dbd","ios":"levelo://app?vid=a05b9899-264b-45c0-b378-fbd345681dbd"},"vehicle_type_id":"4","last_reported":1723651900,"current_range_meters":26400,"station_id":"ce4bhch2rcd13ifvqeug","pricing_plan_id":"cebpf4jnsgd1na2vs0mg"},{"bike_id":"10d6d8e1-faf6-4f9f-a749-d9dfb986432c","system_id":"levelo_inurba_marseille","lat":43.28615,"lon":5.35098,"is_reserved":false,"is_disabled":false,"rental_uris":{"android":"levelo://app?vid=10d6d8e1-faf6-4f9f-a749-d9dfb986432c","ios":"levelo://app?vid=10d6d8e1-faf6-4f9f-a749-d9dfb986432c"},"vehicle_type_id":"4","last_reported":1723651900,"current_range_meters":21200,"station_id":"ce4bhch2rcd13ifvqeug","pricing_plan_id":"cebpf4jnsgd1na2vs0mg"},{"bike_id":"3a0a2936-5df3-42ab-8c88-306f8ad31a67","system_id":"levelo_inurba_marseille","lat":43.28612,"lon":5.35107,"is_reserved":false,"is_disabled":false,"rental_uris":{"android":"levelo://app?vid=3a0a2936-5df3-42ab-8c88-306f8ad31a67","ios":"levelo://app?vid=3a0a2936-5df3-42ab-8c88-306f8ad31a67"},"vehicle_type_id":"4","last_reported":1723651900,"current_range_meters":0,"station_id":"ce4bhch2rcd13ifvqeug","pricing_plan_id":"cebpf4jnsgd1na2vs0mg"},{"bike_id":"ba969ca1-fe3d-44fc-ba6f-e2d7dc5943b3","system_id":"levelo_inurba_marseille","lat":43.28614,"lon":5.35099,"is_reserved":false,"is_disabled":false,"rental_uris":{"android":"levelo://app?vid=ba969ca1-fe3d-44fc-ba6f-e2d7dc5943b3","ios":"levelo://app?vid=ba969ca1-fe3d-44fc-ba6f-e2d7dc5943b3"},"vehicle_type_id":"4","last_reported":1723651900,"current_range_meters":21600,"station_id":"ce4bhch2rcd13ifvqeug","pricing_plan_id":"cebpf4jnsgd1na2vs0mg"},{"bike_id":"da9ada02-c627-4e42-928c-1ed26e2e233f","system_id":"levelo_inurba_marseille","lat":43.285848,"lon":5.350787,"is_reserved":false,"is_disabled":false,"rental_uris":{"android":"levelo://app?vid=da9ada02-c627-4e42-928c-1ed26e2e233f","ios":"levelo://app?vid=da9ada02-c627-4e42-928c-1ed26e2e233f"},"vehicle_type_id":"4","last_reported":1723651900,"current_range_meters":25600,"station_id":"ce4bhch2rcd13ifvqeug","pricing_plan_id":"cebpf4jnsgd1na2vs0mg"},{"bike_id":"d0c0ff14-f16e-44bd-bdff-358d986e3061","system_id":"levelo_inurba_marseille","lat":43.28609,"lon":5.35107,"is_reserved":false,"is_disabled":false,"rental_uris":{"android":"levelo://app?vid=d0c0ff14-f16e-44bd-bdff-358d986e3061","ios":"levelo://app?vid=d0c0ff14-f16e-44bd-bdff-358d986e3061"},"vehicle_type_id":"4","last_reported":1723651900,"current_range_meters":27200,"station_id":"ce4bhch2rcd13ifvqeug","pricing_plan_id":"cebpf4jnsgd1na2vs0mg"},{"bike_id":"b2d465ac-655e-4917-8899-9ea2e19f13a7","system_id":"levelo_inurba_marseille","lat":43.28612,"lon":5.35096,"is_reserved":false,"is_disabled":false,"rental_uris":{"android":"levelo://app?vid=b2d465ac-655e-4917-8899-9ea2e19f13a7","ios":"levelo://app?vid=b2d465ac-655e-4917-8899-9ea2e19f13a7"},"vehicle_type_id":"4","last_reported":1723651900,"current_range_meters":25600,"station_id":"ce4bhch2rcd13ifvqeug","pricing_plan_id":"cebpf4jnsgd1na2vs0mg"},{"bike_id":"59f2d52c-a490-44ed-b44c-1d2cb504ec1e","system_id":"levelo_inurba_marseille","lat":43.2861,"lon":5.351,"is_reserved":false,"is_disabled":false,"rental_uris":{"android":"levelo://app?vid=59f2d52c-a490-44ed-b44c-1d2cb504ec1e","ios":"levelo://app?vid=59f2d52c-a490-44ed-b44c-1d2cb504ec1e"},"vehicle_type_id":"4","last_reported":1723651900,"current_range_meters":12800,"station_id":"ce4bhch2rcd13ifvqeug","pricing_plan_id":"cebpf4jnsgd1na2vs0mg"},{"bike_id":"f887b8b1-a991-47f0-ab7a-4a896999fd0c","system_id":"levelo_inurba_marseille","lat":43.283998,"lon":5.375062,"is_reserved":false,"is_disabled":false,"rental_uris":{"android":"levelo://app?vid=f887b8b1-a991-47f0-ab7a-4a896999fd0c","ios":"levelo://app?vid=f887b8b1-a991-47f0-ab7a-4a896999fd0c"},"vehicle_type_id":"4","last_reported":1723651900,"current_range_meters":0,"station_id":"ce4bh412rcd13ifvqds0","pricing_plan_id":"cebpf4jnsgd1na2vs0mg"},{"bike_id":"f53b7586-8fe0-4353-96a3-742e541b5459","system_id":"levelo_inurba_marseille","lat":43.283998,"lon":5.375062,"is_reserved":false,"is_disabled":false,"rental_uris":{"android":"levelo://app?vid=f53b7586-8fe0-4353-96a3-742e541b5459","ios":"levelo://app?vid=f53b7586-8fe0-4353-96a3-742e541b5459"},"vehicle_type_id":"4","last_reported":1723651900,"current_range_meters":18400,"station_id":"ce4bh412rcd13ifvqds0","pricing_plan_id":"cebpf4jnsgd1na2vs0mg"},{"bike_id":"b456dc2d-2deb-46e4-a138-25b77712886e","system_id":"levelo_inurba_marseille","lat":43.283998,"lon":5.375062,"is_reserved":false,"is_disabled":false,"rental_uris":{"android":"levelo://app?vid=b456dc2d-2deb-46e4-a138-25b77712886e","ios":"levelo://app?vid=b456dc2d-2deb-46e4-a138-25b77712886e"},"vehicle_type_id":"4","last_reported":1723651900,"current_range_meters":16800,"station_id":"ce4bh412rcd13ifvqds0","pricing_plan_id":"cebpf4jnsgd1na2vs0mg"},{"bike_id":"e121cfcd-cf06-4a20-b196-2e1f2a16c989","system_id":"levelo_inurba_marseille","lat":43.283998,"lon":5.375062,"is_reserved":false,"is_disabled":false,"rental_uris":{"android":"levelo://app?vid=e121cfcd-cf06-4a20-b196-2e1f2a16c989","ios":"levelo://app?vid=e121cfcd-cf06-4a20-b196-2e1f2a16c989"},"vehicle_type_id":"4","last_reported":1723651900,"current_range_meters":0,"station_id":"ce4bh412rcd13ifvqds0","pricing_plan_id":"cebpf4jnsgd1na2vs0mg"},{"bike_id":"15812b8f-63a9-44b8-a3f0-13f06fc98ae8","system_id":"levelo_inurba_marseille","lat":43.286595,"lon":5.386795,"is_reserved":false,"is_disabled":false,"rental_uris":{"android":"levelo://app?vid=15812b8f-63a9-44b8-a3f0-13f06fc98ae8","ios":"levelo://app?vid=15812b8f-63a9-44b8-a3f0-13f06fc98ae8"},"vehicle_type_id":"4","last_reported":1723651900,"current_range_meters":0,"station_id":"ce4bh492rcd13ifvqdug","pricing_plan_id":"cebpf4jnsgd1na2vs0mg"},{"bike_id":"d12d0fbd-00c1-4b35-b23c-60911f446192","system_id":"levelo_inurba_marseille","lat":43.319179,"lon":5.407725,"is_reserved":false,"is_disabled":false,"rental_uris":{"android":"levelo://app?vid=d12d0fbd-00c1-4b35-b23c-60911f446192","ios":"levelo://app?vid=d12d0fbd-00c1-4b35-b23c-60911f446192"},"vehicle_type_id":"4","last_reported":1723651900,"current_range_meters":24800,"station_id":"ce4bhq12rcd13ifvqhig","pricing_plan_id":"cebpf4jnsgd1na2vs0mg"},{"bike_id":"92f60064-1e39-4eab-b543-4d76f1c4e106","system_id":"levelo_inurba_marseille","lat":43.319179,"lon":5.407725,"is_reserved":false,"is_disabled":false,"rental_uris":{"android":"levelo://app?vid=92f60064-1e39-4eab-b543-4d76f1c4e106","ios":"levelo://app?vid=92f60064-1e39-4eab-b543-4d76f1c4e106"},"vehicle_type_id":"4","last_reported":1723651900,"current_range_meters":28800,"station_id":"ce4bhq12rcd13ifvqhig","pricing_plan_id":"cebpf4jnsgd1na2vs0mg"},{"bike_id":"5b8ce141-668f-4990-8fc2-9bdac4c0295c","system_id":"levelo_inurba_marseille","lat":43.319179,"lon":5.407725,"is_reserved":false,"is_disabled":false,"rental_uris":{"android":"levelo://app?vid=5b8ce141-668f-4990-8fc2-9bdac4c0295c","ios":"levelo://app?vid=5b8ce141-668f-4990-8fc2-9bdac4c0295c"},"vehicle_type_id":"4","last_reported":1723651900,"current_range_meters":10000,"station_id":"ce4bhq12rcd13ifvqhig","pricing_plan_id":"cebpf4jnsgd1na2vs0mg"},{"bike_id":"d6686fcd-f6f6-44eb-83a5-a7dd03d1a3da","system_id":"levelo_inurba_marseille","lat":43.323464,"lon":5.406297,"is_reserved":false,"is_disabled":false,"rental_uris":{"android":"levelo://app?vid=d6686fcd-f6f6-44eb-83a5-a7dd03d1a3da","ios":"levelo://app?vid=d6686fcd-f6f6-44eb-83a5-a7dd03d1a3da"},"vehicle_type_id":"4","last_reported":1723651900,"current_range_meters":31200,"station_id":"ce4bhq92rcd13ifvqhjg","pricing_plan_id":"cebpf4jnsgd1na2vs0mg"},{"bike_id":"e8f7e3aa-cd0b-4fcb-98b9-3e716b6a37f6","system_id":"levelo_inurba_marseille","lat":43.32341,"lon":5.40616,"is_reserved":false,"is_disabled":false,"rental_uris":{"android":"levelo://app?vid=e8f7e3aa-cd0b-4fcb-98b9-3e716b6a37f6","ios":"levelo://app?vid=e8f7e3aa-cd0b-4fcb-98b9-3e716b6a37f6"},"vehicle_type_id":"4","last_reported":1723651900,"current_range_meters":12800,"station_id":"ce4bhq92rcd13ifvqhjg","pricing_plan_id":"cebpf4jnsgd1na2vs0mg"},{"bike_id":"47c37e0d-d9e0-4351-ab25-1f038e0d3880","system_id":"levelo_inurba_marseille","lat":43.323464,"lon":5.406297,"is_reserved":false,"is_disabled":false,"rental_uris":{"android":"levelo://app?vid=47c37e0d-d9e0-4351-ab25-1f038e0d3880","ios":"levelo://app?vid=47c37e0d-d9e0-4351-ab25-1f038e0d3880"},"vehicle_type_id":"4","last_reported":1723651900,"current_range_meters":18400,"station_id":"ce4bhq92rcd13ifvqhjg","pricing_plan_id":"cebpf4jnsgd1na2vs0mg"},{"bike_id":"df02804a-3240-4a4c-95ff-707335071127","system_id":"levelo_inurba_marseille","lat":43.323464,"lon":5.406297,"is_reserved":false,"is_disabled":false,"rental_uris":{"android":"levelo://app?vid=df02804a-3240-4a4c-95ff-707335071127","ios":"levelo://app?vid=df02804a-3240-4a4c-95ff-707335071127"},"vehicle_type_id":"4","last_reported":1723651900,"current_range_meters":19600,"station_id":"ce4bhq92rcd13ifvqhjg","pricing_plan_id":"cebpf4jnsgd1na2vs0mg"},{"bike_id":"06be2165-9951-484c-a324-033fd4c22f6b","system_id":"levelo_inurba_marseille","lat":43.33724,"lon":5.392,"is_reserved":false,"is_disabled":false,"rental_uris":{"android":"levelo://app?vid=06be2165-9951-484c-a324-033fd4c22f6b","ios":"levelo://app?vid=06be2165-9951-484c-a324-033fd4c22f6b"},"vehicle_type_id":"4","last_reported":1723651900,"current_range_meters":27200,"station_id":"ce4bhr92rcd13ifvqhsg","pricing_plan_id":"cebpf4jnsgd1na2vs0mg"},{"bike_id":"e831bd7a-2ef5-4ff7-be14-99abaddf9879","system_id":"levelo_inurba_marseille","lat":43.32346,"lon":5.40627,"is_reserved":false,"is_disabled":false,"rental_uris":{"android":"levelo://app?vid=e831bd7a-2ef5-4ff7-be14-99abaddf9879","ios":"levelo://app?vid=e831bd7a-2ef5-4ff7-be14-99abaddf9879"},"vehicle_type_id":"4","last_reported":1723651900,"current_range_meters":4000,"station_id":"ce4bhq92rcd13ifvqhjg","pricing_plan_id":"cebpf4jnsgd1na2vs0mg"},{"bike_id":"6dcab142-4fca-4757-9ffb-52372fc2bcc3","system_id":"levelo_inurba_marseille","lat":43.288497,"lon":5.393089,"is_reserved":false,"is_disabled":false,"rental_uris":{"android":"levelo://app?vid=6dcab142-4fca-4757-9ffb-52372fc2bcc3","ios":"levelo://app?vid=6dcab142-4fca-4757-9ffb-52372fc2bcc3"},"vehicle_type_id":"4","last_reported":1723651900,"current_range_meters":1200,"station_id":"ce4bh2p2rcd13ifvqdi0","pricing_plan_id":"cebpf4jnsgd1na2vs0mg"},{"bike_id":"bcb74a48-1e5d-4f0e-8ff9-05e1ab9d81ec","system_id":"levelo_inurba_marseille","lat":43.284285,"lon":5.349948,"is_reserved":false,"is_disabled":false,"rental_uris":{"android":"levelo://app?vid=bcb74a48-1e5d-4f0e-8ff9-05e1ab9d81ec","ios":"levelo://app?vid=bcb74a48-1e5d-4f0e-8ff9-05e1ab9d81ec"},"vehicle_type_id":"4","last_reported":1723651900,"current_range_meters":10800,"station_id":"ce4bhbh2rcd13ifvqepg","pricing_plan_id":"cebpf4jnsgd1na2vs0mg"},{"bike_id":"7bd6ad99-09f0-4dfb-92be-3a3eee7c0319","system_id":"levelo_inurba_marseille","lat":43.28421,"lon":5.34998,"is_reserved":false,"is_disabled":false,"rental_uris":{"android":"levelo://app?vid=7bd6ad99-09f0-4dfb-92be-3a3eee7c0319","ios":"levelo://app?vid=7bd6ad99-09f0-4dfb-92be-3a3eee7c0319"},"vehicle_type_id":"4","last_reported":1723651900,"current_range_meters":28800,"station_id":"ce4bhbh2rcd13ifvqepg","pricing_plan_id":"cebpf4jnsgd1na2vs0mg"},{"bike_id":"da3dafc7-aa1d-448b-b5da-21e4d8d73345","system_id":"levelo_inurba_marseille","lat":43.28425,"lon":5.34983,"is_reserved":false,"is_disabled":false,"rental_uris":{"android":"levelo://app?vid=da3dafc7-aa1d-448b-b5da-21e4d8d73345","ios":"levelo://app?vid=da3dafc7-aa1d-448b-b5da-21e4d8d73345"},"vehicle_type_id":"4","last_reported":1723651900,"current_range_meters":26000,"station_id":"ce4bhbh2rcd13ifvqepg","pricing_plan_id":"cebpf4jnsgd1na2vs0mg"},{"bike_id":"5340c0f9-6754-45ed-95df-aaf7a57431c3","system_id":"levelo_inurba_marseille","lat":43.284219,"lon":5.3497,"is_reserved":false,"is_disabled":false,"rental_uris":{"android":"levelo://app?vid=5340c0f9-6754-45ed-95df-aaf7a57431c3","ios":"levelo://app?vid=5340c0f9-6754-45ed-95df-aaf7a57431c3"},"vehicle_type_id":"4","last_reported":1723651900,"current_range_meters":31200,"station_id":"ce4bhbh2rcd13ifvqepg","pricing_plan_id":"cebpf4jnsgd1na2vs0mg"},{"bike_id":"501fb85d-b481-43df-ab68-70405ac1e855","system_id":"levelo_inurba_marseille","lat":43.284224,"lon":5.349884,"is_reserved":false,"is_disabled":false,"rental_uris":{"android":"levelo://app?vid=501fb85d-b481-43df-ab68-70405ac1e855","ios":"levelo://app?vid=501fb85d-b481-43df-ab68-70405ac1e855"},"vehicle_type_id":"4","last_reported":1723651900,"current_range_meters":7200,"station_id":"ce4bhbh2rcd13ifvqepg","pricing_plan_id":"cebpf4jnsgd1na2vs0mg"},{"bike_id":"4215a6a7-d9a4-4731-9f58-dcc7b576e08d","system_id":"levelo_inurba_marseille","lat":43.284228,"lon":5.349848,"is_reserved":false,"is_disabled":false,"rental_uris":{"android":"levelo://app?vid=4215a6a7-d9a4-4731-9f58-dcc7b576e08d","ios":"levelo://app?vid=4215a6a7-d9a4-4731-9f58-dcc7b576e08d"},"vehicle_type_id":"4","last_reported":1723651900,"current_range_meters":19200,"station_id":"ce4bhbh2rcd13ifvqepg","pricing_plan_id":"cebpf4jnsgd1na2vs0mg"},{"bike_id":"c7fbf94a-01b8-48cb-9df4-8f64dc54d6f5","system_id":"levelo_inurba_marseille","lat":43.284219,"lon":5.3497,"is_reserved":false,"is_disabled":false,"rental_uris":{"android":"levelo://app?vid=c7fbf94a-01b8-48cb-9df4-8f64dc54d6f5","ios":"levelo://app?vid=c7fbf94a-01b8-48cb-9df4-8f64dc54d6f5"},"vehicle_type_id":"4","last_reported":1723651900,"current_range_meters":8800,"station_id":"ce4bhbh2rcd13ifvqepg","pricing_plan_id":"cebpf4jnsgd1na2vs0mg"},{"bike_id":"f00080f6-e89e-4e41-aa3e-1fad49e3f4d2","system_id":"levelo_inurba_marseille","lat":43.28421,"lon":5.34989,"is_reserved":false,"is_disabled":false,"rental_uris":{"android":"levelo://app?vid=f00080f6-e89e-4e41-aa3e-1fad49e3f4d2","ios":"levelo://app?vid=f00080f6-e89e-4e41-aa3e-1fad49e3f4d2"},"vehicle_type_id":"4","last_reported":1723651900,"current_range_meters":18000,"station_id":"ce4bhbh2rcd13ifvqepg","pricing_plan_id":"cebpf4jnsgd1na2vs0mg"},{"bike_id":"bb3f9e57-2153-42ae-8c67-6c44fcb29b98","system_id":"levelo_inurba_marseille","lat":43.28421,"lon":5.34988,"is_reserved":false,"is_disabled":false,"rental_uris":{"android":"levelo://app?vid=bb3f9e57-2153-42ae-8c67-6c44fcb29b98","ios":"levelo://app?vid=bb3f9e57-2153-42ae-8c67-6c44fcb29b98"},"vehicle_type_id":"4","last_reported":1723651900,"current_range_meters":7200,"station_id":"ce4bhbh2rcd13ifvqepg","pricing_plan_id":"cebpf4jnsgd1na2vs0mg"},{"bike_id":"764a69c6-03b5-478e-bc7b-1afce3a431af","system_id":"levelo_inurba_marseille","lat":43.28423,"lon":5.349805,"is_reserved":false,"is_disabled":false,"rental_uris":{"android":"levelo://app?vid=764a69c6-03b5-478e-bc7b-1afce3a431af","ios":"levelo://app?vid=764a69c6-03b5-478e-bc7b-1afce3a431af"},"vehicle_type_id":"4","last_reported":1723651900,"current_range_meters":8000,"station_id":"ce4bhbh2rcd13ifvqepg","pricing_plan_id":"cebpf4jnsgd1na2vs0mg"},{"bike_id":"a222359a-6e86-4eb0-8d68-314094bc224e","system_id":"levelo_inurba_marseille","lat":43.284213,"lon":5.349856,"is_reserved":false,"is_disabled":false,"rental_uris":{"android":"levelo://app?vid=a222359a-6e86-4eb0-8d68-314094bc224e","ios":"levelo://app?vid=a222359a-6e86-4eb0-8d68-314094bc224e"},"vehicle_type_id":"4","last_reported":1723651900,"current_range_meters":6800,"station_id":"ce4bhbh2rcd13ifvqepg","pricing_plan_id":"cebpf4jnsgd1na2vs0mg"},{"bike_id":"fcb4291c-0c60-470b-899f-c793dc8498ee","system_id":"levelo_inurba_marseille","lat":43.284219,"lon":5.3497,"is_reserved":false,"is_disabled":false,"rental_uris":{"android":"levelo://app?vid=fcb4291c-0c60-470b-899f-c793dc8498ee","ios":"levelo://app?vid=fcb4291c-0c60-470b-899f-c793dc8498ee"},"vehicle_type_id":"4","last_reported":1723651900,"current_range_meters":30800,"station_id":"ce4bhbh2rcd13ifvqepg","pricing_plan_id":"cebpf4jnsgd1na2vs0mg"},{"bike_id":"7d73f3df-f06f-4a71-997b-ed0a3ce145ff","system_id":"levelo_inurba_marseille","lat":43.2842,"lon":5.34989,"is_reserved":false,"is_disabled":false,"rental_uris":{"android":"levelo://app?vid=7d73f3df-f06f-4a71-997b-ed0a3ce145ff","ios":"levelo://app?vid=7d73f3df-f06f-4a71-997b-ed0a3ce145ff"},"vehicle_type_id":"4","last_reported":1723651900,"current_range_meters":23200,"station_id":"ce4bhbh2rcd13ifvqepg","pricing_plan_id":"cebpf4jnsgd1na2vs0mg"},{"bike_id":"eeb9ee66-5192-41b9-957f-dadf071150d9","system_id":"levelo_inurba_marseille","lat":43.284217,"lon":5.349697,"is_reserved":false,"is_disabled":false,"rental_uris":{"android":"levelo://app?vid=eeb9ee66-5192-41b9-957f-dadf071150d9","ios":"levelo://app?vid=eeb9ee66-5192-41b9-957f-dadf071150d9"},"vehicle_type_id":"4","last_reported":1723651900,"current_range_meters":26800,"station_id":"ce4bhbh2rcd13ifvqepg","pricing_plan_id":"cebpf4jnsgd1na2vs0mg"},{"bike_id":"b1e9090f-8e2e-4c45-bd0e-54032fa478b9","system_id":"levelo_inurba_marseille","lat":43.284227,"lon":5.349788,"is_reserved":false,"is_disabled":false,"rental_uris":{"android":"levelo://app?vid=b1e9090f-8e2e-4c45-bd0e-54032fa478b9","ios":"levelo://app?vid=b1e9090f-8e2e-4c45-bd0e-54032fa478b9"},"vehicle_type_id":"4","last_reported":1723651900,"current_range_meters":13600,"station_id":"ce4bhbh2rcd13ifvqepg","pricing_plan_id":"cebpf4jnsgd1na2vs0mg"},{"bike_id":"c79727ff-7545-434a-a011-49579717b194","system_id":"levelo_inurba_marseille","lat":43.284233,"lon":5.349763,"is_reserved":false,"is_disabled":false,"rental_uris":{"android":"levelo://app?vid=c79727ff-7545-434a-a011-49579717b194","ios":"levelo://app?vid=c79727ff-7545-434a-a011-49579717b194"},"vehicle_type_id":"4","last_reported":1723651900,"current_range_meters":24400,"station_id":"ce4bhbh2rcd13ifvqepg","pricing_plan_id":"cebpf4jnsgd1na2vs0mg"},{"bike_id":"b37634ff-68eb-488b-a26f-78803d7165da","system_id":"levelo_inurba_marseille","lat":43.284219,"lon":5.3497,"is_reserved":false,"is_disabled":false,"rental_uris":{"android":"levelo://app?vid=b37634ff-68eb-488b-a26f-78803d7165da","ios":"levelo://app?vid=b37634ff-68eb-488b-a26f-78803d7165da"},"vehicle_type_id":"4","last_reported":1723651900,"current_range_meters":31200,"station_id":"ce4bhbh2rcd13ifvqepg","pricing_plan_id":"cebpf4jnsgd1na2vs0mg"},{"bike_id":"b94006ed-807f-4cae-a533-457ec85e3547","system_id":"levelo_inurba_marseille","lat":43.284219,"lon":5.3497,"is_reserved":false,"is_disabled":false,"rental_uris":{"android":"levelo://app?vid=b94006ed-807f-4cae-a533-457ec85e3547","ios":"levelo://app?vid=b94006ed-807f-4cae-a533-457ec85e3547"},"vehicle_type_id":"4","last_reported":1723651900,"current_range_meters":29200,"station_id":"ce4bhbh2rcd13ifvqepg","pricing_plan_id":"cebpf4jnsgd1na2vs0mg"},{"bike_id":"fac1b446-a794-4fac-8baa-8b05836d422a","system_id":"levelo_inurba_marseille","lat":43.284219,"lon":5.3497,"is_reserved":false,"is_disabled":false,"rental_uris":{"android":"levelo://app?vid=fac1b446-a794-4fac-8baa-8b05836d422a","ios":"levelo://app?vid=fac1b446-a794-4fac-8baa-8b05836d422a"},"vehicle_type_id":"4","last_reported":1723651900,"current_range_meters":19200,"station_id":"ce4bhbh2rcd13ifvqepg","pricing_plan_id":"cebpf4jnsgd1na2vs0mg"},{"bike_id":"3a69aeef-9bb9-4e59-9905-cc7b291f3ab8","system_id":"levelo_inurba_marseille","lat":43.284217,"lon":5.349697,"is_reserved":false,"is_disabled":false,"rental_uris":{"android":"levelo://app?vid=3a69aeef-9bb9-4e59-9905-cc7b291f3ab8","ios":"levelo://app?vid=3a69aeef-9bb9-4e59-9905-cc7b291f3ab8"},"vehicle_type_id":"4","last_reported":1723651900,"current_range_meters":16800,"station_id":"ce4bhbh2rcd13ifvqepg","pricing_plan_id":"cebpf4jnsgd1na2vs0mg"},{"bike_id":"bad91352-fc89-4b89-857a-77200c8242fb","system_id":"levelo_inurba_marseille","lat":43.284217,"lon":5.349697,"is_reserved":false,"is_disabled":false,"rental_uris":{"android":"levelo://app?vid=bad91352-fc89-4b89-857a-77200c8242fb","ios":"levelo://app?vid=bad91352-fc89-4b89-857a-77200c8242fb"},"vehicle_type_id":"4","last_reported":1723651900,"current_range_meters":20800,"station_id":"ce4bhbh2rcd13ifvqepg","pricing_plan_id":"cebpf4jnsgd1na2vs0mg"},{"bike_id":"2ab5df9d-64fb-4277-9836-ecb11217bb0f","system_id":"levelo_inurba_marseille","lat":43.28414,"lon":5.34997,"is_reserved":false,"is_disabled":false,"rental_uris":{"android":"levelo://app?vid=2ab5df9d-64fb-4277-9836-ecb11217bb0f","ios":"levelo://app?vid=2ab5df9d-64fb-4277-9836-ecb11217bb0f"},"vehicle_type_id":"4","last_reported":1723651900,"current_range_meters":8400,"station_id":"ce4bhbh2rcd13ifvqepg","pricing_plan_id":"cebpf4jnsgd1na2vs0mg"},{"bike_id":"8b09fe3f-f362-4a19-8737-f022bfeae2cf","system_id":"levelo_inurba_marseille","lat":43.284219,"lon":5.3497,"is_reserved":false,"is_disabled":false,"rental_uris":{"android":"levelo://app?vid=8b09fe3f-f362-4a19-8737-f022bfeae2cf","ios":"levelo://app?vid=8b09fe3f-f362-4a19-8737-f022bfeae2cf"},"vehicle_type_id":"4","last_reported":1723651900,"current_range_meters":31600,"station_id":"ce4bhbh2rcd13ifvqepg","pricing_plan_id":"cebpf4jnsgd1na2vs0mg"},{"bike_id":"99ff331e-e02e-4e53-a307-4803eb1325b4","system_id":"levelo_inurba_marseille","lat":43.284219,"lon":5.3497,"is_reserved":false,"is_disabled":false,"rental_uris":{"android":"levelo://app?vid=99ff331e-e02e-4e53-a307-4803eb1325b4","ios":"levelo://app?vid=99ff331e-e02e-4e53-a307-4803eb1325b4"},"vehicle_type_id":"4","last_reported":1723651900,"current_range_meters":24800,"station_id":"ce4bhbh2rcd13ifvqepg","pricing_plan_id":"cebpf4jnsgd1na2vs0mg"},{"bike_id":"3bfddbde-c39f-45f4-ae4d-2897b49f74fc","system_id":"levelo_inurba_marseille","lat":43.284217,"lon":5.349697,"is_reserved":false,"is_disabled":false,"rental_uris":{"android":"levelo://app?vid=3bfddbde-c39f-45f4-ae4d-2897b49f74fc","ios":"levelo://app?vid=3bfddbde-c39f-45f4-ae4d-2897b49f74fc"},"vehicle_type_id":"4","last_reported":1723651900,"current_range_meters":26000,"station_id":"ce4bhbh2rcd13ifvqepg","pricing_plan_id":"cebpf4jnsgd1na2vs0mg"},{"bike_id":"b89ba080-c82c-48d9-9df9-0c8ff2b83136","system_id":"levelo_inurba_marseille","lat":43.28417,"lon":5.34986,"is_reserved":false,"is_disabled":false,"rental_uris":{"android":"levelo://app?vid=b89ba080-c82c-48d9-9df9-0c8ff2b83136","ios":"levelo://app?vid=b89ba080-c82c-48d9-9df9-0c8ff2b83136"},"vehicle_type_id":"4","last_reported":1723651900,"current_range_meters":12800,"station_id":"ce4bhbh2rcd13ifvqepg","pricing_plan_id":"cebpf4jnsgd1na2vs0mg"},{"bike_id":"0d479707-020d-4038-a6be-c57e300551a5","system_id":"levelo_inurba_marseille","lat":43.28415,"lon":5.34992,"is_reserved":false,"is_disabled":false,"rental_uris":{"android":"levelo://app?vid=0d479707-020d-4038-a6be-c57e300551a5","ios":"levelo://app?vid=0d479707-020d-4038-a6be-c57e300551a5"},"vehicle_type_id":"4","last_reported":1723651900,"current_range_meters":7600,"station_id":"ce4bhbh2rcd13ifvqepg","pricing_plan_id":"cebpf4jnsgd1na2vs0mg"},{"bike_id":"aa952881-9ecb-4f41-ac9a-aa261de02351","system_id":"levelo_inurba_marseille","lat":43.284217,"lon":5.349697,"is_reserved":false,"is_disabled":false,"rental_uris":{"android":"levelo://app?vid=aa952881-9ecb-4f41-ac9a-aa261de02351","ios":"levelo://app?vid=aa952881-9ecb-4f41-ac9a-aa261de02351"},"vehicle_type_id":"4","last_reported":1723651900,"current_range_meters":31200,"station_id":"ce4bhbh2rcd13ifvqepg","pricing_plan_id":"cebpf4jnsgd1na2vs0mg"},{"bike_id":"d26a5074-4279-4a82-aa98-a37a8d55687a","system_id":"levelo_inurba_marseille","lat":43.28418,"lon":5.34982,"is_reserved":false,"is_disabled":false,"rental_uris":{"android":"levelo://app?vid=d26a5074-4279-4a82-aa98-a37a8d55687a","ios":"levelo://app?vid=d26a5074-4279-4a82-aa98-a37a8d55687a"},"vehicle_type_id":"4","last_reported":1723651900,"current_range_meters":7600,"station_id":"ce4bhbh2rcd13ifvqepg","pricing_plan_id":"cebpf4jnsgd1na2vs0mg"},{"bike_id":"8be5fb43-a7cd-463b-ad6e-30d4a8fad5a8","system_id":"levelo_inurba_marseille","lat":43.284219,"lon":5.3497,"is_reserved":false,"is_disabled":false,"rental_uris":{"android":"levelo://app?vid=8be5fb43-a7cd-463b-ad6e-30d4a8fad5a8","ios":"levelo://app?vid=8be5fb43-a7cd-463b-ad6e-30d4a8fad5a8"},"vehicle_type_id":"4","last_reported":1723651900,"current_range_meters":19200,"station_id":"ce4bhbh2rcd13ifvqepg","pricing_plan_id":"cebpf4jnsgd1na2vs0mg"},{"bike_id":"035052ea-60c8-486d-a637-c0a0bc097743","system_id":"levelo_inurba_marseille","lat":43.28418,"lon":5.34981,"is_reserved":false,"is_disabled":false,"rental_uris":{"android":"levelo://app?vid=035052ea-60c8-486d-a637-c0a0bc097743","ios":"levelo://app?vid=035052ea-60c8-486d-a637-c0a0bc097743"},"vehicle_type_id":"4","last_reported":1723651900,"current_range_meters":0,"station_id":"ce4bhbh2rcd13ifvqepg","pricing_plan_id":"cebpf4jnsgd1na2vs0mg"},{"bike_id":"e7bc3fb2-8239-42b8-8f7f-b627bb2c077e","system_id":"levelo_inurba_marseille","lat":43.284168,"lon":5.349845,"is_reserved":false,"is_disabled":false,"rental_uris":{"android":"levelo://app?vid=e7bc3fb2-8239-42b8-8f7f-b627bb2c077e","ios":"levelo://app?vid=e7bc3fb2-8239-42b8-8f7f-b627bb2c077e"},"vehicle_type_id":"4","last_reported":1723651900,"current_range_meters":18800,"station_id":"ce4bhbh2rcd13ifvqepg","pricing_plan_id":"cebpf4jnsgd1na2vs0mg"},{"bike_id":"f15d90e8-7241-4c7b-b9be-535aa910669b","system_id":"levelo_inurba_marseille","lat":43.284217,"lon":5.349697,"is_reserved":false,"is_disabled":false,"rental_uris":{"android":"levelo://app?vid=f15d90e8-7241-4c7b-b9be-535aa910669b","ios":"levelo://app?vid=f15d90e8-7241-4c7b-b9be-535aa910669b"},"vehicle_type_id":"4","last_reported":1723651900,"current_range_meters":29200,"station_id":"ce4bhbh2rcd13ifvqepg","pricing_plan_id":"cebpf4jnsgd1na2vs0mg"},{"bike_id":"9360057a-ed66-4158-8d33-5ff8b6077da8","system_id":"levelo_inurba_marseille","lat":43.284217,"lon":5.349697,"is_reserved":false,"is_disabled":false,"rental_uris":{"android":"levelo://app?vid=9360057a-ed66-4158-8d33-5ff8b6077da8","ios":"levelo://app?vid=9360057a-ed66-4158-8d33-5ff8b6077da8"},"vehicle_type_id":"4","last_reported":1723651900,"current_range_meters":31600,"station_id":"ce4bhbh2rcd13ifvqepg","pricing_plan_id":"cebpf4jnsgd1na2vs0mg"},