{"last_updated":1720969910,"ttl":30,"version":"2.2","data":{"bikes":[{"bike_id":"62ff14c6-b6fc-4536-8fb2-3cb8cde6b96c","system_id":"levelo_inurba_marseille","lat":43.309076,"lon":5.368465,"is_reserved":false,"is_disabled":false,"rental_uris":{"android":"levelo://app?vid=62ff14c6-b6fc-4536-8fb2-3cb8cde6b96c","ios":"levelo://app?vid=62ff14c6-b6fc-4536-8fb2-3cb8cde6b96c"},"vehicle_type_id":"4","last_reported":1720969910,"current_range_meters":30400,"station_id":"ce4bgn92rcd13ifvqbvg","pricing_plan_id":"cebpf4jnsgd1na2vs0mg"},{"bike_id":"7012eadd-4591-4981-89fa-a40c930cffd7","system_id":"levelo_inurba_marseille","lat":43.309076,"lon":5.368465,"is_reserved":false,"is_disabled":false,"rental_uris":{"android":"levelo://app?vid=7012eadd-4591-4981-89fa-a40c930cffd7","ios":"levelo://app?vid=7012eadd-4591-4981-89fa-a40c930cffd7"},"vehicle_type_id":"4","last_reported":1720969910,"current_range_meters":26800,"station_id":"ce4bgn92rcd13ifvqbvg","pricing_plan_id":"cebpf4jnsgd1na2vs0mg"},{"bike_id":"7cde1fb3-95ba-498e-8323-6867d8730ceb","system_id":"levelo_inurba_marseille","lat":43.315266,"lon":5.372517,"is_reserved":false,"is_disabled":false,"rental_uris":{"android":"levelo://app?vid=7cde1fb3-95ba-498e-8323-6867d8730ceb","ios":"levelo://app?vid=7cde1fb3-95ba-498e-8323-6867d8730ceb"},"vehicle_type_id":"4","last_reported":1720969910,"current_range_meters":6800,"station_id":"","pricing_plan_id":"cebpf4jnsgd1na2vs0mg"},{"bike_id":"c569701d-554a-4004-8a58-2b77ffcb81c8","system_id":"levelo_inurba_marseille","lat":43.31486,"lon":5.37307,"is_reserved":false,"is_disabled":false,"rental_uris":{"android":"levelo://app?vid=c569701d-554a-4004-8a58-2b77ffcb81c8","ios":"levelo://app?vid=c569701d-554a-4004-8a58-2b77ffcb81c8"},"vehicle_type_id":"4","last_reported":1720969910,"current_range_meters":30000,"station_id":"ce4bgt12rcd13ifvqcd0","pricing_plan_id":"cebpf4jnsgd1na2vs0mg"},{"bike_id":"0f1c0060-9b61-4f45-938e-8d664556a533","system_id":"levelo_inurba_marseille","lat":43.309039,"lon":5.371797,"is_reserved":false,"is_disabled":false,"rental_uris":{"android":"levelo://app?vid=0f1c0060-9b61-4f45-938e-8d664556a533","ios":"levelo://app?vid=0f1c0060-9b61-4f45-938e-8d664556a533"},"vehicle_type_id":"4","last_reported":1720969910,"current_range_meters":2400,"station_id":"ce4bguh2rcd13ifvqckg","pricing_plan_id":"cebpf4jnsgd1na2vs0mg"},{"bike_id":"3ec2f6d4-a6e4-4aa4-9407-2730438c4a0f","system_id":"levelo_inurba_marseille","lat":43.30887,"lon":5.37193,"is_reserved":false,"is_disabled":false,"rental_uris":{"android":"levelo://app?vid=3ec2f6d4-a6e4-4aa4-9407-2730438c4a0f","ios":"levelo://app?vid=3ec2f6d4-a6e4-4aa4-9407-2730438c4a0f"},"vehicle_type_id":"4","last_reported":1720969910,"current_range_meters":2400,"station_id":"","pricing_plan_id":"cebpf4jnsgd1na2vs0mg"},{"bike_id":"7ba451ba-d2ab-40fc-ae6b-6dc726cabe2f","system_id":"levelo_inurba_marseille","lat":43.30614,"lon":5.36576,"is_reserved":false,"is_disabled":false,"rental_uris":{"android":"levelo://app?vid=7ba451ba-d2ab-40fc-ae6b-6dc726cabe2f","ios":"levelo://app?vid=7ba451ba-d2ab-40fc-ae6b-6dc726cabe2f"},"vehicle_type_id":"4","last_reported":1720969910,"current_range_meters":23200,"station_id":"","pricing_plan_id":"cebpf4jnsgd1na2vs0mg"},{"bike_id":"3bdfb30e-76c6-40ed-9e8c-400eaec51f24","system_id":"levelo_inurba_marseille","lat":43.30537,"lon":5.36724,"is_reserved":false,"is_disabled":false,"rental_uris":{"android":"levelo://app?vid=3bdfb30e-76c6-40ed-9e8c-400eaec51f24","ios":"levelo://app?vid=3bdfb30e-76c6-40ed-9e8c-400eaec51f24"},"vehicle_type_id":"4","last_reported":1720969910,"current_range_meters":0,"station_id":"ce4bgrp2rcd13ifvqc9g","pricing_plan_id":"cebpf4jnsgd1na2vs0mg"},{"bike_id":"86bd6a74-ebac-4e2a-8b2f-3450cb35d4a3","system_id":"levelo_inurba_marseille","lat":43.311125,"lon":5.377624,"is_reserved":false,"is_disabled":false,"rental_uris":{"android":"levelo://app?vid=86bd6a74-ebac-4e2a-8b2f-3450cb35d4a3","ios":"levelo://app?vid=86bd6a74-ebac-4e2a-8b2f-3450cb35d4a3"},"vehicle_type_id":"4","last_reported":1720969910,"current_range_meters":17200,"station_id":"ce4bgt92rcd13ifvqcg0","pricing_plan_id":"cebpf4jnsgd1na2vs0mg"},{"bike_id":"75ff3e7b-ad38-4159-b6b1-78413c5f1791","system_id":"levelo_inurba_marseille","lat":43.317075,"lon":5.377367,"is_reserved":false,"is_disabled":false,"rental_uris":{"android":"levelo://app?vid=75ff3e7b-ad38-4159-b6b1-78413c5f1791","ios":"levelo://app?vid=75ff3e7b-ad38-4159-b6b1-78413c5f1791"},"vehicle_type_id":"4","last_reported":1720969910,"current_range_meters":13200,"station_id":"ce4bgth2rcd13ifvqch0","pricing_plan_id":"cebpf4jnsgd1na2vs0mg"},{"bike_id":"e156448a-fc8e-4482-a144-81108bc290fe","system_id":"levelo_inurba_marseille","lat":43.303046,"lon":5.368981,"is_reserved":false,"is_disabled":false,"rental_uris":{"android":"levelo://app?vid=e156448a-fc8e-4482-a144-81108bc290fe","ios":"levelo://app?vid=e156448a-fc8e-4482-a144-81108bc290fe"},"vehicle_type_id":"4","last_reported":1720969910,"current_range_meters":14400,"station_id":"ce4bgqh2rcd13ifvqc5g","pricing_plan_id":"cebpf4jnsgd1na2vs0mg"},{"bike_id":"9aea38c8-d40e-4a45-96e9-671fb96c9b3e","system_id":"levelo_inurba_marseille","lat":43.315289,"lon":5.380349,"is_reserved":false,"is_disabled":false,"rental_uris":{"android":"levelo://app?vid=9aea38c8-d40e-4a45-96e9-671fb96c9b3e","ios":"levelo://app?vid=9aea38c8-d40e-4a45-96e9-671fb96c9b3e"},"vehicle_type_id":"4","last_reported":1720969910,"current_range_meters":8000,"station_id":"ce4bhsp2rcd13ifvqi50","pricing_plan_id":"cebpf4jnsgd1na2vs0mg"},{"bike_id":"2b4da476-2e26-40be-9aee-5dbf144bd864","system_id":"levelo_inurba_marseille","lat":43.31433,"lon":5.38167,"is_reserved":false,"is_disabled":false,"rental_uris":{"android":"levelo://app?vid=2b4da476-2e26-40be-9aee-5dbf144bd864","ios":"levelo://app?vid=2b4da476-2e26-40be-9aee-5dbf144bd864"},"vehicle_type_id":"4","last_reported":1720969910,"current_range_meters":10000,"station_id":"","pricing_plan_id":"cebpf4jnsgd1na2vs0mg"},{"bike_id":"45e1ba58-c084-45de-8509-c3a9c352616b","system_id":"levelo_inurba_marseille","lat":43.32291,"lon":5.37441,"is_reserved":false,"is_disabled":false,"rental_uris":{"android":"levelo://app?vid=45e1ba58-c084-45de-8509-c3a9c352616b","ios":"levelo://app?vid=45e1ba58-c084-45de-8509-c3a9c352616b"},"vehicle_type_id":"4","last_reported":1720969910,"current_range_meters":5200,"station_id":"","pricing_plan_id":"cebpf4jnsgd1na2vs0mg"},{"bike_id":"96d320d2-d088-4695-b84d-2f1699f697f8","system_id":"levelo_inurba_marseille","lat":43.304606,"lon":5.379026,"is_reserved":false,"is_disabled":false,"rental_uris":{"android":"levelo://app?vid=96d320d2-d088-4695-b84d-2f1699f697f8","ios":"levelo://app?vid=96d320d2-d088-4695-b84d-2f1699f697f8"},"vehicle_type_id":"4","last_reported":1720969910,"current_range_meters":24800,"station_id":"ce4bgup2rcd13ifvqcn0","pricing_plan_id":"cebpf4jnsgd1na2vs0mg"},{"bike_id":"7e73aa4c-ea94-4d4e-ba2d-81421c5f4cb3","system_id":"levelo_inurba_marseille","lat":43.32479,"lon":5.36567,"is_reserved":false,"is_disabled":false,"rental_uris":{"android":"levelo://app?vid=7e73aa4c-ea94-4d4e-ba2d-81421c5f4cb3","ios":"levelo://app?vid=7e73aa4c-ea94-4d4e-ba2d-81421c5f4cb3"},"vehicle_type_id":"4","last_reported":1720969910,"current_range_meters":18400,"station_id":"","pricing_plan_id":"cebpf4jnsgd1na2vs0mg"},{"bike_id":"87c8a563-9a79-4755-b917-8abd92de10f8","system_id":"levelo_inurba_marseille","lat":43.310804,"lon":5.38359,"is_reserved":false,"is_disabled":false,"rental_uris":{"android":"levelo://app?vid=87c8a563-9a79-4755-b917-8abd92de10f8","ios":"levelo://app?vid=87c8a563-9a79-4755-b917-8abd92de10f8"},"vehicle_type_id":"4","last_reported":1720969910,"current_range_meters":3600,"station_id":"ce4bgv92rcd13ifvqcr0","pricing_plan_id":"cebpf4jnsgd1na2vs0mg"},{"bike_id":"dda3811c-3e32-4e51-ac1e-8f90a33e6dce","system_id":"levelo_inurba_marseille","lat":43.31374,"lon":5.38385,"is_reserved":false,"is_disabled":false,"rental_uris":{"android":"levelo://app?vid=dda3811c-3e32-4e51-ac1e-8f90a33e6dce","ios":"levelo://app?vid=dda3811c-3e32-4e51-ac1e-8f90a33e6dce"},"vehicle_type_id":"4","last_reported":1720969910,"current_range_meters":19600,"station_id":"","pricing_plan_id":"cebpf4jnsgd1na2vs0mg"},{"bike_id":"b1d2735c-d237-46dd-b574-e8ef57b80ce7","system_id":"levelo_inurba_marseille","lat":43.308012,"lon":5.381511,"is_reserved":false,"is_disabled":false,"rental_uris":{"android":"levelo://app?vid=b1d2735c-d237-46dd-b574-e8ef57b80ce7","ios":"levelo://app?vid=b1d2735c-d237-46dd-b574-e8ef57b80ce7"},"vehicle_type_id":"4","last_reported":1720969910,"current_range_meters":8000,"station_id":"ce4bgt12rcd13ifvqce0","pricing_plan_id":"cebpf4jnsgd1na2vs0mg"},{"bike_id":"e2906a32-cfac-44bd-987e-aef8edf75b24","system_id":"levelo_inurba_marseille","lat":43.319935,"lon":5.381699,"is_reserved":false,"is_disabled":false,"rental_uris":{"android":"levelo://app?vid=e2906a32-cfac-44bd-987e-aef8edf75b24","ios":"levelo://app?vid=e2906a32-cfac-44bd-987e-aef8edf75b24"},"vehicle_type_id":"4","last_reported":1720969910,"current_range_meters":0,"station_id":"ce4bhr12rcd13ifvqhpg","pricing_plan_id":"cebpf4jnsgd1na2vs0mg"},{"bike_id":"c459790a-f2e1-4c75-b2df-2684f181221e","system_id":"levelo_inurba_marseille","lat":43.319935,"lon":5.381699,"is_reserved":false,"is_disabled":false,"rental_uris":{"android":"levelo://app?vid=c459790a-f2e1-4c75-b2df-2684f181221e","ios":"levelo://app?vid=c459790a-f2e1-4c75-b2df-2684f181221e"},"vehicle_type_id":"4","last_reported":1720969910,"current_range_meters":17600,"station_id":"ce4bhr12rcd13ifvqhpg","pricing_plan_id":"cebpf4jnsgd1na2vs0mg"},{"bike_id":"e3c2cadc-9aa2-4266-9c2f-370abafa7222","system_id":"levelo_inurba_marseille","lat":43.29987,"lon":5.37181,"is_reserved":false,"is_disabled":false,"rental_uris":{"android":"levelo://app?vid=e3c2cadc-9aa2-4266-9c2f-370abafa7222","ios":"levelo://app?vid=e3c2cadc-9aa2-4266-9c2f-370abafa7222"},"vehicle_type_id":"4","last_reported":1720969910,"current_range_meters":0,"station_id":"ce4bgr92rcd13ifvqc7g","pricing_plan_id":"cebpf4jnsgd1na2vs0mg"},{"bike_id":"9c1a5378-a62b-4e05-a93c-a6227eaa2f0a","system_id":"levelo_inurba_marseille","lat":43.305364,"lon":5.384119,"is_reserved":false,"is_disabled":false,"rental_uris":{"android":"levelo://app?vid=9c1a5378-a62b-4e05-a93c-a6227eaa2f0a","ios":"levelo://app?vid=9c1a5378-a62b-4e05-a93c-a6227eaa2f0a"},"vehicle_type_id":"4","last_reported":1720969910,"current_range_meters":3200,"station_id":"ce4bgg92rcd13ifvqb30","pricing_plan_id":"cebpf4jnsgd1na2vs0mg"},{"bike_id":"137e339d-0fb0-4478-a6ea-e303c40ef1fe","system_id":"levelo_inurba_marseille","lat":43.311722,"lon":5.387247,"is_reserved":false,"is_disabled":false,"rental_uris":{"android":"levelo://app?vid=137e339d-0fb0-4478-a6ea-e303c40ef1fe","ios":"levelo://app?vid=137e339d-0fb0-4478-a6ea-e303c40ef1fe"},"vehicle_type_id":"4","last_reported":1720969910,"current_range_meters":16400,"station_id":"ce4bgv12rcd13ifvqcp0","pricing_plan_id":"cebpf4jnsgd1na2vs0mg"},{"bike_id":"67553939-747f-45ef-ba9b-9b965742f507","system_id":"levelo_inurba_marseille","lat":43.311722,"lon":5.387247,"is_reserved":false,"is_disabled":false,"rental_uris":{"android":"levelo://app?vid=67553939-747f-45ef-ba9b-9b965742f507","ios":"levelo://app?vid=67553939-747f-45ef-ba9b-9b965742f507"},"vehicle_type_id":"4","last_reported":1720969910,"current_range_meters":22800,"station_id":"ce4bgv12rcd13ifvqcp0","pricing_plan_id":"cebpf4jnsgd1na2vs0mg"},{"bike_id":"ac0dfb55-74c4-47ae-b8ca-703e7848031c","system_id":"levelo_inurba_marseille","lat":43.297794,"lon":5.370888,"is_reserved":false,"is_disabled":false,"rental_uris":{"android":"levelo://app?vid=ac0dfb55-74c4-47ae-b8ca-703e7848031c","ios":"levelo://app?vid=ac0dfb55-74c4-47ae-b8ca-703e7848031c"},"vehicle_type_id":"4","last_reported":1720969910,"current_range_meters":15600,"station_id":"ce4bgop2rcd13ifvqc1g","pricing_plan_id":"cebpf4jnsgd1na2vs0mg"},{"bike_id":"15619b2c-90fb-4c91-9e1f-5dcea882cb9b","system_id":"levelo_inurba_marseille","lat":43.297794,"lon":5.370888,"is_reserved":false,"is_disabled":false,"rental_uris":{"android":"levelo://app?vid=15619b2c-90fb-4c91-9e1f-5dcea882cb9b","ios":"levelo://app?vid=15619b2c-90fb-4c91-9e1f-5dcea882cb9b"},"vehicle_type_id":"4","last_reported":1720969910,"current_range_meters":0,"station_id":"ce4bgop2rcd13ifvqc1g","pricing_plan_id":"cebpf4jnsgd1na2vs0mg"},{"bike_id":"93e042c9-5816-4311-a98e-580517761104","system_id":"levelo_inurba_marseille","lat":43.297774,"lon":5.370875,"is_reserved":false,"is_disabled":false,"rental_uris":{"android":"levelo://app?vid=93e042c9-5816-4311-a98e-580517761104","ios":"levelo://app?vid=93e042c9-5816-4311-a98e-580517761104"},"vehicle_type_id":"4","last_reported":1720969910,"current_range_meters":400,"station_id":"ce4bgop2rcd13ifvqc1g","pricing_plan_id":"cebpf4jnsgd1na2vs0mg"},{"bike_id":"3cf1bc2c-131d-4bb3-8196-bbbda190f156","system_id":"levelo_inurba_marseille","lat":43.297774,"lon":5.370875,"is_reserved":false,"is_disabled":false,"rental_uris":{"android":"levelo://app?vid=3cf1bc2c-131d-4bb3-8196-bbbda190f156","ios":"levelo://app?vid=3cf1bc2c-131d-4bb3-8196-bbbda190f156"},"vehicle_type_id":"4","last_reported":1720969910,"current_range_meters":8000,"station_id":"ce4bgop2rcd13ifvqc1g","pricing_plan_id":"cebpf4jnsgd1na2vs0mg"},{"bike_id":"729c2a8a-b899-4d67-ac44-060e04cca798","system_id":"levelo_inurba_marseille","lat":43.32291,"lon":5.38261,"is_reserved":false,"is_disabled":false,"rental_uris":{"android":"levelo://app?vid=729c2a8a-b899-4d67-ac44-060e04cca798","ios":"levelo://app?vid=729c2a8a-b899-4d67-ac44-060e04cca798"},"vehicle_type_id":"4","last_reported":1720969910,"current_range_meters":5200,"station_id":"ce4bhr12rcd13ifvqhqg","pricing_plan_id":"cebpf4jnsgd1na2vs0mg"},{"bike_id":"40637d5e-c152-4387-abec-106d1ac08fc7","system_id":"levelo_inurba_marseille","lat":43.322872,"lon":5.382756,"is_reserved":false,"is_disabled":false,"rental_uris":{"android":"levelo://app?vid=40637d5e-c152-4387-abec-106d1ac08fc7","ios":"levelo://app?vid=40637d5e-c152-4387-abec-106d1ac08fc7"},"vehicle_type_id":"4","last_reported":1720969910,"current_range_meters":31200,"station_id":"ce4bhr12rcd13ifvqhqg","pricing_plan_id":"cebpf4jnsgd1na2vs0mg"},{"bike_id":"621a1240-dcf9-4073-bd49-41934f332358","system_id":"levelo_inurba_marseille","lat":43.32292,"lon":5.38264,"is_reserved":false,"is_disabled":false,"rental_uris":{"android":"levelo://app?vid=621a1240-dcf9-4073-bd49-41934f332358","ios":"levelo://app?vid=621a1240-dcf9-4073-bd49-41934f332358"},"vehicle_type_id":"4","last_reported":1720969910,"current_range_meters":21200,"station_id":"","pricing_plan_id":"cebpf4jnsgd1na2vs0mg"},{"bike_id":"f256566a-5114-4a38-a751-6ccbf3b4f30e","system_id":"levelo_inurba_marseille","lat":43.322872,"lon":5.382756,"is_reserved":false,"is_disabled":false,"rental_uris":{"android":"levelo://app?vid=f256566a-5114-4a38-a751-6ccbf3b4f30e","ios":"levelo://app?vid=f256566a-5114-4a38-a751-6ccbf3b4f30e"},"vehicle_type_id":"4","last_reported":1720969910,"current_range_meters":30000,"station_id":"ce4bhr12rcd13ifvqhqg","pricing_plan_id":"cebpf4jnsgd1na2vs0mg"},{"bike_id":"162badee-c4a1-493a-95b2-afd641c8e25c","system_id":"levelo_inurba_marseille","lat":43.322872,"lon":5.382756,"is_reserved":false,"is_disabled":false,"rental_uris":{"android":"levelo://app?vid=162badee-c4a1-493a-95b2-afd641c8e25c","ios":"levelo://app?vid=162badee-c4a1-493a-95b2-afd641c8e25c"},"vehicle_type_id":"4","last_reported":1720969910,"current_range_meters":31600,"station_id":"ce4bhr12rcd13ifvqhqg","pricing_plan_id":"cebpf4jnsgd1na2vs0mg"},{"bike_id":"0f80cbdc-9e8f-4d83-8f7d-7ea9d18e67e7","system_id":"levelo_inurba_marseille","lat":43.32287,"lon":5.3828,"is_reserved":false,"is_disabled":false,"rental_uris":{"android":"levelo://app?vid=0f80cbdc-9e8f-4d83-8f7d-7ea9d18e67e7","ios":"levelo://app?vid=0f80cbdc-9e8f-4d83-8f7d-7ea9d18e67e7"},"vehicle_type_id":"4","last_reported":1720969910,"current_range_meters":0,"station_id":"ce4bhr12rcd13ifvqhqg","pricing_plan_id":"cebpf4jnsgd1na2vs0mg"},{"bike_id":"e28f6dbe-9e46-43e9-a571-4f27b87c77e2","system_id":"levelo_inurba_marseille","lat":43.322872,"lon":5.382756,"is_reserved":false,"is_disabled":false,"rental_uris":{"android":"levelo://app?vid=e28f6dbe-9e46-43e9-a571-4f27b87c77e2","ios":"levelo://app?vid=e28f6dbe-9e46-43e9-a571-4f27b87c77e2"},"vehicle_type_id":"4","last_reported":1720969910,"current_range_meters":12800,"station_id":"ce4bhr12rcd13ifvqhqg","pricing_plan_id":"cebpf4jnsgd1na2vs0mg"},{"bike_id":"9a960777-3f1f-45a8-8317-7e319c4990bf","system_id":"levelo_inurba_marseille","lat":43.297774,"lon":5.370875,"is_reserved":false,"is_disabled":false,"rental_uris":{"android":"levelo://app?vid=9a960777-3f1f-45a8-8317-7e319c4990bf","ios":"levelo://app?vid=9a960777-3f1f-45a8-8317-7e319c4990bf"},"vehicle_type_id":"4","last_reported":1720969910,"current_range_meters":4000,"station_id":"ce4bgop2rcd13ifvqc1g","pricing_plan_id":"cebpf4jnsgd1na2vs0mg"},{"bike_id":"32a276b2-93b2-4b0f-8707-bab4128ae904","system_id":"levelo_inurba_marseille","lat":43.32292,"lon":5.38276,"is_reserved":false,"is_disabled":false,"rental_uris":{"android":"levelo://app?vid=32a276b2-93b2-4b0f-8707-bab4128ae904","ios":"levelo://app?vid=32a276b2-93b2-4b0f-8707-bab4128ae904"},"vehicle_type_id":"4","last_reported":1720969910,"current_range_meters":2400,"station_id":"ce4bhr12rcd13ifvqhqg","pricing_plan_id":"cebpf4jnsgd1na2vs0mg"},{"bike_id":"9b00e82c-b44d-424a-ae89-7075dc0af317","system_id":"levelo_inurba_marseille","lat":43.322872,"lon":5.382756,"is_reserved":false,"is_disabled":false,"rental_uris":{"android":"levelo://app?vid=9b00e82c-b44d-424a-ae89-7075dc0af317","ios":"levelo://app?vid=9b00e82c-b44d-424a-ae89-7075dc0af317"},"vehicle_type_id":"4","last_reported":1720969910,"current_range_meters":6000,"station_id":"ce4bhr12rcd13ifvqhqg","pricing_plan_id":"cebpf4jnsgd1na2vs0mg"},{"bike_id":"010a681f-dffe-489e-b886-9d8093e3fab6","system_id":"levelo_inurba_marseille","lat":43.323037,"lon":5.385357,"is_reserved":false,"is_disabled":false,"rental_uris":{"android":"levelo://app?vid=010a681f-dffe-489e-b886-9d8093e3fab6","ios":"levelo://app?vid=010a681f-dffe-489e-b886-9d8093e3fab6"},"vehicle_type_id":"4","last_reported":1720969910,"current_range_meters":19200,"station_id":"","pricing_plan_id":"cebpf4jnsgd1na2vs0mg"},{"bike_id":"742b581d-7168-47ef-a559-3241c5a979bd","system_id":"levelo_inurba_marseille","lat":43.309589,"lon":5.390258,"is_reserved":false,"is_disabled":false,"rental_uris":{"android":"levelo://app?vid=742b581d-7168-47ef-a559-3241c5a979bd","ios":"levelo://app?vid=742b581d-7168-47ef-a559-3241c5a979bd"},"vehicle_type_id":"4","last_reported":1720969910,"current_range_meters":29600,"station_id":"ce4bgup2rcd13ifvqco0","pricing_plan_id":"cebpf4jnsgd1na2vs0mg"},{"bike_id":"ba58602d-21b4-4c8b-b7df-b4bf2c326140","system_id":"levelo_inurba_marseille","lat":43.2958,"lon":5.37543,"is_reserved":false,"is_disabled":false,"rental_uris":{"android":"levelo://app?vid=ba58602d-21b4-4c8b-b7df-b4bf2c326140","ios":"levelo://app?vid=ba58602d-21b4-4c8b-b7df-b4bf2c326140"},"vehicle_type_id":"4","last_reported":1720969910,"current_range_meters":8000,"station_id":"","pricing_plan_id":"cebpf4jnsgd1na2vs0mg"},{"bike_id":"a76aa185-997f-4d66-93c2-6aab465bac66","system_id":"levelo_inurba_marseille","lat":43.299707,"lon":5.384859,"is_reserved":false,"is_disabled":false,"rental_uris":{"android":"levelo://app?vid=a76aa185-997f-4d66-93c2-6aab465bac66","ios":"levelo://app?vid=a76aa185-997f-4d66-93c2-6aab465bac66"},"vehicle_type_id":"4","last_reported":1720969910,"current_range_meters":8400,"station_id":"ce4bgj92rcd13ifvqbd0","pricing_plan_id":"cebpf4jnsgd1na2vs0mg"},{"bike_id":"a51d0944-c33d-47c8-868f-1a7253e73770","system_id":"levelo_inurba_marseille","lat":43.29553,"lon":5.37723,"is_reserved":false,"is_disabled":false,"rental_uris":{"android":"levelo://app?vid=a51d0944-c33d-47c8-868f-1a7253e73770","ios":"levelo://app?vid=a51d0944-c33d-47c8-868f-1a7253e73770"},"vehicle_type_id":"4","last_reported":1720969910,"current_range_meters":14800,"station_id":"","pricing_plan_id":"cebpf4jnsgd1na2vs0mg"},{"bike_id":"94941a4e-eb32-434a-b4c1-39ba2c5bb88f","system_id":"levelo_inurba_marseille","lat":43.301396,"lon":5.387812,"is_reserved":false,"is_disabled":false,"rental_uris":{"android":"levelo://app?vid=94941a4e-eb32-434a-b4c1-39ba2c5bb88f","ios":"levelo://app?vid=94941a4e-eb32-434a-b4c1-39ba2c5bb88f"},"vehicle_type_id":"4","last_reported":1720969910,"current_range_meters":0,"station_id":"ce4bghh2rcd13ifvqb60","pricing_plan_id":"cebpf4jnsgd1na2vs0mg"},{"bike_id":"6a71a23c-6448-463a-b8f4-0e4083b8ea3d","system_id":"levelo_inurba_marseille","lat":43.29405,"lon":5.37341,"is_reserved":false,"is_disabled":false,"rental_uris":{"android":"levelo://app?vid=6a71a23c-6448-463a-b8f4-0e4083b8ea3d","ios":"levelo://app?vid=6a71a23c-6448-463a-b8f4-0e4083b8ea3d"},"vehicle_type_id":"4","last_reported":1720969910,"current_range_meters":7200,"station_id":"","pricing_plan_id":"cebpf4jnsgd1na2vs0mg"},{"bike_id":"a52f5ef7-19ef-44d8-ba1d-17d5e90df0d8","system_id":"levelo_inurba_marseille","lat":43.32367,"lon":5.388836,"is_reserved":false,"is_disabled":false,"rental_uris":{"android":"levelo://app?vid=a52f5ef7-19ef-44d8-ba1d-17d5e90df0d8","ios":"levelo://app?vid=a52f5ef7-19ef-44d8-ba1d-17d5e90df0d8"},"vehicle_type_id":"4","last_reported":1720969910,"current_range_meters":0,"station_id":"ce4bhqp2rcd13ifvqhog","pricing_plan_id":"cebpf4jnsgd1na2vs0mg"},{"bike_id":"2102887d-dc4e-4ba8-82b8-ea579d9dc82e","system_id":"levelo_inurba_marseille","lat":43.32367,"lon":5.388836,"is_reserved":false,"is_disabled":false,"rental_uris":{"android":"levelo://app?vid=2102887d-dc4e-4ba8-82b8-ea579d9dc82e","ios":"levelo://app?vid=2102887d-dc4e-4ba8-82b8-ea579d9dc82e"},"vehicle_type_id":"4","last_reported":1720969910,"current_range_meters":3600,"station_id":"ce4bhqp2rcd13ifvqhog","pricing_plan_id":"cebpf4jnsgd1na2vs0mg"},{"bike_id":"a0a8d214-632e-44d5-9d54-518a956af948","system_id":"levelo_inurba_marseille","lat":43.32367,"lon":5.388836,"is_reserved":false,"is_disabled":false,"rental_uris":{"android":"levelo://app?vid=a0a8d214-632e-44d5-9d54-518a956af948","ios":"levelo://app?vid=a0a8d214-632e-44d5-9d54-518a956af948"},"vehicle_type_id":"4","last_reported":1720969910,"current_range_meters":22000,"station_id":"ce4bhqp2rcd13ifvqhog","pricing_plan_id":"cebpf4jnsgd1na2vs0mg"},{"bike_id":"32a47b8b-65c9-412d-998f-fd244c2633da","system_id":"levelo_inurba_marseille","lat":43.32367,"lon":5.388836,"is_reserved":false,"is_disabled":false,"rental_uris":{"android":"levelo://app?vid=32a47b8b-65c9-412d-998f-fd244c2633da","ios":"levelo://app?vid=32a47b8b-65c9-412d-998f-fd244c2633da"},"vehicle_type_id":"4","last_reported":1720969910,"current_range_meters":0,"station_id":"ce4bhqp2rcd13ifvqhog","pricing_plan_id":"cebpf4jnsgd1na2vs0mg"},{"bike_id":"f2bef37c-f0a8-4dac-aa49-57f99f406ce5","system_id":"levelo_inurba_marseille","lat":43.293009,"lon":5.374584,"is_reserved":false,"is_disabled":false,"rental_uris":{"android":"levelo://app?vid=f2bef37c-f0a8-4dac-aa49-57f99f406ce5","ios":"levelo://app?vid=f2bef37c-f0a8-4dac-aa49-57f99f406ce5"},"vehicle_type_id":"4","last_reported":1720969910,"current_range_meters":0,"station_id":"ce4bgi12rcd13ifvqb70","pricing_plan_id":"cebpf4jnsgd1na2vs0mg"},{"bike_id":"687db9ef-9854-41c2-8e0d-d50b435344a5","system_id":"levelo_inurba_marseille","lat":43.2936,"lon":5.37835,"is_reserved":false,"is_disabled":false,"rental_uris":{"android":"levelo://app?vid=687db9ef-9854-41c2-8e0d-d50b435344a5","ios":"levelo://app?vid=687db9ef-9854-41c2-8e0d-d50b435344a5"},"vehicle_type_id":"4","last_reported":1720969910,"current_range_meters":14800,"station_id":"ce4bgjh2rcd13ifvqbf0","pricing_plan_id":"cebpf4jnsgd1na2vs0mg"},{"bike_id":"5a0b1412-81d1-4b5e-8ad6-38d2be11a79e","system_id":"levelo_inurba_marseille","lat":43.2936,"lon":5.37835,"is_reserved":false,"is_disabled":false,"rental_uris":{"android":"levelo://app?vid=5a0b1412-81d1-4b5e-8ad6-38d2be11a79e","ios":"levelo://app?vid=5a0b1412-81d1-4b5e-8ad6-38d2be11a79e"},"vehicle_type_id":"4","last_reported":1720969910,"current_range_meters":8000,"station_id":"ce4bgjh2rcd13ifvqbf0","pricing_plan_id":"cebpf4jnsgd1na2vs0mg"},{"bike_id":"1421983c-96e1-46bb-802f-e966e9ed24b9","system_id":"levelo_inurba_marseille","lat":43.29869,"lon":5.38906,"is_reserved":false,"is_disabled":false,"rental_uris":{"android":"levelo://app?vid=1421983c-96e1-46bb-802f-e966e9ed24b9","ios":"levelo://app?vid=1421983c-96e1-46bb-802f-e966e9ed24b9"},"vehicle_type_id":"4","last_reported":1720969910,"current_range_meters":1200,"station_id":"ce4bh392rcd13ifvqdl0","pricing_plan_id":"cebpf4jnsgd1na2vs0mg"},{"bike_id":"e49b4550-fef8-4279-b2c0-1e9de4f54e39","system_id":"levelo_inurba_marseille","lat":43.30881,"lon":5.39643,"is_reserved":false,"is_disabled":false,"rental_uris":{"android":"levelo://app?vid=e49b4550-fef8-4279-b2c0-1e9de4f54e39","ios":"levelo://app?vid=e49b4550-fef8-4279-b2c0-1e9de4f54e39"},"vehicle_type_id":"4","last_reported":1720969910,"current_range_meters":4000,"station_id":"ce4bh012rcd13ifvqcv0","pricing_plan_id":"cebpf4jnsgd1na2vs0mg"},{"bike_id":"9eb48421-ce43-4c0c-b280-8d5a714659b9","system_id":"levelo_inurba_marseille","lat":43.290779,"lon":5.371482,"is_reserved":false,"is_disabled":false,"rental_uris":{"android":"levelo://app?vid=9eb48421-ce43-4c0c-b280-8d5a714659b9","ios":"levelo://app?vid=9eb48421-ce43-4c0c-b280-8d5a714659b9"},"vehicle_type_id":"4","last_reported":1720969910,"current_range_meters":28000,"station_id":"ce4bh5p2rcd13ifvqe4g","pricing_plan_id":"cebpf4jnsgd1na2vs0mg"},{"bike_id":"5fa383b7-69ee-4b8a-aafb-a7debcef91c4","system_id":"levelo_inurba_marseille","lat":43.290624,"lon":5.359245,"is_reserved":false,"is_disabled":false,"rental_uris":{"android":"levelo://app?vid=5fa383b7-69ee-4b8a-aafb-a7debcef91c4","ios":"levelo://app?vid=5fa383b7-69ee-4b8a-aafb-a7debcef91c4"},"vehicle_type_id":"4","last_reported":1720969910,"current_range_meters":400,"station_id":"ce4bha92rcd13ifvqeg0","pricing_plan_id":"cebpf4jnsgd1na2vs0mg"},{"bike_id":"d956057e-aae0-4f75-9411-dccda9e4e98e","system_id":"levelo_inurba_marseille","lat":43.290624,"lon":5.359245,"is_reserved":false,"is_disabled":false,"rental_uris":{"android":"levelo://app?vid=d956057e-aae0-4f75-9411-dccda9e4e98e","ios":"levelo://app?vid=d956057e-aae0-4f75-9411-dccda9e4e98e"},"vehicle_type_id":"4","last_reported":1720969910,"current_range_meters":0,"station_id":"ce4bha92rcd13ifvqeg0","pricing_plan_id":"cebpf4jnsgd1na2vs0mg"},{"bike_id":"eb6dc10a-ee32-4845-8fce-1c2d59ba293e","system_id":"levelo_inurba_marseille","lat":43.254947,"lon":5.376454,"is_reserved":false,"is_disabled":false,"rental_uris":{"android":"levelo://app?vid=eb6dc10a-ee32-4845-8fce-1c2d59ba293e","ios":"levelo://app?vid=eb6dc10a-ee32-4845-8fce-1c2d59ba293e"},"vehicle_type_id":"4","last_reported":1720969910,"current_range_meters":31600,"station_id":"ce4bhh12rcd13ifvqff0","pricing_plan_id":"cebpf4jnsgd1na2vs0mg"},{"bike_id":"88de3cb0-1d0f-4277-a44a-7ff64b28fe97","system_id":"levelo_inurba_marseille","lat":43.289468,"lon":5.363719,"is_reserved":false,"is_disabled":false,"rental_uris":{"android":"levelo://app?vid=88de3cb0-1d0f-4277-a44a-7ff64b28fe97","ios":"levelo://app?vid=88de3cb0-1d0f-4277-a44a-7ff64b28fe97"},"vehicle_type_id":"4","last_reported":1720969910,"current_range_meters":1600,"station_id":"ce4bhc92rcd13ifvqetg","pricing_plan_id":"cebpf4jnsgd1na2vs0mg"},{"bike_id":"2b098d9b-5a49-44ef-b102-396cb734a134","system_id":"levelo_inurba_marseille","lat":43.292644,"lon":5.384257,"is_reserved":false,"is_disabled":false,"rental_uris":{"android":"levelo://app?vid=2b098d9b-5a49-44ef-b102-396cb734a134","ios":"levelo://app?vid=2b098d9b-5a49-44ef-b102-396cb734a134"},"vehicle_type_id":"4","last_reported":1720969910,"current_range_meters":0,"station_id":"ce4bh692rcd13ifvqea0","pricing_plan_id":"cebpf4jnsgd1na2vs0mg"},{"bike_id":"efe2cd0b-b4ee-4535-b0eb-0fd29308abb7","system_id":"levelo_inurba_marseille","lat":43.290103,"lon":5.356114,"is_reserved":false,"is_disabled":false,"rental_uris":{"android":"levelo://app?vid=efe2cd0b-b4ee-4535-b0eb-0fd29308abb7","ios":"levelo://app?vid=efe2cd0b-b4ee-4535-b0eb-0fd29308abb7"},"vehicle_type_id":"4","last_reported":1720969910,"current_range_meters":0,"station_id":"ce4bhb92rcd13ifvqen0","pricing_plan_id":"cebpf4jnsgd1na2vs0mg"},{"bike_id":"bc711137-f2e3-4636-af55-01af1d507800","system_id":"levelo_inurba_marseille","lat":43.29009,"lon":5.356203,"is_reserved":false,"is_disabled":false,"rental_uris":{"android":"levelo://app?vid=bc711137-f2e3-4636-af55-01af1d507800","ios":"levelo://app?vid=bc711137-f2e3-4636-af55-01af1d507800"},"vehicle_type_id":"4","last_reported":1720969910,"current_range_meters":0,"station_id":"ce4bhb92rcd13ifvqen0","pricing_plan_id":"cebpf4jnsgd1na2vs0mg"},{"bike_id":"99c66c0d-ecaf-424c-9e65-cfa43126b414","system_id":"levelo_inurba_marseille","lat":43.290103,"lon":5.356114,"is_reserved":false,"is_disabled":false,"rental_uris":{"android":"levelo://app?vid=99c66c0d-ecaf-424c-9e65-cfa43126b414","ios":"levelo://app?vid=99c66c0d-ecaf-424c-9e65-cfa43126b414"},"vehicle_type_id":"4","last_reported":1720969910,"current_range_meters":8400,"station_id":"ce4bhb92rcd13ifvqen0","pricing_plan_id":"cebpf4jnsgd1na2vs0mg"},{"bike_id":"f7ffee0c-719e-4c5d-a1fd-ab9813e05d45","system_id":"levelo_inurba_marseille","lat":43.290104,"lon":5.356111,"is_reserved":false,"is_disabled":false,"rental_uris":{"android":"levelo://app?vid=f7ffee0c-719e-4c5d-a1fd-ab9813e05d45","ios":"levelo://app?vid=f7ffee0c-719e-4c5d-a1fd-ab9813e05d45"},"vehicle_type_id":"4","last_reported":1720969910,"current_range_meters":6400,"station_id":"ce4bhb92rcd13ifvqen0","pricing_plan_id":"cebpf4jnsgd1na2vs0mg"},{"bike_id":"e9701fb0-5df9-46f9-9da0-37166e0b7b06","system_id":"levelo_inurba_marseille","lat":43.32316,"lon":5.39697,"is_reserved":false,"is_disabled":false,"rental_uris":{"android":"levelo://app?vid=e9701fb0-5df9-46f9-9da0-37166e0b7b06","ios":"levelo://app?vid=e9701fb0-5df9-46f9-9da0-37166e0b7b06"},"vehicle_type_id":"4","last_reported":1720969910,"current_range_meters":4800,"station_id":"","pricing_plan_id":"cebpf4jnsgd1na2vs0mg"},{"bike_id":"37354ec4-852a-415f-bccd-e60ea519f152","system_id":"levelo_inurba_marseille","lat":43.295169,"lon":5.390426,"is_reserved":false,"is_disabled":false,"rental_uris":{"android":"levelo://app?vid=37354ec4-852a-415f-bccd-e60ea519f152","ios":"levelo://app?vid=37354ec4-852a-415f-bccd-e60ea519f152"},"vehicle_type_id":"4","last_reported":1720969910,"current_range_meters":400,"station_id":"ce4bh3p2rcd13ifvqdp0","pricing_plan_id":"cebpf4jnsgd1na2vs0mg"},{"bike_id":"857692ec-522d-4314-b37e-e82fb98d39a2","system_id":"levelo_inurba_marseille","lat":43.297815,"lon":5.393548,"is_reserved":false,"is_disabled":false,"rental_uris":{"android":"levelo://app?vid=857692ec-522d-4314-b37e-e82fb98d39a2","ios":"levelo://app?vid=857692ec-522d-4314-b37e-e82fb98d39a2"},"vehicle_type_id":"4","last_reported":1720969910,"current_range_meters":0,"station_id":"chh1huq6cuj3fo74tm60","pricing_plan_id":"cebpf4jnsgd1na2vs0mg"},{"bike_id":"44577fb9-9ba5-41fb-84ae-55960d2f8fe3","system_id":"levelo_inurba_marseille","lat":43.289743,"lon":5.378304,"is_reserved":false,"is_disabled":false,"rental_uris":{"android":"levelo://app?vid=44577fb9-9ba5-41fb-84ae-55960d2f8fe3","ios":"levelo://app?vid=44577fb9-9ba5-41fb-84ae-55960d2f8fe3"},"vehicle_type_id":"4","last_reported":1720969910,"current_range_meters":0,"station_id":"ce4bh9p2rcd13ifvqed0","pricing_plan_id":"cebpf4jnsgd1na2vs0mg"},{"bike_id":"a70fd2c6-4ce6-4772-91c2-71c0c9013828","system_id":"levelo_inurba_marseille","lat":43.295169,"lon":5.390426,"is_reserved":false,"is_disabled":false,"rental_uris":{"android":"levelo://app?vid=a70fd2c6-4ce6-4772-91c2-71c0c9013828","ios":"levelo://app?vid=a70fd2c6-4ce6-4772-91c2-71c0c9013828"},"vehicle_type_id":"4","last_reported":1720969910,"current_range_meters":21200,"station_id":"ce4bh3p2rcd13ifvqdp0","pricing_plan_id":"cebpf4jnsgd1na2vs0mg"},{"bike_id":"1495d8d2-d478-418e-9783-40613683131b","system_id":"levelo_inurba_marseille","lat":43.330442,"lon":5.389148,"is_reserved":false,"is_disabled":false,"rental_uris":{"android":"levelo://app?vid=1495d8d2-d478-418e-9783-40613683131b","ios":"levelo://app?vid=1495d8d2-d478-418e-9783-40613683131b"},"vehicle_type_id":"4","last_reported":1720969910,"current_range_meters":26800,"station_id":"ce4bhr92rcd13ifvqhrg","pricing_plan_id":"cebpf4jnsgd1na2vs0mg"},{"bike_id":"f4f5f789-97da-4068-b18a-a2d8b08b7a95","system_id":"levelo_inurba_marseille","lat":43.330442,"lon":5.389148,"is_reserved":false,"is_disabled":false,"rental_uris":{"android":"levelo://app?vid=f4f5f789-97da-4068-b18a-a2d8b08b7a95","ios":"levelo://app?vid=f4f5f789-97da-4068-b18a-a2d8b08b7a95"},"vehicle_type_id":"4","last_reported":1720969910,"current_range_meters":20000,"station_id":"ce4bhr92rcd13ifvqhrg","pricing_plan_id":"cebpf4jnsgd1na2vs0mg"},{"bike_id":"473727de-273e-43b5-b7bd-1e5210374075","system_id":"levelo_inurba_marseille","lat":43.330442,"lon":5.389148,"is_reserved":false,"is_disabled":false,"rental_uris":{"android":"levelo://app?vid=473727de-273e-43b5-b7bd-1e5210374075","ios":"levelo://app?vid=473727de-273e-43b5-b7bd-1e5210374075"},"vehicle_type_id":"4","last_reported":1720969910,"current_range_meters":7200,"station_id":"ce4bhr92rcd13ifvqhrg","pricing_plan_id":"cebpf4jnsgd1na2vs0mg"},{"bike_id":"6357fb50-c7cc-4151-81f3-a2fc3422a5d1","system_id":"levelo_inurba_marseille","lat":43.33029,"lon":5.39042,"is_reserved":false,"is_disabled":false,"rental_uris":{"android":"levelo://app?vid=6357fb50-c7cc-4151-81f3-a2fc3422a5d1","ios":"levelo://app?vid=6357fb50-c7cc-4151-81f3-a2fc3422a5d1"},"vehicle_type_id":"4","last_reported":1720969910,"current_range_meters":6000,"station_id":"ce4bhr92rcd13ifvqhrg","pricing_plan_id":"cebpf4jnsgd1na2vs0mg"},{"bike_id":"db0a4d33-6a7b-4fe7-952c-0e2b2ac47932","system_id":"levelo_inurba_marseille","lat":43.330442,"lon":5.389148,"is_reserved":false,"is_disabled":false,"rental_uris":{"android":"levelo://app?vid=db0a4d33-6a7b-4fe7-952c-0e2b2ac47932","ios":"levelo://app?vid=db0a4d33-6a7b-4fe7-952c-0e2b2ac47932"},"vehicle_type_id":"4","last_reported":1720969910,"current_range_meters":6400,"station_id":"ce4bhr92rcd13ifvqhrg","pricing_plan_id":"cebpf4jnsgd1na2vs0mg"},{"bike_id":"542940b3-ae80-4fed-ada3-8ed41eb63afe","system_id":"levelo_inurba_marseille","lat":43.28954,"lon":5.35489,"is_reserved":false,"is_disabled":false,"rental_uris":{"android":"levelo://app?vid=542940b3-ae80-4fed-ada3-8ed41eb63afe","ios":"levelo://app?vid=542940b3-ae80-4fed-ada3-8ed41eb63afe"},"vehicle_type_id":"4","last_reported":1720969910,"current_range_meters":10000,"station_id":"","pricing_plan_id":"cebpf4jnsgd1na2vs0mg"},{"bike_id":"d1fa93f0-1b30-4f03-beb2-0035e5f26cad","system_id":"levelo_inurba_marseille","lat":43.312609,"lon":5.401662,"is_reserved":false,"is_disabled":false,"rental_uris":{"android":"levelo://app?vid=d1fa93f0-1b30-4f03-beb2-0035e5f26cad","ios":"levelo://app?vid=d1fa93f0-1b30-4f03-beb2-0035e5f26cad"},"vehicle_type_id":"4","last_reported":1720969910,"current_range_meters":0,"station_id":"ce4bh092rcd13ifvqd30","pricing_plan_id":"cebpf4jnsgd1na2vs0mg"},{"bike_id":"4e977fff-ad41-4542-afa2-97d0d9d7577b","system_id":"levelo_inurba_marseille","lat":43.287886,"lon":5.373729,"is_reserved":false,"is_disabled":false,"rental_uris":{"android":"levelo://app?vid=4e977fff-ad41-4542-afa2-97d0d9d7577b","ios":"levelo://app?vid=4e977fff-ad41-4542-afa2-97d0d9d7577b"},"vehicle_type_id":"4","last_reported":1720969910,"current_range_meters":24400,"station_id":"","pricing_plan_id":"cebpf4jnsgd1na2vs0mg"},{"bike_id":"7db14a83-5996-4107-aac5-8660c0fb36ae","system_id":"levelo_inurba_marseille","lat":43.337584,"lon":5.374721,"is_reserved":false,"is_disabled":false,"rental_uris":{"android":"levelo://app?vid=7db14a83-5996-4107-aac5-8660c0fb36ae","ios":"levelo://app?vid=7db14a83-5996-4107-aac5-8660c0fb36ae"},"vehicle_type_id":"4","last_reported":1720969910,"current_range_meters":18000,"station_id":"","pricing_plan_id":"cebpf4jnsgd1na2vs0mg"},{"bike_id":"2c101ebf-47bb-4075-9995-419fb34d5f57","system_id":"levelo_inurba_marseille","lat":43.33765,"lon":5.3747,"is_reserved":false,"is_disabled":false,"rental_uris":{"android":"levelo://app?vid=2c101ebf-47bb-4075-9995-419fb34d5f57","ios":"levelo://app?vid=2c101ebf-47bb-4075-9995-419fb34d5f57"},"vehicle_type_id":"4","last_reported":1720969910,"current_range_meters":29200,"station_id":"","pricing_plan_id":"cebpf4jnsgd1na2vs0mg"},{"bike_id":"e6537933-0eb1-41a8-b76a-584d0a7d4a3c","system_id":"levelo_inurba_marseille","lat":43.33766,"lon":5.37467,"is_reserved":false,"is_disabled":false,"rental_uris":{"android":"levelo://app?vid=e6537933-0eb1-41a8-b76a-584d0a7d4a3c","ios":"levelo://app?vid=e6537933-0eb1-41a8-b76a-584d0a7d4a3c"},"vehicle_type_id":"4","last_reported":1720969910,"current_range_meters":30400,"station_id":"","pricing_plan_id":"cebpf4jnsgd1na2vs0mg"},{"bike_id":"893b3f9e-8d19-4e89-b4e3-e6aa5e07ff06","system_id":"levelo_inurba_marseille","lat":43.33766,"lon":5.37471,"is_reserved":false,"is_disabled":false,"rental_uris":{"android":"levelo://app?vid=893b3f9e-8d19-4e89-b4e3-e6aa5e07ff06","ios":"levelo://app?vid=893b3f9e-8d19-4e89-b4e3-e6aa5e07ff06"},"vehicle_type_id":"4","last_reported":1720969910,"current_range_meters":26400,"station_id":"","pricing_plan_id":"cebpf4jnsgd1na2vs0mg"},{"bike_id":"37772fd2-0f82-4f52-ad98-1e17b9e6b7e2","system_id":"levelo_inurba_marseille","lat":43.33767,"lon":5.374711,"is_reserved":false,"is_disabled":false,"rental_uris":{"android":"levelo://app?vid=37772fd2-0f82-4f52-ad98-1e17b9e6b7e2","ios":"levelo://app?vid=37772fd2-0f82-4f52-ad98-1e17b9e6b7e2"},"vehicle_type_id":"4","last_reported":1720969910,"current_range_meters":20400,"station_id":"","pricing_plan_id":"cebpf4jnsgd1na2vs0mg"},{"bike_id":"cf958edf-a973-4ef8-838e-9cc8f1679483","system_id":"levelo_inurba_marseille","lat":43.33766,"lon":5.37478,"is_reserved":false,"is_disabled":false,"rental_uris":{"android":"levelo://app?vid=cf958edf-a973-4ef8-838e-9cc8f1679483","ios":"levelo://app?vid=cf958edf-a973-4ef8-838e-9cc8f1679483"},"vehicle_type_id":"4","last_reported":1720969910,"current_range_meters":13600,"station_id":"","pricing_plan_id":"cebpf4jnsgd1na2vs0mg"},{"bike_id":"bfbef46d-097c-4ecc-a4cf-db53c94b13b1","system_id":"levelo_inurba_marseille","lat":43.33767,"lon":5.37472,"is_reserved":false,"is_disabled":false,"rental_uris":{"android":"levelo://app?vid=bfbef46d-097c-4ecc-a4cf-db53c94b13b1","ios":"levelo://app?vid=bfbef46d-097c-4ecc-a4cf-db53c94b13b1"},"vehicle_type_id":"4","last_reported":1720969910,"current_range_meters":29200,"station_id":"","pricing_plan_id":"cebpf4jnsgd1na2vs0mg"},{"bike_id":"5cd2f239-467e-4111-8850-d9782eca2470","system_id":"levelo_inurba_marseille","lat":43.33767,"lon":5.37472,"is_reserved":false,"is_disabled":false,"rental_uris":{"android":"levelo://app?vid=5cd2f239-467e-4111-8850-d9782eca2470","ios":"levelo://app?vid=5cd2f239-467e-4111-8850-d9782eca2470"},"vehicle_type_id":"4","last_reported":1720969910,"current_range_meters":29200,"station_id":"","pricing_plan_id":"cebpf4jnsgd1na2vs0mg"},{"bike_id":"8f381f06-2b48-4b7f-9444-eca237a2fc44","system_id":"levelo_inurba_marseille","lat":43.291994,"lon":5.357886,"is_reserved":false,"is_disabled":false,"rental_uris":{"android":"levelo://app?vid=8f381f06-2b48-4b7f-9444-eca237a2fc44","ios":"levelo://app?vid=8f381f06-2b48-4b7f-9444-eca237a2fc44"},"vehicle_type_id":"4","last_reported":1720969910,"current_range_meters":25200,"station_id":"ce4bhb12rcd13ifvqel0","pricing_plan_id":"cebpf4jnsgd1na2vs0mg"},{"bike_id":"26f86cb7-ac0c-4cfd-84f1-3a9e9042360d","system_id":"levelo_inurba_marseille","lat":43.33767,"lon":5.37474,"is_reserved":false,"is_disabled":false,"rental_uris":{"android":"levelo://app?vid=26f86cb7-ac0c-4cfd-84f1-3a9e9042360d","ios":"levelo://app?vid=26f86cb7-ac0c-4cfd-84f1-3a9e9042360d"},"vehicle_type_id":"4","last_reported":1720969910,"current_range_meters":14000,"station_id":"","pricing_plan_id":"cebpf4jnsgd1na2vs0mg"},{"bike_id":"039a10e5-aed9-4f01-a151-04375f715c5b","system_id":"levelo_inurba_marseille","lat":43.33767,"lon":5.37478,"is_reserved":false,"is_disabled":false,"rental_uris":{"android":"levelo://app?vid=039a10e5-aed9-4f01-a151-04375f715c5b","ios":"levelo://app?vid=039a10e5-aed9-4f01-a151-04375f715c5b"},"vehicle_type_id":"4","last_reported":1720969910,"current_range_meters":24400,"station_id":"","pricing_plan_id":"cebpf4jnsgd1na2vs0mg"},{"bike_id":"ecca751a-c24b-4d06-bee9-480915f9bb4a","system_id":"levelo_inurba_marseille","lat":43.337687,"lon":5.374696,"is_reserved":false,"is_disabled":false,"rental_uris":{"android":"levelo://app?vid=ecca751a-c24b-4d06-bee9-480915f9bb4a","ios":"levelo://app?vid=ecca751a-c24b-4d06-bee9-480915f9bb4a"},"vehicle_type_id":"4","last_reported":1720969910,"current_range_meters":0,"station_id":"","pricing_plan_id":"cebpf4jnsgd1na2vs0mg"},{"bike_id":"6005b925-bbeb-43fb-9a4b-148f3086b364","system_id":"levelo_inurba_marseille","lat":43.33767,"lon":5.37481,"is_reserved":false,"is_disabled":false,"rental_uris":{"android":"levelo://app?vid=6005b925-bbeb-43fb-9a4b-148f3086b364","ios":"levelo://app?vid=6005b925-bbeb-43fb-9a4b-148f3086b364"},"vehicle_type_id":"4","last_reported":1720969910,"current_range_meters":2000,"station_id":"","pricing_plan_id":"cebpf4jnsgd1na2vs0mg"},{"bike_id":"9641f142-48bc-49b9-9b2a-634a9b288110","system_id":"levelo_inurba_marseille","lat":43.33768,"lon":5.37476,"is_reserved":false,"is_disabled":false,"rental_uris":{"android":"levelo://app?vid=9641f142-48bc-49b9-9b2a-634a9b288110","ios":"levelo://app?vid=9641f142-48bc-49b9-9b2a-634a9b288110"},"vehicle_type_id":"4","last_reported":1720969910,"current_range_meters":21600,"station_id":"","pricing_plan_id":"cebpf4jnsgd1na2vs0mg"},{"bike_id":"0dd06392-f63f-44b8-af4f-590dfd121b02","system_id":"levelo_inurba_marseille","lat":43.33769,"lon":5.3747,"is_reserved":false,"is_disabled":false,"rental_uris":{"android":"levelo://app?vid=0dd06392-f63f-44b8-af4f-590dfd121b02","ios":"levelo://app?vid=0dd06392-f63f-44b8-af4f-590dfd121b02"},"vehicle_type_id":"4","last_reported":1720969910,"current_range_meters":5600,"station_id":"","pricing_plan_id":"cebpf4jnsgd1na2vs0mg"},{"bike_id":"b490573b-32d3-4854-ab3f-e801cde5a636","system_id":"levelo_inurba_marseille","lat":43.33769,"lon":5.37473,"is_reserved":false,"is_disabled":false,"rental_uris":{"android":"levelo://app?vid=b490573b-32d3-4854-ab3f-e801cde5a636","ios":"levelo://app?vid=b490573b-32d3-4854-ab3f-e801cde5a636"},"vehicle_type_id":"4","last_reported":1720969910,"current_range_meters":14400,"station_id":"","pricing_plan_id":"cebpf4jnsgd1na2vs0mg"},{"bike_id":"e880369d-9e45-4e17-b710-89d03f821f41","system_id":"levelo_inurba_marseille","lat":43.3377,"lon":5.3747,"is_reserved":false,"is_disabled":false,"rental_uris":{"android":"levelo://app?vid=e880369d-9e45-4e17-b710-89d03f821f41","ios":"levelo://app?vid=e880369d-9e45-4e17-b710-89d03f821f41"},"vehicle_type_id":"4","last_reported":1720969910,"current_range_meters":5200,"station_id":"","pricing_plan_id":"cebpf4jnsgd1na2vs0mg"},{"bike_id":"c67a12ba-5c42-41ae-847c-0956c8b147e5","system_id":"levelo_inurba_marseille","lat":43.3377,"lon":5.37471,"is_reserved":false,"is_disabled":false,"rental_uris":{"android":"levelo://app?vid=c67a12ba-5c42-41ae-847c-0956c8b147e5","ios":"levelo://app?vid=c67a12ba-5c42-41ae-847c-0956c8b147e5"},"vehicle_type_id":"4","last_reported":1720969910,"current_range_meters":12800,"station_id":"","pricing_plan_id":"cebpf4jnsgd1na2vs0mg"},{"bike_id":"cd48b539-8a8f-4ccd-a8aa-e74e2abaf1f5","system_id":"levelo_inurba_marseille","lat":43.3377,"lon":5.37472,"is_reserved":false,"is_disabled":false,"rental_uris":{"android":"levelo://app?vid=cd48b539-8a8f-4ccd-a8aa-e74e2abaf1f5","ios":"levelo://app?vid=cd48b539-8a8f-4ccd-a8aa-e74e2abaf1f5"},"vehicle_type_id":"4","last_reported":1720969910,"current_range_meters":24400,"station_id":"","pricing_plan_id":"cebpf4jnsgd1na2vs0mg"},{"bike_id":"02f0d131-963f-495a-beaf-edc5a91d6439","system_id":"levelo_inurba_marseille","lat":43.33771,"lon":5.37466,"is_reserved":false,"is_disabled":false,"rental_uris":{"android":"levelo://app?vid=02f0d131-963f-495a-beaf-edc5a91d6439","ios":"levelo://app?vid=02f0d131-963f-495a-beaf-edc5a91d6439"},"vehicle_type_id":"4","last_reported":1720969910,"current_range_meters":25200,"station_id":"","pricing_plan_id":"cebpf4jnsgd1na2vs0mg"},{"bike_id":"a005e922-b721-4196-b009-e1125dd6e3b2","system_id":"levelo_inurba_marseille","lat":43.33769,"lon":5.37479,"is_reserved":false,"is_disabled":false,"rental_uris":{"android":"levelo://app?vid=a005e922-b721-4196-b009-e1125dd6e3b2","ios":"levelo://app?vid=a005e922-b721-4196-b009-e1125dd6e3b2"},"vehicle_type_id":"4","last_reported":1720969910,"current_range_meters":29200,"station_id":"","pricing_plan_id":"cebpf4jnsgd1na2vs0mg"},{"bike_id":"5aae94a6-c440-4789-857e-46a54718fede","system_id":"levelo_inurba_marseille","lat":43.3377,"lon":5.37474,"is_reserved":false,"is_disabled":false,"rental_uris":{"android":"levelo://app?vid=5aae94a6-c440-4789-857e-46a54718fede","ios":"levelo://app?vid=5aae94a6-c440-4789-857e-46a54718fede"},"vehicle_type_id":"4","last_reported":1720969910,"current_range_meters":29200,"station_id":"","pricing_plan_id":"cebpf4jnsgd1na2vs0mg"},{"bike_id":"a7714764-2436-42f7-8089-0fc1ef357d42","system_id":"levelo_inurba_marseille","lat":43.3377,"lon":5.37474,"is_reserved":false,"is_disabled":false,"rental_uris":{"android":"levelo://app?vid=a7714764-2436-42f7-8089-0fc1ef357d42","ios":"levelo://app?vid=a7714764-2436-42f7-8089-0fc1ef357d42"},"vehicle_type_id":"4","last_reported":1720969910,"current_range_meters":0,"station_id":"","pricing_plan_id":"cebpf4jnsgd1na2vs0mg"},{"bike_id":"d77e79b4-bbcc-4fb4-abd6-01e5d49b13f4","system_id":"levelo_inurba_marseille","lat":43.33771,"lon":5.37478,"is_reserved":false,"is_disabled":false,"rental_uris":{"android":"levelo://app?vid=d77e79b4-bbcc-4fb4-abd6-01e5d49b13f4","ios":"levelo://app?vid=d77e79b4-bbcc-4fb4-abd6-01e5d49b13f4"},"vehicle_type_id":"4","last_reported":1720969910,"current_range_meters":14800,"station_id":"","pricing_plan_id":"cebpf4jnsgd1na2vs0mg"},{"bike_id":"9e13c9a5-7387-424a-b4fb-1dc4dce029b5","system_id":"levelo_inurba_marseille","lat":43.33772,"lon":5.37473,"is_reserved":false,"is_disabled":false,"rental_uris":{"android":"levelo://app?vid=9e13c9a5-7387-424a-b4fb-1dc4dce029b5","ios":"levelo://app?vid=9e13c9a5-7387-424a-b4fb-1dc4dce029b5"},"vehicle_type_id":"4","last_reported":1720969910,"current_range_meters":24800,"station_id":"","pricing_plan_id":"cebpf4jnsgd1na2vs0mg"},{"bike_id":"ac9d66fe-9bf5-4789-93e4-8c7d750a082c","system_id":"levelo_inurba_marseille","lat":43.33773,"lon":5.37468,"is_reserved":false,"is_disabled":false,"rental_uris":{"android":"levelo://app?vid=ac9d66fe-9bf5-4789-93e4-8c7d750a082c","ios":"levelo://app?vid=ac9d66fe-9bf5-4789-93e4-8c7d750a082c"},"vehicle_type_id":"4","last_reported":1720969910,"current_range_meters":20800,"station_id":"","pricing_plan_id":"cebpf4jnsgd1na2vs0mg"},{"bike_id":"38b57823-eda1-4e58-a521-74a065ade509","system_id":"levelo_inurba_marseille","lat":43.33773,"lon":5.37469,"is_reserved":false,"is_disabled":false,"rental_uris":{"android":"levelo://app?vid=38b57823-eda1-4e58-a521-74a065ade509","ios":"levelo://app?vid=38b57823-eda1-4e58-a521-74a065ade509"},"vehicle_type_id":"4","last_reported":1720969910,"current_range_meters":24400,"station_id":"","pricing_plan_id":"cebpf4jnsgd1na2vs0mg"},{"bike_id":"39abbf07-2729-49b9-a62e-e135ca141c9b","system_id":"levelo_inurba_marseille","lat":43.33773,"lon":5.37471,"is_reserved":false,"is_disabled":false,"rental_uris":{"android":"levelo://app?vid=39abbf07-2729-49b9-a62e-e135ca141c9b","ios":"levelo://app?vid=39abbf07-2729-49b9-a62e-e135ca141c9b"},"vehicle_type_id":"4","last_reported":1720969910,"current_range_meters":20800,"station_id":"","pricing_plan_id":"cebpf4jnsgd1na2vs0mg"},{"bike_id":"80ff1c69-9419-4f4b-9d57-bf214620b8b3","system_id":"levelo_inurba_marseille","lat":43.33773,"lon":5.374716,"is_reserved":false,"is_disabled":false,"rental_uris":{"android":"levelo://app?vid=80ff1c69-9419-4f4b-9d57-bf214620b8b3","ios":"levelo://app?vid=80ff1c69-9419-4f4b-9d57-bf214620b8b3"},"vehicle_type_id":"4","last_reported":1720969910,"current_range_meters":5200,"station_id":"","pricing_plan_id":"cebpf4jnsgd1na2vs0mg"},{"bike_id":"a4701b34-a47a-4547-9be9-b5a6ebb6ef0f","system_id":"levelo_inurba_marseille","lat":43.33774,"lon":5.3747,"is_reserved":false,"is_disabled":false,"rental_uris":{"android":"levelo://app?vid=a4701b34-a47a-4547-9be9-b5a6ebb6ef0f","ios":"levelo://app?vid=a4701b34-a47a-4547-9be9-b5a6ebb6ef0f"},"vehicle_type_id":"4","last_reported":1720969910,"current_range_meters":16400,"station_id":"","pricing_plan_id":"cebpf4jnsgd1na2vs0mg"},{"bike_id":"c761b19e-877d-432b-bfa8-ed72a86a6759","system_id":"levelo_inurba_marseille","lat":43.33775,"lon":5.37466,"is_reserved":false,"is_disabled":false,"rental_uris":{"android":"levelo://app?vid=c761b19e-877d-432b-bfa8-ed72a86a6759","ios":"levelo://app?vid=c761b19e-877d-432b-bfa8-ed72a86a6759"},"vehicle_type_id":"4","last_reported":1720969910,"current_range_meters":800,"station_id":"","pricing_plan_id":"cebpf4jnsgd1na2vs0mg"},{"bike_id":"0496dc13-34e3-45c2-af9a-f6e2516b223a","system_id":"levelo_inurba_marseille","lat":43.33773,"lon":5.37479,"is_reserved":false,"is_disabled":false,"rental_uris":{"android":"levelo://app?vid=0496dc13-34e3-45c2-af9a-f6e2516b223a","ios":"levelo://app?vid=0496dc13-34e3-45c2-af9a-f6e2516b223a"},"vehicle_type_id":"4","last_reported":1720969910,"current_range_meters":30000,"station_id":"","pricing_plan_id":"cebpf4jnsgd1na2vs0mg"},{"bike_id":"573b9d78-4adb-4e9e-b480-d279544660f2","system_id":"levelo_inurba_marseille","lat":43.33774,"lon":5.37474,"is_reserved":false,"is_disabled":false,"rental_uris":{"android":"levelo://app?vid=573b9d78-4adb-4e9e-b480-d279544660f2","ios":"levelo://app?vid=573b9d78-4adb-4e9e-b480-d279544660f2"},"vehicle_type_id":"4","last_reported":1720969910,"current_range_meters":8400,"station_id":"","pricing_plan_id":"cebpf4jnsgd1na2vs0mg"},{"bike_id":"45416cd9-028f-41b0-ac5a-269637c45e42","system_id":"levelo_inurba_marseille","lat":43.33774,"lon":5.37475,"is_reserved":false,"is_disabled":false,"rental_uris":{"android":"levelo://app?vid=45416cd9-028f-41b0-ac5a-269637c45e42","ios":"levelo://app?vid=45416cd9-028f-41b0-ac5a-269637c45e42"},"vehicle_type_id":"4","last_reported":1720969910,"current_range_meters":9600,"station_id":"","pricing_plan_id":"cebpf4jnsgd1na2vs0mg"},{"bike_id":"e951615b-5573-4435-a7b6-8167ff6ade63","system_id":"levelo_inurba_marseille","lat":43.337738,"lon":5.374772,"is_reserved":false,"is_disabled":false,"rental_uris":{"android":"levelo://app?vid=e951615b-5573-4435-a7b6-8167ff6ade63","ios":"levelo://app?vid=e951615b-5573-4435-a7b6-8167ff6ade63"},"vehicle_type_id":"4","last_reported":1720969910,"current_range_meters":14000,"station_id":"","pricing_plan_id":"cebpf4jnsgd1na2vs0mg"},{"bike_id":"215d24e0-7b63-49a8-aed8-8b8c5a53b355","system_id":"levelo_inurba_marseille","lat":43.33774,"lon":5.37478,"is_reserved":false,"is_disabled":false,"rental_uris":{"android":"levelo://app?vid=215d24e0-7b63-49a8-aed8-8b8c5a53b355","ios":"levelo://app?vid=215d24e0-7b63-49a8-aed8-8b8c5a53b355"},"vehicle_type_id":"4","last_reported":1720969910,"current_range_meters":13600,"station_id":"","pricing_plan_id":"cebpf4jnsgd1na2vs0mg"},{"bike_id":"0146c428-cfdd-4a76-a91e-317ac3b8cedc","system_id":"levelo_inurba_marseille","lat":43.33775,"lon":5.37472,"is_reserved":false,"is_disabled":false,"rental_uris":{"android":"levelo://app?vid=0146c428-cfdd-4a76-a91e-317ac3b8cedc","ios":"levelo://app?vid=0146c428-cfdd-4a76-a91e-317ac3b8cedc"},"vehicle_type_id":"4","last_reported":1720969910,"current_range_meters":0,"station_id":"","pricing_plan_id":"cebpf4jnsgd1na2vs0mg"},{"bike_id":"2fa411ed-3fa9-4268-b414-c8e45152bf4d","system_id":"levelo_inurba_marseille","lat":43.33775,"lon":5.37473,"is_reserved":false,"is_disabled":false,"rental_uris":{"android":"levelo://app?vid=2fa411ed-3fa9-4268-b414-c8e45152bf4d","ios":"levelo://app?vid=2fa411ed-3fa9-4268-b414-c8e45152bf4d"},"vehicle_type_id":"4","last_reported":1720969910,"current_range_meters":14000,"station_id":"","pricing_plan_id":"cebpf4jnsgd1na2vs0mg"},{"bike_id":"db8d58e3-38a2-4c75-ae4a-e4abfcab3724","system_id":"levelo_inurba_marseille","lat":43.33775,"lon":5.37475,"is_reserved":false,"is_disabled":false,"rental_uris":{"android":"levelo://app?vid=db8d58e3-38a2-4c75-ae4a-e4abfcab3724","ios":"levelo://app?vid=db8d58e3-38a2-4c75-ae4a-e4abfcab3724"},"vehicle_type_id":"4","last_reported":1720969910,"current_range_meters":28400,"station_id":"","pricing_plan_id":"cebpf4jnsgd1na2vs0mg"},{"bike_id":"a5b64c84-5508-41ed-bc97-8b733f293107","system_id":"levelo_inurba_marseille","lat":43.33776,"lon":5.37471,"is_reserved":false,"is_disabled":false,"rental_uris":{"android":"levelo://app?vid=a5b64c84-5508-41ed-bc97-8b733f293107","ios":"levelo://app?vid=a5b64c84-5508-41ed-bc97-8b733f293107"},"vehicle_type_id":"4","last_reported":1720969910,"current_range_meters":24400,"station_id":"","pricing_plan_id":"cebpf4jnsgd1na2vs0mg"},{"bike_id":"0c80325e-daf1-446d-8059-bffa294c7e3e","system_id":"levelo_inurba_marseille","lat":43.33777,"lon":5.37474,"is_reserved":false,"is_disabled":false,"rental_uris":{"android":"levelo://app?vid=0c80325e-daf1-446d-8059-bffa294c7e3e","ios":"levelo://app?vid=0c80325e-daf1-446d-8059-bffa294c7e3e"},"vehicle_type_id":"4","last_reported":1720969910,"current_range_meters":21600,"station_id":"","pricing_plan_id":"cebpf4jnsgd1na2vs0mg"},{"bike_id":"60014351-6980-43c2-9516-117e9bc87905","system_id":"levelo_inurba_marseille","lat":43.33777,"lon":5.37474,"is_reserved":false,"is_disabled":false,"rental_uris":{"android":"levelo://app?vid=60014351-6980-43c2-9516-117e9bc87905","ios":"levelo://app?vid=60014351-6980-43c2-9516-117e9bc87905"},"vehicle_type_id":"4","last_reported":1720969910,"current_range_meters":15200,"station_id":"","pricing_plan_id":"cebpf4jnsgd1na2vs0mg"},{"bike_id":"51544219-3a97-477c-9642-d66a5be4ade3","system_id":"levelo_inurba_marseille","lat":43.33776,"lon":5.37485,"is_reserved":false,"is_disabled":false,"rental_uris":{"android":"levelo://app?vid=51544219-3a97-477c-9642-d66a5be4ade3","ios":"levelo://app?vid=51544219-3a97-477c-9642-d66a5be4ade3"},"vehicle_type_id":"4","last_reported":1720969910,"current_range_meters":17600,"station_id":"","pricing_plan_id":"cebpf4jnsgd1na2vs0mg"},{"bike_id":"7fe8718f-2ce5-43ca-bf2f-4cadfbd7a814","system_id":"levelo_inurba_marseille","lat":43.33778,"lon":5.37476,"is_reserved":false,"is_disabled":false,"rental_uris":{"android":"levelo://app?vid=7fe8718f-2ce5-43ca-bf2f-4cadfbd7a814","ios":"levelo://app?vid=7fe8718f-2ce5-43ca-bf2f-4cadfbd7a814"},"vehicle_type_id":"4","last_reported":1720969910,"current_range_meters":16800,"station_id":"","pricing_plan_id":"cebpf4jnsgd1na2vs0mg"},{"bike_id":"0d58fd1b-f1d1-4fc6-a4e4-51a623e9a871","system_id":"levelo_inurba_marseille","lat":43.33778,"lon":5.37483,"is_reserved":false,"is_disabled":false,"rental_uris":{"android":"levelo://app?vid=0d58fd1b-f1d1-4fc6-a4e4-51a623e9a871","ios":"levelo://app?vid=0d58fd1b-f1d1-4fc6-a4e4-51a623e9a871"},"vehicle_type_id":"4","last_reported":1720969910,"current_range_meters":30800,"station_id":"","pricing_plan_id":"cebpf4jnsgd1na2vs0mg"},{"bike_id":"69cb3bdd-3dd6-455d-8023-672c354c1188","system_id":"levelo_inurba_marseille","lat":43.28726,"lon":5.36087,"is_reserved":false,"is_disabled":false,"rental_uris":{"android":"levelo://app?vid=69cb3bdd-3dd6-455d-8023-672c354c1188","ios":"levelo://app?vid=69cb3bdd-3dd6-455d-8023-672c354c1188"},"vehicle_type_id":"4","last_reported":1720969910,"current_range_meters":0,"station_id":"cki0cbj6b192h4jlfktg","pricing_plan_id":"cebpf4jnsgd1na2vs0mg"},{"bike_id":"93e17f2c-ec6c-414c-8bda-524b0c647aa8","system_id":"levelo_inurba_marseille","lat":43.286593,"lon":5.363346,"is_reserved":false,"is_disabled":false,"rental_uris":{"android":"levelo://app?vid=93e17f2c-ec6c-414c-8bda-524b0c647aa8","ios":"levelo://app?vid=93e17f2c-ec6c-414c-8bda-524b0c647aa8"},"vehicle_type_id":"4","last_reported":1720969910,"current_range_meters":16000,"station_id":"ce4bhah2rcd13ifvqej0","pricing_plan_id":"cebpf4jnsgd1na2vs0mg"},{"bike_id":"fc010ec5-2484-40c3-befd-4886d70384e5","system_id":"levelo_inurba_marseille","lat":43.290336,"lon":5.386425,"is_reserved":false,"is_disabled":false,"rental_uris":{"android":"levelo://app?vid=fc010ec5-2484-40c3-befd-4886d70384e5","ios":"levelo://app?vid=fc010ec5-2484-40c3-befd-4886d70384e5"},"vehicle_type_id":"4","last_reported":1720969910,"current_range_meters":14800,"station_id":"ce4bh4p2rcd13ifvqe0g","pricing_plan_id":"cebpf4jnsgd1na2vs0mg"},{"bike_id":"42898960-b948-42cb-b69c-63623b13f0f0","system_id":"levelo_inurba_marseille","lat":43.289307,"lon":5.38406,"is_reserved":false,"is_disabled":false,"rental_uris":{"android":"levelo://app?vid=42898960-b948-42cb-b69c-63623b13f0f0","ios":"levelo://app?vid=42898960-b948-42cb-b69c-63623b13f0f0"},"vehicle_type_id":"4","last_reported":1720969910,"current_range_meters":10000,"station_id":"ce4bh612rcd13ifvqe6g","pricing_plan_id":"cebpf4jnsgd1na2vs0mg"},{"bike_id":"e96901d6-3c0a-482b-812c-c5aeae86d16a","system_id":"levelo_inurba_marseille","lat":43.302759,"lon":5.400793,"is_reserved":false,"is_disabled":false,"rental_uris":{"android":"levelo://app?vid=e96901d6-3c0a-482b-812c-c5aeae86d16a","ios":"levelo://app?vid=e96901d6-3c0a-482b-812c-c5aeae86d16a"},"vehicle_type_id":"4","last_reported":1720969910,"current_range_meters":2000,"station_id":"ce4bgvh2rcd13ifvqcs0","pricing_plan_id":"cebpf4jnsgd1na2vs0mg"},{"bike_id":"4c4a29f7-b83e-42d1-b26b-7f8ccae0d8df","system_id":"levelo_inurba_marseille","lat":43.286068,"lon":5.370686,"is_reserved":false,"is_disabled":false,"rental_uris":{"android":"levelo://app?vid=4c4a29f7-b83e-42d1-b26b-7f8ccae0d8df","ios":"levelo://app?vid=4c4a29f7-b83e-42d1-b26b-7f8ccae0d8df"},"vehicle_type_id":"4","last_reported":1720969910,"current_range_meters":0,"station_id":"ce4bht12rcd13ifvqi60","pricing_plan_id":"cebpf4jnsgd1na2vs0mg"},{"bike_id":"0de87fd0-f9bb-49ad-ac62-dba48ea17ee9","system_id":"levelo_inurba_marseille","lat":43.287184,"lon":5.37937,"is_reserved":false,"is_disabled":false,"rental_uris":{"android":"levelo://app?vid=0de87fd0-f9bb-49ad-ac62-dba48ea17ee9","ios":"levelo://app?vid=0de87fd0-f9bb-49ad-ac62-dba48ea17ee9"},"vehicle_type_id":"4","last_reported":1720969910,"current_range_meters":17600,"station_id":"ce4bh9p2rcd13ifvqec0","pricing_plan_id":"cebpf4jnsgd1na2vs0mg"},{"bike_id":"38849472-a0f6-4731-a645-1e0b16867598","system_id":"levelo_inurba_marseille","lat":43.316828,"lon":5.404723,"is_reserved":false,"is_disabled":false,"rental_uris":{"android":"levelo://app?vid=38849472-a0f6-4731-a645-1e0b16867598","ios":"levelo://app?vid=38849472-a0f6-4731-a645-1e0b16867598"},"vehicle_type_id":"4","last_reported":1720969910,"current_range_meters":5600,"station_id":"ce4bh012rcd13ifvqd00","pricing_plan_id":"cebpf4jnsgd1na2vs0mg"},{"bike_id":"3bcb3e8c-30fb-4407-b33a-01bb5b5c79db","system_id":"levelo_inurba_marseille","lat":43.31703,"lon":5.40469,"is_reserved":false,"is_disabled":false,"rental_uris":{"android":"levelo://app?vid=3bcb3e8c-30fb-4407-b33a-01bb5b5c79db","ios":"levelo://app?vid=3bcb3e8c-30fb-4407-b33a-01bb5b5c79db"},"vehicle_type_id":"4","last_reported":1720969910,"current_range_meters":26800,"station_id":"ce4bh012rcd13ifvqd00","pricing_plan_id":"cebpf4jnsgd1na2vs0mg"},{"bike_id":"d9b9e1ac-d4cb-4092-9fdb-fdd881ac2b1d","system_id":"levelo_inurba_marseille","lat":43.291994,"lon":5.392907,"is_reserved":false,"is_disabled":false,"rental_uris":{"android":"levelo://app?vid=d9b9e1ac-d4cb-4092-9fdb-fdd881ac2b1d","ios":"levelo://app?vid=d9b9e1ac-d4cb-4092-9fdb-fdd881ac2b1d"},"vehicle_type_id":"4","last_reported":1720969910,"current_range_meters":0,"station_id":"ce4bh192rcd13ifvqdd0","pricing_plan_id":"cebpf4jnsgd1na2vs0mg"},{"bike_id":"7c73b179-508a-4148-be7d-2aca861ef652","system_id":"levelo_inurba_marseille","lat":43.284538,"lon":5.358657,"is_reserved":false,"is_disabled":false,"rental_uris":{"android":"levelo://app?vid=7c73b179-508a-4148-be7d-2aca861ef652","ios":"levelo://app?vid=7c73b179-508a-4148-be7d-2aca861ef652"},"vehicle_type_id":"4","last_reported":1720969910,"current_range_meters":800,"station_id":"ce4bhah2rcd13ifvqei0","pricing_plan_id":"cebpf4jnsgd1na2vs0mg"},{"bike_id":"f3fa230f-623b-4fdc-bc9d-338ad657a544","system_id":"levelo_inurba_marseille","lat":43.284538,"lon":5.358657,"is_reserved":false,"is_disabled":false,"rental_uris":{"android":"levelo://app?vid=f3fa230f-623b-4fdc-bc9d-338ad657a544","ios":"levelo://app?vid=f3fa230f-623b-4fdc-bc9d-338ad657a544"},"vehicle_type_id":"4","last_reported":1720969910,"current_range_meters":1200,"station_id":"ce4bhah2rcd13ifvqei0","pricing_plan_id":"cebpf4jnsgd1na2vs0mg"},{"bike_id":"3e42492e-e11a-41ba-b72c-40337edffe36","system_id":"levelo_inurba_marseille","lat":43.284538,"lon":5.358657,"is_reserved":false,"is_disabled":false,"rental_uris":{"android":"levelo://app?vid=3e42492e-e11a-41ba-b72c-40337edffe36","ios":"levelo://app?vid=3e42492e-e11a-41ba-b72c-40337edffe36"},"vehicle_type_id":"4","last_reported":1720969910,"current_range_meters":5600,"station_id":"ce4bhah2rcd13ifvqei0","pricing_plan_id":"cebpf4jnsgd1na2vs0mg"},{"bike_id":"eaaa4cc2-0cef-41c0-8cb5-fe7d669fef68","system_id":"levelo_inurba_marseille","lat":43.284538,"lon":5.358657,"is_reserved":false,"is_disabled":false,"rental_uris":{"android":"levelo://app?vid=eaaa4cc2-0cef-41c0-8cb5-fe7d669fef68","ios":"levelo://app?vid=eaaa4cc2-0cef-41c0-8cb5-fe7d669fef68"},"vehicle_type_id":"4","last_reported":1720969910,"current_range_meters":400,"station_id":"ce4bhah2rcd13ifvqei0","pricing_plan_id":"cebpf4jnsgd1na2vs0mg"},{"bike_id":"eb5e5c49-2f2f-4759-b011-07292d7e0d95","system_id":"levelo_inurba_marseille","lat":43.28623,"lon":5.35106,"is_reserved":false,"is_disabled":false,"rental_uris":{"android":"levelo://app?vid=eb5e5c49-2f2f-4759-b011-07292d7e0d95","ios":"levelo://app?vid=eb5e5c49-2f2f-4759-b011-07292d7e0d95"},"vehicle_type_id":"4","last_reported":1720969910,"current_range_meters":0,"station_id":"ce4bhch2rcd13ifvqeug","pricing_plan_id":"cebpf4jnsgd1na2vs0mg"},{"bike_id":"051536f5-a3b3-4040-9b4e-926eb2bd473f","system_id":"levelo_inurba_marseille","lat":43.28621,"lon":5.35109,"is_reserved":false,"is_disabled":false,"rental_uris":{"android":"levelo://app?vid=051536f5-a3b3-4040-9b4e-926eb2bd473f","ios":"levelo://app?vid=051536f5-a3b3-4040-9b4e-926eb2bd473f"},"vehicle_type_id":"4","last_reported":1720969910,"current_range_meters":0,"station_id":"ce4bhch2rcd13ifvqeug","pricing_plan_id":"cebpf4jnsgd1na2vs0mg"},{"bike_id":"903b7c78-33e1-4574-83be-cf9e76064352","system_id":"levelo_inurba_marseille","lat":43.28619,"lon":5.35107,"is_reserved":false,"is_disabled":false,"rental_uris":{"android":"levelo://app?vid=903b7c78-33e1-4574-83be-cf9e76064352","ios":"levelo://app?vid=903b7c78-33e1-4574-83be-cf9e76064352"},"vehicle_type_id":"4","last_reported":1720969910,"current_range_meters":0,"station_id":"ce4bhch2rcd13ifvqeug","pricing_plan_id":"cebpf4jnsgd1na2vs0mg"},{"bike_id":"e69b0177-ee26-4b71-bf7a-46e604756a39","system_id":"levelo_inurba_marseille","lat":43.28618,"lon":5.35109,"is_reserved":false,"is_disabled":false,"rental_uris":{"android":"levelo://app?vid=e69b0177-ee26-4b71-bf7a-46e604756a39","ios":"levelo://app?vid=e69b0177-ee26-4b71-bf7a-46e604756a39"},"vehicle_type_id":"4","last_reported":1720969910,"current_range_meters":17600,"station_id":"ce4bhch2rcd13ifvqeug","pricing_plan_id":"cebpf4jnsgd1na2vs0mg"},{"bike_id":"57ad3ecf-8434-4e1d-8f3c-6f65951ca40c","system_id":"levelo_inurba_marseille","lat":43.285856,"lon":5.350771,"is_reserved":false,"is_disabled":false,"rental_uris":{"android":"levelo://app?vid=57ad3ecf-8434-4e1d-8f3c-6f65951ca40c","ios":"levelo://app?vid=57ad3ecf-8434-4e1d-8f3c-6f65951ca40c"},"vehicle_type_id":"4","last_reported":1720969910,"current_range_meters":25200,"station_id":"ce4bhch2rcd13ifvqeug","pricing_plan_id":"cebpf4jnsgd1na2vs0mg"},{"bike_id":"7108c422-0f20-476c-b181-c6e5988af06c","system_id":"levelo_inurba_marseille","lat":43.28618,"lon":5.35106,"is_reserved":false,"is_disabled":false,"rental_uris":{"android":"levelo://app?vid=7108c422-0f20-476c-b181-c6e5988af06c","ios":"levelo://app?vid=7108c422-0f20-476c-b181-c6e5988af06c"},"vehicle_type_id":"4","last_reported":1720969910,"current_range_meters":6000,"station_id":"ce4bhch2rcd13ifvqeug","pricing_plan_id":"cebpf4jnsgd1na2vs0mg"},{"bike_id":"0f63660d-aade-4340-bc67-ec92ec53fb41","system_id":"levelo_inurba_marseille","lat":43.28616,"lon":5.3511,"is_reserved":false,"is_disabled":false,"rental_uris":{"android":"levelo://app?vid=0f63660d-aade-4340-bc67-ec92ec53fb41","ios":"levelo://app?vid=0f63660d-aade-4340-bc67-ec92ec53fb41"},"vehicle_type_id":"4","last_reported":1720969910,"current_range_meters":12000,"station_id":"ce4bhch2rcd13ifvqeug","pricing_plan_id":"cebpf4jnsgd1na2vs0mg"},{"bike_id":"56c2e973-a67a-4d9f-9202-042421d7010c","system_id":"levelo_inurba_marseille","lat":43.28617,"lon":5.35106,"is_reserved":false,"is_disabled":false,"rental_uris":{"android":"levelo://app?vid=56c2e973-a67a-4d9f-9202-042421d7010c","ios":"levelo://app?vid=56c2e973-a67a-4d9f-9202-042421d7010c"},"vehicle_type_id":"4","last_reported":1720969910,"current_range_meters":11200,"station_id":"ce4bhch2rcd13ifvqeug","pricing_plan_id":"cebpf4jnsgd1na2vs0mg"},{"bike_id":"47661d65-3c2b-4fbd-a2dc-5daeff0302b0","system_id":"levelo_inurba_marseille","lat":43.28618,"lon":5.35102,"is_reserved":false,"is_disabled":false,"rental_uris":{"android":"levelo://app?vid=47661d65-3c2b-4fbd-a2dc-5daeff0302b0","ios":"levelo://app?vid=47661d65-3c2b-4fbd-a2dc-5daeff0302b0"},"vehicle_type_id":"4","last_reported":1720969910,"current_range_meters":14800,"station_id":"ce4bhch2rcd13ifvqeug","pricing_plan_id":"cebpf4jnsgd1na2vs0mg"},{"bike_id":"0daa8fa8-fda5-4a8c-b9d4-e94fddc63443","system_id":"levelo_inurba_marseille","lat":43.28616,"lon":5.35105,"is_reserved":false,"is_disabled":false,"rental_uris":{"android":"levelo://app?vid=0daa8fa8-fda5-4a8c-b9d4-e94fddc63443","ios":"levelo://app?vid=0daa8fa8-fda5-4a8c-b9d4-e94fddc63443"},"vehicle_type_id":"4","last_reported":1720969910,"current_range_meters":21200,"station_id":"ce4bhch2rcd13ifvqeug","pricing_plan_id":"cebpf4jnsgd1na2vs0mg"},{"bike_id":"46650df9-9664-4abf-ac4c-dd4cf1df7288","system_id":"levelo_inurba_marseille","lat":43.28616,"lon":5.35104,"is_reserved":false,"is_disabled":false,"rental_uris":{"android":"levelo://app?vid=46650df9-9664-4abf-ac4c-dd4cf1df7288","ios":"levelo://app?vid=46650df9-9664-4abf-ac4c-dd4cf1df7288"},"vehicle_type_id":"4","last_reported":1720969910,"current_range_meters":4000,"station_id":"ce4bhch2rcd13ifvqeug","pricing_plan_id":"cebpf4jnsgd1na2vs0mg"},{"bike_id":"1a9f866a-f5ae-4ed2-a27d-b429638d1280","system_id":"levelo_inurba_marseille","lat":43.28617,"lon":5.35099,"is_reserved":false,"is_disabled":false,"rental_uris":{"android":"levelo://app?vid=1a9f866a-f5ae-4ed2-a27d-b429638d1280","ios":"levelo://app?vid=1a9f866a-f5ae-4ed2-a27d-b429638d1280"},"vehicle_type_id":"4","last_reported":1720969910,"current_range_meters":0,"station_id":"ce4bhch2rcd13ifvqeug","pricing_plan_id":"cebpf4jnsgd1na2vs0mg"},{"bike_id":"07009214-663d-4945-a3f0-ebab9765bbfe","system_id":"levelo_inurba_marseille","lat":43.28616,"lon":5.35099,"is_reserved":false,"is_disabled":false,"rental_uris":{"android":"levelo://app?vid=07009214-663d-4945-a3f0-ebab9765bbfe","ios":"levelo://app?vid=07009214-663d-4945-a3f0-ebab9765bbfe"},"vehicle_type_id":"4","last_reported":1720969910,"current_range_meters":0,"station_id":"ce4bhch2rcd13ifvqeug","pricing_plan_id":"cebpf4jnsgd1na2vs0mg"},{"bike_id":"cfe42120-1e1a-4914-ad72-1061cd869678","system_id":"levelo_inurba_marseille","lat":43.28612,"lon":5.35105,"is_reserved":false,"is_disabled":false,"rental_uris":{"android":"levelo://app?vid=cfe42120-1e1a-4914-ad72-1061cd869678","ios":"levelo://app?vid=cfe42120-1e1a-4914-ad72-1061cd869678"},"vehicle_type_id":"4","last_reported":1720969910,"current_range_meters":1200,"station_id":"ce4bhch2rcd13ifvqeug","pricing_plan_id":"cebpf4jnsgd1na2vs0mg"},{"bike_id":"bb11de75-256c-4c4b-bfcf-6c25a7605f04","system_id":"levelo_inurba_marseille","lat":43.28613,"lon":5.351,"is_reserved":false,"is_disabled":false,"rental_uris":{"android":"levelo://app?vid=bb11de75-256c-4c4b-bfcf-6c25a7605f04","ios":"levelo://app?vid=bb11de75-256c-4c4b-bfcf-6c25a7605f04"},"vehicle_type_id":"4","last_reported":1720969910,"current_range_meters":6800,"station_id":"ce4bhch2rcd13ifvqeug","pricing_plan_id":"cebpf4jnsgd1na2vs0mg"},{"bike_id":"aea79c64-5d2f-4539-91c1-61008de31ec6","system_id":"levelo_inurba_marseille","lat":43.28611,"lon":5.35104,"is_reserved":false,"is_disabled":false,"rental_uris":{"android":"levelo://app?vid=aea79c64-5d2f-4539-91c1-61008de31ec6","ios":"levelo://app?vid=aea79c64-5d2f-4539-91c1-61008de31ec6"},"vehicle_type_id":"4","last_reported":1720969910,"current_range_meters":22400,"station_id":"ce4bhch2rcd13ifvqeug","pricing_plan_id":"cebpf4jnsgd1na2vs0mg"},{"bike_id":"9333b8c1-0385-4eed-8d6e-70036366fa3c","system_id":"levelo_inurba_marseille","lat":43.33717,"lon":5.391857,"is_reserved":false,"is_disabled":false,"rental_uris":{"android":"levelo://app?vid=9333b8c1-0385-4eed-8d6e-70036366fa3c","ios":"levelo://app?vid=9333b8c1-0385-4eed-8d6e-70036366fa3c"},"vehicle_type_id":"4","last_reported":1720969910,"current_range_meters":30800,"station_id":"ce4bhr92rcd13ifvqhsg","pricing_plan_id":"cebpf4jnsgd1na2vs0mg"},{"bike_id":"d8a53db4-479e-4511-bee3-cbcbb80ffb8a","system_id":"levelo_inurba_marseille","lat":43.33717,"lon":5.391857,"is_reserved":false,"is_disabled":false,"rental_uris":{"android":"levelo://app?vid=d8a53db4-479e-4511-bee3-cbcbb80ffb8a","ios":"levelo://app?vid=d8a53db4-479e-4511-bee3-cbcbb80ffb8a"},"vehicle_type_id":"4","last_reported":1720969910,"current_range_meters":29600,"station_id":"ce4bhr92rcd13ifvqhsg","pricing_plan_id":"cebpf4jnsgd1na2vs0mg"},{"bike_id":"ca370fc9-f07f-46ad-b105-ed3826d5870d","system_id":"levelo_inurba_marseille","lat":43.32342,"lon":5.40616,"is_reserved":false,"is_disabled":false,"rental_uris":{"android":"levelo://app?vid=ca370fc9-f07f-46ad-b105-ed3826d5870d","ios":"levelo://app?vid=ca370fc9-f07f-46ad-b105-ed3826d5870d"},"vehicle_type_id":"4","last_reported":1720969910,"current_range_meters":0,"station_id":"ce4bhq92rcd13ifvqhjg","pricing_plan_id":"cebpf4jnsgd1na2vs0mg"},{"bike_id":"3669a729-98c2-47c5-ba33-8fdbe8723a14","system_id":"levelo_inurba_marseille","lat":43.33717,"lon":5.391857,"is_reserved":false,"is_disabled":false,"rental_uris":{"android":"levelo://app?vid=3669a729-98c2-47c5-ba33-8fdbe8723a14","ios":"levelo://app?vid=3669a729-98c2-47c5-ba33-8fdbe8723a14"},"vehicle_type_id":"4","last_reported":1720969910,"current_range_meters":24000,"station_id":"ce4bhr92rcd13ifvqhsg","pricing_plan_id":"cebpf4jnsgd1na2vs0mg"},{"bike_id":"21e4ef63-0a9d-476f-b956-f659d25c40c2","system_id":"levelo_inurba_marseille","lat":43.33725,"lon":5.39192,"is_reserved":false,"is_disabled":false,"rental_uris":{"android":"levelo://app?vid=21e4ef63-0a9d-476f-b956-f659d25c40c2","ios":"levelo://app?vid=21e4ef63-0a9d-476f-b956-f659d25c40c2"},"vehicle_type_id":"4","last_reported":1720969910,"current_range_meters":1200,"station_id":"ce4bhr92rcd13ifvqhsg","pricing_plan_id":"cebpf4jnsgd1na2vs0mg"},{"bike_id":"2d940ee5-88e2-47e7-becf-8a2178e98459","system_id":"levelo_inurba_marseille","lat":43.33717,"lon":5.391857,"is_reserved":false,"is_disabled":false,"rental_uris":{"android":"levelo://app?vid=2d940ee5-88e2-47e7-becf-8a2178e98459","ios":"levelo://app?vid=2d940ee5-88e2-47e7-becf-8a2178e98459"},"vehicle_type_id":"4","last_reported":1720969910,"current_range_meters":17200,"station_id":"ce4bhr92rcd13ifvqhsg","pricing_plan_id":"cebpf4jnsgd1na2vs0mg"},{"bike_id":"a898525d-a785-4c51-99b0-916452f19814","system_id":"levelo_inurba_marseille","lat":43.288501,"lon":5.393087,"is_reserved":false,"is_disabled":false,"rental_uris":{"android":"levelo://app?vid=a898525d-a785-4c51-99b0-916452f19814","ios":"levelo://app?vid=a898525d-a785-4c51-99b0-916452f19814"},"vehicle_type_id":"4","last_reported":1720969910,"current_range_meters":18400,"station_id":"ce4bh2p2rcd13ifvqdi0","pricing_plan_id":"cebpf4jnsgd1na2vs0mg"},{"bike_id":"dfb60529-0d3b-4721-9781-f724336ba9cf","system_id":"levelo_inurba_marseille","lat":43.28429,"lon":5.35006,"is_reserved":false,"is_disabled":false,"rental_uris":{"android":"levelo://app?vid=dfb60529-0d3b-4721-9781-f724336ba9cf","ios":"levelo://app?vid=dfb60529-0d3b-4721-9781-f724336ba9cf"},"vehicle_type_id":"4","last_reported":1720969910,"current_range_meters":6400,"station_id":"ce4bhbh2rcd13ifvqepg","pricing_plan_id":"cebpf4jnsgd1na2vs0mg"},{"bike_id":"fbe0ad8a-2d0f-4f79-a24d-c29a4a91f5c8","system_id":"levelo_inurba_marseille","lat":43.284297,"lon":5.350028,"is_reserved":false,"is_disabled":false,"rental_uris":{"android":"levelo://app?vid=fbe0ad8a-2d0f-4f79-a24d-c29a4a91f5c8","ios":"levelo://app?vid=fbe0ad8a-2d0f-4f79-a24d-c29a4a91f5c8"},"vehicle_type_id":"4","last_reported":1720969910,"current_range_meters":24400,"station_id":"ce4bhbh2rcd13ifvqepg","pricing_plan_id":"cebpf4jnsgd1na2vs0mg"},{"bike_id":"7d220fb7-4fb4-4849-9491-ceca1cd35adb","system_id":"levelo_inurba_marseille","lat":43.28429,"lon":5.35001,"is_reserved":false,"is_disabled":false,"rental_uris":{"android":"levelo://app?vid=7d220fb7-4fb4-4849-9491-ceca1cd35adb","ios":"levelo://app?vid=7d220fb7-4fb4-4849-9491-ceca1cd35adb"},"vehicle_type_id":"4","last_reported":1720969910,"current_range_meters":20000,"station_id":"ce4bhbh2rcd13ifvqepg","pricing_plan_id":"cebpf4jnsgd1na2vs0mg"},{"bike_id":"193dab35-8aed-4bac-a404-65caec0c9515","system_id":"levelo_inurba_marseille","lat":43.284293,"lon":5.349993,"is_reserved":false,"is_disabled":false,"rental_uris":{"android":"levelo://app?vid=193dab35-8aed-4bac-a404-65caec0c9515","ios":"levelo://app?vid=193dab35-8aed-4bac-a404-65caec0c9515"},"vehicle_type_id":"4","last_reported":1720969910,"current_range_meters":8400,"station_id":"ce4bhbh2rcd13ifvqepg","pricing_plan_id":"cebpf4jnsgd1na2vs0mg"},{"bike_id":"90a17226-1beb-40ee-bfdf-7be8f946e9ca","system_id":"levelo_inurba_marseille","lat":43.284214,"lon":5.349706,"is_reserved":false,"is_disabled":false,"rental_uris":{"android":"levelo://app?vid=90a17226-1beb-40ee-bfdf-7be8f946e9ca","ios":"levelo://app?vid=90a17226-1beb-40ee-bfdf-7be8f946e9ca"},"vehicle_type_id":"4","last_reported":1720969910,"current_range_meters":14000,"station_id":"ce4bhbh2rcd13ifvqepg","pricing_plan_id":"cebpf4jnsgd1na2vs0mg"},{"bike_id":"5a84ac08-7ceb-4e85-b47f-bfe7a757153a","system_id":"levelo_inurba_marseille","lat":43.284259,"lon":5.350011,"is_reserved":false,"is_disabled":false,"rental_uris":{"android":"levelo://app?vid=5a84ac08-7ceb-4e85-b47f-bfe7a757153a","ios":"levelo://app?vid=5a84ac08-7ceb-4e85-b47f-bfe7a757153a"},"vehicle_type_id":"4","last_reported":1720969910,"current_range_meters":0,"station_id":"ce4bhbh2rcd13ifvqepg","pricing_plan_id":"cebpf4jnsgd1na2vs0mg"},{"bike_id":"ea8686b0-b309-4882-b50e-3e508e6b878c","system_id":"levelo_inurba_marseille","lat":43.28427,"lon":5.34993,"is_reserved":false,"is_disabled":false,"rental_uris":{"android":"levelo://app?vid=ea8686b0-b309-4882-b50e-3e508e6b878c","ios":"levelo://app?vid=ea8686b0-b309-4882-b50e-3e508e6b878c"},"vehicle_type_id":"4","last_reported":1720969910,"current_range_meters":19200,"station_id":"ce4bhbh2rcd13ifvqepg","pricing_plan_id":"cebpf4jnsgd1na2vs0mg"},{"bike_id":"00a36c6e-f964-4cff-8728-0cba89a94f28","system_id":"levelo_inurba_marseille","lat":43.28426,"lon":5.34995,"is_reserved":false,"is_disabled":false,"rental_uris":{"android":"levelo://app?vid=00a36c6e-f964-4cff-8728-0cba89a94f28","ios":"levelo://app?vid=00a36c6e-f964-4cff-8728-0cba89a94f28"},"vehicle_type_id":"4","last_reported":1720969910,"current_range_meters":16000,"station_id":"ce4bhbh2rcd13ifvqepg","pricing_plan_id":"cebpf4jnsgd1na2vs0mg"},{"bike_id":"8babb939-66c3-4de2-8426-47b191e7d343","system_id":"levelo_inurba_marseille","lat":43.284248,"lon":5.349974,"is_reserved":false,"is_disabled":false,"rental_uris":{"android":"levelo://app?vid=8babb939-66c3-4de2-8426-47b191e7d343","ios":"levelo://app?vid=8babb939-66c3-4de2-8426-47b191e7d343"},"vehicle_type_id":"4","last_reported":1720969910,"current_range_meters":25600,"station_id":"ce4bhbh2rcd13ifvqepg","pricing_plan_id":"cebpf4jnsgd1na2vs0mg"},{"bike_id":"95cae070-be2e-4dab-a480-92239297be99","system_id":"levelo_inurba_marseille","lat":43.28425,"lon":5.34996,"is_reserved":false,"is_disabled":false,"rental_uris":{"android":"levelo://app?vid=95cae070-be2e-4dab-a480-92239297be99","ios":"levelo://app?vid=95cae070-be2e-4dab-a480-92239297be99"},"vehicle_type_id":"4","last_reported":1720969910,"current_range_meters":0,"station_id":"ce4bhbh2rcd13ifvqepg","pricing_plan_id":"cebpf4jnsgd1na2vs0mg"},{"bike_id":"0ebcb4f4-1c10-419b-a3a3-e35118b23014","system_id":"levelo_inurba_marseille","lat":43.28423,"lon":5.35001,"is_reserved":false,"is_disabled":false,"rental_uris":{"android":"levelo://app?vid=0ebcb4f4-1c10-419b-a3a3-e35118b23014","ios":"levelo://app?vid=0ebcb4f4-1c10-419b-a3a3-e35118b23014"},"vehicle_type_id":"4","last_reported":1720969910,"current_range_meters":12800,"station_id":"ce4bhbh2rcd13ifvqepg","pricing_plan_id":"cebpf4jnsgd1na2vs0mg"},{"bike_id":"5f84eab2-ce4f-4c6d-8cc3-1fb53881f6bc","system_id":"levelo_inurba_marseille","lat":43.284251,"lon":5.349894,"is_reserved":false,"is_disabled":false,"rental_uris":{"android":"levelo://app?vid=5f84eab2-ce4f-4c6d-8cc3-1fb53881f6bc","ios":"levelo://app?vid=5f84eab2-ce4f-4c6d-8cc3-1fb53881f6bc"},"vehicle_type_id":"4","last_reported":1720969910,"current_range_meters":18000,"station_id":"ce4bhbh2rcd13ifvqepg","pricing_plan_id":"cebpf4jnsgd1na2vs0mg"},{"bike_id":"f31a7fcb-c824-456a-b343-9600913a7fe4","system_id":"levelo_inurba_marseille","lat":43.284215,"lon":5.350005,"is_reserved":false,"is_disabled":false,"rental_uris":{"android":"levelo://app?vid=f31a7fcb-c824-456a-b343-9600913a7fe4","ios":"levelo://app?vid=f31a7fcb-c824-456a-b343-9600913a7fe4"},"vehicle_type_id":"4","last_reported":1720969910,"current_range_meters":15200,"station_id":"ce4bhbh2rcd13ifvqepg","pricing_plan_id":"cebpf4jnsgd1na2vs0mg"},{"bike_id":"a7215011-2f6b-4478-a10f-991990b3aaef","system_id":"levelo_inurba_marseille","lat":43.28422,"lon":5.34997,"is_reserved":false,"is_disabled":false,"rental_uris":{"android":"levelo://app?vid=a7215011-2f6b-4478-a10f-991990b3aaef","ios":"levelo://app?vid=a7215011-2f6b-4478-a10f-991990b3aaef"},"vehicle_type_id":"4","last_reported":1720969910,"current_range_meters":20800,"station_id":"ce4bhbh2rcd13ifvqepg","pricing_plan_id":"cebpf4jnsgd1na2vs0mg"},{"bike_id":"60c304c5-2a80-4886-936f-9e2b52ce8884","system_id":"levelo_inurba_marseille","lat":43.28426,"lon":5.3498,"is_reserved":false,"is_disabled":false,"rental_uris":{"android":"levelo://app?vid=60c304c5-2a80-4886-936f-9e2b52ce8884","ios":"levelo://app?vid=60c304c5-2a80-4886-936f-9e2b52ce8884"},"vehicle_type_id":"4","last_reported":1720969910,"current_range_meters":11600,"station_id":"ce4bhbh2rcd13ifvqepg","pricing_plan_id":"cebpf4jnsgd1na2vs0mg"},{"bike_id":"e61ee147-dc2c-4fbb-a2af-c261d2696ec7","system_id":"levelo_inurba_marseille","lat":43.28423,"lon":5.349875,"is_reserved":false,"is_disabled":false,"rental_uris":{"android":"levelo://app?vid=e61ee147-dc2c-4fbb-a2af-c261d2696ec7","ios":"levelo://app?vid=e61ee147-dc2c-4fbb-a2af-c261d2696ec7"},"vehicle_type_id":"4","last_reported":1720969910,"current_range_meters":15600,"station_id":"ce4bhbh2rcd13ifvqepg","pricing_plan_id":"cebpf4jnsgd1na2vs0mg"},{"bike_id":"e240e81a-61c7-45e2-b26b-77d61d7de3ef","system_id":"levelo_inurba_marseille","lat":43.28419,"lon":5.34992,"is_reserved":false,"is_disabled":false,"rental_uris":{"android":"levelo://app?vid=e240e81a-61c7-45e2-b26b-77d61d7de3ef","ios":"levelo://app?vid=e240e81a-61c7-45e2-b26b-77d61d7de3ef"},"vehicle_type_id":"4","last_reported":1720969910,"current_range_meters":17600,"station_id":"ce4bhbh2rcd13ifvqepg","pricing_plan_id":"cebpf4jnsgd1na2vs0mg"},{"bike_id":"c228bc66-fe5a-47b2-98c1-c9391d9778bb","system_id":"levelo_inurba_marseille","lat":43.284189,"lon":5.349896,"is_reserved":false,"is_disabled":false,"rental_uris":{"android":"levelo://app?vid=c228bc66-fe5a-47b2-98c1-c9391d9778bb","ios":"levelo://app?vid=c228bc66-fe5a-47b2-98c1-c9391d9778bb"},"vehicle_type_id":"4","last_reported":1720969910,"current_range_meters":6800,"station_id":"ce4bhbh2rcd13ifvqepg","pricing_plan_id":"cebpf4jnsgd1na2vs0mg"},{"bike_id":"5fcde6ee-df2b-4e3f-a526-a9996b70842d","system_id":"levelo_inurba_marseille","lat":43.284173,"lon":5.349944,"is_reserved":false,"is_disabled":false,"rental_uris":{"android":"levelo://app?vid=5fcde6ee-df2b-4e3f-a526-a9996b70842d","ios":"levelo://app?vid=5fcde6ee-df2b-4e3f-a526-a9996b70842d"},"vehicle_type_id":"4","last_reported":1720969910,"current_range_meters":28000,"station_id":"ce4bhbh2rcd13ifvqepg","pricing_plan_id":"cebpf4jnsgd1na2vs0mg"},{"bike_id":"7d5c57eb-330e-41c1-b3f0-e52f9e3f1452","system_id":"levelo_inurba_marseille","lat":43.28415,"lon":5.35001,"is_reserved":false,"is_disabled":false,"rental_uris":{"android":"levelo://app?vid=7d5c57eb-330e-41c1-b3f0-e52f9e3f1452","ios":"levelo://app?vid=7d5c57eb-330e-41c1-b3f0-e52f9e3f1452"},"vehicle_type_id":"4","last_reported":1720969910,"current_range_meters":13600,"station_id":"ce4bhbh2rcd13ifvqepg","pricing_plan_id":"cebpf4jnsgd1na2vs0mg"},{"bike_id":"668744d5-9663-4ce0-9e8f-b0827f6db6df","system_id":"levelo_inurba_marseille","lat":43.284166,"lon":5.349953,"is_reserved":false,"is_disabled":false,"rental_uris":{"android":"levelo://app?vid=668744d5-9663-4ce0-9e8f-b0827f6db6df","ios":"levelo://app?vid=668744d5-9663-4ce0-9e8f-b0827f6db6df"},"vehicle_type_id":"4","last_reported":1720969910,"current_range_meters":26000,"station_id":"ce4bhbh2rcd13ifvqepg","pricing_plan_id":"cebpf4jnsgd1na2vs0mg"},{"bike_id":"c10d6404-3180-45d7-ae3c-27b2c1d10870","system_id":"levelo_inurba_marseille","lat":43.28416,"lon":5.34993,"is_reserved":false,"is_disabled":false,"rental_uris":{"android":"levelo://app?vid=c10d6404-3180-45d7-ae3c-27b2c1d10870","ios":"levelo://app?vid=c10d6404-3180-45d7-ae3c-27b2c1d10870"},"vehicle_type_id":"4","last_reported":1720969910,"current_range_meters":0,"station_id":"ce4bhbh2rcd13ifvqepg","pricing_plan_id":"cebpf4jnsgd1na2vs0mg"},{"bike_id":"ed7053b2-3db4-405c-8485-9b429ea67116","system_id":"levelo_inurba_marseille","lat":43.284217,"lon":5.349697,"is_reserved":false,"is_disabled":false,"rental_uris":{"android":"levelo://app?vid=ed7053b2-3db4-405c-8485-9b429ea67116","ios":"levelo://app?vid=ed7053b2-3db4-405c-8485-9b429ea67116"},"vehicle_type_id":"4","last_reported":1720969910,"current_range_meters":30400,"station_id":"ce4bhbh2rcd13ifvqepg","pricing_plan_id":"cebpf4jnsgd1na2vs0mg"},{"bike_id":"7a2ae285-52ba-47d7-a2e6-9e4d6f4d4813","system_id":"levelo_inurba_marseille","lat":43.28418,"lon":5.34985,"is_reserved":false,"is_disabled":false,"rental_uris":{"android":"levelo://app?vid=7a2ae285-52ba-47d7-a2e6-9e4d6f4d4813","ios":"levelo://app?vid=7a2ae285-52ba-47d7-a2e6-9e4d6f4d4813"},"vehicle_type_id":"4","last_reported":1720969910,"current_range_meters":27200,"station_id":"ce4bhbh2rcd13ifvqepg","pricing_plan_id":"cebpf4jnsgd1na2vs0mg"},{"bike_id":"1362670b-cdf0-49df-923b-d7a04731a861","system_id":"levelo_inurba_marseille","lat":43.28417,"lon":5.34985,"is_reserved":false,"is_disabled":false,"rental_uris":{"android":"levelo://app?vid=1362670b-cdf0-49df-923b-d7a04731a861","ios":"levelo://app?vid=1362670b-cdf0-49df-923b-d7a04731a861"},"vehicle_type_id":"4","last_reported":1720969910,"current_range_meters":0,"station_id":"ce4bhbh2rcd13ifvqepg","pricing_plan_id":"cebpf4jnsgd1na2vs0mg"},{"bike_id":"cce7bcc5-4077-4637-b583-0ac93c0b1117","system_id":"levelo_inurba_marseille","lat":43.284168,"lon":5.349854,"is_reserved":false,"is_disabled":false,"rental_uris":{"android":"levelo://app?vid=cce7bcc5-4077-4637-b583-0ac93c0b1117","ios":"levelo://app?vid=cce7bcc5-4077-4637-b583-0ac93c0b1117"},"vehicle_type_id":"4","last_reported":1720969910,"current_range_meters":0,"station_id":"ce4bhbh2rcd13ifvqepg","pricing_plan_id":"cebpf4jnsgd1na2vs0mg"},{"bike_id":"38b724ae-2a4a-4095-98bc-55c29b9c9cac","system_id":"levelo_inurba_marseille","lat":43.28413,"lon":5.34986,"is_reserved":false,"is_disabled":false,"rental_uris":{"android":"levelo://app?vid=38b724ae-2a4a-4095-98bc-55c29b9c9cac","ios":"levelo://app?vid=38b724ae-2a4a-4095-98bc-55c29b9c9cac"},"vehicle_type_id":"4","last_reported":1720969910,"current_range_meters":0,"station_id":"ce4bhbh2rcd13ifvqepg","pricing_plan_id":"cebpf4jnsgd1na2vs0mg"},{"bike_id":"6dcf0e40-1f8a-4cdd-a4be-3747e8ecd99c","system_id":"levelo_inurba_marseille","lat":43.29149,"lon":5.39971,"is_reserved":false,"is_disabled":false,"rental_uris":{"android":"levelo://app?vid=6dcf0e40-1f8a-4cdd-a4be-3747e8ecd99c","ios":"levelo://app?vid=6dcf0e40-1f8a-4cdd-a4be-3747e8ecd99c"},"vehicle_type_id":"4","last_reported":1720969910,"current_range_meters":0,"station_id":"","pricing_plan_id":"cebpf4jnsgd1na2vs0mg"},{"bike_id":"b0c47926-1a7a-4c31-ad05-7a9242b44068","system_id":"levelo_inurba_marseille","lat":43.292724,"lon":5.401131,"is_reserved":false,"is_disabled":false,"rental_uris":{"android":"levelo://app?vid=b0c47926-1a7a-4c31-ad05-7a9242b44068","ios":"levelo://app?vid=b0c47926-1a7a-4c31-ad05-7a9242b44068"},"vehicle_type_id":"4","last_reported":1720969910,"current_range_meters":19600,"station_id":"ce4bh312rcd13ifvqdk0","pricing_plan_id":"cebpf4jnsgd1na2vs0mg"},{"bike_id":"d0755d86-eaa8-4780-a238-fbd5b128576c","system_id":"levelo_inurba_marseille","lat":43.282811,"lon":5.350811,"is_reserved":false,"is_disabled":false,"rental_uris":{"android":"levelo://app?vid=d0755d86-eaa8-4780-a238-fbd5b128576c","ios":"levelo://app?vid=d0755d86-eaa8-4780-a238-fbd5b128576c"},"vehicle_type_id":"4","last_reported":1720969910,"current_range_meters":15600,"station_id":"ce4bhbp2rcd13ifvqerg","pricing_plan_id":"cebpf4jnsgd1na2vs0mg"},{"bike_id":"2466a04b-fda2-42c8-a0e7-1800c5c97e6b","system_id":"levelo_inurba_marseille","lat":43.282754,"lon":5.350519,"is_reserved":false,"is_disabled":false,"rental_uris":{"android":"levelo://app?vid=2466a04b-fda2-42c8-a0e7-1800c5c97e6b","ios":"levelo://app?vid=2466a04b-fda2-42c8-a0e7-1800c5c97e6b"},"vehicle_type_id":"4","last_reported":1720969910,"current_range_meters":0,"station_id":"ce4bhbp2rcd13ifvqerg","pricing_plan_id":"cebpf4jnsgd1na2vs0mg"},{"bike_id":"abffaf50-a8bb-4570-9d99-73b343f6a7f3","system_id":"levelo_inurba_marseille","lat":43.282744,"lon":5.350533,"is_reserved":false,"is_disabled":false,"rental_uris":{"android":"levelo://app?vid=abffaf50-a8bb-4570-9d99-73b343f6a7f3","ios":"levelo://app?vid=abffaf50-a8bb-4570-9d99-73b343f6a7f3"},"vehicle_type_id":"4","last_reported":1720969910,"current_range_meters":10000,"station_id":"ce4bhbp2rcd13ifvqerg","pricing_plan_id":"cebpf4jnsgd1na2vs0mg"},{"bike_id":"57d03745-5d44-4852-a520-fed69c575a3e","system_id":"levelo_inurba_marseille","lat":43.28274,"lon":5.35073,"is_reserved":false,"is_disabled":false,"rental_uris":{"android":"levelo://app?vid=57d03745-5d44-4852-a520-fed69c575a3e","ios":"levelo://app?vid=57d03745-5d44-4852-a520-fed69c575a3e"},"vehicle_type_id":"4","last_reported":1720969910,"current_range_meters":0,"station_id":"ce4bhbp2rcd13ifvqerg","pricing_plan_id":"cebpf4jnsgd1na2vs0mg"},{"bike_id":"e1c312ca-b772-4e9b-955c-3639e5b4c385","system_id":"levelo_inurba_marseille","lat":43.282744,"lon":5.350533,"is_reserved":false,"is_disabled":false,"rental_uris":{"android":"levelo://app?vid=e1c312ca-b772-4e9b-955c-3639e5b4c385","ios":"levelo://app?vid=e1c312ca-b772-4e9b-955c-3639e5b4c385"},"vehicle_type_id":"4","last_reported":1720969910,"current_range_meters":10800,"station_id":"ce4bhbp2rcd13ifvqerg","pricing_plan_id":"cebpf4jnsgd1na2vs0mg"},{"bike_id":"a846b603-64be-482a-b3dd-beccd67bcd44","system_id":"levelo_inurba_marseille","lat":43.28275,"lon":5.35068,"is_reserved":false,"is_disabled":false,"rental_uris":{"android":"levelo://app?vid=a846b603-64be-482a-b3dd-beccd67bcd44","ios":"levelo://app?vid=a846b603-64be-482a-b3dd-beccd67bcd44"},"vehicle_type_id":"4","last_reported":1720969910,"current_range_meters":6800,"station_id":"ce4bhbp2rcd13ifvqerg","pricing_plan_id":"cebpf4jnsgd1na2vs0mg"},{"bike_id":"ade6a4d2-842e-4cf8-bb4f-cfd012de59fb","system_id":"levelo_inurba_marseille","lat":43.282744,"lon":5.350533,"is_reserved":false,"is_disabled":false,"rental_uris":{"android":"levelo://app?vid=ade6a4d2-842e-4cf8-bb4f-cfd012de59fb","ios":"levelo://app?vid=ade6a4d2-842e-4cf8-bb4f-cfd012de59fb"},"vehicle_type_id":"4","last_reported":1720969910,"current_range_meters":6800,"station_id":"ce4bhbp2rcd13ifvqerg","pricing_plan_id":"cebpf4jnsgd1na2vs0mg"},{"bike_id":"fc5497e9-7639-4b31-84e0-d51144abddc9","system_id":"levelo_inurba_marseille","lat":43.282754,"lon":5.350519,"is_reserved":false,"is_disabled":false,"rental_uris":{"android":"levelo://app?vid=fc5497e9-7639-4b31-84e0-d51144abddc9","ios":"levelo://app?vid=fc5497e9-7639-4b31-84e0-d51144abddc9"},"vehicle_type_id":"4","last_reported":1720969910,"current_range_meters":0,"station_id":"ce4bhbp2rcd13ifvqerg","pricing_plan_id":"cebpf4jnsgd1na2vs0mg"},{"bike_id":"881ab08a-95ac-4133-bb5b-6d9269223c7a","system_id":"levelo_inurba_marseille","lat":43.282744,"lon":5.350533,"is_reserved":false,"is_disabled":false,"rental_uris":{"android":"levelo://app?vid=881ab08a-95ac-4133-bb5b-6d9269223c7a","ios":"levelo://app?vid=881ab08a-95ac-4133-bb5b-6d9269223c7a"},"vehicle_type_id":"4","last_reported":1720969910,"current_range_meters":22400,"station_id":"ce4bhbp2rcd13ifvqerg","pricing_plan_id":"cebpf4jnsgd1na2vs0mg"},{"bike_id":"07ffb264-5d01-41e5-a363-bf1fb6cc04ef","system_id":"levelo_inurba_marseille","lat":43.2827,"lon":5.35079,"is_reserved":false,"is_disabled":false,"rental_uris":{"android":"levelo://app?vid=07ffb264-5d01-41e5-a363-bf1fb6cc04ef","ios":"levelo://app?vid=07ffb264-5d01-41e5-a363-bf1fb6cc04ef"},"vehicle_type_id":"4","last_reported":1720969910,"current_range_meters":0,"station_id":"ce4bhbp2rcd13ifvqerg","pricing_plan_id":"cebpf4jnsgd1na2vs0mg"},{"bike_id":"98ebd564-c46f-49f7-8c44-02f075a0e457","system_id":"levelo_inurba_marseille","lat":43.282744,"lon":5.350533,"is_reserved":false,"is_disabled":false,"rental_uris":{"android":"levelo://app?vid=98ebd564-c46f-49f7-8c44-02f075a0e457","ios":"levelo://app?vid=98ebd564-c46f-49f7-8c44-02f075a0e457"},"vehicle_type_id":"4","last_reported":1720969910,"current_range_meters":25600,"station_id":"ce4bhbp2rcd13ifvqerg","pricing_plan_id":"cebpf4jnsgd1na2vs0mg"},{"bike_id":"946f6797-f164-4c3d-9fb2-a0753f49641f","system_id":"levelo_inurba_marseille","lat":43.282699,"lon":5.350778,"is_reserved":false,"is_disabled":false,"rental_uris":{"android":"levelo://app?vid=946f6797-f164-4c3d-9fb2-a0753f49641f","ios":"levelo://app?vid=946f6797-f164-4c3d-9fb2-a0753f49641f"},"vehicle_type_id":"4","last_reported":1720969910,"current_range_meters":10400,"station_id":"ce4bhbp2rcd13ifvqerg","pricing_plan_id":"cebpf4jnsgd1na2vs0mg"},{"bike_id":"6c9508c6-6fe9-4923-bbe8-f78e363c9689","system_id":"levelo_inurba_marseille","lat":43.28268,"lon":5.3508,"is_reserved":false,"is_disabled":false,"rental_uris":{"android":"levelo://app?vid=6c9508c6-6fe9-4923-bbe8-f78e363c9689","ios":"levelo://app?vid=6c9508c6-6fe9-4923-bbe8-f78e363c9689"},"vehicle_type_id":"4","last_reported":1720969910,"current_range_meters":0,"station_id":"ce4bhbp2rcd13ifvqerg","pricing_plan_id":"cebpf4jnsgd1na2vs0mg"},{"bike_id":"77609728-85ad-45c6-a046-6c41d82180cf","system_id":"levelo_inurba_marseille","lat":43.282744,"lon":5.350533,"is_reserved":false,"is_disabled":false,"rental_uris":{"android":"levelo://app?vid=77609728-85ad-45c6-a046-6c41d82180cf","ios":"levelo://app?vid=77609728-85ad-45c6-a046-6c41d82180cf"},"vehicle_type_id":"4","last_reported":1720969910,"current_range_meters":10400,"station_id":"ce4bhbp2rcd13ifvqerg","pricing_plan_id":"cebpf4jnsgd1na2vs0mg"},{"bike_id":"60209ca6-1f59-4cec-a9ee-b8a921a884b8","system_id":"levelo_inurba_marseille","lat":43.2827,"lon":5.35067,"is_reserved":false,"is_disabled":false,"rental_uris":{"android":"levelo://app?vid=60209ca6-1f59-4cec-a9ee-b8a921a884b8","ios":"levelo://app?vid=60209ca6-1f59-4cec-a9ee-b8a921a884b8"},"vehicle_type_id":"4","last_reported":1720969910,"current_range_meters":0,"station_id":"ce4bhbp2rcd13ifvqerg","pricing_plan_id":"cebpf4jnsgd1na2vs0mg"},{"bike_id":"afb1cd68-4104-48f9-9d41-e26a090c0a37","system_id":"levelo_inurba_marseille","lat":43.28266,"lon":5.35081,"is_reserved":false,"is_disabled":false,"rental_uris":{"android":"levelo://app?vid=afb1cd68-4104-48f9-9d41-e26a090c0a37","ios":"levelo://app?vid=afb1cd68-4104-48f9-9d41-e26a090c0a37"},"vehicle_type_id":"4","last_reported":1720969910,"current_range_meters":13600,"station_id":"ce4bhbp2rcd13ifvqerg","pricing_plan_id":"cebpf4jnsgd1na2vs0mg"},{"bike_id":"05153419-768a-493e-944d-54c404a10630","system_id":"levelo_inurba_marseille","lat":43.282744,"lon":5.350533,"is_reserved":false,"is_disabled":false,"rental_uris":{"android":"levelo://app?vid=05153419-768a-493e-944d-54c404a10630","ios":"levelo://app?vid=05153419-768a-493e-944d-54c404a10630"},"vehicle_type_id":"4","last_reported":1720969910,"current_range_meters":23200,"station_id":"ce4bhbp2rcd13ifvqerg","pricing_plan_id":"cebpf4jnsgd1na2vs0mg"},{"bike_id":"862bcc08-845e-4ca0-99d7-0d4305cc722b","system_id":"levelo_inurba_marseille","lat":43.282744,"lon":5.350533,"is_reserved":false,"is_disabled":false,"rental_uris":{"android":"levelo://app?vid=862bcc08-845e-4ca0-99d7-0d4305cc722b","ios":"levelo://app?vid=862bcc08-845e-4ca0-99d7-0d4305cc722b"},"vehicle_type_id":"4","last_reported":1720969910,"current_range_meters":31200,"station_id":"ce4bhbp2rcd13ifvqerg","pricing_plan_id":"cebpf4jnsgd1na2vs0mg"},{"bike_id":"6f80a885-68dc-48ac-a531-b3504a8fbdcd","system_id":"levelo_inurba_marseille","lat":43.282744,"lon":5.350533,"is_reserved":false,"is_disabled":false,"rental_uris":{"android":"levelo://app?vid=6f80a885-68dc-48ac-a531-b3504a8fbdcd","ios":"levelo://app?vid=6f80a885-68dc-48ac-a531-b3504a8fbdcd"},"vehicle_type_id":"4","last_reported":1720969910,"current_range_meters":16400,"station_id":"ce4bhbp2rcd13ifvqerg","pricing_plan_id":"cebpf4jnsgd1na2vs0mg"},{"bike_id":"998b99fd-0472-416a-8bf3-4d4d6eb47e10","system_id":"levelo_inurba_marseille","lat":43.28269,"lon":5.35066,"is_reserved":false,"is_disabled":false,"rental_uris":{"android":"levelo://app?vid=998b99fd-0472-416a-8bf3-4d4d6eb47e10","ios":"levelo://app?vid=998b99fd-0472-416a-8bf3-4d4d6eb47e10"},"vehicle_type_id":"4","last_reported":1720969910,"current_range_meters":0,"station_id":"ce4bhbp2rcd13ifvqerg","pricing_plan_id":"cebpf4jnsgd1na2vs0mg"},{"bike_id":"fe97fb67-7ef4-45ec-b541-0b7ccd38f95b","system_id":"levelo_inurba_marseille","lat":43.28263,"lon":5.35086,"is_reserved":false,"is_disabled":false,"rental_uris":{"android":"levelo://app?vid=fe97fb67-7ef4-45ec-b541-0b7ccd38f95b","ios":"levelo://app?vid=fe97fb67-7ef4-45ec-b541-0b7ccd38f95b"},"vehicle_type_id":"4","last_reported":1720969910,"current_range_meters":0,"station_id":"ce4bhbp2rcd13ifvqerg","pricing_plan_id":"cebpf4jnsgd1na2vs0mg"},{"bike_id":"2e31e344-9988-4add-bda9-4eb64a549f46","system_id":"levelo_inurba_marseille","lat":43.282647,"lon":5.350798,"is_reserved":false,"is_disabled":false,"rental_uris":{"android":"levelo://app?vid=2e31e344-9988-4add-bda9-4eb64a549f46","ios":"levelo://app?vid=2e31e344-9988-4add-bda9-4eb64a549f46"},"vehicle_type_id":"4","last_reported":1720969910,"current_range_meters":21600,"station_id":"ce4bhbp2rcd13ifvqerg","pricing_plan_id":"cebpf4jnsgd1na2vs0mg"},{"bike_id":"b78b1310-4a3c-4f61-96c3-4902e32a6657","system_id":"levelo_inurba_marseille","lat":43.28266,"lon":5.350713,"is_reserved":false,"is_disabled":false,"rental_uris":{"android":"levelo://app?vid=b78b1310-4a3c-4f61-96c3-4902e32a6657","ios":"levelo://app?vid=b78b1310-4a3c-4f61-96c3-4902e32a6657"},"vehicle_type_id":"4","last_reported":1720969910,"current_range_meters":2400,"station_id":"ce4bhbp2rcd13ifvqerg","pricing_plan_id":"cebpf4jnsgd1na2vs0mg"},{"bike_id":"625e792d-581e-40b7-b1ce-618196e377d9","system_id":"levelo_inurba_marseille","lat":43.28263,"lon":5.35081,"is_reserved":false,"is_disabled":false,"rental_uris":{"android":"levelo://app?vid=625e792d-581e-40b7-b1ce-618196e377d9","ios":"levelo://app?vid=625e792d-581e-40b7-b1ce-618196e377d9"},"vehicle_type_id":"4","last_reported":1720969910,"current_range_meters":1200,"station_id":"ce4bhbp2rcd13ifvqerg","pricing_plan_id":"cebpf4jnsgd1na2vs0mg"},{"bike_id":"2a2bdb86-312b-43c1-b06d-66ca1cd425eb","system_id":"levelo_inurba_marseille","lat":43.28264,"lon":5.35075,"is_reserved":false,"is_disabled":false,"rental_uris":{"android":"levelo://app?vid=2a2bdb86-312b-43c1-b06d-66ca1cd425eb","ios":"levelo://app?vid=2a2bdb86-312b-43c1-b06d-66ca1cd425eb"},"vehicle_type_id":"4","last_reported":1720969910,"current_range_meters":4800,"station_id":"ce4bhbp2rcd13ifvqerg","pricing_plan_id":"cebpf4jnsgd1na2vs0mg"},{"bike_id":"42c86f43-9a41-4060-bf23-6f5c04353e70","system_id":"levelo_inurba_marseille","lat":43.28263,"lon":5.35074,"is_reserved":false,"is_disabled":false,"rental_uris":{"android":"levelo://app?vid=42c86f43-9a41-4060-bf23-6f5c04353e70","ios":"levelo://app?vid=42c86f43-9a41-4060-bf23-6f5c04353e70"},"vehicle_type_id":"4","last_reported":1720969910,"current_range_meters":0,"station_id":"ce4bhbp2rcd13ifvqerg","pricing_plan_id":"cebpf4jnsgd1na2vs0mg"},{"bike_id":"70190ae9-df6a-48c9-a1b3-56387cc1a543","system_id":"levelo_inurba_marseille","lat":43.28263,"lon":5.35074,"is_reserved":false,"is_disabled":false,"rental_uris":{"android":"levelo://app?vid=70190ae9-df6a-48c9-a1b3-56387cc1a543","ios":"levelo://app?vid=70190ae9-df6a-48c9-a1b3-56387cc1a543"},"vehicle_type_id":"4","last_reported":1720969910,"current_range_meters":0,"station_id":"ce4bhbp2rcd13ifvqerg","pricing_plan_id":"cebpf4jnsgd1na2vs0mg"},{"bike_id":"87e2ce03-0b93-42cf-ba39-e78540e82a10","system_id":"levelo_inurba_marseille","lat":43.28263,"lon":5.35071,"is_reserved":false,"is_disabled":false,"rental_uris":{"android":"levelo://app?vid=87e2ce03-0b93-42cf-ba39-e78540e82a10","ios":"levelo://app?vid=87e2ce03-0b93-42cf-ba39-e78540e82a10"},"vehicle_type_id":"4","last_reported":1720969910,"current_range_meters":24000,"station_id":"ce4bhbp2rcd13ifvqerg","pricing_plan_id":"cebpf4jnsgd1na2vs0mg"},{"bike_id":"3cc5814e-1da3-40d8-8a49-99822fde4a46","system_id":"levelo_inurba_marseille","lat":43.28263,"lon":5.35069,"is_reserved":false,"is_disabled":false,"rental_uris":{"android":"levelo://app?vid=3cc5814e-1da3-40d8-8a49-99822fde4a46","ios":"levelo://app?vid=3cc5814e-1da3-40d8-8a49-99822fde4a46"},"vehicle_type_id":"4","last_reported":1720969910,"current_range_meters":0,"station_id":"ce4bhbp2rcd13ifvqerg","pricing_plan_id":"cebpf4jnsgd1na2vs0mg"},{"bike_id":"93254b76-3968-4143-bb8c-b4405713d336","system_id":"levelo_inurba_marseille","lat":43.28039,"lon":5.369297,"is_reserved":false,"is_disabled":false,"rental_uris":{"android":"levelo://app?vid=93254b76-3968-4143-bb8c-b4405713d336","ios":"levelo://app?vid=93254b76-3968-4143-bb8c-b4405713d336"},"vehicle_type_id":"4","last_reported":1720969910,"current_range_meters":4000,"station_id":"ce4bha12rcd13ifvqef0","pricing_plan_id":"cebpf4jnsgd1na2vs0mg"},{"bike_id":"114a2c00-378a-4075-9311-aa16bbd0efb0","system_id":"levelo_inurba_marseille","lat":43.282601,"lon":5.350749,"is_reserved":false,"is_disabled":false,"rental_uris":{"android":"levelo://app?vid=114a2c00-378a-4075-9311-aa16bbd0efb0","ios":"levelo://app?vid=114a2c00-378a-4075-9311-aa16bbd0efb0"},"vehicle_type_id":"4","last_reported":1720969910,"current_range_meters":1600,"station_id":"ce4bhbp2rcd13ifvqerg","pricing_plan_id":"cebpf4jnsgd1na2vs0mg"},{"bike_id":"e3a4fea9-de80-48a1-b019-dc03d75f668d","system_id":"levelo_inurba_marseille","lat":43.2826,"lon":5.3507,"is_reserved":false,"is_disabled":false,"rental_uris":{"android":"levelo://app?vid=e3a4fea9-de80-48a1-b019-dc03d75f668d","ios":"levelo://app?vid=e3a4fea9-de80-48a1-b019-dc03d75f668d"},"vehicle_type_id":"4","last_reported":1720969910,"current_range_meters":0,"station_id":"ce4bhbp2rcd13ifvqerg","pricing_plan_id":"cebpf4jnsgd1na2vs0mg"},