{"last_updated":1700358810,"ttl":30,"version":"2.2","data":{"bikes":[{"bike_id":"c0f0e78c-b702-40da-9b69-6e777ec58a20","system_id":"levelo_inurba_marseille","lat":43.314811,"lon":5.373103,"is_reserved":false,"is_disabled":false,"rental_uris":{"android":"levelo://app?vid=c0f0e78c-b702-40da-9b69-6e777ec58a20","ios":"levelo://app?vid=c0f0e78c-b702-40da-9b69-6e777ec58a20"},"vehicle_type_id":"4","last_reported":1700358810,"current_range_meters":4800,"station_id":"ce4bgt12rcd13ifvqcd0","pricing_plan_id":"free"},{"bike_id":"5b3a823e-3921-462c-9a97-da83141dd5d3","system_id":"levelo_inurba_marseille","lat":43.314811,"lon":5.373103,"is_reserved":false,"is_disabled":false,"rental_uris":{"android":"levelo://app?vid=5b3a823e-3921-462c-9a97-da83141dd5d3","ios":"levelo://app?vid=5b3a823e-3921-462c-9a97-da83141dd5d3"},"vehicle_type_id":"4","last_reported":1700358810,"current_range_meters":16400,"station_id":"ce4bgt12rcd13ifvqcd0","pricing_plan_id":"free"},{"bike_id":"c9e53816-b4da-49f5-8982-f6cf3959932b","system_id":"levelo_inurba_marseille","lat":43.314811,"lon":5.373103,"is_reserved":false,"is_disabled":false,"rental_uris":{"android":"levelo://app?vid=c9e53816-b4da-49f5-8982-f6cf3959932b","ios":"levelo://app?vid=c9e53816-b4da-49f5-8982-f6cf3959932b"},"vehicle_type_id":"4","last_reported":1700358810,"current_range_meters":28800,"station_id":"ce4bgt12rcd13ifvqcd0","pricing_plan_id":"free"},{"bike_id":"a7f6df4c-102b-4fa2-ab34-732971f6d3d3","system_id":"levelo_inurba_marseille","lat":43.309039,"lon":5.371797,"is_reserved":false,"is_disabled":false,"rental_uris":{"android":"levelo://app?vid=a7f6df4c-102b-4fa2-ab34-732971f6d3d3","ios":"levelo://app?vid=a7f6df4c-102b-4fa2-ab34-732971f6d3d3"},"vehicle_type_id":"4","last_reported":1700358810,"current_range_meters":4400,"station_id":"ce4bguh2rcd13ifvqckg","pricing_plan_id":"free"},{"bike_id":"3475d204-43b6-43d9-b615-ca1d0d58200e","system_id":"levelo_inurba_marseille","lat":43.30679,"lon":5.3679,"is_reserved":false,"is_disabled":false,"rental_uris":{"android":"levelo://app?vid=3475d204-43b6-43d9-b615-ca1d0d58200e","ios":"levelo://app?vid=3475d204-43b6-43d9-b615-ca1d0d58200e"},"vehicle_type_id":"4","last_reported":1700358810,"current_range_meters":12800,"station_id":"","pricing_plan_id":"free"},{"bike_id":"607819cf-a4fa-4b55-885d-29b97af7d346","system_id":"levelo_inurba_marseille","lat":43.305476,"lon":5.367038,"is_reserved":false,"is_disabled":false,"rental_uris":{"android":"levelo://app?vid=607819cf-a4fa-4b55-885d-29b97af7d346","ios":"levelo://app?vid=607819cf-a4fa-4b55-885d-29b97af7d346"},"vehicle_type_id":"4","last_reported":1700358810,"current_range_meters":0,"station_id":"ce4bgrp2rcd13ifvqc9g","pricing_plan_id":"free"},{"bike_id":"09ccbac6-0f01-4cfb-8bb8-da5484277d5c","system_id":"levelo_inurba_marseille","lat":43.319483,"lon":5.371043,"is_reserved":false,"is_disabled":false,"rental_uris":{"android":"levelo://app?vid=09ccbac6-0f01-4cfb-8bb8-da5484277d5c","ios":"levelo://app?vid=09ccbac6-0f01-4cfb-8bb8-da5484277d5c"},"vehicle_type_id":"4","last_reported":1700358810,"current_range_meters":2800,"station_id":"","pricing_plan_id":"free"},{"bike_id":"6fadfa8b-7747-478c-9d5c-5a7c70656886","system_id":"levelo_inurba_marseille","lat":43.311131,"lon":5.377651,"is_reserved":false,"is_disabled":false,"rental_uris":{"android":"levelo://app?vid=6fadfa8b-7747-478c-9d5c-5a7c70656886","ios":"levelo://app?vid=6fadfa8b-7747-478c-9d5c-5a7c70656886"},"vehicle_type_id":"4","last_reported":1700358810,"current_range_meters":11600,"station_id":"ce4bgt92rcd13ifvqcg0","pricing_plan_id":"free"},{"bike_id":"4550b8a0-6956-48e2-a3a9-8c90d60165be","system_id":"levelo_inurba_marseille","lat":43.31114,"lon":5.37774,"is_reserved":false,"is_disabled":false,"rental_uris":{"android":"levelo://app?vid=4550b8a0-6956-48e2-a3a9-8c90d60165be","ios":"levelo://app?vid=4550b8a0-6956-48e2-a3a9-8c90d60165be"},"vehicle_type_id":"4","last_reported":1700358810,"current_range_meters":2000,"station_id":"ce4bgt92rcd13ifvqcg0","pricing_plan_id":"free"},{"bike_id":"556c4e5c-f844-49cf-82f7-882274eac732","system_id":"levelo_inurba_marseille","lat":43.311125,"lon":5.377624,"is_reserved":false,"is_disabled":false,"rental_uris":{"android":"levelo://app?vid=556c4e5c-f844-49cf-82f7-882274eac732","ios":"levelo://app?vid=556c4e5c-f844-49cf-82f7-882274eac732"},"vehicle_type_id":"4","last_reported":1700358810,"current_range_meters":1200,"station_id":"ce4bgt92rcd13ifvqcg0","pricing_plan_id":"free"},{"bike_id":"dcbf9c93-0758-41cf-8699-4ede01d69428","system_id":"levelo_inurba_marseille","lat":43.308166,"lon":5.376528,"is_reserved":false,"is_disabled":false,"rental_uris":{"android":"levelo://app?vid=dcbf9c93-0758-41cf-8699-4ede01d69428","ios":"levelo://app?vid=dcbf9c93-0758-41cf-8699-4ede01d69428"},"vehicle_type_id":"4","last_reported":1700358810,"current_range_meters":13600,"station_id":"ce4bgv92rcd13ifvqcq0","pricing_plan_id":"free"},{"bike_id":"d6cccfa3-d2c2-4ba9-830b-fe64f36e0212","system_id":"levelo_inurba_marseille","lat":43.317075,"lon":5.377367,"is_reserved":false,"is_disabled":false,"rental_uris":{"android":"levelo://app?vid=d6cccfa3-d2c2-4ba9-830b-fe64f36e0212","ios":"levelo://app?vid=d6cccfa3-d2c2-4ba9-830b-fe64f36e0212"},"vehicle_type_id":"4","last_reported":1700358810,"current_range_meters":27600,"station_id":"ce4bgth2rcd13ifvqch0","pricing_plan_id":"free"},{"bike_id":"9c6cb93e-1760-40ad-b03f-91f534a7dbc3","system_id":"levelo_inurba_marseille","lat":43.317075,"lon":5.377367,"is_reserved":false,"is_disabled":false,"rental_uris":{"android":"levelo://app?vid=9c6cb93e-1760-40ad-b03f-91f534a7dbc3","ios":"levelo://app?vid=9c6cb93e-1760-40ad-b03f-91f534a7dbc3"},"vehicle_type_id":"4","last_reported":1700358810,"current_range_meters":28800,"station_id":"ce4bgth2rcd13ifvqch0","pricing_plan_id":"free"},{"bike_id":"53d739ab-20e3-4b7c-9409-d8b179a11b94","system_id":"levelo_inurba_marseille","lat":43.31539,"lon":5.38038,"is_reserved":false,"is_disabled":false,"rental_uris":{"android":"levelo://app?vid=53d739ab-20e3-4b7c-9409-d8b179a11b94","ios":"levelo://app?vid=53d739ab-20e3-4b7c-9409-d8b179a11b94"},"vehicle_type_id":"4","last_reported":1700358810,"current_range_meters":30400,"station_id":"ce4bhsp2rcd13ifvqi50","pricing_plan_id":"free"},{"bike_id":"4f09f1e8-0181-4029-b584-3ce95114c834","system_id":"levelo_inurba_marseille","lat":43.30807,"lon":5.38147,"is_reserved":false,"is_disabled":false,"rental_uris":{"android":"levelo://app?vid=4f09f1e8-0181-4029-b584-3ce95114c834","ios":"levelo://app?vid=4f09f1e8-0181-4029-b584-3ce95114c834"},"vehicle_type_id":"4","last_reported":1700358810,"current_range_meters":0,"station_id":"ce4bgt12rcd13ifvqce0","pricing_plan_id":"free"},{"bike_id":"491dd9e9-80e3-414f-a30e-eb76e0b704c7","system_id":"levelo_inurba_marseille","lat":43.308024,"lon":5.381538,"is_reserved":false,"is_disabled":false,"rental_uris":{"android":"levelo://app?vid=491dd9e9-80e3-414f-a30e-eb76e0b704c7","ios":"levelo://app?vid=491dd9e9-80e3-414f-a30e-eb76e0b704c7"},"vehicle_type_id":"4","last_reported":1700358810,"current_range_meters":0,"station_id":"ce4bgt12rcd13ifvqce0","pricing_plan_id":"free"},{"bike_id":"0f40eb85-975a-446c-85e4-3f94157372bc","system_id":"levelo_inurba_marseille","lat":43.324771,"lon":5.36557,"is_reserved":false,"is_disabled":false,"rental_uris":{"android":"levelo://app?vid=0f40eb85-975a-446c-85e4-3f94157372bc","ios":"levelo://app?vid=0f40eb85-975a-446c-85e4-3f94157372bc"},"vehicle_type_id":"4","last_reported":1700358810,"current_range_meters":0,"station_id":"ce4bhs12rcd13ifvqhvg","pricing_plan_id":"free"},{"bike_id":"9c69e415-f609-494a-ad6b-fdfa2ba4646a","system_id":"levelo_inurba_marseille","lat":43.302784,"lon":5.377158,"is_reserved":false,"is_disabled":false,"rental_uris":{"android":"levelo://app?vid=9c69e415-f609-494a-ad6b-fdfa2ba4646a","ios":"levelo://app?vid=9c69e415-f609-494a-ad6b-fdfa2ba4646a"},"vehicle_type_id":"4","last_reported":1700358810,"current_range_meters":6000,"station_id":"ce4bguh2rcd13ifvqcj0","pricing_plan_id":"free"},{"bike_id":"1aa39b14-c424-4260-bfa1-85d8bdd25156","system_id":"levelo_inurba_marseille","lat":43.301429,"lon":5.37413,"is_reserved":false,"is_disabled":false,"rental_uris":{"android":"levelo://app?vid=1aa39b14-c424-4260-bfa1-85d8bdd25156","ios":"levelo://app?vid=1aa39b14-c424-4260-bfa1-85d8bdd25156"},"vehicle_type_id":"4","last_reported":1700358810,"current_range_meters":800,"station_id":"ce4bgs92rcd13ifvqcc0","pricing_plan_id":"free"},{"bike_id":"abb5a752-dcd4-4467-a360-e886684f7426","system_id":"levelo_inurba_marseille","lat":43.319935,"lon":5.381699,"is_reserved":false,"is_disabled":false,"rental_uris":{"android":"levelo://app?vid=abb5a752-dcd4-4467-a360-e886684f7426","ios":"levelo://app?vid=abb5a752-dcd4-4467-a360-e886684f7426"},"vehicle_type_id":"4","last_reported":1700358810,"current_range_meters":27200,"station_id":"ce4bhr12rcd13ifvqhpg","pricing_plan_id":"free"},{"bike_id":"24512161-6523-4c54-a850-1985b1a9c756","system_id":"levelo_inurba_marseille","lat":43.313571,"lon":5.384829,"is_reserved":false,"is_disabled":false,"rental_uris":{"android":"levelo://app?vid=24512161-6523-4c54-a850-1985b1a9c756","ios":"levelo://app?vid=24512161-6523-4c54-a850-1985b1a9c756"},"vehicle_type_id":"4","last_reported":1700358810,"current_range_meters":28800,"station_id":"ce4bgt92rcd13ifvqcf0","pricing_plan_id":"free"},{"bike_id":"8ba0146b-37f2-4226-b56f-b98018980890","system_id":"levelo_inurba_marseille","lat":43.313571,"lon":5.384829,"is_reserved":false,"is_disabled":false,"rental_uris":{"android":"levelo://app?vid=8ba0146b-37f2-4226-b56f-b98018980890","ios":"levelo://app?vid=8ba0146b-37f2-4226-b56f-b98018980890"},"vehicle_type_id":"4","last_reported":1700358810,"current_range_meters":28800,"station_id":"ce4bgt92rcd13ifvqcf0","pricing_plan_id":"free"},{"bike_id":"c5d1c331-062d-42ff-b914-5763e25cf607","system_id":"levelo_inurba_marseille","lat":43.313571,"lon":5.384829,"is_reserved":false,"is_disabled":false,"rental_uris":{"android":"levelo://app?vid=c5d1c331-062d-42ff-b914-5763e25cf607","ios":"levelo://app?vid=c5d1c331-062d-42ff-b914-5763e25cf607"},"vehicle_type_id":"4","last_reported":1700358810,"current_range_meters":4800,"station_id":"ce4bgt92rcd13ifvqcf0","pricing_plan_id":"free"},{"bike_id":"a1c34850-99f2-48b4-9518-45eaece296dc","system_id":"levelo_inurba_marseille","lat":43.313571,"lon":5.384829,"is_reserved":false,"is_disabled":false,"rental_uris":{"android":"levelo://app?vid=a1c34850-99f2-48b4-9518-45eaece296dc","ios":"levelo://app?vid=a1c34850-99f2-48b4-9518-45eaece296dc"},"vehicle_type_id":"4","last_reported":1700358810,"current_range_meters":18800,"station_id":"ce4bgt92rcd13ifvqcf0","pricing_plan_id":"free"},{"bike_id":"3eba9e26-9882-47fa-bebd-3c77294d00a4","system_id":"levelo_inurba_marseille","lat":43.313585,"lon":5.38502,"is_reserved":false,"is_disabled":false,"rental_uris":{"android":"levelo://app?vid=3eba9e26-9882-47fa-bebd-3c77294d00a4","ios":"levelo://app?vid=3eba9e26-9882-47fa-bebd-3c77294d00a4"},"vehicle_type_id":"4","last_reported":1700358810,"current_range_meters":4400,"station_id":"ce4bgt92rcd13ifvqcf0","pricing_plan_id":"free"},{"bike_id":"15693ee3-d003-4d40-a401-0ba9d6fc6292","system_id":"levelo_inurba_marseille","lat":43.299305,"lon":5.36544,"is_reserved":false,"is_disabled":false,"rental_uris":{"android":"levelo://app?vid=15693ee3-d003-4d40-a401-0ba9d6fc6292","ios":"levelo://app?vid=15693ee3-d003-4d40-a401-0ba9d6fc6292"},"vehicle_type_id":"4","last_reported":1700358810,"current_range_meters":0,"station_id":"ce4bgm92rcd13ifvqbr0","pricing_plan_id":"free"},{"bike_id":"7d10d1ce-1f61-48c3-9850-50b160f6ce58","system_id":"levelo_inurba_marseille","lat":43.305364,"lon":5.384119,"is_reserved":false,"is_disabled":false,"rental_uris":{"android":"levelo://app?vid=7d10d1ce-1f61-48c3-9850-50b160f6ce58","ios":"levelo://app?vid=7d10d1ce-1f61-48c3-9850-50b160f6ce58"},"vehicle_type_id":"4","last_reported":1700358810,"current_range_meters":15600,"station_id":"ce4bgg92rcd13ifvqb30","pricing_plan_id":"free"},{"bike_id":"5da9dea2-bd9f-4746-b637-56e44ea9e587","system_id":"levelo_inurba_marseille","lat":43.298489,"lon":5.362942,"is_reserved":false,"is_disabled":false,"rental_uris":{"android":"levelo://app?vid=5da9dea2-bd9f-4746-b637-56e44ea9e587","ios":"levelo://app?vid=5da9dea2-bd9f-4746-b637-56e44ea9e587"},"vehicle_type_id":"4","last_reported":1700358810,"current_range_meters":0,"station_id":"","pricing_plan_id":"free"},{"bike_id":"8c76c6e2-5f6a-4818-85cb-8b750ab02a02","system_id":"levelo_inurba_marseille","lat":43.311722,"lon":5.387247,"is_reserved":false,"is_disabled":false,"rental_uris":{"android":"levelo://app?vid=8c76c6e2-5f6a-4818-85cb-8b750ab02a02","ios":"levelo://app?vid=8c76c6e2-5f6a-4818-85cb-8b750ab02a02"},"vehicle_type_id":"4","last_reported":1700358810,"current_range_meters":28400,"station_id":"ce4bgv12rcd13ifvqcp0","pricing_plan_id":"free"},{"bike_id":"24517b46-17f3-43ca-9d4c-a54b6ec31a6c","system_id":"levelo_inurba_marseille","lat":43.311722,"lon":5.387247,"is_reserved":false,"is_disabled":false,"rental_uris":{"android":"levelo://app?vid=24517b46-17f3-43ca-9d4c-a54b6ec31a6c","ios":"levelo://app?vid=24517b46-17f3-43ca-9d4c-a54b6ec31a6c"},"vehicle_type_id":"4","last_reported":1700358810,"current_range_meters":22000,"station_id":"ce4bgv12rcd13ifvqcp0","pricing_plan_id":"free"},{"bike_id":"982e53b8-0168-4e9a-b03d-a925704458b2","system_id":"levelo_inurba_marseille","lat":43.311722,"lon":5.387247,"is_reserved":false,"is_disabled":false,"rental_uris":{"android":"levelo://app?vid=982e53b8-0168-4e9a-b03d-a925704458b2","ios":"levelo://app?vid=982e53b8-0168-4e9a-b03d-a925704458b2"},"vehicle_type_id":"4","last_reported":1700358810,"current_range_meters":14000,"station_id":"ce4bgv12rcd13ifvqcp0","pricing_plan_id":"free"},{"bike_id":"a2e90176-5d0e-4866-b062-73d6defcaac4","system_id":"levelo_inurba_marseille","lat":43.311722,"lon":5.387247,"is_reserved":false,"is_disabled":false,"rental_uris":{"android":"levelo://app?vid=a2e90176-5d0e-4866-b062-73d6defcaac4","ios":"levelo://app?vid=a2e90176-5d0e-4866-b062-73d6defcaac4"},"vehicle_type_id":"4","last_reported":1700358810,"current_range_meters":20400,"station_id":"ce4bgv12rcd13ifvqcp0","pricing_plan_id":"free"},{"bike_id":"1307789a-ab2a-4b2e-bba4-e0c3556fc784","system_id":"levelo_inurba_marseille","lat":43.311722,"lon":5.387247,"is_reserved":false,"is_disabled":false,"rental_uris":{"android":"levelo://app?vid=1307789a-ab2a-4b2e-bba4-e0c3556fc784","ios":"levelo://app?vid=1307789a-ab2a-4b2e-bba4-e0c3556fc784"},"vehicle_type_id":"4","last_reported":1700358810,"current_range_meters":14400,"station_id":"ce4bgv12rcd13ifvqcp0","pricing_plan_id":"free"},{"bike_id":"971ef656-b95a-417d-b69d-a5ba3954e948","system_id":"levelo_inurba_marseille","lat":43.32828,"lon":5.3668,"is_reserved":false,"is_disabled":false,"rental_uris":{"android":"levelo://app?vid=971ef656-b95a-417d-b69d-a5ba3954e948","ios":"levelo://app?vid=971ef656-b95a-417d-b69d-a5ba3954e948"},"vehicle_type_id":"4","last_reported":1700358810,"current_range_meters":5200,"station_id":"ce4bhs92rcd13ifvqi0g","pricing_plan_id":"free"},{"bike_id":"506fa654-0fd9-4a2d-a856-791702be991b","system_id":"levelo_inurba_marseille","lat":43.297163,"lon":5.365866,"is_reserved":false,"is_disabled":false,"rental_uris":{"android":"levelo://app?vid=506fa654-0fd9-4a2d-a856-791702be991b","ios":"levelo://app?vid=506fa654-0fd9-4a2d-a856-791702be991b"},"vehicle_type_id":"4","last_reported":1700358810,"current_range_meters":0,"station_id":"ce4bgn12rcd13ifvqbt0","pricing_plan_id":"free"},{"bike_id":"bab6e1e8-0726-4f51-8b18-d54941f080d7","system_id":"levelo_inurba_marseille","lat":43.297013,"lon":5.37394,"is_reserved":false,"is_disabled":false,"rental_uris":{"android":"levelo://app?vid=bab6e1e8-0726-4f51-8b18-d54941f080d7","ios":"levelo://app?vid=bab6e1e8-0726-4f51-8b18-d54941f080d7"},"vehicle_type_id":"4","last_reported":1700358810,"current_range_meters":0,"station_id":"","pricing_plan_id":"free"},{"bike_id":"416d9943-f07e-495b-8f28-05ae82c1f6a3","system_id":"levelo_inurba_marseille","lat":43.317557,"lon":5.390173,"is_reserved":false,"is_disabled":false,"rental_uris":{"android":"levelo://app?vid=416d9943-f07e-495b-8f28-05ae82c1f6a3","ios":"levelo://app?vid=416d9943-f07e-495b-8f28-05ae82c1f6a3"},"vehicle_type_id":"4","last_reported":1700358810,"current_range_meters":26400,"station_id":"ce4bhqp2rcd13ifvqhng","pricing_plan_id":"free"},{"bike_id":"58a389d8-09b7-41dd-a9b1-d3ffd242db64","system_id":"levelo_inurba_marseille","lat":43.317557,"lon":5.390173,"is_reserved":false,"is_disabled":false,"rental_uris":{"android":"levelo://app?vid=58a389d8-09b7-41dd-a9b1-d3ffd242db64","ios":"levelo://app?vid=58a389d8-09b7-41dd-a9b1-d3ffd242db64"},"vehicle_type_id":"4","last_reported":1700358810,"current_range_meters":22400,"station_id":"ce4bhqp2rcd13ifvqhng","pricing_plan_id":"free"},{"bike_id":"e28767e6-da66-494d-86f3-b9711f5a7ef3","system_id":"levelo_inurba_marseille","lat":43.317557,"lon":5.390173,"is_reserved":false,"is_disabled":false,"rental_uris":{"android":"levelo://app?vid=e28767e6-da66-494d-86f3-b9711f5a7ef3","ios":"levelo://app?vid=e28767e6-da66-494d-86f3-b9711f5a7ef3"},"vehicle_type_id":"4","last_reported":1700358810,"current_range_meters":14400,"station_id":"ce4bhqp2rcd13ifvqhng","pricing_plan_id":"free"},{"bike_id":"ad1e3f15-2bce-44c6-a5b6-95883950b166","system_id":"levelo_inurba_marseille","lat":43.317557,"lon":5.390173,"is_reserved":false,"is_disabled":false,"rental_uris":{"android":"levelo://app?vid=ad1e3f15-2bce-44c6-a5b6-95883950b166","ios":"levelo://app?vid=ad1e3f15-2bce-44c6-a5b6-95883950b166"},"vehicle_type_id":"4","last_reported":1700358810,"current_range_meters":8800,"station_id":"ce4bhqp2rcd13ifvqhng","pricing_plan_id":"free"},{"bike_id":"245ed204-36aa-4afc-8581-8d2381f0c7c7","system_id":"levelo_inurba_marseille","lat":43.317557,"lon":5.390173,"is_reserved":false,"is_disabled":false,"rental_uris":{"android":"levelo://app?vid=245ed204-36aa-4afc-8581-8d2381f0c7c7","ios":"levelo://app?vid=245ed204-36aa-4afc-8581-8d2381f0c7c7"},"vehicle_type_id":"4","last_reported":1700358810,"current_range_meters":24800,"station_id":"ce4bhqp2rcd13ifvqhng","pricing_plan_id":"free"},{"bike_id":"d2dced52-b7fb-4d11-ad33-56be009e3364","system_id":"levelo_inurba_marseille","lat":43.321847,"lon":5.388263,"is_reserved":false,"is_disabled":false,"rental_uris":{"android":"levelo://app?vid=d2dced52-b7fb-4d11-ad33-56be009e3364","ios":"levelo://app?vid=d2dced52-b7fb-4d11-ad33-56be009e3364"},"vehicle_type_id":"4","last_reported":1700358810,"current_range_meters":16800,"station_id":"","pricing_plan_id":"free"},{"bike_id":"3e3e92fe-39b7-4933-99ff-3747b28b5d69","system_id":"levelo_inurba_marseille","lat":43.328154,"lon":5.380034,"is_reserved":false,"is_disabled":false,"rental_uris":{"android":"levelo://app?vid=3e3e92fe-39b7-4933-99ff-3747b28b5d69","ios":"levelo://app?vid=3e3e92fe-39b7-4933-99ff-3747b28b5d69"},"vehicle_type_id":"4","last_reported":1700358810,"current_range_meters":7600,"station_id":"","pricing_plan_id":"free"},{"bike_id":"ce719066-6b9a-4a1d-b6f2-0c12d71cbc1a","system_id":"levelo_inurba_marseille","lat":43.2962,"lon":5.37717,"is_reserved":false,"is_disabled":false,"rental_uris":{"android":"levelo://app?vid=ce719066-6b9a-4a1d-b6f2-0c12d71cbc1a","ios":"levelo://app?vid=ce719066-6b9a-4a1d-b6f2-0c12d71cbc1a"},"vehicle_type_id":"4","last_reported":1700358810,"current_range_meters":0,"station_id":"ce4bgi92rcd13ifvqb90","pricing_plan_id":"free"},{"bike_id":"67ffd28a-0325-489b-a10f-d90500122751","system_id":"levelo_inurba_marseille","lat":43.295748,"lon":5.37522,"is_reserved":false,"is_disabled":false,"rental_uris":{"android":"levelo://app?vid=67ffd28a-0325-489b-a10f-d90500122751","ios":"levelo://app?vid=67ffd28a-0325-489b-a10f-d90500122751"},"vehicle_type_id":"4","last_reported":1700358810,"current_range_meters":30000,"station_id":"ce4bgh92rcd13ifvqb50","pricing_plan_id":"free"},{"bike_id":"ade6fa6c-33d1-47aa-b751-f8628f2225c8","system_id":"levelo_inurba_marseille","lat":43.2936,"lon":5.37835,"is_reserved":false,"is_disabled":false,"rental_uris":{"android":"levelo://app?vid=ade6fa6c-33d1-47aa-b751-f8628f2225c8","ios":"levelo://app?vid=ade6fa6c-33d1-47aa-b751-f8628f2225c8"},"vehicle_type_id":"4","last_reported":1700358810,"current_range_meters":24800,"station_id":"ce4bgjh2rcd13ifvqbf0","pricing_plan_id":"free"},{"bike_id":"e145a3f7-00ac-4f8f-bfe5-435bc38ccaf7","system_id":"levelo_inurba_marseille","lat":43.293801,"lon":5.363066,"is_reserved":false,"is_disabled":false,"rental_uris":{"android":"levelo://app?vid=e145a3f7-00ac-4f8f-bfe5-435bc38ccaf7","ios":"levelo://app?vid=e145a3f7-00ac-4f8f-bfe5-435bc38ccaf7"},"vehicle_type_id":"4","last_reported":1700358810,"current_range_meters":25600,"station_id":"","pricing_plan_id":"free"},{"bike_id":"a378361e-91ae-4591-aeb4-2aa9e10695b9","system_id":"levelo_inurba_marseille","lat":43.32367,"lon":5.388836,"is_reserved":false,"is_disabled":false,"rental_uris":{"android":"levelo://app?vid=a378361e-91ae-4591-aeb4-2aa9e10695b9","ios":"levelo://app?vid=a378361e-91ae-4591-aeb4-2aa9e10695b9"},"vehicle_type_id":"4","last_reported":1700358810,"current_range_meters":3600,"station_id":"ce4bhqp2rcd13ifvqhog","pricing_plan_id":"free"},{"bike_id":"489903ae-1ffd-46f7-98d3-6a932b3e85b0","system_id":"levelo_inurba_marseille","lat":43.32367,"lon":5.388836,"is_reserved":false,"is_disabled":false,"rental_uris":{"android":"levelo://app?vid=489903ae-1ffd-46f7-98d3-6a932b3e85b0","ios":"levelo://app?vid=489903ae-1ffd-46f7-98d3-6a932b3e85b0"},"vehicle_type_id":"4","last_reported":1700358810,"current_range_meters":11200,"station_id":"ce4bhqp2rcd13ifvqhog","pricing_plan_id":"free"},{"bike_id":"93ccea24-26fe-4100-8ef5-9ccfb64c9ace","system_id":"levelo_inurba_marseille","lat":43.32367,"lon":5.388836,"is_reserved":false,"is_disabled":false,"rental_uris":{"android":"levelo://app?vid=93ccea24-26fe-4100-8ef5-9ccfb64c9ace","ios":"levelo://app?vid=93ccea24-26fe-4100-8ef5-9ccfb64c9ace"},"vehicle_type_id":"4","last_reported":1700358810,"current_range_meters":30800,"station_id":"ce4bhqp2rcd13ifvqhog","pricing_plan_id":"free"},{"bike_id":"8efff10e-5f78-4ac3-89fa-4e770623b5cd","system_id":"levelo_inurba_marseille","lat":43.32367,"lon":5.38887,"is_reserved":false,"is_disabled":false,"rental_uris":{"android":"levelo://app?vid=8efff10e-5f78-4ac3-89fa-4e770623b5cd","ios":"levelo://app?vid=8efff10e-5f78-4ac3-89fa-4e770623b5cd"},"vehicle_type_id":"4","last_reported":1700358810,"current_range_meters":2800,"station_id":"ce4bhqp2rcd13ifvqhog","pricing_plan_id":"free"},{"bike_id":"d856d94f-67c8-4eee-aecf-0b4d23c08951","system_id":"levelo_inurba_marseille","lat":43.293,"lon":5.37188,"is_reserved":false,"is_disabled":false,"rental_uris":{"android":"levelo://app?vid=d856d94f-67c8-4eee-aecf-0b4d23c08951","ios":"levelo://app?vid=d856d94f-67c8-4eee-aecf-0b4d23c08951"},"vehicle_type_id":"4","last_reported":1700358810,"current_range_meters":29600,"station_id":"ce4bgh92rcd13ifvqb40","pricing_plan_id":"free"},{"bike_id":"81dacd2f-6fae-4aa7-9447-5909b97b80a1","system_id":"levelo_inurba_marseille","lat":43.295169,"lon":5.390426,"is_reserved":false,"is_disabled":false,"rental_uris":{"android":"levelo://app?vid=81dacd2f-6fae-4aa7-9447-5909b97b80a1","ios":"levelo://app?vid=81dacd2f-6fae-4aa7-9447-5909b97b80a1"},"vehicle_type_id":"4","last_reported":1700358810,"current_range_meters":0,"station_id":"ce4bh3p2rcd13ifvqdp0","pricing_plan_id":"free"},{"bike_id":"1103b8f7-c9af-470a-b53c-774d1490b1ee","system_id":"levelo_inurba_marseille","lat":43.2936,"lon":5.37835,"is_reserved":false,"is_disabled":false,"rental_uris":{"android":"levelo://app?vid=1103b8f7-c9af-470a-b53c-774d1490b1ee","ios":"levelo://app?vid=1103b8f7-c9af-470a-b53c-774d1490b1ee"},"vehicle_type_id":"4","last_reported":1700358810,"current_range_meters":14800,"station_id":"ce4bgjh2rcd13ifvqbf0","pricing_plan_id":"free"},{"bike_id":"b8840de6-cc1a-4a7d-a10c-d9449ee5e75d","system_id":"levelo_inurba_marseille","lat":43.309038,"lon":5.396546,"is_reserved":false,"is_disabled":false,"rental_uris":{"android":"levelo://app?vid=b8840de6-cc1a-4a7d-a10c-d9449ee5e75d","ios":"levelo://app?vid=b8840de6-cc1a-4a7d-a10c-d9449ee5e75d"},"vehicle_type_id":"4","last_reported":1700358810,"current_range_meters":4000,"station_id":"ce4bh012rcd13ifvqcv0","pricing_plan_id":"free"},{"bike_id":"75160227-c293-45c2-8c0f-b2e6a290f1e8","system_id":"levelo_inurba_marseille","lat":43.291994,"lon":5.357886,"is_reserved":false,"is_disabled":false,"rental_uris":{"android":"levelo://app?vid=75160227-c293-45c2-8c0f-b2e6a290f1e8","ios":"levelo://app?vid=75160227-c293-45c2-8c0f-b2e6a290f1e8"},"vehicle_type_id":"4","last_reported":1700358810,"current_range_meters":30400,"station_id":"ce4bhb12rcd13ifvqel0","pricing_plan_id":"free"},{"bike_id":"2958b1fb-4b1c-4e52-9a5b-2d20f8f9506e","system_id":"levelo_inurba_marseille","lat":43.309038,"lon":5.396546,"is_reserved":false,"is_disabled":false,"rental_uris":{"android":"levelo://app?vid=2958b1fb-4b1c-4e52-9a5b-2d20f8f9506e","ios":"levelo://app?vid=2958b1fb-4b1c-4e52-9a5b-2d20f8f9506e"},"vehicle_type_id":"4","last_reported":1700358810,"current_range_meters":19200,"station_id":"ce4bh012rcd13ifvqcv0","pricing_plan_id":"free"},{"bike_id":"a40fd974-3afa-4abc-b303-85332b96188b","system_id":"levelo_inurba_marseille","lat":43.313291,"lon":5.396838,"is_reserved":false,"is_disabled":false,"rental_uris":{"android":"levelo://app?vid=a40fd974-3afa-4abc-b303-85332b96188b","ios":"levelo://app?vid=a40fd974-3afa-4abc-b303-85332b96188b"},"vehicle_type_id":"4","last_reported":1700358810,"current_range_meters":4800,"station_id":"ce4bgvp2rcd13ifvqcu0","pricing_plan_id":"free"},{"bike_id":"3fdeda8b-81e4-449f-8880-52fb050994b9","system_id":"levelo_inurba_marseille","lat":43.309038,"lon":5.396546,"is_reserved":false,"is_disabled":false,"rental_uris":{"android":"levelo://app?vid=3fdeda8b-81e4-449f-8880-52fb050994b9","ios":"levelo://app?vid=3fdeda8b-81e4-449f-8880-52fb050994b9"},"vehicle_type_id":"4","last_reported":1700358810,"current_range_meters":17600,"station_id":"ce4bh012rcd13ifvqcv0","pricing_plan_id":"free"},{"bike_id":"46429514-9d87-4911-8fbc-f0eb0137767d","system_id":"levelo_inurba_marseille","lat":43.309047,"lon":5.396551,"is_reserved":false,"is_disabled":false,"rental_uris":{"android":"levelo://app?vid=46429514-9d87-4911-8fbc-f0eb0137767d","ios":"levelo://app?vid=46429514-9d87-4911-8fbc-f0eb0137767d"},"vehicle_type_id":"4","last_reported":1700358810,"current_range_meters":26800,"station_id":"ce4bh012rcd13ifvqcv0","pricing_plan_id":"free"},{"bike_id":"f80ff396-067b-4aff-84db-1a4288d6b7f3","system_id":"levelo_inurba_marseille","lat":43.31326,"lon":5.39697,"is_reserved":false,"is_disabled":false,"rental_uris":{"android":"levelo://app?vid=f80ff396-067b-4aff-84db-1a4288d6b7f3","ios":"levelo://app?vid=f80ff396-067b-4aff-84db-1a4288d6b7f3"},"vehicle_type_id":"4","last_reported":1700358810,"current_range_meters":5600,"station_id":"ce4bgvp2rcd13ifvqcu0","pricing_plan_id":"free"},{"bike_id":"c3a00c42-0dda-47b3-9f09-0ce29375f46c","system_id":"levelo_inurba_marseille","lat":43.31328,"lon":5.39697,"is_reserved":false,"is_disabled":false,"rental_uris":{"android":"levelo://app?vid=c3a00c42-0dda-47b3-9f09-0ce29375f46c","ios":"levelo://app?vid=c3a00c42-0dda-47b3-9f09-0ce29375f46c"},"vehicle_type_id":"4","last_reported":1700358810,"current_range_meters":12800,"station_id":"ce4bgvp2rcd13ifvqcu0","pricing_plan_id":"free"},{"bike_id":"9477565a-21f4-478c-96f6-57c129eb1e57","system_id":"levelo_inurba_marseille","lat":43.31325,"lon":5.39698,"is_reserved":false,"is_disabled":false,"rental_uris":{"android":"levelo://app?vid=9477565a-21f4-478c-96f6-57c129eb1e57","ios":"levelo://app?vid=9477565a-21f4-478c-96f6-57c129eb1e57"},"vehicle_type_id":"4","last_reported":1700358810,"current_range_meters":15600,"station_id":"ce4bgvp2rcd13ifvqcu0","pricing_plan_id":"free"},{"bike_id":"4a033192-1d0b-4496-989f-de9078ffaa36","system_id":"levelo_inurba_marseille","lat":43.309047,"lon":5.396551,"is_reserved":false,"is_disabled":false,"rental_uris":{"android":"levelo://app?vid=4a033192-1d0b-4496-989f-de9078ffaa36","ios":"levelo://app?vid=4a033192-1d0b-4496-989f-de9078ffaa36"},"vehicle_type_id":"4","last_reported":1700358810,"current_range_meters":15600,"station_id":"ce4bh012rcd13ifvqcv0","pricing_plan_id":"free"},{"bike_id":"fbf237e0-ebf4-48ee-9298-75de0ce05f0e","system_id":"levelo_inurba_marseille","lat":43.309038,"lon":5.396546,"is_reserved":false,"is_disabled":false,"rental_uris":{"android":"levelo://app?vid=fbf237e0-ebf4-48ee-9298-75de0ce05f0e","ios":"levelo://app?vid=fbf237e0-ebf4-48ee-9298-75de0ce05f0e"},"vehicle_type_id":"4","last_reported":1700358810,"current_range_meters":12400,"station_id":"ce4bh012rcd13ifvqcv0","pricing_plan_id":"free"},{"bike_id":"0de747ba-d827-4bc2-8d9f-f961b891b941","system_id":"levelo_inurba_marseille","lat":43.309038,"lon":5.396546,"is_reserved":false,"is_disabled":false,"rental_uris":{"android":"levelo://app?vid=0de747ba-d827-4bc2-8d9f-f961b891b941","ios":"levelo://app?vid=0de747ba-d827-4bc2-8d9f-f961b891b941"},"vehicle_type_id":"4","last_reported":1700358810,"current_range_meters":18800,"station_id":"ce4bh012rcd13ifvqcv0","pricing_plan_id":"free"},{"bike_id":"4eef38cc-64cf-4f4d-8d5b-99bd9d3b1b37","system_id":"levelo_inurba_marseille","lat":43.291671,"lon":5.371575,"is_reserved":false,"is_disabled":false,"rental_uris":{"android":"levelo://app?vid=4eef38cc-64cf-4f4d-8d5b-99bd9d3b1b37","ios":"levelo://app?vid=4eef38cc-64cf-4f4d-8d5b-99bd9d3b1b37"},"vehicle_type_id":"4","last_reported":1700358810,"current_range_meters":26400,"station_id":"ce4bha92rcd13ifvqeh0","pricing_plan_id":"free"},{"bike_id":"2f2a4e98-8894-44c4-a53d-387812fa5d33","system_id":"levelo_inurba_marseille","lat":43.290779,"lon":5.371482,"is_reserved":false,"is_disabled":false,"rental_uris":{"android":"levelo://app?vid=2f2a4e98-8894-44c4-a53d-387812fa5d33","ios":"levelo://app?vid=2f2a4e98-8894-44c4-a53d-387812fa5d33"},"vehicle_type_id":"4","last_reported":1700358810,"current_range_meters":31200,"station_id":"ce4bh5p2rcd13ifvqe4g","pricing_plan_id":"free"},{"bike_id":"0bd7dc28-bdce-4237-8342-268379dde71e","system_id":"levelo_inurba_marseille","lat":43.290779,"lon":5.371482,"is_reserved":false,"is_disabled":false,"rental_uris":{"android":"levelo://app?vid=0bd7dc28-bdce-4237-8342-268379dde71e","ios":"levelo://app?vid=0bd7dc28-bdce-4237-8342-268379dde71e"},"vehicle_type_id":"4","last_reported":1700358810,"current_range_meters":31200,"station_id":"ce4bh5p2rcd13ifvqe4g","pricing_plan_id":"free"},{"bike_id":"8770731e-f750-4e2c-9b73-c2495d138353","system_id":"levelo_inurba_marseille","lat":43.302008,"lon":5.394694,"is_reserved":false,"is_disabled":false,"rental_uris":{"android":"levelo://app?vid=8770731e-f750-4e2c-9b73-c2495d138353","ios":"levelo://app?vid=8770731e-f750-4e2c-9b73-c2495d138353"},"vehicle_type_id":"4","last_reported":1700358810,"current_range_meters":26000,"station_id":"ce4bh0p2rcd13ifvqd70","pricing_plan_id":"free"},{"bike_id":"e9239fbf-dc97-4b02-bf24-1eca58d20dd5","system_id":"levelo_inurba_marseille","lat":43.289184,"lon":5.366408,"is_reserved":false,"is_disabled":false,"rental_uris":{"android":"levelo://app?vid=e9239fbf-dc97-4b02-bf24-1eca58d20dd5","ios":"levelo://app?vid=e9239fbf-dc97-4b02-bf24-1eca58d20dd5"},"vehicle_type_id":"4","last_reported":1700358810,"current_range_meters":20000,"station_id":"ce4bhap2rcd13ifvqek0","pricing_plan_id":"free"},{"bike_id":"16a2b179-6c80-4586-a56b-7e9860e5de99","system_id":"levelo_inurba_marseille","lat":43.304274,"lon":5.397513,"is_reserved":false,"is_disabled":false,"rental_uris":{"android":"levelo://app?vid=16a2b179-6c80-4586-a56b-7e9860e5de99","ios":"levelo://app?vid=16a2b179-6c80-4586-a56b-7e9860e5de99"},"vehicle_type_id":"4","last_reported":1700358810,"current_range_meters":2800,"station_id":"ce4bh092rcd13ifvqd20","pricing_plan_id":"free"},{"bike_id":"b1c6d1b1-8638-4d3d-9a78-9c97ae976a5c","system_id":"levelo_inurba_marseille","lat":43.330442,"lon":5.389148,"is_reserved":false,"is_disabled":false,"rental_uris":{"android":"levelo://app?vid=b1c6d1b1-8638-4d3d-9a78-9c97ae976a5c","ios":"levelo://app?vid=b1c6d1b1-8638-4d3d-9a78-9c97ae976a5c"},"vehicle_type_id":"4","last_reported":1700358810,"current_range_meters":0,"station_id":"ce4bhr92rcd13ifvqhrg","pricing_plan_id":"free"},{"bike_id":"16ed2be5-bfbf-408f-ba5d-8b274535d913","system_id":"levelo_inurba_marseille","lat":43.330442,"lon":5.389148,"is_reserved":false,"is_disabled":false,"rental_uris":{"android":"levelo://app?vid=16ed2be5-bfbf-408f-ba5d-8b274535d913","ios":"levelo://app?vid=16ed2be5-bfbf-408f-ba5d-8b274535d913"},"vehicle_type_id":"4","last_reported":1700358810,"current_range_meters":25600,"station_id":"ce4bhr92rcd13ifvqhrg","pricing_plan_id":"free"},{"bike_id":"6dfacf75-1489-4777-beb3-387c0914c022","system_id":"levelo_inurba_marseille","lat":43.330417,"lon":5.389202,"is_reserved":false,"is_disabled":false,"rental_uris":{"android":"levelo://app?vid=6dfacf75-1489-4777-beb3-387c0914c022","ios":"levelo://app?vid=6dfacf75-1489-4777-beb3-387c0914c022"},"vehicle_type_id":"4","last_reported":1700358810,"current_range_meters":19200,"station_id":"ce4bhr92rcd13ifvqhrg","pricing_plan_id":"free"},{"bike_id":"46509513-12f0-4bae-91ab-3b5bb7ed22cf","system_id":"levelo_inurba_marseille","lat":43.290104,"lon":5.356111,"is_reserved":false,"is_disabled":false,"rental_uris":{"android":"levelo://app?vid=46509513-12f0-4bae-91ab-3b5bb7ed22cf","ios":"levelo://app?vid=46509513-12f0-4bae-91ab-3b5bb7ed22cf"},"vehicle_type_id":"4","last_reported":1700358810,"current_range_meters":30400,"station_id":"ce4bhb92rcd13ifvqen0","pricing_plan_id":"free"},{"bike_id":"51e3370a-e2e3-40db-a994-bc69d14e5c9a","system_id":"levelo_inurba_marseille","lat":43.290995,"lon":5.381361,"is_reserved":false,"is_disabled":false,"rental_uris":{"android":"levelo://app?vid=51e3370a-e2e3-40db-a994-bc69d14e5c9a","ios":"levelo://app?vid=51e3370a-e2e3-40db-a994-bc69d14e5c9a"},"vehicle_type_id":"4","last_reported":1700358810,"current_range_meters":28000,"station_id":"ce4bh512rcd13ifvqe2g","pricing_plan_id":"free"},{"bike_id":"7052d14a-dc18-4a23-be46-43edef5689d6","system_id":"levelo_inurba_marseille","lat":43.290995,"lon":5.381361,"is_reserved":false,"is_disabled":false,"rental_uris":{"android":"levelo://app?vid=7052d14a-dc18-4a23-be46-43edef5689d6","ios":"levelo://app?vid=7052d14a-dc18-4a23-be46-43edef5689d6"},"vehicle_type_id":"4","last_reported":1700358810,"current_range_meters":29600,"station_id":"ce4bh512rcd13ifvqe2g","pricing_plan_id":"free"},{"bike_id":"7ac70b7a-f0db-4c92-a3b8-4ddca10439d8","system_id":"levelo_inurba_marseille","lat":43.295169,"lon":5.390426,"is_reserved":false,"is_disabled":false,"rental_uris":{"android":"levelo://app?vid=7ac70b7a-f0db-4c92-a3b8-4ddca10439d8","ios":"levelo://app?vid=7ac70b7a-f0db-4c92-a3b8-4ddca10439d8"},"vehicle_type_id":"4","last_reported":1700358810,"current_range_meters":17200,"station_id":"ce4bh3p2rcd13ifvqdp0","pricing_plan_id":"free"},{"bike_id":"eccefe42-45a2-4d20-a67a-de5502f9ad19","system_id":"levelo_inurba_marseille","lat":43.295169,"lon":5.390426,"is_reserved":false,"is_disabled":false,"rental_uris":{"android":"levelo://app?vid=eccefe42-45a2-4d20-a67a-de5502f9ad19","ios":"levelo://app?vid=eccefe42-45a2-4d20-a67a-de5502f9ad19"},"vehicle_type_id":"4","last_reported":1700358810,"current_range_meters":8000,"station_id":"ce4bh3p2rcd13ifvqdp0","pricing_plan_id":"free"},{"bike_id":"ddc4b7d3-2da5-46e7-92f1-a79fbdbe4bf2","system_id":"levelo_inurba_marseille","lat":43.295169,"lon":5.390426,"is_reserved":false,"is_disabled":false,"rental_uris":{"android":"levelo://app?vid=ddc4b7d3-2da5-46e7-92f1-a79fbdbe4bf2","ios":"levelo://app?vid=ddc4b7d3-2da5-46e7-92f1-a79fbdbe4bf2"},"vehicle_type_id":"4","last_reported":1700358810,"current_range_meters":18400,"station_id":"ce4bh3p2rcd13ifvqdp0","pricing_plan_id":"free"},{"bike_id":"8fb87168-4cf4-4f3e-82ea-05238a2a5786","system_id":"levelo_inurba_marseille","lat":43.295169,"lon":5.390426,"is_reserved":false,"is_disabled":false,"rental_uris":{"android":"levelo://app?vid=8fb87168-4cf4-4f3e-82ea-05238a2a5786","ios":"levelo://app?vid=8fb87168-4cf4-4f3e-82ea-05238a2a5786"},"vehicle_type_id":"4","last_reported":1700358810,"current_range_meters":7600,"station_id":"ce4bh3p2rcd13ifvqdp0","pricing_plan_id":"free"},{"bike_id":"b662a20b-02bb-4869-a202-9fde058bf540","system_id":"levelo_inurba_marseille","lat":43.290094,"lon":5.381264,"is_reserved":false,"is_disabled":false,"rental_uris":{"android":"levelo://app?vid=b662a20b-02bb-4869-a202-9fde058bf540","ios":"levelo://app?vid=b662a20b-02bb-4869-a202-9fde058bf540"},"vehicle_type_id":"4","last_reported":1700358810,"current_range_meters":27200,"station_id":"ce4bh4p2rcd13ifvqe1g","pricing_plan_id":"free"},{"bike_id":"07202f70-50d7-46f0-a5bd-59712659d6a0","system_id":"levelo_inurba_marseille","lat":43.31251,"lon":5.40162,"is_reserved":false,"is_disabled":false,"rental_uris":{"android":"levelo://app?vid=07202f70-50d7-46f0-a5bd-59712659d6a0","ios":"levelo://app?vid=07202f70-50d7-46f0-a5bd-59712659d6a0"},"vehicle_type_id":"4","last_reported":1700358810,"current_range_meters":12800,"station_id":"","pricing_plan_id":"free"},{"bike_id":"1e6bc39f-70a0-4e65-902a-720fd9cb3bff","system_id":"levelo_inurba_marseille","lat":43.31277,"lon":5.401641,"is_reserved":false,"is_disabled":false,"rental_uris":{"android":"levelo://app?vid=1e6bc39f-70a0-4e65-902a-720fd9cb3bff","ios":"levelo://app?vid=1e6bc39f-70a0-4e65-902a-720fd9cb3bff"},"vehicle_type_id":"4","last_reported":1700358810,"current_range_meters":31200,"station_id":"ce4bh092rcd13ifvqd30","pricing_plan_id":"free"},{"bike_id":"f4f5557f-7c2e-4209-8343-e63626bdc963","system_id":"levelo_inurba_marseille","lat":43.312609,"lon":5.401662,"is_reserved":false,"is_disabled":false,"rental_uris":{"android":"levelo://app?vid=f4f5557f-7c2e-4209-8343-e63626bdc963","ios":"levelo://app?vid=f4f5557f-7c2e-4209-8343-e63626bdc963"},"vehicle_type_id":"4","last_reported":1700358810,"current_range_meters":0,"station_id":"ce4bh092rcd13ifvqd30","pricing_plan_id":"free"},{"bike_id":"55e03788-2a8a-437b-b98d-eddedafa78d8","system_id":"levelo_inurba_marseille","lat":43.312779,"lon":5.401722,"is_reserved":false,"is_disabled":false,"rental_uris":{"android":"levelo://app?vid=55e03788-2a8a-437b-b98d-eddedafa78d8","ios":"levelo://app?vid=55e03788-2a8a-437b-b98d-eddedafa78d8"},"vehicle_type_id":"4","last_reported":1700358810,"current_range_meters":31200,"station_id":"ce4bh092rcd13ifvqd30","pricing_plan_id":"free"},{"bike_id":"92c8cf7d-056f-4367-9077-8479d31824c1","system_id":"levelo_inurba_marseille","lat":43.309371,"lon":5.401449,"is_reserved":false,"is_disabled":false,"rental_uris":{"android":"levelo://app?vid=92c8cf7d-056f-4367-9077-8479d31824c1","ios":"levelo://app?vid=92c8cf7d-056f-4367-9077-8479d31824c1"},"vehicle_type_id":"4","last_reported":1700358810,"current_range_meters":0,"station_id":"ce4bgvp2rcd13ifvqct0","pricing_plan_id":"free"},{"bike_id":"e4a0f8e7-3f6a-4ebf-b368-7c180166208f","system_id":"levelo_inurba_marseille","lat":43.312761,"lon":5.401726,"is_reserved":false,"is_disabled":false,"rental_uris":{"android":"levelo://app?vid=e4a0f8e7-3f6a-4ebf-b368-7c180166208f","ios":"levelo://app?vid=e4a0f8e7-3f6a-4ebf-b368-7c180166208f"},"vehicle_type_id":"4","last_reported":1700358810,"current_range_meters":29200,"station_id":"ce4bh092rcd13ifvqd30","pricing_plan_id":"free"},{"bike_id":"4b839fc0-878b-4eed-9fc2-f5225b4f213c","system_id":"levelo_inurba_marseille","lat":43.312736,"lon":5.40179,"is_reserved":false,"is_disabled":false,"rental_uris":{"android":"levelo://app?vid=4b839fc0-878b-4eed-9fc2-f5225b4f213c","ios":"levelo://app?vid=4b839fc0-878b-4eed-9fc2-f5225b4f213c"},"vehicle_type_id":"4","last_reported":1700358810,"current_range_meters":800,"station_id":"ce4bh092rcd13ifvqd30","pricing_plan_id":"free"},{"bike_id":"4a1eeebc-381a-42de-a98e-f332397794af","system_id":"levelo_inurba_marseille","lat":43.309333,"lon":5.401493,"is_reserved":false,"is_disabled":false,"rental_uris":{"android":"levelo://app?vid=4a1eeebc-381a-42de-a98e-f332397794af","ios":"levelo://app?vid=4a1eeebc-381a-42de-a98e-f332397794af"},"vehicle_type_id":"4","last_reported":1700358810,"current_range_meters":4400,"station_id":"ce4bgvp2rcd13ifvqct0","pricing_plan_id":"free"},{"bike_id":"c29d6326-89fb-43f1-9caa-639d3659ac19","system_id":"levelo_inurba_marseille","lat":43.3064,"lon":5.40083,"is_reserved":false,"is_disabled":false,"rental_uris":{"android":"levelo://app?vid=c29d6326-89fb-43f1-9caa-639d3659ac19","ios":"levelo://app?vid=c29d6326-89fb-43f1-9caa-639d3659ac19"},"vehicle_type_id":"4","last_reported":1700358810,"current_range_meters":1600,"station_id":"ce4bh112rcd13ifvqda0","pricing_plan_id":"free"},{"bike_id":"69c3b6c6-1c29-40ff-ab74-d8c21040fc71","system_id":"levelo_inurba_marseille","lat":43.301117,"lon":5.398795,"is_reserved":false,"is_disabled":false,"rental_uris":{"android":"levelo://app?vid=69c3b6c6-1c29-40ff-ab74-d8c21040fc71","ios":"levelo://app?vid=69c3b6c6-1c29-40ff-ab74-d8c21040fc71"},"vehicle_type_id":"4","last_reported":1700358810,"current_range_meters":13600,"station_id":"ce4bh0h2rcd13ifvqd40","pricing_plan_id":"free"},{"bike_id":"7528ad81-2466-48aa-a7e8-51af60da7363","system_id":"levelo_inurba_marseille","lat":43.301117,"lon":5.398795,"is_reserved":false,"is_disabled":false,"rental_uris":{"android":"levelo://app?vid=7528ad81-2466-48aa-a7e8-51af60da7363","ios":"levelo://app?vid=7528ad81-2466-48aa-a7e8-51af60da7363"},"vehicle_type_id":"4","last_reported":1700358810,"current_range_meters":24400,"station_id":"ce4bh0h2rcd13ifvqd40","pricing_plan_id":"free"},{"bike_id":"70aa7f9c-9f54-4d73-baea-40672d909afe","system_id":"levelo_inurba_marseille","lat":43.28722,"lon":5.36085,"is_reserved":false,"is_disabled":false,"rental_uris":{"android":"levelo://app?vid=70aa7f9c-9f54-4d73-baea-40672d909afe","ios":"levelo://app?vid=70aa7f9c-9f54-4d73-baea-40672d909afe"},"vehicle_type_id":"4","last_reported":1700358810,"current_range_meters":0,"station_id":"cki0cbj6b192h4jlfktg","pricing_plan_id":"free"},{"bike_id":"8e5cf5c8-1dc2-4e3c-a31e-02e895926b4b","system_id":"levelo_inurba_marseille","lat":43.28727,"lon":5.36078,"is_reserved":false,"is_disabled":false,"rental_uris":{"android":"levelo://app?vid=8e5cf5c8-1dc2-4e3c-a31e-02e895926b4b","ios":"levelo://app?vid=8e5cf5c8-1dc2-4e3c-a31e-02e895926b4b"},"vehicle_type_id":"4","last_reported":1700358810,"current_range_meters":14800,"station_id":"cki0cbj6b192h4jlfktg","pricing_plan_id":"free"},{"bike_id":"760bee18-0507-4182-bb71-10bc9db5cb2a","system_id":"levelo_inurba_marseille","lat":43.302759,"lon":5.400793,"is_reserved":false,"is_disabled":false,"rental_uris":{"android":"levelo://app?vid=760bee18-0507-4182-bb71-10bc9db5cb2a","ios":"levelo://app?vid=760bee18-0507-4182-bb71-10bc9db5cb2a"},"vehicle_type_id":"4","last_reported":1700358810,"current_range_meters":18400,"station_id":"ce4bgvh2rcd13ifvqcs0","pricing_plan_id":"free"},{"bike_id":"c3e7111a-f079-416b-8448-4cc360e0a2e1","system_id":"levelo_inurba_marseille","lat":43.302491,"lon":5.400796,"is_reserved":false,"is_disabled":false,"rental_uris":{"android":"levelo://app?vid=c3e7111a-f079-416b-8448-4cc360e0a2e1","ios":"levelo://app?vid=c3e7111a-f079-416b-8448-4cc360e0a2e1"},"vehicle_type_id":"4","last_reported":1700358810,"current_range_meters":24400,"station_id":"ce4bgvh2rcd13ifvqcs0","pricing_plan_id":"free"},{"bike_id":"5e652d9d-c310-4a42-9d7f-dd12383980c4","system_id":"levelo_inurba_marseille","lat":43.284538,"lon":5.358657,"is_reserved":false,"is_disabled":false,"rental_uris":{"android":"levelo://app?vid=5e652d9d-c310-4a42-9d7f-dd12383980c4","ios":"levelo://app?vid=5e652d9d-c310-4a42-9d7f-dd12383980c4"},"vehicle_type_id":"4","last_reported":1700358810,"current_range_meters":0,"station_id":"ce4bhah2rcd13ifvqei0","pricing_plan_id":"free"},{"bike_id":"88045c23-640f-4e0c-a343-9dc3f806bfdf","system_id":"levelo_inurba_marseille","lat":43.284534,"lon":5.358662,"is_reserved":false,"is_disabled":false,"rental_uris":{"android":"levelo://app?vid=88045c23-640f-4e0c-a343-9dc3f806bfdf","ios":"levelo://app?vid=88045c23-640f-4e0c-a343-9dc3f806bfdf"},"vehicle_type_id":"4","last_reported":1700358810,"current_range_meters":21200,"station_id":"ce4bhah2rcd13ifvqei0","pricing_plan_id":"free"},{"bike_id":"99de5e8e-71b0-4ad2-b517-84e912871ac8","system_id":"levelo_inurba_marseille","lat":43.284538,"lon":5.358657,"is_reserved":false,"is_disabled":false,"rental_uris":{"android":"levelo://app?vid=99de5e8e-71b0-4ad2-b517-84e912871ac8","ios":"levelo://app?vid=99de5e8e-71b0-4ad2-b517-84e912871ac8"},"vehicle_type_id":"4","last_reported":1700358810,"current_range_meters":18800,"station_id":"ce4bhah2rcd13ifvqei0","pricing_plan_id":"free"},{"bike_id":"ff93a1e4-e569-4e9b-a5f3-5b5f552fe74a","system_id":"levelo_inurba_marseille","lat":43.284534,"lon":5.358662,"is_reserved":false,"is_disabled":false,"rental_uris":{"android":"levelo://app?vid=ff93a1e4-e569-4e9b-a5f3-5b5f552fe74a","ios":"levelo://app?vid=ff93a1e4-e569-4e9b-a5f3-5b5f552fe74a"},"vehicle_type_id":"4","last_reported":1700358810,"current_range_meters":32000,"station_id":"ce4bhah2rcd13ifvqei0","pricing_plan_id":"free"},{"bike_id":"4a2c745f-5bab-4993-ad8f-d91bff5b4aeb","system_id":"levelo_inurba_marseille","lat":43.284534,"lon":5.358662,"is_reserved":false,"is_disabled":false,"rental_uris":{"android":"levelo://app?vid=4a2c745f-5bab-4993-ad8f-d91bff5b4aeb","ios":"levelo://app?vid=4a2c745f-5bab-4993-ad8f-d91bff5b4aeb"},"vehicle_type_id":"4","last_reported":1700358810,"current_range_meters":23600,"station_id":"ce4bhah2rcd13ifvqei0","pricing_plan_id":"free"},{"bike_id":"48c82686-5999-4e77-a74a-40833e7a58eb","system_id":"levelo_inurba_marseille","lat":43.284534,"lon":5.358662,"is_reserved":false,"is_disabled":false,"rental_uris":{"android":"levelo://app?vid=48c82686-5999-4e77-a74a-40833e7a58eb","ios":"levelo://app?vid=48c82686-5999-4e77-a74a-40833e7a58eb"},"vehicle_type_id":"4","last_reported":1700358810,"current_range_meters":0,"station_id":"ce4bhah2rcd13ifvqei0","pricing_plan_id":"free"},{"bike_id":"7ee1321c-d5a0-4f22-8335-09f62406a271","system_id":"levelo_inurba_marseille","lat":43.284538,"lon":5.358657,"is_reserved":false,"is_disabled":false,"rental_uris":{"android":"levelo://app?vid=7ee1321c-d5a0-4f22-8335-09f62406a271","ios":"levelo://app?vid=7ee1321c-d5a0-4f22-8335-09f62406a271"},"vehicle_type_id":"4","last_reported":1700358810,"current_range_meters":26800,"station_id":"ce4bhah2rcd13ifvqei0","pricing_plan_id":"free"},{"bike_id":"4a96ea9f-08d4-4c56-8260-57216b0fc889","system_id":"levelo_inurba_marseille","lat":43.284538,"lon":5.358657,"is_reserved":false,"is_disabled":false,"rental_uris":{"android":"levelo://app?vid=4a96ea9f-08d4-4c56-8260-57216b0fc889","ios":"levelo://app?vid=4a96ea9f-08d4-4c56-8260-57216b0fc889"},"vehicle_type_id":"4","last_reported":1700358810,"current_range_meters":22800,"station_id":"ce4bhah2rcd13ifvqei0","pricing_plan_id":"free"},{"bike_id":"95876aef-c84c-47db-99f2-a3c4ba238a6f","system_id":"levelo_inurba_marseille","lat":43.284538,"lon":5.358657,"is_reserved":false,"is_disabled":false,"rental_uris":{"android":"levelo://app?vid=95876aef-c84c-47db-99f2-a3c4ba238a6f","ios":"levelo://app?vid=95876aef-c84c-47db-99f2-a3c4ba238a6f"},"vehicle_type_id":"4","last_reported":1700358810,"current_range_meters":2400,"station_id":"ce4bhah2rcd13ifvqei0","pricing_plan_id":"free"},{"bike_id":"4d9d8719-1f64-46a0-a502-8170d64787f0","system_id":"levelo_inurba_marseille","lat":43.284538,"lon":5.358657,"is_reserved":false,"is_disabled":false,"rental_uris":{"android":"levelo://app?vid=4d9d8719-1f64-46a0-a502-8170d64787f0","ios":"levelo://app?vid=4d9d8719-1f64-46a0-a502-8170d64787f0"},"vehicle_type_id":"4","last_reported":1700358810,"current_range_meters":6400,"station_id":"ce4bhah2rcd13ifvqei0","pricing_plan_id":"free"},{"bike_id":"b1ab8597-205d-47d1-877b-ac3c873d571e","system_id":"levelo_inurba_marseille","lat":43.285856,"lon":5.350771,"is_reserved":false,"is_disabled":false,"rental_uris":{"android":"levelo://app?vid=b1ab8597-205d-47d1-877b-ac3c873d571e","ios":"levelo://app?vid=b1ab8597-205d-47d1-877b-ac3c873d571e"},"vehicle_type_id":"4","last_reported":1700358810,"current_range_meters":6400,"station_id":"ce4bhch2rcd13ifvqeug","pricing_plan_id":"free"},{"bike_id":"8a6329af-f488-4217-b872-47e3ac29345c","system_id":"levelo_inurba_marseille","lat":43.283998,"lon":5.375062,"is_reserved":false,"is_disabled":false,"rental_uris":{"android":"levelo://app?vid=8a6329af-f488-4217-b872-47e3ac29345c","ios":"levelo://app?vid=8a6329af-f488-4217-b872-47e3ac29345c"},"vehicle_type_id":"4","last_reported":1700358810,"current_range_meters":24000,"station_id":"ce4bh412rcd13ifvqds0","pricing_plan_id":"free"},{"bike_id":"28c3b8cf-817a-47f0-91e9-3d0ede8e9123","system_id":"levelo_inurba_marseille","lat":43.283998,"lon":5.375062,"is_reserved":false,"is_disabled":false,"rental_uris":{"android":"levelo://app?vid=28c3b8cf-817a-47f0-91e9-3d0ede8e9123","ios":"levelo://app?vid=28c3b8cf-817a-47f0-91e9-3d0ede8e9123"},"vehicle_type_id":"4","last_reported":1700358810,"current_range_meters":27600,"station_id":"ce4bh412rcd13ifvqds0","pricing_plan_id":"free"},{"bike_id":"d94dfb15-e572-4e59-af3c-ee7cbd62cef5","system_id":"levelo_inurba_marseille","lat":43.295717,"lon":5.399697,"is_reserved":false,"is_disabled":false,"rental_uris":{"android":"levelo://app?vid=d94dfb15-e572-4e59-af3c-ee7cbd62cef5","ios":"levelo://app?vid=d94dfb15-e572-4e59-af3c-ee7cbd62cef5"},"vehicle_type_id":"4","last_reported":1700358810,"current_range_meters":12000,"station_id":"","pricing_plan_id":"free"},{"bike_id":"8a102211-eb74-4e67-a6e6-12746e21ef5e","system_id":"levelo_inurba_marseille","lat":43.319179,"lon":5.407725,"is_reserved":false,"is_disabled":false,"rental_uris":{"android":"levelo://app?vid=8a102211-eb74-4e67-a6e6-12746e21ef5e","ios":"levelo://app?vid=8a102211-eb74-4e67-a6e6-12746e21ef5e"},"vehicle_type_id":"4","last_reported":1700358810,"current_range_meters":30400,"station_id":"ce4bhq12rcd13ifvqhig","pricing_plan_id":"free"},{"bike_id":"8e8dadb8-56a7-4b9a-bb77-49107de74ef9","system_id":"levelo_inurba_marseille","lat":43.319179,"lon":5.407725,"is_reserved":false,"is_disabled":false,"rental_uris":{"android":"levelo://app?vid=8e8dadb8-56a7-4b9a-bb77-49107de74ef9","ios":"levelo://app?vid=8e8dadb8-56a7-4b9a-bb77-49107de74ef9"},"vehicle_type_id":"4","last_reported":1700358810,"current_range_meters":22000,"station_id":"ce4bhq12rcd13ifvqhig","pricing_plan_id":"free"},{"bike_id":"5974ad3b-da81-42ca-a08b-1b3632a47afa","system_id":"levelo_inurba_marseille","lat":43.33237,"lon":5.3985,"is_reserved":false,"is_disabled":false,"rental_uris":{"android":"levelo://app?vid=5974ad3b-da81-42ca-a08b-1b3632a47afa","ios":"levelo://app?vid=5974ad3b-da81-42ca-a08b-1b3632a47afa"},"vehicle_type_id":"4","last_reported":1700358810,"current_range_meters":3200,"station_id":"","pricing_plan_id":"free"},{"bike_id":"6364147f-5b0d-4e52-9491-e43b350f5c7a","system_id":"levelo_inurba_marseille","lat":43.33717,"lon":5.391857,"is_reserved":false,"is_disabled":false,"rental_uris":{"android":"levelo://app?vid=6364147f-5b0d-4e52-9491-e43b350f5c7a","ios":"levelo://app?vid=6364147f-5b0d-4e52-9491-e43b350f5c7a"},"vehicle_type_id":"4","last_reported":1700358810,"current_range_meters":29200,"station_id":"ce4bhr92rcd13ifvqhsg","pricing_plan_id":"free"},{"bike_id":"3602b74d-bc5d-4276-85ce-c45681ab1737","system_id":"levelo_inurba_marseille","lat":43.33717,"lon":5.391857,"is_reserved":false,"is_disabled":false,"rental_uris":{"android":"levelo://app?vid=3602b74d-bc5d-4276-85ce-c45681ab1737","ios":"levelo://app?vid=3602b74d-bc5d-4276-85ce-c45681ab1737"},"vehicle_type_id":"4","last_reported":1700358810,"current_range_meters":30400,"station_id":"ce4bhr92rcd13ifvqhsg","pricing_plan_id":"free"},{"bike_id":"a08607c1-816a-491b-a085-3077fb7fb178","system_id":"levelo_inurba_marseille","lat":43.323464,"lon":5.406297,"is_reserved":false,"is_disabled":false,"rental_uris":{"android":"levelo://app?vid=a08607c1-816a-491b-a085-3077fb7fb178","ios":"levelo://app?vid=a08607c1-816a-491b-a085-3077fb7fb178"},"vehicle_type_id":"4","last_reported":1700358810,"current_range_meters":18800,"station_id":"ce4bhq92rcd13ifvqhjg","pricing_plan_id":"free"},{"bike_id":"d3dd3e3d-57b0-4c9e-949f-fddd56c2349c","system_id":"levelo_inurba_marseille","lat":43.32521,"lon":5.40575,"is_reserved":false,"is_disabled":false,"rental_uris":{"android":"levelo://app?vid=d3dd3e3d-57b0-4c9e-949f-fddd56c2349c","ios":"levelo://app?vid=d3dd3e3d-57b0-4c9e-949f-fddd56c2349c"},"vehicle_type_id":"4","last_reported":1700358810,"current_range_meters":400,"station_id":"","pricing_plan_id":"free"},{"bike_id":"6353b3e0-dda4-4c75-a3db-83daf7292fd5","system_id":"levelo_inurba_marseille","lat":43.289363,"lon":5.396322,"is_reserved":false,"is_disabled":false,"rental_uris":{"android":"levelo://app?vid=6353b3e0-dda4-4c75-a3db-83daf7292fd5","ios":"levelo://app?vid=6353b3e0-dda4-4c75-a3db-83daf7292fd5"},"vehicle_type_id":"4","last_reported":1700358810,"current_range_meters":30800,"station_id":"ce4bh3h2rcd13ifvqdn0","pricing_plan_id":"free"},{"bike_id":"df348ccf-7ffc-4253-95f7-bf3beb0b8892","system_id":"levelo_inurba_marseille","lat":43.280382,"lon":5.369291,"is_reserved":false,"is_disabled":false,"rental_uris":{"android":"levelo://app?vid=df348ccf-7ffc-4253-95f7-bf3beb0b8892","ios":"levelo://app?vid=df348ccf-7ffc-4253-95f7-bf3beb0b8892"},"vehicle_type_id":"4","last_reported":1700358810,"current_range_meters":28000,"station_id":"ce4bha12rcd13ifvqef0","pricing_plan_id":"free"},{"bike_id":"809faf2e-ae75-40ff-941f-f1d697814f21","system_id":"levelo_inurba_marseille","lat":43.280382,"lon":5.369291,"is_reserved":false,"is_disabled":false,"rental_uris":{"android":"levelo://app?vid=809faf2e-ae75-40ff-941f-f1d697814f21","ios":"levelo://app?vid=809faf2e-ae75-40ff-941f-f1d697814f21"},"vehicle_type_id":"4","last_reported":1700358810,"current_range_meters":16400,"station_id":"ce4bha12rcd13ifvqef0","pricing_plan_id":"free"},{"bike_id":"1c1a07e9-da1a-4e40-a4cd-fc32b460b434","system_id":"levelo_inurba_marseille","lat":43.284462,"lon":5.392121,"is_reserved":false,"is_disabled":false,"rental_uris":{"android":"levelo://app?vid=1c1a07e9-da1a-4e40-a4cd-fc32b460b434","ios":"levelo://app?vid=1c1a07e9-da1a-4e40-a4cd-fc32b460b434"},"vehicle_type_id":"4","last_reported":1700358810,"current_range_meters":1200,"station_id":"ce4bhoh2rcd13ifvqh5g","pricing_plan_id":"free"},{"bike_id":"ccf9b17e-2fb6-47d5-b5cb-73ea08fcb6e5","system_id":"levelo_inurba_marseille","lat":43.28575,"lon":5.39498,"is_reserved":false,"is_disabled":false,"rental_uris":{"android":"levelo://app?vid=ccf9b17e-2fb6-47d5-b5cb-73ea08fcb6e5","ios":"levelo://app?vid=ccf9b17e-2fb6-47d5-b5cb-73ea08fcb6e5"},"vehicle_type_id":"4","last_reported":1700358810,"current_range_meters":0,"station_id":"ce4bh292rcd13ifvqdg0","pricing_plan_id":"free"},{"bike_id":"68be39c1-20b4-46fb-af94-39011820d2df","system_id":"levelo_inurba_marseille","lat":43.285742,"lon":5.395004,"is_reserved":false,"is_disabled":false,"rental_uris":{"android":"levelo://app?vid=68be39c1-20b4-46fb-af94-39011820d2df","ios":"levelo://app?vid=68be39c1-20b4-46fb-af94-39011820d2df"},"vehicle_type_id":"4","last_reported":1700358810,"current_range_meters":16400,"station_id":"ce4bh292rcd13ifvqdg0","pricing_plan_id":"free"},{"bike_id":"e05860e3-01ce-4b1f-86c7-9f839ae165cc","system_id":"levelo_inurba_marseille","lat":43.304188,"lon":5.412904,"is_reserved":false,"is_disabled":false,"rental_uris":{"android":"levelo://app?vid=e05860e3-01ce-4b1f-86c7-9f839ae165cc","ios":"levelo://app?vid=e05860e3-01ce-4b1f-86c7-9f839ae165cc"},"vehicle_type_id":"4","last_reported":1700358810,"current_range_meters":12800,"station_id":"ce4bhop2rcd13ifvqh8g","pricing_plan_id":"free"},{"bike_id":"cf758636-f978-47fe-b411-06eca00a99f0","system_id":"levelo_inurba_marseille","lat":43.287154,"lon":5.399979,"is_reserved":false,"is_disabled":false,"rental_uris":{"android":"levelo://app?vid=cf758636-f978-47fe-b411-06eca00a99f0","ios":"levelo://app?vid=cf758636-f978-47fe-b411-06eca00a99f0"},"vehicle_type_id":"4","last_reported":1700358810,"current_range_meters":12800,"station_id":"ce4bho92rcd13ifvqh3g","pricing_plan_id":"free"},{"bike_id":"feca28d2-7019-4e39-96be-d7938cc29597","system_id":"levelo_inurba_marseille","lat":43.32435,"lon":5.4137,"is_reserved":false,"is_disabled":false,"rental_uris":{"android":"levelo://app?vid=feca28d2-7019-4e39-96be-d7938cc29597","ios":"levelo://app?vid=feca28d2-7019-4e39-96be-d7938cc29597"},"vehicle_type_id":"4","last_reported":1700358810,"current_range_meters":0,"station_id":"","pricing_plan_id":"free"},{"bike_id":"5b90e681-d2f8-454c-906d-51609a7d7396","system_id":"levelo_inurba_marseille","lat":43.320045,"lon":5.415048,"is_reserved":false,"is_disabled":false,"rental_uris":{"android":"levelo://app?vid=5b90e681-d2f8-454c-906d-51609a7d7396","ios":"levelo://app?vid=5b90e681-d2f8-454c-906d-51609a7d7396"},"vehicle_type_id":"4","last_reported":1700358810,"current_range_meters":31200,"station_id":"ce4bhq92rcd13ifvqhkg","pricing_plan_id":"free"},{"bike_id":"06f154da-4aae-4fe6-8d38-922fd2c19629","system_id":"levelo_inurba_marseille","lat":43.299579,"lon":5.413255,"is_reserved":false,"is_disabled":false,"rental_uris":{"android":"levelo://app?vid=06f154da-4aae-4fe6-8d38-922fd2c19629","ios":"levelo://app?vid=06f154da-4aae-4fe6-8d38-922fd2c19629"},"vehicle_type_id":"4","last_reported":1700358810,"current_range_meters":28400,"station_id":"ce4bhp12rcd13ifvqh9g","pricing_plan_id":"free"},{"bike_id":"aa457d29-0590-4e3a-ba48-0e9bbaa43c83","system_id":"levelo_inurba_marseille","lat":43.292571,"lon":5.409107,"is_reserved":false,"is_disabled":false,"rental_uris":{"android":"levelo://app?vid=aa457d29-0590-4e3a-ba48-0e9bbaa43c83","ios":"levelo://app?vid=aa457d29-0590-4e3a-ba48-0e9bbaa43c83"},"vehicle_type_id":"4","last_reported":1700358810,"current_range_meters":12000,"station_id":"ce4bh192rcd13ifvqdc0","pricing_plan_id":"free"},{"bike_id":"b605a260-916b-460c-8e42-5da4328c4587","system_id":"levelo_inurba_marseille","lat":43.280784,"lon":5.396622,"is_reserved":false,"is_disabled":false,"rental_uris":{"android":"levelo://app?vid=b605a260-916b-460c-8e42-5da4328c4587","ios":"levelo://app?vid=b605a260-916b-460c-8e42-5da4328c4587"},"vehicle_type_id":"4","last_reported":1700358810,"current_range_meters":21200,"station_id":"ce4bho12rcd13ifvqh2g","pricing_plan_id":"free"},{"bike_id":"10606041-6d1f-4abe-8004-6325e0030224","system_id":"levelo_inurba_marseille","lat":43.280784,"lon":5.396622,"is_reserved":false,"is_disabled":false,"rental_uris":{"android":"levelo://app?vid=10606041-6d1f-4abe-8004-6325e0030224","ios":"levelo://app?vid=10606041-6d1f-4abe-8004-6325e0030224"},"vehicle_type_id":"4","last_reported":1700358810,"current_range_meters":22400,"station_id":"ce4bho12rcd13ifvqh2g","pricing_plan_id":"free"},{"bike_id":"f9e05f08-87e9-40de-93d7-e360681eb739","system_id":"levelo_inurba_marseille","lat":43.30354,"lon":5.41881,"is_reserved":false,"is_disabled":false,"rental_uris":{"android":"levelo://app?vid=f9e05f08-87e9-40de-93d7-e360681eb739","ios":"levelo://app?vid=f9e05f08-87e9-40de-93d7-e360681eb739"},"vehicle_type_id":"4","last_reported":1700358810,"current_range_meters":0,"station_id":"ce4bhop2rcd13ifvqh7g","pricing_plan_id":"free"},{"bike_id":"c43e9b29-5680-4465-a19a-1cc15f3c5626","system_id":"levelo_inurba_marseille","lat":43.33602,"lon":5.41018,"is_reserved":false,"is_disabled":false,"rental_uris":{"android":"levelo://app?vid=c43e9b29-5680-4465-a19a-1cc15f3c5626","ios":"levelo://app?vid=c43e9b29-5680-4465-a19a-1cc15f3c5626"},"vehicle_type_id":"4","last_reported":1700358810,"current_range_meters":4000,"station_id":"ce4bhqh2rcd13ifvqhmg","pricing_plan_id":"free"},{"bike_id":"e6120518-4d66-4c25-9981-e2fe657f4d15","system_id":"levelo_inurba_marseille","lat":43.273609,"lon":5.362708,"is_reserved":false,"is_disabled":false,"rental_uris":{"android":"levelo://app?vid=e6120518-4d66-4c25-9981-e2fe657f4d15","ios":"levelo://app?vid=e6120518-4d66-4c25-9981-e2fe657f4d15"},"vehicle_type_id":"4","last_reported":1700358810,"current_range_meters":10000,"station_id":"ce4bhbh2rcd13ifvqeo0","pricing_plan_id":"free"},{"bike_id":"01035a16-12f0-4b66-baef-5199a4763ef1","system_id":"levelo_inurba_marseille","lat":43.33601,"lon":5.41024,"is_reserved":false,"is_disabled":false,"rental_uris":{"android":"levelo://app?vid=01035a16-12f0-4b66-baef-5199a4763ef1","ios":"levelo://app?vid=01035a16-12f0-4b66-baef-5199a4763ef1"},"vehicle_type_id":"4","last_reported":1700358810,"current_range_meters":400,"station_id":"ce4bhqh2rcd13ifvqhmg","pricing_plan_id":"free"},{"bike_id":"72a01077-dee8-4290-9bf2-91ac165c37fd","system_id":"levelo_inurba_marseille","lat":43.336134,"lon":5.410341,"is_reserved":false,"is_disabled":false,"rental_uris":{"android":"levelo://app?vid=72a01077-dee8-4290-9bf2-91ac165c37fd","ios":"levelo://app?vid=72a01077-dee8-4290-9bf2-91ac165c37fd"},"vehicle_type_id":"4","last_reported":1700358810,"current_range_meters":29600,"station_id":"ce4bhqh2rcd13ifvqhmg","pricing_plan_id":"free"},{"bike_id":"4e076906-68b6-4396-b68d-fb23fc841e3a","system_id":"levelo_inurba_marseille","lat":43.33612,"lon":5.410321,"is_reserved":false,"is_disabled":false,"rental_uris":{"android":"levelo://app?vid=4e076906-68b6-4396-b68d-fb23fc841e3a","ios":"levelo://app?vid=4e076906-68b6-4396-b68d-fb23fc841e3a"},"vehicle_type_id":"4","last_reported":1700358810,"current_range_meters":26000,"station_id":"ce4bhqh2rcd13ifvqhmg","pricing_plan_id":"free"},{"bike_id":"0e8a0caa-7eed-4299-b763-2c0ba621e195","system_id":"levelo_inurba_marseille","lat":43.336134,"lon":5.410341,"is_reserved":false,"is_disabled":false,"rental_uris":{"android":"levelo://app?vid=0e8a0caa-7eed-4299-b763-2c0ba621e195","ios":"levelo://app?vid=0e8a0caa-7eed-4299-b763-2c0ba621e195"},"vehicle_type_id":"4","last_reported":1700358810,"current_range_meters":11600,"station_id":"ce4bhqh2rcd13ifvqhmg","pricing_plan_id":"free"},{"bike_id":"701f6ad7-a803-44bc-901c-8e6bb8f40c0b","system_id":"levelo_inurba_marseille","lat":43.278401,"lon":5.392152,"is_reserved":false,"is_disabled":false,"rental_uris":{"android":"levelo://app?vid=701f6ad7-a803-44bc-901c-8e6bb8f40c0b","ios":"levelo://app?vid=701f6ad7-a803-44bc-901c-8e6bb8f40c0b"},"vehicle_type_id":"4","last_reported":1700358810,"current_range_meters":24000,"station_id":"ce4bhjp2rcd13ifvqga0","pricing_plan_id":"free"},{"bike_id":"d69994bb-c32a-48c3-9c4a-3b835490a2ba","system_id":"levelo_inurba_marseille","lat":43.279952,"lon":5.400085,"is_reserved":false,"is_disabled":false,"rental_uris":{"android":"levelo://app?vid=d69994bb-c32a-48c3-9c4a-3b835490a2ba","ios":"levelo://app?vid=d69994bb-c32a-48c3-9c4a-3b835490a2ba"},"vehicle_type_id":"4","last_reported":1700358810,"current_range_meters":27600,"station_id":"ce4bho92rcd13ifvqh4g","pricing_plan_id":"free"},{"bike_id":"e6d4981d-66fd-40f8-9520-f7addfae3aee","system_id":"levelo_inurba_marseille","lat":43.27993,"lon":5.40017,"is_reserved":false,"is_disabled":false,"rental_uris":{"android":"levelo://app?vid=e6d4981d-66fd-40f8-9520-f7addfae3aee","ios":"levelo://app?vid=e6d4981d-66fd-40f8-9520-f7addfae3aee"},"vehicle_type_id":"4","last_reported":1700358810,"current_range_meters":20400,"station_id":"ce4bho92rcd13ifvqh4g","pricing_plan_id":"free"},{"bike_id":"1c489e8f-9c52-4563-a1a2-18535a1743aa","system_id":"levelo_inurba_marseille","lat":43.27978,"lon":5.40036,"is_reserved":false,"is_disabled":false,"rental_uris":{"android":"levelo://app?vid=1c489e8f-9c52-4563-a1a2-18535a1743aa","ios":"levelo://app?vid=1c489e8f-9c52-4563-a1a2-18535a1743aa"},"vehicle_type_id":"4","last_reported":1700358810,"current_range_meters":31200,"station_id":"ce4bho92rcd13ifvqh4g","pricing_plan_id":"free"},{"bike_id":"eafeb385-8734-4d6e-872f-817338dfdd8c","system_id":"levelo_inurba_marseille","lat":43.317121,"lon":5.423936,"is_reserved":false,"is_disabled":false,"rental_uris":{"android":"levelo://app?vid=eafeb385-8734-4d6e-872f-817338dfdd8c","ios":"levelo://app?vid=eafeb385-8734-4d6e-872f-817338dfdd8c"},"vehicle_type_id":"4","last_reported":1700358810,"current_range_meters":0,"station_id":"ce4bhp92rcd13ifvqhbg","pricing_plan_id":"free"},{"bike_id":"2b211598-c6f8-4e22-9ff6-5fa6873b8d02","system_id":"levelo_inurba_marseille","lat":43.317121,"lon":5.423936,"is_reserved":false,"is_disabled":false,"rental_uris":{"android":"levelo://app?vid=2b211598-c6f8-4e22-9ff6-5fa6873b8d02","ios":"levelo://app?vid=2b211598-c6f8-4e22-9ff6-5fa6873b8d02"},"vehicle_type_id":"4","last_reported":1700358810,"current_range_meters":10800,"station_id":"ce4bhp92rcd13ifvqhbg","pricing_plan_id":"free"},{"bike_id":"6dccf5ff-008f-4fa6-879b-877b5684073e","system_id":"levelo_inurba_marseille","lat":43.340804,"lon":5.410219,"is_reserved":false,"is_disabled":false,"rental_uris":{"android":"levelo://app?vid=6dccf5ff-008f-4fa6-879b-877b5684073e","ios":"levelo://app?vid=6dccf5ff-008f-4fa6-879b-877b5684073e"},"vehicle_type_id":"4","last_reported":1700358810,"current_range_meters":16000,"station_id":"ce4bhqh2rcd13ifvqhlg","pricing_plan_id":"free"},{"bike_id":"33573f9b-da60-45a9-a9e9-19a3ae09c8b3","system_id":"levelo_inurba_marseille","lat":43.340804,"lon":5.410219,"is_reserved":false,"is_disabled":false,"rental_uris":{"android":"levelo://app?vid=33573f9b-da60-45a9-a9e9-19a3ae09c8b3","ios":"levelo://app?vid=33573f9b-da60-45a9-a9e9-19a3ae09c8b3"},"vehicle_type_id":"4","last_reported":1700358810,"current_range_meters":31200,"station_id":"ce4bhqh2rcd13ifvqhlg","pricing_plan_id":"free"},{"bike_id":"dd454d04-95d8-4be7-b84e-4fbf0f487480","system_id":"levelo_inurba_marseille","lat":43.340804,"lon":5.410219,"is_reserved":false,"is_disabled":false,"rental_uris":{"android":"levelo://app?vid=dd454d04-95d8-4be7-b84e-4fbf0f487480","ios":"levelo://app?vid=dd454d04-95d8-4be7-b84e-4fbf0f487480"},"vehicle_type_id":"4","last_reported":1700358810,"current_range_meters":31200,"station_id":"ce4bhqh2rcd13ifvqhlg","pricing_plan_id":"free"},{"bike_id":"d40bdb48-6ed1-4c9e-8da7-6814ed463183","system_id":"levelo_inurba_marseille","lat":43.340804,"lon":5.410219,"is_reserved":false,"is_disabled":false,"rental_uris":{"android":"levelo://app?vid=d40bdb48-6ed1-4c9e-8da7-6814ed463183","ios":"levelo://app?vid=d40bdb48-6ed1-4c9e-8da7-6814ed463183"},"vehicle_type_id":"4","last_reported":1700358810,"current_range_meters":0,"station_id":"ce4bhqh2rcd13ifvqhlg","pricing_plan_id":"free"},{"bike_id":"78bcfa10-507e-4cf8-aae4-239e691ce53f","system_id":"levelo_inurba_marseille","lat":43.340804,"lon":5.410219,"is_reserved":false,"is_disabled":false,"rental_uris":{"android":"levelo://app?vid=78bcfa10-507e-4cf8-aae4-239e691ce53f","ios":"levelo://app?vid=78bcfa10-507e-4cf8-aae4-239e691ce53f"},"vehicle_type_id":"4","last_reported":1700358810,"current_range_meters":22800,"station_id":"ce4bhqh2rcd13ifvqhlg","pricing_plan_id":"free"},{"bike_id":"ce542890-8717-4995-89d1-bfd21ca58cd1","system_id":"levelo_inurba_marseille","lat":43.304096,"lon":5.425385,"is_reserved":false,"is_disabled":false,"rental_uris":{"android":"levelo://app?vid=ce542890-8717-4995-89d1-bfd21ca58cd1","ios":"levelo://app?vid=ce542890-8717-4995-89d1-bfd21ca58cd1"},"vehicle_type_id":"4","last_reported":1700358810,"current_range_meters":12800,"station_id":"ce4bhoh2rcd13ifvqh6g","pricing_plan_id":"free"},{"bike_id":"3fdcfd14-ed9c-44ba-bb6c-a0d4bd28195c","system_id":"levelo_inurba_marseille","lat":43.295511,"lon":5.422926,"is_reserved":false,"is_disabled":false,"rental_uris":{"android":"levelo://app?vid=3fdcfd14-ed9c-44ba-bb6c-a0d4bd28195c","ios":"levelo://app?vid=3fdcfd14-ed9c-44ba-bb6c-a0d4bd28195c"},"vehicle_type_id":"4","last_reported":1700358810,"current_range_meters":2800,"station_id":"ce4bhph2rcd13ifvqhdg","pricing_plan_id":"free"},{"bike_id":"63157272-42df-44d6-a5c3-b32ed5cb4e6d","system_id":"levelo_inurba_marseille","lat":43.295523,"lon":5.422926,"is_reserved":false,"is_disabled":false,"rental_uris":{"android":"levelo://app?vid=63157272-42df-44d6-a5c3-b32ed5cb4e6d","ios":"levelo://app?vid=63157272-42df-44d6-a5c3-b32ed5cb4e6d"},"vehicle_type_id":"4","last_reported":1700358810,"current_range_meters":19200,"station_id":"ce4bhph2rcd13ifvqhdg","pricing_plan_id":"free"},{"bike_id":"721c461c-80d9-45e9-9fca-6dccd3dc550a","system_id":"levelo_inurba_marseille","lat":43.295511,"lon":5.422926,"is_reserved":false,"is_disabled":false,"rental_uris":{"android":"levelo://app?vid=721c461c-80d9-45e9-9fca-6dccd3dc550a","ios":"levelo://app?vid=721c461c-80d9-45e9-9fca-6dccd3dc550a"},"vehicle_type_id":"4","last_reported":1700358810,"current_range_meters":16800,"station_id":"ce4bhph2rcd13ifvqhdg","pricing_plan_id":"free"},{"bike_id":"f8f5619a-a183-461d-b100-453fb972fcd4","system_id":"levelo_inurba_marseille","lat":43.272118,"lon":5.391758,"is_reserved":false,"is_disabled":false,"rental_uris":{"android":"levelo://app?vid=f8f5619a-a183-461d-b100-453fb972fcd4","ios":"levelo://app?vid=f8f5619a-a183-461d-b100-453fb972fcd4"},"vehicle_type_id":"4","last_reported":1700358810,"current_range_meters":23200,"station_id":"ce4bhhp2rcd13ifvqfm0","pricing_plan_id":"free"},{"bike_id":"139753b1-0b83-4c3a-80f1-5052bac15461","system_id":"levelo_inurba_marseille","lat":43.272083,"lon":5.392661,"is_reserved":false,"is_disabled":false,"rental_uris":{"android":"levelo://app?vid=139753b1-0b83-4c3a-80f1-5052bac15461","ios":"levelo://app?vid=139753b1-0b83-4c3a-80f1-5052bac15461"},"vehicle_type_id":"4","last_reported":1700358810,"current_range_meters":8800,"station_id":"","pricing_plan_id":"free"},{"bike_id":"fe139271-7817-4645-9ec4-f7eee743e805","system_id":"levelo_inurba_marseille","lat":43.271896,"lon":5.392307,"is_reserved":false,"is_disabled":false,"rental_uris":{"android":"levelo://app?vid=fe139271-7817-4645-9ec4-f7eee743e805","ios":"levelo://app?vid=fe139271-7817-4645-9ec4-f7eee743e805"},"vehicle_type_id":"4","last_reported":1700358810,"current_range_meters":0,"station_id":"ce4bhhp2rcd13ifvqfm0","pricing_plan_id":"free"},{"bike_id":"f0ed4531-078e-42fb-a007-3ed80505eb54","system_id":"levelo_inurba_marseille","lat":43.271891,"lon":5.392412,"is_reserved":false,"is_disabled":false,"rental_uris":{"android":"levelo://app?vid=f0ed4531-078e-42fb-a007-3ed80505eb54","ios":"levelo://app?vid=f0ed4531-078e-42fb-a007-3ed80505eb54"},"vehicle_type_id":"4","last_reported":1700358810,"current_range_meters":5200,"station_id":"","pricing_plan_id":"free"},{"bike_id":"f9aa93c7-ef9b-4c09-b88b-3c4a52c1051f","system_id":"levelo_inurba_marseille","lat":43.278128,"lon":5.407195,"is_reserved":false,"is_disabled":false,"rental_uris":{"android":"levelo://app?vid=f9aa93c7-ef9b-4c09-b88b-3c4a52c1051f","ios":"levelo://app?vid=f9aa93c7-ef9b-4c09-b88b-3c4a52c1051f"},"vehicle_type_id":"4","last_reported":1700358810,"current_range_meters":30000,"station_id":"ce4bhnh2rcd13ifvqgtg","pricing_plan_id":"free"},{"bike_id":"9a55cd1f-4e87-4e91-b961-3376adeb8de9","system_id":"levelo_inurba_marseille","lat":43.27939,"lon":5.41038,"is_reserved":false,"is_disabled":false,"rental_uris":{"android":"levelo://app?vid=9a55cd1f-4e87-4e91-b961-3376adeb8de9","ios":"levelo://app?vid=9a55cd1f-4e87-4e91-b961-3376adeb8de9"},"vehicle_type_id":"4","last_reported":1700358810,"current_range_meters":21600,"station_id":"ce4bhnp2rcd13ifvqh0g","pricing_plan_id":"free"},{"bike_id":"8896c5a0-7832-4d5f-b9a4-f75aa1a0ba71","system_id":"levelo_inurba_marseille","lat":43.279465,"lon":5.410561,"is_reserved":false,"is_disabled":false,"rental_uris":{"android":"levelo://app?vid=8896c5a0-7832-4d5f-b9a4-f75aa1a0ba71","ios":"levelo://app?vid=8896c5a0-7832-4d5f-b9a4-f75aa1a0ba71"},"vehicle_type_id":"4","last_reported":1700358810,"current_range_meters":19200,"station_id":"ce4bhnp2rcd13ifvqh0g","pricing_plan_id":"free"},{"bike_id":"c7758cb2-2a45-4f89-aa5c-0e391d845c76","system_id":"levelo_inurba_marseille","lat":43.326053,"lon":5.429943,"is_reserved":false,"is_disabled":false,"rental_uris":{"android":"levelo://app?vid=c7758cb2-2a45-4f89-aa5c-0e391d845c76","ios":"levelo://app?vid=c7758cb2-2a45-4f89-aa5c-0e391d845c76"},"vehicle_type_id":"4","last_reported":1700358810,"current_range_meters":2000,"station_id":"","pricing_plan_id":"free"},{"bike_id":"42871d3b-8c03-490f-baf1-f4b57c44a331","system_id":"levelo_inurba_marseille","lat":43.326569,"lon":5.430586,"is_reserved":false,"is_disabled":false,"rental_uris":{"android":"levelo://app?vid=42871d3b-8c03-490f-baf1-f4b57c44a331","ios":"levelo://app?vid=42871d3b-8c03-490f-baf1-f4b57c44a331"},"vehicle_type_id":"4","last_reported":1700358810,"current_range_meters":16000,"station_id":"","pricing_plan_id":"free"},{"bike_id":"17b17efc-08f5-465a-98d7-abc9fe108359","system_id":"levelo_inurba_marseille","lat":43.267966,"lon":5.393976,"is_reserved":false,"is_disabled":false,"rental_uris":{"android":"levelo://app?vid=17b17efc-08f5-465a-98d7-abc9fe108359","ios":"levelo://app?vid=17b17efc-08f5-465a-98d7-abc9fe108359"},"vehicle_type_id":"4","last_reported":1700358810,"current_range_meters":12000,"station_id":"ce4bhh12rcd13ifvqfg0","pricing_plan_id":"free"},{"bike_id":"a6532628-ce2c-4921-ae29-895cbeed37ef","system_id":"levelo_inurba_marseille","lat":43.271388,"lon":5.409269,"is_reserved":false,"is_disabled":false,"rental_uris":{"android":"levelo://app?vid=a6532628-ce2c-4921-ae29-895cbeed37ef","ios":"levelo://app?vid=a6532628-ce2c-4921-ae29-895cbeed37ef"},"vehicle_type_id":"4","last_reported":1700358810,"current_range_meters":27600,"station_id":"ce4bhl12rcd13ifvqgf0","pricing_plan_id":"free"},{"bike_id":"67b37544-8003-4bef-8a27-8cfbddc8ad58","system_id":"levelo_inurba_marseille","lat":43.267959,"lon":5.402687,"is_reserved":false,"is_disabled":false,"rental_uris":{"android":"levelo://app?vid=67b37544-8003-4bef-8a27-8cfbddc8ad58","ios":"levelo://app?vid=67b37544-8003-4bef-8a27-8cfbddc8ad58"},"vehicle_type_id":"4","last_reported":1700358810,"current_range_meters":27600,"station_id":"ce501612rcd8frsf0b60","pricing_plan_id":"free"},{"bike_id":"74ce853b-0d8b-42c9-81c8-17a7564a4b34","system_id":"levelo_inurba_marseille","lat":43.31725,"lon":5.43786,"is_reserved":false,"is_disabled":false,"rental_uris":{"android":"levelo://app?vid=74ce853b-0d8b-42c9-81c8-17a7564a4b34","ios":"levelo://app?vid=74ce853b-0d8b-42c9-81c8-17a7564a4b34"},"vehicle_type_id":"4","last_reported":1700358810,"current_range_meters":16400,"station_id":"","pricing_plan_id":"free"},{"bike_id":"34c356c7-6d41-4c28-bf15-c6ff08d36598","system_id":"levelo_inurba_marseille","lat":43.29892,"lon":5.436555,"is_reserved":false,"is_disabled":false,"rental_uris":{"android":"levelo://app?vid=34c356c7-6d41-4c28-bf15-c6ff08d36598","ios":"levelo://app?vid=34c356c7-6d41-4c28-bf15-c6ff08d36598"},"vehicle_type_id":"4","last_reported":1700358810,"current_range_meters":22400,"station_id":"ce4bhpp2rcd13ifvqhfg","pricing_plan_id":"free"},{"bike_id":"9ae96c3a-bf60-4cff-88ed-d593e21791ef","system_id":"levelo_inurba_marseille","lat":43.29898,"lon":5.4367,"is_reserved":false,"is_disabled":false,"rental_uris":{"android":"levelo://app?vid=9ae96c3a-bf60-4cff-88ed-d593e21791ef","ios":"levelo://app?vid=9ae96c3a-bf60-4cff-88ed-d593e21791ef"},"vehicle_type_id":"4","last_reported":1700358810,"current_range_meters":25200,"station_id":"ce4bhpp2rcd13ifvqhfg","pricing_plan_id":"free"},{"bike_id":"abadc828-69fe-497b-b711-e5360a68b2c4","system_id":"levelo_inurba_marseille","lat":43.29895,"lon":5.436719,"is_reserved":false,"is_disabled":false,"rental_uris":{"android":"levelo://app?vid=abadc828-69fe-497b-b711-e5360a68b2c4","ios":"levelo://app?vid=abadc828-69fe-497b-b711-e5360a68b2c4"},"vehicle_type_id":"4","last_reported":1700358810,"current_range_meters":22800,"station_id":"ce4bhpp2rcd13ifvqhfg","pricing_plan_id":"free"},{"bike_id":"dfebeb8d-f976-47ff-99b9-1894168be217","system_id":"levelo_inurba_marseille","lat":43.281548,"lon":5.42643,"is_reserved":false,"is_disabled":false,"rental_uris":{"android":"levelo://app?vid=dfebeb8d-f976-47ff-99b9-1894168be217","ios":"levelo://app?vid=dfebeb8d-f976-47ff-99b9-1894168be217"},"vehicle_type_id":"4","last_reported":1700358810,"current_range_meters":28800,"station_id":"ce4bhnh2rcd13ifvqgug","pricing_plan_id":"free"},{"bike_id":"e0b3ec2d-fda2-40ca-9072-03a4797bd40f","system_id":"levelo_inurba_marseille","lat":43.281548,"lon":5.42643,"is_reserved":false,"is_disabled":false,"rental_uris":{"android":"levelo://app?vid=e0b3ec2d-fda2-40ca-9072-03a4797bd40f","ios":"levelo://app?vid=e0b3ec2d-fda2-40ca-9072-03a4797bd40f"},"vehicle_type_id":"4","last_reported":1700358810,"current_range_meters":30000,"station_id":"ce4bhnh2rcd13ifvqgug","pricing_plan_id":"free"},{"bike_id":"c15cbfe4-6e79-4293-b2f2-eee731f9c6c2","system_id":"levelo_inurba_marseille","lat":43.2607,"lon":5.393983,"is_reserved":false,"is_disabled":false,"rental_uris":{"android":"levelo://app?vid=c15cbfe4-6e79-4293-b2f2-eee731f9c6c2","ios":"levelo://app?vid=c15cbfe4-6e79-4293-b2f2-eee731f9c6c2"},"vehicle_type_id":"4","last_reported":1700358810,"current_range_meters":0,"station_id":"ce4bhh92rcd13ifvqfj0","pricing_plan_id":"free"},{"bike_id":"039398bb-8f48-4a09-90e4-c695a075e1b2","system_id":"levelo_inurba_marseille","lat":43.275028,"lon":5.424534,"is_reserved":false,"is_disabled":false,"rental_uris":{"android":"levelo://app?vid=039398bb-8f48-4a09-90e4-c695a075e1b2","ios":"levelo://app?vid=039398bb-8f48-4a09-90e4-c695a075e1b2"},"vehicle_type_id":"4","last_reported":1700358810,"current_range_meters":24000,"station_id":"ce4bhn92rcd13ifvqgrg","pricing_plan_id":"free"},{"bike_id":"91b3c4bf-7b19-45fb-b809-6f886f9aa480","system_id":"levelo_inurba_marseille","lat":43.275028,"lon":5.424534,"is_reserved":false,"is_disabled":false,"rental_uris":{"android":"levelo://app?vid=91b3c4bf-7b19-45fb-b809-6f886f9aa480","ios":"levelo://app?vid=91b3c4bf-7b19-45fb-b809-6f886f9aa480"},"vehicle_type_id":"4","last_reported":1700358810,"current_range_meters":10000,"station_id":"ce4bhn92rcd13ifvqgrg","pricing_plan_id":"free"},{"bike_id":"59c9bb6b-f70f-4f77-b590-86bbfd0d854d","system_id":"levelo_inurba_marseille","lat":43.275028,"lon":5.424534,"is_reserved":false,"is_disabled":false,"rental_uris":{"android":"levelo://app?vid=59c9bb6b-f70f-4f77-b590-86bbfd0d854d","ios":"levelo://app?vid=59c9bb6b-f70f-4f77-b590-86bbfd0d854d"},"vehicle_type_id":"4","last_reported":1700358810,"current_range_meters":30400,"station_id":"ce4bhn92rcd13ifvqgrg","pricing_plan_id":"free"},{"bike_id":"29611ddf-2142-42d8-a93f-205ca8309b2b","system_id":"levelo_inurba_marseille","lat":43.260909,"lon":5.397591,"is_reserved":false,"is_disabled":false,"rental_uris":{"android":"levelo://app?vid=29611ddf-2142-42d8-a93f-205ca8309b2b","ios":"levelo://app?vid=29611ddf-2142-42d8-a93f-205ca8309b2b"},"vehicle_type_id":"4","last_reported":1700358810,"current_range_meters":0,"station_id":"ce4bhi12rcd13ifvqfq0","pricing_plan_id":"free"},{"bike_id":"83adb50e-13ad-4a0a-b679-c8ddf78a1b0a","system_id":"levelo_inurba_marseille","lat":43.275028,"lon":5.424534,"is_reserved":false,"is_disabled":false,"rental_uris":{"android":"levelo://app?vid=83adb50e-13ad-4a0a-b679-c8ddf78a1b0a","ios":"levelo://app?vid=83adb50e-13ad-4a0a-b679-c8ddf78a1b0a"},"vehicle_type_id":"4","last_reported":1700358810,"current_range_meters":28400,"station_id":"ce4bhn92rcd13ifvqgrg","pricing_plan_id":"free"},{"bike_id":"4a3c6d76-70b9-4678-b390-38b145ac74b2","system_id":"levelo_inurba_marseille","lat":43.270721,"lon":5.422764,"is_reserved":false,"is_disabled":false,"rental_uris":{"android":"levelo://app?vid=4a3c6d76-70b9-4678-b390-38b145ac74b2","ios":"levelo://app?vid=4a3c6d76-70b9-4678-b390-38b145ac74b2"},"vehicle_type_id":"4","last_reported":1700358810,"current_range_meters":16000,"station_id":"ce4bhk92rcd13ifvqgb0","pricing_plan_id":"free"},{"bike_id":"956f93f8-b714-4b88-a26b-a27fe26a895d","system_id":"levelo_inurba_marseille","lat":43.270721,"lon":5.422764,"is_reserved":false,"is_disabled":false,"rental_uris":{"android":"levelo://app?vid=956f93f8-b714-4b88-a26b-a27fe26a895d","ios":"levelo://app?vid=956f93f8-b714-4b88-a26b-a27fe26a895d"},"vehicle_type_id":"4","last_reported":1700358810,"current_range_meters":30800,"station_id":"ce4bhk92rcd13ifvqgb0","pricing_plan_id":"free"},{"bike_id":"1aad1190-3717-48c1-b218-3940ae3995c4","system_id":"levelo_inurba_marseille","lat":43.270721,"lon":5.422764,"is_reserved":false,"is_disabled":false,"rental_uris":{"android":"levelo://app?vid=1aad1190-3717-48c1-b218-3940ae3995c4","ios":"levelo://app?vid=1aad1190-3717-48c1-b218-3940ae3995c4"},"vehicle_type_id":"4","last_reported":1700358810,"current_range_meters":31600,"station_id":"ce4bhk92rcd13ifvqgb0","pricing_plan_id":"free"},{"bike_id":"8e3650f8-6bc0-42f9-9ba4-3111e7b34885","system_id":"levelo_inurba_marseille","lat":43.25934,"lon":5.40906,"is_reserved":false,"is_disabled":false,"rental_uris":{"android":"levelo://app?vid=8e3650f8-6bc0-42f9-9ba4-3111e7b34885","ios":"levelo://app?vid=8e3650f8-6bc0-42f9-9ba4-3111e7b34885"},"vehicle_type_id":"4","last_reported":1700358810,"current_range_meters":19600,"station_id":"ce4bhm92rcd13ifvqglg","pricing_plan_id":"free"},{"bike_id":"a74d4384-8289-4f68-90bb-e1444bf0302f","system_id":"levelo_inurba_marseille","lat":43.259291,"lon":5.409041,"is_reserved":false,"is_disabled":false,"rental_uris":{"android":"levelo://app?vid=a74d4384-8289-4f68-90bb-e1444bf0302f","ios":"levelo://app?vid=a74d4384-8289-4f68-90bb-e1444bf0302f"},"vehicle_type_id":"4","last_reported":1700358810,"current_range_meters":30800,"station_id":"ce4bhm92rcd13ifvqglg","pricing_plan_id":"free"},{"bike_id":"762eb4ca-7b56-490a-bb37-65115b9449c7","system_id":"levelo_inurba_marseille","lat":43.259322,"lon":5.409136,"is_reserved":false,"is_disabled":false,"rental_uris":{"android":"levelo://app?vid=762eb4ca-7b56-490a-bb37-65115b9449c7","ios":"levelo://app?vid=762eb4ca-7b56-490a-bb37-65115b9449c7"},"vehicle_type_id":"4","last_reported":1700358810,"current_range_meters":27600,"station_id":"ce4bhm92rcd13ifvqglg","pricing_plan_id":"free"},{"bike_id":"fb0dbade-974d-4dbf-abb0-3a784f74d11d","system_id":"levelo_inurba_marseille","lat":43.25934,"lon":5.40918,"is_reserved":false,"is_disabled":false,"rental_uris":{"android":"levelo://app?vid=fb0dbade-974d-4dbf-abb0-3a784f74d11d","ios":"levelo://app?vid=fb0dbade-974d-4dbf-abb0-3a784f74d11d"},"vehicle_type_id":"4","last_reported":1700358810,"current_range_meters":31200,"station_id":"ce4bhm92rcd13ifvqglg","pricing_plan_id":"free"},{"bike_id":"3d646212-0a7e-4cb8-93c0-7f3891ab2f3c","system_id":"levelo_inurba_marseille","lat":43.259282,"lon":5.409066,"is_reserved":false,"is_disabled":false,"rental_uris":{"android":"levelo://app?vid=3d646212-0a7e-4cb8-93c0-7f3891ab2f3c","ios":"levelo://app?vid=3d646212-0a7e-4cb8-93c0-7f3891ab2f3c"},"vehicle_type_id":"4","last_reported":1700358810,"current_range_meters":31200,"station_id":"ce4bhm92rcd13ifvqglg","pricing_plan_id":"free"},{"bike_id":"eda73509-5f55-4b2d-95fc-67f3395f85c0","system_id":"levelo_inurba_marseille","lat":43.257287,"lon":5.411055,"is_reserved":false,"is_disabled":false,"rental_uris":{"android":"levelo://app?vid=eda73509-5f55-4b2d-95fc-67f3395f85c0","ios":"levelo://app?vid=eda73509-5f55-4b2d-95fc-67f3395f85c0"},"vehicle_type_id":"4","last_reported":1700358810,"current_range_meters":0,"station_id":"ce4bhkp2rcd13ifvqgd0","pricing_plan_id":"free"},{"bike_id":"7ad27884-6005-4573-b788-863e7849e691","system_id":"levelo_inurba_marseille","lat":43.257079,"lon":5.411051,"is_reserved":false,"is_disabled":false,"rental_uris":{"android":"levelo://app?vid=7ad27884-6005-4573-b788-863e7849e691","ios":"levelo://app?vid=7ad27884-6005-4573-b788-863e7849e691"},"vehicle_type_id":"4","last_reported":1700358810,"current_range_meters":800,"station_id":"ce4bhkp2rcd13ifvqgd0","pricing_plan_id":"free"},{"bike_id":"c066fd2a-8fee-4202-8f47-33f36da84f5d","system_id":"levelo_inurba_marseille","lat":43.257079,"lon":5.411051,"is_reserved":false,"is_disabled":false,"rental_uris":{"android":"levelo://app?vid=c066fd2a-8fee-4202-8f47-33f36da84f5d","ios":"levelo://app?vid=c066fd2a-8fee-4202-8f47-33f36da84f5d"},"vehicle_type_id":"4","last_reported":1700358810,"current_range_meters":31200,"station_id":"ce4bhkp2rcd13ifvqgd0","pricing_plan_id":"free"},{"bike_id":"ff850b68-f296-481f-a510-06fb6caac6ac","system_id":"levelo_inurba_marseille","lat":43.257079,"lon":5.411051,"is_reserved":false,"is_disabled":false,"rental_uris":{"android":"levelo://app?vid=ff850b68-f296-481f-a510-06fb6caac6ac","ios":"levelo://app?vid=ff850b68-f296-481f-a510-06fb6caac6ac"},"vehicle_type_id":"4","last_reported":1700358810,"current_range_meters":13600,"station_id":"ce4bhkp2rcd13ifvqgd0","pricing_plan_id":"free"},{"bike_id":"c10a45f0-fd5c-43b3-9ba6-e20cf123c8d7","system_id":"levelo_inurba_marseille","lat":43.2479,"lon":5.374457,"is_reserved":false,"is_disabled":false,"rental_uris":{"android":"levelo://app?vid=c10a45f0-fd5c-43b3-9ba6-e20cf123c8d7","ios":"levelo://app?vid=c10a45f0-fd5c-43b3-9ba6-e20cf123c8d7"},"vehicle_type_id":"4","last_reported":1700358810,"current_range_meters":11200,"station_id":"ce4bhgh2rcd13ifvqfb0","pricing_plan_id":"free"},{"bike_id":"a65fbc74-1667-450f-b52b-651e0c11848a","system_id":"levelo_inurba_marseille","lat":43.2479,"lon":5.374457,"is_reserved":false,"is_disabled":false,"rental_uris":{"android":"levelo://app?vid=a65fbc74-1667-450f-b52b-651e0c11848a","ios":"levelo://app?vid=a65fbc74-1667-450f-b52b-651e0c11848a"},"vehicle_type_id":"4","last_reported":1700358810,"current_range_meters":13600,"station_id":"ce4bhgh2rcd13ifvqfb0","pricing_plan_id":"free"},{"bike_id":"780fe930-83ae-4c52-8d84-5cd0608661e3","system_id":"levelo_inurba_marseille","lat":43.250966,"lon":5.395186,"is_reserved":false,"is_disabled":false,"rental_uris":{"android":"levelo://app?vid=780fe930-83ae-4c52-8d84-5cd0608661e3","ios":"levelo://app?vid=780fe930-83ae-4c52-8d84-5cd0608661e3"},"vehicle_type_id":"4","last_reported":1700358810,"current_range_meters":26400,"station_id":"ce4bhm12rcd13ifvqgkg","pricing_plan_id":"free"},{"bike_id":"24d788c2-82d6-404e-b7a9-e2d4b99dc5be","system_id":"levelo_inurba_marseille","lat":43.25102,"lon":5.403214,"is_reserved":false,"is_disabled":false,"rental_uris":{"android":"levelo://app?vid=24d788c2-82d6-404e-b7a9-e2d4b99dc5be","ios":"levelo://app?vid=24d788c2-82d6-404e-b7a9-e2d4b99dc5be"},"vehicle_type_id":"4","last_reported":1700358810,"current_range_meters":8000,"station_id":"ce4bhlh2rcd13ifvqgig","pricing_plan_id":"free"},{"bike_id":"086614bc-dcbb-40d3-a6fe-9c8553503908","system_id":"levelo_inurba_marseille","lat":43.246467,"lon":5.388984,"is_reserved":false,"is_disabled":false,"rental_uris":{"android":"levelo://app?vid=086614bc-dcbb-40d3-a6fe-9c8553503908","ios":"levelo://app?vid=086614bc-dcbb-40d3-a6fe-9c8553503908"},"vehicle_type_id":"4","last_reported":1700358810,"current_range_meters":17600,"station_id":"ce4bhg12rcd13ifvqf60","pricing_plan_id":"free"},{"bike_id":"2e3af95f-ee41-421d-9973-d1eed6305545","system_id":"levelo_inurba_marseille","lat":43.243884,"lon":5.370736,"is_reserved":false,"is_disabled":false,"rental_uris":{"android":"levelo://app?vid=2e3af95f-ee41-421d-9973-d1eed6305545","ios":"levelo://app?vid=2e3af95f-ee41-421d-9973-d1eed6305545"},"vehicle_type_id":"4","last_reported":1700358810,"current_range_meters":31600,"station_id":"ce4bhhh2rcd13ifvqfk0","pricing_plan_id":"free"},{"bike_id":"73446ef3-effb-47fc-9a62-1c2ec7573e82","system_id":"levelo_inurba_marseille","lat":43.243884,"lon":5.370736,"is_reserved":false,"is_disabled":false,"rental_uris":{"android":"levelo://app?vid=73446ef3-effb-47fc-9a62-1c2ec7573e82","ios":"levelo://app?vid=73446ef3-effb-47fc-9a62-1c2ec7573e82"},"vehicle_type_id":"4","last_reported":1700358810,"current_range_meters":23600,"station_id":"ce4bhhh2rcd13ifvqfk0","pricing_plan_id":"free"},{"bike_id":"7c7c75f1-12a2-498c-b51e-c043506b237a","system_id":"levelo_inurba_marseille","lat":43.245581,"lon":5.395069,"is_reserved":false,"is_disabled":false,"rental_uris":{"android":"levelo://app?vid=7c7c75f1-12a2-498c-b51e-c043506b237a","ios":"levelo://app?vid=7c7c75f1-12a2-498c-b51e-c043506b237a"},"vehicle_type_id":"4","last_reported":1700358810,"current_range_meters":15600,"station_id":"ce4bhlp2rcd13ifvqgjg","pricing_plan_id":"free"},{"bike_id":"d2bd6a47-5856-4069-9e03-3769cd0f8353","system_id":"levelo_inurba_marseille","lat":43.245581,"lon":5.395069,"is_reserved":false,"is_disabled":false,"rental_uris":{"android":"levelo://app?vid=d2bd6a47-5856-4069-9e03-3769cd0f8353","ios":"levelo://app?vid=d2bd6a47-5856-4069-9e03-3769cd0f8353"},"vehicle_type_id":"4","last_reported":1700358810,"current_range_meters":10400,"station_id":"ce4bhlp2rcd13ifvqgjg","pricing_plan_id":"free"},{"bike_id":"ebb1ee23-44a8-4285-bb39-959531d28fd5","system_id":"levelo_inurba_marseille","lat":43.24072,"lon":5.37758,"is_reserved":false,"is_disabled":false,"rental_uris":{"android":"levelo://app?vid=ebb1ee23-44a8-4285-bb39-959531d28fd5","ios":"levelo://app?vid=ebb1ee23-44a8-4285-bb39-959531d28fd5"},"vehicle_type_id":"4","last_reported":1700358810,"current_range_meters":22800,"station_id":"ce4bhnp2rcd13ifvqgvg","pricing_plan_id":"free"},{"bike_id":"41f1196d-fa13-444e-a58b-9d83d946beb7","system_id":"levelo_inurba_marseille","lat":43.239588,"lon":5.366238,"is_reserved":false,"is_disabled":false,"rental_uris":{"android":"levelo://app?vid=41f1196d-fa13-444e-a58b-9d83d946beb7","ios":"levelo://app?vid=41f1196d-fa13-444e-a58b-9d83d946beb7"},"vehicle_type_id":"4","last_reported":1700358810,"current_range_meters":16800,"station_id":"ce4bhi12rcd13ifvqfp0","pricing_plan_id":"free"},{"bike_id":"0ad92559-ce7b-4f42-a92a-40dafdb893de","system_id":"levelo_inurba_marseille","lat":43.239588,"lon":5.366238,"is_reserved":false,"is_disabled":false,"rental_uris":{"android":"levelo://app?vid=0ad92559-ce7b-4f42-a92a-40dafdb893de","ios":"levelo://app?vid=0ad92559-ce7b-4f42-a92a-40dafdb893de"},"vehicle_type_id":"4","last_reported":1700358810,"current_range_meters":28400,"station_id":"ce4bhi12rcd13ifvqfp0","pricing_plan_id":"free"},{"bike_id":"9e840661-8e67-478b-972d-23cd21db3149","system_id":"levelo_inurba_marseille","lat":43.24181,"lon":5.39728,"is_reserved":false,"is_disabled":false,"rental_uris":{"android":"levelo://app?vid=9e840661-8e67-478b-972d-23cd21db3149","ios":"levelo://app?vid=9e840661-8e67-478b-972d-23cd21db3149"},"vehicle_type_id":"4","last_reported":1700358810,"current_range_meters":25600,"station_id":"ce4bhn12rcd13ifvqgpg","pricing_plan_id":"free"},{"bike_id":"07e8793f-b5c8-4815-95b2-cfd73adfc584","system_id":"levelo_inurba_marseille","lat":43.24179,"lon":5.39727,"is_reserved":false,"is_disabled":false,"rental_uris":{"android":"levelo://app?vid=07e8793f-b5c8-4815-95b2-cfd73adfc584","ios":"levelo://app?vid=07e8793f-b5c8-4815-95b2-cfd73adfc584"},"vehicle_type_id":"4","last_reported":1700358810,"current_range_meters":26000,"station_id":"ce4bhn12rcd13ifvqgpg","pricing_plan_id":"free"},{"bike_id":"4370869b-0c59-4e1b-b4c7-59bf3a7bc50e","system_id":"levelo_inurba_marseille","lat":43.241737,"lon":5.39724,"is_reserved":false,"is_disabled":false,"rental_uris":{"android":"levelo://app?vid=4370869b-0c59-4e1b-b4c7-59bf3a7bc50e","ios":"levelo://app?vid=4370869b-0c59-4e1b-b4c7-59bf3a7bc50e"},"vehicle_type_id":"4","last_reported":1700358810,"current_range_meters":16000,"station_id":"ce4bhn12rcd13ifvqgpg","pricing_plan_id":"free"},{"bike_id":"8961b0d1-502b-4df0-a3f3-cca7f1f0eb8c","system_id":"levelo_inurba_marseille","lat":43.241782,"lon":5.397261,"is_reserved":false,"is_disabled":false,"rental_uris":{"android":"levelo://app?vid=8961b0d1-502b-4df0-a3f3-cca7f1f0eb8c","ios":"levelo://app?vid=8961b0d1-502b-4df0-a3f3-cca7f1f0eb8c"},"vehicle_type_id":"4","last_reported":1700358810,"current_range_meters":10800,"station_id":"ce4bhn12rcd13ifvqgpg","pricing_plan_id":"free"},{"bike_id":"662f058d-46b1-4787-b52a-d29e98a28779","system_id":"levelo_inurba_marseille","lat":43.231919,"lon":5.355532,"is_reserved":false,"is_disabled":false,"rental_uris":{"android":"levelo://app?vid=662f058d-46b1-4787-b52a-d29e98a28779","ios":"levelo://app?vid=662f058d-46b1-4787-b52a-d29e98a28779"},"vehicle_type_id":"4","last_reported":1700358810,"current_range_meters":31200,"station_id":"ce4bhu92rcd13ifvqi70","pricing_plan_id":"free"},{"bike_id":"21e2e00e-8e23-4563-8bed-08400fc48e72","system_id":"levelo_inurba_marseille","lat":43.23189,"lon":5.399868,"is_reserved":false,"is_disabled":false,"rental_uris":{"android":"levelo://app?vid=21e2e00e-8e23-4563-8bed-08400fc48e72","ios":"levelo://app?vid=21e2e00e-8e23-4563-8bed-08400fc48e72"},"vehicle_type_id":"4","last_reported":1700358810,"current_range_meters":26400,"station_id":"ce4bhn12rcd13ifvqgqg","pricing_plan_id":"free"},{"bike_id":"486fecf0-765d-4eee-9a85-898f8aa27175","system_id":"levelo_inurba_marseille","lat":43.231793,"lon":5.400044,"is_reserved":false,"is_disabled":false,"rental_uris":{"android":"levelo://app?vid=486fecf0-765d-4eee-9a85-898f8aa27175","ios":"levelo://app?vid=486fecf0-765d-4eee-9a85-898f8aa27175"},"vehicle_type_id":"4","last_reported":1700358810,"current_range_meters":30000,"station_id":"ce4bhn12rcd13ifvqgqg","pricing_plan_id":"free"},{"bike_id":"fb647ab6-bdfe-4d43-8021-469b840e3f01","system_id":"levelo_inurba_marseille","lat":43.231794,"lon":5.400052,"is_reserved":false,"is_disabled":false,"rental_uris":{"android":"levelo://app?vid=fb647ab6-bdfe-4d43-8021-469b840e3f01","ios":"levelo://app?vid=fb647ab6-bdfe-4d43-8021-469b840e3f01"},"vehicle_type_id":"4","last_reported":1700358810,"current_range_meters":27600,"station_id":"ce4bhn12rcd13ifvqgqg","pricing_plan_id":"free"},{"bike_id":"f4a8cd9e-70db-4af1-b4c0-7aa0a7fac3fa","system_id":"levelo_inurba_marseille","lat":43.23186,"lon":5.399879,"is_reserved":false,"is_disabled":false,"rental_uris":{"android":"levelo://app?vid=f4a8cd9e-70db-4af1-b4c0-7aa0a7fac3fa","ios":"levelo://app?vid=f4a8cd9e-70db-4af1-b4c0-7aa0a7fac3fa"},"vehicle_type_id":"4","last_reported":1700358810,"current_range_meters":30000,"station_id":"ce4bhn12rcd13ifvqgqg","pricing_plan_id":"free"},{"bike_id":"67b0dae3-3730-48b7-8c1b-0817011fbdd2","system_id":"levelo_inurba_marseille","lat":43.231794,"lon":5.400052,"is_reserved":false,"is_disabled":false,"rental_uris":{"android":"levelo://app?vid=67b0dae3-3730-48b7-8c1b-0817011fbdd2","ios":"levelo://app?vid=67b0dae3-3730-48b7-8c1b-0817011fbdd2"},"vehicle_type_id":"4","last_reported":1700358810,"current_range_meters":4400,"station_id":"ce4bhn12rcd13ifvqgqg","pricing_plan_id":"free"},{"bike_id":"ad9d26be-fd61-4954-b04a-614ee9d33f7d","system_id":"levelo_inurba_marseille","lat":43.231794,"lon":5.400052,"is_reserved":false,"is_disabled":false,"rental_uris":{"android":"levelo://app?vid=ad9d26be-fd61-4954-b04a-614ee9d33f7d","ios":"levelo://app?vid=ad9d26be-fd61-4954-b04a-614ee9d33f7d"},"vehicle_type_id":"4","last_reported":1700358810,"current_range_meters":31200,"station_id":"ce4bhn12rcd13ifvqgqg","pricing_plan_id":"free"},{"bike_id":"fa9cc91c-c78c-4cb3-ab2e-3cc3c66a937c","system_id":"levelo_inurba_marseille","lat":43.231848,"lon":5.399882,"is_reserved":false,"is_disabled":false,"rental_uris":{"android":"levelo://app?vid=fa9cc91c-c78c-4cb3-ab2e-3cc3c66a937c","ios":"levelo://app?vid=fa9cc91c-c78c-4cb3-ab2e-3cc3c66a937c"},"vehicle_type_id":"4","last_reported":1700358810,"current_range_meters":20400,"station_id":"ce4bhn12rcd13ifvqgqg","pricing_plan_id":"free"},{"bike_id":"efc139d5-8bb1-4a6b-b437-01d31830d455","system_id":"levelo_inurba_marseille","lat":43.231794,"lon":5.400052,"is_reserved":false,"is_disabled":false,"rental_uris":{"android":"levelo://app?vid=efc139d5-8bb1-4a6b-b437-01d31830d455","ios":"levelo://app?vid=efc139d5-8bb1-4a6b-b437-01d31830d455"},"vehicle_type_id":"4","last_reported":1700358810,"current_range_meters":31200,"station_id":"ce4bhn12rcd13ifvqgqg","pricing_plan_id":"free"},{"bike_id":"5d8316f4-9b3b-4f22-8b0a-d975b6faa1c0","system_id":"levelo_inurba_marseille","lat":43.231793,"lon":5.400044,"is_reserved":false,"is_disabled":false,"rental_uris":{"android":"levelo://app?vid=5d8316f4-9b3b-4f22-8b0a-d975b6faa1c0","ios":"levelo://app?vid=5d8316f4-9b3b-4f22-8b0a-d975b6faa1c0"},"vehicle_type_id":"4","last_reported":1700358810,"current_range_meters":17600,"station_id":"ce4bhn12rcd13ifvqgqg","pricing_plan_id":"free"},{"bike_id":"7bc95a0e-72f8-4232-b877-46fe8e7f9e0c","system_id":"levelo_inurba_marseille","lat":43.231794,"lon":5.400052,"is_reserved":false,"is_disabled":false,"rental_uris":{"android":"levelo://app?vid=7bc95a0e-72f8-4232-b877-46fe8e7f9e0c","ios":"levelo://app?vid=7bc95a0e-72f8-4232-b877-46fe8e7f9e0c"},"vehicle_type_id":"4","last_reported":1700358810,"current_range_meters":31200,"station_id":"ce4bhn12rcd13ifvqgqg","pricing_plan_id":"free"},{"bike_id":"a77536b5-5a4a-4d26-b9d3-350ffe3416bd","system_id":"levelo_inurba_marseille","lat":43.231793,"lon":5.400044,"is_reserved":false,"is_disabled":false,"rental_uris":{"android":"levelo://app?vid=a77536b5-5a4a-4d26-b9d3-350ffe3416bd","ios":"levelo://app?vid=a77536b5-5a4a-4d26-b9d3-350ffe3416bd"},"vehicle_type_id":"4","last_reported":1700358810,"current_range_meters":9200,"station_id":"ce4bhn12rcd13ifvqgqg","pricing_plan_id":"free"},{"bike_id":"adac1971-5e73-41e6-9ade-b5ded0f026e7","system_id":"levelo_inurba_marseille","lat":43.231793,"lon":5.400044,"is_reserved":false,"is_disabled":false,"rental_uris":{"android":"levelo://app?vid=adac1971-5e73-41e6-9ade-b5ded0f026e7","ios":"levelo://app?vid=adac1971-5e73-41e6-9ade-b5ded0f026e7"},"vehicle_type_id":"4","last_reported":1700358810,"current_range_meters":30800,"station_id":"ce4bhn12rcd13ifvqgqg","pricing_plan_id":"free"},{"bike_id":"adaed5b2-5df4-4ff5-a8ef-af36cdca2a2f","system_id":"levelo_inurba_marseille","lat":43.231807,"lon":5.399918,"is_reserved":false,"is_disabled":false,"rental_uris":{"android":"levelo://app?vid=adaed5b2-5df4-4ff5-a8ef-af36cdca2a2f","ios":"levelo://app?vid=adaed5b2-5df4-4ff5-a8ef-af36cdca2a2f"},"vehicle_type_id":"4","last_reported":1700358810,"current_range_meters":1600,"station_id":"","pricing_plan_id":"free"},{"bike_id":"49f546c6-5a89-4d62-b0e6-0167a3bea35f","system_id":"levelo_inurba_marseille","lat":43.231562,"lon":5.436933,"is_reserved":false,"is_disabled":false,"rental_uris":{"android":"levelo://app?vid=49f546c6-5a89-4d62-b0e6-0167a3bea35f","ios":"levelo://app?vid=49f546c6-5a89-4d62-b0e6-0167a3bea35f"},"vehicle_type_id":"4","last_reported":1700358810,"current_range_meters":27200,"station_id":"ce4bhmp2rcd13ifvqgog","pricing_plan_id":"free"},{"bike_id":"ac753338-7ae7-484b-b345-d535336dbb1b","system_id":"levelo_inurba_marseille","lat":43.231562,"lon":5.436933,"is_reserved":false,"is_disabled":false,"rental_uris":{"android":"levelo://app?vid=ac753338-7ae7-484b-b345-d535336dbb1b","ios":"levelo://app?vid=ac753338-7ae7-484b-b345-d535336dbb1b"},"vehicle_type_id":"4","last_reported":1700358810,"current_range_meters":26800,"station_id":"ce4bhmp2rcd13ifvqgog","pricing_plan_id":"free"},{"bike_id":"fcc9c1b4-80ca-4133-961b-ee3a929ae0b3","system_id":"levelo_inurba_marseille","lat":43.231562,"lon":5.436933,"is_reserved":false,"is_disabled":false,"rental_uris":{"android":"levelo://app?vid=fcc9c1b4-80ca-4133-961b-ee3a929ae0b3","ios":"levelo://app?vid=fcc9c1b4-80ca-4133-961b-ee3a929ae0b3"},"vehicle_type_id":"4","last_reported":1700358810,"current_range_meters":22000,"station_id":"ce4bhmp2rcd13ifvqgog","pricing_plan_id":"free"},{"bike_id":"47a2736a-ee1f-4919-af93-2ccbd8ec90ca","system_id":"levelo_inurba_marseille","lat":43.231562,"lon":5.436933,"is_reserved":false,"is_disabled":false,"rental_uris":{"android":"levelo://app?vid=47a2736a-ee1f-4919-af93-2ccbd8ec90ca","ios":"levelo://app?vid=47a2736a-ee1f-4919-af93-2ccbd8ec90ca"},"vehicle_type_id":"4","last_reported":1700358810,"current_range_meters":12800,"station_id":"ce4bhmp2rcd13ifvqgog","pricing_plan_id":"free"},{"bike_id":"96c9b960-69c2-43ef-8595-a0d32e3cd3b8","system_id":"levelo_inurba_marseille","lat":43.23147,"lon":5.43719,"is_reserved":false,"is_disabled":false,"rental_uris":{"android":"levelo://app?vid=96c9b960-69c2-43ef-8595-a0d32e3cd3b8","ios":"levelo://app?vid=96c9b960-69c2-43ef-8595-a0d32e3cd3b8"},"vehicle_type_id":"4","last_reported":1700358810,"current_range_meters":13200,"station_id":"ce4bhmp2rcd13ifvqgog","pricing_plan_id":"free"}]}}