{"last_updated":1753369881,"ttl":60,"version":"2.2","data":{"bikes":[{"bike_id":"f0a87860-352d-42e5-b6e9-bf34dd4b9ff9","system_id":"levelo_inurba_marseille","lat":43.26572,"lon":5.40318,"is_reserved":false,"is_disabled":false,"rental_uris":{"android":"levelo://app?vid=f0a87860-352d-42e5-b6e9-bf34dd4b9ff9","ios":"levelo://app?vid=f0a87860-352d-42e5-b6e9-bf34dd4b9ff9"},"vehicle_type_id":"4","last_reported":1753369881,"current_range_meters":2800,"station_id":"","pricing_plan_id":"cebpf4jnsgd1na2vs0mg"},{"bike_id":"d2949f06-40b7-46da-bd5e-e0d95a8f94d2","system_id":"levelo_inurba_marseille","lat":43.30895,"lon":5.37189,"is_reserved":false,"is_disabled":false,"rental_uris":{"android":"levelo://app?vid=d2949f06-40b7-46da-bd5e-e0d95a8f94d2","ios":"levelo://app?vid=d2949f06-40b7-46da-bd5e-e0d95a8f94d2"},"vehicle_type_id":"4","last_reported":1753369881,"current_range_meters":2800,"station_id":"ce4bguh2rcd13ifvqckg","pricing_plan_id":"cebpf4jnsgd1na2vs0mg"},{"bike_id":"063920e3-3b7a-4bd7-97e7-5e94dcc96428","system_id":"levelo_inurba_marseille","lat":43.28698,"lon":5.39971,"is_reserved":false,"is_disabled":false,"rental_uris":{"android":"levelo://app?vid=063920e3-3b7a-4bd7-97e7-5e94dcc96428","ios":"levelo://app?vid=063920e3-3b7a-4bd7-97e7-5e94dcc96428"},"vehicle_type_id":"4","last_reported":1753369881,"current_range_meters":3600,"station_id":"ce4bho92rcd13ifvqh3g","pricing_plan_id":"cebpf4jnsgd1na2vs0mg"},{"bike_id":"9ae7d50c-a3ea-4136-8080-315c191e000a","system_id":"levelo_inurba_marseille","lat":43.2875,"lon":5.38425,"is_reserved":false,"is_disabled":false,"rental_uris":{"android":"levelo://app?vid=9ae7d50c-a3ea-4136-8080-315c191e000a","ios":"levelo://app?vid=9ae7d50c-a3ea-4136-8080-315c191e000a"},"vehicle_type_id":"4","last_reported":1753369881,"current_range_meters":3600,"station_id":"","pricing_plan_id":"cebpf4jnsgd1na2vs0mg"},{"bike_id":"74370d2b-7d46-43c2-814a-7254a1e936c2","system_id":"levelo_inurba_marseille","lat":43.29271,"lon":5.38447,"is_reserved":false,"is_disabled":false,"rental_uris":{"android":"levelo://app?vid=74370d2b-7d46-43c2-814a-7254a1e936c2","ios":"levelo://app?vid=74370d2b-7d46-43c2-814a-7254a1e936c2"},"vehicle_type_id":"4","last_reported":1753369881,"current_range_meters":3600,"station_id":"ce4bh692rcd13ifvqea0","pricing_plan_id":"cebpf4jnsgd1na2vs0mg"},{"bike_id":"c8cbe188-8c80-4aac-881d-65feb870e521","system_id":"levelo_inurba_marseille","lat":43.33034,"lon":5.38027,"is_reserved":false,"is_disabled":false,"rental_uris":{"android":"levelo://app?vid=c8cbe188-8c80-4aac-881d-65feb870e521","ios":"levelo://app?vid=c8cbe188-8c80-4aac-881d-65feb870e521"},"vehicle_type_id":"4","last_reported":1753369881,"current_range_meters":3600,"station_id":"","pricing_plan_id":"cebpf4jnsgd1na2vs0mg"},{"bike_id":"3e59e0c2-f62e-4128-8d33-937dc6fb7c4f","system_id":"levelo_inurba_marseille","lat":43.3188,"lon":5.4074,"is_reserved":false,"is_disabled":false,"rental_uris":{"android":"levelo://app?vid=3e59e0c2-f62e-4128-8d33-937dc6fb7c4f","ios":"levelo://app?vid=3e59e0c2-f62e-4128-8d33-937dc6fb7c4f"},"vehicle_type_id":"4","last_reported":1753369881,"current_range_meters":4000,"station_id":"ce4bhq12rcd13ifvqhig","pricing_plan_id":"cebpf4jnsgd1na2vs0mg"},{"bike_id":"12aa18e6-54b4-4f17-8d75-27573f932a0c","system_id":"levelo_inurba_marseille","lat":43.296823,"lon":5.372723,"is_reserved":false,"is_disabled":true,"rental_uris":{"android":"levelo://app?vid=12aa18e6-54b4-4f17-8d75-27573f932a0c","ios":"levelo://app?vid=12aa18e6-54b4-4f17-8d75-27573f932a0c"},"vehicle_type_id":"4","last_reported":1753369881,"current_range_meters":4000,"station_id":"ce4bgk12rcd13ifvqbj0","pricing_plan_id":"cebpf4jnsgd1na2vs0mg"},{"bike_id":"fed241b2-e735-4747-b489-a5a38fde5767","system_id":"levelo_inurba_marseille","lat":43.29805,"lon":5.38092,"is_reserved":false,"is_disabled":false,"rental_uris":{"android":"levelo://app?vid=fed241b2-e735-4747-b489-a5a38fde5767","ios":"levelo://app?vid=fed241b2-e735-4747-b489-a5a38fde5767"},"vehicle_type_id":"4","last_reported":1753369881,"current_range_meters":4000,"station_id":"ce4bgip2rcd13ifvqbb0","pricing_plan_id":"cebpf4jnsgd1na2vs0mg"},{"bike_id":"e06b10dc-22a8-4e07-a28c-a70ca4c9a5b1","system_id":"levelo_inurba_marseille","lat":43.26804,"lon":5.40267,"is_reserved":false,"is_disabled":false,"rental_uris":{"android":"levelo://app?vid=e06b10dc-22a8-4e07-a28c-a70ca4c9a5b1","ios":"levelo://app?vid=e06b10dc-22a8-4e07-a28c-a70ca4c9a5b1"},"vehicle_type_id":"4","last_reported":1753369881,"current_range_meters":4400,"station_id":"ce501612rcd8frsf0b60","pricing_plan_id":"cebpf4jnsgd1na2vs0mg"},{"bike_id":"f67332bb-469f-453c-be6c-22e98ff9fe4f","system_id":"levelo_inurba_marseille","lat":43.27962,"lon":5.38746,"is_reserved":false,"is_disabled":false,"rental_uris":{"android":"levelo://app?vid=f67332bb-469f-453c-be6c-22e98ff9fe4f","ios":"levelo://app?vid=f67332bb-469f-453c-be6c-22e98ff9fe4f"},"vehicle_type_id":"4","last_reported":1753369881,"current_range_meters":4400,"station_id":"ce4bhg12rcd13ifvqf80","pricing_plan_id":"cebpf4jnsgd1na2vs0mg"},{"bike_id":"6e8e60ff-1541-47c9-b6ea-10e650b35d0f","system_id":"levelo_inurba_marseille","lat":43.30133,"lon":5.39857,"is_reserved":false,"is_disabled":false,"rental_uris":{"android":"levelo://app?vid=6e8e60ff-1541-47c9-b6ea-10e650b35d0f","ios":"levelo://app?vid=6e8e60ff-1541-47c9-b6ea-10e650b35d0f"},"vehicle_type_id":"4","last_reported":1753369881,"current_range_meters":4400,"station_id":"ce4bh0h2rcd13ifvqd40","pricing_plan_id":"cebpf4jnsgd1na2vs0mg"},{"bike_id":"4023483f-3ba3-4c42-9344-97a39fb1ff87","system_id":"levelo_inurba_marseille","lat":43.22507,"lon":5.34774,"is_reserved":false,"is_disabled":false,"rental_uris":{"android":"levelo://app?vid=4023483f-3ba3-4c42-9344-97a39fb1ff87","ios":"levelo://app?vid=4023483f-3ba3-4c42-9344-97a39fb1ff87"},"vehicle_type_id":"4","last_reported":1753369881,"current_range_meters":4800,"station_id":"st_cvj5dfep6f1abm77gieg","pricing_plan_id":"cebpf4jnsgd1na2vs0mg"},{"bike_id":"cb35eb2d-085e-4788-91a0-aeda073f5f17","system_id":"levelo_inurba_marseille","lat":43.299674,"lon":5.384923,"is_reserved":false,"is_disabled":false,"rental_uris":{"android":"levelo://app?vid=cb35eb2d-085e-4788-91a0-aeda073f5f17","ios":"levelo://app?vid=cb35eb2d-085e-4788-91a0-aeda073f5f17"},"vehicle_type_id":"4","last_reported":1753369881,"current_range_meters":4800,"station_id":"ce4bgj92rcd13ifvqbd0","pricing_plan_id":"cebpf4jnsgd1na2vs0mg"},{"bike_id":"454a5942-b365-47a1-b34c-4f930f91ad4a","system_id":"levelo_inurba_marseille","lat":43.30279,"lon":5.37718,"is_reserved":false,"is_disabled":false,"rental_uris":{"android":"levelo://app?vid=454a5942-b365-47a1-b34c-4f930f91ad4a","ios":"levelo://app?vid=454a5942-b365-47a1-b34c-4f930f91ad4a"},"vehicle_type_id":"4","last_reported":1753369881,"current_range_meters":5600,"station_id":"ce4bguh2rcd13ifvqcj0","pricing_plan_id":"cebpf4jnsgd1na2vs0mg"},{"bike_id":"44e0636d-a38e-4a9a-8ce3-b66fadc99a4d","system_id":"levelo_inurba_marseille","lat":43.30533,"lon":5.3671,"is_reserved":false,"is_disabled":false,"rental_uris":{"android":"levelo://app?vid=44e0636d-a38e-4a9a-8ce3-b66fadc99a4d","ios":"levelo://app?vid=44e0636d-a38e-4a9a-8ce3-b66fadc99a4d"},"vehicle_type_id":"4","last_reported":1753369881,"current_range_meters":5600,"station_id":"ce4bgrp2rcd13ifvqc9g","pricing_plan_id":"cebpf4jnsgd1na2vs0mg"},{"bike_id":"c9dbd36b-479c-4a5c-b200-3aa7673340d9","system_id":"levelo_inurba_marseille","lat":43.241448,"lon":5.363743,"is_reserved":false,"is_disabled":false,"rental_uris":{"android":"levelo://app?vid=c9dbd36b-479c-4a5c-b200-3aa7673340d9","ios":"levelo://app?vid=c9dbd36b-479c-4a5c-b200-3aa7673340d9"},"vehicle_type_id":"4","last_reported":1753369881,"current_range_meters":5600,"station_id":"","pricing_plan_id":"cebpf4jnsgd1na2vs0mg"},{"bike_id":"683bd7ac-d7d6-4ce4-99a6-b539f6c57677","system_id":"levelo_inurba_marseille","lat":43.2827,"lon":5.350522,"is_reserved":false,"is_disabled":false,"rental_uris":{"android":"levelo://app?vid=683bd7ac-d7d6-4ce4-99a6-b539f6c57677","ios":"levelo://app?vid=683bd7ac-d7d6-4ce4-99a6-b539f6c57677"},"vehicle_type_id":"4","last_reported":1753369881,"current_range_meters":5600,"station_id":"","pricing_plan_id":"cebpf4jnsgd1na2vs0mg"},{"bike_id":"e0f4556b-1525-4eff-ac19-a1270436371d","system_id":"levelo_inurba_marseille","lat":43.27837,"lon":5.39761,"is_reserved":false,"is_disabled":false,"rental_uris":{"android":"levelo://app?vid=e0f4556b-1525-4eff-ac19-a1270436371d","ios":"levelo://app?vid=e0f4556b-1525-4eff-ac19-a1270436371d"},"vehicle_type_id":"4","last_reported":1753369881,"current_range_meters":6000,"station_id":"","pricing_plan_id":"cebpf4jnsgd1na2vs0mg"},{"bike_id":"5fd88518-0ded-45cc-adab-b426e5fee01a","system_id":"levelo_inurba_marseille","lat":43.32368,"lon":5.38884,"is_reserved":false,"is_disabled":false,"rental_uris":{"android":"levelo://app?vid=5fd88518-0ded-45cc-adab-b426e5fee01a","ios":"levelo://app?vid=5fd88518-0ded-45cc-adab-b426e5fee01a"},"vehicle_type_id":"4","last_reported":1753369881,"current_range_meters":6000,"station_id":"ce4bhqp2rcd13ifvqhog","pricing_plan_id":"cebpf4jnsgd1na2vs0mg"},{"bike_id":"291cfb19-2667-4981-9cb4-db0f08984e18","system_id":"levelo_inurba_marseille","lat":43.30446,"lon":5.38902,"is_reserved":false,"is_disabled":false,"rental_uris":{"android":"levelo://app?vid=291cfb19-2667-4981-9cb4-db0f08984e18","ios":"levelo://app?vid=291cfb19-2667-4981-9cb4-db0f08984e18"},"vehicle_type_id":"4","last_reported":1753369881,"current_range_meters":6000,"station_id":"ce4bgk12rcd13ifvqbi0","pricing_plan_id":"cebpf4jnsgd1na2vs0mg"},{"bike_id":"276a2451-1daf-4f46-abea-55fc341b9e1e","system_id":"levelo_inurba_marseille","lat":43.310797,"lon":5.424332,"is_reserved":false,"is_disabled":false,"rental_uris":{"android":"levelo://app?vid=276a2451-1daf-4f46-abea-55fc341b9e1e","ios":"levelo://app?vid=276a2451-1daf-4f46-abea-55fc341b9e1e"},"vehicle_type_id":"4","last_reported":1753369881,"current_range_meters":6000,"station_id":"ce4bhp92rcd13ifvqhag","pricing_plan_id":"cebpf4jnsgd1na2vs0mg"},{"bike_id":"aa5097b6-6968-4aec-b711-e7780938924b","system_id":"levelo_inurba_marseille","lat":43.32884,"lon":5.36092,"is_reserved":false,"is_disabled":false,"rental_uris":{"android":"levelo://app?vid=aa5097b6-6968-4aec-b711-e7780938924b","ios":"levelo://app?vid=aa5097b6-6968-4aec-b711-e7780938924b"},"vehicle_type_id":"4","last_reported":1753369881,"current_range_meters":6000,"station_id":"","pricing_plan_id":"cebpf4jnsgd1na2vs0mg"},{"bike_id":"4973156b-b473-4b8b-b54c-9f0737f5c6d5","system_id":"levelo_inurba_marseille","lat":43.317013,"lon":5.3776,"is_reserved":false,"is_disabled":false,"rental_uris":{"android":"levelo://app?vid=4973156b-b473-4b8b-b54c-9f0737f5c6d5","ios":"levelo://app?vid=4973156b-b473-4b8b-b54c-9f0737f5c6d5"},"vehicle_type_id":"4","last_reported":1753369881,"current_range_meters":6400,"station_id":"ce4bgth2rcd13ifvqch0","pricing_plan_id":"cebpf4jnsgd1na2vs0mg"},{"bike_id":"bc18a05c-4b38-420e-adca-bc42d86f6006","system_id":"levelo_inurba_marseille","lat":43.31271,"lon":5.40172,"is_reserved":false,"is_disabled":false,"rental_uris":{"android":"levelo://app?vid=bc18a05c-4b38-420e-adca-bc42d86f6006","ios":"levelo://app?vid=bc18a05c-4b38-420e-adca-bc42d86f6006"},"vehicle_type_id":"4","last_reported":1753369881,"current_range_meters":6400,"station_id":"ce4bh092rcd13ifvqd30","pricing_plan_id":"cebpf4jnsgd1na2vs0mg"},{"bike_id":"081f7b02-38e5-4021-909d-4ad3976b461b","system_id":"levelo_inurba_marseille","lat":43.29553,"lon":5.42288,"is_reserved":false,"is_disabled":false,"rental_uris":{"android":"levelo://app?vid=081f7b02-38e5-4021-909d-4ad3976b461b","ios":"levelo://app?vid=081f7b02-38e5-4021-909d-4ad3976b461b"},"vehicle_type_id":"4","last_reported":1753369881,"current_range_meters":6400,"station_id":"ce4bhph2rcd13ifvqhdg","pricing_plan_id":"cebpf4jnsgd1na2vs0mg"},{"bike_id":"bc3b7285-bb1c-40f8-a0c9-a54bd854fee0","system_id":"levelo_inurba_marseille","lat":43.296973,"lon":5.373755,"is_reserved":false,"is_disabled":false,"rental_uris":{"android":"levelo://app?vid=bc3b7285-bb1c-40f8-a0c9-a54bd854fee0","ios":"levelo://app?vid=bc3b7285-bb1c-40f8-a0c9-a54bd854fee0"},"vehicle_type_id":"4","last_reported":1753369881,"current_range_meters":6800,"station_id":"","pricing_plan_id":"cebpf4jnsgd1na2vs0mg"},{"bike_id":"8e84bc89-0687-43f4-85da-f6485e49b39e","system_id":"levelo_inurba_marseille","lat":43.31332,"lon":5.39691,"is_reserved":false,"is_disabled":false,"rental_uris":{"android":"levelo://app?vid=8e84bc89-0687-43f4-85da-f6485e49b39e","ios":"levelo://app?vid=8e84bc89-0687-43f4-85da-f6485e49b39e"},"vehicle_type_id":"4","last_reported":1753369881,"current_range_meters":6800,"station_id":"ce4bgvp2rcd13ifvqcu0","pricing_plan_id":"cebpf4jnsgd1na2vs0mg"},{"bike_id":"835e4d28-7baa-4ced-9719-0138c3321887","system_id":"levelo_inurba_marseille","lat":43.30291,"lon":5.37702,"is_reserved":false,"is_disabled":false,"rental_uris":{"android":"levelo://app?vid=835e4d28-7baa-4ced-9719-0138c3321887","ios":"levelo://app?vid=835e4d28-7baa-4ced-9719-0138c3321887"},"vehicle_type_id":"4","last_reported":1753369881,"current_range_meters":6800,"station_id":"ce4bguh2rcd13ifvqcj0","pricing_plan_id":"cebpf4jnsgd1na2vs0mg"},{"bike_id":"ce515b35-9564-429b-a4fa-87a1d317e3cb","system_id":"levelo_inurba_marseille","lat":43.26919,"lon":5.38696,"is_reserved":false,"is_disabled":true,"rental_uris":{"android":"levelo://app?vid=ce515b35-9564-429b-a4fa-87a1d317e3cb","ios":"levelo://app?vid=ce515b35-9564-429b-a4fa-87a1d317e3cb"},"vehicle_type_id":"4","last_reported":1753369881,"current_range_meters":6800,"station_id":"","pricing_plan_id":"cebpf4jnsgd1na2vs0mg"},{"bike_id":"e9e95763-1abb-4023-b278-3d1e39393f2b","system_id":"levelo_inurba_marseille","lat":43.30896,"lon":5.37184,"is_reserved":false,"is_disabled":false,"rental_uris":{"android":"levelo://app?vid=e9e95763-1abb-4023-b278-3d1e39393f2b","ios":"levelo://app?vid=e9e95763-1abb-4023-b278-3d1e39393f2b"},"vehicle_type_id":"4","last_reported":1753369881,"current_range_meters":6800,"station_id":"ce4bguh2rcd13ifvqckg","pricing_plan_id":"cebpf4jnsgd1na2vs0mg"},{"bike_id":"fda83016-a455-4b22-87f1-0aab54f53807","system_id":"levelo_inurba_marseille","lat":43.30311,"lon":5.36887,"is_reserved":false,"is_disabled":false,"rental_uris":{"android":"levelo://app?vid=fda83016-a455-4b22-87f1-0aab54f53807","ios":"levelo://app?vid=fda83016-a455-4b22-87f1-0aab54f53807"},"vehicle_type_id":"4","last_reported":1753369881,"current_range_meters":7200,"station_id":"ce4bgqh2rcd13ifvqc5g","pricing_plan_id":"cebpf4jnsgd1na2vs0mg"},{"bike_id":"532ca0aa-31bc-4b3d-be1d-cab240b29783","system_id":"levelo_inurba_marseille","lat":43.25087,"lon":5.39502,"is_reserved":false,"is_disabled":false,"rental_uris":{"android":"levelo://app?vid=532ca0aa-31bc-4b3d-be1d-cab240b29783","ios":"levelo://app?vid=532ca0aa-31bc-4b3d-be1d-cab240b29783"},"vehicle_type_id":"4","last_reported":1753369881,"current_range_meters":7200,"station_id":"ce4bhm12rcd13ifvqgkg","pricing_plan_id":"cebpf4jnsgd1na2vs0mg"},{"bike_id":"8f184f24-d5f5-4664-8247-6ad3bd721ce3","system_id":"levelo_inurba_marseille","lat":43.24079,"lon":5.37756,"is_reserved":false,"is_disabled":false,"rental_uris":{"android":"levelo://app?vid=8f184f24-d5f5-4664-8247-6ad3bd721ce3","ios":"levelo://app?vid=8f184f24-d5f5-4664-8247-6ad3bd721ce3"},"vehicle_type_id":"4","last_reported":1753369881,"current_range_meters":7200,"station_id":"ce4bhnp2rcd13ifvqgvg","pricing_plan_id":"cebpf4jnsgd1na2vs0mg"},{"bike_id":"67def502-64f7-4130-a57b-82f52716691f","system_id":"levelo_inurba_marseille","lat":43.28361,"lon":5.3863,"is_reserved":false,"is_disabled":false,"rental_uris":{"android":"levelo://app?vid=67def502-64f7-4130-a57b-82f52716691f","ios":"levelo://app?vid=67def502-64f7-4130-a57b-82f52716691f"},"vehicle_type_id":"4","last_reported":1753369881,"current_range_meters":7200,"station_id":"ce4bh492rcd13ifvqdvg","pricing_plan_id":"cebpf4jnsgd1na2vs0mg"},{"bike_id":"da053e6a-15f2-492e-8bc1-42b1d66cc329","system_id":"levelo_inurba_marseille","lat":43.28365,"lon":5.43246,"is_reserved":false,"is_disabled":false,"rental_uris":{"android":"levelo://app?vid=da053e6a-15f2-492e-8bc1-42b1d66cc329","ios":"levelo://app?vid=da053e6a-15f2-492e-8bc1-42b1d66cc329"},"vehicle_type_id":"4","last_reported":1753369881,"current_range_meters":8000,"station_id":"","pricing_plan_id":"cebpf4jnsgd1na2vs0mg"},{"bike_id":"e2ba6f67-0db9-46e9-bd32-d7b274f8c8b4","system_id":"levelo_inurba_marseille","lat":43.298085,"lon":5.380986,"is_reserved":false,"is_disabled":false,"rental_uris":{"android":"levelo://app?vid=e2ba6f67-0db9-46e9-bd32-d7b274f8c8b4","ios":"levelo://app?vid=e2ba6f67-0db9-46e9-bd32-d7b274f8c8b4"},"vehicle_type_id":"4","last_reported":1753369881,"current_range_meters":8000,"station_id":"ce4bgip2rcd13ifvqbb0","pricing_plan_id":"cebpf4jnsgd1na2vs0mg"},{"bike_id":"df3aa979-7b68-48ba-9077-3c9fc52bb6c7","system_id":"levelo_inurba_marseille","lat":43.30144,"lon":5.38069,"is_reserved":false,"is_disabled":false,"rental_uris":{"android":"levelo://app?vid=df3aa979-7b68-48ba-9077-3c9fc52bb6c7","ios":"levelo://app?vid=df3aa979-7b68-48ba-9077-3c9fc52bb6c7"},"vehicle_type_id":"4","last_reported":1753369881,"current_range_meters":8400,"station_id":"ce4bgjp2rcd13ifvqbh0","pricing_plan_id":"cebpf4jnsgd1na2vs0mg"},{"bike_id":"e23a2bf5-c320-4833-add4-8caf72964bf7","system_id":"levelo_inurba_marseille","lat":43.29031,"lon":5.3865,"is_reserved":false,"is_disabled":false,"rental_uris":{"android":"levelo://app?vid=e23a2bf5-c320-4833-add4-8caf72964bf7","ios":"levelo://app?vid=e23a2bf5-c320-4833-add4-8caf72964bf7"},"vehicle_type_id":"4","last_reported":1753369881,"current_range_meters":8400,"station_id":"ce4bh4p2rcd13ifvqe0g","pricing_plan_id":"cebpf4jnsgd1na2vs0mg"},{"bike_id":"c9b3e380-0943-4114-9c2e-2867925be806","system_id":"levelo_inurba_marseille","lat":43.29575,"lon":5.37496,"is_reserved":false,"is_disabled":false,"rental_uris":{"android":"levelo://app?vid=c9b3e380-0943-4114-9c2e-2867925be806","ios":"levelo://app?vid=c9b3e380-0943-4114-9c2e-2867925be806"},"vehicle_type_id":"4","last_reported":1753369881,"current_range_meters":8400,"station_id":"ce4bgh92rcd13ifvqb50","pricing_plan_id":"cebpf4jnsgd1na2vs0mg"},{"bike_id":"a7c921ed-5ec7-4f88-a49d-1176f67ddbae","system_id":"levelo_inurba_marseille","lat":43.27915,"lon":5.39577,"is_reserved":false,"is_disabled":false,"rental_uris":{"android":"levelo://app?vid=a7c921ed-5ec7-4f88-a49d-1176f67ddbae","ios":"levelo://app?vid=a7c921ed-5ec7-4f88-a49d-1176f67ddbae"},"vehicle_type_id":"4","last_reported":1753369881,"current_range_meters":8400,"station_id":"ce4bhf92rcd13ifvqf40","pricing_plan_id":"cebpf4jnsgd1na2vs0mg"},{"bike_id":"27466242-1c3e-4605-a128-a402b092392e","system_id":"levelo_inurba_marseille","lat":43.30101,"lon":5.36414,"is_reserved":false,"is_disabled":false,"rental_uris":{"android":"levelo://app?vid=27466242-1c3e-4605-a128-a402b092392e","ios":"levelo://app?vid=27466242-1c3e-4605-a128-a402b092392e"},"vehicle_type_id":"4","last_reported":1753369881,"current_range_meters":8400,"station_id":"","pricing_plan_id":"cebpf4jnsgd1na2vs0mg"},{"bike_id":"91aad63a-7ab2-4468-aaa4-859ec34ea4d6","system_id":"levelo_inurba_marseille","lat":43.29851,"lon":5.36284,"is_reserved":false,"is_disabled":false,"rental_uris":{"android":"levelo://app?vid=91aad63a-7ab2-4468-aaa4-859ec34ea4d6","ios":"levelo://app?vid=91aad63a-7ab2-4468-aaa4-859ec34ea4d6"},"vehicle_type_id":"4","last_reported":1753369881,"current_range_meters":8800,"station_id":"ce4bgpp2rcd13ifvqc3g","pricing_plan_id":"cebpf4jnsgd1na2vs0mg"},{"bike_id":"dec93502-9771-4f3a-879a-cbdfb860df89","system_id":"levelo_inurba_marseille","lat":43.27674,"lon":5.38398,"is_reserved":false,"is_disabled":false,"rental_uris":{"android":"levelo://app?vid=dec93502-9771-4f3a-879a-cbdfb860df89","ios":"levelo://app?vid=dec93502-9771-4f3a-879a-cbdfb860df89"},"vehicle_type_id":"4","last_reported":1753369881,"current_range_meters":8800,"station_id":"","pricing_plan_id":"cebpf4jnsgd1na2vs0mg"},{"bike_id":"fe5c213a-956b-47e4-a2b0-14941484fada","system_id":"levelo_inurba_marseille","lat":43.26167,"lon":5.37435,"is_reserved":false,"is_disabled":false,"rental_uris":{"android":"levelo://app?vid=fe5c213a-956b-47e4-a2b0-14941484fada","ios":"levelo://app?vid=fe5c213a-956b-47e4-a2b0-14941484fada"},"vehicle_type_id":"4","last_reported":1753369881,"current_range_meters":8800,"station_id":"ce4bhgp2rcd13ifvqfc0","pricing_plan_id":"cebpf4jnsgd1na2vs0mg"},{"bike_id":"e3c09ae6-0c3c-4579-bfa7-3dd8261413e2","system_id":"levelo_inurba_marseille","lat":43.31524,"lon":5.38036,"is_reserved":false,"is_disabled":false,"rental_uris":{"android":"levelo://app?vid=e3c09ae6-0c3c-4579-bfa7-3dd8261413e2","ios":"levelo://app?vid=e3c09ae6-0c3c-4579-bfa7-3dd8261413e2"},"vehicle_type_id":"4","last_reported":1753369881,"current_range_meters":8800,"station_id":"ce4bhsp2rcd13ifvqi50","pricing_plan_id":"cebpf4jnsgd1na2vs0mg"},{"bike_id":"f33ba9aa-4721-4ee8-9ead-1f74c15208bc","system_id":"levelo_inurba_marseille","lat":43.2958,"lon":5.37509,"is_reserved":false,"is_disabled":false,"rental_uris":{"android":"levelo://app?vid=f33ba9aa-4721-4ee8-9ead-1f74c15208bc","ios":"levelo://app?vid=f33ba9aa-4721-4ee8-9ead-1f74c15208bc"},"vehicle_type_id":"4","last_reported":1753369881,"current_range_meters":9200,"station_id":"ce4bgh92rcd13ifvqb50","pricing_plan_id":"cebpf4jnsgd1na2vs0mg"},{"bike_id":"7b7524ae-8ecd-499f-93b7-a6de3bab91d4","system_id":"levelo_inurba_marseille","lat":43.29908,"lon":5.43662,"is_reserved":false,"is_disabled":false,"rental_uris":{"android":"levelo://app?vid=7b7524ae-8ecd-499f-93b7-a6de3bab91d4","ios":"levelo://app?vid=7b7524ae-8ecd-499f-93b7-a6de3bab91d4"},"vehicle_type_id":"4","last_reported":1753369881,"current_range_meters":9200,"station_id":"ce4bhpp2rcd13ifvqhfg","pricing_plan_id":"cebpf4jnsgd1na2vs0mg"},{"bike_id":"b982e5a3-88f5-4403-a53a-38d90073ed80","system_id":"levelo_inurba_marseille","lat":43.29449,"lon":5.43217,"is_reserved":false,"is_disabled":false,"rental_uris":{"android":"levelo://app?vid=b982e5a3-88f5-4403-a53a-38d90073ed80","ios":"levelo://app?vid=b982e5a3-88f5-4403-a53a-38d90073ed80"},"vehicle_type_id":"4","last_reported":1753369881,"current_range_meters":9200,"station_id":"","pricing_plan_id":"cebpf4jnsgd1na2vs0mg"},{"bike_id":"a44117cf-112b-40dc-b1a2-77e2d17698e7","system_id":"levelo_inurba_marseille","lat":43.29267,"lon":5.38441,"is_reserved":false,"is_disabled":false,"rental_uris":{"android":"levelo://app?vid=a44117cf-112b-40dc-b1a2-77e2d17698e7","ios":"levelo://app?vid=a44117cf-112b-40dc-b1a2-77e2d17698e7"},"vehicle_type_id":"4","last_reported":1753369881,"current_range_meters":9200,"station_id":"ce4bh692rcd13ifvqea0","pricing_plan_id":"cebpf4jnsgd1na2vs0mg"},{"bike_id":"ec71886b-45b5-404e-881f-20451522bdc3","system_id":"levelo_inurba_marseille","lat":43.28487,"lon":5.38422,"is_reserved":false,"is_disabled":false,"rental_uris":{"android":"levelo://app?vid=ec71886b-45b5-404e-881f-20451522bdc3","ios":"levelo://app?vid=ec71886b-45b5-404e-881f-20451522bdc3"},"vehicle_type_id":"4","last_reported":1753369881,"current_range_meters":9200,"station_id":"ce4bh512rcd13ifvqe3g","pricing_plan_id":"cebpf4jnsgd1na2vs0mg"},{"bike_id":"9dd59cb7-f70c-4861-8d51-f81ba27495b8","system_id":"levelo_inurba_marseille","lat":43.28481,"lon":5.385684,"is_reserved":false,"is_disabled":false,"rental_uris":{"android":"levelo://app?vid=9dd59cb7-f70c-4861-8d51-f81ba27495b8","ios":"levelo://app?vid=9dd59cb7-f70c-4861-8d51-f81ba27495b8"},"vehicle_type_id":"4","last_reported":1753369881,"current_range_meters":9600,"station_id":"ce4bh8p2rcd13ifvqeb0","pricing_plan_id":"cebpf4jnsgd1na2vs0mg"},{"bike_id":"f0962816-ca47-4344-a3a0-51b1c89b25d2","system_id":"levelo_inurba_marseille","lat":43.29527,"lon":5.39035,"is_reserved":false,"is_disabled":false,"rental_uris":{"android":"levelo://app?vid=f0962816-ca47-4344-a3a0-51b1c89b25d2","ios":"levelo://app?vid=f0962816-ca47-4344-a3a0-51b1c89b25d2"},"vehicle_type_id":"4","last_reported":1753369881,"current_range_meters":9200,"station_id":"ce4bh3p2rcd13ifvqdp0","pricing_plan_id":"cebpf4jnsgd1na2vs0mg"},{"bike_id":"84e35a85-9976-4dad-9b54-c9cd2bff9c50","system_id":"levelo_inurba_marseille","lat":43.30905,"lon":5.36849,"is_reserved":false,"is_disabled":false,"rental_uris":{"android":"levelo://app?vid=84e35a85-9976-4dad-9b54-c9cd2bff9c50","ios":"levelo://app?vid=84e35a85-9976-4dad-9b54-c9cd2bff9c50"},"vehicle_type_id":"4","last_reported":1753369881,"current_range_meters":9600,"station_id":"ce4bgn92rcd13ifvqbvg","pricing_plan_id":"cebpf4jnsgd1na2vs0mg"},{"bike_id":"7250624a-63df-4e44-9e5a-1056e5f8a90f","system_id":"levelo_inurba_marseille","lat":43.29417,"lon":5.40168,"is_reserved":false,"is_disabled":false,"rental_uris":{"android":"levelo://app?vid=7250624a-63df-4e44-9e5a-1056e5f8a90f","ios":"levelo://app?vid=7250624a-63df-4e44-9e5a-1056e5f8a90f"},"vehicle_type_id":"4","last_reported":1753369881,"current_range_meters":9600,"station_id":"","pricing_plan_id":"cebpf4jnsgd1na2vs0mg"},{"bike_id":"70e328ea-76c5-42ed-9cf4-e9804143ad3e","system_id":"levelo_inurba_marseille","lat":43.29891,"lon":5.36385,"is_reserved":false,"is_disabled":false,"rental_uris":{"android":"levelo://app?vid=70e328ea-76c5-42ed-9cf4-e9804143ad3e","ios":"levelo://app?vid=70e328ea-76c5-42ed-9cf4-e9804143ad3e"},"vehicle_type_id":"4","last_reported":1753369881,"current_range_meters":10000,"station_id":"","pricing_plan_id":"cebpf4jnsgd1na2vs0mg"},{"bike_id":"fdc38ef7-2785-4346-b5de-f2322a4d928c","system_id":"levelo_inurba_marseille","lat":43.30146,"lon":5.38069,"is_reserved":false,"is_disabled":false,"rental_uris":{"android":"levelo://app?vid=fdc38ef7-2785-4346-b5de-f2322a4d928c","ios":"levelo://app?vid=fdc38ef7-2785-4346-b5de-f2322a4d928c"},"vehicle_type_id":"4","last_reported":1753369881,"current_range_meters":10000,"station_id":"ce4bgjp2rcd13ifvqbh0","pricing_plan_id":"cebpf4jnsgd1na2vs0mg"},{"bike_id":"bbc2b271-396f-4875-9f1d-0fcc163d87b6","system_id":"levelo_inurba_marseille","lat":43.29092,"lon":5.399062,"is_reserved":false,"is_disabled":false,"rental_uris":{"android":"levelo://app?vid=bbc2b271-396f-4875-9f1d-0fcc163d87b6","ios":"levelo://app?vid=bbc2b271-396f-4875-9f1d-0fcc163d87b6"},"vehicle_type_id":"4","last_reported":1753369881,"current_range_meters":10000,"station_id":"","pricing_plan_id":"cebpf4jnsgd1na2vs0mg"},{"bike_id":"7b88fbb7-7d8e-4916-b1c3-1a286803446c","system_id":"levelo_inurba_marseille","lat":43.30609,"lon":5.3721,"is_reserved":false,"is_disabled":false,"rental_uris":{"android":"levelo://app?vid=7b88fbb7-7d8e-4916-b1c3-1a286803446c","ios":"levelo://app?vid=7b88fbb7-7d8e-4916-b1c3-1a286803446c"},"vehicle_type_id":"4","last_reported":1753369881,"current_range_meters":10000,"station_id":"ce4bgqh2rcd13ifvqc4g","pricing_plan_id":"cebpf4jnsgd1na2vs0mg"},{"bike_id":"f3217e35-0bb5-43ab-beb0-dd5e233a7114","system_id":"levelo_inurba_marseille","lat":43.25578,"lon":5.382244,"is_reserved":false,"is_disabled":true,"rental_uris":{"android":"levelo://app?vid=f3217e35-0bb5-43ab-beb0-dd5e233a7114","ios":"levelo://app?vid=f3217e35-0bb5-43ab-beb0-dd5e233a7114"},"vehicle_type_id":"4","last_reported":1753369881,"current_range_meters":10000,"station_id":"ce4bhih2rcd13ifvqfs0","pricing_plan_id":"cebpf4jnsgd1na2vs0mg"},{"bike_id":"b72aea31-c70f-4e36-82e0-1827455012f7","system_id":"levelo_inurba_marseille","lat":43.28941,"lon":5.36635,"is_reserved":false,"is_disabled":false,"rental_uris":{"android":"levelo://app?vid=b72aea31-c70f-4e36-82e0-1827455012f7","ios":"levelo://app?vid=b72aea31-c70f-4e36-82e0-1827455012f7"},"vehicle_type_id":"4","last_reported":1753369881,"current_range_meters":10000,"station_id":"ce4bhap2rcd13ifvqek0","pricing_plan_id":"cebpf4jnsgd1na2vs0mg"},{"bike_id":"da6d24b4-7c00-41a9-a82b-ab2d070f0263","system_id":"levelo_inurba_marseille","lat":43.29252,"lon":5.40899,"is_reserved":false,"is_disabled":false,"rental_uris":{"android":"levelo://app?vid=da6d24b4-7c00-41a9-a82b-ab2d070f0263","ios":"levelo://app?vid=da6d24b4-7c00-41a9-a82b-ab2d070f0263"},"vehicle_type_id":"4","last_reported":1753369881,"current_range_meters":10000,"station_id":"ce4bh192rcd13ifvqdc0","pricing_plan_id":"cebpf4jnsgd1na2vs0mg"},{"bike_id":"b5ce8d93-17c0-45a5-b2b1-eefce45c2d79","system_id":"levelo_inurba_marseille","lat":43.317961,"lon":5.435055,"is_reserved":false,"is_disabled":false,"rental_uris":{"android":"levelo://app?vid=b5ce8d93-17c0-45a5-b2b1-eefce45c2d79","ios":"levelo://app?vid=b5ce8d93-17c0-45a5-b2b1-eefce45c2d79"},"vehicle_type_id":"4","last_reported":1753369881,"current_range_meters":10800,"station_id":"","pricing_plan_id":"cebpf4jnsgd1na2vs0mg"},{"bike_id":"8ce9f27e-304e-4edb-aab7-2380c3341ab5","system_id":"levelo_inurba_marseille","lat":43.28416,"lon":5.34976,"is_reserved":false,"is_disabled":false,"rental_uris":{"android":"levelo://app?vid=8ce9f27e-304e-4edb-aab7-2380c3341ab5","ios":"levelo://app?vid=8ce9f27e-304e-4edb-aab7-2380c3341ab5"},"vehicle_type_id":"4","last_reported":1753369881,"current_range_meters":10800,"station_id":"ce4bhbh2rcd13ifvqepg","pricing_plan_id":"cebpf4jnsgd1na2vs0mg"},{"bike_id":"06667231-9491-402b-a9ce-661f9818def9","system_id":"levelo_inurba_marseille","lat":43.23191,"lon":5.35553,"is_reserved":false,"is_disabled":true,"rental_uris":{"android":"levelo://app?vid=06667231-9491-402b-a9ce-661f9818def9","ios":"levelo://app?vid=06667231-9491-402b-a9ce-661f9818def9"},"vehicle_type_id":"4","last_reported":1753369881,"current_range_meters":10800,"station_id":"ce4bhu92rcd13ifvqi70","pricing_plan_id":"cebpf4jnsgd1na2vs0mg"},{"bike_id":"fbff8f0e-d0d6-4715-8692-f47546d626b9","system_id":"levelo_inurba_marseille","lat":43.288545,"lon":5.358527,"is_reserved":false,"is_disabled":false,"rental_uris":{"android":"levelo://app?vid=fbff8f0e-d0d6-4715-8692-f47546d626b9","ios":"levelo://app?vid=fbff8f0e-d0d6-4715-8692-f47546d626b9"},"vehicle_type_id":"4","last_reported":1753369881,"current_range_meters":10800,"station_id":"","pricing_plan_id":"cebpf4jnsgd1na2vs0mg"},{"bike_id":"1b644c79-9ab5-4d7c-9dd1-48b6f8378043","system_id":"levelo_inurba_marseille","lat":43.23181,"lon":5.39988,"is_reserved":false,"is_disabled":false,"rental_uris":{"android":"levelo://app?vid=1b644c79-9ab5-4d7c-9dd1-48b6f8378043","ios":"levelo://app?vid=1b644c79-9ab5-4d7c-9dd1-48b6f8378043"},"vehicle_type_id":"4","last_reported":1753369881,"current_range_meters":10000,"station_id":"ce4bhn12rcd13ifvqgqg","pricing_plan_id":"cebpf4jnsgd1na2vs0mg"},{"bike_id":"e8f850a1-1a81-47d5-aa62-3f40e503c89d","system_id":"levelo_inurba_marseille","lat":43.29521,"lon":5.39042,"is_reserved":false,"is_disabled":false,"rental_uris":{"android":"levelo://app?vid=e8f850a1-1a81-47d5-aa62-3f40e503c89d","ios":"levelo://app?vid=e8f850a1-1a81-47d5-aa62-3f40e503c89d"},"vehicle_type_id":"4","last_reported":1753369881,"current_range_meters":11200,"station_id":"ce4bh3p2rcd13ifvqdp0","pricing_plan_id":"cebpf4jnsgd1na2vs0mg"},{"bike_id":"300a4756-01bd-4e0c-90d5-87daadcf6e14","system_id":"levelo_inurba_marseille","lat":43.290972,"lon":5.359105,"is_reserved":false,"is_disabled":true,"rental_uris":{"android":"levelo://app?vid=300a4756-01bd-4e0c-90d5-87daadcf6e14","ios":"levelo://app?vid=300a4756-01bd-4e0c-90d5-87daadcf6e14"},"vehicle_type_id":"4","last_reported":1753369881,"current_range_meters":11200,"station_id":"","pricing_plan_id":"cebpf4jnsgd1na2vs0mg"},{"bike_id":"ae131367-d818-44a0-9e1d-4aa65dcdb16a","system_id":"levelo_inurba_marseille","lat":43.27516,"lon":5.39658,"is_reserved":false,"is_disabled":false,"rental_uris":{"android":"levelo://app?vid=ae131367-d818-44a0-9e1d-4aa65dcdb16a","ios":"levelo://app?vid=ae131367-d818-44a0-9e1d-4aa65dcdb16a"},"vehicle_type_id":"4","last_reported":1753369881,"current_range_meters":11200,"station_id":"","pricing_plan_id":"cebpf4jnsgd1na2vs0mg"},{"bike_id":"04ad1776-593a-4370-bd3f-f666ba74c7b7","system_id":"levelo_inurba_marseille","lat":43.29207,"lon":5.3933,"is_reserved":false,"is_disabled":false,"rental_uris":{"android":"levelo://app?vid=04ad1776-593a-4370-bd3f-f666ba74c7b7","ios":"levelo://app?vid=04ad1776-593a-4370-bd3f-f666ba74c7b7"},"vehicle_type_id":"4","last_reported":1753369881,"current_range_meters":11200,"station_id":"ce4bh192rcd13ifvqdd0","pricing_plan_id":"cebpf4jnsgd1na2vs0mg"},{"bike_id":"2ae83899-90fd-4b59-b691-4169c75aef1a","system_id":"levelo_inurba_marseille","lat":43.33769,"lon":5.37445,"is_reserved":false,"is_disabled":false,"rental_uris":{"android":"levelo://app?vid=2ae83899-90fd-4b59-b691-4169c75aef1a","ios":"levelo://app?vid=2ae83899-90fd-4b59-b691-4169c75aef1a"},"vehicle_type_id":"4","last_reported":1753369881,"current_range_meters":11200,"station_id":"","pricing_plan_id":"cebpf4jnsgd1na2vs0mg"},{"bike_id":"27a75d8d-a43d-4fea-a876-5382ce8f9584","system_id":"levelo_inurba_marseille","lat":43.29804,"lon":5.37106,"is_reserved":false,"is_disabled":false,"rental_uris":{"android":"levelo://app?vid=27a75d8d-a43d-4fea-a876-5382ce8f9584","ios":"levelo://app?vid=27a75d8d-a43d-4fea-a876-5382ce8f9584"},"vehicle_type_id":"4","last_reported":1753369881,"current_range_meters":11200,"station_id":"ce4bgop2rcd13ifvqc1g","pricing_plan_id":"cebpf4jnsgd1na2vs0mg"},{"bike_id":"af915bc6-6dc0-4c4a-9da8-20a9e5e2b2c7","system_id":"levelo_inurba_marseille","lat":43.29554,"lon":5.42296,"is_reserved":false,"is_disabled":false,"rental_uris":{"android":"levelo://app?vid=af915bc6-6dc0-4c4a-9da8-20a9e5e2b2c7","ios":"levelo://app?vid=af915bc6-6dc0-4c4a-9da8-20a9e5e2b2c7"},"vehicle_type_id":"4","last_reported":1753369881,"current_range_meters":11200,"station_id":"ce4bhph2rcd13ifvqhdg","pricing_plan_id":"cebpf4jnsgd1na2vs0mg"},{"bike_id":"3cd09fc8-9554-4236-8496-0931a7be09d1","system_id":"levelo_inurba_marseille","lat":43.21189,"lon":5.35073,"is_reserved":false,"is_disabled":false,"rental_uris":{"android":"levelo://app?vid=3cd09fc8-9554-4236-8496-0931a7be09d1","ios":"levelo://app?vid=3cd09fc8-9554-4236-8496-0931a7be09d1"},"vehicle_type_id":"4","last_reported":1753369881,"current_range_meters":11600,"station_id":"st_cvj6sg6p6f1abm77japg","pricing_plan_id":"cebpf4jnsgd1na2vs0mg"},{"bike_id":"b89d6267-55af-48a1-8887-3f0adc5ff195","system_id":"levelo_inurba_marseille","lat":43.301319,"lon":5.39874,"is_reserved":false,"is_disabled":false,"rental_uris":{"android":"levelo://app?vid=b89d6267-55af-48a1-8887-3f0adc5ff195","ios":"levelo://app?vid=b89d6267-55af-48a1-8887-3f0adc5ff195"},"vehicle_type_id":"4","last_reported":1753369881,"current_range_meters":11600,"station_id":"","pricing_plan_id":"cebpf4jnsgd1na2vs0mg"},{"bike_id":"6a79a396-2f47-4b1c-9dce-b0d5464f72e4","system_id":"levelo_inurba_marseille","lat":43.22926,"lon":5.35396,"is_reserved":false,"is_disabled":false,"rental_uris":{"android":"levelo://app?vid=6a79a396-2f47-4b1c-9dce-b0d5464f72e4","ios":"levelo://app?vid=6a79a396-2f47-4b1c-9dce-b0d5464f72e4"},"vehicle_type_id":"4","last_reported":1753369881,"current_range_meters":11600,"station_id":"cpo3532slgdg3j2ikp40","pricing_plan_id":"cebpf4jnsgd1na2vs0mg"},{"bike_id":"acb71dbf-34a3-4e52-b7d2-989fa676f6b7","system_id":"levelo_inurba_marseille","lat":43.28616,"lon":5.35095,"is_reserved":false,"is_disabled":false,"rental_uris":{"android":"levelo://app?vid=acb71dbf-34a3-4e52-b7d2-989fa676f6b7","ios":"levelo://app?vid=acb71dbf-34a3-4e52-b7d2-989fa676f6b7"},"vehicle_type_id":"4","last_reported":1753369881,"current_range_meters":12000,"station_id":"ce4bhch2rcd13ifvqeug","pricing_plan_id":"cebpf4jnsgd1na2vs0mg"},{"bike_id":"260d2a56-1e78-47f0-8f6b-3b42e84fa22f","system_id":"levelo_inurba_marseille","lat":43.30555,"lon":5.36548,"is_reserved":false,"is_disabled":false,"rental_uris":{"android":"levelo://app?vid=260d2a56-1e78-47f0-8f6b-3b42e84fa22f","ios":"levelo://app?vid=260d2a56-1e78-47f0-8f6b-3b42e84fa22f"},"vehicle_type_id":"4","last_reported":1753369881,"current_range_meters":12000,"station_id":"ce4bgs12rcd13ifvqcag","pricing_plan_id":"cebpf4jnsgd1na2vs0mg"},{"bike_id":"c3b7093a-c6fc-4872-a465-95918521be48","system_id":"levelo_inurba_marseille","lat":43.315016,"lon":5.373089,"is_reserved":false,"is_disabled":false,"rental_uris":{"android":"levelo://app?vid=c3b7093a-c6fc-4872-a465-95918521be48","ios":"levelo://app?vid=c3b7093a-c6fc-4872-a465-95918521be48"},"vehicle_type_id":"4","last_reported":1753369881,"current_range_meters":12000,"station_id":"ce4bgt12rcd13ifvqcd0","pricing_plan_id":"cebpf4jnsgd1na2vs0mg"},{"bike_id":"b8e8a607-67a1-47c6-8381-c247dc7d042e","system_id":"levelo_inurba_marseille","lat":43.337444,"lon":5.374475,"is_reserved":false,"is_disabled":false,"rental_uris":{"android":"levelo://app?vid=b8e8a607-67a1-47c6-8381-c247dc7d042e","ios":"levelo://app?vid=b8e8a607-67a1-47c6-8381-c247dc7d042e"},"vehicle_type_id":"4","last_reported":1753369881,"current_range_meters":12000,"station_id":"ce4bh192rcd13ifvqdc0","pricing_plan_id":"cebpf4jnsgd1na2vs0mg"},{"bike_id":"ce59a62d-17ec-416f-b54d-751bd3f6f3dd","system_id":"levelo_inurba_marseille","lat":43.270747,"lon":5.422666,"is_reserved":false,"is_disabled":false,"rental_uris":{"android":"levelo://app?vid=ce59a62d-17ec-416f-b54d-751bd3f6f3dd","ios":"levelo://app?vid=ce59a62d-17ec-416f-b54d-751bd3f6f3dd"},"vehicle_type_id":"4","last_reported":1753369881,"current_range_meters":12000,"station_id":"ce4bhk92rcd13ifvqgb0","pricing_plan_id":"cebpf4jnsgd1na2vs0mg"},{"bike_id":"2006d6ab-c619-4a15-b9f3-97c1160843f0","system_id":"levelo_inurba_marseille","lat":43.2816,"lon":5.36098,"is_reserved":false,"is_disabled":false,"rental_uris":{"android":"levelo://app?vid=2006d6ab-c619-4a15-b9f3-97c1160843f0","ios":"levelo://app?vid=2006d6ab-c619-4a15-b9f3-97c1160843f0"},"vehicle_type_id":"4","last_reported":1753369881,"current_range_meters":12000,"station_id":"","pricing_plan_id":"cebpf4jnsgd1na2vs0mg"},{"bike_id":"7c83051e-a9bd-4253-a6b8-8f06da78b5af","system_id":"levelo_inurba_marseille","lat":43.24388,"lon":5.37065,"is_reserved":false,"is_disabled":false,"rental_uris":{"android":"levelo://app?vid=7c83051e-a9bd-4253-a6b8-8f06da78b5af","ios":"levelo://app?vid=7c83051e-a9bd-4253-a6b8-8f06da78b5af"},"vehicle_type_id":"4","last_reported":1753369881,"current_range_meters":12400,"station_id":"","pricing_plan_id":"cebpf4jnsgd1na2vs0mg"},{"bike_id":"75921511-23bf-408f-9470-1062209789d6","system_id":"levelo_inurba_marseille","lat":43.25601,"lon":5.38243,"is_reserved":false,"is_disabled":false,"rental_uris":{"android":"levelo://app?vid=75921511-23bf-408f-9470-1062209789d6","ios":"levelo://app?vid=75921511-23bf-408f-9470-1062209789d6"},"vehicle_type_id":"4","last_reported":1753369881,"current_range_meters":12400,"station_id":"ce4bhih2rcd13ifvqfs0","pricing_plan_id":"cebpf4jnsgd1na2vs0mg"},{"bike_id":"5ac85406-65d0-4336-aa89-4b04b2e6689e","system_id":"levelo_inurba_marseille","lat":43.3325,"lon":5.41976,"is_reserved":false,"is_disabled":false,"rental_uris":{"android":"levelo://app?vid=5ac85406-65d0-4336-aa89-4b04b2e6689e","ios":"levelo://app?vid=5ac85406-65d0-4336-aa89-4b04b2e6689e"},"vehicle_type_id":"4","last_reported":1753369881,"current_range_meters":12400,"station_id":"","pricing_plan_id":"cebpf4jnsgd1na2vs0mg"},{"bike_id":"c056311f-78c9-4e18-8685-91c659ddb125","system_id":"levelo_inurba_marseille","lat":43.31621,"lon":5.38961,"is_reserved":false,"is_disabled":false,"rental_uris":{"android":"levelo://app?vid=c056311f-78c9-4e18-8685-91c659ddb125","ios":"levelo://app?vid=c056311f-78c9-4e18-8685-91c659ddb125"},"vehicle_type_id":"4","last_reported":1753369881,"current_range_meters":12400,"station_id":"","pricing_plan_id":"cebpf4jnsgd1na2vs0mg"},{"bike_id":"effeb500-6e69-4888-a750-57ae7c962c80","system_id":"levelo_inurba_marseille","lat":43.32368,"lon":5.36746,"is_reserved":false,"is_disabled":false,"rental_uris":{"android":"levelo://app?vid=effeb500-6e69-4888-a750-57ae7c962c80","ios":"levelo://app?vid=effeb500-6e69-4888-a750-57ae7c962c80"},"vehicle_type_id":"4","last_reported":1753369881,"current_range_meters":12400,"station_id":"ce4bhsh2rcd13ifvqi2g","pricing_plan_id":"cebpf4jnsgd1na2vs0mg"},{"bike_id":"6bb1f31c-9335-4f39-9585-31374a4775f9","system_id":"levelo_inurba_marseille","lat":43.325583,"lon":5.379059,"is_reserved":false,"is_disabled":false,"rental_uris":{"android":"levelo://app?vid=6bb1f31c-9335-4f39-9585-31374a4775f9","ios":"levelo://app?vid=6bb1f31c-9335-4f39-9585-31374a4775f9"},"vehicle_type_id":"4","last_reported":1753369881,"current_range_meters":12400,"station_id":"","pricing_plan_id":"cebpf4jnsgd1na2vs0mg"},{"bike_id":"1b881d96-d774-4dbb-829f-75f4d935174c","system_id":"levelo_inurba_marseille","lat":43.21193,"lon":5.35069,"is_reserved":false,"is_disabled":false,"rental_uris":{"android":"levelo://app?vid=1b881d96-d774-4dbb-829f-75f4d935174c","ios":"levelo://app?vid=1b881d96-d774-4dbb-829f-75f4d935174c"},"vehicle_type_id":"4","last_reported":1753369881,"current_range_meters":12400,"station_id":"st_cvj6sg6p6f1abm77japg","pricing_plan_id":"cebpf4jnsgd1na2vs0mg"},{"bike_id":"6a95c831-81fc-4eff-8256-834e950cede6","system_id":"levelo_inurba_marseille","lat":43.26559,"lon":5.3729,"is_reserved":false,"is_disabled":false,"rental_uris":{"android":"levelo://app?vid=6a95c831-81fc-4eff-8256-834e950cede6","ios":"levelo://app?vid=6a95c831-81fc-4eff-8256-834e950cede6"},"vehicle_type_id":"4","last_reported":1753369881,"current_range_meters":12400,"station_id":"","pricing_plan_id":"cebpf4jnsgd1na2vs0mg"},{"bike_id":"3cc0439d-ec6e-4f4d-81f7-c12810a3cb13","system_id":"levelo_inurba_marseille","lat":43.29258,"lon":5.40906,"is_reserved":false,"is_disabled":false,"rental_uris":{"android":"levelo://app?vid=3cc0439d-ec6e-4f4d-81f7-c12810a3cb13","ios":"levelo://app?vid=3cc0439d-ec6e-4f4d-81f7-c12810a3cb13"},"vehicle_type_id":"4","last_reported":1753369881,"current_range_meters":12400,"station_id":"ce4bh192rcd13ifvqdc0","pricing_plan_id":"cebpf4jnsgd1na2vs0mg"},{"bike_id":"5254d746-bf2c-4042-b956-76a940639ba4","system_id":"levelo_inurba_marseille","lat":43.31366,"lon":5.36742,"is_reserved":false,"is_disabled":false,"rental_uris":{"android":"levelo://app?vid=5254d746-bf2c-4042-b956-76a940639ba4","ios":"levelo://app?vid=5254d746-bf2c-4042-b956-76a940639ba4"},"vehicle_type_id":"4","last_reported":1753369881,"current_range_meters":12800,"station_id":"ce4bgr92rcd13ifvqc6g","pricing_plan_id":"cebpf4jnsgd1na2vs0mg"},{"bike_id":"55314a22-0098-4641-9809-da3f74d786f5","system_id":"levelo_inurba_marseille","lat":43.29181,"lon":5.35648,"is_reserved":false,"is_disabled":false,"rental_uris":{"android":"levelo://app?vid=55314a22-0098-4641-9809-da3f74d786f5","ios":"levelo://app?vid=55314a22-0098-4641-9809-da3f74d786f5"},"vehicle_type_id":"4","last_reported":1753369881,"current_range_meters":14800,"station_id":"","pricing_plan_id":"cebpf4jnsgd1na2vs0mg"},{"bike_id":"3e809a84-0d9f-44e3-aef9-8f0f7362429b","system_id":"levelo_inurba_marseille","lat":43.2885,"lon":5.39313,"is_reserved":false,"is_disabled":false,"rental_uris":{"android":"levelo://app?vid=3e809a84-0d9f-44e3-aef9-8f0f7362429b","ios":"levelo://app?vid=3e809a84-0d9f-44e3-aef9-8f0f7362429b"},"vehicle_type_id":"4","last_reported":1753369881,"current_range_meters":12800,"station_id":"ce4bh2p2rcd13ifvqdi0","pricing_plan_id":"cebpf4jnsgd1na2vs0mg"},{"bike_id":"5ebf434e-f0e5-48cd-961e-894fca3a9a72","system_id":"levelo_inurba_marseille","lat":43.277394,"lon":5.395275,"is_reserved":false,"is_disabled":false,"rental_uris":{"android":"levelo://app?vid=5ebf434e-f0e5-48cd-961e-894fca3a9a72","ios":"levelo://app?vid=5ebf434e-f0e5-48cd-961e-894fca3a9a72"},"vehicle_type_id":"4","last_reported":1753369881,"current_range_meters":13600,"station_id":"ce4bhf92rcd13ifvqf40","pricing_plan_id":"cebpf4jnsgd1na2vs0mg"},{"bike_id":"74c2099d-a1b1-4c4d-b370-5f2d22f180f3","system_id":"levelo_inurba_marseille","lat":43.240722,"lon":5.377196,"is_reserved":false,"is_disabled":false,"rental_uris":{"android":"levelo://app?vid=74c2099d-a1b1-4c4d-b370-5f2d22f180f3","ios":"levelo://app?vid=74c2099d-a1b1-4c4d-b370-5f2d22f180f3"},"vehicle_type_id":"4","last_reported":1753369881,"current_range_meters":13600,"station_id":"ce4bhnp2rcd13ifvqgvg","pricing_plan_id":"cebpf4jnsgd1na2vs0mg"},{"bike_id":"18b86593-4f21-41ed-81b3-f3a5b378dc91","system_id":"levelo_inurba_marseille","lat":43.31205,"lon":5.38136,"is_reserved":false,"is_disabled":false,"rental_uris":{"android":"levelo://app?vid=18b86593-4f21-41ed-81b3-f3a5b378dc91","ios":"levelo://app?vid=18b86593-4f21-41ed-81b3-f3a5b378dc91"},"vehicle_type_id":"4","last_reported":1753369881,"current_range_meters":13600,"station_id":"","pricing_plan_id":"cebpf4jnsgd1na2vs0mg"},{"bike_id":"1ad257b5-7f83-42c1-867f-92635ff1abbf","system_id":"levelo_inurba_marseille","lat":43.22935,"lon":5.35376,"is_reserved":false,"is_disabled":false,"rental_uris":{"android":"levelo://app?vid=1ad257b5-7f83-42c1-867f-92635ff1abbf","ios":"levelo://app?vid=1ad257b5-7f83-42c1-867f-92635ff1abbf"},"vehicle_type_id":"4","last_reported":1753369881,"current_range_meters":13600,"station_id":"cpo3532slgdg3j2ikp40","pricing_plan_id":"cebpf4jnsgd1na2vs0mg"},{"bike_id":"f4bc89ed-241d-4eca-b46f-4a676df87af3","system_id":"levelo_inurba_marseille","lat":43.30878,"lon":5.39604,"is_reserved":false,"is_disabled":false,"rental_uris":{"android":"levelo://app?vid=f4bc89ed-241d-4eca-b46f-4a676df87af3","ios":"levelo://app?vid=f4bc89ed-241d-4eca-b46f-4a676df87af3"},"vehicle_type_id":"4","last_reported":1753369881,"current_range_meters":13600,"station_id":"","pricing_plan_id":"cebpf4jnsgd1na2vs0mg"},{"bike_id":"c96e0f1a-f20a-43fd-9ba2-10bd77e38752","system_id":"levelo_inurba_marseille","lat":43.30146,"lon":5.37418,"is_reserved":false,"is_disabled":false,"rental_uris":{"android":"levelo://app?vid=c96e0f1a-f20a-43fd-9ba2-10bd77e38752","ios":"levelo://app?vid=c96e0f1a-f20a-43fd-9ba2-10bd77e38752"},"vehicle_type_id":"4","last_reported":1753369881,"current_range_meters":13600,"station_id":"ce4bgs92rcd13ifvqcc0","pricing_plan_id":"cebpf4jnsgd1na2vs0mg"},{"bike_id":"9c0f1e52-bb6f-426f-8f28-b740f0c16f04","system_id":"levelo_inurba_marseille","lat":43.28942,"lon":5.3963,"is_reserved":false,"is_disabled":false,"rental_uris":{"android":"levelo://app?vid=9c0f1e52-bb6f-426f-8f28-b740f0c16f04","ios":"levelo://app?vid=9c0f1e52-bb6f-426f-8f28-b740f0c16f04"},"vehicle_type_id":"4","last_reported":1753369881,"current_range_meters":14000,"station_id":"ce4bh3h2rcd13ifvqdn0","pricing_plan_id":"cebpf4jnsgd1na2vs0mg"},{"bike_id":"65670f24-a070-4342-9670-092c85e14a69","system_id":"levelo_inurba_marseille","lat":43.2781,"lon":5.40706,"is_reserved":false,"is_disabled":false,"rental_uris":{"android":"levelo://app?vid=65670f24-a070-4342-9670-092c85e14a69","ios":"levelo://app?vid=65670f24-a070-4342-9670-092c85e14a69"},"vehicle_type_id":"4","last_reported":1753369881,"current_range_meters":14000,"station_id":"ce4bhnh2rcd13ifvqgtg","pricing_plan_id":"cebpf4jnsgd1na2vs0mg"},{"bike_id":"ae041ed2-80d0-430c-81bc-b02ca02e0034","system_id":"levelo_inurba_marseille","lat":43.27675,"lon":5.38864,"is_reserved":false,"is_disabled":false,"rental_uris":{"android":"levelo://app?vid=ae041ed2-80d0-430c-81bc-b02ca02e0034","ios":"levelo://app?vid=ae041ed2-80d0-430c-81bc-b02ca02e0034"},"vehicle_type_id":"4","last_reported":1753369881,"current_range_meters":14000,"station_id":"ce4bhi12rcd13ifvqfo0","pricing_plan_id":"cebpf4jnsgd1na2vs0mg"},{"bike_id":"504e5a0e-4e80-426c-ba2a-9ae9ec83cea3","system_id":"levelo_inurba_marseille","lat":43.25497,"lon":5.3764,"is_reserved":false,"is_disabled":false,"rental_uris":{"android":"levelo://app?vid=504e5a0e-4e80-426c-ba2a-9ae9ec83cea3","ios":"levelo://app?vid=504e5a0e-4e80-426c-ba2a-9ae9ec83cea3"},"vehicle_type_id":"4","last_reported":1753369881,"current_range_meters":14000,"station_id":"ce4bhh12rcd13ifvqff0","pricing_plan_id":"cebpf4jnsgd1na2vs0mg"},{"bike_id":"76c65f84-3b49-4269-890c-8259fe6ade74","system_id":"levelo_inurba_marseille","lat":43.323691,"lon":5.367632,"is_reserved":false,"is_disabled":false,"rental_uris":{"android":"levelo://app?vid=76c65f84-3b49-4269-890c-8259fe6ade74","ios":"levelo://app?vid=76c65f84-3b49-4269-890c-8259fe6ade74"},"vehicle_type_id":"4","last_reported":1753369881,"current_range_meters":14000,"station_id":"ce4bhsh2rcd13ifvqi2g","pricing_plan_id":"cebpf4jnsgd1na2vs0mg"},{"bike_id":"c2d43671-e072-413e-a64d-9ed8b48260ff","system_id":"levelo_inurba_marseille","lat":43.27833,"lon":5.39198,"is_reserved":false,"is_disabled":false,"rental_uris":{"android":"levelo://app?vid=c2d43671-e072-413e-a64d-9ed8b48260ff","ios":"levelo://app?vid=c2d43671-e072-413e-a64d-9ed8b48260ff"},"vehicle_type_id":"4","last_reported":1753369881,"current_range_meters":14000,"station_id":"ce4bhjp2rcd13ifvqga0","pricing_plan_id":"cebpf4jnsgd1na2vs0mg"},{"bike_id":"b3430c0c-ad74-4f60-a4b6-f787b40d0067","system_id":"levelo_inurba_marseille","lat":43.29783,"lon":5.39336,"is_reserved":false,"is_disabled":false,"rental_uris":{"android":"levelo://app?vid=b3430c0c-ad74-4f60-a4b6-f787b40d0067","ios":"levelo://app?vid=b3430c0c-ad74-4f60-a4b6-f787b40d0067"},"vehicle_type_id":"4","last_reported":1753369881,"current_range_meters":14000,"station_id":"chh1huq6cuj3fo74tm60","pricing_plan_id":"cebpf4jnsgd1na2vs0mg"},{"bike_id":"1d7cab05-f3df-4512-93e6-096fa6cb4d14","system_id":"levelo_inurba_marseille","lat":43.29591,"lon":5.37515,"is_reserved":false,"is_disabled":false,"rental_uris":{"android":"levelo://app?vid=1d7cab05-f3df-4512-93e6-096fa6cb4d14","ios":"levelo://app?vid=1d7cab05-f3df-4512-93e6-096fa6cb4d14"},"vehicle_type_id":"4","last_reported":1753369881,"current_range_meters":14400,"station_id":"ce4bgh92rcd13ifvqb50","pricing_plan_id":"cebpf4jnsgd1na2vs0mg"},{"bike_id":"e3eb41fa-e4d4-4097-8f41-874ecf595eb5","system_id":"levelo_inurba_marseille","lat":43.29579,"lon":5.3675,"is_reserved":false,"is_disabled":false,"rental_uris":{"android":"levelo://app?vid=e3eb41fa-e4d4-4097-8f41-874ecf595eb5","ios":"levelo://app?vid=e3eb41fa-e4d4-4097-8f41-874ecf595eb5"},"vehicle_type_id":"4","last_reported":1753369881,"current_range_meters":14400,"station_id":"ce4bgph2rcd13ifvqc2g","pricing_plan_id":"cebpf4jnsgd1na2vs0mg"},{"bike_id":"f9f95568-90d3-47b9-a929-6c3bb9c11405","system_id":"levelo_inurba_marseille","lat":43.31998,"lon":5.38148,"is_reserved":false,"is_disabled":false,"rental_uris":{"android":"levelo://app?vid=f9f95568-90d3-47b9-a929-6c3bb9c11405","ios":"levelo://app?vid=f9f95568-90d3-47b9-a929-6c3bb9c11405"},"vehicle_type_id":"4","last_reported":1753369881,"current_range_meters":14400,"station_id":"ce4bhr12rcd13ifvqhpg","pricing_plan_id":"cebpf4jnsgd1na2vs0mg"},{"bike_id":"9437277c-d886-4a0b-9535-11724bd91051","system_id":"levelo_inurba_marseille","lat":43.27094,"lon":5.42263,"is_reserved":false,"is_disabled":false,"rental_uris":{"android":"levelo://app?vid=9437277c-d886-4a0b-9535-11724bd91051","ios":"levelo://app?vid=9437277c-d886-4a0b-9535-11724bd91051"},"vehicle_type_id":"4","last_reported":1753369881,"current_range_meters":14400,"station_id":"ce4bhk92rcd13ifvqgb0","pricing_plan_id":"cebpf4jnsgd1na2vs0mg"},{"bike_id":"cfe5918e-2c06-485f-97d3-cb6768f2a43f","system_id":"levelo_inurba_marseille","lat":43.23149,"lon":5.43715,"is_reserved":false,"is_disabled":false,"rental_uris":{"android":"levelo://app?vid=cfe5918e-2c06-485f-97d3-cb6768f2a43f","ios":"levelo://app?vid=cfe5918e-2c06-485f-97d3-cb6768f2a43f"},"vehicle_type_id":"4","last_reported":1753369881,"current_range_meters":14400,"station_id":"ce4bhmp2rcd13ifvqgog","pricing_plan_id":"cebpf4jnsgd1na2vs0mg"},{"bike_id":"5f824980-27aa-4ef2-856d-b766bebead8a","system_id":"levelo_inurba_marseille","lat":43.22516,"lon":5.34763,"is_reserved":false,"is_disabled":false,"rental_uris":{"android":"levelo://app?vid=5f824980-27aa-4ef2-856d-b766bebead8a","ios":"levelo://app?vid=5f824980-27aa-4ef2-856d-b766bebead8a"},"vehicle_type_id":"4","last_reported":1753369881,"current_range_meters":14800,"station_id":"st_cvj5dfep6f1abm77gieg","pricing_plan_id":"cebpf4jnsgd1na2vs0mg"},{"bike_id":"f640c3f3-c77f-44da-86f2-0ad487426311","system_id":"levelo_inurba_marseille","lat":43.21188,"lon":5.35079,"is_reserved":false,"is_disabled":false,"rental_uris":{"android":"levelo://app?vid=f640c3f3-c77f-44da-86f2-0ad487426311","ios":"levelo://app?vid=f640c3f3-c77f-44da-86f2-0ad487426311"},"vehicle_type_id":"4","last_reported":1753369881,"current_range_meters":14800,"station_id":"st_cvj6sg6p6f1abm77japg","pricing_plan_id":"cebpf4jnsgd1na2vs0mg"},{"bike_id":"e1872e86-60d0-488a-82ce-9ae35bcbc46f","system_id":"levelo_inurba_marseille","lat":43.28413,"lon":5.34987,"is_reserved":false,"is_disabled":false,"rental_uris":{"android":"levelo://app?vid=e1872e86-60d0-488a-82ce-9ae35bcbc46f","ios":"levelo://app?vid=e1872e86-60d0-488a-82ce-9ae35bcbc46f"},"vehicle_type_id":"4","last_reported":1753369881,"current_range_meters":14800,"station_id":"ce4bhbh2rcd13ifvqepg","pricing_plan_id":"cebpf4jnsgd1na2vs0mg"},{"bike_id":"de993af1-8c6e-4fcd-aa11-3cbf2991a890","system_id":"levelo_inurba_marseille","lat":43.23197,"lon":5.35557,"is_reserved":false,"is_disabled":false,"rental_uris":{"android":"levelo://app?vid=de993af1-8c6e-4fcd-aa11-3cbf2991a890","ios":"levelo://app?vid=de993af1-8c6e-4fcd-aa11-3cbf2991a890"},"vehicle_type_id":"4","last_reported":1753369881,"current_range_meters":14800,"station_id":"ce4bhu92rcd13ifvqi70","pricing_plan_id":"cebpf4jnsgd1na2vs0mg"},{"bike_id":"81df7d6f-832b-40f6-ad7c-3d213cee8b09","system_id":"levelo_inurba_marseille","lat":43.24072,"lon":5.37759,"is_reserved":false,"is_disabled":false,"rental_uris":{"android":"levelo://app?vid=81df7d6f-832b-40f6-ad7c-3d213cee8b09","ios":"levelo://app?vid=81df7d6f-832b-40f6-ad7c-3d213cee8b09"},"vehicle_type_id":"4","last_reported":1753369881,"current_range_meters":15200,"station_id":"ce4bhnp2rcd13ifvqgvg","pricing_plan_id":"cebpf4jnsgd1na2vs0mg"},{"bike_id":"eaea15aa-98ae-4f78-b37a-80e2e4524837","system_id":"levelo_inurba_marseille","lat":43.297916,"lon":5.381026,"is_reserved":false,"is_disabled":false,"rental_uris":{"android":"levelo://app?vid=eaea15aa-98ae-4f78-b37a-80e2e4524837","ios":"levelo://app?vid=eaea15aa-98ae-4f78-b37a-80e2e4524837"},"vehicle_type_id":"4","last_reported":1753369881,"current_range_meters":15200,"station_id":"","pricing_plan_id":"cebpf4jnsgd1na2vs0mg"},{"bike_id":"66b7c8f1-fa5c-4176-9a72-87f1afd7a6b4","system_id":"levelo_inurba_marseille","lat":43.264998,"lon":5.395408,"is_reserved":false,"is_disabled":false,"rental_uris":{"android":"levelo://app?vid=66b7c8f1-fa5c-4176-9a72-87f1afd7a6b4","ios":"levelo://app?vid=66b7c8f1-fa5c-4176-9a72-87f1afd7a6b4"},"vehicle_type_id":"4","last_reported":1753369881,"current_range_meters":15200,"station_id":"ce4bhi12rcd13ifvqfq0","pricing_plan_id":"cebpf4jnsgd1na2vs0mg"},{"bike_id":"35a86048-76dd-4de0-afb2-7da8772fad44","system_id":"levelo_inurba_marseille","lat":43.21545,"lon":5.34737,"is_reserved":false,"is_disabled":false,"rental_uris":{"android":"levelo://app?vid=35a86048-76dd-4de0-afb2-7da8772fad44","ios":"levelo://app?vid=35a86048-76dd-4de0-afb2-7da8772fad44"},"vehicle_type_id":"4","last_reported":1753369881,"current_range_meters":15200,"station_id":"","pricing_plan_id":"cebpf4jnsgd1na2vs0mg"},{"bike_id":"3ae7efbd-4372-4fd2-bb4e-c6065ecfd330","system_id":"levelo_inurba_marseille","lat":43.26209,"lon":5.37441,"is_reserved":false,"is_disabled":false,"rental_uris":{"android":"levelo://app?vid=3ae7efbd-4372-4fd2-bb4e-c6065ecfd330","ios":"levelo://app?vid=3ae7efbd-4372-4fd2-bb4e-c6065ecfd330"},"vehicle_type_id":"4","last_reported":1753369881,"current_range_meters":15200,"station_id":"ce4bhgp2rcd13ifvqfc0","pricing_plan_id":"cebpf4jnsgd1na2vs0mg"},{"bike_id":"86682107-6f13-4985-882b-d19c3ac848fa","system_id":"levelo_inurba_marseille","lat":43.28419,"lon":5.34992,"is_reserved":false,"is_disabled":false,"rental_uris":{"android":"levelo://app?vid=86682107-6f13-4985-882b-d19c3ac848fa","ios":"levelo://app?vid=86682107-6f13-4985-882b-d19c3ac848fa"},"vehicle_type_id":"4","last_reported":1753369881,"current_range_meters":15200,"station_id":"ce4bhbh2rcd13ifvqepg","pricing_plan_id":"cebpf4jnsgd1na2vs0mg"},{"bike_id":"fbda76a5-068e-4d90-b9ba-25721acd9298","system_id":"levelo_inurba_marseille","lat":43.29031,"lon":5.43978,"is_reserved":false,"is_disabled":false,"rental_uris":{"android":"levelo://app?vid=fbda76a5-068e-4d90-b9ba-25721acd9298","ios":"levelo://app?vid=fbda76a5-068e-4d90-b9ba-25721acd9298"},"vehicle_type_id":"4","last_reported":1753369881,"current_range_meters":16000,"station_id":"","pricing_plan_id":"cebpf4jnsgd1na2vs0mg"},{"bike_id":"819bb1b6-06bc-4eb2-b94e-4388d87b087b","system_id":"levelo_inurba_marseille","lat":43.29717,"lon":5.3661,"is_reserved":false,"is_disabled":false,"rental_uris":{"android":"levelo://app?vid=819bb1b6-06bc-4eb2-b94e-4388d87b087b","ios":"levelo://app?vid=819bb1b6-06bc-4eb2-b94e-4388d87b087b"},"vehicle_type_id":"4","last_reported":1753369881,"current_range_meters":16000,"station_id":"ce4bgn12rcd13ifvqbt0","pricing_plan_id":"cebpf4jnsgd1na2vs0mg"},{"bike_id":"f7f07796-c7c9-4a74-80e9-fb85744448b8","system_id":"levelo_inurba_marseille","lat":43.22943,"lon":5.35384,"is_reserved":false,"is_disabled":false,"rental_uris":{"android":"levelo://app?vid=f7f07796-c7c9-4a74-80e9-fb85744448b8","ios":"levelo://app?vid=f7f07796-c7c9-4a74-80e9-fb85744448b8"},"vehicle_type_id":"4","last_reported":1753369881,"current_range_meters":16000,"station_id":"cpo3532slgdg3j2ikp40","pricing_plan_id":"cebpf4jnsgd1na2vs0mg"},{"bike_id":"e401289a-83cf-4377-aa07-419b9b37079e","system_id":"levelo_inurba_marseille","lat":43.23082,"lon":5.35493,"is_reserved":false,"is_disabled":false,"rental_uris":{"android":"levelo://app?vid=e401289a-83cf-4377-aa07-419b9b37079e","ios":"levelo://app?vid=e401289a-83cf-4377-aa07-419b9b37079e"},"vehicle_type_id":"4","last_reported":1753369881,"current_range_meters":16000,"station_id":"cpo3342slgdg3j2ifvpg","pricing_plan_id":"cebpf4jnsgd1na2vs0mg"},{"bike_id":"df52031d-f6ba-4af3-a318-cddaa787b97a","system_id":"levelo_inurba_marseille","lat":43.27061,"lon":5.40278,"is_reserved":false,"is_disabled":false,"rental_uris":{"android":"levelo://app?vid=df52031d-f6ba-4af3-a318-cddaa787b97a","ios":"levelo://app?vid=df52031d-f6ba-4af3-a318-cddaa787b97a"},"vehicle_type_id":"4","last_reported":1753369881,"current_range_meters":16000,"station_id":"ce4bhk92rcd13ifvqgc0","pricing_plan_id":"cebpf4jnsgd1na2vs0mg"},{"bike_id":"27b5acbc-b1fd-4385-9be5-bae49e9e4f6a","system_id":"levelo_inurba_marseille","lat":43.24835,"lon":5.37441,"is_reserved":false,"is_disabled":false,"rental_uris":{"android":"levelo://app?vid=27b5acbc-b1fd-4385-9be5-bae49e9e4f6a","ios":"levelo://app?vid=27b5acbc-b1fd-4385-9be5-bae49e9e4f6a"},"vehicle_type_id":"4","last_reported":1753369881,"current_range_meters":16000,"station_id":"","pricing_plan_id":"cebpf4jnsgd1na2vs0mg"},{"bike_id":"1f39eb17-34c7-4235-9069-0f68f613789c","system_id":"levelo_inurba_marseille","lat":43.26886,"lon":5.36871,"is_reserved":false,"is_disabled":false,"rental_uris":{"android":"levelo://app?vid=1f39eb17-34c7-4235-9069-0f68f613789c","ios":"levelo://app?vid=1f39eb17-34c7-4235-9069-0f68f613789c"},"vehicle_type_id":"4","last_reported":1753369881,"current_range_meters":16400,"station_id":"","pricing_plan_id":"cebpf4jnsgd1na2vs0mg"},{"bike_id":"efe66c4c-4d34-48e9-921e-0e86e1604460","system_id":"levelo_inurba_marseille","lat":43.29532,"lon":5.38554,"is_reserved":false,"is_disabled":false,"rental_uris":{"android":"levelo://app?vid=efe66c4c-4d34-48e9-921e-0e86e1604460","ios":"levelo://app?vid=efe66c4c-4d34-48e9-921e-0e86e1604460"},"vehicle_type_id":"4","last_reported":1753369881,"current_range_meters":16400,"station_id":"ce4bgih2rcd13ifvqba0","pricing_plan_id":"cebpf4jnsgd1na2vs0mg"},{"bike_id":"98ca3835-b69b-49b5-98dd-e5060329d02a","system_id":"levelo_inurba_marseille","lat":43.29846,"lon":5.36275,"is_reserved":false,"is_disabled":false,"rental_uris":{"android":"levelo://app?vid=98ca3835-b69b-49b5-98dd-e5060329d02a","ios":"levelo://app?vid=98ca3835-b69b-49b5-98dd-e5060329d02a"},"vehicle_type_id":"4","last_reported":1753369881,"current_range_meters":16400,"station_id":"ce4bgpp2rcd13ifvqc3g","pricing_plan_id":"cebpf4jnsgd1na2vs0mg"},{"bike_id":"cd46d7a3-2aff-40e0-9e50-73919cfa0e11","system_id":"levelo_inurba_marseille","lat":43.27363,"lon":5.36222,"is_reserved":false,"is_disabled":false,"rental_uris":{"android":"levelo://app?vid=cd46d7a3-2aff-40e0-9e50-73919cfa0e11","ios":"levelo://app?vid=cd46d7a3-2aff-40e0-9e50-73919cfa0e11"},"vehicle_type_id":"4","last_reported":1753369881,"current_range_meters":16400,"station_id":"ce4bhbh2rcd13ifvqeo0","pricing_plan_id":"cebpf4jnsgd1na2vs0mg"},{"bike_id":"33ce2ff8-7e21-4229-9288-7ac129269db8","system_id":"levelo_inurba_marseille","lat":43.32117,"lon":5.36748,"is_reserved":false,"is_disabled":false,"rental_uris":{"android":"levelo://app?vid=33ce2ff8-7e21-4229-9288-7ac129269db8","ios":"levelo://app?vid=33ce2ff8-7e21-4229-9288-7ac129269db8"},"vehicle_type_id":"4","last_reported":1753369881,"current_range_meters":16400,"station_id":"ce4bhrh2rcd13ifvqhug","pricing_plan_id":"cebpf4jnsgd1na2vs0mg"},{"bike_id":"fce4d388-8795-478a-8265-da0ed839be49","system_id":"levelo_inurba_marseille","lat":43.289411,"lon":5.363937,"is_reserved":false,"is_disabled":false,"rental_uris":{"android":"levelo://app?vid=fce4d388-8795-478a-8265-da0ed839be49","ios":"levelo://app?vid=fce4d388-8795-478a-8265-da0ed839be49"},"vehicle_type_id":"4","last_reported":1753369881,"current_range_meters":16400,"station_id":"ce4bhc92rcd13ifvqetg","pricing_plan_id":"cebpf4jnsgd1na2vs0mg"},{"bike_id":"42dab422-f64b-400f-9015-690859a9ac1b","system_id":"levelo_inurba_marseille","lat":43.281162,"lon":5.378331,"is_reserved":false,"is_disabled":false,"rental_uris":{"android":"levelo://app?vid=42dab422-f64b-400f-9015-690859a9ac1b","ios":"levelo://app?vid=42dab422-f64b-400f-9015-690859a9ac1b"},"vehicle_type_id":"4","last_reported":1753369881,"current_range_meters":16400,"station_id":"ce4bha12rcd13ifvqee0","pricing_plan_id":"cebpf4jnsgd1na2vs0mg"},{"bike_id":"9929c71d-a457-457a-823c-c5ee1b2b1207","system_id":"levelo_inurba_marseille","lat":43.29257,"lon":5.40902,"is_reserved":false,"is_disabled":false,"rental_uris":{"android":"levelo://app?vid=9929c71d-a457-457a-823c-c5ee1b2b1207","ios":"levelo://app?vid=9929c71d-a457-457a-823c-c5ee1b2b1207"},"vehicle_type_id":"4","last_reported":1753369881,"current_range_meters":16400,"station_id":"ce4bh192rcd13ifvqdc0","pricing_plan_id":"cebpf4jnsgd1na2vs0mg"},{"bike_id":"1ddab733-481f-47f7-9c4d-8d52b98354f8","system_id":"levelo_inurba_marseille","lat":43.28273,"lon":5.35052,"is_reserved":false,"is_disabled":false,"rental_uris":{"android":"levelo://app?vid=1ddab733-481f-47f7-9c4d-8d52b98354f8","ios":"levelo://app?vid=1ddab733-481f-47f7-9c4d-8d52b98354f8"},"vehicle_type_id":"4","last_reported":1753369881,"current_range_meters":16400,"station_id":"ce4bhbp2rcd13ifvqerg","pricing_plan_id":"cebpf4jnsgd1na2vs0mg"},{"bike_id":"0aa2d153-96d1-4d69-83b8-d39119aa9dd5","system_id":"levelo_inurba_marseille","lat":43.33523,"lon":5.36229,"is_reserved":false,"is_disabled":false,"rental_uris":{"android":"levelo://app?vid=0aa2d153-96d1-4d69-83b8-d39119aa9dd5","ios":"levelo://app?vid=0aa2d153-96d1-4d69-83b8-d39119aa9dd5"},"vehicle_type_id":"4","last_reported":1753369881,"current_range_meters":16400,"station_id":"","pricing_plan_id":"cebpf4jnsgd1na2vs0mg"},{"bike_id":"81879481-a2f2-4707-b945-42e3b55b52af","system_id":"levelo_inurba_marseille","lat":43.3021,"lon":5.39471,"is_reserved":false,"is_disabled":false,"rental_uris":{"android":"levelo://app?vid=81879481-a2f2-4707-b945-42e3b55b52af","ios":"levelo://app?vid=81879481-a2f2-4707-b945-42e3b55b52af"},"vehicle_type_id":"4","last_reported":1753369881,"current_range_meters":16400,"station_id":"ce4bh0p2rcd13ifvqd70","pricing_plan_id":"cebpf4jnsgd1na2vs0mg"},{"bike_id":"8bf2041f-a165-47bf-84f1-41526695fbf0","system_id":"levelo_inurba_marseille","lat":43.24159,"lon":5.36394,"is_reserved":false,"is_disabled":false,"rental_uris":{"android":"levelo://app?vid=8bf2041f-a165-47bf-84f1-41526695fbf0","ios":"levelo://app?vid=8bf2041f-a165-47bf-84f1-41526695fbf0"},"vehicle_type_id":"4","last_reported":1753369881,"current_range_meters":16400,"station_id":"cpo36qri1sfpv3e86is0","pricing_plan_id":"cebpf4jnsgd1na2vs0mg"},{"bike_id":"5cc79cad-ddd8-405c-b9fe-aa1994994947","system_id":"levelo_inurba_marseille","lat":43.26501,"lon":5.39538,"is_reserved":false,"is_disabled":false,"rental_uris":{"android":"levelo://app?vid=5cc79cad-ddd8-405c-b9fe-aa1994994947","ios":"levelo://app?vid=5cc79cad-ddd8-405c-b9fe-aa1994994947"},"vehicle_type_id":"4","last_reported":1753369881,"current_range_meters":16400,"station_id":"ce4bhi12rcd13ifvqfq0","pricing_plan_id":"cebpf4jnsgd1na2vs0mg"},{"bike_id":"d2c1d56d-6a3a-4ae3-b7ab-84022ad7ad84","system_id":"levelo_inurba_marseille","lat":43.29827,"lon":5.37614,"is_reserved":false,"is_disabled":false,"rental_uris":{"android":"levelo://app?vid=d2c1d56d-6a3a-4ae3-b7ab-84022ad7ad84","ios":"levelo://app?vid=d2c1d56d-6a3a-4ae3-b7ab-84022ad7ad84"},"vehicle_type_id":"4","last_reported":1753369881,"current_range_meters":16400,"station_id":"","pricing_plan_id":"cebpf4jnsgd1na2vs0mg"},{"bike_id":"ec2c5e3f-bcb1-4fe6-b228-30d03b975fcc","system_id":"levelo_inurba_marseille","lat":43.295721,"lon":5.37502,"is_reserved":false,"is_disabled":false,"rental_uris":{"android":"levelo://app?vid=ec2c5e3f-bcb1-4fe6-b228-30d03b975fcc","ios":"levelo://app?vid=ec2c5e3f-bcb1-4fe6-b228-30d03b975fcc"},"vehicle_type_id":"4","last_reported":1753369881,"current_range_meters":16800,"station_id":"ce4bgh92rcd13ifvqb50","pricing_plan_id":"cebpf4jnsgd1na2vs0mg"},{"bike_id":"cab659dd-84d0-48e2-bf38-6a8bb5ccf992","system_id":"levelo_inurba_marseille","lat":43.28705,"lon":5.39984,"is_reserved":false,"is_disabled":false,"rental_uris":{"android":"levelo://app?vid=cab659dd-84d0-48e2-bf38-6a8bb5ccf992","ios":"levelo://app?vid=cab659dd-84d0-48e2-bf38-6a8bb5ccf992"},"vehicle_type_id":"4","last_reported":1753369881,"current_range_meters":16800,"station_id":"ce4bho92rcd13ifvqh3g","pricing_plan_id":"cebpf4jnsgd1na2vs0mg"},{"bike_id":"cf776233-7766-4109-aadc-a0d3c334d400","system_id":"levelo_inurba_marseille","lat":43.24067,"lon":5.37767,"is_reserved":false,"is_disabled":false,"rental_uris":{"android":"levelo://app?vid=cf776233-7766-4109-aadc-a0d3c334d400","ios":"levelo://app?vid=cf776233-7766-4109-aadc-a0d3c334d400"},"vehicle_type_id":"4","last_reported":1753369881,"current_range_meters":16800,"station_id":"ce4bhnp2rcd13ifvqgvg","pricing_plan_id":"cebpf4jnsgd1na2vs0mg"},{"bike_id":"0f853751-4264-4f28-a6f5-6e22f8e1306a","system_id":"levelo_inurba_marseille","lat":43.26684,"lon":5.38267,"is_reserved":false,"is_disabled":false,"rental_uris":{"android":"levelo://app?vid=0f853751-4264-4f28-a6f5-6e22f8e1306a","ios":"levelo://app?vid=0f853751-4264-4f28-a6f5-6e22f8e1306a"},"vehicle_type_id":"4","last_reported":1753369881,"current_range_meters":16800,"station_id":"ce4bhg92rcd13ifvqf90","pricing_plan_id":"cebpf4jnsgd1na2vs0mg"},{"bike_id":"de17926f-a5c3-481c-a42c-2695b56946e8","system_id":"levelo_inurba_marseille","lat":43.30545,"lon":5.36696,"is_reserved":false,"is_disabled":false,"rental_uris":{"android":"levelo://app?vid=de17926f-a5c3-481c-a42c-2695b56946e8","ios":"levelo://app?vid=de17926f-a5c3-481c-a42c-2695b56946e8"},"vehicle_type_id":"4","last_reported":1753369881,"current_range_meters":16800,"station_id":"ce4bgrp2rcd13ifvqc9g","pricing_plan_id":"cebpf4jnsgd1na2vs0mg"},{"bike_id":"ecb8ed1f-611a-405e-8727-926a6b20adf4","system_id":"levelo_inurba_marseille","lat":43.27375,"lon":5.36265,"is_reserved":false,"is_disabled":false,"rental_uris":{"android":"levelo://app?vid=ecb8ed1f-611a-405e-8727-926a6b20adf4","ios":"levelo://app?vid=ecb8ed1f-611a-405e-8727-926a6b20adf4"},"vehicle_type_id":"4","last_reported":1753369881,"current_range_meters":16800,"station_id":"ce4bhbh2rcd13ifvqeo0","pricing_plan_id":"cebpf4jnsgd1na2vs0mg"},{"bike_id":"a2e9f613-09ac-400c-a305-e865a881746c","system_id":"levelo_inurba_marseille","lat":43.21192,"lon":5.3507,"is_reserved":false,"is_disabled":false,"rental_uris":{"android":"levelo://app?vid=a2e9f613-09ac-400c-a305-e865a881746c","ios":"levelo://app?vid=a2e9f613-09ac-400c-a305-e865a881746c"},"vehicle_type_id":"4","last_reported":1753369881,"current_range_meters":16800,"station_id":"st_cvj6sg6p6f1abm77japg","pricing_plan_id":"cebpf4jnsgd1na2vs0mg"},{"bike_id":"d92b80fc-0fc4-4ec7-925c-acbf7e80d3ca","system_id":"levelo_inurba_marseille","lat":43.29623,"lon":5.37721,"is_reserved":false,"is_disabled":false,"rental_uris":{"android":"levelo://app?vid=d92b80fc-0fc4-4ec7-925c-acbf7e80d3ca","ios":"levelo://app?vid=d92b80fc-0fc4-4ec7-925c-acbf7e80d3ca"},"vehicle_type_id":"4","last_reported":1753369881,"current_range_meters":16800,"station_id":"ce4bgi92rcd13ifvqb90","pricing_plan_id":"cebpf4jnsgd1na2vs0mg"},{"bike_id":"784eeebd-2893-4f27-84ae-c797089b4166","system_id":"levelo_inurba_marseille","lat":43.22497,"lon":5.34768,"is_reserved":false,"is_disabled":false,"rental_uris":{"android":"levelo://app?vid=784eeebd-2893-4f27-84ae-c797089b4166","ios":"levelo://app?vid=784eeebd-2893-4f27-84ae-c797089b4166"},"vehicle_type_id":"4","last_reported":1753369881,"current_range_meters":16800,"station_id":"st_cvj5dfep6f1abm77gieg","pricing_plan_id":"cebpf4jnsgd1na2vs0mg"},{"bike_id":"481351de-e3d5-4a6f-aa67-c1762e7ed223","system_id":"levelo_inurba_marseille","lat":43.27092,"lon":5.42285,"is_reserved":false,"is_disabled":false,"rental_uris":{"android":"levelo://app?vid=481351de-e3d5-4a6f-aa67-c1762e7ed223","ios":"levelo://app?vid=481351de-e3d5-4a6f-aa67-c1762e7ed223"},"vehicle_type_id":"4","last_reported":1753369881,"current_range_meters":16800,"station_id":"ce4bhk92rcd13ifvqgb0","pricing_plan_id":"cebpf4jnsgd1na2vs0mg"},{"bike_id":"0a7e2862-d8ec-4c77-89d9-cfcdd51f8d75","system_id":"levelo_inurba_marseille","lat":43.31216,"lon":5.37848,"is_reserved":false,"is_disabled":false,"rental_uris":{"android":"levelo://app?vid=0a7e2862-d8ec-4c77-89d9-cfcdd51f8d75","ios":"levelo://app?vid=0a7e2862-d8ec-4c77-89d9-cfcdd51f8d75"},"vehicle_type_id":"4","last_reported":1753369881,"current_range_meters":16800,"station_id":"","pricing_plan_id":"cebpf4jnsgd1na2vs0mg"},{"bike_id":"d9f8dffe-1529-4217-8933-1dd409154129","system_id":"levelo_inurba_marseille","lat":43.29196,"lon":5.35812,"is_reserved":false,"is_disabled":false,"rental_uris":{"android":"levelo://app?vid=d9f8dffe-1529-4217-8933-1dd409154129","ios":"levelo://app?vid=d9f8dffe-1529-4217-8933-1dd409154129"},"vehicle_type_id":"4","last_reported":1753369881,"current_range_meters":16800,"station_id":"ce4bhb12rcd13ifvqel0","pricing_plan_id":"cebpf4jnsgd1na2vs0mg"},{"bike_id":"9e71a50e-df43-4a48-bc37-13460235be7b","system_id":"levelo_inurba_marseille","lat":43.24162,"lon":5.36401,"is_reserved":false,"is_disabled":false,"rental_uris":{"android":"levelo://app?vid=9e71a50e-df43-4a48-bc37-13460235be7b","ios":"levelo://app?vid=9e71a50e-df43-4a48-bc37-13460235be7b"},"vehicle_type_id":"4","last_reported":1753369881,"current_range_meters":16800,"station_id":"cpo36qri1sfpv3e86is0","pricing_plan_id":"cebpf4jnsgd1na2vs0mg"},{"bike_id":"f2ca3887-7e82-498b-8c49-e80cd18a3051","system_id":"levelo_inurba_marseille","lat":43.23951,"lon":5.36644,"is_reserved":false,"is_disabled":false,"rental_uris":{"android":"levelo://app?vid=f2ca3887-7e82-498b-8c49-e80cd18a3051","ios":"levelo://app?vid=f2ca3887-7e82-498b-8c49-e80cd18a3051"},"vehicle_type_id":"4","last_reported":1753369881,"current_range_meters":17200,"station_id":"ce4bhi12rcd13ifvqfp0","pricing_plan_id":"cebpf4jnsgd1na2vs0mg"},{"bike_id":"c7117e4a-12ce-4a22-8e03-b7f12ecef176","system_id":"levelo_inurba_marseille","lat":43.25504,"lon":5.37643,"is_reserved":false,"is_disabled":false,"rental_uris":{"android":"levelo://app?vid=c7117e4a-12ce-4a22-8e03-b7f12ecef176","ios":"levelo://app?vid=c7117e4a-12ce-4a22-8e03-b7f12ecef176"},"vehicle_type_id":"4","last_reported":1753369881,"current_range_meters":17200,"station_id":"ce4bhh12rcd13ifvqff0","pricing_plan_id":"cebpf4jnsgd1na2vs0mg"},{"bike_id":"898a7b90-76dd-485e-ab4e-4fa7d95ffb9c","system_id":"levelo_inurba_marseille","lat":43.29312,"lon":5.3745,"is_reserved":false,"is_disabled":false,"rental_uris":{"android":"levelo://app?vid=898a7b90-76dd-485e-ab4e-4fa7d95ffb9c","ios":"levelo://app?vid=898a7b90-76dd-485e-ab4e-4fa7d95ffb9c"},"vehicle_type_id":"4","last_reported":1753369881,"current_range_meters":17200,"station_id":"ce4bgi12rcd13ifvqb70","pricing_plan_id":"cebpf4jnsgd1na2vs0mg"},{"bike_id":"72395ef7-f2d0-4336-a74d-d88b6ab9722b","system_id":"levelo_inurba_marseille","lat":43.27609,"lon":5.36107,"is_reserved":false,"is_disabled":false,"rental_uris":{"android":"levelo://app?vid=72395ef7-f2d0-4336-a74d-d88b6ab9722b","ios":"levelo://app?vid=72395ef7-f2d0-4336-a74d-d88b6ab9722b"},"vehicle_type_id":"4","last_reported":1753369881,"current_range_meters":17200,"station_id":"ce4bgj92rcd13ifvqbe0","pricing_plan_id":"cebpf4jnsgd1na2vs0mg"},{"bike_id":"5699dca2-a7f5-4ca6-84ed-f3b3dce17aa8","system_id":"levelo_inurba_marseille","lat":43.305,"lon":5.37905,"is_reserved":false,"is_disabled":false,"rental_uris":{"android":"levelo://app?vid=5699dca2-a7f5-4ca6-84ed-f3b3dce17aa8","ios":"levelo://app?vid=5699dca2-a7f5-4ca6-84ed-f3b3dce17aa8"},"vehicle_type_id":"4","last_reported":1753369881,"current_range_meters":17200,"station_id":"ce4bgup2rcd13ifvqcn0","pricing_plan_id":"cebpf4jnsgd1na2vs0mg"},{"bike_id":"f78b69a5-7f99-469b-9809-db12b867eb2e","system_id":"levelo_inurba_marseille","lat":43.24162,"lon":5.36406,"is_reserved":false,"is_disabled":false,"rental_uris":{"android":"levelo://app?vid=f78b69a5-7f99-469b-9809-db12b867eb2e","ios":"levelo://app?vid=f78b69a5-7f99-469b-9809-db12b867eb2e"},"vehicle_type_id":"4","last_reported":1753369881,"current_range_meters":17200,"station_id":"cpo36qri1sfpv3e86is0","pricing_plan_id":"cebpf4jnsgd1na2vs0mg"},{"bike_id":"2ffec975-994c-41b5-92a0-c00892594018","system_id":"levelo_inurba_marseille","lat":43.28,"lon":5.41663,"is_reserved":false,"is_disabled":false,"rental_uris":{"android":"levelo://app?vid=2ffec975-994c-41b5-92a0-c00892594018","ios":"levelo://app?vid=2ffec975-994c-41b5-92a0-c00892594018"},"vehicle_type_id":"4","last_reported":1753369881,"current_range_meters":17200,"station_id":"ce4bho12rcd13ifvqh1g","pricing_plan_id":"cebpf4jnsgd1na2vs0mg"},{"bike_id":"3b49f3d3-2239-4b9a-9d11-1b44f5b8fade","system_id":"levelo_inurba_marseille","lat":43.2842,"lon":5.34975,"is_reserved":false,"is_disabled":false,"rental_uris":{"android":"levelo://app?vid=3b49f3d3-2239-4b9a-9d11-1b44f5b8fade","ios":"levelo://app?vid=3b49f3d3-2239-4b9a-9d11-1b44f5b8fade"},"vehicle_type_id":"4","last_reported":1753369881,"current_range_meters":17200,"station_id":"ce4bhbh2rcd13ifvqepg","pricing_plan_id":"cebpf4jnsgd1na2vs0mg"},{"bike_id":"91791e62-de89-4263-96ec-9c0a1ff96042","system_id":"levelo_inurba_marseille","lat":43.28571,"lon":5.39493,"is_reserved":false,"is_disabled":false,"rental_uris":{"android":"levelo://app?vid=91791e62-de89-4263-96ec-9c0a1ff96042","ios":"levelo://app?vid=91791e62-de89-4263-96ec-9c0a1ff96042"},"vehicle_type_id":"4","last_reported":1753369881,"current_range_meters":16800,"station_id":"ce4bh292rcd13ifvqdg0","pricing_plan_id":"cebpf4jnsgd1na2vs0mg"},{"bike_id":"ad25e224-b15c-4949-92a3-53289b1bd1fb","system_id":"levelo_inurba_marseille","lat":43.28747,"lon":5.3849,"is_reserved":false,"is_disabled":false,"rental_uris":{"android":"levelo://app?vid=ad25e224-b15c-4949-92a3-53289b1bd1fb","ios":"levelo://app?vid=ad25e224-b15c-4949-92a3-53289b1bd1fb"},"vehicle_type_id":"4","last_reported":1753369881,"current_range_meters":17200,"station_id":"","pricing_plan_id":"cebpf4jnsgd1na2vs0mg"},{"bike_id":"d8ab8225-ebfc-48f1-9981-f15e3b9960ea","system_id":"levelo_inurba_marseille","lat":43.22924,"lon":5.35369,"is_reserved":false,"is_disabled":false,"rental_uris":{"android":"levelo://app?vid=d8ab8225-ebfc-48f1-9981-f15e3b9960ea","ios":"levelo://app?vid=d8ab8225-ebfc-48f1-9981-f15e3b9960ea"},"vehicle_type_id":"4","last_reported":1753369881,"current_range_meters":17200,"station_id":"cpo3532slgdg3j2ikp40","pricing_plan_id":"cebpf4jnsgd1na2vs0mg"},{"bike_id":"b63b11be-5ecd-48c8-a48d-2b0558b136c7","system_id":"levelo_inurba_marseille","lat":43.29222,"lon":5.36063,"is_reserved":false,"is_disabled":false,"rental_uris":{"android":"levelo://app?vid=b63b11be-5ecd-48c8-a48d-2b0558b136c7","ios":"levelo://app?vid=b63b11be-5ecd-48c8-a48d-2b0558b136c7"},"vehicle_type_id":"4","last_reported":1753369881,"current_range_meters":17200,"station_id":"ce4bhbh2rcd13ifvqeqg","pricing_plan_id":"cebpf4jnsgd1na2vs0mg"},{"bike_id":"bad6df5e-c195-43b5-be15-511528a2f610","system_id":"levelo_inurba_marseille","lat":43.29528,"lon":5.38554,"is_reserved":false,"is_disabled":false,"rental_uris":{"android":"levelo://app?vid=bad6df5e-c195-43b5-be15-511528a2f610","ios":"levelo://app?vid=bad6df5e-c195-43b5-be15-511528a2f610"},"vehicle_type_id":"4","last_reported":1753369881,"current_range_meters":17600,"station_id":"ce4bgih2rcd13ifvqba0","pricing_plan_id":"cebpf4jnsgd1na2vs0mg"},{"bike_id":"2991a9a3-9bc4-4932-bad7-d964f589f8aa","system_id":"levelo_inurba_marseille","lat":43.2844,"lon":5.39202,"is_reserved":false,"is_disabled":false,"rental_uris":{"android":"levelo://app?vid=2991a9a3-9bc4-4932-bad7-d964f589f8aa","ios":"levelo://app?vid=2991a9a3-9bc4-4932-bad7-d964f589f8aa"},"vehicle_type_id":"4","last_reported":1753369881,"current_range_meters":17600,"station_id":"ce4bhoh2rcd13ifvqh5g","pricing_plan_id":"cebpf4jnsgd1na2vs0mg"},{"bike_id":"bfddca7c-3825-4dd2-81c9-335257a69f7c","system_id":"levelo_inurba_marseille","lat":43.29589,"lon":5.36749,"is_reserved":false,"is_disabled":false,"rental_uris":{"android":"levelo://app?vid=bfddca7c-3825-4dd2-81c9-335257a69f7c","ios":"levelo://app?vid=bfddca7c-3825-4dd2-81c9-335257a69f7c"},"vehicle_type_id":"4","last_reported":1753369881,"current_range_meters":17600,"station_id":"ce4bgph2rcd13ifvqc2g","pricing_plan_id":"cebpf4jnsgd1na2vs0mg"},{"bike_id":"9af4159e-0d11-46d1-a2b0-2ee39fad0e85","system_id":"levelo_inurba_marseille","lat":43.28482,"lon":5.38559,"is_reserved":false,"is_disabled":false,"rental_uris":{"android":"levelo://app?vid=9af4159e-0d11-46d1-a2b0-2ee39fad0e85","ios":"levelo://app?vid=9af4159e-0d11-46d1-a2b0-2ee39fad0e85"},"vehicle_type_id":"4","last_reported":1753369881,"current_range_meters":17600,"station_id":"ce4bh8p2rcd13ifvqeb0","pricing_plan_id":"cebpf4jnsgd1na2vs0mg"},{"bike_id":"ce193c8e-90e0-4599-95e2-d02b7d163b03","system_id":"levelo_inurba_marseille","lat":43.24079,"lon":5.37748,"is_reserved":false,"is_disabled":false,"rental_uris":{"android":"levelo://app?vid=ce193c8e-90e0-4599-95e2-d02b7d163b03","ios":"levelo://app?vid=ce193c8e-90e0-4599-95e2-d02b7d163b03"},"vehicle_type_id":"4","last_reported":1753369881,"current_range_meters":17600,"station_id":"ce4bhnp2rcd13ifvqgvg","pricing_plan_id":"cebpf4jnsgd1na2vs0mg"},{"bike_id":"261d4bb0-7bb9-4c80-93f3-cd6f68b7285e","system_id":"levelo_inurba_marseille","lat":43.31498,"lon":5.36922,"is_reserved":false,"is_disabled":false,"rental_uris":{"android":"levelo://app?vid=261d4bb0-7bb9-4c80-93f3-cd6f68b7285e","ios":"levelo://app?vid=261d4bb0-7bb9-4c80-93f3-cd6f68b7285e"},"vehicle_type_id":"4","last_reported":1753369881,"current_range_meters":17600,"station_id":"","pricing_plan_id":"cebpf4jnsgd1na2vs0mg"},{"bike_id":"22832dd9-6f40-41f0-84f7-20d5b045fc09","system_id":"levelo_inurba_marseille","lat":43.30384,"lon":5.42485,"is_reserved":false,"is_disabled":false,"rental_uris":{"android":"levelo://app?vid=22832dd9-6f40-41f0-84f7-20d5b045fc09","ios":"levelo://app?vid=22832dd9-6f40-41f0-84f7-20d5b045fc09"},"vehicle_type_id":"4","last_reported":1753369881,"current_range_meters":17600,"station_id":"ce4bhoh2rcd13ifvqh6g","pricing_plan_id":"cebpf4jnsgd1na2vs0mg"},{"bike_id":"f9be419c-f779-4e42-97e9-9fafaa89134d","system_id":"levelo_inurba_marseille","lat":43.29535,"lon":5.38542,"is_reserved":false,"is_disabled":false,"rental_uris":{"android":"levelo://app?vid=f9be419c-f779-4e42-97e9-9fafaa89134d","ios":"levelo://app?vid=f9be419c-f779-4e42-97e9-9fafaa89134d"},"vehicle_type_id":"4","last_reported":1753369881,"current_range_meters":17600,"station_id":"ce4bgih2rcd13ifvqba0","pricing_plan_id":"cebpf4jnsgd1na2vs0mg"},{"bike_id":"53a26903-464f-4fc4-9933-61532f3dde60","system_id":"levelo_inurba_marseille","lat":43.26549,"lon":5.37288,"is_reserved":false,"is_disabled":false,"rental_uris":{"android":"levelo://app?vid=53a26903-464f-4fc4-9933-61532f3dde60","ios":"levelo://app?vid=53a26903-464f-4fc4-9933-61532f3dde60"},"vehicle_type_id":"4","last_reported":1753369881,"current_range_meters":17600,"station_id":"ce4bhg12rcd13ifvqf70","pricing_plan_id":"cebpf4jnsgd1na2vs0mg"},{"bike_id":"5b7c266b-8571-4e49-9c6d-e2a9d8a2e0f0","system_id":"levelo_inurba_marseille","lat":43.2828,"lon":5.35066,"is_reserved":false,"is_disabled":false,"rental_uris":{"android":"levelo://app?vid=5b7c266b-8571-4e49-9c6d-e2a9d8a2e0f0","ios":"levelo://app?vid=5b7c266b-8571-4e49-9c6d-e2a9d8a2e0f0"},"vehicle_type_id":"4","last_reported":1753369881,"current_range_meters":18000,"station_id":"ce4bhbp2rcd13ifvqerg","pricing_plan_id":"cebpf4jnsgd1na2vs0mg"},{"bike_id":"74054fd4-1ac3-4c18-b1e8-192aa565524c","system_id":"levelo_inurba_marseille","lat":43.28418,"lon":5.34982,"is_reserved":false,"is_disabled":false,"rental_uris":{"android":"levelo://app?vid=74054fd4-1ac3-4c18-b1e8-192aa565524c","ios":"levelo://app?vid=74054fd4-1ac3-4c18-b1e8-192aa565524c"},"vehicle_type_id":"4","last_reported":1753369881,"current_range_meters":18000,"station_id":"ce4bhbh2rcd13ifvqepg","pricing_plan_id":"cebpf4jnsgd1na2vs0mg"},{"bike_id":"4b8efed3-9e53-47c8-bfa4-f1fb0beb03b1","system_id":"levelo_inurba_marseille","lat":43.29611,"lon":5.3673,"is_reserved":false,"is_disabled":false,"rental_uris":{"android":"levelo://app?vid=4b8efed3-9e53-47c8-bfa4-f1fb0beb03b1","ios":"levelo://app?vid=4b8efed3-9e53-47c8-bfa4-f1fb0beb03b1"},"vehicle_type_id":"4","last_reported":1753369881,"current_range_meters":18000,"station_id":"ce4bgph2rcd13ifvqc2g","pricing_plan_id":"cebpf4jnsgd1na2vs0mg"},{"bike_id":"9bc7b857-e43b-4b00-8de8-c4348f9e7a24","system_id":"levelo_inurba_marseille","lat":43.2923,"lon":5.36069,"is_reserved":false,"is_disabled":false,"rental_uris":{"android":"levelo://app?vid=9bc7b857-e43b-4b00-8de8-c4348f9e7a24","ios":"levelo://app?vid=9bc7b857-e43b-4b00-8de8-c4348f9e7a24"},"vehicle_type_id":"4","last_reported":1753369881,"current_range_meters":17600,"station_id":"ce4bhbh2rcd13ifvqeqg","pricing_plan_id":"cebpf4jnsgd1na2vs0mg"},{"bike_id":"07852dbe-0308-4400-84a3-f0204cc4d3fa","system_id":"levelo_inurba_marseille","lat":43.21749,"lon":5.34602,"is_reserved":false,"is_disabled":false,"rental_uris":{"android":"levelo://app?vid=07852dbe-0308-4400-84a3-f0204cc4d3fa","ios":"levelo://app?vid=07852dbe-0308-4400-84a3-f0204cc4d3fa"},"vehicle_type_id":"4","last_reported":1753369881,"current_range_meters":18000,"station_id":"st_cvj6r9ubvosntc0bgbag","pricing_plan_id":"cebpf4jnsgd1na2vs0mg"},{"bike_id":"b2f614c1-f1ce-45d1-a9b4-f57ed372de13","system_id":"levelo_inurba_marseille","lat":43.30148,"lon":5.38082,"is_reserved":false,"is_disabled":false,"rental_uris":{"android":"levelo://app?vid=b2f614c1-f1ce-45d1-a9b4-f57ed372de13","ios":"levelo://app?vid=b2f614c1-f1ce-45d1-a9b4-f57ed372de13"},"vehicle_type_id":"4","last_reported":1753369881,"current_range_meters":18000,"station_id":"ce4bgjp2rcd13ifvqbh0","pricing_plan_id":"cebpf4jnsgd1na2vs0mg"},{"bike_id":"c1a88a2e-abf4-41fd-9b3b-6c4ca381ee71","system_id":"levelo_inurba_marseille","lat":43.28502,"lon":5.3856,"is_reserved":false,"is_disabled":false,"rental_uris":{"android":"levelo://app?vid=c1a88a2e-abf4-41fd-9b3b-6c4ca381ee71","ios":"levelo://app?vid=c1a88a2e-abf4-41fd-9b3b-6c4ca381ee71"},"vehicle_type_id":"4","last_reported":1753369881,"current_range_meters":18000,"station_id":"ce4bh8p2rcd13ifvqeb0","pricing_plan_id":"cebpf4jnsgd1na2vs0mg"},{"bike_id":"6aa53531-48dc-406c-9e76-b4abca2b100d","system_id":"levelo_inurba_marseille","lat":43.29592,"lon":5.38098,"is_reserved":false,"is_disabled":false,"rental_uris":{"android":"levelo://app?vid=6aa53531-48dc-406c-9e76-b4abca2b100d","ios":"levelo://app?vid=6aa53531-48dc-406c-9e76-b4abca2b100d"},"vehicle_type_id":"4","last_reported":1753369881,"current_range_meters":18000,"station_id":"ce4bgl12rcd13ifvqbo0","pricing_plan_id":"cebpf4jnsgd1na2vs0mg"},{"bike_id":"e338bbb1-e450-4734-b382-8874b4bc0977","system_id":"levelo_inurba_marseille","lat":43.26556,"lon":5.37281,"is_reserved":false,"is_disabled":false,"rental_uris":{"android":"levelo://app?vid=e338bbb1-e450-4734-b382-8874b4bc0977","ios":"levelo://app?vid=e338bbb1-e450-4734-b382-8874b4bc0977"},"vehicle_type_id":"4","last_reported":1753369881,"current_range_meters":18000,"station_id":"ce4bhg12rcd13ifvqf70","pricing_plan_id":"cebpf4jnsgd1na2vs0mg"},{"bike_id":"43f2fc14-b940-4999-b57f-316adfa27f99","system_id":"levelo_inurba_marseille","lat":43.286134,"lon":5.350981,"is_reserved":false,"is_disabled":false,"rental_uris":{"android":"levelo://app?vid=43f2fc14-b940-4999-b57f-316adfa27f99","ios":"levelo://app?vid=43f2fc14-b940-4999-b57f-316adfa27f99"},"vehicle_type_id":"4","last_reported":1753369881,"current_range_meters":18000,"station_id":"ce4bhch2rcd13ifvqeug","pricing_plan_id":"cebpf4jnsgd1na2vs0mg"},{"bike_id":"975621b1-02b2-43ba-95e3-5e639ac7a8db","system_id":"levelo_inurba_marseille","lat":43.28169,"lon":5.42655,"is_reserved":false,"is_disabled":false,"rental_uris":{"android":"levelo://app?vid=975621b1-02b2-43ba-95e3-5e639ac7a8db","ios":"levelo://app?vid=975621b1-02b2-43ba-95e3-5e639ac7a8db"},"vehicle_type_id":"4","last_reported":1753369881,"current_range_meters":18800,"station_id":"ce4bhnh2rcd13ifvqgug","pricing_plan_id":"cebpf4jnsgd1na2vs0mg"},{"bike_id":"cee10a10-187e-4ed0-bb82-a39b38395646","system_id":"levelo_inurba_marseille","lat":43.24807,"lon":5.37451,"is_reserved":false,"is_disabled":false,"rental_uris":{"android":"levelo://app?vid=cee10a10-187e-4ed0-bb82-a39b38395646","ios":"levelo://app?vid=cee10a10-187e-4ed0-bb82-a39b38395646"},"vehicle_type_id":"4","last_reported":1753369881,"current_range_meters":18800,"station_id":"ce4bhgh2rcd13ifvqfb0","pricing_plan_id":"cebpf4jnsgd1na2vs0mg"},{"bike_id":"0d9afe33-f66a-4fa0-a4dc-1a08d1d19fe1","system_id":"levelo_inurba_marseille","lat":43.25918,"lon":5.40893,"is_reserved":false,"is_disabled":true,"rental_uris":{"android":"levelo://app?vid=0d9afe33-f66a-4fa0-a4dc-1a08d1d19fe1","ios":"levelo://app?vid=0d9afe33-f66a-4fa0-a4dc-1a08d1d19fe1"},"vehicle_type_id":"4","last_reported":1753369881,"current_range_meters":18800,"station_id":"ce4bhm92rcd13ifvqglg","pricing_plan_id":"cebpf4jnsgd1na2vs0mg"},{"bike_id":"184dd696-a175-47ac-8af1-548fdbc31847","system_id":"levelo_inurba_marseille","lat":43.30561,"lon":5.36508,"is_reserved":false,"is_disabled":false,"rental_uris":{"android":"levelo://app?vid=184dd696-a175-47ac-8af1-548fdbc31847","ios":"levelo://app?vid=184dd696-a175-47ac-8af1-548fdbc31847"},"vehicle_type_id":"4","last_reported":1753369881,"current_range_meters":18800,"station_id":"ce4bgs12rcd13ifvqcag","pricing_plan_id":"cebpf4jnsgd1na2vs0mg"},{"bike_id":"586093fb-4baf-415b-83fa-15651387051d","system_id":"levelo_inurba_marseille","lat":43.28477,"lon":5.38417,"is_reserved":false,"is_disabled":false,"rental_uris":{"android":"levelo://app?vid=586093fb-4baf-415b-83fa-15651387051d","ios":"levelo://app?vid=586093fb-4baf-415b-83fa-15651387051d"},"vehicle_type_id":"4","last_reported":1753369881,"current_range_meters":18800,"station_id":"ce4bh512rcd13ifvqe3g","pricing_plan_id":"cebpf4jnsgd1na2vs0mg"},{"bike_id":"21bb3fef-81ef-46bb-a48d-d85402757c94","system_id":"levelo_inurba_marseille","lat":43.254505,"lon":5.37989,"is_reserved":false,"is_disabled":false,"rental_uris":{"android":"levelo://app?vid=21bb3fef-81ef-46bb-a48d-d85402757c94","ios":"levelo://app?vid=21bb3fef-81ef-46bb-a48d-d85402757c94"},"vehicle_type_id":"4","last_reported":1753369881,"current_range_meters":18800,"station_id":"","pricing_plan_id":"cebpf4jnsgd1na2vs0mg"},{"bike_id":"0a11b43f-6dcd-42a4-a203-68d22f765de5","system_id":"levelo_inurba_marseille","lat":43.26789,"lon":5.39417,"is_reserved":false,"is_disabled":false,"rental_uris":{"android":"levelo://app?vid=0a11b43f-6dcd-42a4-a203-68d22f765de5","ios":"levelo://app?vid=0a11b43f-6dcd-42a4-a203-68d22f765de5"},"vehicle_type_id":"4","last_reported":1753369881,"current_range_meters":18800,"station_id":"ce4bhh12rcd13ifvqfg0","pricing_plan_id":"cebpf4jnsgd1na2vs0mg"},{"bike_id":"1e9cf983-3afc-4620-a4d4-2dd094704fd1","system_id":"levelo_inurba_marseille","lat":43.22502,"lon":5.34777,"is_reserved":false,"is_disabled":false,"rental_uris":{"android":"levelo://app?vid=1e9cf983-3afc-4620-a4d4-2dd094704fd1","ios":"levelo://app?vid=1e9cf983-3afc-4620-a4d4-2dd094704fd1"},"vehicle_type_id":"4","last_reported":1753369881,"current_range_meters":18800,"station_id":"st_cvj5dfep6f1abm77gieg","pricing_plan_id":"cebpf4jnsgd1na2vs0mg"},{"bike_id":"dddbef83-b47e-460f-a4ac-beade05833f1","system_id":"levelo_inurba_marseille","lat":43.22962,"lon":5.35364,"is_reserved":false,"is_disabled":false,"rental_uris":{"android":"levelo://app?vid=dddbef83-b47e-460f-a4ac-beade05833f1","ios":"levelo://app?vid=dddbef83-b47e-460f-a4ac-beade05833f1"},"vehicle_type_id":"4","last_reported":1753369881,"current_range_meters":18800,"station_id":"cpo3532slgdg3j2ikp40","pricing_plan_id":"cebpf4jnsgd1na2vs0mg"},{"bike_id":"8b9851f4-fd89-4636-854d-4a34cb4ed39c","system_id":"levelo_inurba_marseille","lat":43.23199,"lon":5.35548,"is_reserved":false,"is_disabled":false,"rental_uris":{"android":"levelo://app?vid=8b9851f4-fd89-4636-854d-4a34cb4ed39c","ios":"levelo://app?vid=8b9851f4-fd89-4636-854d-4a34cb4ed39c"},"vehicle_type_id":"4","last_reported":1753369881,"current_range_meters":18800,"station_id":"ce4bhu92rcd13ifvqi70","pricing_plan_id":"cebpf4jnsgd1na2vs0mg"},{"bike_id":"5d3598ef-1bad-4315-a82e-6d8d757affba","system_id":"levelo_inurba_marseille","lat":43.31073,"lon":5.38351,"is_reserved":false,"is_disabled":false,"rental_uris":{"android":"levelo://app?vid=5d3598ef-1bad-4315-a82e-6d8d757affba","ios":"levelo://app?vid=5d3598ef-1bad-4315-a82e-6d8d757affba"},"vehicle_type_id":"4","last_reported":1753369881,"current_range_meters":18800,"station_id":"ce4bgv92rcd13ifvqcr0","pricing_plan_id":"cebpf4jnsgd1na2vs0mg"},{"bike_id":"b0d10abf-fee1-43ae-a666-41beace55491","system_id":"levelo_inurba_marseille","lat":43.284757,"lon":5.349857,"is_reserved":false,"is_disabled":false,"rental_uris":{"android":"levelo://app?vid=b0d10abf-fee1-43ae-a666-41beace55491","ios":"levelo://app?vid=b0d10abf-fee1-43ae-a666-41beace55491"},"vehicle_type_id":"4","last_reported":1753369881,"current_range_meters":18800,"station_id":"","pricing_plan_id":"cebpf4jnsgd1na2vs0mg"},{"bike_id":"91a1a090-14ff-4864-ab64-65ac4f58f132","system_id":"levelo_inurba_marseille","lat":43.24164,"lon":5.36394,"is_reserved":false,"is_disabled":false,"rental_uris":{"android":"levelo://app?vid=91a1a090-14ff-4864-ab64-65ac4f58f132","ios":"levelo://app?vid=91a1a090-14ff-4864-ab64-65ac4f58f132"},"vehicle_type_id":"4","last_reported":1753369881,"current_range_meters":19200,"station_id":"cpo36qri1sfpv3e86is0","pricing_plan_id":"cebpf4jnsgd1na2vs0mg"},{"bike_id":"fd13a871-6a7c-45ab-8193-0aedb29a36fc","system_id":"levelo_inurba_marseille","lat":43.2655,"lon":5.37301,"is_reserved":false,"is_disabled":false,"rental_uris":{"android":"levelo://app?vid=fd13a871-6a7c-45ab-8193-0aedb29a36fc","ios":"levelo://app?vid=fd13a871-6a7c-45ab-8193-0aedb29a36fc"},"vehicle_type_id":"4","last_reported":1753369881,"current_range_meters":19200,"station_id":"ce4bhg12rcd13ifvqf70","pricing_plan_id":"cebpf4jnsgd1na2vs0mg"},{"bike_id":"ca782468-c648-447a-8a11-fe05f38f241e","system_id":"levelo_inurba_marseille","lat":43.28467,"lon":5.384358,"is_reserved":false,"is_disabled":false,"rental_uris":{"android":"levelo://app?vid=ca782468-c648-447a-8a11-fe05f38f241e","ios":"levelo://app?vid=ca782468-c648-447a-8a11-fe05f38f241e"},"vehicle_type_id":"4","last_reported":1753369881,"current_range_meters":19200,"station_id":"ce4bh512rcd13ifvqe3g","pricing_plan_id":"cebpf4jnsgd1na2vs0mg"},{"bike_id":"5becfa54-161a-4c3a-aab1-1bf8199fd81d","system_id":"levelo_inurba_marseille","lat":43.29843,"lon":5.36264,"is_reserved":false,"is_disabled":false,"rental_uris":{"android":"levelo://app?vid=5becfa54-161a-4c3a-aab1-1bf8199fd81d","ios":"levelo://app?vid=5becfa54-161a-4c3a-aab1-1bf8199fd81d"},"vehicle_type_id":"4","last_reported":1753369881,"current_range_meters":19200,"station_id":"ce4bgpp2rcd13ifvqc3g","pricing_plan_id":"cebpf4jnsgd1na2vs0mg"},{"bike_id":"3bba2034-46e3-49ff-b61e-4973ef75d793","system_id":"levelo_inurba_marseille","lat":43.30606,"lon":5.372408,"is_reserved":false,"is_disabled":false,"rental_uris":{"android":"levelo://app?vid=3bba2034-46e3-49ff-b61e-4973ef75d793","ios":"levelo://app?vid=3bba2034-46e3-49ff-b61e-4973ef75d793"},"vehicle_type_id":"4","last_reported":1753369881,"current_range_meters":19200,"station_id":"ce4bgqh2rcd13ifvqc4g","pricing_plan_id":"cebpf4jnsgd1na2vs0mg"},{"bike_id":"3f2dbf2a-1d98-4e0d-b123-8f657b18517e","system_id":"levelo_inurba_marseille","lat":43.284197,"lon":5.349788,"is_reserved":false,"is_disabled":false,"rental_uris":{"android":"levelo://app?vid=3f2dbf2a-1d98-4e0d-b123-8f657b18517e","ios":"levelo://app?vid=3f2dbf2a-1d98-4e0d-b123-8f657b18517e"},"vehicle_type_id":"4","last_reported":1753369881,"current_range_meters":19600,"station_id":"ce4bhbh2rcd13ifvqepg","pricing_plan_id":"cebpf4jnsgd1na2vs0mg"},{"bike_id":"36df35d6-4692-48d5-93d7-118e70081c3a","system_id":"levelo_inurba_marseille","lat":43.29574,"lon":5.37497,"is_reserved":false,"is_disabled":false,"rental_uris":{"android":"levelo://app?vid=36df35d6-4692-48d5-93d7-118e70081c3a","ios":"levelo://app?vid=36df35d6-4692-48d5-93d7-118e70081c3a"},"vehicle_type_id":"4","last_reported":1753369881,"current_range_meters":19600,"station_id":"ce4bgh92rcd13ifvqb50","pricing_plan_id":"cebpf4jnsgd1na2vs0mg"},{"bike_id":"2fccc2eb-9347-4473-9fe6-3e5d25fd717a","system_id":"levelo_inurba_marseille","lat":43.33764,"lon":5.37427,"is_reserved":false,"is_disabled":false,"rental_uris":{"android":"levelo://app?vid=2fccc2eb-9347-4473-9fe6-3e5d25fd717a","ios":"levelo://app?vid=2fccc2eb-9347-4473-9fe6-3e5d25fd717a"},"vehicle_type_id":"4","last_reported":1753369881,"current_range_meters":19600,"station_id":"","pricing_plan_id":"cebpf4jnsgd1na2vs0mg"},{"bike_id":"00fc4696-e72c-4173-9cda-3ffcb5d15efb","system_id":"levelo_inurba_marseille","lat":43.30903,"lon":5.37079,"is_reserved":false,"is_disabled":false,"rental_uris":{"android":"levelo://app?vid=00fc4696-e72c-4173-9cda-3ffcb5d15efb","ios":"levelo://app?vid=00fc4696-e72c-4173-9cda-3ffcb5d15efb"},"vehicle_type_id":"4","last_reported":1753369881,"current_range_meters":19600,"station_id":"ce4bgqh2rcd13ifvqc4g","pricing_plan_id":"cebpf4jnsgd1na2vs0mg"},{"bike_id":"cf321470-3422-4864-a2b3-8e56e10e4f67","system_id":"levelo_inurba_marseille","lat":43.27374,"lon":5.36255,"is_reserved":false,"is_disabled":false,"rental_uris":{"android":"levelo://app?vid=cf321470-3422-4864-a2b3-8e56e10e4f67","ios":"levelo://app?vid=cf321470-3422-4864-a2b3-8e56e10e4f67"},"vehicle_type_id":"4","last_reported":1753369881,"current_range_meters":19600,"station_id":"ce4bhbh2rcd13ifvqeo0","pricing_plan_id":"cebpf4jnsgd1na2vs0mg"},{"bike_id":"1c6f98e7-bffb-444b-98ce-c5a83f3b3c24","system_id":"levelo_inurba_marseille","lat":43.24801,"lon":5.37451,"is_reserved":false,"is_disabled":false,"rental_uris":{"android":"levelo://app?vid=1c6f98e7-bffb-444b-98ce-c5a83f3b3c24","ios":"levelo://app?vid=1c6f98e7-bffb-444b-98ce-c5a83f3b3c24"},"vehicle_type_id":"4","last_reported":1753369881,"current_range_meters":19600,"station_id":"ce4bhgh2rcd13ifvqfb0","pricing_plan_id":"cebpf4jnsgd1na2vs0mg"},{"bike_id":"14ffbbbf-ed70-4da3-a852-d9ce364933d9","system_id":"levelo_inurba_marseille","lat":43.30376,"lon":5.42488,"is_reserved":false,"is_disabled":false,"rental_uris":{"android":"levelo://app?vid=14ffbbbf-ed70-4da3-a852-d9ce364933d9","ios":"levelo://app?vid=14ffbbbf-ed70-4da3-a852-d9ce364933d9"},"vehicle_type_id":"4","last_reported":1753369881,"current_range_meters":19600,"station_id":"ce4bhoh2rcd13ifvqh6g","pricing_plan_id":"cebpf4jnsgd1na2vs0mg"},{"bike_id":"635d529b-81db-4d95-967c-681543329cb0","system_id":"levelo_inurba_marseille","lat":43.299,"lon":5.43674,"is_reserved":false,"is_disabled":false,"rental_uris":{"android":"levelo://app?vid=635d529b-81db-4d95-967c-681543329cb0","ios":"levelo://app?vid=635d529b-81db-4d95-967c-681543329cb0"},"vehicle_type_id":"4","last_reported":1753369881,"current_range_meters":19600,"station_id":"ce4bhpp2rcd13ifvqhfg","pricing_plan_id":"cebpf4jnsgd1na2vs0mg"},{"bike_id":"73d53f9e-6d06-49e9-9fd5-8a5d787e0327","system_id":"levelo_inurba_marseille","lat":43.24167,"lon":5.36398,"is_reserved":false,"is_disabled":false,"rental_uris":{"android":"levelo://app?vid=73d53f9e-6d06-49e9-9fd5-8a5d787e0327","ios":"levelo://app?vid=73d53f9e-6d06-49e9-9fd5-8a5d787e0327"},"vehicle_type_id":"4","last_reported":1753369881,"current_range_meters":19600,"station_id":"cpo36qri1sfpv3e86is0","pricing_plan_id":"cebpf4jnsgd1na2vs0mg"},{"bike_id":"e8a2dcb0-3d9a-4bc1-bbcc-e1e1cdf9cccf","system_id":"levelo_inurba_marseille","lat":43.32483,"lon":5.36565,"is_reserved":false,"is_disabled":false,"rental_uris":{"android":"levelo://app?vid=e8a2dcb0-3d9a-4bc1-bbcc-e1e1cdf9cccf","ios":"levelo://app?vid=e8a2dcb0-3d9a-4bc1-bbcc-e1e1cdf9cccf"},"vehicle_type_id":"4","last_reported":1753369881,"current_range_meters":19600,"station_id":"ce4bhs12rcd13ifvqhvg","pricing_plan_id":"cebpf4jnsgd1na2vs0mg"},{"bike_id":"4f5c2d6f-4fb6-4654-a412-5c1da940c4bc","system_id":"levelo_inurba_marseille","lat":43.299807,"lon":5.384855,"is_reserved":false,"is_disabled":false,"rental_uris":{"android":"levelo://app?vid=4f5c2d6f-4fb6-4654-a412-5c1da940c4bc","ios":"levelo://app?vid=4f5c2d6f-4fb6-4654-a412-5c1da940c4bc"},"vehicle_type_id":"4","last_reported":1753369881,"current_range_meters":19600,"station_id":"ce4bgj92rcd13ifvqbd0","pricing_plan_id":"cebpf4jnsgd1na2vs0mg"},{"bike_id":"cf5577ea-8085-442d-b092-8cf7a9d9102b","system_id":"levelo_inurba_marseille","lat":43.32359,"lon":5.36688,"is_reserved":false,"is_disabled":false,"rental_uris":{"android":"levelo://app?vid=cf5577ea-8085-442d-b092-8cf7a9d9102b","ios":"levelo://app?vid=cf5577ea-8085-442d-b092-8cf7a9d9102b"},"vehicle_type_id":"4","last_reported":1753369881,"current_range_meters":20000,"station_id":"","pricing_plan_id":"cebpf4jnsgd1na2vs0mg"},{"bike_id":"b6de2225-b9e6-4aa4-a8c5-976b20af76a4","system_id":"levelo_inurba_marseille","lat":43.27988,"lon":5.416605,"is_reserved":false,"is_disabled":false,"rental_uris":{"android":"levelo://app?vid=b6de2225-b9e6-4aa4-a8c5-976b20af76a4","ios":"levelo://app?vid=b6de2225-b9e6-4aa4-a8c5-976b20af76a4"},"vehicle_type_id":"4","last_reported":1753369881,"current_range_meters":20000,"station_id":"ce4bho12rcd13ifvqh1g","pricing_plan_id":"cebpf4jnsgd1na2vs0mg"},{"bike_id":"a61c3ffa-f010-453d-a8ff-d64e52ad67dc","system_id":"levelo_inurba_marseille","lat":43.29686,"lon":5.38245,"is_reserved":false,"is_disabled":false,"rental_uris":{"android":"levelo://app?vid=a61c3ffa-f010-453d-a8ff-d64e52ad67dc","ios":"levelo://app?vid=a61c3ffa-f010-453d-a8ff-d64e52ad67dc"},"vehicle_type_id":"4","last_reported":1753369881,"current_range_meters":20400,"station_id":"","pricing_plan_id":"cebpf4jnsgd1na2vs0mg"},{"bike_id":"6afc798f-4a06-4994-844e-ef65d6413983","system_id":"levelo_inurba_marseille","lat":43.301238,"lon":5.387855,"is_reserved":false,"is_disabled":false,"rental_uris":{"android":"levelo://app?vid=6afc798f-4a06-4994-844e-ef65d6413983","ios":"levelo://app?vid=6afc798f-4a06-4994-844e-ef65d6413983"},"vehicle_type_id":"4","last_reported":1753369881,"current_range_meters":20000,"station_id":"","pricing_plan_id":"cebpf4jnsgd1na2vs0mg"},{"bike_id":"a0394b8b-680f-4090-aca3-05dbb133df46","system_id":"levelo_inurba_marseille","lat":43.29068,"lon":5.37173,"is_reserved":false,"is_disabled":false,"rental_uris":{"android":"levelo://app?vid=a0394b8b-680f-4090-aca3-05dbb133df46","ios":"levelo://app?vid=a0394b8b-680f-4090-aca3-05dbb133df46"},"vehicle_type_id":"4","last_reported":1753369881,"current_range_meters":20000,"station_id":"ce4bh5p2rcd13ifvqe4g","pricing_plan_id":"cebpf4jnsgd1na2vs0mg"},{"bike_id":"9b566f25-25c6-4488-945b-126a749c7de3","system_id":"levelo_inurba_marseille","lat":43.24169,"lon":5.36398,"is_reserved":false,"is_disabled":false,"rental_uris":{"android":"levelo://app?vid=9b566f25-25c6-4488-945b-126a749c7de3","ios":"levelo://app?vid=9b566f25-25c6-4488-945b-126a749c7de3"},