{"last_updated":1728166112,"ttl":60,"version":"2.2","data":{"bikes":[{"bike_id":"b3fb91ee-2552-4bb1-b638-e1c008f0fbc7","system_id":"levelo_inurba_marseille","lat":43.26062,"lon":5.39398,"is_reserved":false,"is_disabled":false,"rental_uris":{"android":"levelo://app?vid=b3fb91ee-2552-4bb1-b638-e1c008f0fbc7","ios":"levelo://app?vid=b3fb91ee-2552-4bb1-b638-e1c008f0fbc7"},"vehicle_type_id":"4","last_reported":1728166112,"current_range_meters":38800,"station_id":"ce4bhh92rcd13ifvqfj0","pricing_plan_id":"cebpf4jnsgd1na2vs0mg"},{"bike_id":"e626ce58-ed24-403d-b16f-1544c4a5d89a","system_id":"levelo_inurba_marseille","lat":43.23198,"lon":5.35553,"is_reserved":false,"is_disabled":false,"rental_uris":{"android":"levelo://app?vid=e626ce58-ed24-403d-b16f-1544c4a5d89a","ios":"levelo://app?vid=e626ce58-ed24-403d-b16f-1544c4a5d89a"},"vehicle_type_id":"4","last_reported":1728166112,"current_range_meters":38800,"station_id":"ce4bhu92rcd13ifvqi70","pricing_plan_id":"cebpf4jnsgd1na2vs0mg"},{"bike_id":"8141a509-e797-4ec3-9b27-a12ebc8090b6","system_id":"levelo_inurba_marseille","lat":43.25124,"lon":5.40321,"is_reserved":false,"is_disabled":false,"rental_uris":{"android":"levelo://app?vid=8141a509-e797-4ec3-9b27-a12ebc8090b6","ios":"levelo://app?vid=8141a509-e797-4ec3-9b27-a12ebc8090b6"},"vehicle_type_id":"4","last_reported":1728166112,"current_range_meters":38800,"station_id":"ce4bhlh2rcd13ifvqgig","pricing_plan_id":"cebpf4jnsgd1na2vs0mg"},{"bike_id":"9671f252-4906-4ded-9eb9-fd7886dcac1f","system_id":"levelo_inurba_marseille","lat":43.317563,"lon":5.390147,"is_reserved":false,"is_disabled":false,"rental_uris":{"android":"levelo://app?vid=9671f252-4906-4ded-9eb9-fd7886dcac1f","ios":"levelo://app?vid=9671f252-4906-4ded-9eb9-fd7886dcac1f"},"vehicle_type_id":"4","last_reported":1728166112,"current_range_meters":38800,"station_id":"ce4bhqp2rcd13ifvqhng","pricing_plan_id":"cebpf4jnsgd1na2vs0mg"},{"bike_id":"442824c6-8b63-4a71-93f0-6531329b40f0","system_id":"levelo_inurba_marseille","lat":43.29193,"lon":5.35799,"is_reserved":false,"is_disabled":false,"rental_uris":{"android":"levelo://app?vid=442824c6-8b63-4a71-93f0-6531329b40f0","ios":"levelo://app?vid=442824c6-8b63-4a71-93f0-6531329b40f0"},"vehicle_type_id":"4","last_reported":1728166112,"current_range_meters":30800,"station_id":"ce4bhb12rcd13ifvqel0","pricing_plan_id":"cebpf4jnsgd1na2vs0mg"},{"bike_id":"3edccbad-c604-40df-acb2-6e9d91b67298","system_id":"levelo_inurba_marseille","lat":43.33776,"lon":5.37421,"is_reserved":false,"is_disabled":false,"rental_uris":{"android":"levelo://app?vid=3edccbad-c604-40df-acb2-6e9d91b67298","ios":"levelo://app?vid=3edccbad-c604-40df-acb2-6e9d91b67298"},"vehicle_type_id":"4","last_reported":1728166112,"current_range_meters":32400,"station_id":"","pricing_plan_id":"cebpf4jnsgd1na2vs0mg"},{"bike_id":"b61105c9-5f1e-4699-8e08-a403d8915d27","system_id":"levelo_inurba_marseille","lat":43.27174,"lon":5.40997,"is_reserved":false,"is_disabled":false,"rental_uris":{"android":"levelo://app?vid=b61105c9-5f1e-4699-8e08-a403d8915d27","ios":"levelo://app?vid=b61105c9-5f1e-4699-8e08-a403d8915d27"},"vehicle_type_id":"4","last_reported":1728166112,"current_range_meters":16400,"station_id":"ce4bhl12rcd13ifvqgf0","pricing_plan_id":"cebpf4jnsgd1na2vs0mg"},{"bike_id":"f42ba909-c6af-4d4c-bcad-ee9c6f8944ff","system_id":"levelo_inurba_marseille","lat":43.31753,"lon":5.39016,"is_reserved":false,"is_disabled":false,"rental_uris":{"android":"levelo://app?vid=f42ba909-c6af-4d4c-bcad-ee9c6f8944ff","ios":"levelo://app?vid=f42ba909-c6af-4d4c-bcad-ee9c6f8944ff"},"vehicle_type_id":"4","last_reported":1728166112,"current_range_meters":30800,"station_id":"ce4bhqp2rcd13ifvqhng","pricing_plan_id":"cebpf4jnsgd1na2vs0mg"},{"bike_id":"2b95e316-1940-4083-bf39-ae8850120b7f","system_id":"levelo_inurba_marseille","lat":43.29797,"lon":5.404,"is_reserved":false,"is_disabled":false,"rental_uris":{"android":"levelo://app?vid=2b95e316-1940-4083-bf39-ae8850120b7f","ios":"levelo://app?vid=2b95e316-1940-4083-bf39-ae8850120b7f"},"vehicle_type_id":"4","last_reported":1728166112,"current_range_meters":8400,"station_id":"ce4bh112rcd13ifvqd90","pricing_plan_id":"cebpf4jnsgd1na2vs0mg"},{"bike_id":"b934926f-6d49-4e0a-adc3-19f7fcca2ef5","system_id":"levelo_inurba_marseille","lat":43.289524,"lon":5.366481,"is_reserved":false,"is_disabled":false,"rental_uris":{"android":"levelo://app?vid=b934926f-6d49-4e0a-adc3-19f7fcca2ef5","ios":"levelo://app?vid=b934926f-6d49-4e0a-adc3-19f7fcca2ef5"},"vehicle_type_id":"4","last_reported":1728166112,"current_range_meters":28800,"station_id":"ce4bhap2rcd13ifvqek0","pricing_plan_id":"cebpf4jnsgd1na2vs0mg"},{"bike_id":"31ea6b97-9b1b-4830-91db-ea5d9e36526f","system_id":"levelo_inurba_marseille","lat":43.28043,"lon":5.3695,"is_reserved":false,"is_disabled":false,"rental_uris":{"android":"levelo://app?vid=31ea6b97-9b1b-4830-91db-ea5d9e36526f","ios":"levelo://app?vid=31ea6b97-9b1b-4830-91db-ea5d9e36526f"},"vehicle_type_id":"4","last_reported":1728166112,"current_range_meters":22800,"station_id":"ce4bha12rcd13ifvqef0","pricing_plan_id":"cebpf4jnsgd1na2vs0mg"},{"bike_id":"ba0180d4-cf64-48df-8270-0db5fe20d0c7","system_id":"levelo_inurba_marseille","lat":43.29549,"lon":5.42276,"is_reserved":false,"is_disabled":false,"rental_uris":{"android":"levelo://app?vid=ba0180d4-cf64-48df-8270-0db5fe20d0c7","ios":"levelo://app?vid=ba0180d4-cf64-48df-8270-0db5fe20d0c7"},"vehicle_type_id":"4","last_reported":1728166112,"current_range_meters":39200,"station_id":"ce4bhph2rcd13ifvqhdg","pricing_plan_id":"cebpf4jnsgd1na2vs0mg"},{"bike_id":"6266ab0d-036e-4351-aec4-c2f2013119e5","system_id":"levelo_inurba_marseille","lat":43.32481,"lon":5.36573,"is_reserved":false,"is_disabled":false,"rental_uris":{"android":"levelo://app?vid=6266ab0d-036e-4351-aec4-c2f2013119e5","ios":"levelo://app?vid=6266ab0d-036e-4351-aec4-c2f2013119e5"},"vehicle_type_id":"4","last_reported":1728166112,"current_range_meters":27600,"station_id":"ce4bhs12rcd13ifvqhvg","pricing_plan_id":"cebpf4jnsgd1na2vs0mg"},{"bike_id":"2c1ccc48-7b9a-4b96-82c1-feb476287a75","system_id":"levelo_inurba_marseille","lat":43.25087,"lon":5.39518,"is_reserved":false,"is_disabled":false,"rental_uris":{"android":"levelo://app?vid=2c1ccc48-7b9a-4b96-82c1-feb476287a75","ios":"levelo://app?vid=2c1ccc48-7b9a-4b96-82c1-feb476287a75"},"vehicle_type_id":"4","last_reported":1728166112,"current_range_meters":38000,"station_id":"ce4bhm12rcd13ifvqgkg","pricing_plan_id":"cebpf4jnsgd1na2vs0mg"},{"bike_id":"f11dd066-6b94-4d0b-8a87-cb59e5dabda0","system_id":"levelo_inurba_marseille","lat":43.31271,"lon":5.4017,"is_reserved":false,"is_disabled":false,"rental_uris":{"android":"levelo://app?vid=f11dd066-6b94-4d0b-8a87-cb59e5dabda0","ios":"levelo://app?vid=f11dd066-6b94-4d0b-8a87-cb59e5dabda0"},"vehicle_type_id":"4","last_reported":1728166112,"current_range_meters":39200,"station_id":"ce4bh092rcd13ifvqd30","pricing_plan_id":"cebpf4jnsgd1na2vs0mg"},{"bike_id":"e944e2c8-3cc4-4553-bf9c-19fb03b060de","system_id":"levelo_inurba_marseille","lat":43.31239,"lon":5.36861,"is_reserved":false,"is_disabled":false,"rental_uris":{"android":"levelo://app?vid=e944e2c8-3cc4-4553-bf9c-19fb03b060de","ios":"levelo://app?vid=e944e2c8-3cc4-4553-bf9c-19fb03b060de"},"vehicle_type_id":"4","last_reported":1728166112,"current_range_meters":24400,"station_id":"ce4bgl92rcd13ifvqbq0","pricing_plan_id":"cebpf4jnsgd1na2vs0mg"},{"bike_id":"75dbce07-c755-4145-9e54-8edf0905547b","system_id":"levelo_inurba_marseille","lat":43.2784,"lon":5.392097,"is_reserved":false,"is_disabled":false,"rental_uris":{"android":"levelo://app?vid=75dbce07-c755-4145-9e54-8edf0905547b","ios":"levelo://app?vid=75dbce07-c755-4145-9e54-8edf0905547b"},"vehicle_type_id":"4","last_reported":1728166112,"current_range_meters":38400,"station_id":"ce4bhjp2rcd13ifvqga0","pricing_plan_id":"cebpf4jnsgd1na2vs0mg"},{"bike_id":"68ecf37e-031f-4b6a-a3d6-30fc7a23d9ad","system_id":"levelo_inurba_marseille","lat":43.28079,"lon":5.39659,"is_reserved":false,"is_disabled":false,"rental_uris":{"android":"levelo://app?vid=68ecf37e-031f-4b6a-a3d6-30fc7a23d9ad","ios":"levelo://app?vid=68ecf37e-031f-4b6a-a3d6-30fc7a23d9ad"},"vehicle_type_id":"4","last_reported":1728166112,"current_range_meters":8400,"station_id":"ce4bho12rcd13ifvqh2g","pricing_plan_id":"cebpf4jnsgd1na2vs0mg"},{"bike_id":"84acb416-9569-4743-a39e-b06a0a332988","system_id":"levelo_inurba_marseille","lat":43.29522,"lon":5.39045,"is_reserved":false,"is_disabled":false,"rental_uris":{"android":"levelo://app?vid=84acb416-9569-4743-a39e-b06a0a332988","ios":"levelo://app?vid=84acb416-9569-4743-a39e-b06a0a332988"},"vehicle_type_id":"4","last_reported":1728166112,"current_range_meters":26000,"station_id":"ce4bh3p2rcd13ifvqdp0","pricing_plan_id":"cebpf4jnsgd1na2vs0mg"},{"bike_id":"a013fc0e-79f4-4493-bf94-abf4fcb0118b","system_id":"levelo_inurba_marseille","lat":43.28112,"lon":5.37839,"is_reserved":false,"is_disabled":false,"rental_uris":{"android":"levelo://app?vid=a013fc0e-79f4-4493-bf94-abf4fcb0118b","ios":"levelo://app?vid=a013fc0e-79f4-4493-bf94-abf4fcb0118b"},"vehicle_type_id":"4","last_reported":1728166112,"current_range_meters":18800,"station_id":"ce4bha12rcd13ifvqee0","pricing_plan_id":"cebpf4jnsgd1na2vs0mg"},{"bike_id":"8f568ac0-6709-4e1b-976a-2ebd965361a0","system_id":"levelo_inurba_marseille","lat":43.31531,"lon":5.38029,"is_reserved":false,"is_disabled":false,"rental_uris":{"android":"levelo://app?vid=8f568ac0-6709-4e1b-976a-2ebd965361a0","ios":"levelo://app?vid=8f568ac0-6709-4e1b-976a-2ebd965361a0"},"vehicle_type_id":"4","last_reported":1728166112,"current_range_meters":6800,"station_id":"ce4bhsp2rcd13ifvqi50","pricing_plan_id":"cebpf4jnsgd1na2vs0mg"},{"bike_id":"03ebdfef-60b9-4383-b780-f6e10ef5dff9","system_id":"levelo_inurba_marseille","lat":43.33755,"lon":5.3744,"is_reserved":false,"is_disabled":false,"rental_uris":{"android":"levelo://app?vid=03ebdfef-60b9-4383-b780-f6e10ef5dff9","ios":"levelo://app?vid=03ebdfef-60b9-4383-b780-f6e10ef5dff9"},"vehicle_type_id":"4","last_reported":1728166112,"current_range_meters":30800,"station_id":"","pricing_plan_id":"cebpf4jnsgd1na2vs0mg"},{"bike_id":"2af3a296-acf1-4a1b-ac20-a269b1358416","system_id":"levelo_inurba_marseille","lat":43.25828,"lon":5.39436,"is_reserved":false,"is_disabled":false,"rental_uris":{"android":"levelo://app?vid=2af3a296-acf1-4a1b-ac20-a269b1358416","ios":"levelo://app?vid=2af3a296-acf1-4a1b-ac20-a269b1358416"},"vehicle_type_id":"4","last_reported":1728166112,"current_range_meters":38800,"station_id":"ce4bhip2rcd13ifvqft0","pricing_plan_id":"cebpf4jnsgd1na2vs0mg"},{"bike_id":"5fd3c8d8-8874-456c-9bd2-373adcd43b0f","system_id":"levelo_inurba_marseille","lat":43.29292,"lon":5.37446,"is_reserved":false,"is_disabled":false,"rental_uris":{"android":"levelo://app?vid=5fd3c8d8-8874-456c-9bd2-373adcd43b0f","ios":"levelo://app?vid=5fd3c8d8-8874-456c-9bd2-373adcd43b0f"},"vehicle_type_id":"4","last_reported":1728166112,"current_range_meters":38000,"station_id":"ce4bgi12rcd13ifvqb70","pricing_plan_id":"cebpf4jnsgd1na2vs0mg"},{"bike_id":"8f7f6f45-3748-479f-b795-6ab1b137f800","system_id":"levelo_inurba_marseille","lat":43.29849,"lon":5.36278,"is_reserved":false,"is_disabled":false,"rental_uris":{"android":"levelo://app?vid=8f7f6f45-3748-479f-b795-6ab1b137f800","ios":"levelo://app?vid=8f7f6f45-3748-479f-b795-6ab1b137f800"},"vehicle_type_id":"4","last_reported":1728166112,"current_range_meters":38000,"station_id":"ce4bgpp2rcd13ifvqc3g","pricing_plan_id":"cebpf4jnsgd1na2vs0mg"},{"bike_id":"0952ea56-7f44-4708-ab22-7a7a98985b63","system_id":"levelo_inurba_marseille","lat":43.33029,"lon":5.39042,"is_reserved":false,"is_disabled":false,"rental_uris":{"android":"levelo://app?vid=0952ea56-7f44-4708-ab22-7a7a98985b63","ios":"levelo://app?vid=0952ea56-7f44-4708-ab22-7a7a98985b63"},"vehicle_type_id":"4","last_reported":1728166112,"current_range_meters":34000,"station_id":"ce4bhr92rcd13ifvqhrg","pricing_plan_id":"cebpf4jnsgd1na2vs0mg"},{"bike_id":"8c4ede2a-8479-4951-912b-e9104b176599","system_id":"levelo_inurba_marseille","lat":43.33723,"lon":5.39198,"is_reserved":false,"is_disabled":false,"rental_uris":{"android":"levelo://app?vid=8c4ede2a-8479-4951-912b-e9104b176599","ios":"levelo://app?vid=8c4ede2a-8479-4951-912b-e9104b176599"},"vehicle_type_id":"4","last_reported":1728166112,"current_range_meters":10000,"station_id":"ce4bhr92rcd13ifvqhsg","pricing_plan_id":"cebpf4jnsgd1na2vs0mg"},{"bike_id":"a209a971-131e-491a-94c0-3302688dd8c9","system_id":"levelo_inurba_marseille","lat":43.3081,"lon":5.43504,"is_reserved":false,"is_disabled":false,"rental_uris":{"android":"levelo://app?vid=a209a971-131e-491a-94c0-3302688dd8c9","ios":"levelo://app?vid=a209a971-131e-491a-94c0-3302688dd8c9"},"vehicle_type_id":"4","last_reported":1728166112,"current_range_meters":16000,"station_id":"ce4bhph2rcd13ifvqheg","pricing_plan_id":"cebpf4jnsgd1na2vs0mg"},{"bike_id":"4018fa26-9a2a-4214-af21-76b3667a940b","system_id":"levelo_inurba_marseille","lat":43.33755,"lon":5.37437,"is_reserved":false,"is_disabled":false,"rental_uris":{"android":"levelo://app?vid=4018fa26-9a2a-4214-af21-76b3667a940b","ios":"levelo://app?vid=4018fa26-9a2a-4214-af21-76b3667a940b"},"vehicle_type_id":"4","last_reported":1728166112,"current_range_meters":30800,"station_id":"","pricing_plan_id":"cebpf4jnsgd1na2vs0mg"},{"bike_id":"6fbb3f77-8d44-40fd-aad7-d7a9679219c1","system_id":"levelo_inurba_marseille","lat":43.30555,"lon":5.36558,"is_reserved":false,"is_disabled":false,"rental_uris":{"android":"levelo://app?vid=6fbb3f77-8d44-40fd-aad7-d7a9679219c1","ios":"levelo://app?vid=6fbb3f77-8d44-40fd-aad7-d7a9679219c1"},"vehicle_type_id":"4","last_reported":1728166112,"current_range_meters":25200,"station_id":"ce4bgs12rcd13ifvqcag","pricing_plan_id":"cebpf4jnsgd1na2vs0mg"},{"bike_id":"66a3911d-261b-4658-9123-6edcbc033e45","system_id":"levelo_inurba_marseille","lat":43.29276,"lon":5.36842,"is_reserved":false,"is_disabled":false,"rental_uris":{"android":"levelo://app?vid=66a3911d-261b-4658-9123-6edcbc033e45","ios":"levelo://app?vid=66a3911d-261b-4658-9123-6edcbc033e45"},"vehicle_type_id":"4","last_reported":1728166112,"current_range_meters":13600,"station_id":"ce4bhbp2rcd13ifvqesg","pricing_plan_id":"cebpf4jnsgd1na2vs0mg"},{"bike_id":"fac6f7d5-25da-4d75-bd37-6eb9ec641f1f","system_id":"levelo_inurba_marseille","lat":43.23192,"lon":5.35552,"is_reserved":false,"is_disabled":false,"rental_uris":{"android":"levelo://app?vid=fac6f7d5-25da-4d75-bd37-6eb9ec641f1f","ios":"levelo://app?vid=fac6f7d5-25da-4d75-bd37-6eb9ec641f1f"},"vehicle_type_id":"4","last_reported":1728166112,"current_range_meters":38800,"station_id":"ce4bhu92rcd13ifvqi70","pricing_plan_id":"cebpf4jnsgd1na2vs0mg"},{"bike_id":"ac7477e2-647f-4698-b2f1-05ac6bd7ca79","system_id":"levelo_inurba_marseille","lat":43.2738,"lon":5.36257,"is_reserved":false,"is_disabled":false,"rental_uris":{"android":"levelo://app?vid=ac7477e2-647f-4698-b2f1-05ac6bd7ca79","ios":"levelo://app?vid=ac7477e2-647f-4698-b2f1-05ac6bd7ca79"},"vehicle_type_id":"4","last_reported":1728166112,"current_range_meters":36800,"station_id":"ce4bhbh2rcd13ifvqeo0","pricing_plan_id":"cebpf4jnsgd1na2vs0mg"},{"bike_id":"69b330ae-1dc4-4893-985f-b03e6f6b07e8","system_id":"levelo_inurba_marseille","lat":43.31225,"lon":5.36862,"is_reserved":false,"is_disabled":false,"rental_uris":{"android":"levelo://app?vid=69b330ae-1dc4-4893-985f-b03e6f6b07e8","ios":"levelo://app?vid=69b330ae-1dc4-4893-985f-b03e6f6b07e8"},"vehicle_type_id":"4","last_reported":1728166112,"current_range_meters":22800,"station_id":"ce4bgl92rcd13ifvqbq0","pricing_plan_id":"cebpf4jnsgd1na2vs0mg"},{"bike_id":"40e38b6a-2bd7-4c7d-a0d0-e49ed511d27f","system_id":"levelo_inurba_marseille","lat":43.31495,"lon":5.37315,"is_reserved":false,"is_disabled":false,"rental_uris":{"android":"levelo://app?vid=40e38b6a-2bd7-4c7d-a0d0-e49ed511d27f","ios":"levelo://app?vid=40e38b6a-2bd7-4c7d-a0d0-e49ed511d27f"},"vehicle_type_id":"4","last_reported":1728166112,"current_range_meters":38400,"station_id":"ce4bgt12rcd13ifvqcd0","pricing_plan_id":"cebpf4jnsgd1na2vs0mg"},{"bike_id":"8a215b77-09cd-4eb2-b786-7c50084e1a42","system_id":"levelo_inurba_marseille","lat":43.28104,"lon":5.37836,"is_reserved":false,"is_disabled":false,"rental_uris":{"android":"levelo://app?vid=8a215b77-09cd-4eb2-b786-7c50084e1a42","ios":"levelo://app?vid=8a215b77-09cd-4eb2-b786-7c50084e1a42"},"vehicle_type_id":"4","last_reported":1728166112,"current_range_meters":31200,"station_id":"ce4bha12rcd13ifvqee0","pricing_plan_id":"cebpf4jnsgd1na2vs0mg"},{"bike_id":"9f9f1a67-e75a-4927-a0cb-128d377764ef","system_id":"levelo_inurba_marseille","lat":43.28617,"lon":5.370587,"is_reserved":false,"is_disabled":false,"rental_uris":{"android":"levelo://app?vid=9f9f1a67-e75a-4927-a0cb-128d377764ef","ios":"levelo://app?vid=9f9f1a67-e75a-4927-a0cb-128d377764ef"},"vehicle_type_id":"4","last_reported":1728166112,"current_range_meters":39200,"station_id":"ce4bht12rcd13ifvqi60","pricing_plan_id":"cebpf4jnsgd1na2vs0mg"},{"bike_id":"270d446c-c917-4cb4-bb1b-6308ef4780b2","system_id":"levelo_inurba_marseille","lat":43.31371,"lon":5.38493,"is_reserved":false,"is_disabled":false,"rental_uris":{"android":"levelo://app?vid=270d446c-c917-4cb4-bb1b-6308ef4780b2","ios":"levelo://app?vid=270d446c-c917-4cb4-bb1b-6308ef4780b2"},"vehicle_type_id":"4","last_reported":1728166112,"current_range_meters":11600,"station_id":"ce4bgt92rcd13ifvqcf0","pricing_plan_id":"cebpf4jnsgd1na2vs0mg"},{"bike_id":"be80d8a2-d07f-4e97-a19e-421069027a70","system_id":"levelo_inurba_marseille","lat":43.24543,"lon":5.39523,"is_reserved":false,"is_disabled":false,"rental_uris":{"android":"levelo://app?vid=be80d8a2-d07f-4e97-a19e-421069027a70","ios":"levelo://app?vid=be80d8a2-d07f-4e97-a19e-421069027a70"},"vehicle_type_id":"4","last_reported":1728166112,"current_range_meters":38800,"station_id":"ce4bhlp2rcd13ifvqgjg","pricing_plan_id":"cebpf4jnsgd1na2vs0mg"},{"bike_id":"491813ec-5bcd-4eda-acb2-c01ccb4e9894","system_id":"levelo_inurba_marseille","lat":43.33767,"lon":5.37435,"is_reserved":false,"is_disabled":false,"rental_uris":{"android":"levelo://app?vid=491813ec-5bcd-4eda-acb2-c01ccb4e9894","ios":"levelo://app?vid=491813ec-5bcd-4eda-acb2-c01ccb4e9894"},"vehicle_type_id":"4","last_reported":1728166112,"current_range_meters":33200,"station_id":"","pricing_plan_id":"cebpf4jnsgd1na2vs0mg"},{"bike_id":"3e73745e-f9be-4060-862f-b92f1ee6a9ab","system_id":"levelo_inurba_marseille","lat":43.31381,"lon":5.38503,"is_reserved":false,"is_disabled":false,"rental_uris":{"android":"levelo://app?vid=3e73745e-f9be-4060-862f-b92f1ee6a9ab","ios":"levelo://app?vid=3e73745e-f9be-4060-862f-b92f1ee6a9ab"},"vehicle_type_id":"4","last_reported":1728166112,"current_range_meters":30000,"station_id":"ce4bgt92rcd13ifvqcf0","pricing_plan_id":"cebpf4jnsgd1na2vs0mg"},{"bike_id":"87be7a17-4302-4965-8336-821c2174ed32","system_id":"levelo_inurba_marseille","lat":43.25122,"lon":5.40325,"is_reserved":false,"is_disabled":false,"rental_uris":{"android":"levelo://app?vid=87be7a17-4302-4965-8336-821c2174ed32","ios":"levelo://app?vid=87be7a17-4302-4965-8336-821c2174ed32"},"vehicle_type_id":"4","last_reported":1728166112,"current_range_meters":38800,"station_id":"ce4bhlh2rcd13ifvqgig","pricing_plan_id":"cebpf4jnsgd1na2vs0mg"},{"bike_id":"c56a7f6d-1c51-4af0-848a-53ce2371dbf4","system_id":"levelo_inurba_marseille","lat":43.31723,"lon":5.42406,"is_reserved":false,"is_disabled":false,"rental_uris":{"android":"levelo://app?vid=c56a7f6d-1c51-4af0-848a-53ce2371dbf4","ios":"levelo://app?vid=c56a7f6d-1c51-4af0-848a-53ce2371dbf4"},"vehicle_type_id":"4","last_reported":1728166112,"current_range_meters":19200,"station_id":"ce4bhp92rcd13ifvqhbg","pricing_plan_id":"cebpf4jnsgd1na2vs0mg"},{"bike_id":"baba7691-81ff-4c7d-90d9-c89eba9696cb","system_id":"levelo_inurba_marseille","lat":43.25929,"lon":5.40912,"is_reserved":false,"is_disabled":false,"rental_uris":{"android":"levelo://app?vid=baba7691-81ff-4c7d-90d9-c89eba9696cb","ios":"levelo://app?vid=baba7691-81ff-4c7d-90d9-c89eba9696cb"},"vehicle_type_id":"4","last_reported":1728166112,"current_range_meters":35200,"station_id":"ce4bhm92rcd13ifvqglg","pricing_plan_id":"cebpf4jnsgd1na2vs0mg"},{"bike_id":"598e7482-d528-4354-8ef8-35deedd58485","system_id":"levelo_inurba_marseille","lat":43.296875,"lon":5.367309,"is_reserved":false,"is_disabled":false,"rental_uris":{"android":"levelo://app?vid=598e7482-d528-4354-8ef8-35deedd58485","ios":"levelo://app?vid=598e7482-d528-4354-8ef8-35deedd58485"},"vehicle_type_id":"4","last_reported":1728166112,"current_range_meters":24000,"station_id":"ce4bgn12rcd13ifvqbt0","pricing_plan_id":"cebpf4jnsgd1na2vs0mg"},{"bike_id":"440f242b-7f5d-4c83-979b-ed6b352094ea","system_id":"levelo_inurba_marseille","lat":43.2811,"lon":5.37839,"is_reserved":false,"is_disabled":false,"rental_uris":{"android":"levelo://app?vid=440f242b-7f5d-4c83-979b-ed6b352094ea","ios":"levelo://app?vid=440f242b-7f5d-4c83-979b-ed6b352094ea"},"vehicle_type_id":"4","last_reported":1728166112,"current_range_meters":33200,"station_id":"ce4bha12rcd13ifvqee0","pricing_plan_id":"cebpf4jnsgd1na2vs0mg"},{"bike_id":"2b08579d-333c-4fe2-94e8-5ba5b8475885","system_id":"levelo_inurba_marseille","lat":43.27074,"lon":5.42282,"is_reserved":false,"is_disabled":false,"rental_uris":{"android":"levelo://app?vid=2b08579d-333c-4fe2-94e8-5ba5b8475885","ios":"levelo://app?vid=2b08579d-333c-4fe2-94e8-5ba5b8475885"},"vehicle_type_id":"4","last_reported":1728166112,"current_range_meters":39200,"station_id":"ce4bhk92rcd13ifvqgb0","pricing_plan_id":"cebpf4jnsgd1na2vs0mg"},{"bike_id":"be1fc320-dd97-4954-ac7c-7de9b96a03e0","system_id":"levelo_inurba_marseille","lat":43.2956,"lon":5.42286,"is_reserved":false,"is_disabled":false,"rental_uris":{"android":"levelo://app?vid=be1fc320-dd97-4954-ac7c-7de9b96a03e0","ios":"levelo://app?vid=be1fc320-dd97-4954-ac7c-7de9b96a03e0"},"vehicle_type_id":"4","last_reported":1728166112,"current_range_meters":14800,"station_id":"ce4bhph2rcd13ifvqhdg","pricing_plan_id":"cebpf4jnsgd1na2vs0mg"},{"bike_id":"1a4b9bee-9297-474e-8c5a-addba9e72262","system_id":"levelo_inurba_marseille","lat":43.27492,"lon":5.40928,"is_reserved":false,"is_disabled":false,"rental_uris":{"android":"levelo://app?vid=1a4b9bee-9297-474e-8c5a-addba9e72262","ios":"levelo://app?vid=1a4b9bee-9297-474e-8c5a-addba9e72262"},"vehicle_type_id":"4","last_reported":1728166112,"current_range_meters":35200,"station_id":"","pricing_plan_id":"cebpf4jnsgd1na2vs0mg"},{"bike_id":"d23ddbe4-840b-4d6d-8e13-a20922334a77","system_id":"levelo_inurba_marseille","lat":43.32494,"lon":5.36555,"is_reserved":false,"is_disabled":false,"rental_uris":{"android":"levelo://app?vid=d23ddbe4-840b-4d6d-8e13-a20922334a77","ios":"levelo://app?vid=d23ddbe4-840b-4d6d-8e13-a20922334a77"},"vehicle_type_id":"4","last_reported":1728166112,"current_range_meters":38000,"station_id":"ce4bhs12rcd13ifvqhvg","pricing_plan_id":"cebpf4jnsgd1na2vs0mg"},{"bike_id":"0e3cf241-7527-4f7c-ae18-430d3dc049bd","system_id":"levelo_inurba_marseille","lat":43.313438,"lon":5.367196,"is_reserved":false,"is_disabled":false,"rental_uris":{"android":"levelo://app?vid=0e3cf241-7527-4f7c-ae18-430d3dc049bd","ios":"levelo://app?vid=0e3cf241-7527-4f7c-ae18-430d3dc049bd"},"vehicle_type_id":"4","last_reported":1728166112,"current_range_meters":39200,"station_id":"ce4bgr92rcd13ifvqc6g","pricing_plan_id":"cebpf4jnsgd1na2vs0mg"},{"bike_id":"4af55307-045f-4c66-a045-a91d88bb4c16","system_id":"levelo_inurba_marseille","lat":43.337631,"lon":5.374364,"is_reserved":false,"is_disabled":false,"rental_uris":{"android":"levelo://app?vid=4af55307-045f-4c66-a045-a91d88bb4c16","ios":"levelo://app?vid=4af55307-045f-4c66-a045-a91d88bb4c16"},"vehicle_type_id":"4","last_reported":1728166112,"current_range_meters":34000,"station_id":"","pricing_plan_id":"cebpf4jnsgd1na2vs0mg"},{"bike_id":"18a95a5b-e535-4ce1-97d9-5ab4913b5f8a","system_id":"levelo_inurba_marseille","lat":43.30437,"lon":5.39746,"is_reserved":false,"is_disabled":false,"rental_uris":{"android":"levelo://app?vid=18a95a5b-e535-4ce1-97d9-5ab4913b5f8a","ios":"levelo://app?vid=18a95a5b-e535-4ce1-97d9-5ab4913b5f8a"},"vehicle_type_id":"4","last_reported":1728166112,"current_range_meters":18000,"station_id":"ce4bh092rcd13ifvqd20","pricing_plan_id":"cebpf4jnsgd1na2vs0mg"},{"bike_id":"068f5cf8-0245-4579-be7c-07da2b81e056","system_id":"levelo_inurba_marseille","lat":43.3125,"lon":5.36861,"is_reserved":false,"is_disabled":false,"rental_uris":{"android":"levelo://app?vid=068f5cf8-0245-4579-be7c-07da2b81e056","ios":"levelo://app?vid=068f5cf8-0245-4579-be7c-07da2b81e056"},"vehicle_type_id":"4","last_reported":1728166112,"current_range_meters":40000,"station_id":"ce4bgl92rcd13ifvqbq0","pricing_plan_id":"cebpf4jnsgd1na2vs0mg"},{"bike_id":"13a35d1a-1c21-4cdd-9282-17040c700716","system_id":"levelo_inurba_marseille","lat":43.3254,"lon":5.41435,"is_reserved":false,"is_disabled":false,"rental_uris":{"android":"levelo://app?vid=13a35d1a-1c21-4cdd-9282-17040c700716","ios":"levelo://app?vid=13a35d1a-1c21-4cdd-9282-17040c700716"},"vehicle_type_id":"4","last_reported":1728166112,"current_range_meters":36800,"station_id":"ce4bhq12rcd13ifvqhhg","pricing_plan_id":"cebpf4jnsgd1na2vs0mg"},{"bike_id":"5fe9af2d-0282-40cf-ae73-3a1b842e2f4b","system_id":"levelo_inurba_marseille","lat":43.2306,"lon":5.3549,"is_reserved":false,"is_disabled":false,"rental_uris":{"android":"levelo://app?vid=5fe9af2d-0282-40cf-ae73-3a1b842e2f4b","ios":"levelo://app?vid=5fe9af2d-0282-40cf-ae73-3a1b842e2f4b"},"vehicle_type_id":"4","last_reported":1728166112,"current_range_meters":38800,"station_id":"","pricing_plan_id":"cebpf4jnsgd1na2vs0mg"},{"bike_id":"544c5222-5e5f-424c-97d9-902e66ffec96","system_id":"levelo_inurba_marseille","lat":43.31131,"lon":5.37755,"is_reserved":false,"is_disabled":false,"rental_uris":{"android":"levelo://app?vid=544c5222-5e5f-424c-97d9-902e66ffec96","ios":"levelo://app?vid=544c5222-5e5f-424c-97d9-902e66ffec96"},"vehicle_type_id":"4","last_reported":1728166112,"current_range_meters":38800,"station_id":"ce4bgt92rcd13ifvqcg0","pricing_plan_id":"cebpf4jnsgd1na2vs0mg"},{"bike_id":"ec6e251e-99d1-4ac4-a075-545dbd029bdc","system_id":"levelo_inurba_marseille","lat":43.28906,"lon":5.36202,"is_reserved":false,"is_disabled":false,"rental_uris":{"android":"levelo://app?vid=ec6e251e-99d1-4ac4-a075-545dbd029bdc","ios":"levelo://app?vid=ec6e251e-99d1-4ac4-a075-545dbd029bdc"},"vehicle_type_id":"4","last_reported":1728166112,"current_range_meters":32400,"station_id":"","pricing_plan_id":"cebpf4jnsgd1na2vs0mg"},{"bike_id":"32de8690-8902-45d9-9261-1a5a54055b39","system_id":"levelo_inurba_marseille","lat":43.33028,"lon":5.39045,"is_reserved":false,"is_disabled":false,"rental_uris":{"android":"levelo://app?vid=32de8690-8902-45d9-9261-1a5a54055b39","ios":"levelo://app?vid=32de8690-8902-45d9-9261-1a5a54055b39"},"vehicle_type_id":"4","last_reported":1728166112,"current_range_meters":38800,"station_id":"ce4bhr92rcd13ifvqhrg","pricing_plan_id":"cebpf4jnsgd1na2vs0mg"},{"bike_id":"6a4acb12-a5ac-4a0e-a8f4-746f667028fc","system_id":"levelo_inurba_marseille","lat":43.29264,"lon":5.40913,"is_reserved":false,"is_disabled":false,"rental_uris":{"android":"levelo://app?vid=6a4acb12-a5ac-4a0e-a8f4-746f667028fc","ios":"levelo://app?vid=6a4acb12-a5ac-4a0e-a8f4-746f667028fc"},"vehicle_type_id":"4","last_reported":1728166112,"current_range_meters":36400,"station_id":"ce4bh192rcd13ifvqdc0","pricing_plan_id":"cebpf4jnsgd1na2vs0mg"},{"bike_id":"f41af709-4741-45bf-a75a-e5e2fdef89e3","system_id":"levelo_inurba_marseille","lat":43.2873,"lon":5.36084,"is_reserved":false,"is_disabled":false,"rental_uris":{"android":"levelo://app?vid=f41af709-4741-45bf-a75a-e5e2fdef89e3","ios":"levelo://app?vid=f41af709-4741-45bf-a75a-e5e2fdef89e3"},"vehicle_type_id":"4","last_reported":1728166112,"current_range_meters":38800,"station_id":"cki0cbj6b192h4jlfktg","pricing_plan_id":"cebpf4jnsgd1na2vs0mg"},{"bike_id":"e02a32f4-7ccf-4757-a318-fbbbca006162","system_id":"levelo_inurba_marseille","lat":43.29844,"lon":5.36261,"is_reserved":false,"is_disabled":false,"rental_uris":{"android":"levelo://app?vid=e02a32f4-7ccf-4757-a318-fbbbca006162","ios":"levelo://app?vid=e02a32f4-7ccf-4757-a318-fbbbca006162"},"vehicle_type_id":"4","last_reported":1728166112,"current_range_meters":28400,"station_id":"ce4bgpp2rcd13ifvqc3g","pricing_plan_id":"cebpf4jnsgd1na2vs0mg"},{"bike_id":"6916fd24-bd81-4871-b084-648f134e4878","system_id":"levelo_inurba_marseille","lat":43.2799,"lon":5.41655,"is_reserved":false,"is_disabled":false,"rental_uris":{"android":"levelo://app?vid=6916fd24-bd81-4871-b084-648f134e4878","ios":"levelo://app?vid=6916fd24-bd81-4871-b084-648f134e4878"},"vehicle_type_id":"4","last_reported":1728166112,"current_range_meters":13600,"station_id":"ce4bho12rcd13ifvqh1g","pricing_plan_id":"cebpf4jnsgd1na2vs0mg"},{"bike_id":"fbb0cad0-14b6-4c7d-9200-f513fd7607d7","system_id":"levelo_inurba_marseille","lat":43.30896,"lon":5.39636,"is_reserved":false,"is_disabled":false,"rental_uris":{"android":"levelo://app?vid=fbb0cad0-14b6-4c7d-9200-f513fd7607d7","ios":"levelo://app?vid=fbb0cad0-14b6-4c7d-9200-f513fd7607d7"},"vehicle_type_id":"4","last_reported":1728166112,"current_range_meters":9200,"station_id":"ce4bh012rcd13ifvqcv0","pricing_plan_id":"cebpf4jnsgd1na2vs0mg"},{"bike_id":"a79cc37e-cb1a-479a-99cf-70bd4e6e70b7","system_id":"levelo_inurba_marseille","lat":43.295324,"lon":5.374553,"is_reserved":false,"is_disabled":false,"rental_uris":{"android":"levelo://app?vid=a79cc37e-cb1a-479a-99cf-70bd4e6e70b7","ios":"levelo://app?vid=a79cc37e-cb1a-479a-99cf-70bd4e6e70b7"},"vehicle_type_id":"4","last_reported":1728166112,"current_range_meters":27200,"station_id":"ce4bgkp2rcd13ifvqbmg","pricing_plan_id":"cebpf4jnsgd1na2vs0mg"},{"bike_id":"be56f1a4-275f-4091-81c4-2d7d1e9dc326","system_id":"levelo_inurba_marseille","lat":43.28158,"lon":5.42638,"is_reserved":false,"is_disabled":false,"rental_uris":{"android":"levelo://app?vid=be56f1a4-275f-4091-81c4-2d7d1e9dc326","ios":"levelo://app?vid=be56f1a4-275f-4091-81c4-2d7d1e9dc326"},"vehicle_type_id":"4","last_reported":1728166112,"current_range_meters":2800,"station_id":"ce4bhnh2rcd13ifvqgug","pricing_plan_id":"cebpf4jnsgd1na2vs0mg"},{"bike_id":"7bdb7c2b-f8c2-4053-a533-394af5695c37","system_id":"levelo_inurba_marseille","lat":43.2927,"lon":5.36697,"is_reserved":false,"is_disabled":false,"rental_uris":{"android":"levelo://app?vid=7bdb7c2b-f8c2-4053-a533-394af5695c37","ios":"levelo://app?vid=7bdb7c2b-f8c2-4053-a533-394af5695c37"},"vehicle_type_id":"4","last_reported":1728166112,"current_range_meters":18800,"station_id":"","pricing_plan_id":"cebpf4jnsgd1na2vs0mg"},{"bike_id":"f495d872-4d89-400d-b3a8-14cdea358d2d","system_id":"levelo_inurba_marseille","lat":43.31068,"lon":5.38352,"is_reserved":false,"is_disabled":false,"rental_uris":{"android":"levelo://app?vid=f495d872-4d89-400d-b3a8-14cdea358d2d","ios":"levelo://app?vid=f495d872-4d89-400d-b3a8-14cdea358d2d"},"vehicle_type_id":"4","last_reported":1728166112,"current_range_meters":7200,"station_id":"ce4bgv92rcd13ifvqcr0","pricing_plan_id":"cebpf4jnsgd1na2vs0mg"},{"bike_id":"2223b6cf-60c6-41bf-b1cd-7d09873a1aa5","system_id":"levelo_inurba_marseille","lat":43.26059,"lon":5.39395,"is_reserved":false,"is_disabled":false,"rental_uris":{"android":"levelo://app?vid=2223b6cf-60c6-41bf-b1cd-7d09873a1aa5","ios":"levelo://app?vid=2223b6cf-60c6-41bf-b1cd-7d09873a1aa5"},"vehicle_type_id":"4","last_reported":1728166112,"current_range_meters":38800,"station_id":"ce4bhh92rcd13ifvqfj0","pricing_plan_id":"cebpf4jnsgd1na2vs0mg"},{"bike_id":"4f4e9e0c-e903-4be6-82e9-f28e71a7523f","system_id":"levelo_inurba_marseille","lat":43.30321,"lon":5.36906,"is_reserved":false,"is_disabled":false,"rental_uris":{"android":"levelo://app?vid=4f4e9e0c-e903-4be6-82e9-f28e71a7523f","ios":"levelo://app?vid=4f4e9e0c-e903-4be6-82e9-f28e71a7523f"},"vehicle_type_id":"4","last_reported":1728166112,"current_range_meters":8400,"station_id":"ce4bgqh2rcd13ifvqc5g","pricing_plan_id":"cebpf4jnsgd1na2vs0mg"},{"bike_id":"57ffa585-11f6-4ab5-8b24-fd17944ddaf3","system_id":"levelo_inurba_marseille","lat":43.28612,"lon":5.37059,"is_reserved":false,"is_disabled":false,"rental_uris":{"android":"levelo://app?vid=57ffa585-11f6-4ab5-8b24-fd17944ddaf3","ios":"levelo://app?vid=57ffa585-11f6-4ab5-8b24-fd17944ddaf3"},"vehicle_type_id":"4","last_reported":1728166112,"current_range_meters":12400,"station_id":"ce4bht12rcd13ifvqi60","pricing_plan_id":"cebpf4jnsgd1na2vs0mg"},{"bike_id":"c8bd1f1a-18a3-4a8b-a733-d2264af926d1","system_id":"levelo_inurba_marseille","lat":43.27171,"lon":5.40995,"is_reserved":false,"is_disabled":false,"rental_uris":{"android":"levelo://app?vid=c8bd1f1a-18a3-4a8b-a733-d2264af926d1","ios":"levelo://app?vid=c8bd1f1a-18a3-4a8b-a733-d2264af926d1"},"vehicle_type_id":"4","last_reported":1728166112,"current_range_meters":38000,"station_id":"ce4bhl12rcd13ifvqgf0","pricing_plan_id":"cebpf4jnsgd1na2vs0mg"},{"bike_id":"4197ef8d-f35f-44aa-b27d-dc6b343bfa7a","system_id":"levelo_inurba_marseille","lat":43.27812,"lon":5.40707,"is_reserved":false,"is_disabled":false,"rental_uris":{"android":"levelo://app?vid=4197ef8d-f35f-44aa-b27d-dc6b343bfa7a","ios":"levelo://app?vid=4197ef8d-f35f-44aa-b27d-dc6b343bfa7a"},"vehicle_type_id":"4","last_reported":1728166112,"current_range_meters":10000,"station_id":"ce4bhnh2rcd13ifvqgtg","pricing_plan_id":"cebpf4jnsgd1na2vs0mg"},{"bike_id":"1bd2f7ec-d06e-4723-b3c8-18546fc91d7d","system_id":"levelo_inurba_marseille","lat":43.31271,"lon":5.40175,"is_reserved":false,"is_disabled":false,"rental_uris":{"android":"levelo://app?vid=1bd2f7ec-d06e-4723-b3c8-18546fc91d7d","ios":"levelo://app?vid=1bd2f7ec-d06e-4723-b3c8-18546fc91d7d"},"vehicle_type_id":"4","last_reported":1728166112,"current_range_meters":8000,"station_id":"ce4bh092rcd13ifvqd30","pricing_plan_id":"cebpf4jnsgd1na2vs0mg"},{"bike_id":"89673f4d-6ff0-4bc5-92ad-b49af2c61f80","system_id":"levelo_inurba_marseille","lat":43.31366,"lon":5.384887,"is_reserved":false,"is_disabled":false,"rental_uris":{"android":"levelo://app?vid=89673f4d-6ff0-4bc5-92ad-b49af2c61f80","ios":"levelo://app?vid=89673f4d-6ff0-4bc5-92ad-b49af2c61f80"},"vehicle_type_id":"4","last_reported":1728166112,"current_range_meters":38000,"station_id":"ce4bgt92rcd13ifvqcf0","pricing_plan_id":"cebpf4jnsgd1na2vs0mg"},{"bike_id":"9ca4ad83-eaa6-4426-baca-3a3e8322b7ea","system_id":"levelo_inurba_marseille","lat":43.27905,"lon":5.38,"is_reserved":false,"is_disabled":false,"rental_uris":{"android":"levelo://app?vid=9ca4ad83-eaa6-4426-baca-3a3e8322b7ea","ios":"levelo://app?vid=9ca4ad83-eaa6-4426-baca-3a3e8322b7ea"},"vehicle_type_id":"4","last_reported":1728166112,"current_range_meters":38400,"station_id":"ce4bhf92rcd13ifvqf50","pricing_plan_id":"cebpf4jnsgd1na2vs0mg"},{"bike_id":"6ff38fbb-3e1f-4d59-a7a6-ab257495a9ff","system_id":"levelo_inurba_marseille","lat":43.2509,"lon":5.39524,"is_reserved":false,"is_disabled":false,"rental_uris":{"android":"levelo://app?vid=6ff38fbb-3e1f-4d59-a7a6-ab257495a9ff","ios":"levelo://app?vid=6ff38fbb-3e1f-4d59-a7a6-ab257495a9ff"},"vehicle_type_id":"4","last_reported":1728166112,"current_range_meters":14400,"station_id":"ce4bhm12rcd13ifvqgkg","pricing_plan_id":"cebpf4jnsgd1na2vs0mg"},{"bike_id":"65c59103-0b30-4b4d-8ddd-ed1931c22228","system_id":"levelo_inurba_marseille","lat":43.30354,"lon":5.41861,"is_reserved":false,"is_disabled":false,"rental_uris":{"android":"levelo://app?vid=65c59103-0b30-4b4d-8ddd-ed1931c22228","ios":"levelo://app?vid=65c59103-0b30-4b4d-8ddd-ed1931c22228"},"vehicle_type_id":"4","last_reported":1728166112,"current_range_meters":37600,"station_id":"ce4bhop2rcd13ifvqh7g","pricing_plan_id":"cebpf4jnsgd1na2vs0mg"},{"bike_id":"6f90e370-3d1e-428d-93fa-6ba53f36d051","system_id":"levelo_inurba_marseille","lat":43.30785,"lon":5.37639,"is_reserved":false,"is_disabled":false,"rental_uris":{"android":"levelo://app?vid=6f90e370-3d1e-428d-93fa-6ba53f36d051","ios":"levelo://app?vid=6f90e370-3d1e-428d-93fa-6ba53f36d051"},"vehicle_type_id":"4","last_reported":1728166112,"current_range_meters":12800,"station_id":"ce4bgv92rcd13ifvqcq0","pricing_plan_id":"cebpf4jnsgd1na2vs0mg"},{"bike_id":"f1a31902-bf1f-4725-91b5-b9d9818e5407","system_id":"levelo_inurba_marseille","lat":43.295543,"lon":5.422794,"is_reserved":false,"is_disabled":false,"rental_uris":{"android":"levelo://app?vid=f1a31902-bf1f-4725-91b5-b9d9818e5407","ios":"levelo://app?vid=f1a31902-bf1f-4725-91b5-b9d9818e5407"},"vehicle_type_id":"4","last_reported":1728166112,"current_range_meters":32800,"station_id":"ce4bhph2rcd13ifvqhdg","pricing_plan_id":"cebpf4jnsgd1na2vs0mg"},{"bike_id":"48cfda74-5ea4-41e1-bcac-d6e207673b94","system_id":"levelo_inurba_marseille","lat":43.26061,"lon":5.39396,"is_reserved":false,"is_disabled":false,"rental_uris":{"android":"levelo://app?vid=48cfda74-5ea4-41e1-bcac-d6e207673b94","ios":"levelo://app?vid=48cfda74-5ea4-41e1-bcac-d6e207673b94"},"vehicle_type_id":"4","last_reported":1728166112,"current_range_meters":26800,"station_id":"ce4bhh92rcd13ifvqfj0","pricing_plan_id":"cebpf4jnsgd1na2vs0mg"},{"bike_id":"f3f38c1d-6ab6-4841-bf44-6dbe75e61158","system_id":"levelo_inurba_marseille","lat":43.259125,"lon":5.39488,"is_reserved":false,"is_disabled":false,"rental_uris":{"android":"levelo://app?vid=f3f38c1d-6ab6-4841-bf44-6dbe75e61158","ios":"levelo://app?vid=f3f38c1d-6ab6-4841-bf44-6dbe75e61158"},"vehicle_type_id":"4","last_reported":1728166112,"current_range_meters":9600,"station_id":"ce4bhip2rcd13ifvqft0","pricing_plan_id":"cebpf4jnsgd1na2vs0mg"},{"bike_id":"0258a35b-1933-4798-a687-98b5926142e0","system_id":"levelo_inurba_marseille","lat":43.28363,"lon":5.38638,"is_reserved":false,"is_disabled":false,"rental_uris":{"android":"levelo://app?vid=0258a35b-1933-4798-a687-98b5926142e0","ios":"levelo://app?vid=0258a35b-1933-4798-a687-98b5926142e0"},"vehicle_type_id":"4","last_reported":1728166112,"current_range_meters":31200,"station_id":"ce4bh492rcd13ifvqdvg","pricing_plan_id":"cebpf4jnsgd1na2vs0mg"},{"bike_id":"490889b1-cee9-4892-9db5-299333956c90","system_id":"levelo_inurba_marseille","lat":43.34149,"lon":5.40906,"is_reserved":false,"is_disabled":false,"rental_uris":{"android":"levelo://app?vid=490889b1-cee9-4892-9db5-299333956c90","ios":"levelo://app?vid=490889b1-cee9-4892-9db5-299333956c90"},"vehicle_type_id":"4","last_reported":1728166112,"current_range_meters":39200,"station_id":"ce4bhqh2rcd13ifvqhlg","pricing_plan_id":"cebpf4jnsgd1na2vs0mg"},{"bike_id":"0aaa5910-75ac-47ee-bd8a-1006e609a763","system_id":"levelo_inurba_marseille","lat":43.28944,"lon":5.3663,"is_reserved":false,"is_disabled":false,"rental_uris":{"android":"levelo://app?vid=0aaa5910-75ac-47ee-bd8a-1006e609a763","ios":"levelo://app?vid=0aaa5910-75ac-47ee-bd8a-1006e609a763"},"vehicle_type_id":"4","last_reported":1728166112,"current_range_meters":38800,"station_id":"ce4bhap2rcd13ifvqek0","pricing_plan_id":"cebpf4jnsgd1na2vs0mg"},{"bike_id":"64d91bc9-dfe1-4466-aac1-c420ab571df5","system_id":"levelo_inurba_marseille","lat":43.29289,"lon":5.40115,"is_reserved":false,"is_disabled":false,"rental_uris":{"android":"levelo://app?vid=64d91bc9-dfe1-4466-aac1-c420ab571df5","ios":"levelo://app?vid=64d91bc9-dfe1-4466-aac1-c420ab571df5"},"vehicle_type_id":"4","last_reported":1728166112,"current_range_meters":36000,"station_id":"ce4bh312rcd13ifvqdk0","pricing_plan_id":"cebpf4jnsgd1na2vs0mg"},{"bike_id":"85ef83d9-fec6-405f-8a01-7a2d5ed9a2a1","system_id":"levelo_inurba_marseille","lat":43.29259,"lon":5.40901,"is_reserved":false,"is_disabled":false,"rental_uris":{"android":"levelo://app?vid=85ef83d9-fec6-405f-8a01-7a2d5ed9a2a1","ios":"levelo://app?vid=85ef83d9-fec6-405f-8a01-7a2d5ed9a2a1"},"vehicle_type_id":"4","last_reported":1728166112,"current_range_meters":28400,"station_id":"ce4bh192rcd13ifvqdc0","pricing_plan_id":"cebpf4jnsgd1na2vs0mg"},{"bike_id":"c8ae8566-927a-4e9e-8973-a2b1e6b916c0","system_id":"levelo_inurba_marseille","lat":43.28699,"lon":5.39975,"is_reserved":false,"is_disabled":false,"rental_uris":{"android":"levelo://app?vid=c8ae8566-927a-4e9e-8973-a2b1e6b916c0","ios":"levelo://app?vid=c8ae8566-927a-4e9e-8973-a2b1e6b916c0"},"vehicle_type_id":"4","last_reported":1728166112,"current_range_meters":25200,"station_id":"ce4bho92rcd13ifvqh3g","pricing_plan_id":"cebpf4jnsgd1na2vs0mg"},{"bike_id":"6b9a91ec-91de-48ab-ab57-2edc5d204765","system_id":"levelo_inurba_marseille","lat":43.27495,"lon":5.42458,"is_reserved":false,"is_disabled":false,"rental_uris":{"android":"levelo://app?vid=6b9a91ec-91de-48ab-ab57-2edc5d204765","ios":"levelo://app?vid=6b9a91ec-91de-48ab-ab57-2edc5d204765"},"vehicle_type_id":"4","last_reported":1728166112,"current_range_meters":2800,"station_id":"ce4bhn92rcd13ifvqgrg","pricing_plan_id":"cebpf4jnsgd1na2vs0mg"},{"bike_id":"4e7288e8-652c-470b-9280-72cdb9dc72f4","system_id":"levelo_inurba_marseille","lat":43.291138,"lon":5.369207,"is_reserved":false,"is_disabled":false,"rental_uris":{"android":"levelo://app?vid=4e7288e8-652c-470b-9280-72cdb9dc72f4","ios":"levelo://app?vid=4e7288e8-652c-470b-9280-72cdb9dc72f4"},"vehicle_type_id":"4","last_reported":1728166112,"current_range_meters":38400,"station_id":"ce4bhah2rcd13ifvqei0","pricing_plan_id":"cebpf4jnsgd1na2vs0mg"},{"bike_id":"256fa177-60ee-45a2-a2aa-de47baeac3b4","system_id":"levelo_inurba_marseille","lat":43.32223,"lon":5.41353,"is_reserved":false,"is_disabled":false,"rental_uris":{"android":"levelo://app?vid=256fa177-60ee-45a2-a2aa-de47baeac3b4","ios":"levelo://app?vid=256fa177-60ee-45a2-a2aa-de47baeac3b4"},"vehicle_type_id":"4","last_reported":1728166112,"current_range_meters":38800,"station_id":"","pricing_plan_id":"cebpf4jnsgd1na2vs0mg"},{"bike_id":"098fc1dd-3708-4cb4-9657-6fa37881924f","system_id":"levelo_inurba_marseille","lat":43.31491,"lon":5.37305,"is_reserved":false,"is_disabled":false,"rental_uris":{"android":"levelo://app?vid=098fc1dd-3708-4cb4-9657-6fa37881924f","ios":"levelo://app?vid=098fc1dd-3708-4cb4-9657-6fa37881924f"},"vehicle_type_id":"4","last_reported":1728166112,"current_range_meters":39200,"station_id":"ce4bgt12rcd13ifvqcd0","pricing_plan_id":"cebpf4jnsgd1na2vs0mg"},{"bike_id":"8da5e341-6cab-4468-9790-0734e5cf3e0b","system_id":"levelo_inurba_marseille","lat":43.24081,"lon":5.37754,"is_reserved":false,"is_disabled":false,"rental_uris":{"android":"levelo://app?vid=8da5e341-6cab-4468-9790-0734e5cf3e0b","ios":"levelo://app?vid=8da5e341-6cab-4468-9790-0734e5cf3e0b"},"vehicle_type_id":"4","last_reported":1728166112,"current_range_meters":38800,"station_id":"ce4bhnp2rcd13ifvqgvg","pricing_plan_id":"cebpf4jnsgd1na2vs0mg"},{"bike_id":"428f793c-4121-423c-8663-6edf254533e0","system_id":"levelo_inurba_marseille","lat":43.27568,"lon":5.38416,"is_reserved":false,"is_disabled":false,"rental_uris":{"android":"levelo://app?vid=428f793c-4121-423c-8663-6edf254533e0","ios":"levelo://app?vid=428f793c-4121-423c-8663-6edf254533e0"},"vehicle_type_id":"4","last_reported":1728166112,"current_range_meters":21600,"station_id":"ce4bhh92rcd13ifvqfi0","pricing_plan_id":"cebpf4jnsgd1na2vs0mg"},{"bike_id":"e2374ffd-c3d3-4c84-832c-de4b34154ac4","system_id":"levelo_inurba_marseille","lat":43.30882,"lon":5.37194,"is_reserved":false,"is_disabled":false,"rental_uris":{"android":"levelo://app?vid=e2374ffd-c3d3-4c84-832c-de4b34154ac4","ios":"levelo://app?vid=e2374ffd-c3d3-4c84-832c-de4b34154ac4"},"vehicle_type_id":"4","last_reported":1728166112,"current_range_meters":38800,"station_id":"ce4bguh2rcd13ifvqckg","pricing_plan_id":"cebpf4jnsgd1na2vs0mg"},{"bike_id":"a761a90d-077d-4cf2-849d-94d3c424f3cb","system_id":"levelo_inurba_marseille","lat":43.27969,"lon":5.38738,"is_reserved":false,"is_disabled":false,"rental_uris":{"android":"levelo://app?vid=a761a90d-077d-4cf2-849d-94d3c424f3cb","ios":"levelo://app?vid=a761a90d-077d-4cf2-849d-94d3c424f3cb"},"vehicle_type_id":"4","last_reported":1728166112,"current_range_meters":39200,"station_id":"ce4bhg12rcd13ifvqf80","pricing_plan_id":"cebpf4jnsgd1na2vs0mg"},{"bike_id":"1d08f122-d56c-44b3-ad54-a0339c6aed8c","system_id":"levelo_inurba_marseille","lat":43.25501,"lon":5.3765,"is_reserved":false,"is_disabled":false,"rental_uris":{"android":"levelo://app?vid=1d08f122-d56c-44b3-ad54-a0339c6aed8c","ios":"levelo://app?vid=1d08f122-d56c-44b3-ad54-a0339c6aed8c"},"vehicle_type_id":"4","last_reported":1728166112,"current_range_meters":38800,"station_id":"ce4bhh12rcd13ifvqff0","pricing_plan_id":"cebpf4jnsgd1na2vs0mg"},{"bike_id":"489d3596-b98a-4cf0-a057-455f16d5e96d","system_id":"levelo_inurba_marseille","lat":43.31338,"lon":5.39697,"is_reserved":false,"is_disabled":false,"rental_uris":{"android":"levelo://app?vid=489d3596-b98a-4cf0-a057-455f16d5e96d","ios":"levelo://app?vid=489d3596-b98a-4cf0-a057-455f16d5e96d"},"vehicle_type_id":"4","last_reported":1728166112,"current_range_meters":39200,"station_id":"ce4bgvp2rcd13ifvqcu0","pricing_plan_id":"cebpf4jnsgd1na2vs0mg"},{"bike_id":"8a5d33e0-b975-42b3-abe3-d9312cfdb7f5","system_id":"levelo_inurba_marseille","lat":43.3079,"lon":5.37653,"is_reserved":false,"is_disabled":false,"rental_uris":{"android":"levelo://app?vid=8a5d33e0-b975-42b3-abe3-d9312cfdb7f5","ios":"levelo://app?vid=8a5d33e0-b975-42b3-abe3-d9312cfdb7f5"},"vehicle_type_id":"4","last_reported":1728166112,"current_range_meters":32400,"station_id":"ce4bgv92rcd13ifvqcq0","pricing_plan_id":"cebpf4jnsgd1na2vs0mg"},{"bike_id":"3266eba0-92d3-41f0-970c-318b5df2890b","system_id":"levelo_inurba_marseille","lat":43.28619,"lon":5.37056,"is_reserved":false,"is_disabled":false,"rental_uris":{"android":"levelo://app?vid=3266eba0-92d3-41f0-970c-318b5df2890b","ios":"levelo://app?vid=3266eba0-92d3-41f0-970c-318b5df2890b"},"vehicle_type_id":"4","last_reported":1728166112,"current_range_meters":12000,"station_id":"ce4bht12rcd13ifvqi60","pricing_plan_id":"cebpf4jnsgd1na2vs0mg"},{"bike_id":"646517eb-897e-4996-9fc0-4d132f59f1ae","system_id":"levelo_inurba_marseille","lat":43.28701,"lon":5.39991,"is_reserved":false,"is_disabled":false,"rental_uris":{"android":"levelo://app?vid=646517eb-897e-4996-9fc0-4d132f59f1ae","ios":"levelo://app?vid=646517eb-897e-4996-9fc0-4d132f59f1ae"},"vehicle_type_id":"4","last_reported":1728166112,"current_range_meters":6800,"station_id":"ce4bho92rcd13ifvqh3g","pricing_plan_id":"cebpf4jnsgd1na2vs0mg"},{"bike_id":"7cdd683b-1d53-47c9-89fe-f645deb63715","system_id":"levelo_inurba_marseille","lat":43.30807,"lon":5.43521,"is_reserved":false,"is_disabled":false,"rental_uris":{"android":"levelo://app?vid=7cdd683b-1d53-47c9-89fe-f645deb63715","ios":"levelo://app?vid=7cdd683b-1d53-47c9-89fe-f645deb63715"},"vehicle_type_id":"4","last_reported":1728166112,"current_range_meters":6000,"station_id":"ce4bhph2rcd13ifvqheg","pricing_plan_id":"cebpf4jnsgd1na2vs0mg"},{"bike_id":"704d9481-6ec3-47be-8efb-df494f367ab6","system_id":"levelo_inurba_marseille","lat":43.29556,"lon":5.42277,"is_reserved":false,"is_disabled":false,"rental_uris":{"android":"levelo://app?vid=704d9481-6ec3-47be-8efb-df494f367ab6","ios":"levelo://app?vid=704d9481-6ec3-47be-8efb-df494f367ab6"},"vehicle_type_id":"4","last_reported":1728166112,"current_range_meters":39200,"station_id":"ce4bhph2rcd13ifvqhdg","pricing_plan_id":"cebpf4jnsgd1na2vs0mg"},{"bike_id":"2912abb1-e6fe-40f9-a80b-b98fc8142039","system_id":"levelo_inurba_marseille","lat":43.31989,"lon":5.3815,"is_reserved":false,"is_disabled":false,"rental_uris":{"android":"levelo://app?vid=2912abb1-e6fe-40f9-a80b-b98fc8142039","ios":"levelo://app?vid=2912abb1-e6fe-40f9-a80b-b98fc8142039"},"vehicle_type_id":"4","last_reported":1728166112,"current_range_meters":38800,"station_id":"ce4bhr12rcd13ifvqhpg","pricing_plan_id":"cebpf4jnsgd1na2vs0mg"},{"bike_id":"50664332-acea-42b1-93f9-00345c7cf3b8","system_id":"levelo_inurba_marseille","lat":43.312338,"lon":5.368597,"is_reserved":false,"is_disabled":false,"rental_uris":{"android":"levelo://app?vid=50664332-acea-42b1-93f9-00345c7cf3b8","ios":"levelo://app?vid=50664332-acea-42b1-93f9-00345c7cf3b8"},"vehicle_type_id":"4","last_reported":1728166112,"current_range_meters":37600,"station_id":"ce4bgl92rcd13ifvqbq0","pricing_plan_id":"cebpf4jnsgd1na2vs0mg"},{"bike_id":"1234ffd2-7811-4e04-9734-124d3e38c2f6","system_id":"levelo_inurba_marseille","lat":43.26681,"lon":5.38271,"is_reserved":false,"is_disabled":false,"rental_uris":{"android":"levelo://app?vid=1234ffd2-7811-4e04-9734-124d3e38c2f6","ios":"levelo://app?vid=1234ffd2-7811-4e04-9734-124d3e38c2f6"},"vehicle_type_id":"4","last_reported":1728166112,"current_range_meters":22800,"station_id":"ce4bhg92rcd13ifvqf90","pricing_plan_id":"cebpf4jnsgd1na2vs0mg"},{"bike_id":"e7341701-5d04-4cdb-84d0-b90046595e3c","system_id":"levelo_inurba_marseille","lat":43.29263,"lon":5.40127,"is_reserved":false,"is_disabled":false,"rental_uris":{"android":"levelo://app?vid=e7341701-5d04-4cdb-84d0-b90046595e3c","ios":"levelo://app?vid=e7341701-5d04-4cdb-84d0-b90046595e3c"},"vehicle_type_id":"4","last_reported":1728166112,"current_range_meters":34800,"station_id":"ce4bh312rcd13ifvqdk0","pricing_plan_id":"cebpf4jnsgd1na2vs0mg"},{"bike_id":"bb5f5452-4b9b-417d-b148-b396a874f3d9","system_id":"levelo_inurba_marseille","lat":43.33766,"lon":5.37406,"is_reserved":false,"is_disabled":false,"rental_uris":{"android":"levelo://app?vid=bb5f5452-4b9b-417d-b148-b396a874f3d9","ios":"levelo://app?vid=bb5f5452-4b9b-417d-b148-b396a874f3d9"},"vehicle_type_id":"4","last_reported":1728166112,"current_range_meters":29600,"station_id":"","pricing_plan_id":"cebpf4jnsgd1na2vs0mg"},{"bike_id":"2a30740e-63b3-43e6-94c7-1b11a0b19192","system_id":"levelo_inurba_marseille","lat":43.28161,"lon":5.42651,"is_reserved":false,"is_disabled":false,"rental_uris":{"android":"levelo://app?vid=2a30740e-63b3-43e6-94c7-1b11a0b19192","ios":"levelo://app?vid=2a30740e-63b3-43e6-94c7-1b11a0b19192"},"vehicle_type_id":"4","last_reported":1728166112,"current_range_meters":28400,"station_id":"ce4bhnh2rcd13ifvqgug","pricing_plan_id":"cebpf4jnsgd1na2vs0mg"},{"bike_id":"a38ce0aa-4c25-49e4-a3e6-21e62b481b01","system_id":"levelo_inurba_marseille","lat":43.28715,"lon":5.39991,"is_reserved":false,"is_disabled":false,"rental_uris":{"android":"levelo://app?vid=a38ce0aa-4c25-49e4-a3e6-21e62b481b01","ios":"levelo://app?vid=a38ce0aa-4c25-49e4-a3e6-21e62b481b01"},"vehicle_type_id":"4","last_reported":1728166112,"current_range_meters":38800,"station_id":"ce4bho92rcd13ifvqh3g","pricing_plan_id":"cebpf4jnsgd1na2vs0mg"},{"bike_id":"ab83fadf-d068-4c8e-b6a0-a2c4cd43bc9b","system_id":"levelo_inurba_marseille","lat":43.31998,"lon":5.38148,"is_reserved":false,"is_disabled":false,"rental_uris":{"android":"levelo://app?vid=ab83fadf-d068-4c8e-b6a0-a2c4cd43bc9b","ios":"levelo://app?vid=ab83fadf-d068-4c8e-b6a0-a2c4cd43bc9b"},"vehicle_type_id":"4","last_reported":1728166112,"current_range_meters":32000,"station_id":"ce4bhr12rcd13ifvqhpg","pricing_plan_id":"cebpf4jnsgd1na2vs0mg"},{"bike_id":"73a5307d-3e7d-4037-8357-25200e33a5e5","system_id":"levelo_inurba_marseille","lat":43.28404,"lon":5.37515,"is_reserved":false,"is_disabled":false,"rental_uris":{"android":"levelo://app?vid=73a5307d-3e7d-4037-8357-25200e33a5e5","ios":"levelo://app?vid=73a5307d-3e7d-4037-8357-25200e33a5e5"},"vehicle_type_id":"4","last_reported":1728166112,"current_range_meters":33200,"station_id":"ce4bh412rcd13ifvqds0","pricing_plan_id":"cebpf4jnsgd1na2vs0mg"},{"bike_id":"d5bd4fc9-b596-4a66-8faa-61c6a5dce860","system_id":"levelo_inurba_marseille","lat":43.29895,"lon":5.43667,"is_reserved":false,"is_disabled":false,"rental_uris":{"android":"levelo://app?vid=d5bd4fc9-b596-4a66-8faa-61c6a5dce860","ios":"levelo://app?vid=d5bd4fc9-b596-4a66-8faa-61c6a5dce860"},"vehicle_type_id":"4","last_reported":1728166112,"current_range_meters":26800,"station_id":"ce4bhpp2rcd13ifvqhfg","pricing_plan_id":"cebpf4jnsgd1na2vs0mg"},{"bike_id":"6ee8431f-19f3-47f2-b098-64c635c9d62b","system_id":"levelo_inurba_marseille","lat":43.30354,"lon":5.41878,"is_reserved":false,"is_disabled":false,"rental_uris":{"android":"levelo://app?vid=6ee8431f-19f3-47f2-b098-64c635c9d62b","ios":"levelo://app?vid=6ee8431f-19f3-47f2-b098-64c635c9d62b"},"vehicle_type_id":"4","last_reported":1728166112,"current_range_meters":30400,"station_id":"ce4bhop2rcd13ifvqh7g","pricing_plan_id":"cebpf4jnsgd1na2vs0mg"},{"bike_id":"8e94c158-3450-4d74-9a10-086db250f48e","system_id":"levelo_inurba_marseille","lat":43.27184,"lon":5.39037,"is_reserved":false,"is_disabled":false,"rental_uris":{"android":"levelo://app?vid=8e94c158-3450-4d74-9a10-086db250f48e","ios":"levelo://app?vid=8e94c158-3450-4d74-9a10-086db250f48e"},"vehicle_type_id":"4","last_reported":1728166112,"current_range_meters":36400,"station_id":"","pricing_plan_id":"cebpf4jnsgd1na2vs0mg"},{"bike_id":"8ef0d884-6abe-4b43-a0e5-51a1aa3f343a","system_id":"levelo_inurba_marseille","lat":43.31722,"lon":5.42381,"is_reserved":false,"is_disabled":false,"rental_uris":{"android":"levelo://app?vid=8ef0d884-6abe-4b43-a0e5-51a1aa3f343a","ios":"levelo://app?vid=8ef0d884-6abe-4b43-a0e5-51a1aa3f343a"},"vehicle_type_id":"4","last_reported":1728166112,"current_range_meters":8800,"station_id":"ce4bhp92rcd13ifvqhbg","pricing_plan_id":"cebpf4jnsgd1na2vs0mg"},{"bike_id":"9697d3ef-6140-46e7-a1f1-1ec6f1e30288","system_id":"levelo_inurba_marseille","lat":43.33734,"lon":5.37456,"is_reserved":false,"is_disabled":false,"rental_uris":{"android":"levelo://app?vid=9697d3ef-6140-46e7-a1f1-1ec6f1e30288","ios":"levelo://app?vid=9697d3ef-6140-46e7-a1f1-1ec6f1e30288"},"vehicle_type_id":"4","last_reported":1728166112,"current_range_meters":30400,"station_id":"","pricing_plan_id":"cebpf4jnsgd1na2vs0mg"},{"bike_id":"c3e08dc8-697a-4a01-b19d-ee61f8e6e89d","system_id":"levelo_inurba_marseille","lat":43.28357,"lon":5.38096,"is_reserved":false,"is_disabled":false,"rental_uris":{"android":"levelo://app?vid=c3e08dc8-697a-4a01-b19d-ee61f8e6e89d","ios":"levelo://app?vid=c3e08dc8-697a-4a01-b19d-ee61f8e6e89d"},"vehicle_type_id":"4","last_reported":1728166112,"current_range_meters":10000,"station_id":"ce4bh412rcd13ifvqdr0","pricing_plan_id":"cebpf4jnsgd1na2vs0mg"},{"bike_id":"2f1f7e56-c6cd-448e-b406-4d3dfc3a4de4","system_id":"levelo_inurba_marseille","lat":43.2573,"lon":5.41112,"is_reserved":false,"is_disabled":false,"rental_uris":{"android":"levelo://app?vid=2f1f7e56-c6cd-448e-b406-4d3dfc3a4de4","ios":"levelo://app?vid=2f1f7e56-c6cd-448e-b406-4d3dfc3a4de4"},"vehicle_type_id":"4","last_reported":1728166112,"current_range_meters":34800,"station_id":"ce4bhkp2rcd13ifvqgd0","pricing_plan_id":"cebpf4jnsgd1na2vs0mg"},{"bike_id":"99ae0065-6586-47f5-8834-eb7541a87a9a","system_id":"levelo_inurba_marseille","lat":43.28673,"lon":5.36351,"is_reserved":false,"is_disabled":false,"rental_uris":{"android":"levelo://app?vid=99ae0065-6586-47f5-8834-eb7541a87a9a","ios":"levelo://app?vid=99ae0065-6586-47f5-8834-eb7541a87a9a"},"vehicle_type_id":"4","last_reported":1728166112,"current_range_meters":19600,"station_id":"ce4bhah2rcd13ifvqej0","pricing_plan_id":"cebpf4jnsgd1na2vs0mg"},{"bike_id":"1624fb10-17a2-4e84-b5f0-28be2a98cb84","system_id":"levelo_inurba_marseille","lat":43.29981,"lon":5.37178,"is_reserved":false,"is_disabled":false,"rental_uris":{"android":"levelo://app?vid=1624fb10-17a2-4e84-b5f0-28be2a98cb84","ios":"levelo://app?vid=1624fb10-17a2-4e84-b5f0-28be2a98cb84"},"vehicle_type_id":"4","last_reported":1728166112,"current_range_meters":27600,"station_id":"ce4bgr92rcd13ifvqc7g","pricing_plan_id":"cebpf4jnsgd1na2vs0mg"},{"bike_id":"c27b5969-574d-4bd7-8090-0e20367bfb89","system_id":"levelo_inurba_marseille","lat":43.30311,"lon":5.36889,"is_reserved":false,"is_disabled":false,"rental_uris":{"android":"levelo://app?vid=c27b5969-574d-4bd7-8090-0e20367bfb89","ios":"levelo://app?vid=c27b5969-574d-4bd7-8090-0e20367bfb89"},"vehicle_type_id":"4","last_reported":1728166112,"current_range_meters":39200,"station_id":"ce4bgqh2rcd13ifvqc5g","pricing_plan_id":"cebpf4jnsgd1na2vs0mg"},{"bike_id":"d1c22bff-dd8f-4c55-9db0-fa59411a2072","system_id":"levelo_inurba_marseille","lat":43.31388,"lon":5.36702,"is_reserved":false,"is_disabled":false,"rental_uris":{"android":"levelo://app?vid=d1c22bff-dd8f-4c55-9db0-fa59411a2072","ios":"levelo://app?vid=d1c22bff-dd8f-4c55-9db0-fa59411a2072"},"vehicle_type_id":"4","last_reported":1728166112,"current_range_meters":32000,"station_id":"ce4bgr92rcd13ifvqc6g","pricing_plan_id":"cebpf4jnsgd1na2vs0mg"},{"bike_id":"1d7e584d-d9bd-4a40-880d-10ef72bd85dc","system_id":"levelo_inurba_marseille","lat":43.28078,"lon":5.39651,"is_reserved":false,"is_disabled":false,"rental_uris":{"android":"levelo://app?vid=1d7e584d-d9bd-4a40-880d-10ef72bd85dc","ios":"levelo://app?vid=1d7e584d-d9bd-4a40-880d-10ef72bd85dc"},"vehicle_type_id":"4","last_reported":1728166112,"current_range_meters":27600,"station_id":"ce4bho12rcd13ifvqh2g","pricing_plan_id":"cebpf4jnsgd1na2vs0mg"},{"bike_id":"2358db1c-e9b3-49fe-b06f-88c362276595","system_id":"levelo_inurba_marseille","lat":43.29987,"lon":5.37178,"is_reserved":false,"is_disabled":false,"rental_uris":{"android":"levelo://app?vid=2358db1c-e9b3-49fe-b06f-88c362276595","ios":"levelo://app?vid=2358db1c-e9b3-49fe-b06f-88c362276595"},"vehicle_type_id":"4","last_reported":1728166112,"current_range_meters":4800,"station_id":"ce4bgr92rcd13ifvqc7g","pricing_plan_id":"cebpf4jnsgd1na2vs0mg"},{"bike_id":"a94f106c-921c-40e5-90b8-0a0b7d3f49ab","system_id":"levelo_inurba_marseille","lat":43.33367,"lon":5.35837,"is_reserved":false,"is_disabled":false,"rental_uris":{"android":"levelo://app?vid=a94f106c-921c-40e5-90b8-0a0b7d3f49ab","ios":"levelo://app?vid=a94f106c-921c-40e5-90b8-0a0b7d3f49ab"},"vehicle_type_id":"4","last_reported":1728166112,"current_range_meters":22400,"station_id":"","pricing_plan_id":"cebpf4jnsgd1na2vs0mg"},{"bike_id":"3f75b285-bf87-4037-863f-775d9a9d6495","system_id":"levelo_inurba_marseille","lat":43.33022,"lon":5.3904,"is_reserved":false,"is_disabled":false,"rental_uris":{"android":"levelo://app?vid=3f75b285-bf87-4037-863f-775d9a9d6495","ios":"levelo://app?vid=3f75b285-bf87-4037-863f-775d9a9d6495"},"vehicle_type_id":"4","last_reported":1728166112,"current_range_meters":38800,"station_id":"ce4bhr92rcd13ifvqhrg","pricing_plan_id":"cebpf4jnsgd1na2vs0mg"},{"bike_id":"f1543ab5-4e23-417f-809a-d8a6268dedc7","system_id":"levelo_inurba_marseille","lat":43.24548,"lon":5.39521,"is_reserved":false,"is_disabled":false,"rental_uris":{"android":"levelo://app?vid=f1543ab5-4e23-417f-809a-d8a6268dedc7","ios":"levelo://app?vid=f1543ab5-4e23-417f-809a-d8a6268dedc7"},"vehicle_type_id":"4","last_reported":1728166112,"current_range_meters":38000,"station_id":"ce4bhlp2rcd13ifvqgjg","pricing_plan_id":"cebpf4jnsgd1na2vs0mg"},{"bike_id":"9c1be0e8-cf66-4733-9298-58fce6674895","system_id":"levelo_inurba_marseille","lat":43.27567,"lon":5.38424,"is_reserved":false,"is_disabled":false,"rental_uris":{"android":"levelo://app?vid=9c1be0e8-cf66-4733-9298-58fce6674895","ios":"levelo://app?vid=9c1be0e8-cf66-4733-9298-58fce6674895"},"vehicle_type_id":"4","last_reported":1728166112,"current_range_meters":2000,"station_id":"ce4bhh92rcd13ifvqfi0","pricing_plan_id":"cebpf4jnsgd1na2vs0mg"},{"bike_id":"4f4bdb7e-7416-49de-ad4e-563f4b353c66","system_id":"levelo_inurba_marseille","lat":43.29524,"lon":5.39402,"is_reserved":false,"is_disabled":false,"rental_uris":{"android":"levelo://app?vid=4f4bdb7e-7416-49de-ad4e-563f4b353c66","ios":"levelo://app?vid=4f4bdb7e-7416-49de-ad4e-563f4b353c66"},"vehicle_type_id":"4","last_reported":1728166112,"current_range_meters":19200,"station_id":"ce4bh292rcd13ifvqdf0","pricing_plan_id":"cebpf4jnsgd1na2vs0mg"},{"bike_id":"8ec90718-aaae-43b7-92be-aac46673a286","system_id":"levelo_inurba_marseille","lat":43.31703,"lon":5.37752,"is_reserved":false,"is_disabled":false,"rental_uris":{"android":"levelo://app?vid=8ec90718-aaae-43b7-92be-aac46673a286","ios":"levelo://app?vid=8ec90718-aaae-43b7-92be-aac46673a286"},"vehicle_type_id":"4","last_reported":1728166112,"current_range_meters":28000,"station_id":"ce4bgth2rcd13ifvqch0","pricing_plan_id":"cebpf4jnsgd1na2vs0mg"},{"bike_id":"868fa2c3-859c-4b5a-b69c-933c8c522d35","system_id":"levelo_inurba_marseille","lat":43.3136,"lon":5.38493,"is_reserved":false,"is_disabled":false,"rental_uris":{"android":"levelo://app?vid=868fa2c3-859c-4b5a-b69c-933c8c522d35","ios":"levelo://app?vid=868fa2c3-859c-4b5a-b69c-933c8c522d35"},"vehicle_type_id":"4","last_reported":1728166112,"current_range_meters":36800,"station_id":"ce4bgt92rcd13ifvqcf0","pricing_plan_id":"cebpf4jnsgd1na2vs0mg"},{"bike_id":"1121dded-5bdc-4095-b903-1711383b0169","system_id":"levelo_inurba_marseille","lat":43.28932,"lon":5.36389,"is_reserved":false,"is_disabled":false,"rental_uris":{"android":"levelo://app?vid=1121dded-5bdc-4095-b903-1711383b0169","ios":"levelo://app?vid=1121dded-5bdc-4095-b903-1711383b0169"},"vehicle_type_id":"4","last_reported":1728166112,"current_range_meters":22400,"station_id":"ce4bhc92rcd13ifvqetg","pricing_plan_id":"cebpf4jnsgd1na2vs0mg"},{"bike_id":"5e9722b9-527e-4896-955a-569ed40eb913","system_id":"levelo_inurba_marseille","lat":43.3211,"lon":5.36777,"is_reserved":false,"is_disabled":false,"rental_uris":{"android":"levelo://app?vid=5e9722b9-527e-4896-955a-569ed40eb913","ios":"levelo://app?vid=5e9722b9-527e-4896-955a-569ed40eb913"},"vehicle_type_id":"4","last_reported":1728166112,"current_range_meters":28400,"station_id":"ce4bhrh2rcd13ifvqhug","pricing_plan_id":"cebpf4jnsgd1na2vs0mg"},{"bike_id":"be44f353-6851-49ee-bd82-7cea18e6ea6d","system_id":"levelo_inurba_marseille","lat":43.24654,"lon":5.38899,"is_reserved":false,"is_disabled":false,"rental_uris":{"android":"levelo://app?vid=be44f353-6851-49ee-bd82-7cea18e6ea6d","ios":"levelo://app?vid=be44f353-6851-49ee-bd82-7cea18e6ea6d"},"vehicle_type_id":"4","last_reported":1728166112,"current_range_meters":38000,"station_id":"ce4bhg12rcd13ifvqf60","pricing_plan_id":"cebpf4jnsgd1na2vs0mg"},{"bike_id":"68b77a88-2067-422a-ab7b-e29094a40dcc","system_id":"levelo_inurba_marseille","lat":43.25122,"lon":5.40315,"is_reserved":false,"is_disabled":false,"rental_uris":{"android":"levelo://app?vid=68b77a88-2067-422a-ab7b-e29094a40dcc","ios":"levelo://app?vid=68b77a88-2067-422a-ab7b-e29094a40dcc"},"vehicle_type_id":"4","last_reported":1728166112,"current_range_meters":39200,"station_id":"ce4bhlh2rcd13ifvqgig","pricing_plan_id":"cebpf4jnsgd1na2vs0mg"},{"bike_id":"8f333e64-a742-4f16-9e41-4e5404724006","system_id":"levelo_inurba_marseille","lat":43.31241,"lon":5.36852,"is_reserved":false,"is_disabled":false,"rental_uris":{"android":"levelo://app?vid=8f333e64-a742-4f16-9e41-4e5404724006","ios":"levelo://app?vid=8f333e64-a742-4f16-9e41-4e5404724006"},"vehicle_type_id":"4","last_reported":1728166112,"current_range_meters":27200,"station_id":"ce4bgl92rcd13ifvqbq0","pricing_plan_id":"cebpf4jnsgd1na2vs0mg"},{"bike_id":"0a1a9d73-1a25-4dda-b39e-1194ecc560b2","system_id":"levelo_inurba_marseille","lat":43.23971,"lon":5.3663,"is_reserved":false,"is_disabled":false,"rental_uris":{"android":"levelo://app?vid=0a1a9d73-1a25-4dda-b39e-1194ecc560b2","ios":"levelo://app?vid=0a1a9d73-1a25-4dda-b39e-1194ecc560b2"},"vehicle_type_id":"4","last_reported":1728166112,"current_range_meters":37600,"station_id":"ce4bhi12rcd13ifvqfp0","pricing_plan_id":"cebpf4jnsgd1na2vs0mg"},{"bike_id":"78cfcc3c-2061-4c54-8e9a-c4d9b3a845c4","system_id":"levelo_inurba_marseille","lat":43.29552,"lon":5.42276,"is_reserved":false,"is_disabled":false,"rental_uris":{"android":"levelo://app?vid=78cfcc3c-2061-4c54-8e9a-c4d9b3a845c4","ios":"levelo://app?vid=78cfcc3c-2061-4c54-8e9a-c4d9b3a845c4"},"vehicle_type_id":"4","last_reported":1728166112,"current_range_meters":10000,"station_id":"ce4bhph2rcd13ifvqhdg","pricing_plan_id":"cebpf4jnsgd1na2vs0mg"},{"bike_id":"c7741dda-522d-4da7-83bc-92f93d33ab57","system_id":"levelo_inurba_marseille","lat":43.31229,"lon":5.3686,"is_reserved":false,"is_disabled":false,"rental_uris":{"android":"levelo://app?vid=c7741dda-522d-4da7-83bc-92f93d33ab57","ios":"levelo://app?vid=c7741dda-522d-4da7-83bc-92f93d33ab57"},"vehicle_type_id":"4","last_reported":1728166112,"current_range_meters":9600,"station_id":"ce4bgl92rcd13ifvqbq0","pricing_plan_id":"cebpf4jnsgd1na2vs0mg"},{"bike_id":"69427285-cc1b-47b4-aa06-dce04005c878","system_id":"levelo_inurba_marseille","lat":43.31358,"lon":5.36704,"is_reserved":false,"is_disabled":false,"rental_uris":{"android":"levelo://app?vid=69427285-cc1b-47b4-aa06-dce04005c878","ios":"levelo://app?vid=69427285-cc1b-47b4-aa06-dce04005c878"},"vehicle_type_id":"4","last_reported":1728166112,"current_range_meters":37600,"station_id":"ce4bgr92rcd13ifvqc6g","pricing_plan_id":"cebpf4jnsgd1na2vs0mg"},{"bike_id":"a0867223-e2cf-49a2-bb70-12696eadfb28","system_id":"levelo_inurba_marseille","lat":43.29558,"lon":5.42275,"is_reserved":false,"is_disabled":false,"rental_uris":{"android":"levelo://app?vid=a0867223-e2cf-49a2-bb70-12696eadfb28","ios":"levelo://app?vid=a0867223-e2cf-49a2-bb70-12696eadfb28"},"vehicle_type_id":"4","last_reported":1728166112,"current_range_meters":38800,"station_id":"ce4bhph2rcd13ifvqhdg","pricing_plan_id":"cebpf4jnsgd1na2vs0mg"},{"bike_id":"483d04c7-d797-486f-9165-25faa06d3531","system_id":"levelo_inurba_marseille","lat":43.28272,"lon":5.35064,"is_reserved":false,"is_disabled":false,"rental_uris":{"android":"levelo://app?vid=483d04c7-d797-486f-9165-25faa06d3531","ios":"levelo://app?vid=483d04c7-d797-486f-9165-25faa06d3531"},"vehicle_type_id":"4","last_reported":1728166112,"current_range_meters":30400,"station_id":"ce4bhbp2rcd13ifvqerg","pricing_plan_id":"cebpf4jnsgd1na2vs0mg"},{"bike_id":"553b6585-4dea-467e-8d6f-6d0a56281456","system_id":"levelo_inurba_marseille","lat":43.28611,"lon":5.3706,"is_reserved":false,"is_disabled":false,"rental_uris":{"android":"levelo://app?vid=553b6585-4dea-467e-8d6f-6d0a56281456","ios":"levelo://app?vid=553b6585-4dea-467e-8d6f-6d0a56281456"},"vehicle_type_id":"4","last_reported":1728166112,"current_range_meters":20800,"station_id":"ce4bht12rcd13ifvqi60","pricing_plan_id":"cebpf4jnsgd1na2vs0mg"},{"bike_id":"9f19e14f-fab5-49bf-878b-9a40978f6235","system_id":"levelo_inurba_marseille","lat":43.28445,"lon":5.39184,"is_reserved":false,"is_disabled":false,"rental_uris":{"android":"levelo://app?vid=9f19e14f-fab5-49bf-878b-9a40978f6235","ios":"levelo://app?vid=9f19e14f-fab5-49bf-878b-9a40978f6235"},"vehicle_type_id":"4","last_reported":1728166112,"current_range_meters":39200,"station_id":"ce4bhoh2rcd13ifvqh5g","pricing_plan_id":"cebpf4jnsgd1na2vs0mg"},{"bike_id":"8b631993-57da-4bed-8ccf-39adb6788563","system_id":"levelo_inurba_marseille","lat":43.31182,"lon":5.38711,"is_reserved":false,"is_disabled":false,"rental_uris":{"android":"levelo://app?vid=8b631993-57da-4bed-8ccf-39adb6788563","ios":"levelo://app?vid=8b631993-57da-4bed-8ccf-39adb6788563"},"vehicle_type_id":"4","last_reported":1728166112,"current_range_meters":26000,"station_id":"ce4bgv12rcd13ifvqcp0","pricing_plan_id":"cebpf4jnsgd1na2vs0mg"},{"bike_id":"eb00cb14-ac0d-4ce7-9af4-8381dec81ba4","system_id":"levelo_inurba_marseille","lat":43.29447,"lon":5.39747,"is_reserved":false,"is_disabled":false,"rental_uris":{"android":"levelo://app?vid=eb00cb14-ac0d-4ce7-9af4-8381dec81ba4","ios":"levelo://app?vid=eb00cb14-ac0d-4ce7-9af4-8381dec81ba4"},"vehicle_type_id":"4","last_reported":1728166112,"current_range_meters":36400,"station_id":"ce4bh3h2rcd13ifvqdo0","pricing_plan_id":"cebpf4jnsgd1na2vs0mg"},{"bike_id":"e163b564-f35e-4133-9f9a-8fa68e4fe739","system_id":"levelo_inurba_marseille","lat":43.26211,"lon":5.37441,"is_reserved":false,"is_disabled":false,"rental_uris":{"android":"levelo://app?vid=e163b564-f35e-4133-9f9a-8fa68e4fe739","ios":"levelo://app?vid=e163b564-f35e-4133-9f9a-8fa68e4fe739"},"vehicle_type_id":"4","last_reported":1728166112,"current_range_meters":32800,"station_id":"ce4bhgp2rcd13ifvqfc0","pricing_plan_id":"cebpf4jnsgd1na2vs0mg"},{"bike_id":"d5b27c7f-80d4-43de-bf1f-73d4c839a103","system_id":"levelo_inurba_marseille","lat":43.290497,"lon":5.375549,"is_reserved":false,"is_disabled":false,"rental_uris":{"android":"levelo://app?vid=d5b27c7f-80d4-43de-bf1f-73d4c839a103","ios":"levelo://app?vid=d5b27c7f-80d4-43de-bf1f-73d4c839a103"},"vehicle_type_id":"4","last_reported":1728166112,"current_range_meters":30000,"station_id":"ce4bh692rcd13ifvqe90","pricing_plan_id":"cebpf4jnsgd1na2vs0mg"},{"bike_id":"e52556a0-eec0-42f8-9dff-bfa9d9b67ba6","system_id":"levelo_inurba_marseille","lat":43.32488,"lon":5.36575,"is_reserved":false,"is_disabled":false,"rental_uris":{"android":"levelo://app?vid=e52556a0-eec0-42f8-9dff-bfa9d9b67ba6","ios":"levelo://app?vid=e52556a0-eec0-42f8-9dff-bfa9d9b67ba6"},"vehicle_type_id":"4","last_reported":1728166112,"current_range_meters":27600,"station_id":"ce4bhs12rcd13ifvqhvg","pricing_plan_id":"cebpf4jnsgd1na2vs0mg"},{"bike_id":"f6d4b972-00e6-4211-9ae0-a8d157877144","system_id":"levelo_inurba_marseille","lat":43.30799,"lon":5.38147,"is_reserved":false,"is_disabled":false,"rental_uris":{"android":"levelo://app?vid=f6d4b972-00e6-4211-9ae0-a8d157877144","ios":"levelo://app?vid=f6d4b972-00e6-4211-9ae0-a8d157877144"},"vehicle_type_id":"4","last_reported":1728166112,"current_range_meters":38800,"station_id":"ce4bgt12rcd13ifvqce0","pricing_plan_id":"cebpf4jnsgd1na2vs0mg"},{"bike_id":"a88de313-6a6c-466a-8431-ca561f3e0c73","system_id":"levelo_inurba_marseille","lat":43.32117,"lon":5.36772,"is_reserved":false,"is_disabled":false,"rental_uris":{"android":"levelo://app?vid=a88de313-6a6c-466a-8431-ca561f3e0c73","ios":"levelo://app?vid=a88de313-6a6c-466a-8431-ca561f3e0c73"},"vehicle_type_id":"4","last_reported":1728166112,"current_range_meters":8800,"station_id":"ce4bhrh2rcd13ifvqhug","pricing_plan_id":"cebpf4jnsgd1na2vs0mg"},{"bike_id":"ff782131-7799-4ae4-a0e8-55c561c1ba34","system_id":"levelo_inurba_marseille","lat":43.28105,"lon":5.37833,"is_reserved":false,"is_disabled":false,"rental_uris":{"android":"levelo://app?vid=ff782131-7799-4ae4-a0e8-55c561c1ba34","ios":"levelo://app?vid=ff782131-7799-4ae4-a0e8-55c561c1ba34"},"vehicle_type_id":"4","last_reported":1728166112,"current_range_meters":39200,"station_id":"ce4bha12rcd13ifvqee0","pricing_plan_id":"cebpf4jnsgd1na2vs0mg"},{"bike_id":"57404f81-9bbf-4801-926b-58431093b8a9","system_id":"levelo_inurba_marseille","lat":43.313489,"lon":5.366979,"is_reserved":false,"is_disabled":false,"rental_uris":{"android":"levelo://app?vid=57404f81-9bbf-4801-926b-58431093b8a9","ios":"levelo://app?vid=57404f81-9bbf-4801-926b-58431093b8a9"},"vehicle_type_id":"4","last_reported":1728166112,"current_range_meters":12000,"station_id":"ce4bgr92rcd13ifvqc6g","pricing_plan_id":"cebpf4jnsgd1na2vs0mg"},{"bike_id":"0206aab1-99d2-4109-8df3-4f2fc5521402","system_id":"levelo_inurba_marseille","lat":43.23189,"lon":5.35558,"is_reserved":false,"is_disabled":false,"rental_uris":{"android":"levelo://app?vid=0206aab1-99d2-4109-8df3-4f2fc5521402","ios":"levelo://app?vid=0206aab1-99d2-4109-8df3-4f2fc5521402"},"vehicle_type_id":"4","last_reported":1728166112,"current_range_meters":38800,"station_id":"ce4bhu92rcd13ifvqi70","pricing_plan_id":"cebpf4jnsgd1na2vs0mg"},{"bike_id":"77e44f96-8992-4ec5-ba2c-5e51b9e5b288","system_id":"levelo_inurba_marseille","lat":43.2706,"lon":5.38786,"is_reserved":false,"is_disabled":false,"rental_uris":{"android":"levelo://app?vid=77e44f96-8992-4ec5-ba2c-5e51b9e5b288","ios":"levelo://app?vid=77e44f96-8992-4ec5-ba2c-5e51b9e5b288"},"vehicle_type_id":"4","last_reported":1728166112,"current_range_meters":38800,"station_id":"","pricing_plan_id":"cebpf4jnsgd1na2vs0mg"},{"bike_id":"adf0ff5d-41cc-45cf-8953-e7139932571b","system_id":"levelo_inurba_marseille","lat":43.31174,"lon":5.38717,"is_reserved":false,"is_disabled":false,"rental_uris":{"android":"levelo://app?vid=adf0ff5d-41cc-45cf-8953-e7139932571b","ios":"levelo://app?vid=adf0ff5d-41cc-45cf-8953-e7139932571b"},"vehicle_type_id":"4","last_reported":1728166112,"current_range_meters":11200,"station_id":"ce4bgv12rcd13ifvqcp0","pricing_plan_id":"cebpf4jnsgd1na2vs0mg"},{"bike_id":"ec38d8f9-aa1b-4e35-bb46-079045598071","system_id":"levelo_inurba_marseille","lat":43.31493,"lon":5.37309,"is_reserved":false,"is_disabled":false,"rental_uris":{"android":"levelo://app?vid=ec38d8f9-aa1b-4e35-bb46-079045598071","ios":"levelo://app?vid=ec38d8f9-aa1b-4e35-bb46-079045598071"},"vehicle_type_id":"4","last_reported":1728166112,"current_range_meters":14800,"station_id":"ce4bgt12rcd13ifvqcd0","pricing_plan_id":"cebpf4jnsgd1na2vs0mg"},{"bike_id":"68788143-3525-40be-94dd-ffa183ac0343","system_id":"levelo_inurba_marseille","lat":43.28944,"lon":5.36628,"is_reserved":false,"is_disabled":false,"rental_uris":{"android":"levelo://app?vid=68788143-3525-40be-94dd-ffa183ac0343","ios":"levelo://app?vid=68788143-3525-40be-94dd-ffa183ac0343"},"vehicle_type_id":"4","last_reported":1728166112,"current_range_meters":19200,"station_id":"ce4bhap2rcd13ifvqek0","pricing_plan_id":"cebpf4jnsgd1na2vs0mg"},{"bike_id":"0a8c9a0d-0b0f-4138-98a5-c8e50caa5c7e","system_id":"levelo_inurba_marseille","lat":43.24183,"lon":5.39735,"is_reserved":false,"is_disabled":false,"rental_uris":{"android":"levelo://app?vid=0a8c9a0d-0b0f-4138-98a5-c8e50caa5c7e","ios":"levelo://app?vid=0a8c9a0d-0b0f-4138-98a5-c8e50caa5c7e"},"vehicle_type_id":"4","last_reported":1728166112,"current_range_meters":8000,"station_id":"ce4bhn12rcd13ifvqgpg","pricing_plan_id":"cebpf4jnsgd1na2vs0mg"},{"bike_id":"9a0e12dd-8157-43af-95de-4c4aa779fc52","system_id":"levelo_inurba_marseille","lat":43.2318,"lon":5.39991,"is_reserved":false,"is_disabled":false,"rental_uris":{"android":"levelo://app?vid=9a0e12dd-8157-43af-95de-4c4aa779fc52","ios":"levelo://app?vid=9a0e12dd-8157-43af-95de-4c4aa779fc52"},"vehicle_type_id":"4","last_reported":1728166112,"current_range_meters":10800,"station_id":"ce4bhn12rcd13ifvqgqg","pricing_plan_id":"cebpf4jnsgd1na2vs0mg"},{"bike_id":"3b6c1fc9-932c-440e-9c41-891bc08a99bd","system_id":"levelo_inurba_marseille","lat":43.27202,"lon":5.39188,"is_reserved":false,"is_disabled":false,"rental_uris":{"android":"levelo://app?vid=3b6c1fc9-932c-440e-9c41-891bc08a99bd","ios":"levelo://app?vid=3b6c1fc9-932c-440e-9c41-891bc08a99bd"},"vehicle_type_id":"4","last_reported":1728166112,"current_range_meters":30800,"station_id":"ce4bhhp2rcd13ifvqfm0","pricing_plan_id":"cebpf4jnsgd1na2vs0mg"},{"bike_id":"4e0c83a2-b0c3-4894-8559-e509681998d3","system_id":"levelo_inurba_marseille","lat":43.3111,"lon":5.38317,"is_reserved":false,"is_disabled":false,"rental_uris":{"android":"levelo://app?vid=4e0c83a2-b0c3-4894-8559-e509681998d3","ios":"levelo://app?vid=4e0c83a2-b0c3-4894-8559-e509681998d3"},"vehicle_type_id":"4","last_reported":1728166112,"current_range_meters":13600,"station_id":"ce4bgv92rcd13ifvqcr0","pricing_plan_id":"cebpf4jnsgd1na2vs0mg"},{"bike_id":"58c2b0b9-2a06-4771-be47-2b4cd99f1fe2","system_id":"levelo_inurba_marseille","lat":43.30556,"lon":5.36552,"is_reserved":false,"is_disabled":false,"rental_uris":{"android":"levelo://app?vid=58c2b0b9-2a06-4771-be47-2b4cd99f1fe2","ios":"levelo://app?vid=58c2b0b9-2a06-4771-be47-2b4cd99f1fe2"},"vehicle_type_id":"4","last_reported":1728166112,"current_range_meters":4400,"station_id":"ce4bgs12rcd13ifvqcag","pricing_plan_id":"cebpf4jnsgd1na2vs0mg"},{"bike_id":"8d4950f1-b301-449d-bcd0-f0ac70cb73de","system_id":"levelo_inurba_marseille","lat":43.28493,"lon":5.4219,"is_reserved":false,"is_disabled":false,"rental_uris":{"android":"levelo://app?vid=8d4950f1-b301-449d-bcd0-f0ac70cb73de","ios":"levelo://app?vid=8d4950f1-b301-449d-bcd0-f0ac70cb73de"},"vehicle_type_id":"4","last_reported":1728166112,"current_range_meters":7200,"station_id":"","pricing_plan_id":"cebpf4jnsgd1na2vs0mg"},{"bike_id":"c378dc83-ebd1-41d3-9b5e-a9309637a11d","system_id":"levelo_inurba_marseille","lat":43.3094,"lon":5.40151,"is_reserved":false,"is_disabled":false,"rental_uris":{"android":"levelo://app?vid=c378dc83-ebd1-41d3-9b5e-a9309637a11d","ios":"levelo://app?vid=c378dc83-ebd1-41d3-9b5e-a9309637a11d"},"vehicle_type_id":"4","last_reported":1728166112,"current_range_meters":9600,"station_id":"ce4bgvp2rcd13ifvqct0","pricing_plan_id":"cebpf4jnsgd1na2vs0mg"},{"bike_id":"d287a3f0-5c77-4f01-b127-db518b8d0c12","system_id":"levelo_inurba_marseille","lat":43.3047,"lon":5.37896,"is_reserved":false,"is_disabled":false,"rental_uris":{"android":"levelo://app?vid=d287a3f0-5c77-4f01-b127-db518b8d0c12","ios":"levelo://app?vid=d287a3f0-5c77-4f01-b127-db518b8d0c12"},"vehicle_type_id":"4","last_reported":1728166112,"current_range_meters":38400,"station_id":"ce4bgup2rcd13ifvqcn0","pricing_plan_id":"cebpf4jnsgd1na2vs0mg"},{"bike_id":"edda4415-5efe-4e30-a026-4745fa69e918","system_id":"levelo_inurba_marseille","lat":43.23966,"lon":5.36626,"is_reserved":false,"is_disabled":false,"rental_uris":{"android":"levelo://app?vid=edda4415-5efe-4e30-a026-4745fa69e918","ios":"levelo://app?vid=edda4415-5efe-4e30-a026-4745fa69e918"},"vehicle_type_id":"4","last_reported":1728166112,"current_range_meters":32000,"station_id":"ce4bhi12rcd13ifvqfp0","pricing_plan_id":"cebpf4jnsgd1na2vs0mg"},{"bike_id":"4562355b-36d5-44a4-ac1a-fda5c02cd815","system_id":"levelo_inurba_marseille","lat":43.30782,"lon":5.37654,"is_reserved":false,"is_disabled":false,"rental_uris":{"android":"levelo://app?vid=4562355b-36d5-44a4-ac1a-fda5c02cd815","ios":"levelo://app?vid=4562355b-36d5-44a4-ac1a-fda5c02cd815"},"vehicle_type_id":"4","last_reported":1728166112,"current_range_meters":6800,"station_id":"","pricing_plan_id":"cebpf4jnsgd1na2vs0mg"},{"bike_id":"4f5491e9-1040-4dce-8fe0-700570afca1e","system_id":"levelo_inurba_marseille","lat":43.31591,"lon":5.36665,"is_reserved":false,"is_disabled":false,"rental_uris":{"android":"levelo://app?vid=4f5491e9-1040-4dce-8fe0-700570afca1e","ios":"levelo://app?vid=4f5491e9-1040-4dce-8fe0-700570afca1e"},"vehicle_type_id":"4","last_reported":1728166112,"current_range_meters":28000,"station_id":"ce4bgj92rcd13ifvqbd0","pricing_plan_id":"cebpf4jnsgd1na2vs0mg"},{"bike_id":"8e1c3cb8-6d95-4b6a-a930-4ec6a9a120dc","system_id":"levelo_inurba_marseille","lat":43.30131,"lon":5.39863,"is_reserved":false,"is_disabled":false,"rental_uris":{"android":"levelo://app?vid=8e1c3cb8-6d95-4b6a-a930-4ec6a9a120dc","ios":"levelo://app?vid=8e1c3cb8-6d95-4b6a-a930-4ec6a9a120dc"},"vehicle_type_id":"4","last_reported":1728166112,"current_range_meters":34000,"station_id":"ce4bh0h2rcd13ifvqd40","pricing_plan_id":"cebpf4jnsgd1na2vs0mg"},{"bike_id":"78d27391-abb8-4ba9-a344-a5cd12d3724c","system_id":"levelo_inurba_marseille","lat":43.27058,"lon":5.40257,"is_reserved":false,"is_disabled":false,"rental_uris":{"android":"levelo://app?vid=78d27391-abb8-4ba9-a344-a5cd12d3724c","ios":"levelo://app?vid=78d27391-abb8-4ba9-a344-a5cd12d3724c"},"vehicle_type_id":"4","last_reported":1728166112,"current_range_meters":12400,"station_id":"ce4bhk92rcd13ifvqgc0","pricing_plan_id":"cebpf4jnsgd1na2vs0mg"},{"bike_id":"ee70354b-9fb1-40d1-b0cb-a7c37bf963b6","system_id":"levelo_inurba_marseille","lat":43.28158,"lon":5.4266,"is_reserved":false,"is_disabled":false,"rental_uris":{"android":"levelo://app?vid=ee70354b-9fb1-40d1-b0cb-a7c37bf963b6","ios":"levelo://app?vid=ee70354b-9fb1-40d1-b0cb-a7c37bf963b6"},"vehicle_type_id":"4","last_reported":1728166112,"current_range_meters":13600,"station_id":"ce4bhnh2rcd13ifvqgug","pricing_plan_id":"cebpf4jnsgd1na2vs0mg"},{"bike_id":"0e706edc-d6c9-4695-a8ed-089f891deb61","system_id":"levelo_inurba_marseille","lat":43.306543,"lon":5.400783,"is_reserved":false,"is_disabled":false,"rental_uris":{"android":"levelo://app?vid=0e706edc-d6c9-4695-a8ed-089f891deb61","ios":"levelo://app?vid=0e706edc-d6c9-4695-a8ed-089f891deb61"},"vehicle_type_id":"4","last_reported":1728166112,"current_range_meters":6800,"station_id":"ce4bh112rcd13ifvqda0","pricing_plan_id":"cebpf4jnsgd1na2vs0mg"},{"bike_id":"342316ae-28ec-4a00-9fef-57766c633440","system_id":"levelo_inurba_marseille","lat":43.31342,"lon":5.36722,"is_reserved":false,"is_disabled":false,"rental_uris":{"android":"levelo://app?vid=342316ae-28ec-4a00-9fef-57766c633440","ios":"levelo://app?vid=342316ae-28ec-4a00-9fef-57766c633440"},"vehicle_type_id":"4","last_reported":1728166112,"current_range_meters":39200,"station_id":"ce4bgr92rcd13ifvqc6g","pricing_plan_id":"cebpf4jnsgd1na2vs0mg"},{"bike_id":"b04198d3-9566-426c-a5b2-3f286be3bf09","system_id":"levelo_inurba_marseille","lat":43.30964,"lon":5.39034,"is_reserved":false,"is_disabled":false,"rental_uris":{"android":"levelo://app?vid=b04198d3-9566-426c-a5b2-3f286be3bf09","ios":"levelo://app?vid=b04198d3-9566-426c-a5b2-3f286be3bf09"},"vehicle_type_id":"4","last_reported":1728166112,"current_range_meters":8400,"station_id":"ce4bgup2rcd13ifvqco0","pricing_plan_id":"cebpf4jnsgd1na2vs0mg"},{"bike_id":"be075423-9d7d-406e-a0e4-619db0159aa2","system_id":"levelo_inurba_marseille","lat":43.29776,"lon":5.37094,"is_reserved":false,"is_disabled":false,"rental_uris":{"android":"levelo://app?vid=be075423-9d7d-406e-a0e4-619db0159aa2","ios":"levelo://app?vid=be075423-9d7d-406e-a0e4-619db0159aa2"},"vehicle_type_id":"4","last_reported":1728166112,"current_range_meters":14800,"station_id":"ce4bgop2rcd13ifvqc1g","pricing_plan_id":"cebpf4jnsgd1na2vs0mg"},{"bike_id":"60a38c4b-f878-493b-8020-b73c899c101e","system_id":"levelo_inurba_marseille","lat":43.29569,"lon":5.37513,"is_reserved":false,"is_disabled":false,"rental_uris":{"android":"levelo://app?vid=60a38c4b-f878-493b-8020-b73c899c101e","ios":"levelo://app?vid=60a38c4b-f878-493b-8020-b73c899c101e"},"vehicle_type_id":"4","last_reported":1728166112,"current_range_meters":37600,"station_id":"ce4bgh92rcd13ifvqb50","pricing_plan_id":"cebpf4jnsgd1na2vs0mg"},{"bike_id":"bdefae95-7cc5-4880-bfcb-b1af39586be0","system_id":"levelo_inurba_marseille","lat":43.32662,"lon":5.40995,"is_reserved":false,"is_disabled":false,"rental_uris":{"android":"levelo://app?vid=bdefae95-7cc5-4880-bfcb-b1af39586be0","ios":"levelo://app?vid=bdefae95-7cc5-4880-bfcb-b1af39586be0"},"vehicle_type_id":"4","last_reported":1728166112,"current_range_meters":38400,"station_id":"ce4bhpp2rcd13ifvqhgg","pricing_plan_id":"cebpf4jnsgd1na2vs0mg"},{"bike_id":"708758a7-7531-4be1-b70a-2e8f12d68ee9","system_id":"levelo_inurba_marseille","lat":43.30315,"lon":5.36893,"is_reserved":false,"is_disabled":false,"rental_uris":{"android":"levelo://app?vid=708758a7-7531-4be1-b70a-2e8f12d68ee9","ios":"levelo://app?vid=708758a7-7531-4be1-b70a-2e8f12d68ee9"},"vehicle_type_id":"4","last_reported":1728166112,"current_range_meters":39200,"station_id":"ce4bgqh2rcd13ifvqc5g","pricing_plan_id":"cebpf4jnsgd1na2vs0mg"},{"bike_id":"12afc8f1-2acf-4c0e-b1d3-c57bea2e71f3","system_id":"levelo_inurba_marseille","lat":43.26065,"lon":5.39398,"is_reserved":false,"is_disabled":false,"rental_uris":{"android":"levelo://app?vid=12afc8f1-2acf-4c0e-b1d3-c57bea2e71f3","ios":"levelo://app?vid=12afc8f1-2acf-4c0e-b1d3-c57bea2e71f3"},"vehicle_type_id":"4","last_reported":1728166112,"current_range_meters":39200,"station_id":"ce4bhh92rcd13ifvqfj0","pricing_plan_id":"cebpf4jnsgd1na2vs0mg"},{"bike_id":"7cfddf95-163a-471b-a8a5-602ec645f4d7","system_id":"levelo_inurba_marseille","lat":43.312334,"lon":5.368735,"is_reserved":false,"is_disabled":false,"rental_uris":{"android":"levelo://app?vid=7cfddf95-163a-471b-a8a5-602ec645f4d7","ios":"levelo://app?vid=7cfddf95-163a-471b-a8a5-602ec645f4d7"},"vehicle_type_id":"4","last_reported":1728166112,"current_range_meters":17200,"station_id":"ce4bgl92rcd13ifvqbq0","pricing_plan_id":"cebpf4jnsgd1na2vs0mg"},{"bike_id":"ceb6a96d-eb1c-4539-9289-14a9595c2470","system_id":"levelo_inurba_marseille","lat":43.30785,"lon":5.37632,"is_reserved":false,"is_disabled":false,"rental_uris":{"android":"levelo://app?vid=ceb6a96d-eb1c-4539-9289-14a9595c2470","ios":"levelo://app?vid=ceb6a96d-eb1c-4539-9289-14a9595c2470"},"vehicle_type_id":"4","last_reported":1728166112,"current_range_meters":30000,"station_id":"ce4bgv92rcd13ifvqcq0","pricing_plan_id":"cebpf4jnsgd1na2vs0mg"},{"bike_id":"19f85a2b-1e5c-4bc3-8a40-bd1b097209ed","system_id":"levelo_inurba_marseille","lat":43.33022,"lon":5.39041,"is_reserved":false,"is_disabled":false,"rental_uris":{"android":"levelo://app?vid=19f85a2b-1e5c-4bc3-8a40-bd1b097209ed","ios":"levelo://app?vid=19f85a2b-1e5c-4bc3-8a40-bd1b097209ed"},"vehicle_type_id":"4","last_reported":1728166112,"current_range_meters":16400,"station_id":"ce4bhr92rcd13ifvqhrg","pricing_plan_id":"cebpf4jnsgd1na2vs0mg"},{"bike_id":"e03c9d0c-17ae-4003-b903-fd8aa9951041","system_id":"levelo_inurba_marseille","lat":43.33747,"lon":5.37446,"is_reserved":false,"is_disabled":false,"rental_uris":{"android":"levelo://app?vid=e03c9d0c-17ae-4003-b903-fd8aa9951041","ios":"levelo://app?vid=e03c9d0c-17ae-4003-b903-fd8aa9951041"},"vehicle_type_id":"4","last_reported":1728166112,"current_range_meters":36800,"station_id":"","pricing_plan_id":"cebpf4jnsgd1na2vs0mg"},{"bike_id":"21d77428-8bd2-40d7-94fd-da6d4e100338","system_id":"levelo_inurba_marseille","lat":43.31231,"lon":5.3686,"is_reserved":false,"is_disabled":false,"rental_uris":{"android":"levelo://app?vid=21d77428-8bd2-40d7-94fd-da6d4e100338","ios":"levelo://app?vid=21d77428-8bd2-40d7-94fd-da6d4e100338"},"vehicle_type_id":"4","last_reported":1728166112,"current_range_meters":3600,"station_id":"ce4bgl92rcd13ifvqbq0","pricing_plan_id":"cebpf4jnsgd1na2vs0mg"},{"bike_id":"04e0dd85-95d9-4f83-a056-c2c2f9219ecc","system_id":"levelo_inurba_marseille","lat":43.28938,"lon":5.36628,"is_reserved":false,"is_disabled":false,"rental_uris":{"android":"levelo://app?vid=04e0dd85-95d9-4f83-a056-c2c2f9219ecc","ios":"levelo://app?vid=04e0dd85-95d9-4f83-a056-c2c2f9219ecc"},"vehicle_type_id":"4","last_reported":1728166112,"current_range_meters":39200,"station_id":"ce4bhap2rcd13ifvqek0","pricing_plan_id":"cebpf4jnsgd1na2vs0mg"},{"bike_id":"76636453-5c48-4b2b-8120-416e6bc53789","system_id":"levelo_inurba_marseille","lat":43.2994,"lon":5.36518,"is_reserved":false,"is_disabled":false,"rental_uris":{"android":"levelo://app?vid=76636453-5c48-4b2b-8120-416e6bc53789","ios":"levelo://app?vid=76636453-5c48-4b2b-8120-416e6bc53789"},"vehicle_type_id":"4","last_reported":1728166112,"current_range_meters":37600,"station_id":"ce4bgm92rcd13ifvqbr0","pricing_plan_id":"cebpf4jnsgd1na2vs0mg"},{"bike_id":"9a1b28ed-71e8-4ea2-8570-05d0cd18763b","system_id":"levelo_inurba_marseille","lat":43.28104,"lon":5.37834,"is_reserved":false,"is_disabled":false,"rental_uris":{"android":"levelo://app?vid=9a1b28ed-71e8-4ea2-8570-05d0cd18763b","ios":"levelo://app?vid=9a1b28ed-71e8-4ea2-8570-05d0cd18763b"},"vehicle_type_id":"4","last_reported":1728166112,"current_range_meters":38000,"station_id":"ce4bha12rcd13ifvqee0","pricing_plan_id":"cebpf4jnsgd1na2vs0mg"},{"bike_id":"3c41ba91-1d90-4b38-90ad-631aca7e82f8","system_id":"levelo_inurba_marseille","lat":43.29178,"lon":5.37144,"is_reserved":false,"is_disabled":false,"rental_uris":{"android":"levelo://app?vid=3c41ba91-1d90-4b38-90ad-631aca7e82f8","ios":"levelo://app?vid=3c41ba91-1d90-4b38-90ad-631aca7e82f8"},"vehicle_type_id":"4","last_reported":1728166112,"current_range_meters":38800,"station_id":"ce4bha92rcd13ifvqeh0","pricing_plan_id":"cebpf4jnsgd1na2vs0mg"},{"bike_id":"865db486-fc21-4837-9e8b-274fecd595b4","system_id":"levelo_inurba_marseille","lat":43.31214,"lon":5.36837,"is_reserved":false,"is_disabled":false,"rental_uris":{"android":"levelo://app?vid=865db486-fc21-4837-9e8b-274fecd595b4","ios":"levelo://app?vid=865db486-fc21-4837-9e8b-274fecd595b4"},"vehicle_type_id":"4","last_reported":1728166112,"current_range_meters":22800,"station_id":"ce4bgl92rcd13ifvqbq0","pricing_plan_id":"cebpf4jnsgd1na2vs0mg"},{"bike_id":"562a746b-ba93-42a2-b79b-98b3d31569a4","system_id":"levelo_inurba_marseille","lat":43.29616,"lon":5.387,"is_reserved":false,"is_disabled":false,"rental_uris":{"android":"levelo://app?vid=562a746b-ba93-42a2-b79b-98b3d31569a4","ios":"levelo://app?vid=562a746b-ba93-42a2-b79b-98b3d31569a4"},"vehicle_type_id":"4","last_reported":1728166112,"current_range_meters":25200,"station_id":"ce4bgt12rcd13ifvqce0","pricing_plan_id":"cebpf4jnsgd1na2vs0mg"},{"bike_id":"757607c4-c8a7-49c5-8f8a-3de1b142729e","system_id":"levelo_inurba_marseille","lat":43.30191,"lon":5.36613,"is_reserved":false,"is_disabled":false,"rental_uris":{"android":"levelo://app?vid=757607c4-c8a7-49c5-8f8a-3de1b142729e","ios":"levelo://app?vid=757607c4-c8a7-49c5-8f8a-3de1b142729e"},"vehicle_type_id":"4","last_reported":1728166112,"current_range_meters":39200,"station_id":"ce4bgrh2rcd13ifvqc8g","pricing_plan_id":"cebpf4jnsgd1na2vs0mg"},{"bike_id":"e38a31d4-b3b2-4a38-9912-93222f32be62","system_id":"levelo_inurba_marseille","lat":43.308929,"lon":5.371871,"is_reserved":false,"is_disabled":false,"rental_uris":{"android":"levelo://app?vid=e38a31d4-b3b2-4a38-9912-93222f32be62","ios":"levelo://app?vid=e38a31d4-b3b2-4a38-9912-93222f32be62"},"vehicle_type_id":"4","last_reported":1728166112,"current_range_meters":17600,"station_id":"ce4bguh2rcd13ifvqckg","pricing_plan_id":"cebpf4jnsgd1na2vs0mg"},{"bike_id":"954c0a78-f2ce-4e32-ab87-edcb8ca5e8d6","system_id":"levelo_inurba_marseille","lat":43.31361,"lon":5.36692,"is_reserved":false,"is_disabled":false,"rental_uris":{"android":"levelo://app?vid=954c0a78-f2ce-4e32-ab87-edcb8ca5e8d6","ios":"levelo://app?vid=954c0a78-f2ce-4e32-ab87-edcb8ca5e8d6"},"vehicle_type_id":"4","last_reported":1728166112,"current_range_meters":19600,"station_id":"ce4bgr92rcd13ifvqc6g","pricing_plan_id":"cebpf4jnsgd1na2vs0mg"},{"bike_id":"fa156ca4-4ffc-45d6-844b-36e5558b87a0","system_id":"levelo_inurba_marseille","lat":43.24548,"lon":5.39521,"is_reserved":false,"is_disabled":false,"rental_uris":{"android":"levelo://app?vid=fa156ca4-4ffc-45d6-844b-36e5558b87a0","ios":"levelo://app?vid=fa156ca4-4ffc-45d6-844b-36e5558b87a0"},"vehicle_type_id":"4","last_reported":1728166112,"current_range_meters":38000,"station_id":"ce4bhlp2rcd13ifvqgjg","pricing_plan_id":"cebpf4jnsgd1na2vs0mg"},{"bike_id":"44e782a5-2237-4d6a-a802-cc2564a48a1f","system_id":"levelo_inurba_marseille","lat":43.29439,"lon":5.39752,"is_reserved":false,"is_disabled":false,"rental_uris":{"android":"levelo://app?vid=44e782a5-2237-4d6a-a802-cc2564a48a1f","ios":"levelo://app?vid=44e782a5-2237-4d6a-a802-cc2564a48a1f"},"vehicle_type_id":"4","last_reported":1728166112,"current_range_meters":39200,"station_id":"ce4bh3h2rcd13ifvqdo0","pricing_plan_id":"cebpf4jnsgd1na2vs0mg"},{"bike_id":"95984d18-b791-4bab-9c32-34ccf111b95a","system_id":"levelo_inurba_marseille","lat":43.27999,"lon":5.40008,"is_reserved":false,"is_disabled":false,"rental_uris":{"android":"levelo://app?vid=95984d18-b791-4bab-9c32-34ccf111b95a","ios":"levelo://app?vid=95984d18-b791-4bab-9c32-34ccf111b95a"},"vehicle_type_id":"4","last_reported":1728166112,"current_range_meters":16000,"station_id":"ce4bho92rcd13ifvqh4g","pricing_plan_id":"cebpf4jnsgd1na2vs0mg"},{"bike_id":"b6a817d8-5787-46a3-898e-0b46c75fc481","system_id":"levelo_inurba_marseille","lat":43.32965,"lon":5.40344,"is_reserved":false,"is_disabled":false,"rental_uris":{"android":"levelo://app?vid=b6a817d8-5787-46a3-898e-0b46c75fc481","ios":"levelo://app?vid=b6a817d8-5787-46a3-898e-0b46c75fc481"},"vehicle_type_id":"4","last_reported":1728166112,"current_range_meters":4400,"station_id":"","pricing_plan_id":"cebpf4jnsgd1na2vs0mg"},{"bike_id":"541f98d3-54fb-4c66-8f50-7b29cf9dcd75","system_id":"levelo_inurba_marseille","lat":43.31263,"lon":5.40171,"is_reserved":false,"is_disabled":false,"rental_uris":{"android":"levelo://app?vid=541f98d3-54fb-4c66-8f50-7b29cf9dcd75","ios":"levelo://app?vid=541f98d3-54fb-4c66-8f50-7b29cf9dcd75"},"vehicle_type_id":"4","last_reported":1728166112,"current_range_meters":35600,"station_id":"ce4bh092rcd13ifvqd30","pricing_plan_id":"cebpf4jnsgd1na2vs0mg"},{"bike_id":"92492521-2bc4-47cf-b62b-43f429ff6656","system_id":"levelo_inurba_marseille","lat":43.23969,"lon":5.36621,"is_reserved":false,"is_disabled":false,"rental_uris":{"android":"levelo://app?vid=92492521-2bc4-47cf-b62b-43f429ff6656","ios":"levelo://app?vid=92492521-2bc4-47cf-b62b-43f429ff6656"},"vehicle_type_id":"4","last_reported":1728166112,"current_range_meters":38400,"station_id":"ce4bhi12rcd13ifvqfp0","pricing_plan_id":"cebpf4jnsgd1na2vs0mg"},{"bike_id":"077a481a-af23-4754-9882-53304dbe26d1","system_id":"levelo_inurba_marseille","lat":43.31351,"lon":5.36714,"is_reserved":false,"is_disabled":false,"rental_uris":{"android":"levelo://app?vid=077a481a-af23-4754-9882-53304dbe26d1","ios":"levelo://app?vid=077a481a-af23-4754-9882-53304dbe26d1"},"vehicle_type_id":"4","last_reported":1728166112,"current_range_meters":38800,"station_id":"ce4bgr92rcd13ifvqc6g","pricing_plan_id":"cebpf4jnsgd1na2vs0mg"},{"bike_id":"6856d22e-440d-40d9-809f-3167dacdbdc3","system_id":"levelo_inurba_marseille","lat":43.337444,"lon":5.374475,"is_reserved":false,"is_disabled":false,"rental_uris":{"android":"levelo://app?vid=6856d22e-440d-40d9-809f-3167dacdbdc3","ios":"levelo://app?vid=6856d22e-440d-40d9-809f-3167dacdbdc3"},"vehicle_type_id":"4","last_reported":1728166112,"current_range_meters":17600,"station_id":"","pricing_plan_id":"cebpf4jnsgd1na2vs0mg"},{"bike_id":"19a648ed-fca5-4162-a9d8-4d0dba3ffb13","system_id":"levelo_inurba_marseille","lat":43.27072,"lon":5.42277,"is_reserved":false,"is_disabled":false,"rental_uris":{"android":"levelo://app?vid=19a648ed-fca5-4162-a9d8-4d0dba3ffb13","ios":"levelo://app?vid=19a648ed-fca5-4162-a9d8-4d0dba3ffb13"},"vehicle_type_id":"4","last_reported":1728166112,"current_range_meters":34000,"station_id":"ce4bhk92rcd13ifvqgb0","pricing_plan_id":"cebpf4jnsgd1na2vs0mg"},{"bike_id":"64bd957e-b978-44cb-a85c-928d627d24ec","system_id":"levelo_inurba_marseille","lat":43.35424,"lon":5.35869,"is_reserved":false,"is_disabled":false,"rental_uris":{"android":"levelo://app?vid=64bd957e-b978-44cb-a85c-928d627d24ec","ios":"levelo://app?vid=64bd957e-b978-44cb-a85c-928d627d24ec"},"vehicle_type_id":"4","last_reported":1728166112,"current_range_meters":6000,"station_id":"","pricing_plan_id":"cebpf4jnsgd1na2vs0mg"},{"bike_id":"64995d1a-0a95-43c1-8426-b3115325266b","system_id":"levelo_inurba_marseille","lat":43.27921,"lon":5.42314,"is_reserved":false,"is_disabled":false,"rental_uris":{"android":"levelo://app?vid=64995d1a-0a95-43c1-8426-b3115325266b","ios":"levelo://app?vid=64995d1a-0a95-43c1-8426-b3115325266b"},"vehicle_type_id":"4","last_reported":1728166112,"current_range_meters":16800,"station_id":"","pricing_plan_id":"cebpf4jnsgd1na2vs0mg"},{"bike_id":"e0bec634-a34f-46e9-9093-eaf02ad8f01f","system_id":"levelo_inurba_marseille","lat":43.31536,"lon":5.38031,"is_reserved":false,"is_disabled":false,"rental_uris":{"android":"levelo://app?vid=e0bec634-a34f-46e9-9093-eaf02ad8f01f","ios":"levelo://app?vid=e0bec634-a34f-46e9-9093-eaf02ad8f01f"},"vehicle_type_id":"4","last_reported":1728166112,"current_range_meters":38800,"station_id":"ce4bhsp2rcd13ifvqi50","pricing_plan_id":"cebpf4jnsgd1na2vs0mg"},{"bike_id":"e470a0ed-334c-42b3-a320-2e4bf637d101","system_id":"levelo_inurba_marseille","lat":43.30203,"lon":5.36581,"is_reserved":false,"is_disabled":false,"rental_uris":{"android":"levelo://app?vid=e470a0ed-334c-42b3-a320-2e4bf637d101","ios":"levelo://app?vid=e470a0ed-334c-42b3-a320-2e4bf637d101"},"vehicle_type_id":"4","last_reported":1728166112,"current_range_meters":38000,"station_id":"ce4bgrh2rcd13ifvqc8g","pricing_plan_id":"cebpf4jnsgd1na2vs0mg"},{"bike_id":"3087cbb8-89ad-4937-9daf-65c8b2772aa2","system_id":"levelo_inurba_marseille","lat":43.33729,"lon":5.39182,"is_reserved":false,"is_disabled":false,"rental_uris":{"android":"levelo://app?vid=3087cbb8-89ad-4937-9daf-65c8b2772aa2","ios":"levelo://app?vid=3087cbb8-89ad-4937-9daf-65c8b2772aa2"},"vehicle_type_id":"4","last_reported":1728166112,"current_range_meters":38000,"station_id":"ce4bhr92rcd13ifvqhsg","pricing_plan_id":"cebpf4jnsgd1na2vs0mg"},{"bike_id":"72cdf711-2663-46e4-8d5b-b95ee2f5dde3","system_id":"levelo_inurba_marseille","lat":43.31229,"lon":5.36869,"is_reserved":false,"is_disabled":false,"rental_uris":{"android":"levelo://app?vid=72cdf711-2663-46e4-8d5b-b95ee2f5dde3","ios":"levelo://app?vid=72cdf711-2663-46e4-8d5b-b95ee2f5dde3"},"vehicle_type_id":"4","last_reported":1728166112,"current_range_meters":11200,"station_id":"ce4bgl92rcd13ifvqbq0","pricing_plan_id":"cebpf4jnsgd1na2vs0mg"},{"bike_id":"57218d6f-c780-4b2b-aea1-ab0d3f8ef64b","system_id":"levelo_inurba_marseille","lat":43.273651,"lon":5.362516,"is_reserved":false,"is_disabled":false,"rental_uris":{"android":"levelo://app?vid=57218d6f-c780-4b2b-aea1-ab0d3f8ef64b","ios":"levelo://app?vid=57218d6f-c780-4b2b-aea1-ab0d3f8ef64b"},"vehicle_type_id":"4","last_reported":1728166112,"current_range_meters":28400,"station_id":"ce4bhbh2rcd13ifvqeo0","pricing_plan_id":"cebpf4jnsgd1na2vs0mg"},{"bike_id":"42754fdf-4824-4d58-b277-b58b632b865d","system_id":"levelo_inurba_marseille","lat":43.31126,"lon":5.37763,"is_reserved":false,"is_disabled":false,"rental_uris":{"android":"levelo://app?vid=42754fdf-4824-4d58-b277-b58b632b865d","ios":"levelo://app?vid=42754fdf-4824-4d58-b277-b58b632b865d"},"vehicle_type_id":"4","last_reported":1728166112,"current_range_meters":16000,"station_id":"ce4bgt92rcd13ifvqcg0","pricing_plan_id":"cebpf4jnsgd1na2vs0mg"},{"bike_id":"79d4ce44-dde0-4856-adfb-9d048612b764","system_id":"levelo_inurba_marseille","lat":43.33756,"lon":5.37429,"is_reserved":false,"is_disabled":false,"rental_uris":{"android":"levelo://app?vid=79d4ce44-dde0-4856-adfb-9d048612b764","ios":"levelo://app?vid=79d4ce44-dde0-4856-adfb-9d048612b764"},"vehicle_type_id":"4","last_reported":1728166112,"current_range_meters":36800,"station_id":"","pricing_plan_id":"cebpf4jnsgd1na2vs0mg"},{"bike_id":"dbc6fe9f-7480-4248-8db0-b0d597907d53","system_id":"levelo_inurba_marseille","lat":43.30915,"lon":5.36855,"is_reserved":false,"is_disabled":false,"rental_uris":{"android":"levelo://app?vid=dbc6fe9f-7480-4248-8db0-b0d597907d53","ios":"levelo://app?vid=dbc6fe9f-7480-4248-8db0-b0d597907d53"},"vehicle_type_id":"4","last_reported":1728166112,"current_range_meters":37600,"station_id":"ce4bgn92rcd13ifvqbvg","pricing_plan_id":"cebpf4jnsgd1na2vs0mg"},{"bike_id":"6362dd7e-711b-4b82-af8e-291ea8f6ea1e","system_id":"levelo_inurba_marseille","lat":43.33762,"lon":5.37415,"is_reserved":false,"is_disabled":false,"rental_uris":{"android":"levelo://app?vid=6362dd7e-711b-4b82-af8e-291ea8f6ea1e","ios":"levelo://app?vid=6362dd7e-711b-4b82-af8e-291ea8f6ea1e"},"vehicle_type_id":"4","last_reported":1728166112,"current_range_meters":35200,"station_id":"","pricing_plan_id":"cebpf4jnsgd1na2vs0mg"},{"bike_id":"c7ec8820-b76c-4b2d-a9fa-ad344f0044c8","system_id":"levelo_inurba_marseille","lat":43.31538,"lon":5.38021,"is_reserved":false,"is_disabled":false,"rental_uris":{"android":"levelo://app?vid=c7ec8820-b76c-4b2d-a9fa-ad344f0044c8","ios":"levelo://app?vid=c7ec8820-b76c-4b2d-a9fa-ad344f0044c8"},"vehicle_type_id":"4","last_reported":1728166112,"current_range_meters":16400,"station_id":"ce4bhsp2rcd13ifvqi50","pricing_plan_id":"cebpf4jnsgd1na2vs0mg"},{"bike_id":"8eaac201-0693-465e-94f1-cd556661fa9c","system_id":"levelo_inurba_marseille","lat":43.31244,"lon":5.36902,"is_reserved":false,"is_disabled":false,"rental_uris":{"android":"levelo://app?vid=8eaac201-0693-465e-94f1-cd556661fa9c","ios":"levelo://app?vid=8eaac201-0693-465e-94f1-cd556661fa9c"},"vehicle_type_id":"4","last_reported":1728166112,"current_range_meters":10000,"station_id":"ce4bgl92rcd13ifvqbq0","pricing_plan_id":"cebpf4jnsgd1na2vs0mg"},{"bike_id":"4cb8f73c-7cae-450c-b47e-8a4210b46dcf","system_id":"levelo_inurba_marseille","lat":43.25582,"lon":5.3824,"is_reserved":false,"is_disabled":false,"rental_uris":{"android":"levelo://app?vid=4cb8f73c-7cae-450c-b47e-8a4210b46dcf","ios":"levelo://app?vid=4cb8f73c-7cae-450c-b47e-8a4210b46dcf"},"vehicle_type_id":"4","last_reported":1728166112,"current_range_meters":17600,"station_id":"ce4bhih2rcd13ifvqfs0","pricing_plan_id":"cebpf4jnsgd1na2vs0mg"},{"bike_id":"1980bda3-e23d-4a52-86ac-099b3825c181","system_id":"levelo_inurba_marseille","lat":43.28706,"lon":5.39986,"is_reserved":false,"is_disabled":false,"rental_uris":{"android":"levelo://app?vid=1980bda3-e23d-4a52-86ac-099b3825c181","ios":"levelo://app?vid=1980bda3-e23d-4a52-86ac-099b3825c181"},"vehicle_type_id":"4","last_reported":1728166112,"current_range_meters":8400,"station_id":"ce4bho92rcd13ifvqh3g","pricing_plan_id":"cebpf4jnsgd1na2vs0mg"},{"bike_id":"5305316b-eb43-43cb-bedf-3a735be36892","system_id":"levelo_inurba_marseille","lat":43.31715,"lon":5.43706,"is_reserved":false,"is_disabled":false,"rental_uris":{"android":"levelo://app?vid=5305316b-eb43-43cb-bedf-3a735be36892","ios":"levelo://app?vid=5305316b-eb43-43cb-bedf-3a735be36892"},