{"last_updated":1690304762,"ttl":30,"version":"2.2","data":{"bikes":[{"bike_id":"07a06af9-96a6-4443-b441-de37bc350bc3","system_id":"levelo_inurba_marseille","lat":43.312239,"lon":5.368562,"is_reserved":false,"is_disabled":false,"rental_uris":{"android":"levelo://app?vid=07a06af9-96a6-4443-b441-de37bc350bc3","ios":"levelo://app?vid=07a06af9-96a6-4443-b441-de37bc350bc3"},"vehicle_type_id":"4","last_reported":1690304763,"current_range_meters":31200,"station_id":"ce4bgl92rcd13ifvqbq0","pricing_plan_id":"free"},{"bike_id":"91dcacee-12d9-4339-905c-98fa2243943d","system_id":"levelo_inurba_marseille","lat":43.309076,"lon":5.368465,"is_reserved":false,"is_disabled":false,"rental_uris":{"android":"levelo://app?vid=91dcacee-12d9-4339-905c-98fa2243943d","ios":"levelo://app?vid=91dcacee-12d9-4339-905c-98fa2243943d"},"vehicle_type_id":"4","last_reported":1690304763,"current_range_meters":19200,"station_id":"ce4bgn92rcd13ifvqbvg","pricing_plan_id":"free"},{"bike_id":"6c785505-3b40-4737-aacf-5f1892cda1e9","system_id":"levelo_inurba_marseille","lat":43.314811,"lon":5.373103,"is_reserved":false,"is_disabled":false,"rental_uris":{"android":"levelo://app?vid=6c785505-3b40-4737-aacf-5f1892cda1e9","ios":"levelo://app?vid=6c785505-3b40-4737-aacf-5f1892cda1e9"},"vehicle_type_id":"4","last_reported":1690304763,"current_range_meters":14800,"station_id":"ce4bgt12rcd13ifvqcd0","pricing_plan_id":"free"},{"bike_id":"25c3cc52-176b-42a5-bc85-0a5246c221fe","system_id":"levelo_inurba_marseille","lat":43.314811,"lon":5.373103,"is_reserved":false,"is_disabled":false,"rental_uris":{"android":"levelo://app?vid=25c3cc52-176b-42a5-bc85-0a5246c221fe","ios":"levelo://app?vid=25c3cc52-176b-42a5-bc85-0a5246c221fe"},"vehicle_type_id":"4","last_reported":1690304763,"current_range_meters":29200,"station_id":"ce4bgt12rcd13ifvqcd0","pricing_plan_id":"free"},{"bike_id":"f4a78ee3-d2f6-438f-a34f-f62cbac84bd6","system_id":"levelo_inurba_marseille","lat":43.314811,"lon":5.373103,"is_reserved":false,"is_disabled":false,"rental_uris":{"android":"levelo://app?vid=f4a78ee3-d2f6-438f-a34f-f62cbac84bd6","ios":"levelo://app?vid=f4a78ee3-d2f6-438f-a34f-f62cbac84bd6"},"vehicle_type_id":"4","last_reported":1690304763,"current_range_meters":30800,"station_id":"ce4bgt12rcd13ifvqcd0","pricing_plan_id":"free"},{"bike_id":"60d3c7aa-b680-45a4-b698-2d0769805e86","system_id":"levelo_inurba_marseille","lat":43.309039,"lon":5.371797,"is_reserved":false,"is_disabled":false,"rental_uris":{"android":"levelo://app?vid=60d3c7aa-b680-45a4-b698-2d0769805e86","ios":"levelo://app?vid=60d3c7aa-b680-45a4-b698-2d0769805e86"},"vehicle_type_id":"4","last_reported":1690304763,"current_range_meters":13200,"station_id":"ce4bguh2rcd13ifvqckg","pricing_plan_id":"free"},{"bike_id":"73b3a5fd-1b94-4cfe-beb0-cacbf238391a","system_id":"levelo_inurba_marseille","lat":43.28856,"lon":5.358371,"is_reserved":false,"is_disabled":false,"rental_uris":{"android":"levelo://app?vid=73b3a5fd-1b94-4cfe-beb0-cacbf238391a","ios":"levelo://app?vid=73b3a5fd-1b94-4cfe-beb0-cacbf238391a"},"vehicle_type_id":"4","last_reported":1690304763,"current_range_meters":22400,"station_id":"ce4bhb12rcd13ifvqem0","pricing_plan_id":"free"},{"bike_id":"59a7d79e-0a44-4030-8db7-0d19bfde43f5","system_id":"levelo_inurba_marseille","lat":43.306028,"lon":5.372344,"is_reserved":false,"is_disabled":false,"rental_uris":{"android":"levelo://app?vid=59a7d79e-0a44-4030-8db7-0d19bfde43f5","ios":"levelo://app?vid=59a7d79e-0a44-4030-8db7-0d19bfde43f5"},"vehicle_type_id":"4","last_reported":1690304763,"current_range_meters":16000,"station_id":"ce4bgqh2rcd13ifvqc4g","pricing_plan_id":"free"},{"bike_id":"430f362f-45bd-45c0-a225-b1bac95c9e2c","system_id":"levelo_inurba_marseille","lat":43.305989,"lon":5.37225,"is_reserved":false,"is_disabled":false,"rental_uris":{"android":"levelo://app?vid=430f362f-45bd-45c0-a225-b1bac95c9e2c","ios":"levelo://app?vid=430f362f-45bd-45c0-a225-b1bac95c9e2c"},"vehicle_type_id":"4","last_reported":1690304763,"current_range_meters":20800,"station_id":"ce4bgqh2rcd13ifvqc4g","pricing_plan_id":"free"},{"bike_id":"6b926e33-66b3-4013-b123-4872cd3b9629","system_id":"levelo_inurba_marseille","lat":43.32017,"lon":5.37108,"is_reserved":false,"is_disabled":false,"rental_uris":{"android":"levelo://app?vid=6b926e33-66b3-4013-b123-4872cd3b9629","ios":"levelo://app?vid=6b926e33-66b3-4013-b123-4872cd3b9629"},"vehicle_type_id":"4","last_reported":1690304763,"current_range_meters":25200,"station_id":"","pricing_plan_id":"free"},{"bike_id":"fcdd905c-a93c-4600-9205-b97b4f0d29d4","system_id":"levelo_inurba_marseille","lat":43.307945,"lon":5.376487,"is_reserved":false,"is_disabled":false,"rental_uris":{"android":"levelo://app?vid=fcdd905c-a93c-4600-9205-b97b4f0d29d4","ios":"levelo://app?vid=fcdd905c-a93c-4600-9205-b97b4f0d29d4"},"vehicle_type_id":"4","last_reported":1690304763,"current_range_meters":20000,"station_id":"ce4bgv92rcd13ifvqcq0","pricing_plan_id":"free"},{"bike_id":"4daf477b-32bc-4cb1-939f-1c97c9c5d002","system_id":"levelo_inurba_marseille","lat":43.30789,"lon":5.37646,"is_reserved":false,"is_disabled":false,"rental_uris":{"android":"levelo://app?vid=4daf477b-32bc-4cb1-939f-1c97c9c5d002","ios":"levelo://app?vid=4daf477b-32bc-4cb1-939f-1c97c9c5d002"},"vehicle_type_id":"4","last_reported":1690304763,"current_range_meters":7600,"station_id":"ce4bgv92rcd13ifvqcq0","pricing_plan_id":"free"},{"bike_id":"91b551b8-e5e2-4698-9613-999e0fd3925e","system_id":"levelo_inurba_marseille","lat":43.307803,"lon":5.376629,"is_reserved":false,"is_disabled":false,"rental_uris":{"android":"levelo://app?vid=91b551b8-e5e2-4698-9613-999e0fd3925e","ios":"levelo://app?vid=91b551b8-e5e2-4698-9613-999e0fd3925e"},"vehicle_type_id":"4","last_reported":1690304763,"current_range_meters":16800,"station_id":"ce4bgv92rcd13ifvqcq0","pricing_plan_id":"free"},{"bike_id":"33f43664-a318-40a7-9e2f-53bce24311a2","system_id":"levelo_inurba_marseille","lat":43.307945,"lon":5.376487,"is_reserved":false,"is_disabled":false,"rental_uris":{"android":"levelo://app?vid=33f43664-a318-40a7-9e2f-53bce24311a2","ios":"levelo://app?vid=33f43664-a318-40a7-9e2f-53bce24311a2"},"vehicle_type_id":"4","last_reported":1690304763,"current_range_meters":18800,"station_id":"ce4bgv92rcd13ifvqcq0","pricing_plan_id":"free"},{"bike_id":"089a9f37-f4f7-4672-9aec-5117c14a9106","system_id":"levelo_inurba_marseille","lat":43.303046,"lon":5.368981,"is_reserved":false,"is_disabled":false,"rental_uris":{"android":"levelo://app?vid=089a9f37-f4f7-4672-9aec-5117c14a9106","ios":"levelo://app?vid=089a9f37-f4f7-4672-9aec-5117c14a9106"},"vehicle_type_id":"4","last_reported":1690304763,"current_range_meters":4400,"station_id":"ce4bgqh2rcd13ifvqc5g","pricing_plan_id":"free"},{"bike_id":"cba6002b-8540-45a9-b536-e2fe613089a1","system_id":"levelo_inurba_marseille","lat":43.31521,"lon":5.38039,"is_reserved":false,"is_disabled":false,"rental_uris":{"android":"levelo://app?vid=cba6002b-8540-45a9-b536-e2fe613089a1","ios":"levelo://app?vid=cba6002b-8540-45a9-b536-e2fe613089a1"},"vehicle_type_id":"4","last_reported":1690304763,"current_range_meters":5600,"station_id":"ce4bhsp2rcd13ifvqi50","pricing_plan_id":"free"},{"bike_id":"5d9ebdc3-ece2-4837-8703-f6b09f720b7b","system_id":"levelo_inurba_marseille","lat":43.308116,"lon":5.381559,"is_reserved":false,"is_disabled":false,"rental_uris":{"android":"levelo://app?vid=5d9ebdc3-ece2-4837-8703-f6b09f720b7b","ios":"levelo://app?vid=5d9ebdc3-ece2-4837-8703-f6b09f720b7b"},"vehicle_type_id":"4","last_reported":1690304763,"current_range_meters":0,"station_id":"ce4bgt12rcd13ifvqce0","pricing_plan_id":"free"},{"bike_id":"705fdc81-3c57-4870-9a69-1b4792a7caac","system_id":"levelo_inurba_marseille","lat":43.231793,"lon":5.400044,"is_reserved":false,"is_disabled":false,"rental_uris":{"android":"levelo://app?vid=705fdc81-3c57-4870-9a69-1b4792a7caac","ios":"levelo://app?vid=705fdc81-3c57-4870-9a69-1b4792a7caac"},"vehicle_type_id":"4","last_reported":1690304763,"current_range_meters":26400,"station_id":"ce4bhn12rcd13ifvqgqg","pricing_plan_id":"free"},{"bike_id":"2bf2b22a-4463-4e97-b63d-20eeaeb304e8","system_id":"levelo_inurba_marseille","lat":43.299243,"lon":5.374807,"is_reserved":false,"is_disabled":false,"rental_uris":{"android":"levelo://app?vid=2bf2b22a-4463-4e97-b63d-20eeaeb304e8","ios":"levelo://app?vid=2bf2b22a-4463-4e97-b63d-20eeaeb304e8"},"vehicle_type_id":"4","last_reported":1690304763,"current_range_meters":4400,"station_id":"ce4bgjh2rcd13ifvqbg0","pricing_plan_id":"free"},{"bike_id":"920cc0a6-edf1-4459-bcc9-f55745a71856","system_id":"levelo_inurba_marseille","lat":43.299243,"lon":5.374807,"is_reserved":false,"is_disabled":false,"rental_uris":{"android":"levelo://app?vid=920cc0a6-edf1-4459-bcc9-f55745a71856","ios":"levelo://app?vid=920cc0a6-edf1-4459-bcc9-f55745a71856"},"vehicle_type_id":"4","last_reported":1690304763,"current_range_meters":27200,"station_id":"ce4bgjh2rcd13ifvqbg0","pricing_plan_id":"free"},{"bike_id":"6a3ccddf-b735-4ea1-b146-0bb5613c15ca","system_id":"levelo_inurba_marseille","lat":43.299243,"lon":5.374807,"is_reserved":false,"is_disabled":false,"rental_uris":{"android":"levelo://app?vid=6a3ccddf-b735-4ea1-b146-0bb5613c15ca","ios":"levelo://app?vid=6a3ccddf-b735-4ea1-b146-0bb5613c15ca"},"vehicle_type_id":"4","last_reported":1690304763,"current_range_meters":8400,"station_id":"ce4bgjh2rcd13ifvqbg0","pricing_plan_id":"free"},{"bike_id":"8a23e038-f030-4bc0-9fa0-fac72208d939","system_id":"levelo_inurba_marseille","lat":43.311722,"lon":5.387247,"is_reserved":false,"is_disabled":false,"rental_uris":{"android":"levelo://app?vid=8a23e038-f030-4bc0-9fa0-fac72208d939","ios":"levelo://app?vid=8a23e038-f030-4bc0-9fa0-fac72208d939"},"vehicle_type_id":"4","last_reported":1690304763,"current_range_meters":5600,"station_id":"ce4bgv12rcd13ifvqcp0","pricing_plan_id":"free"},{"bike_id":"352402d0-3607-4b95-ae7d-c3310f35babd","system_id":"levelo_inurba_marseille","lat":43.311722,"lon":5.387247,"is_reserved":false,"is_disabled":false,"rental_uris":{"android":"levelo://app?vid=352402d0-3607-4b95-ae7d-c3310f35babd","ios":"levelo://app?vid=352402d0-3607-4b95-ae7d-c3310f35babd"},"vehicle_type_id":"4","last_reported":1690304763,"current_range_meters":1600,"station_id":"ce4bgv12rcd13ifvqcp0","pricing_plan_id":"free"},{"bike_id":"ef6c4a64-96e5-442f-a362-7bd1ea05fec8","system_id":"levelo_inurba_marseille","lat":43.297794,"lon":5.370888,"is_reserved":false,"is_disabled":false,"rental_uris":{"android":"levelo://app?vid=ef6c4a64-96e5-442f-a362-7bd1ea05fec8","ios":"levelo://app?vid=ef6c4a64-96e5-442f-a362-7bd1ea05fec8"},"vehicle_type_id":"4","last_reported":1690304763,"current_range_meters":5600,"station_id":"ce4bgop2rcd13ifvqc1g","pricing_plan_id":"free"},{"bike_id":"80c2a667-3815-4a15-9029-98c1fcf3ccdf","system_id":"levelo_inurba_marseille","lat":43.322872,"lon":5.382756,"is_reserved":false,"is_disabled":false,"rental_uris":{"android":"levelo://app?vid=80c2a667-3815-4a15-9029-98c1fcf3ccdf","ios":"levelo://app?vid=80c2a667-3815-4a15-9029-98c1fcf3ccdf"},"vehicle_type_id":"4","last_reported":1690304763,"current_range_meters":12400,"station_id":"ce4bhr12rcd13ifvqhqg","pricing_plan_id":"free"},{"bike_id":"7cc3baf1-c805-4032-aebc-d576eeda97fe","system_id":"levelo_inurba_marseille","lat":43.32283,"lon":5.38278,"is_reserved":false,"is_disabled":false,"rental_uris":{"android":"levelo://app?vid=7cc3baf1-c805-4032-aebc-d576eeda97fe","ios":"levelo://app?vid=7cc3baf1-c805-4032-aebc-d576eeda97fe"},"vehicle_type_id":"4","last_reported":1690304763,"current_range_meters":11600,"station_id":"ce4bhr12rcd13ifvqhqg","pricing_plan_id":"free"},{"bike_id":"d5e19152-5958-44ec-bce8-e631869ba045","system_id":"levelo_inurba_marseille","lat":43.322872,"lon":5.382756,"is_reserved":false,"is_disabled":false,"rental_uris":{"android":"levelo://app?vid=d5e19152-5958-44ec-bce8-e631869ba045","ios":"levelo://app?vid=d5e19152-5958-44ec-bce8-e631869ba045"},"vehicle_type_id":"4","last_reported":1690304763,"current_range_meters":18400,"station_id":"ce4bhr12rcd13ifvqhqg","pricing_plan_id":"free"},{"bike_id":"14018838-15d4-47d3-b92b-afe97d69edca","system_id":"levelo_inurba_marseille","lat":43.328371,"lon":5.366909,"is_reserved":false,"is_disabled":false,"rental_uris":{"android":"levelo://app?vid=14018838-15d4-47d3-b92b-afe97d69edca","ios":"levelo://app?vid=14018838-15d4-47d3-b92b-afe97d69edca"},"vehicle_type_id":"4","last_reported":1690304763,"current_range_meters":13200,"station_id":"ce4bhs92rcd13ifvqi0g","pricing_plan_id":"free"},{"bike_id":"72ca7208-45f8-437b-8356-4e83c77eebbc","system_id":"levelo_inurba_marseille","lat":43.328371,"lon":5.366909,"is_reserved":false,"is_disabled":false,"rental_uris":{"android":"levelo://app?vid=72ca7208-45f8-437b-8356-4e83c77eebbc","ios":"levelo://app?vid=72ca7208-45f8-437b-8356-4e83c77eebbc"},"vehicle_type_id":"4","last_reported":1690304763,"current_range_meters":1600,"station_id":"ce4bhs92rcd13ifvqi0g","pricing_plan_id":"free"},{"bike_id":"c13d062c-7f0b-42f9-876b-2a1fc88a77c4","system_id":"levelo_inurba_marseille","lat":43.32834,"lon":5.36691,"is_reserved":false,"is_disabled":false,"rental_uris":{"android":"levelo://app?vid=c13d062c-7f0b-42f9-876b-2a1fc88a77c4","ios":"levelo://app?vid=c13d062c-7f0b-42f9-876b-2a1fc88a77c4"},"vehicle_type_id":"4","last_reported":1690304763,"current_range_meters":400,"station_id":"","pricing_plan_id":"free"},{"bike_id":"817724b5-07f0-4bba-a26a-dbaf5c1ae6eb","system_id":"levelo_inurba_marseille","lat":43.297163,"lon":5.365866,"is_reserved":false,"is_disabled":false,"rental_uris":{"android":"levelo://app?vid=817724b5-07f0-4bba-a26a-dbaf5c1ae6eb","ios":"levelo://app?vid=817724b5-07f0-4bba-a26a-dbaf5c1ae6eb"},"vehicle_type_id":"4","last_reported":1690304763,"current_range_meters":30000,"station_id":"ce4bgn12rcd13ifvqbt0","pricing_plan_id":"free"},{"bike_id":"f376f06a-3cdf-4388-ade3-9cb3ea05c059","system_id":"levelo_inurba_marseille","lat":43.297163,"lon":5.365866,"is_reserved":false,"is_disabled":false,"rental_uris":{"android":"levelo://app?vid=f376f06a-3cdf-4388-ade3-9cb3ea05c059","ios":"levelo://app?vid=f376f06a-3cdf-4388-ade3-9cb3ea05c059"},"vehicle_type_id":"4","last_reported":1690304763,"current_range_meters":31200,"station_id":"ce4bgn12rcd13ifvqbt0","pricing_plan_id":"free"},{"bike_id":"cfdae39a-73fc-4708-bfd3-1db42eb43230","system_id":"levelo_inurba_marseille","lat":43.3284,"lon":5.36689,"is_reserved":false,"is_disabled":false,"rental_uris":{"android":"levelo://app?vid=cfdae39a-73fc-4708-bfd3-1db42eb43230","ios":"levelo://app?vid=cfdae39a-73fc-4708-bfd3-1db42eb43230"},"vehicle_type_id":"4","last_reported":1690304763,"current_range_meters":22400,"station_id":"ce4bhs92rcd13ifvqi0g","pricing_plan_id":"free"},{"bike_id":"d3be0cee-8046-46c0-9ce9-f4c04abfab81","system_id":"levelo_inurba_marseille","lat":43.29624,"lon":5.3715,"is_reserved":false,"is_disabled":false,"rental_uris":{"android":"levelo://app?vid=d3be0cee-8046-46c0-9ce9-f4c04abfab81","ios":"levelo://app?vid=d3be0cee-8046-46c0-9ce9-f4c04abfab81"},"vehicle_type_id":"4","last_reported":1690304763,"current_range_meters":5200,"station_id":"","pricing_plan_id":"free"},{"bike_id":"31d9ae50-145d-4003-ad18-3e5e447c150f","system_id":"levelo_inurba_marseille","lat":43.29573,"lon":5.367355,"is_reserved":false,"is_disabled":false,"rental_uris":{"android":"levelo://app?vid=31d9ae50-145d-4003-ad18-3e5e447c150f","ios":"levelo://app?vid=31d9ae50-145d-4003-ad18-3e5e447c150f"},"vehicle_type_id":"4","last_reported":1690304763,"current_range_meters":16000,"station_id":"ce4bgph2rcd13ifvqc2g","pricing_plan_id":"free"},{"bike_id":"b49c7cc9-8911-4ab8-a7cc-573d9a91c672","system_id":"levelo_inurba_marseille","lat":43.29573,"lon":5.367355,"is_reserved":false,"is_disabled":false,"rental_uris":{"android":"levelo://app?vid=b49c7cc9-8911-4ab8-a7cc-573d9a91c672","ios":"levelo://app?vid=b49c7cc9-8911-4ab8-a7cc-573d9a91c672"},"vehicle_type_id":"4","last_reported":1690304763,"current_range_meters":5600,"station_id":"ce4bgph2rcd13ifvqc2g","pricing_plan_id":"free"},{"bike_id":"969e83e9-da71-4c47-bb9d-01c341ab69de","system_id":"levelo_inurba_marseille","lat":43.309589,"lon":5.390258,"is_reserved":false,"is_disabled":false,"rental_uris":{"android":"levelo://app?vid=969e83e9-da71-4c47-bb9d-01c341ab69de","ios":"levelo://app?vid=969e83e9-da71-4c47-bb9d-01c341ab69de"},"vehicle_type_id":"4","last_reported":1690304763,"current_range_meters":12800,"station_id":"ce4bgup2rcd13ifvqco0","pricing_plan_id":"free"},{"bike_id":"6d655131-56c4-4b2c-a516-08e20e25b707","system_id":"levelo_inurba_marseille","lat":43.317557,"lon":5.390173,"is_reserved":false,"is_disabled":false,"rental_uris":{"android":"levelo://app?vid=6d655131-56c4-4b2c-a516-08e20e25b707","ios":"levelo://app?vid=6d655131-56c4-4b2c-a516-08e20e25b707"},"vehicle_type_id":"4","last_reported":1690304763,"current_range_meters":30000,"station_id":"ce4bhqp2rcd13ifvqhng","pricing_plan_id":"free"},{"bike_id":"50a6ef4f-52c9-4747-9223-407bc1883781","system_id":"levelo_inurba_marseille","lat":43.317557,"lon":5.390173,"is_reserved":false,"is_disabled":false,"rental_uris":{"android":"levelo://app?vid=50a6ef4f-52c9-4747-9223-407bc1883781","ios":"levelo://app?vid=50a6ef4f-52c9-4747-9223-407bc1883781"},"vehicle_type_id":"4","last_reported":1690304763,"current_range_meters":16400,"station_id":"ce4bhqp2rcd13ifvqhng","pricing_plan_id":"free"},{"bike_id":"edd9c18a-6126-42c1-bf8f-1f46592aa7d8","system_id":"levelo_inurba_marseille","lat":43.30997,"lon":5.391,"is_reserved":false,"is_disabled":false,"rental_uris":{"android":"levelo://app?vid=edd9c18a-6126-42c1-bf8f-1f46592aa7d8","ios":"levelo://app?vid=edd9c18a-6126-42c1-bf8f-1f46592aa7d8"},"vehicle_type_id":"4","last_reported":1690304763,"current_range_meters":22000,"station_id":"","pricing_plan_id":"free"},{"bike_id":"bef5b5ae-f7fe-46fb-a703-ad397928411e","system_id":"levelo_inurba_marseille","lat":43.296263,"lon":5.377094,"is_reserved":false,"is_disabled":false,"rental_uris":{"android":"levelo://app?vid=bef5b5ae-f7fe-46fb-a703-ad397928411e","ios":"levelo://app?vid=bef5b5ae-f7fe-46fb-a703-ad397928411e"},"vehicle_type_id":"4","last_reported":1690304763,"current_range_meters":20000,"station_id":"ce4bgi92rcd13ifvqb90","pricing_plan_id":"free"},{"bike_id":"fb2576f5-9bd8-4648-bacc-c8772e699153","system_id":"levelo_inurba_marseille","lat":43.29647,"lon":5.37958,"is_reserved":false,"is_disabled":false,"rental_uris":{"android":"levelo://app?vid=fb2576f5-9bd8-4648-bacc-c8772e699153","ios":"levelo://app?vid=fb2576f5-9bd8-4648-bacc-c8772e699153"},"vehicle_type_id":"4","last_reported":1690304763,"current_range_meters":30400,"station_id":"","pricing_plan_id":"free"},{"bike_id":"e3c59db1-acd6-44c6-97f3-35c7602ef342","system_id":"levelo_inurba_marseille","lat":43.32364,"lon":5.38878,"is_reserved":false,"is_disabled":false,"rental_uris":{"android":"levelo://app?vid=e3c59db1-acd6-44c6-97f3-35c7602ef342","ios":"levelo://app?vid=e3c59db1-acd6-44c6-97f3-35c7602ef342"},"vehicle_type_id":"4","last_reported":1690304763,"current_range_meters":2000,"station_id":"ce4bhqp2rcd13ifvqhog","pricing_plan_id":"free"},{"bike_id":"f7599574-7f97-4c07-8aea-8ae5a8e05a97","system_id":"levelo_inurba_marseille","lat":43.32365,"lon":5.38878,"is_reserved":false,"is_disabled":false,"rental_uris":{"android":"levelo://app?vid=f7599574-7f97-4c07-8aea-8ae5a8e05a97","ios":"levelo://app?vid=f7599574-7f97-4c07-8aea-8ae5a8e05a97"},"vehicle_type_id":"4","last_reported":1690304763,"current_range_meters":28400,"station_id":"ce4bhqp2rcd13ifvqhog","pricing_plan_id":"free"},{"bike_id":"ce759cea-e736-4a87-9753-90840d785e7a","system_id":"levelo_inurba_marseille","lat":43.32364,"lon":5.38882,"is_reserved":false,"is_disabled":false,"rental_uris":{"android":"levelo://app?vid=ce759cea-e736-4a87-9753-90840d785e7a","ios":"levelo://app?vid=ce759cea-e736-4a87-9753-90840d785e7a"},"vehicle_type_id":"4","last_reported":1690304763,"current_range_meters":17200,"station_id":"ce4bhqp2rcd13ifvqhog","pricing_plan_id":"free"},{"bike_id":"7875c5a6-e966-43cc-93a9-f30837e800da","system_id":"levelo_inurba_marseille","lat":43.323695,"lon":5.388843,"is_reserved":false,"is_disabled":false,"rental_uris":{"android":"levelo://app?vid=7875c5a6-e966-43cc-93a9-f30837e800da","ios":"levelo://app?vid=7875c5a6-e966-43cc-93a9-f30837e800da"},"vehicle_type_id":"4","last_reported":1690304763,"current_range_meters":19200,"station_id":"","pricing_plan_id":"free"},{"bike_id":"76295013-6364-426e-918f-4c411298e799","system_id":"levelo_inurba_marseille","lat":43.32369,"lon":5.38886,"is_reserved":false,"is_disabled":false,"rental_uris":{"android":"levelo://app?vid=76295013-6364-426e-918f-4c411298e799","ios":"levelo://app?vid=76295013-6364-426e-918f-4c411298e799"},"vehicle_type_id":"4","last_reported":1690304763,"current_range_meters":4800,"station_id":"ce4bhqp2rcd13ifvqhog","pricing_plan_id":"free"},{"bike_id":"71694419-6cb8-4317-896a-5c80bdfbe6e5","system_id":"levelo_inurba_marseille","lat":43.29602,"lon":5.381084,"is_reserved":false,"is_disabled":false,"rental_uris":{"android":"levelo://app?vid=71694419-6cb8-4317-896a-5c80bdfbe6e5","ios":"levelo://app?vid=71694419-6cb8-4317-896a-5c80bdfbe6e5"},"vehicle_type_id":"4","last_reported":1690304763,"current_range_meters":22400,"station_id":"ce4bgl12rcd13ifvqbo0","pricing_plan_id":"free"},{"bike_id":"5c378847-edc7-4f27-b441-7c04d1e91d76","system_id":"levelo_inurba_marseille","lat":43.29602,"lon":5.381084,"is_reserved":false,"is_disabled":false,"rental_uris":{"android":"levelo://app?vid=5c378847-edc7-4f27-b441-7c04d1e91d76","ios":"levelo://app?vid=5c378847-edc7-4f27-b441-7c04d1e91d76"},"vehicle_type_id":"4","last_reported":1690304763,"current_range_meters":4800,"station_id":"ce4bgl12rcd13ifvqbo0","pricing_plan_id":"free"},{"bike_id":"32b79fbe-9e68-4737-9a24-7da1ea3fd6af","system_id":"levelo_inurba_marseille","lat":43.293009,"lon":5.374584,"is_reserved":false,"is_disabled":false,"rental_uris":{"android":"levelo://app?vid=32b79fbe-9e68-4737-9a24-7da1ea3fd6af","ios":"levelo://app?vid=32b79fbe-9e68-4737-9a24-7da1ea3fd6af"},"vehicle_type_id":"4","last_reported":1690304763,"current_range_meters":22000,"station_id":"ce4bgi12rcd13ifvqb70","pricing_plan_id":"free"},{"bike_id":"0309b09c-4d58-44fd-9e1e-3eb34c83312e","system_id":"levelo_inurba_marseille","lat":43.32222,"lon":5.39215,"is_reserved":false,"is_disabled":false,"rental_uris":{"android":"levelo://app?vid=0309b09c-4d58-44fd-9e1e-3eb34c83312e","ios":"levelo://app?vid=0309b09c-4d58-44fd-9e1e-3eb34c83312e"},"vehicle_type_id":"4","last_reported":1690304763,"current_range_meters":31200,"station_id":"","pricing_plan_id":"free"},{"bike_id":"550deace-73f0-4778-a3a8-c460f7aafcec","system_id":"levelo_inurba_marseille","lat":43.302992,"lon":5.392136,"is_reserved":false,"is_disabled":false,"rental_uris":{"android":"levelo://app?vid=550deace-73f0-4778-a3a8-c460f7aafcec","ios":"levelo://app?vid=550deace-73f0-4778-a3a8-c460f7aafcec"},"vehicle_type_id":"4","last_reported":1690304763,"current_range_meters":10000,"station_id":"ce4bgkh2rcd13ifvqbk0","pricing_plan_id":"free"},{"bike_id":"22419187-425c-4a46-b1d7-08dcc655ba12","system_id":"levelo_inurba_marseille","lat":43.29263,"lon":5.35968,"is_reserved":false,"is_disabled":false,"rental_uris":{"android":"levelo://app?vid=22419187-425c-4a46-b1d7-08dcc655ba12","ios":"levelo://app?vid=22419187-425c-4a46-b1d7-08dcc655ba12"},"vehicle_type_id":"4","last_reported":1690304763,"current_range_meters":20000,"station_id":"","pricing_plan_id":"free"},{"bike_id":"40e74c02-60ba-4ca1-a45e-ab4407f59da3","system_id":"levelo_inurba_marseille","lat":43.300852,"lon":5.390859,"is_reserved":false,"is_disabled":false,"rental_uris":{"android":"levelo://app?vid=40e74c02-60ba-4ca1-a45e-ab4407f59da3","ios":"levelo://app?vid=40e74c02-60ba-4ca1-a45e-ab4407f59da3"},"vehicle_type_id":"4","last_reported":1690304763,"current_range_meters":8400,"station_id":"ce4bh192rcd13ifvqdb0","pricing_plan_id":"free"},{"bike_id":"1c809953-12f9-4c66-b466-e5ebf67f4a62","system_id":"levelo_inurba_marseille","lat":43.298764,"lon":5.388973,"is_reserved":false,"is_disabled":false,"rental_uris":{"android":"levelo://app?vid=1c809953-12f9-4c66-b466-e5ebf67f4a62","ios":"levelo://app?vid=1c809953-12f9-4c66-b466-e5ebf67f4a62"},"vehicle_type_id":"4","last_reported":1690304763,"current_range_meters":24000,"station_id":"ce4bh392rcd13ifvqdl0","pricing_plan_id":"free"},{"bike_id":"f24b4a05-e76b-4d6d-acf3-471b3e95e07d","system_id":"levelo_inurba_marseille","lat":43.298764,"lon":5.388973,"is_reserved":false,"is_disabled":false,"rental_uris":{"android":"levelo://app?vid=f24b4a05-e76b-4d6d-acf3-471b3e95e07d","ios":"levelo://app?vid=f24b4a05-e76b-4d6d-acf3-471b3e95e07d"},"vehicle_type_id":"4","last_reported":1690304763,"current_range_meters":19200,"station_id":"ce4bh392rcd13ifvqdl0","pricing_plan_id":"free"},{"bike_id":"0a3ab710-0029-4778-b7b2-ec799365a84e","system_id":"levelo_inurba_marseille","lat":43.298764,"lon":5.388973,"is_reserved":false,"is_disabled":false,"rental_uris":{"android":"levelo://app?vid=0a3ab710-0029-4778-b7b2-ec799365a84e","ios":"levelo://app?vid=0a3ab710-0029-4778-b7b2-ec799365a84e"},"vehicle_type_id":"4","last_reported":1690304763,"current_range_meters":20800,"station_id":"ce4bh392rcd13ifvqdl0","pricing_plan_id":"free"},{"bike_id":"2fb72eda-57fe-4528-9ed1-ef01dbcf9e18","system_id":"levelo_inurba_marseille","lat":43.3073,"lon":5.39565,"is_reserved":false,"is_disabled":false,"rental_uris":{"android":"levelo://app?vid=2fb72eda-57fe-4528-9ed1-ef01dbcf9e18","ios":"levelo://app?vid=2fb72eda-57fe-4528-9ed1-ef01dbcf9e18"},"vehicle_type_id":"4","last_reported":1690304763,"current_range_meters":1200,"station_id":"","pricing_plan_id":"free"},{"bike_id":"97496f18-7d80-4d22-bb3f-2088f6cee5a1","system_id":"levelo_inurba_marseille","lat":43.32334,"lon":5.39298,"is_reserved":false,"is_disabled":false,"rental_uris":{"android":"levelo://app?vid=97496f18-7d80-4d22-bb3f-2088f6cee5a1","ios":"levelo://app?vid=97496f18-7d80-4d22-bb3f-2088f6cee5a1"},"vehicle_type_id":"4","last_reported":1690304763,"current_range_meters":30400,"station_id":"","pricing_plan_id":"free"},{"bike_id":"2912b22e-536f-4783-8f96-437532733cdd","system_id":"levelo_inurba_marseille","lat":43.313304,"lon":5.396869,"is_reserved":false,"is_disabled":false,"rental_uris":{"android":"levelo://app?vid=2912b22e-536f-4783-8f96-437532733cdd","ios":"levelo://app?vid=2912b22e-536f-4783-8f96-437532733cdd"},"vehicle_type_id":"4","last_reported":1690304763,"current_range_meters":10400,"station_id":"ce4bgvp2rcd13ifvqcu0","pricing_plan_id":"free"},{"bike_id":"c8fd73b3-b013-48b3-ac0c-7cabff80b4f0","system_id":"levelo_inurba_marseille","lat":43.313291,"lon":5.396838,"is_reserved":false,"is_disabled":false,"rental_uris":{"android":"levelo://app?vid=c8fd73b3-b013-48b3-ac0c-7cabff80b4f0","ios":"levelo://app?vid=c8fd73b3-b013-48b3-ac0c-7cabff80b4f0"},"vehicle_type_id":"4","last_reported":1690304763,"current_range_meters":10800,"station_id":"ce4bgvp2rcd13ifvqcu0","pricing_plan_id":"free"},{"bike_id":"21ee9228-2cce-446a-a8b8-a7c43cfefddf","system_id":"levelo_inurba_marseille","lat":43.31329,"lon":5.39688,"is_reserved":false,"is_disabled":false,"rental_uris":{"android":"levelo://app?vid=21ee9228-2cce-446a-a8b8-a7c43cfefddf","ios":"levelo://app?vid=21ee9228-2cce-446a-a8b8-a7c43cfefddf"},"vehicle_type_id":"4","last_reported":1690304763,"current_range_meters":21200,"station_id":"ce4bgvp2rcd13ifvqcu0","pricing_plan_id":"free"},{"bike_id":"80e0cf5e-1685-4094-84f1-6c6fc5bffeed","system_id":"levelo_inurba_marseille","lat":43.31324,"lon":5.39691,"is_reserved":false,"is_disabled":false,"rental_uris":{"android":"levelo://app?vid=80e0cf5e-1685-4094-84f1-6c6fc5bffeed","ios":"levelo://app?vid=80e0cf5e-1685-4094-84f1-6c6fc5bffeed"},"vehicle_type_id":"4","last_reported":1690304763,"current_range_meters":17200,"station_id":"ce4bgvp2rcd13ifvqcu0","pricing_plan_id":"free"},{"bike_id":"d237fad8-16f5-4054-8cad-b7b6090fd892","system_id":"levelo_inurba_marseille","lat":43.309038,"lon":5.396546,"is_reserved":false,"is_disabled":false,"rental_uris":{"android":"levelo://app?vid=d237fad8-16f5-4054-8cad-b7b6090fd892","ios":"levelo://app?vid=d237fad8-16f5-4054-8cad-b7b6090fd892"},"vehicle_type_id":"4","last_reported":1690304763,"current_range_meters":22400,"station_id":"ce4bh012rcd13ifvqcv0","pricing_plan_id":"free"},{"bike_id":"2cbc2888-c768-4cd2-94c6-77c34290b1bd","system_id":"levelo_inurba_marseille","lat":43.313291,"lon":5.396838,"is_reserved":false,"is_disabled":false,"rental_uris":{"android":"levelo://app?vid=2cbc2888-c768-4cd2-94c6-77c34290b1bd","ios":"levelo://app?vid=2cbc2888-c768-4cd2-94c6-77c34290b1bd"},"vehicle_type_id":"4","last_reported":1690304763,"current_range_meters":2000,"station_id":"ce4bgvp2rcd13ifvqcu0","pricing_plan_id":"free"},{"bike_id":"270859a8-305d-4b7f-8469-6920a20dafd5","system_id":"levelo_inurba_marseille","lat":43.30885,"lon":5.39651,"is_reserved":false,"is_disabled":false,"rental_uris":{"android":"levelo://app?vid=270859a8-305d-4b7f-8469-6920a20dafd5","ios":"levelo://app?vid=270859a8-305d-4b7f-8469-6920a20dafd5"},"vehicle_type_id":"4","last_reported":1690304763,"current_range_meters":24800,"station_id":"ce4bh012rcd13ifvqcv0","pricing_plan_id":"free"},{"bike_id":"295a44ed-456c-4717-af14-61c3ba76f0d1","system_id":"levelo_inurba_marseille","lat":43.30886,"lon":5.39653,"is_reserved":false,"is_disabled":false,"rental_uris":{"android":"levelo://app?vid=295a44ed-456c-4717-af14-61c3ba76f0d1","ios":"levelo://app?vid=295a44ed-456c-4717-af14-61c3ba76f0d1"},"vehicle_type_id":"4","last_reported":1690304763,"current_range_meters":24400,"station_id":"ce4bh012rcd13ifvqcv0","pricing_plan_id":"free"},{"bike_id":"c7a8e9c7-c5bb-4968-a067-ea3a749ea4cb","system_id":"levelo_inurba_marseille","lat":43.31314,"lon":5.39702,"is_reserved":false,"is_disabled":false,"rental_uris":{"android":"levelo://app?vid=c7a8e9c7-c5bb-4968-a067-ea3a749ea4cb","ios":"levelo://app?vid=c7a8e9c7-c5bb-4968-a067-ea3a749ea4cb"},"vehicle_type_id":"4","last_reported":1690304763,"current_range_meters":9600,"station_id":"ce4bgvp2rcd13ifvqcu0","pricing_plan_id":"free"},{"bike_id":"3ba7e858-df48-468e-b979-0544e8f145f1","system_id":"levelo_inurba_marseille","lat":43.313291,"lon":5.396838,"is_reserved":false,"is_disabled":false,"rental_uris":{"android":"levelo://app?vid=3ba7e858-df48-468e-b979-0544e8f145f1","ios":"levelo://app?vid=3ba7e858-df48-468e-b979-0544e8f145f1"},"vehicle_type_id":"4","last_reported":1690304763,"current_range_meters":24800,"station_id":"ce4bgvp2rcd13ifvqcu0","pricing_plan_id":"free"},{"bike_id":"b3cf8e5e-e669-4d98-b80d-349d0c1666a8","system_id":"levelo_inurba_marseille","lat":43.29529,"lon":5.385581,"is_reserved":false,"is_disabled":false,"rental_uris":{"android":"levelo://app?vid=b3cf8e5e-e669-4d98-b80d-349d0c1666a8","ios":"levelo://app?vid=b3cf8e5e-e669-4d98-b80d-349d0c1666a8"},"vehicle_type_id":"4","last_reported":1690304763,"current_range_meters":12800,"station_id":"ce4bgih2rcd13ifvqba0","pricing_plan_id":"free"},{"bike_id":"8cc7e9d3-24ed-40e6-8ef9-c6f3073746a3","system_id":"levelo_inurba_marseille","lat":43.29529,"lon":5.385581,"is_reserved":false,"is_disabled":false,"rental_uris":{"android":"levelo://app?vid=8cc7e9d3-24ed-40e6-8ef9-c6f3073746a3","ios":"levelo://app?vid=8cc7e9d3-24ed-40e6-8ef9-c6f3073746a3"},"vehicle_type_id":"4","last_reported":1690304763,"current_range_meters":29200,"station_id":"ce4bgih2rcd13ifvqba0","pricing_plan_id":"free"},{"bike_id":"f84d3ad1-5b05-475d-bccc-2b4fce38e3bf","system_id":"levelo_inurba_marseille","lat":43.29529,"lon":5.385581,"is_reserved":false,"is_disabled":false,"rental_uris":{"android":"levelo://app?vid=f84d3ad1-5b05-475d-bccc-2b4fce38e3bf","ios":"levelo://app?vid=f84d3ad1-5b05-475d-bccc-2b4fce38e3bf"},"vehicle_type_id":"4","last_reported":1690304763,"current_range_meters":20800,"station_id":"ce4bgih2rcd13ifvqba0","pricing_plan_id":"free"},{"bike_id":"5e308025-1861-4195-ac4f-6b3eaa7b7478","system_id":"levelo_inurba_marseille","lat":43.29529,"lon":5.385581,"is_reserved":false,"is_disabled":false,"rental_uris":{"android":"levelo://app?vid=5e308025-1861-4195-ac4f-6b3eaa7b7478","ios":"levelo://app?vid=5e308025-1861-4195-ac4f-6b3eaa7b7478"},"vehicle_type_id":"4","last_reported":1690304763,"current_range_meters":25200,"station_id":"ce4bgih2rcd13ifvqba0","pricing_plan_id":"free"},{"bike_id":"8d8ccdfd-5291-483e-bb4b-af2470333e9a","system_id":"levelo_inurba_marseille","lat":43.29529,"lon":5.385581,"is_reserved":false,"is_disabled":false,"rental_uris":{"android":"levelo://app?vid=8d8ccdfd-5291-483e-bb4b-af2470333e9a","ios":"levelo://app?vid=8d8ccdfd-5291-483e-bb4b-af2470333e9a"},"vehicle_type_id":"4","last_reported":1690304763,"current_range_meters":15600,"station_id":"ce4bgih2rcd13ifvqba0","pricing_plan_id":"free"},{"bike_id":"02430ba7-9479-4569-9629-d02396aab257","system_id":"levelo_inurba_marseille","lat":43.29529,"lon":5.385581,"is_reserved":false,"is_disabled":false,"rental_uris":{"android":"levelo://app?vid=02430ba7-9479-4569-9629-d02396aab257","ios":"levelo://app?vid=02430ba7-9479-4569-9629-d02396aab257"},"vehicle_type_id":"4","last_reported":1690304763,"current_range_meters":16800,"station_id":"ce4bgih2rcd13ifvqba0","pricing_plan_id":"free"},{"bike_id":"48d512ea-3118-424e-a9de-f4b1a67bdb2e","system_id":"levelo_inurba_marseille","lat":43.29529,"lon":5.385581,"is_reserved":false,"is_disabled":false,"rental_uris":{"android":"levelo://app?vid=48d512ea-3118-424e-a9de-f4b1a67bdb2e","ios":"levelo://app?vid=48d512ea-3118-424e-a9de-f4b1a67bdb2e"},"vehicle_type_id":"4","last_reported":1690304763,"current_range_meters":29200,"station_id":"ce4bgih2rcd13ifvqba0","pricing_plan_id":"free"},{"bike_id":"2fe6bf66-2e1d-4c86-a077-9d9839fbc01c","system_id":"levelo_inurba_marseille","lat":43.286961,"lon":5.373785,"is_reserved":false,"is_disabled":false,"rental_uris":{"android":"levelo://app?vid=2fe6bf66-2e1d-4c86-a077-9d9839fbc01c","ios":"levelo://app?vid=2fe6bf66-2e1d-4c86-a077-9d9839fbc01c"},"vehicle_type_id":"4","last_reported":1690304763,"current_range_meters":20000,"station_id":"ce4bh3p2rcd13ifvqdq0","pricing_plan_id":"free"},{"bike_id":"9532a50a-300d-4bc0-b7ee-f0d60aac50c8","system_id":"levelo_inurba_marseille","lat":43.302008,"lon":5.394694,"is_reserved":false,"is_disabled":false,"rental_uris":{"android":"levelo://app?vid=9532a50a-300d-4bc0-b7ee-f0d60aac50c8","ios":"levelo://app?vid=9532a50a-300d-4bc0-b7ee-f0d60aac50c8"},"vehicle_type_id":"4","last_reported":1690304763,"current_range_meters":12000,"station_id":"ce4bh0p2rcd13ifvqd70","pricing_plan_id":"free"},{"bike_id":"5905f410-e54c-43f5-bb59-e9aa7d03cd74","system_id":"levelo_inurba_marseille","lat":43.302008,"lon":5.394694,"is_reserved":false,"is_disabled":false,"rental_uris":{"android":"levelo://app?vid=5905f410-e54c-43f5-bb59-e9aa7d03cd74","ios":"levelo://app?vid=5905f410-e54c-43f5-bb59-e9aa7d03cd74"},"vehicle_type_id":"4","last_reported":1690304763,"current_range_meters":18000,"station_id":"ce4bh0p2rcd13ifvqd70","pricing_plan_id":"free"},{"bike_id":"a66f53d0-2640-437f-bed3-865aa7ee8048","system_id":"levelo_inurba_marseille","lat":43.302008,"lon":5.394694,"is_reserved":false,"is_disabled":false,"rental_uris":{"android":"levelo://app?vid=a66f53d0-2640-437f-bed3-865aa7ee8048","ios":"levelo://app?vid=a66f53d0-2640-437f-bed3-865aa7ee8048"},"vehicle_type_id":"4","last_reported":1690304763,"current_range_meters":4400,"station_id":"ce4bh0p2rcd13ifvqd70","pricing_plan_id":"free"},{"bike_id":"b12e48b5-1156-48fc-8d05-9347ac207974","system_id":"levelo_inurba_marseille","lat":43.290631,"lon":5.359244,"is_reserved":false,"is_disabled":false,"rental_uris":{"android":"levelo://app?vid=b12e48b5-1156-48fc-8d05-9347ac207974","ios":"levelo://app?vid=b12e48b5-1156-48fc-8d05-9347ac207974"},"vehicle_type_id":"4","last_reported":1690304763,"current_range_meters":14800,"station_id":"ce4bha92rcd13ifvqeg0","pricing_plan_id":"free"},{"bike_id":"6a54b1fb-c7e9-45f6-9d56-d8d2fb16d742","system_id":"levelo_inurba_marseille","lat":43.290631,"lon":5.359244,"is_reserved":false,"is_disabled":false,"rental_uris":{"android":"levelo://app?vid=6a54b1fb-c7e9-45f6-9d56-d8d2fb16d742","ios":"levelo://app?vid=6a54b1fb-c7e9-45f6-9d56-d8d2fb16d742"},"vehicle_type_id":"4","last_reported":1690304763,"current_range_meters":10000,"station_id":"ce4bha92rcd13ifvqeg0","pricing_plan_id":"free"},{"bike_id":"89339d2b-c79b-4a24-a9ca-6a5402ef762f","system_id":"levelo_inurba_marseille","lat":43.290624,"lon":5.359245,"is_reserved":false,"is_disabled":false,"rental_uris":{"android":"levelo://app?vid=89339d2b-c79b-4a24-a9ca-6a5402ef762f","ios":"levelo://app?vid=89339d2b-c79b-4a24-a9ca-6a5402ef762f"},"vehicle_type_id":"4","last_reported":1690304763,"current_range_meters":30400,"station_id":"ce4bha92rcd13ifvqeg0","pricing_plan_id":"free"},{"bike_id":"9f7473a4-a787-4b2c-9ca6-fd2afd348f06","system_id":"levelo_inurba_marseille","lat":43.290624,"lon":5.359245,"is_reserved":false,"is_disabled":false,"rental_uris":{"android":"levelo://app?vid=9f7473a4-a787-4b2c-9ca6-fd2afd348f06","ios":"levelo://app?vid=9f7473a4-a787-4b2c-9ca6-fd2afd348f06"},"vehicle_type_id":"4","last_reported":1690304763,"current_range_meters":6800,"station_id":"ce4bha92rcd13ifvqeg0","pricing_plan_id":"free"},{"bike_id":"144d7c2d-de31-415d-8ad7-8cd381e030d1","system_id":"levelo_inurba_marseille","lat":43.290631,"lon":5.359244,"is_reserved":false,"is_disabled":false,"rental_uris":{"android":"levelo://app?vid=144d7c2d-de31-415d-8ad7-8cd381e030d1","ios":"levelo://app?vid=144d7c2d-de31-415d-8ad7-8cd381e030d1"},"vehicle_type_id":"4","last_reported":1690304763,"current_range_meters":30400,"station_id":"ce4bha92rcd13ifvqeg0","pricing_plan_id":"free"},{"bike_id":"88667079-4f44-4d49-a177-032670ce2ba5","system_id":"levelo_inurba_marseille","lat":43.290624,"lon":5.359245,"is_reserved":false,"is_disabled":false,"rental_uris":{"android":"levelo://app?vid=88667079-4f44-4d49-a177-032670ce2ba5","ios":"levelo://app?vid=88667079-4f44-4d49-a177-032670ce2ba5"},"vehicle_type_id":"4","last_reported":1690304763,"current_range_meters":14000,"station_id":"ce4bha92rcd13ifvqeg0","pricing_plan_id":"free"},{"bike_id":"dfe373e0-48d5-4b77-8e76-d51f1d48401d","system_id":"levelo_inurba_marseille","lat":43.29421,"lon":5.38614,"is_reserved":false,"is_disabled":false,"rental_uris":{"android":"levelo://app?vid=dfe373e0-48d5-4b77-8e76-d51f1d48401d","ios":"levelo://app?vid=dfe373e0-48d5-4b77-8e76-d51f1d48401d"},"vehicle_type_id":"4","last_reported":1690304763,"current_range_meters":30400,"station_id":"ce4bh2h2rcd13ifvqdh0","pricing_plan_id":"free"},{"bike_id":"be637fa8-0e6e-4341-a2a2-8ace2bc3bf2a","system_id":"levelo_inurba_marseille","lat":43.294162,"lon":5.386292,"is_reserved":false,"is_disabled":false,"rental_uris":{"android":"levelo://app?vid=be637fa8-0e6e-4341-a2a2-8ace2bc3bf2a","ios":"levelo://app?vid=be637fa8-0e6e-4341-a2a2-8ace2bc3bf2a"},"vehicle_type_id":"4","last_reported":1690304763,"current_range_meters":4400,"station_id":"ce4bh2h2rcd13ifvqdh0","pricing_plan_id":"free"},{"bike_id":"e79a0adc-843d-43b6-9208-7fe53f89e07f","system_id":"levelo_inurba_marseille","lat":43.294162,"lon":5.386292,"is_reserved":false,"is_disabled":false,"rental_uris":{"android":"levelo://app?vid=e79a0adc-843d-43b6-9208-7fe53f89e07f","ios":"levelo://app?vid=e79a0adc-843d-43b6-9208-7fe53f89e07f"},"vehicle_type_id":"4","last_reported":1690304763,"current_range_meters":16800,"station_id":"ce4bh2h2rcd13ifvqdh0","pricing_plan_id":"free"},{"bike_id":"5ebcff6e-fda9-45ed-bab0-a103d4241820","system_id":"levelo_inurba_marseille","lat":43.294162,"lon":5.386292,"is_reserved":false,"is_disabled":false,"rental_uris":{"android":"levelo://app?vid=5ebcff6e-fda9-45ed-bab0-a103d4241820","ios":"levelo://app?vid=5ebcff6e-fda9-45ed-bab0-a103d4241820"},"vehicle_type_id":"4","last_reported":1690304763,"current_range_meters":10000,"station_id":"ce4bh2h2rcd13ifvqdh0","pricing_plan_id":"free"},{"bike_id":"72b99875-4db5-4e03-8d05-627c25037b37","system_id":"levelo_inurba_marseille","lat":43.2941,"lon":5.38618,"is_reserved":false,"is_disabled":false,"rental_uris":{"android":"levelo://app?vid=72b99875-4db5-4e03-8d05-627c25037b37","ios":"levelo://app?vid=72b99875-4db5-4e03-8d05-627c25037b37"},"vehicle_type_id":"4","last_reported":1690304763,"current_range_meters":24000,"station_id":"ce4bh2h2rcd13ifvqdh0","pricing_plan_id":"free"},{"bike_id":"4976f8c6-1583-4243-9b71-69498b38d73b","system_id":"levelo_inurba_marseille","lat":43.294162,"lon":5.386292,"is_reserved":false,"is_disabled":false,"rental_uris":{"android":"levelo://app?vid=4976f8c6-1583-4243-9b71-69498b38d73b","ios":"levelo://app?vid=4976f8c6-1583-4243-9b71-69498b38d73b"},"vehicle_type_id":"4","last_reported":1690304763,"current_range_meters":31200,"station_id":"ce4bh2h2rcd13ifvqdh0","pricing_plan_id":"free"},{"bike_id":"47eb4a88-404f-4620-bc3a-c88f4b259576","system_id":"levelo_inurba_marseille","lat":43.29413,"lon":5.38626,"is_reserved":false,"is_disabled":false,"rental_uris":{"android":"levelo://app?vid=47eb4a88-404f-4620-bc3a-c88f4b259576","ios":"levelo://app?vid=47eb4a88-404f-4620-bc3a-c88f4b259576"},"vehicle_type_id":"4","last_reported":1690304763,"current_range_meters":15600,"station_id":"ce4bh2h2rcd13ifvqdh0","pricing_plan_id":"free"},{"bike_id":"65cc030f-2011-4cd0-8a88-dacea2ad0dd7","system_id":"levelo_inurba_marseille","lat":43.290327,"lon":5.375711,"is_reserved":false,"is_disabled":false,"rental_uris":{"android":"levelo://app?vid=65cc030f-2011-4cd0-8a88-dacea2ad0dd7","ios":"levelo://app?vid=65cc030f-2011-4cd0-8a88-dacea2ad0dd7"},"vehicle_type_id":"4","last_reported":1690304763,"current_range_meters":12400,"station_id":"ce4bh692rcd13ifvqe90","pricing_plan_id":"free"},{"bike_id":"488c49a6-98ed-45fb-861b-1425a898872d","system_id":"levelo_inurba_marseille","lat":43.289184,"lon":5.366408,"is_reserved":false,"is_disabled":false,"rental_uris":{"android":"levelo://app?vid=488c49a6-98ed-45fb-861b-1425a898872d","ios":"levelo://app?vid=488c49a6-98ed-45fb-861b-1425a898872d"},"vehicle_type_id":"4","last_reported":1690304763,"current_range_meters":21600,"station_id":"ce4bhap2rcd13ifvqek0","pricing_plan_id":"free"},{"bike_id":"cdddd72b-ebb7-4005-a00f-a6eff62c59f9","system_id":"levelo_inurba_marseille","lat":43.289468,"lon":5.363719,"is_reserved":false,"is_disabled":false,"rental_uris":{"android":"levelo://app?vid=cdddd72b-ebb7-4005-a00f-a6eff62c59f9","ios":"levelo://app?vid=cdddd72b-ebb7-4005-a00f-a6eff62c59f9"},"vehicle_type_id":"4","last_reported":1690304763,"current_range_meters":0,"station_id":"ce4bhc92rcd13ifvqetg","pricing_plan_id":"free"},{"bike_id":"cf7d05e0-1843-4166-b5d3-3fc9d840600f","system_id":"levelo_inurba_marseille","lat":43.292644,"lon":5.384257,"is_reserved":false,"is_disabled":false,"rental_uris":{"android":"levelo://app?vid=cf7d05e0-1843-4166-b5d3-3fc9d840600f","ios":"levelo://app?vid=cf7d05e0-1843-4166-b5d3-3fc9d840600f"},"vehicle_type_id":"4","last_reported":1690304763,"current_range_meters":8000,"station_id":"ce4bh692rcd13ifvqea0","pricing_plan_id":"free"},{"bike_id":"3daae1ee-a135-4d3f-9419-8e6b56a95bad","system_id":"levelo_inurba_marseille","lat":43.292644,"lon":5.384257,"is_reserved":false,"is_disabled":false,"rental_uris":{"android":"levelo://app?vid=3daae1ee-a135-4d3f-9419-8e6b56a95bad","ios":"levelo://app?vid=3daae1ee-a135-4d3f-9419-8e6b56a95bad"},"vehicle_type_id":"4","last_reported":1690304763,"current_range_meters":21200,"station_id":"ce4bh692rcd13ifvqea0","pricing_plan_id":"free"},{"bike_id":"57a0141a-4e1c-458d-ba66-2f8d5a3a1254","system_id":"levelo_inurba_marseille","lat":43.292644,"lon":5.384257,"is_reserved":false,"is_disabled":false,"rental_uris":{"android":"levelo://app?vid=57a0141a-4e1c-458d-ba66-2f8d5a3a1254","ios":"levelo://app?vid=57a0141a-4e1c-458d-ba66-2f8d5a3a1254"},"vehicle_type_id":"4","last_reported":1690304763,"current_range_meters":16800,"station_id":"ce4bh692rcd13ifvqea0","pricing_plan_id":"free"},{"bike_id":"fad053c3-3b19-41f7-a48e-13d8b8a09040","system_id":"levelo_inurba_marseille","lat":43.292644,"lon":5.384257,"is_reserved":false,"is_disabled":false,"rental_uris":{"android":"levelo://app?vid=fad053c3-3b19-41f7-a48e-13d8b8a09040","ios":"levelo://app?vid=fad053c3-3b19-41f7-a48e-13d8b8a09040"},"vehicle_type_id":"4","last_reported":1690304763,"current_range_meters":9200,"station_id":"ce4bh692rcd13ifvqea0","pricing_plan_id":"free"},{"bike_id":"c2f231a1-a185-46ed-a091-d617c671d810","system_id":"levelo_inurba_marseille","lat":43.292644,"lon":5.384257,"is_reserved":false,"is_disabled":false,"rental_uris":{"android":"levelo://app?vid=c2f231a1-a185-46ed-a091-d617c671d810","ios":"levelo://app?vid=c2f231a1-a185-46ed-a091-d617c671d810"},"vehicle_type_id":"4","last_reported":1690304763,"current_range_meters":26000,"station_id":"ce4bh692rcd13ifvqea0","pricing_plan_id":"free"},{"bike_id":"27da7934-e61b-46f0-ae06-0996fa22be1e","system_id":"levelo_inurba_marseille","lat":43.290104,"lon":5.356111,"is_reserved":false,"is_disabled":false,"rental_uris":{"android":"levelo://app?vid=27da7934-e61b-46f0-ae06-0996fa22be1e","ios":"levelo://app?vid=27da7934-e61b-46f0-ae06-0996fa22be1e"},"vehicle_type_id":"4","last_reported":1690304763,"current_range_meters":22400,"station_id":"ce4bhb92rcd13ifvqen0","pricing_plan_id":"free"},{"bike_id":"dd0f0602-32f6-44cb-be0f-dbb2d1c56dc5","system_id":"levelo_inurba_marseille","lat":43.33048,"lon":5.38905,"is_reserved":false,"is_disabled":false,"rental_uris":{"android":"levelo://app?vid=dd0f0602-32f6-44cb-be0f-dbb2d1c56dc5","ios":"levelo://app?vid=dd0f0602-32f6-44cb-be0f-dbb2d1c56dc5"},"vehicle_type_id":"4","last_reported":1690304763,"current_range_meters":26800,"station_id":"ce4bhr92rcd13ifvqhrg","pricing_plan_id":"free"},{"bike_id":"8fdf7c56-0a0a-48f3-8c5d-53434843cd34","system_id":"levelo_inurba_marseille","lat":43.33041,"lon":5.38916,"is_reserved":false,"is_disabled":false,"rental_uris":{"android":"levelo://app?vid=8fdf7c56-0a0a-48f3-8c5d-53434843cd34","ios":"levelo://app?vid=8fdf7c56-0a0a-48f3-8c5d-53434843cd34"},"vehicle_type_id":"4","last_reported":1690304763,"current_range_meters":24800,"station_id":"ce4bhr92rcd13ifvqhrg","pricing_plan_id":"free"},{"bike_id":"2b614b85-75a6-46d1-8fb2-f8b4324cdce9","system_id":"levelo_inurba_marseille","lat":43.33048,"lon":5.38908,"is_reserved":false,"is_disabled":false,"rental_uris":{"android":"levelo://app?vid=2b614b85-75a6-46d1-8fb2-f8b4324cdce9","ios":"levelo://app?vid=2b614b85-75a6-46d1-8fb2-f8b4324cdce9"},"vehicle_type_id":"4","last_reported":1690304763,"current_range_meters":24000,"station_id":"ce4bhr92rcd13ifvqhrg","pricing_plan_id":"free"},{"bike_id":"1e5adbc3-f47c-43a1-9cd1-6383bb43f658","system_id":"levelo_inurba_marseille","lat":43.290104,"lon":5.356111,"is_reserved":false,"is_disabled":false,"rental_uris":{"android":"levelo://app?vid=1e5adbc3-f47c-43a1-9cd1-6383bb43f658","ios":"levelo://app?vid=1e5adbc3-f47c-43a1-9cd1-6383bb43f658"},"vehicle_type_id":"4","last_reported":1690304763,"current_range_meters":31600,"station_id":"ce4bhb92rcd13ifvqen0","pricing_plan_id":"free"},{"bike_id":"3560e690-f2fc-4922-8647-e1b7cb925006","system_id":"levelo_inurba_marseille","lat":43.33047,"lon":5.38912,"is_reserved":false,"is_disabled":false,"rental_uris":{"android":"levelo://app?vid=3560e690-f2fc-4922-8647-e1b7cb925006","ios":"levelo://app?vid=3560e690-f2fc-4922-8647-e1b7cb925006"},"vehicle_type_id":"4","last_reported":1690304763,"current_range_meters":29200,"station_id":"ce4bhr92rcd13ifvqhrg","pricing_plan_id":"free"},{"bike_id":"06780769-6c49-42ba-9882-693b562c3a7c","system_id":"levelo_inurba_marseille","lat":43.33046,"lon":5.38915,"is_reserved":false,"is_disabled":false,"rental_uris":{"android":"levelo://app?vid=06780769-6c49-42ba-9882-693b562c3a7c","ios":"levelo://app?vid=06780769-6c49-42ba-9882-693b562c3a7c"},"vehicle_type_id":"4","last_reported":1690304763,"current_range_meters":19200,"station_id":"ce4bhr92rcd13ifvqhrg","pricing_plan_id":"free"},{"bike_id":"2a4e5bba-2bec-4580-86b3-343e76886a7f","system_id":"levelo_inurba_marseille","lat":43.290104,"lon":5.356111,"is_reserved":false,"is_disabled":false,"rental_uris":{"android":"levelo://app?vid=2a4e5bba-2bec-4580-86b3-343e76886a7f","ios":"levelo://app?vid=2a4e5bba-2bec-4580-86b3-343e76886a7f"},"vehicle_type_id":"4","last_reported":1690304763,"current_range_meters":20800,"station_id":"ce4bhb92rcd13ifvqen0","pricing_plan_id":"free"},{"bike_id":"da6e0853-8f64-403c-921e-c4fffb1dc183","system_id":"levelo_inurba_marseille","lat":43.290104,"lon":5.356111,"is_reserved":false,"is_disabled":false,"rental_uris":{"android":"levelo://app?vid=da6e0853-8f64-403c-921e-c4fffb1dc183","ios":"levelo://app?vid=da6e0853-8f64-403c-921e-c4fffb1dc183"},"vehicle_type_id":"4","last_reported":1690304763,"current_range_meters":13200,"station_id":"ce4bhb92rcd13ifvqen0","pricing_plan_id":"free"},{"bike_id":"e0e41acf-4489-42f8-b133-7935c80c0842","system_id":"levelo_inurba_marseille","lat":43.33045,"lon":5.38917,"is_reserved":false,"is_disabled":false,"rental_uris":{"android":"levelo://app?vid=e0e41acf-4489-42f8-b133-7935c80c0842","ios":"levelo://app?vid=e0e41acf-4489-42f8-b133-7935c80c0842"},"vehicle_type_id":"4","last_reported":1690304763,"current_range_meters":12800,"station_id":"ce4bhr92rcd13ifvqhrg","pricing_plan_id":"free"},{"bike_id":"4246a506-28cb-43ef-811c-16d8bd754c74","system_id":"levelo_inurba_marseille","lat":43.33047,"lon":5.38914,"is_reserved":false,"is_disabled":false,"rental_uris":{"android":"levelo://app?vid=4246a506-28cb-43ef-811c-16d8bd754c74","ios":"levelo://app?vid=4246a506-28cb-43ef-811c-16d8bd754c74"},"vehicle_type_id":"4","last_reported":1690304763,"current_range_meters":29200,"station_id":"ce4bhr92rcd13ifvqhrg","pricing_plan_id":"free"},{"bike_id":"9f73b7b1-94e1-4ca1-a91a-be680e3d30f9","system_id":"levelo_inurba_marseille","lat":43.290103,"lon":5.356114,"is_reserved":false,"is_disabled":false,"rental_uris":{"android":"levelo://app?vid=9f73b7b1-94e1-4ca1-a91a-be680e3d30f9","ios":"levelo://app?vid=9f73b7b1-94e1-4ca1-a91a-be680e3d30f9"},"vehicle_type_id":"4","last_reported":1690304763,"current_range_meters":13600,"station_id":"ce4bhb92rcd13ifvqen0","pricing_plan_id":"free"},{"bike_id":"d0dff3b8-8bc1-4c3e-a4bd-76ff8d143f39","system_id":"levelo_inurba_marseille","lat":43.290104,"lon":5.356111,"is_reserved":false,"is_disabled":false,"rental_uris":{"android":"levelo://app?vid=d0dff3b8-8bc1-4c3e-a4bd-76ff8d143f39","ios":"levelo://app?vid=d0dff3b8-8bc1-4c3e-a4bd-76ff8d143f39"},"vehicle_type_id":"4","last_reported":1690304763,"current_range_meters":17600,"station_id":"ce4bhb92rcd13ifvqen0","pricing_plan_id":"free"},{"bike_id":"d1e223e2-5f4d-4dbb-989a-929ddf91991b","system_id":"levelo_inurba_marseille","lat":43.290104,"lon":5.356111,"is_reserved":false,"is_disabled":false,"rental_uris":{"android":"levelo://app?vid=d1e223e2-5f4d-4dbb-989a-929ddf91991b","ios":"levelo://app?vid=d1e223e2-5f4d-4dbb-989a-929ddf91991b"},"vehicle_type_id":"4","last_reported":1690304763,"current_range_meters":24000,"station_id":"ce4bhb92rcd13ifvqen0","pricing_plan_id":"free"},{"bike_id":"ebd71405-f0a9-492c-b82e-4d42033392fb","system_id":"levelo_inurba_marseille","lat":43.290103,"lon":5.356114,"is_reserved":false,"is_disabled":false,"rental_uris":{"android":"levelo://app?vid=ebd71405-f0a9-492c-b82e-4d42033392fb","ios":"levelo://app?vid=ebd71405-f0a9-492c-b82e-4d42033392fb"},"vehicle_type_id":"4","last_reported":1690304763,"current_range_meters":29200,"station_id":"ce4bhb92rcd13ifvqen0","pricing_plan_id":"free"},{"bike_id":"9491418d-07eb-4ab3-ad85-7b7125c11303","system_id":"levelo_inurba_marseille","lat":43.290103,"lon":5.356114,"is_reserved":false,"is_disabled":false,"rental_uris":{"android":"levelo://app?vid=9491418d-07eb-4ab3-ad85-7b7125c11303","ios":"levelo://app?vid=9491418d-07eb-4ab3-ad85-7b7125c11303"},"vehicle_type_id":"4","last_reported":1690304763,"current_range_meters":11200,"station_id":"ce4bhb92rcd13ifvqen0","pricing_plan_id":"free"},{"bike_id":"016752c3-be43-4786-850f-0b6a8c20d095","system_id":"levelo_inurba_marseille","lat":43.29003,"lon":5.3561,"is_reserved":false,"is_disabled":false,"rental_uris":{"android":"levelo://app?vid=016752c3-be43-4786-850f-0b6a8c20d095","ios":"levelo://app?vid=016752c3-be43-4786-850f-0b6a8c20d095"},"vehicle_type_id":"4","last_reported":1690304763,"current_range_meters":20000,"station_id":"ce4bhb92rcd13ifvqen0","pricing_plan_id":"free"},{"bike_id":"31fac081-039e-4dd3-834d-69a1d1412756","system_id":"levelo_inurba_marseille","lat":43.290103,"lon":5.356114,"is_reserved":false,"is_disabled":false,"rental_uris":{"android":"levelo://app?vid=31fac081-039e-4dd3-834d-69a1d1412756","ios":"levelo://app?vid=31fac081-039e-4dd3-834d-69a1d1412756"},"vehicle_type_id":"4","last_reported":1690304763,"current_range_meters":12800,"station_id":"ce4bhb92rcd13ifvqen0","pricing_plan_id":"free"},{"bike_id":"f6adeb08-6abb-40cd-ba1d-54dbf14e6e5e","system_id":"levelo_inurba_marseille","lat":43.29791,"lon":5.39336,"is_reserved":false,"is_disabled":false,"rental_uris":{"android":"levelo://app?vid=f6adeb08-6abb-40cd-ba1d-54dbf14e6e5e","ios":"levelo://app?vid=f6adeb08-6abb-40cd-ba1d-54dbf14e6e5e"},"vehicle_type_id":"4","last_reported":1690304763,"current_range_meters":27200,"station_id":"chh1huq6cuj3fo74tm60","pricing_plan_id":"free"},{"bike_id":"2a150c59-0222-4d97-b8ac-698c36547eac","system_id":"levelo_inurba_marseille","lat":43.2978,"lon":5.39325,"is_reserved":false,"is_disabled":false,"rental_uris":{"android":"levelo://app?vid=2a150c59-0222-4d97-b8ac-698c36547eac","ios":"levelo://app?vid=2a150c59-0222-4d97-b8ac-698c36547eac"},"vehicle_type_id":"4","last_reported":1690304763,"current_range_meters":25200,"station_id":"chh1huq6cuj3fo74tm60","pricing_plan_id":"free"},{"bike_id":"4c110130-1da0-4ee3-8f72-589c1d79ffc4","system_id":"levelo_inurba_marseille","lat":43.297815,"lon":5.393548,"is_reserved":false,"is_disabled":false,"rental_uris":{"android":"levelo://app?vid=4c110130-1da0-4ee3-8f72-589c1d79ffc4","ios":"levelo://app?vid=4c110130-1da0-4ee3-8f72-589c1d79ffc4"},"vehicle_type_id":"4","last_reported":1690304763,"current_range_meters":3600,"station_id":"chh1huq6cuj3fo74tm60","pricing_plan_id":"free"},{"bike_id":"16b6562d-a6ea-43c1-97d8-bb103b054b6d","system_id":"levelo_inurba_marseille","lat":43.295169,"lon":5.390426,"is_reserved":false,"is_disabled":false,"rental_uris":{"android":"levelo://app?vid=16b6562d-a6ea-43c1-97d8-bb103b054b6d","ios":"levelo://app?vid=16b6562d-a6ea-43c1-97d8-bb103b054b6d"},"vehicle_type_id":"4","last_reported":1690304763,"current_range_meters":18400,"station_id":"ce4bh3p2rcd13ifvqdp0","pricing_plan_id":"free"},{"bike_id":"03dc5e7d-6785-478f-9e3d-0fb8bfca4f1f","system_id":"levelo_inurba_marseille","lat":43.297815,"lon":5.393548,"is_reserved":false,"is_disabled":false,"rental_uris":{"android":"levelo://app?vid=03dc5e7d-6785-478f-9e3d-0fb8bfca4f1f","ios":"levelo://app?vid=03dc5e7d-6785-478f-9e3d-0fb8bfca4f1f"},"vehicle_type_id":"4","last_reported":1690304763,"current_range_meters":27200,"station_id":"chh1huq6cuj3fo74tm60","pricing_plan_id":"free"},{"bike_id":"0d388cd9-dde9-4e76-ade5-dc906b718d6c","system_id":"levelo_inurba_marseille","lat":43.297815,"lon":5.393548,"is_reserved":false,"is_disabled":false,"rental_uris":{"android":"levelo://app?vid=0d388cd9-dde9-4e76-ade5-dc906b718d6c","ios":"levelo://app?vid=0d388cd9-dde9-4e76-ade5-dc906b718d6c"},"vehicle_type_id":"4","last_reported":1690304763,"current_range_meters":20400,"station_id":"chh1huq6cuj3fo74tm60","pricing_plan_id":"free"},{"bike_id":"93f192d8-7a5c-43d0-86d5-ed7bdbba93ae","system_id":"levelo_inurba_marseille","lat":43.29782,"lon":5.39341,"is_reserved":false,"is_disabled":false,"rental_uris":{"android":"levelo://app?vid=93f192d8-7a5c-43d0-86d5-ed7bdbba93ae","ios":"levelo://app?vid=93f192d8-7a5c-43d0-86d5-ed7bdbba93ae"},"vehicle_type_id":"4","last_reported":1690304763,"current_range_meters":13200,"station_id":"chh1huq6cuj3fo74tm60","pricing_plan_id":"free"},{"bike_id":"b3a00ed7-4f35-4de1-9328-97bb0a34fa19","system_id":"levelo_inurba_marseille","lat":43.297882,"lon":5.393524,"is_reserved":false,"is_disabled":false,"rental_uris":{"android":"levelo://app?vid=b3a00ed7-4f35-4de1-9328-97bb0a34fa19","ios":"levelo://app?vid=b3a00ed7-4f35-4de1-9328-97bb0a34fa19"},"vehicle_type_id":"4","last_reported":1690304763,"current_range_meters":12400,"station_id":"chh1huq6cuj3fo74tm60","pricing_plan_id":"free"},{"bike_id":"019dc654-23e4-44f5-ab71-bb7d2b796be2","system_id":"levelo_inurba_marseille","lat":43.297815,"lon":5.393548,"is_reserved":false,"is_disabled":false,"rental_uris":{"android":"levelo://app?vid=019dc654-23e4-44f5-ab71-bb7d2b796be2","ios":"levelo://app?vid=019dc654-23e4-44f5-ab71-bb7d2b796be2"},"vehicle_type_id":"4","last_reported":1690304763,"current_range_meters":4800,"station_id":"chh1huq6cuj3fo74tm60","pricing_plan_id":"free"},{"bike_id":"53d5f54d-57fd-448b-aea8-55e7a8d7df46","system_id":"levelo_inurba_marseille","lat":43.28978,"lon":5.37832,"is_reserved":false,"is_disabled":false,"rental_uris":{"android":"levelo://app?vid=53d5f54d-57fd-448b-aea8-55e7a8d7df46","ios":"levelo://app?vid=53d5f54d-57fd-448b-aea8-55e7a8d7df46"},"vehicle_type_id":"4","last_reported":1690304763,"current_range_meters":27200,"station_id":"ce4bh9p2rcd13ifvqed0","pricing_plan_id":"free"},{"bike_id":"4dde5663-d618-4c9e-8135-3af3fef16650","system_id":"levelo_inurba_marseille","lat":43.295169,"lon":5.390426,"is_reserved":false,"is_disabled":false,"rental_uris":{"android":"levelo://app?vid=4dde5663-d618-4c9e-8135-3af3fef16650","ios":"levelo://app?vid=4dde5663-d618-4c9e-8135-3af3fef16650"},"vehicle_type_id":"4","last_reported":1690304763,"current_range_meters":3200,"station_id":"ce4bh3p2rcd13ifvqdp0","pricing_plan_id":"free"},{"bike_id":"e9d67656-4395-4ecb-ad0a-b5257e4c900c","system_id":"levelo_inurba_marseille","lat":43.295169,"lon":5.390426,"is_reserved":false,"is_disabled":false,"rental_uris":{"android":"levelo://app?vid=e9d67656-4395-4ecb-ad0a-b5257e4c900c","ios":"levelo://app?vid=e9d67656-4395-4ecb-ad0a-b5257e4c900c"},"vehicle_type_id":"4","last_reported":1690304763,"current_range_meters":6800,"station_id":"ce4bh3p2rcd13ifvqdp0","pricing_plan_id":"free"},{"bike_id":"e4bb7ca1-e25d-4278-8062-624aad874a33","system_id":"levelo_inurba_marseille","lat":43.30297,"lon":5.39779,"is_reserved":false,"is_disabled":false,"rental_uris":{"android":"levelo://app?vid=e4bb7ca1-e25d-4278-8062-624aad874a33","ios":"levelo://app?vid=e4bb7ca1-e25d-4278-8062-624aad874a33"},"vehicle_type_id":"4","last_reported":1690304763,"current_range_meters":30400,"station_id":"","pricing_plan_id":"free"},{"bike_id":"8c1d0384-1653-4758-ba42-4419ab651739","system_id":"levelo_inurba_marseille","lat":43.295169,"lon":5.390426,"is_reserved":false,"is_disabled":false,"rental_uris":{"android":"levelo://app?vid=8c1d0384-1653-4758-ba42-4419ab651739","ios":"levelo://app?vid=8c1d0384-1653-4758-ba42-4419ab651739"},"vehicle_type_id":"4","last_reported":1690304763,"current_range_meters":2000,"station_id":"ce4bh3p2rcd13ifvqdp0","pricing_plan_id":"free"},{"bike_id":"f84789b0-70a1-4975-9be7-32e76f11c036","system_id":"levelo_inurba_marseille","lat":43.29021,"lon":5.38131,"is_reserved":false,"is_disabled":false,"rental_uris":{"android":"levelo://app?vid=f84789b0-70a1-4975-9be7-32e76f11c036","ios":"levelo://app?vid=f84789b0-70a1-4975-9be7-32e76f11c036"},"vehicle_type_id":"4","last_reported":1690304763,"current_range_meters":24800,"station_id":"ce4bh4p2rcd13ifvqe1g","pricing_plan_id":"free"},{"bike_id":"ca9d201a-71a1-475c-8693-9ecfe47864ad","system_id":"levelo_inurba_marseille","lat":43.31277,"lon":5.40154,"is_reserved":false,"is_disabled":false,"rental_uris":{"android":"levelo://app?vid=ca9d201a-71a1-475c-8693-9ecfe47864ad","ios":"levelo://app?vid=ca9d201a-71a1-475c-8693-9ecfe47864ad"},"vehicle_type_id":"4","last_reported":1690304763,"current_range_meters":19600,"station_id":"ce4bh092rcd13ifvqd30","pricing_plan_id":"free"},{"bike_id":"417f3cd8-86e7-4f94-bf48-3b7ed2d5d1d2","system_id":"levelo_inurba_marseille","lat":43.33733,"lon":5.37467,"is_reserved":false,"is_disabled":false,"rental_uris":{"android":"levelo://app?vid=417f3cd8-86e7-4f94-bf48-3b7ed2d5d1d2","ios":"levelo://app?vid=417f3cd8-86e7-4f94-bf48-3b7ed2d5d1d2"},"vehicle_type_id":"4","last_reported":1690304763,"current_range_meters":6800,"station_id":"","pricing_plan_id":"free"},{"bike_id":"def82996-010e-49c6-baef-a90e55e75a38","system_id":"levelo_inurba_marseille","lat":43.286961,"lon":5.373785,"is_reserved":false,"is_disabled":false,"rental_uris":{"android":"levelo://app?vid=def82996-010e-49c6-baef-a90e55e75a38","ios":"levelo://app?vid=def82996-010e-49c6-baef-a90e55e75a38"},"vehicle_type_id":"4","last_reported":1690304763,"current_range_meters":14400,"station_id":"ce4bh3p2rcd13ifvqdq0","pricing_plan_id":"free"},{"bike_id":"e1b81148-5445-4a37-b8ba-64ec9e162893","system_id":"levelo_inurba_marseille","lat":43.33736,"lon":5.37462,"is_reserved":false,"is_disabled":false,"rental_uris":{"android":"levelo://app?vid=e1b81148-5445-4a37-b8ba-64ec9e162893","ios":"levelo://app?vid=e1b81148-5445-4a37-b8ba-64ec9e162893"},"vehicle_type_id":"4","last_reported":1690304763,"current_range_meters":24800,"station_id":"","pricing_plan_id":"free"},{"bike_id":"2c48990d-f5c3-43ee-b9b3-914034a959c6","system_id":"levelo_inurba_marseille","lat":43.309371,"lon":5.401449,"is_reserved":false,"is_disabled":false,"rental_uris":{"android":"levelo://app?vid=2c48990d-f5c3-43ee-b9b3-914034a959c6","ios":"levelo://app?vid=2c48990d-f5c3-43ee-b9b3-914034a959c6"},"vehicle_type_id":"4","last_reported":1690304763,"current_range_meters":23600,"station_id":"ce4bgvp2rcd13ifvqct0","pricing_plan_id":"free"},{"bike_id":"60be450e-fd30-46de-8515-e5614ce6e36b","system_id":"levelo_inurba_marseille","lat":43.312609,"lon":5.401662,"is_reserved":false,"is_disabled":false,"rental_uris":{"android":"levelo://app?vid=60be450e-fd30-46de-8515-e5614ce6e36b","ios":"levelo://app?vid=60be450e-fd30-46de-8515-e5614ce6e36b"},"vehicle_type_id":"4","last_reported":1690304763,"current_range_meters":17200,"station_id":"ce4bh092rcd13ifvqd30","pricing_plan_id":"free"},{"bike_id":"50f89085-7f95-40e0-be4b-f5c05099304e","system_id":"levelo_inurba_marseille","lat":43.3067,"lon":5.40069,"is_reserved":false,"is_disabled":false,"rental_uris":{"android":"levelo://app?vid=50f89085-7f95-40e0-be4b-f5c05099304e","ios":"levelo://app?vid=50f89085-7f95-40e0-be4b-f5c05099304e"},"vehicle_type_id":"4","last_reported":1690304763,"current_range_meters":17600,"station_id":"ce4bh112rcd13ifvqda0","pricing_plan_id":"free"},{"bike_id":"50d2cf7a-c49e-4ae3-b96e-5056a1bfd30f","system_id":"levelo_inurba_marseille","lat":43.309371,"lon":5.401449,"is_reserved":false,"is_disabled":false,"rental_uris":{"android":"levelo://app?vid=50d2cf7a-c49e-4ae3-b96e-5056a1bfd30f","ios":"levelo://app?vid=50d2cf7a-c49e-4ae3-b96e-5056a1bfd30f"},"vehicle_type_id":"4","last_reported":1690304763,"current_range_meters":2400,"station_id":"ce4bgvp2rcd13ifvqct0","pricing_plan_id":"free"},{"bike_id":"f2538e92-b853-4637-87b9-30dd9d9a08b9","system_id":"levelo_inurba_marseille","lat":43.30645,"lon":5.40065,"is_reserved":false,"is_disabled":false,"rental_uris":{"android":"levelo://app?vid=f2538e92-b853-4637-87b9-30dd9d9a08b9","ios":"levelo://app?vid=f2538e92-b853-4637-87b9-30dd9d9a08b9"},"vehicle_type_id":"4","last_reported":1690304763,"current_range_meters":31200,"station_id":"ce4bh112rcd13ifvqda0","pricing_plan_id":"free"},{"bike_id":"e9138402-fc15-4896-bb4f-c3a40ba5299c","system_id":"levelo_inurba_marseille","lat":43.33741,"lon":5.3749,"is_reserved":false,"is_disabled":false,"rental_uris":{"android":"levelo://app?vid=e9138402-fc15-4896-bb4f-c3a40ba5299c","ios":"levelo://app?vid=e9138402-fc15-4896-bb4f-c3a40ba5299c"},"vehicle_type_id":"4","last_reported":1690304763,"current_range_meters":14000,"station_id":"","pricing_plan_id":"free"},{"bike_id":"f4832a7d-a08c-4c4c-a7c7-6a8e3914171a","system_id":"levelo_inurba_marseille","lat":43.33746,"lon":5.37464,"is_reserved":false,"is_disabled":false,"rental_uris":{"android":"levelo://app?vid=f4832a7d-a08c-4c4c-a7c7-6a8e3914171a","ios":"levelo://app?vid=f4832a7d-a08c-4c4c-a7c7-6a8e3914171a"},"vehicle_type_id":"4","last_reported":1690304763,"current_range_meters":29200,"station_id":"","pricing_plan_id":"free"},{"bike_id":"8a763e71-889a-4f6d-9d12-cc0925af9551","system_id":"levelo_inurba_marseille","lat":43.33747,"lon":5.37469,"is_reserved":false,"is_disabled":false,"rental_uris":{"android":"levelo://app?vid=8a763e71-889a-4f6d-9d12-cc0925af9551","ios":"levelo://app?vid=8a763e71-889a-4f6d-9d12-cc0925af9551"},"vehicle_type_id":"4","last_reported":1690304763,"current_range_meters":30000,"station_id":"","pricing_plan_id":"free"},{"bike_id":"31d77afd-f17c-45af-b4fb-e1f10649f2ac","system_id":"levelo_inurba_marseille","lat":43.33749,"lon":5.37483,"is_reserved":false,"is_disabled":false,"rental_uris":{"android":"levelo://app?vid=31d77afd-f17c-45af-b4fb-e1f10649f2ac","ios":"levelo://app?vid=31d77afd-f17c-45af-b4fb-e1f10649f2ac"},"vehicle_type_id":"4","last_reported":1690304763,"current_range_meters":29600,"station_id":"","pricing_plan_id":"free"},{"bike_id":"91c5d3f3-de55-416e-ba96-83c70618ab44","system_id":"levelo_inurba_marseille","lat":43.337474,"lon":5.374932,"is_reserved":false,"is_disabled":false,"rental_uris":{"android":"levelo://app?vid=91c5d3f3-de55-416e-ba96-83c70618ab44","ios":"levelo://app?vid=91c5d3f3-de55-416e-ba96-83c70618ab44"},"vehicle_type_id":"4","last_reported":1690304763,"current_range_meters":0,"station_id":"","pricing_plan_id":"free"},{"bike_id":"34746990-9af6-409b-bcba-2bfa3785fb72","system_id":"levelo_inurba_marseille","lat":43.33755,"lon":5.37473,"is_reserved":false,"is_disabled":false,"rental_uris":{"android":"levelo://app?vid=34746990-9af6-409b-bcba-2bfa3785fb72","ios":"levelo://app?vid=34746990-9af6-409b-bcba-2bfa3785fb72"},"vehicle_type_id":"4","last_reported":1690304763,"current_range_meters":0,"station_id":"","pricing_plan_id":"free"},{"bike_id":"84426c72-a45e-42ce-89a9-a207a6c14653","system_id":"levelo_inurba_marseille","lat":43.33756,"lon":5.37467,"is_reserved":false,"is_disabled":false,"rental_uris":{"android":"levelo://app?vid=84426c72-a45e-42ce-89a9-a207a6c14653","ios":"levelo://app?vid=84426c72-a45e-42ce-89a9-a207a6c14653"},"vehicle_type_id":"4","last_reported":1690304763,"current_range_meters":23200,"station_id":"","pricing_plan_id":"free"},{"bike_id":"023f9f64-74be-4021-b4df-bf84b4d9242b","system_id":"levelo_inurba_marseille","lat":43.33757,"lon":5.37475,"is_reserved":false,"is_disabled":false,"rental_uris":{"android":"levelo://app?vid=023f9f64-74be-4021-b4df-bf84b4d9242b","ios":"levelo://app?vid=023f9f64-74be-4021-b4df-bf84b4d9242b"},"vehicle_type_id":"4","last_reported":1690304763,"current_range_meters":24400,"station_id":"","pricing_plan_id":"free"},{"bike_id":"153ffbbf-1bcb-4450-b505-39d94b305ddc","system_id":"levelo_inurba_marseille","lat":43.33757,"lon":5.37475,"is_reserved":false,"is_disabled":false,"rental_uris":{"android":"levelo://app?vid=153ffbbf-1bcb-4450-b505-39d94b305ddc","ios":"levelo://app?vid=153ffbbf-1bcb-4450-b505-39d94b305ddc"},"vehicle_type_id":"4","last_reported":1690304763,"current_range_meters":12400,"station_id":"","pricing_plan_id":"free"},{"bike_id":"e5f66319-449c-4163-b4e2-5f51e6fef08d","system_id":"levelo_inurba_marseille","lat":43.33758,"lon":5.37469,"is_reserved":false,"is_disabled":false,"rental_uris":{"android":"levelo://app?vid=e5f66319-449c-4163-b4e2-5f51e6fef08d","ios":"levelo://app?vid=e5f66319-449c-4163-b4e2-5f51e6fef08d"},"vehicle_type_id":"4","last_reported":1690304763,"current_range_meters":30800,"station_id":"","pricing_plan_id":"free"},{"bike_id":"f01891c0-4e50-4192-a3e3-40c445ef5a8d","system_id":"levelo_inurba_marseille","lat":43.30642,"lon":5.401031,"is_reserved":false,"is_disabled":false,"rental_uris":{"android":"levelo://app?vid=f01891c0-4e50-4192-a3e3-40c445ef5a8d","ios":"levelo://app?vid=f01891c0-4e50-4192-a3e3-40c445ef5a8d"},"vehicle_type_id":"4","last_reported":1690304763,"current_range_meters":4800,"station_id":"ce4bh112rcd13ifvqda0","pricing_plan_id":"free"},{"bike_id":"3746530a-4639-4ddb-88b5-06f2f5c2fbfd","system_id":"levelo_inurba_marseille","lat":43.33759,"lon":5.37467,"is_reserved":false,"is_disabled":false,"rental_uris":{"android":"levelo://app?vid=3746530a-4639-4ddb-88b5-06f2f5c2fbfd","ios":"levelo://app?vid=3746530a-4639-4ddb-88b5-06f2f5c2fbfd"},"vehicle_type_id":"4","last_reported":1690304763,"current_range_meters":31200,"station_id":"","pricing_plan_id":"free"},{"bike_id":"bbba9b56-f3f5-4c64-bc8b-118bf35453d0","system_id":"levelo_inurba_marseille","lat":43.33757,"lon":5.3748,"is_reserved":false,"is_disabled":false,"rental_uris":{"android":"levelo://app?vid=bbba9b56-f3f5-4c64-bc8b-118bf35453d0","ios":"levelo://app?vid=bbba9b56-f3f5-4c64-bc8b-118bf35453d0"},"vehicle_type_id":"4","last_reported":1690304763,"current_range_meters":14000,"station_id":"","pricing_plan_id":"free"},{"bike_id":"fe1f78d2-f246-48a1-8047-b5480ca67db4","system_id":"levelo_inurba_marseille","lat":43.33758,"lon":5.37475,"is_reserved":false,"is_disabled":false,"rental_uris":{"android":"levelo://app?vid=fe1f78d2-f246-48a1-8047-b5480ca67db4","ios":"levelo://app?vid=fe1f78d2-f246-48a1-8047-b5480ca67db4"},"vehicle_type_id":"4","last_reported":1690304763,"current_range_meters":0,"station_id":"","pricing_plan_id":"free"},{"bike_id":"130840a5-e40d-401b-b733-9a7931bc0133","system_id":"levelo_inurba_marseille","lat":43.33756,"lon":5.37498,"is_reserved":false,"is_disabled":false,"rental_uris":{"android":"levelo://app?vid=130840a5-e40d-401b-b733-9a7931bc0133","ios":"levelo://app?vid=130840a5-e40d-401b-b733-9a7931bc0133"},"vehicle_type_id":"4","last_reported":1690304763,"current_range_meters":24800,"station_id":"","pricing_plan_id":"free"},{"bike_id":"76a3d743-1fe2-4c1f-bf61-b5a18f92b0dd","system_id":"levelo_inurba_marseille","lat":43.3376,"lon":5.37475,"is_reserved":false,"is_disabled":false,"rental_uris":{"android":"levelo://app?vid=76a3d743-1fe2-4c1f-bf61-b5a18f92b0dd","ios":"levelo://app?vid=76a3d743-1fe2-4c1f-bf61-b5a18f92b0dd"},"vehicle_type_id":"4","last_reported":1690304763,"current_range_meters":0,"station_id":"","pricing_plan_id":"free"},{"bike_id":"d65dfde0-9794-40f8-8bd4-b6f51281b670","system_id":"levelo_inurba_marseille","lat":43.33762,"lon":5.37474,"is_reserved":false,"is_disabled":false,"rental_uris":{"android":"levelo://app?vid=d65dfde0-9794-40f8-8bd4-b6f51281b670","ios":"levelo://app?vid=d65dfde0-9794-40f8-8bd4-b6f51281b670"},"vehicle_type_id":"4","last_reported":1690304763,"current_range_meters":0,"station_id":"","pricing_plan_id":"free"},{"bike_id":"545292b9-fb1a-4a5c-8728-2af68895307a","system_id":"levelo_inurba_marseille","lat":43.33762,"lon":5.37479,"is_reserved":false,"is_disabled":false,"rental_uris":{"android":"levelo://app?vid=545292b9-fb1a-4a5c-8728-2af68895307a","ios":"levelo://app?vid=545292b9-fb1a-4a5c-8728-2af68895307a"},"vehicle_type_id":"4","last_reported":1690304763,"current_range_meters":0,"station_id":"","pricing_plan_id":"free"},{"bike_id":"ba76f129-9a7c-43a9-90a5-8a8a9aa196f7","system_id":"levelo_inurba_marseille","lat":43.30642,"lon":5.401031,"is_reserved":false,"is_disabled":false,"rental_uris":{"android":"levelo://app?vid=ba76f129-9a7c-43a9-90a5-8a8a9aa196f7","ios":"levelo://app?vid=ba76f129-9a7c-43a9-90a5-8a8a9aa196f7"},"vehicle_type_id":"4","last_reported":1690304763,"current_range_meters":6400,"station_id":"ce4bh112rcd13ifvqda0","pricing_plan_id":"free"},{"bike_id":"fa49868f-edc9-4393-9ec3-44ab001d23d0","system_id":"levelo_inurba_marseille","lat":43.33765,"lon":5.37475,"is_reserved":false,"is_disabled":false,"rental_uris":{"android":"levelo://app?vid=fa49868f-edc9-4393-9ec3-44ab001d23d0","ios":"levelo://app?vid=fa49868f-edc9-4393-9ec3-44ab001d23d0"},"vehicle_type_id":"4","last_reported":1690304763,"current_range_meters":25600,"station_id":"","pricing_plan_id":"free"},{"bike_id":"eda0a4fa-7fe5-4809-90b8-7f16999e7308","system_id":"levelo_inurba_marseille","lat":43.33762,"lon":5.37497,"is_reserved":false,"is_disabled":false,"rental_uris":{"android":"levelo://app?vid=eda0a4fa-7fe5-4809-90b8-7f16999e7308","ios":"levelo://app?vid=eda0a4fa-7fe5-4809-90b8-7f16999e7308"},"vehicle_type_id":"4","last_reported":1690304763,"current_range_meters":18000,"station_id":"","pricing_plan_id":"free"},{"bike_id":"503b8454-49e4-4ea8-92d1-7490b98d7024","system_id":"levelo_inurba_marseille","lat":43.33762,"lon":5.375039,"is_reserved":false,"is_disabled":false,"rental_uris":{"android":"levelo://app?vid=503b8454-49e4-4ea8-92d1-7490b98d7024","ios":"levelo://app?vid=503b8454-49e4-4ea8-92d1-7490b98d7024"},"vehicle_type_id":"4","last_reported":1690304763,"current_range_meters":28800,"station_id":"","pricing_plan_id":"free"},{"bike_id":"22f0da66-1641-40bc-8526-ffd60a6da71d","system_id":"levelo_inurba_marseille","lat":43.33774,"lon":5.37471,"is_reserved":false,"is_disabled":false,"rental_uris":{"android":"levelo://app?vid=22f0da66-1641-40bc-8526-ffd60a6da71d","ios":"levelo://app?vid=22f0da66-1641-40bc-8526-ffd60a6da71d"},"vehicle_type_id":"4","last_reported":1690304763,"current_range_meters":26800,"station_id":"","pricing_plan_id":"free"},{"bike_id":"06255fea-154b-4978-bb0b-e264d9d05020","system_id":"levelo_inurba_marseille","lat":43.30134,"lon":5.39848,"is_reserved":false,"is_disabled":false,"rental_uris":{"android":"levelo://app?vid=06255fea-154b-4978-bb0b-e264d9d05020","ios":"levelo://app?vid=06255fea-154b-4978-bb0b-e264d9d05020"},"vehicle_type_id":"4","last_reported":1690304763,"current_range_meters":31200,"station_id":"ce4bh0h2rcd13ifvqd40","pricing_plan_id":"free"},{"bike_id":"092d40c9-6852-401e-a561-6fecc2814da1","system_id":"levelo_inurba_marseille","lat":43.301117,"lon":5.398795,"is_reserved":false,"is_disabled":false,"rental_uris":{"android":"levelo://app?vid=092d40c9-6852-401e-a561-6fecc2814da1","ios":"levelo://app?vid=092d40c9-6852-401e-a561-6fecc2814da1"},"vehicle_type_id":"4","last_reported":1690304763,"current_range_meters":31600,"station_id":"ce4bh0h2rcd13ifvqd40","pricing_plan_id":"free"},{"bike_id":"6272cc87-84e5-4ba3-8cb9-7ba14df91727","system_id":"levelo_inurba_marseille","lat":43.298681,"lon":5.397225,"is_reserved":false,"is_disabled":false,"rental_uris":{"android":"levelo://app?vid=6272cc87-84e5-4ba3-8cb9-7ba14df91727","ios":"levelo://app?vid=6272cc87-84e5-4ba3-8cb9-7ba14df91727"},"vehicle_type_id":"4","last_reported":1690304763,"current_range_meters":14000,"station_id":"ce4bh0h2rcd13ifvqd50","pricing_plan_id":"free"},{"bike_id":"48b1459c-fcc1-4308-a2ee-c4be92abd2b6","system_id":"levelo_inurba_marseille","lat":43.30132,"lon":5.3986,"is_reserved":false,"is_disabled":false,"rental_uris":{"android":"levelo://app?vid=48b1459c-fcc1-4308-a2ee-c4be92abd2b6","ios":"levelo://app?vid=48b1459c-fcc1-4308-a2ee-c4be92abd2b6"},"vehicle_type_id":"4","last_reported":1690304763,"current_range_meters":29600,"station_id":"ce4bh0h2rcd13ifvqd40","pricing_plan_id":"free"},{"bike_id":"e24d0e14-a727-495f-a060-9ae04ee7e67e","system_id":"levelo_inurba_marseille","lat":43.301117,"lon":5.398795,"is_reserved":false,"is_disabled":false,"rental_uris":{"android":"levelo://app?vid=e24d0e14-a727-495f-a060-9ae04ee7e67e","ios":"levelo://app?vid=e24d0e14-a727-495f-a060-9ae04ee7e67e"},"vehicle_type_id":"4","last_reported":1690304763,"current_range_meters":20800,"station_id":"ce4bh0h2rcd13ifvqd40","pricing_plan_id":"free"},{"bike_id":"fa98a1bd-6e8a-4c29-bb2a-d87bbec5ca6d","system_id":"levelo_inurba_marseille","lat":43.301117,"lon":5.398795,"is_reserved":false,"is_disabled":false,"rental_uris":{"android":"levelo://app?vid=fa98a1bd-6e8a-4c29-bb2a-d87bbec5ca6d","ios":"levelo://app?vid=fa98a1bd-6e8a-4c29-bb2a-d87bbec5ca6d"},"vehicle_type_id":"4","last_reported":1690304763,"current_range_meters":18400,"station_id":"ce4bh0h2rcd13ifvqd40","pricing_plan_id":"free"},{"bike_id":"5dafa2c8-8fd0-4358-87ff-9dcb1422f11d","system_id":"levelo_inurba_marseille","lat":43.286961,"lon":5.373785,"is_reserved":false,"is_disabled":false,"rental_uris":{"android":"levelo://app?vid=5dafa2c8-8fd0-4358-87ff-9dcb1422f11d","ios":"levelo://app?vid=5dafa2c8-8fd0-4358-87ff-9dcb1422f11d"},"vehicle_type_id":"4","last_reported":1690304763,"current_range_meters":13600,"station_id":"ce4bh3p2rcd13ifvqdq0","pricing_plan_id":"free"},{"bike_id":"a5a0f716-9ca1-4e6a-959b-1518b2417715","system_id":"levelo_inurba_marseille","lat":43.298681,"lon":5.397225,"is_reserved":false,"is_disabled":false,"rental_uris":{"android":"levelo://app?vid=a5a0f716-9ca1-4e6a-959b-1518b2417715","ios":"levelo://app?vid=a5a0f716-9ca1-4e6a-959b-1518b2417715"},"vehicle_type_id":"4","last_reported":1690304763,"current_range_meters":8800,"station_id":"ce4bh0h2rcd13ifvqd50","pricing_plan_id":"free"},{"bike_id":"0ff58e36-280d-4158-9c4e-36bda8f990c7","system_id":"levelo_inurba_marseille","lat":43.298681,"lon":5.397225,"is_reserved":false,"is_disabled":false,"rental_uris":{"android":"levelo://app?vid=0ff58e36-280d-4158-9c4e-36bda8f990c7","ios":"levelo://app?vid=0ff58e36-280d-4158-9c4e-36bda8f990c7"},"vehicle_type_id":"4","last_reported":1690304763,"current_range_meters":26800,"station_id":"ce4bh0h2rcd13ifvqd50","pricing_plan_id":"free"},{"bike_id":"0c465452-c78f-42e0-976d-2cf9a8b6f20b","system_id":"levelo_inurba_marseille","lat":43.286591,"lon":5.363346,"is_reserved":false,"is_disabled":false,"rental_uris":{"android":"levelo://app?vid=0c465452-c78f-42e0-976d-2cf9a8b6f20b","ios":"levelo://app?vid=0c465452-c78f-42e0-976d-2cf9a8b6f20b"},"vehicle_type_id":"4","last_reported":1690304763,"current_range_meters":3600,"station_id":"ce4bhah2rcd13ifvqej0","pricing_plan_id":"free"},{"bike_id":"f69a8f9e-d6fe-452c-b375-a6ddeb39579e","system_id":"levelo_inurba_marseille","lat":43.298681,"lon":5.397225,"is_reserved":false,"is_disabled":false,"rental_uris":{"android":"levelo://app?vid=f69a8f9e-d6fe-452c-b375-a6ddeb39579e","ios":"levelo://app?vid=f69a8f9e-d6fe-452c-b375-a6ddeb39579e"},"vehicle_type_id":"4","last_reported":1690304763,"current_range_meters":0,"station_id":"ce4bh0h2rcd13ifvqd50","pricing_plan_id":"free"},{"bike_id":"8b97db89-8dfc-4639-ab9d-13fc58b342a5","system_id":"levelo_inurba_marseille","lat":43.286591,"lon":5.363346,"is_reserved":false,"is_disabled":false,"rental_uris":{"android":"levelo://app?vid=8b97db89-8dfc-4639-ab9d-13fc58b342a5","ios":"levelo://app?vid=8b97db89-8dfc-4639-ab9d-13fc58b342a5"},"vehicle_type_id":"4","last_reported":1690304763,"current_range_meters":31600,"station_id":"ce4bhah2rcd13ifvqej0","pricing_plan_id":"free"},{"bike_id":"494f8974-186a-447e-a9a2-a76213fa49be","system_id":"levelo_inurba_marseille","lat":43.298681,"lon":5.397225,"is_reserved":false,"is_disabled":false,"rental_uris":{"android":"levelo://app?vid=494f8974-186a-447e-a9a2-a76213fa49be","ios":"levelo://app?vid=494f8974-186a-447e-a9a2-a76213fa49be"},"vehicle_type_id":"4","last_reported":1690304763,"current_range_meters":23200,"station_id":"ce4bh0h2rcd13ifvqd50","pricing_plan_id":"free"},{"bike_id":"8696e543-665f-4978-88fe-b636a5503592","system_id":"levelo_inurba_marseille","lat":43.28694,"lon":5.37399,"is_reserved":false,"is_disabled":false,"rental_uris":{"android":"levelo://app?vid=8696e543-665f-4978-88fe-b636a5503592","ios":"levelo://app?vid=8696e543-665f-4978-88fe-b636a5503592"},"vehicle_type_id":"4","last_reported":1690304763,"current_range_meters":5200,"station_id":"ce4bh3p2rcd13ifvqdq0","pricing_plan_id":"free"},{"bike_id":"23eca4e3-72c1-4bc2-a372-b4d410c44335","system_id":"levelo_inurba_marseille","lat":43.29526,"lon":5.394,"is_reserved":false,"is_disabled":false,"rental_uris":{"android":"levelo://app?vid=23eca4e3-72c1-4bc2-a372-b4d410c44335","ios":"levelo://app?vid=23eca4e3-72c1-4bc2-a372-b4d410c44335"},"vehicle_type_id":"4","last_reported":1690304763,"current_range_meters":31200,"station_id":"ce4bh292rcd13ifvqdf0","pricing_plan_id":"free"},{"bike_id":"d9271d4b-7083-4f1d-aaf4-462fe2aa62aa","system_id":"levelo_inurba_marseille","lat":43.302759,"lon":5.400793,"is_reserved":false,"is_disabled":false,"rental_uris":{"android":"levelo://app?vid=d9271d4b-7083-4f1d-aaf4-462fe2aa62aa","ios":"levelo://app?vid=d9271d4b-7083-4f1d-aaf4-462fe2aa62aa"},"vehicle_type_id":"4","last_reported":1690304763,"current_range_meters":16000,"station_id":"ce4bgvh2rcd13ifvqcs0","pricing_plan_id":"free"},{"bike_id":"e4948f2a-8190-4a1d-9464-68b5d98e0f85","system_id":"levelo_inurba_marseille","lat":43.290336,"lon":5.386425,"is_reserved":false,"is_disabled":false,"rental_uris":{"android":"levelo://app?vid=e4948f2a-8190-4a1d-9464-68b5d98e0f85","ios":"levelo://app?vid=e4948f2a-8190-4a1d-9464-68b5d98e0f85"},"vehicle_type_id":"4","last_reported":1690304763,"current_range_meters":19600,"station_id":"ce4bh4p2rcd13ifvqe0g","pricing_plan_id":"free"},{"bike_id":"40f81c85-1ed7-4c31-895f-931e7a9233f9","system_id":"levelo_inurba_marseille","lat":43.30247,"lon":5.40061,"is_reserved":false,"is_disabled":false,"rental_uris":{"android":"levelo://app?vid=40f81c85-1ed7-4c31-895f-931e7a9233f9","ios":"levelo://app?vid=40f81c85-1ed7-4c31-895f-931e7a9233f9"},"vehicle_type_id":"4","last_reported":1690304763,"current_range_meters":10000,"station_id":"ce4bgvh2rcd13ifvqcs0","pricing_plan_id":"free"},{"bike_id":"eab6dd5a-dedc-4969-a469-f1f50a547963","system_id":"levelo_inurba_marseille","lat":43.302759,"lon":5.400793,"is_reserved":false,"is_disabled":false,"rental_uris":{"android":"levelo://app?vid=eab6dd5a-dedc-4969-a469-f1f50a547963","ios":"levelo://app?vid=eab6dd5a-dedc-4969-a469-f1f50a547963"},"vehicle_type_id":"4","last_reported":1690304763,"current_range_meters":22000,"station_id":"ce4bgvh2rcd13ifvqcs0","pricing_plan_id":"free"},{"bike_id":"2aa863a0-d1b3-49c7-a547-13ffa459fa2c","system_id":"levelo_inurba_marseille","lat":43.29025,"lon":5.38645,"is_reserved":false,"is_disabled":false,"rental_uris":{"android":"levelo://app?vid=2aa863a0-d1b3-49c7-a547-13ffa459fa2c","ios":"levelo://app?vid=2aa863a0-d1b3-49c7-a547-13ffa459fa2c"},"vehicle_type_id":"4","last_reported":1690304763,"current_range_meters":400,"station_id":"ce4bh4p2rcd13ifvqe0g","pricing_plan_id":"free"},{"bike_id":"52a96571-1645-4e82-bf5b-80052ce0e3f6","system_id":"levelo_inurba_marseille","lat":43.30247,"lon":5.40071,"is_reserved":false,"is_disabled":false,"rental_uris":{"android":"levelo://app?vid=52a96571-1645-4e82-bf5b-80052ce0e3f6","ios":"levelo://app?vid=52a96571-1645-4e82-bf5b-80052ce0e3f6"},"vehicle_type_id":"4","last_reported":1690304763,"current_range_meters":18800,"station_id":"ce4bgvh2rcd13ifvqcs0","pricing_plan_id":"free"},{"bike_id":"20190027-39e7-445b-9ba6-744f429217ed","system_id":"levelo_inurba_marseille","lat":43.286039,"lon":5.370679,"is_reserved":false,"is_disabled":false,"rental_uris":{"android":"levelo://app?vid=20190027-39e7-445b-9ba6-744f429217ed","ios":"levelo://app?vid=20190027-39e7-445b-9ba6-744f429217ed"},"vehicle_type_id":"4","last_reported":1690304763,"current_range_meters":7200,"station_id":"ce4bht12rcd13ifvqi60","pricing_plan_id":"free"},{"bike_id":"77b790d1-74e5-4d04-a939-51842c4384ce","system_id":"levelo_inurba_marseille","lat":43.286039,"lon":5.370681,"is_reserved":false,"is_disabled":false,"rental_uris":{"android":"levelo://app?vid=77b790d1-74e5-4d04-a939-51842c4384ce","ios":"levelo://app?vid=77b790d1-74e5-4d04-a939-51842c4384ce"},"vehicle_type_id":"4","last_reported":1690304763,"current_range_meters":20800,"station_id":"ce4bht12rcd13ifvqi60","pricing_plan_id":"free"},{"bike_id":"5315402a-373b-4a5c-9261-6a90b16648ab","system_id":"levelo_inurba_marseille","lat":43.28736,"lon":5.37933,"is_reserved":false,"is_disabled":false,"rental_uris":{"android":"levelo://app?vid=5315402a-373b-4a5c-9261-6a90b16648ab","ios":"levelo://app?vid=5315402a-373b-4a5c-9261-6a90b16648ab"},"vehicle_type_id":"4","last_reported":1690304763,"current_range_meters":1600,"station_id":"","pricing_plan_id":"free"},{"bike_id":"6019289d-9c27-484b-b594-c0f844a80270","system_id":"levelo_inurba_marseille","lat":43.32552,"lon":5.39987,"is_reserved":false,"is_disabled":false,"rental_uris":{"android":"levelo://app?vid=6019289d-9c27-484b-b594-c0f844a80270","ios":"levelo://app?vid=6019289d-9c27-484b-b594-c0f844a80270"},"vehicle_type_id":"4","last_reported":1690304763,"current_range_meters":31200,"station_id":"","pricing_plan_id":"free"},{"bike_id":"7ea4490e-c26b-4bfe-bf12-937e623dbf05","system_id":"levelo_inurba_marseille","lat":43.32553,"lon":5.39991,"is_reserved":false,"is_disabled":false,"rental_uris":{"android":"levelo://app?vid=7ea4490e-c26b-4bfe-bf12-937e623dbf05","ios":"levelo://app?vid=7ea4490e-c26b-4bfe-bf12-937e623dbf05"},"vehicle_type_id":"4","last_reported":1690304763,"current_range_meters":31200,"station_id":"","pricing_plan_id":"free"},{"bike_id":"7b762100-8aa0-4ee8-a753-203f9e6b11e7","system_id":"levelo_inurba_marseille","lat":43.291994,"lon":5.392907,"is_reserved":false,"is_disabled":false,"rental_uris":{"android":"levelo://app?vid=7b762100-8aa0-4ee8-a753-203f9e6b11e7","ios":"levelo://app?vid=7b762100-8aa0-4ee8-a753-203f9e6b11e7"},"vehicle_type_id":"4","last_reported":1690304763,"current_range_meters":16400,"station_id":"ce4bh192rcd13ifvqdd0","pricing_plan_id":"free"},{"bike_id":"82c5e570-e3d2-4146-8a2b-349f02c05674","system_id":"levelo_inurba_marseille","lat":43.3109,"lon":5.40585,"is_reserved":false,"is_disabled":false,"rental_uris":{"android":"levelo://app?vid=82c5e570-e3d2-4146-8a2b-349f02c05674","ios":"levelo://app?vid=82c5e570-e3d2-4146-8a2b-349f02c05674"},"vehicle_type_id":"4","last_reported":1690304763,"current_range_meters":22400,"station_id":"","pricing_plan_id":"free"},{"bike_id":"9ab282df-6ad5-4967-8d4b-0ef1256c49f5","system_id":"levelo_inurba_marseille","lat":43.284534,"lon":5.358662,"is_reserved":false,"is_disabled":false,"rental_uris":{"android":"levelo://app?vid=9ab282df-6ad5-4967-8d4b-0ef1256c49f5","ios":"levelo://app?vid=9ab282df-6ad5-4967-8d4b-0ef1256c49f5"},"vehicle_type_id":"4","last_reported":1690304763,"current_range_meters":25200,"station_id":"ce4bhah2rcd13ifvqei0","pricing_plan_id":"free"},{"bike_id":"2587443e-5845-4f02-a999-093e156c445c","system_id":"levelo_inurba_marseille","lat":43.28465,"lon":5.3589,"is_reserved":false,"is_disabled":false,"rental_uris":{"android":"levelo://app?vid=2587443e-5845-4f02-a999-093e156c445c","ios":"levelo://app?vid=2587443e-5845-4f02-a999-093e156c445c"},"vehicle_type_id":"4","last_reported":1690304763,"current_range_meters":18000,"station_id":"ce4bhah2rcd13ifvqei0","pricing_plan_id":"free"},{"bike_id":"602359b3-c0f5-491e-8028-516cc7559dcd","system_id":"levelo_inurba_marseille","lat":43.31625,"lon":5.40608,"is_reserved":false,"is_disabled":false,"rental_uris":{"android":"levelo://app?vid=602359b3-c0f5-491e-8028-516cc7559dcd","ios":"levelo://app?vid=602359b3-c0f5-491e-8028-516cc7559dcd"},"vehicle_type_id":"4","last_reported":1690304763,"current_range_meters":18000,"station_id":"","pricing_plan_id":"free"},{"bike_id":"70a18e1c-2179-4325-802a-3fa7e8695949","system_id":"levelo_inurba_marseille","lat":43.28463,"lon":5.35892,"is_reserved":false,"is_disabled":false,"rental_uris":{"android":"levelo://app?vid=70a18e1c-2179-4325-802a-3fa7e8695949","ios":"levelo://app?vid=70a18e1c-2179-4325-802a-3fa7e8695949"},"vehicle_type_id":"4","last_reported":1690304763,"current_range_meters":13200,"station_id":"ce4bhah2rcd13ifvqei0","pricing_plan_id":"free"},{"bike_id":"e70fd72f-6a57-45d8-ae38-4a4274a495e5","system_id":"levelo_inurba_marseille","lat":43.28461,"lon":5.35896,"is_reserved":false,"is_disabled":false,"rental_uris":{"android":"levelo://app?vid=e70fd72f-6a57-45d8-ae38-4a4274a495e5","ios":"levelo://app?vid=e70fd72f-6a57-45d8-ae38-4a4274a495e5"},"vehicle_type_id":"4","last_reported":1690304763,"current_range_meters":19600,"station_id":"ce4bhah2rcd13ifvqei0","pricing_plan_id":"free"},{"bike_id":"3806b316-6c02-41e8-be5e-3624514feab6","system_id":"levelo_inurba_marseille","lat":43.28459,"lon":5.35886,"is_reserved":false,"is_disabled":false,"rental_uris":{"android":"levelo://app?vid=3806b316-6c02-41e8-be5e-3624514feab6","ios":"levelo://app?vid=3806b316-6c02-41e8-be5e-3624514feab6"},"vehicle_type_id":"4","last_reported":1690304763,"current_range_meters":15600,"station_id":"ce4bhah2rcd13ifvqei0","pricing_plan_id":"free"},{"bike_id":"3a2a156c-1087-40c5-bbb1-34adb5f9fb34","system_id":"levelo_inurba_marseille","lat":43.284538,"lon":5.358657,"is_reserved":false,"is_disabled":false,"rental_uris":{"android":"levelo://app?vid=3a2a156c-1087-40c5-bbb1-34adb5f9fb34","ios":"levelo://app?vid=3a2a156c-1087-40c5-bbb1-34adb5f9fb34"},"vehicle_type_id":"4","last_reported":1690304763,"current_range_meters":29200,"station_id":"ce4bhah2rcd13ifvqei0","pricing_plan_id":"free"},{"bike_id":"0aad1b8f-d736-498a-ad9d-cc5aaede964c","system_id":"levelo_inurba_marseille","lat":43.286199,"lon":5.351033,"is_reserved":false,"is_disabled":false,"rental_uris":{"android":"levelo://app?vid=0aad1b8f-d736-498a-ad9d-cc5aaede964c","ios":"levelo://app?vid=0aad1b8f-d736-498a-ad9d-cc5aaede964c"},"vehicle_type_id":"4","last_reported":1690304763,"current_range_meters":4000,"station_id":"ce4bhch2rcd13ifvqeug","pricing_plan_id":"free"},{"bike_id":"78d08600-306a-4af8-9053-cf1d27c820c0","system_id":"levelo_inurba_marseille","lat":43.28619,"lon":5.35105,"is_reserved":false,"is_disabled":false,"rental_uris":{"android":"levelo://app?vid=78d08600-306a-4af8-9053-cf1d27c820c0","ios":"levelo://app?vid=78d08600-306a-4af8-9053-cf1d27c820c0"},"vehicle_type_id":"4","last_reported":1690304763,"current_range_meters":23600,"station_id":"ce4bhch2rcd13ifvqeug","pricing_plan_id":"free"},{"bike_id":"8b4f4a9e-ec65-4c46-bd75-d838f12d4e2f","system_id":"levelo_inurba_marseille","lat":43.28619,"lon":5.35103,"is_reserved":false,"is_disabled":false,"rental_uris":{"android":"levelo://app?vid=8b4f4a9e-ec65-4c46-bd75-d838f12d4e2f","ios":"levelo://app?vid=8b4f4a9e-ec65-4c46-bd75-d838f12d4e2f"},"vehicle_type_id":"4","last_reported":1690304763,"current_range_meters":23600,"station_id":"ce4bhch2rcd13ifvqeug","pricing_plan_id":"free"},{"bike_id":"d00e7e0a-bdfd-438d-8eba-1e48e11db217","system_id":"levelo_inurba_marseille","lat":43.285856,"lon":5.350771,"is_reserved":false,"is_disabled":false,"rental_uris":{"android":"levelo://app?vid=d00e7e0a-bdfd-438d-8eba-1e48e11db217","ios":"levelo://app?vid=d00e7e0a-bdfd-438d-8eba-1e48e11db217"},"vehicle_type_id":"4","last_reported":1690304763,"current_range_meters":7600,"station_id":"ce4bhch2rcd13ifvqeug","pricing_plan_id":"free"},{"bike_id":"1160ea46-9602-4411-a8d5-5eeccb8bac97","system_id":"levelo_inurba_marseille","lat":43.28615,"lon":5.35104,"is_reserved":false,"is_disabled":false,"rental_uris":{"android":"levelo://app?vid=1160ea46-9602-4411-a8d5-5eeccb8bac97","ios":"levelo://app?vid=1160ea46-9602-4411-a8d5-5eeccb8bac97"},"vehicle_type_id":"4","last_reported":1690304763,"current_range_meters":19200,"station_id":"ce4bhch2rcd13ifvqeug","pricing_plan_id":"free"},{"bike_id":"b903ac5a-4e79-413e-914f-a1f8b89f8747","system_id":"levelo_inurba_marseille","lat":43.28618,"lon":5.35094,"is_reserved":false,"is_disabled":false,"rental_uris":{"android":"levelo://app?vid=b903ac5a-4e79-413e-914f-a1f8b89f8747","ios":"levelo://app?vid=b903ac5a-4e79-413e-914f-a1f8b89f8747"},"vehicle_type_id":"4","last_reported":1690304763,"current_range_meters":26800,"station_id":"ce4bhch2rcd13ifvqeug","pricing_plan_id":"free"},{"bike_id":"a9b6eea2-a159-4df3-b8f0-93081d839718","system_id":"levelo_inurba_marseille","lat":43.285856,"lon":5.350771,"is_reserved":false,"is_disabled":false,"rental_uris":{"android":"levelo://app?vid=a9b6eea2-a159-4df3-b8f0-93081d839718","ios":"levelo://app?vid=a9b6eea2-a159-4df3-b8f0-93081d839718"},"vehicle_type_id":"4","last_reported":1690304763,"current_range_meters":24400,"station_id":"ce4bhch2rcd13ifvqeug","pricing_plan_id":"free"},{"bike_id":"85311821-6433-4f4b-9f7e-26210fb02c39","system_id":"levelo_inurba_marseille","lat":43.28613,"lon":5.35104,"is_reserved":false,"is_disabled":false,"rental_uris":{"android":"levelo://app?vid=85311821-6433-4f4b-9f7e-26210fb02c39","ios":"levelo://app?vid=85311821-6433-4f4b-9f7e-26210fb02c39"},"vehicle_type_id":"4","last_reported":1690304763,"current_range_meters":19200,"station_id":"ce4bhch2rcd13ifvqeug","pricing_plan_id":"free"},{"bike_id":"3aa7b043-7462-41d7-aada-e58fc2dc6c54","system_id":"levelo_inurba_marseille","lat":43.28614,"lon":5.35098,"is_reserved":false,"is_disabled":false,"rental_uris":{"android":"levelo://app?vid=3aa7b043-7462-41d7-aada-e58fc2dc6c54","ios":"levelo://app?vid=3aa7b043-7462-41d7-aada-e58fc2dc6c54"},"vehicle_type_id":"4","last_reported":1690304763,"current_range_meters":2400,"station_id":"ce4bhch2rcd13ifvqeug","pricing_plan_id":"free"},{"bike_id":"a898d3c9-b861-48be-a36d-aded1079f576","system_id":"levelo_inurba_marseille","lat":43.28609,"lon":5.35103,"is_reserved":false,"is_disabled":false,"rental_uris":{"android":"levelo://app?vid=a898d3c9-b861-48be-a36d-aded1079f576","ios":"levelo://app?vid=a898d3c9-b861-48be-a36d-aded1079f576"},"vehicle_type_id":"4","last_reported":1690304763,"current_range_meters":21200,"station_id":"ce4bhch2rcd13ifvqeug","pricing_plan_id":"free"},{"bike_id":"ce59751f-b637-42be-8009-3c5dff28e5ed","system_id":"levelo_inurba_marseille","lat":43.283998,"lon":5.375062,"is_reserved":false,"is_disabled":false,"rental_uris":{"android":"levelo://app?vid=ce59751f-b637-42be-8009-3c5dff28e5ed","ios":"levelo://app?vid=ce59751f-b637-42be-8009-3c5dff28e5ed"},"vehicle_type_id":"4","last_reported":1690304763,"current_range_meters":5600,"station_id":"ce4bh412rcd13ifvqds0","pricing_plan_id":"free"},{"bike_id":"20c8417d-713a-486d-8794-f9db4ebefdf4","system_id":"levelo_inurba_marseille","lat":43.284,"lon":5.37519,"is_reserved":false,"is_disabled":false,"rental_uris":{"android":"levelo://app?vid=20c8417d-713a-486d-8794-f9db4ebefdf4","ios":"levelo://app?vid=20c8417d-713a-486d-8794-f9db4ebefdf4"},"vehicle_type_id":"4","last_reported":1690304763,"current_range_meters":400,"station_id":"ce4bh412rcd13ifvqds0","pricing_plan_id":"free"},{"bike_id":"86eec540-ac61-4a51-b625-b234c48859f9","system_id":"levelo_inurba_marseille","lat":43.295713,"lon":5.399639,"is_reserved":false,"is_disabled":false,"rental_uris":{"android":"levelo://app?vid=86eec540-ac61-4a51-b625-b234c48859f9","ios":"levelo://app?vid=86eec540-ac61-4a51-b625-b234c48859f9"},"vehicle_type_id":"4","last_reported":1690304763,"current_range_meters":0,"station_id":"ce4bh312rcd13ifvqdj0","pricing_plan_id":"free"},{"bike_id":"21bb8e3e-25a9-4747-bf84-ceaec0952032","system_id":"levelo_inurba_marseille","lat":43.319179,"lon":5.407725,"is_reserved":false,"is_disabled":false,"rental_uris":{"android":"levelo://app?vid=21bb8e3e-25a9-4747-bf84-ceaec0952032","ios":"levelo://app?vid=21bb8e3e-25a9-4747-bf84-ceaec0952032"},"vehicle_type_id":"4","last_reported":1690304763,"current_range_meters":30400,"station_id":"ce4bhq12rcd13ifvqhig","pricing_plan_id":"free"},{"bike_id":"aefeacdc-04d5-4552-9ba0-0ec9613cf79f","system_id":"levelo_inurba_marseille","lat":43.337168,"lon":5.391825,"is_reserved":false,"is_disabled":false,"rental_uris":{"android":"levelo://app?vid=aefeacdc-04d5-4552-9ba0-0ec9613cf79f","ios":"levelo://app?vid=aefeacdc-04d5-4552-9ba0-0ec9613cf79f"},"vehicle_type_id":"4","last_reported":1690304763,"current_range_meters":6800,"station_id":"ce4bhr92rcd13ifvqhsg","pricing_plan_id":"free"},{"bike_id":"f1e6e778-7db0-4332-9498-8a9c0fcfa7b8","system_id":"levelo_inurba_marseille","lat":43.33723,"lon":5.39183,"is_reserved":false,"is_disabled":false,"rental_uris":{"android":"levelo://app?vid=f1e6e778-7db0-4332-9498-8a9c0fcfa7b8","ios":"levelo://app?vid=f1e6e778-7db0-4332-9498-8a9c0fcfa7b8"},"vehicle_type_id":"4","last_reported":1690304763,"current_range_meters":8800,"station_id":"ce4bhr92rcd13ifvqhsg","pricing_plan_id":"free"},{"bike_id":"7a5df495-bbb4-429f-9feb-a0d21cf0ab9e","system_id":"levelo_inurba_marseille","lat":43.323464,"lon":5.406297,"is_reserved":false,"is_disabled":false,"rental_uris":{"android":"levelo://app?vid=7a5df495-bbb4-429f-9feb-a0d21cf0ab9e","ios":"levelo://app?vid=7a5df495-bbb4-429f-9feb-a0d21cf0ab9e"},"vehicle_type_id":"4","last_reported":1690304763,"current_range_meters":29600,"station_id":"ce4bhq92rcd13ifvqhjg","pricing_plan_id":"free"},{"bike_id":"294464e4-79fe-4b7d-bd04-bfe5b886e23e","system_id":"levelo_inurba_marseille","lat":43.323464,"lon":5.406297,"is_reserved":false,"is_disabled":false,"rental_uris":{"android":"levelo://app?vid=294464e4-79fe-4b7d-bd04-bfe5b886e23e","ios":"levelo://app?vid=294464e4-79fe-4b7d-bd04-bfe5b886e23e"},"vehicle_type_id":"4","last_reported":1690304763,"current_range_meters":31200,"station_id":"ce4bhq92rcd13ifvqhjg","pricing_plan_id":"free"},{"bike_id":"9b659f8c-540a-448c-9a64-3705addb9245","system_id":"levelo_inurba_marseille","lat":43.33728,"lon":5.39185,"is_reserved":false,"is_disabled":false,"rental_uris":{"android":"levelo://app?vid=9b659f8c-540a-448c-9a64-3705addb9245","ios":"levelo://app?vid=9b659f8c-540a-448c-9a64-3705addb9245"},"vehicle_type_id":"4","last_reported":1690304763,"current_range_meters":19600,"station_id":"ce4bhr92rcd13ifvqhsg","pricing_plan_id":"free"},{"bike_id":"be83ecc1-c19f-468e-b305-fcf7d7d13b09","system_id":"levelo_inurba_marseille","lat":43.323464,"lon":5.406297,"is_reserved":false,"is_disabled":false,"rental_uris":{"android":"levelo://app?vid=be83ecc1-c19f-468e-b305-fcf7d7d13b09","ios":"levelo://app?vid=be83ecc1-c19f-468e-b305-fcf7d7d13b09"},"vehicle_type_id":"4","last_reported":1690304763,"current_range_meters":31200,"station_id":"ce4bhq92rcd13ifvqhjg","pricing_plan_id":"free"},{"bike_id":"3b081afe-c2d1-457a-a9a7-7b46f86bac75","system_id":"levelo_inurba_marseille","lat":43.284793,"lon":5.384119,"is_reserved":false,"is_disabled":false,"rental_uris":{"android":"levelo://app?vid=3b081afe-c2d1-457a-a9a7-7b46f86bac75","ios":"levelo://app?vid=3b081afe-c2d1-457a-a9a7-7b46f86bac75"},"vehicle_type_id":"4","last_reported":1690304763,"current_range_meters":18400,"station_id":"ce4bh512rcd13ifvqe3g","pricing_plan_id":"free"},{"bike_id":"9d11f8ba-6170-4baa-92d9-e4f2c56f27f9","system_id":"levelo_inurba_marseille","lat":43.284787,"lon":5.384116,"is_reserved":false,"is_disabled":false,"rental_uris":{"android":"levelo://app?vid=9d11f8ba-6170-4baa-92d9-e4f2c56f27f9","ios":"levelo://app?vid=9d11f8ba-6170-4baa-92d9-e4f2c56f27f9"},"vehicle_type_id":"4","last_reported":1690304763,"current_range_meters":23200,"station_id":"ce4bh512rcd13ifvqe3g","pricing_plan_id":"free"},{"bike_id":"5729c8a5-0f0d-4a5e-8abe-1ac5896b81d0","system_id":"levelo_inurba_marseille","lat":43.284793,"lon":5.384113,"is_reserved":false,"is_disabled":false,"rental_uris":{"android":"levelo://app?vid=5729c8a5-0f0d-4a5e-8abe-1ac5896b81d0","ios":"levelo://app?vid=5729c8a5-0f0d-4a5e-8abe-1ac5896b81d0"},"vehicle_type_id":"4","last_reported":1690304763,"current_range_meters":19200,"station_id":"ce4bh512rcd13ifvqe3g","pricing_plan_id":"free"},{"bike_id":"24df1488-4f55-4e7c-9398-0768224d23cf","system_id":"levelo_inurba_marseille","lat":43.284787,"lon":5.384116,"is_reserved":false,"is_disabled":false,"rental_uris":{"android":"levelo://app?vid=24df1488-4f55-4e7c-9398-0768224d23cf","ios":"levelo://app?vid=24df1488-4f55-4e7c-9398-0768224d23cf"},"vehicle_type_id":"4","last_reported":1690304763,"current_range_meters":8400,"station_id":"ce4bh512rcd13ifvqe3g","pricing_plan_id":"free"},{"bike_id":"d0beadf9-fdb5-4af1-b5de-e3479c9dfea8","system_id":"levelo_inurba_marseille","lat":43.29795,"lon":5.40393,"is_reserved":false,"is_disabled":false,"rental_uris":{"android":"levelo://app?vid=d0beadf9-fdb5-4af1-b5de-e3479c9dfea8","ios":"levelo://app?vid=d0beadf9-fdb5-4af1-b5de-e3479c9dfea8"},"vehicle_type_id":"4","last_reported":1690304763,"current_range_meters":20000,"station_id":"","pricing_plan_id":"free"},{"bike_id":"c63d9582-73c8-4c28-838b-5f384bf3488f","system_id":"levelo_inurba_marseille","lat":43.294314,"lon":5.397498,"is_reserved":false,"is_disabled":false,"rental_uris":{"android":"levelo://app?vid=c63d9582-73c8-4c28-838b-5f384bf3488f","ios":"levelo://app?vid=c63d9582-73c8-4c28-838b-5f384bf3488f"},"vehicle_type_id":"4","last_reported":1690304763,"current_range_meters":6800,"station_id":"ce4bh3h2rcd13ifvqdo0","pricing_plan_id":"free"},{"bike_id":"14bb7296-eacc-4f06-a37a-a73f03414abb","system_id":"levelo_inurba_marseille","lat":43.284219,"lon":5.3497,"is_reserved":false,"is_disabled":false,"rental_uris":{"android":"levelo://app?vid=14bb7296-eacc-4f06-a37a-a73f03414abb","ios":"levelo://app?vid=14bb7296-eacc-4f06-a37a-a73f03414abb"},"vehicle_type_id":"4","last_reported":1690304763,"current_range_meters":31600,"station_id":"ce4bhbh2rcd13ifvqepg","pricing_plan_id":"free"},