{"last_updated":1735433515,"ttl":60,"version":"2.2","data":{"bikes":[{"bike_id":"1b9b7ac5-7146-4875-a901-6087283acb22","system_id":"levelo_inurba_marseille","lat":43.28073,"lon":5.39646,"is_reserved":false,"is_disabled":false,"rental_uris":{"android":"levelo://app?vid=1b9b7ac5-7146-4875-a901-6087283acb22","ios":"levelo://app?vid=1b9b7ac5-7146-4875-a901-6087283acb22"},"vehicle_type_id":"4","last_reported":1735433516,"current_range_meters":30400,"station_id":"ce4bho12rcd13ifvqh2g","pricing_plan_id":"cebpf4jnsgd1na2vs0mg"},{"bike_id":"fd0f3b5c-37ca-467d-9fbf-ed3f92bd738c","system_id":"levelo_inurba_marseille","lat":43.28103,"lon":5.37838,"is_reserved":false,"is_disabled":false,"rental_uris":{"android":"levelo://app?vid=fd0f3b5c-37ca-467d-9fbf-ed3f92bd738c","ios":"levelo://app?vid=fd0f3b5c-37ca-467d-9fbf-ed3f92bd738c"},"vehicle_type_id":"4","last_reported":1735433516,"current_range_meters":39200,"station_id":"ce4bha12rcd13ifvqee0","pricing_plan_id":"cebpf4jnsgd1na2vs0mg"},{"bike_id":"6b42328f-1854-4a25-97f7-efe92120b1ca","system_id":"levelo_inurba_marseille","lat":43.31715,"lon":5.43705,"is_reserved":false,"is_disabled":false,"rental_uris":{"android":"levelo://app?vid=6b42328f-1854-4a25-97f7-efe92120b1ca","ios":"levelo://app?vid=6b42328f-1854-4a25-97f7-efe92120b1ca"},"vehicle_type_id":"4","last_reported":1735433516,"current_range_meters":30400,"station_id":"ce4bhp92rcd13ifvqhcg","pricing_plan_id":"cebpf4jnsgd1na2vs0mg"},{"bike_id":"e9e53eda-c156-4e29-af5f-c15a81dee75e","system_id":"levelo_inurba_marseille","lat":43.28001,"lon":5.40011,"is_reserved":false,"is_disabled":false,"rental_uris":{"android":"levelo://app?vid=e9e53eda-c156-4e29-af5f-c15a81dee75e","ios":"levelo://app?vid=e9e53eda-c156-4e29-af5f-c15a81dee75e"},"vehicle_type_id":"4","last_reported":1735433516,"current_range_meters":20000,"station_id":"ce4bho92rcd13ifvqh4g","pricing_plan_id":"cebpf4jnsgd1na2vs0mg"},{"bike_id":"0081e87f-c303-4a7c-9b6f-6bf566a55ca9","system_id":"levelo_inurba_marseille","lat":43.292836,"lon":5.401376,"is_reserved":false,"is_disabled":false,"rental_uris":{"android":"levelo://app?vid=0081e87f-c303-4a7c-9b6f-6bf566a55ca9","ios":"levelo://app?vid=0081e87f-c303-4a7c-9b6f-6bf566a55ca9"},"vehicle_type_id":"4","last_reported":1735433516,"current_range_meters":38800,"station_id":"ce4bh312rcd13ifvqdk0","pricing_plan_id":"cebpf4jnsgd1na2vs0mg"},{"bike_id":"17467958-a151-40f2-98e4-bb65ea00e49d","system_id":"levelo_inurba_marseille","lat":43.27955,"lon":5.41049,"is_reserved":false,"is_disabled":false,"rental_uris":{"android":"levelo://app?vid=17467958-a151-40f2-98e4-bb65ea00e49d","ios":"levelo://app?vid=17467958-a151-40f2-98e4-bb65ea00e49d"},"vehicle_type_id":"4","last_reported":1735433516,"current_range_meters":35600,"station_id":"ce4bhnp2rcd13ifvqh0g","pricing_plan_id":"cebpf4jnsgd1na2vs0mg"},{"bike_id":"8e3501de-0fdd-4c51-8a37-aa32b9990297","system_id":"levelo_inurba_marseille","lat":43.28571,"lon":5.39504,"is_reserved":false,"is_disabled":false,"rental_uris":{"android":"levelo://app?vid=8e3501de-0fdd-4c51-8a37-aa32b9990297","ios":"levelo://app?vid=8e3501de-0fdd-4c51-8a37-aa32b9990297"},"vehicle_type_id":"4","last_reported":1735433516,"current_range_meters":39200,"station_id":"ce4bh292rcd13ifvqdg0","pricing_plan_id":"cebpf4jnsgd1na2vs0mg"},{"bike_id":"3991aac2-ec7f-43c8-801f-23e11845f2d6","system_id":"levelo_inurba_marseille","lat":43.28155,"lon":5.42659,"is_reserved":false,"is_disabled":false,"rental_uris":{"android":"levelo://app?vid=3991aac2-ec7f-43c8-801f-23e11845f2d6","ios":"levelo://app?vid=3991aac2-ec7f-43c8-801f-23e11845f2d6"},"vehicle_type_id":"4","last_reported":1735433516,"current_range_meters":38800,"station_id":"ce4bhnh2rcd13ifvqgug","pricing_plan_id":"cebpf4jnsgd1na2vs0mg"},{"bike_id":"06450166-35ea-4146-8f52-53bd835ce382","system_id":"levelo_inurba_marseille","lat":43.296,"lon":5.38117,"is_reserved":false,"is_disabled":false,"rental_uris":{"android":"levelo://app?vid=06450166-35ea-4146-8f52-53bd835ce382","ios":"levelo://app?vid=06450166-35ea-4146-8f52-53bd835ce382"},"vehicle_type_id":"4","last_reported":1735433516,"current_range_meters":21600,"station_id":"ce4bgl12rcd13ifvqbo0","pricing_plan_id":"cebpf4jnsgd1na2vs0mg"},{"bike_id":"23920f29-adfe-4b79-b4dd-dbe320ee557d","system_id":"levelo_inurba_marseille","lat":43.336072,"lon":5.410136,"is_reserved":false,"is_disabled":false,"rental_uris":{"android":"levelo://app?vid=23920f29-adfe-4b79-b4dd-dbe320ee557d","ios":"levelo://app?vid=23920f29-adfe-4b79-b4dd-dbe320ee557d"},"vehicle_type_id":"4","last_reported":1735433516,"current_range_meters":37600,"station_id":"ce4bhqh2rcd13ifvqhmg","pricing_plan_id":"cebpf4jnsgd1na2vs0mg"},{"bike_id":"02625629-d974-4293-81c1-30a93bd6ed57","system_id":"levelo_inurba_marseille","lat":43.32657,"lon":5.40995,"is_reserved":false,"is_disabled":false,"rental_uris":{"android":"levelo://app?vid=02625629-d974-4293-81c1-30a93bd6ed57","ios":"levelo://app?vid=02625629-d974-4293-81c1-30a93bd6ed57"},"vehicle_type_id":"4","last_reported":1735433516,"current_range_meters":38000,"station_id":"ce4bhpp2rcd13ifvqhgg","pricing_plan_id":"cebpf4jnsgd1na2vs0mg"},{"bike_id":"ee7ba49f-48cb-40c2-b625-287a32b4ad10","system_id":"levelo_inurba_marseille","lat":43.30931,"lon":5.4014,"is_reserved":false,"is_disabled":false,"rental_uris":{"android":"levelo://app?vid=ee7ba49f-48cb-40c2-b625-287a32b4ad10","ios":"levelo://app?vid=ee7ba49f-48cb-40c2-b625-287a32b4ad10"},"vehicle_type_id":"4","last_reported":1735433516,"current_range_meters":28000,"station_id":"ce4bgvp2rcd13ifvqct0","pricing_plan_id":"cebpf4jnsgd1na2vs0mg"},{"bike_id":"6ad1742e-8bff-4c51-a529-dfe59edb730a","system_id":"levelo_inurba_marseille","lat":43.29909,"lon":5.37465,"is_reserved":false,"is_disabled":false,"rental_uris":{"android":"levelo://app?vid=6ad1742e-8bff-4c51-a529-dfe59edb730a","ios":"levelo://app?vid=6ad1742e-8bff-4c51-a529-dfe59edb730a"},"vehicle_type_id":"4","last_reported":1735433516,"current_range_meters":30400,"station_id":"ce4bgjh2rcd13ifvqbg0","pricing_plan_id":"cebpf4jnsgd1na2vs0mg"},{"bike_id":"3b3d2c75-4195-4f81-af35-afa13ebc8eea","system_id":"levelo_inurba_marseille","lat":43.27393,"lon":5.36261,"is_reserved":false,"is_disabled":true,"rental_uris":{"android":"levelo://app?vid=3b3d2c75-4195-4f81-af35-afa13ebc8eea","ios":"levelo://app?vid=3b3d2c75-4195-4f81-af35-afa13ebc8eea"},"vehicle_type_id":"4","last_reported":1735433516,"current_range_meters":28400,"station_id":"ce4bhbh2rcd13ifvqeo0","pricing_plan_id":"cebpf4jnsgd1na2vs0mg"},{"bike_id":"af546918-0c58-4300-a555-497d83cb0b8a","system_id":"levelo_inurba_marseille","lat":43.25862,"lon":5.39902,"is_reserved":false,"is_disabled":false,"rental_uris":{"android":"levelo://app?vid=af546918-0c58-4300-a555-497d83cb0b8a","ios":"levelo://app?vid=af546918-0c58-4300-a555-497d83cb0b8a"},"vehicle_type_id":"4","last_reported":1735433516,"current_range_meters":37600,"station_id":"ce4bhl92rcd13ifvqghg","pricing_plan_id":"cebpf4jnsgd1na2vs0mg"},{"bike_id":"4eb04e23-baeb-4963-b396-2a56a54b2be0","system_id":"levelo_inurba_marseille","lat":43.28932,"lon":5.38398,"is_reserved":false,"is_disabled":false,"rental_uris":{"android":"levelo://app?vid=4eb04e23-baeb-4963-b396-2a56a54b2be0","ios":"levelo://app?vid=4eb04e23-baeb-4963-b396-2a56a54b2be0"},"vehicle_type_id":"4","last_reported":1735433516,"current_range_meters":36800,"station_id":"ce4bh612rcd13ifvqe6g","pricing_plan_id":"cebpf4jnsgd1na2vs0mg"},{"bike_id":"acdf547b-af9f-48ce-8f30-0548228cd41d","system_id":"levelo_inurba_marseille","lat":43.29879,"lon":5.39748,"is_reserved":false,"is_disabled":false,"rental_uris":{"android":"levelo://app?vid=acdf547b-af9f-48ce-8f30-0548228cd41d","ios":"levelo://app?vid=acdf547b-af9f-48ce-8f30-0548228cd41d"},"vehicle_type_id":"4","last_reported":1735433516,"current_range_meters":38800,"station_id":"ce4bh0h2rcd13ifvqd50","pricing_plan_id":"cebpf4jnsgd1na2vs0mg"},{"bike_id":"f15b4a0d-6378-4ce0-b2fe-570fd0190bba","system_id":"levelo_inurba_marseille","lat":43.29034,"lon":5.38634,"is_reserved":false,"is_disabled":false,"rental_uris":{"android":"levelo://app?vid=f15b4a0d-6378-4ce0-b2fe-570fd0190bba","ios":"levelo://app?vid=f15b4a0d-6378-4ce0-b2fe-570fd0190bba"},"vehicle_type_id":"4","last_reported":1735433516,"current_range_meters":38400,"station_id":"ce4bh4p2rcd13ifvqe0g","pricing_plan_id":"cebpf4jnsgd1na2vs0mg"},{"bike_id":"4afaa01d-2154-4233-8360-224b59b51008","system_id":"levelo_inurba_marseille","lat":43.31505,"lon":5.3724,"is_reserved":false,"is_disabled":false,"rental_uris":{"android":"levelo://app?vid=4afaa01d-2154-4233-8360-224b59b51008","ios":"levelo://app?vid=4afaa01d-2154-4233-8360-224b59b51008"},"vehicle_type_id":"4","last_reported":1735433516,"current_range_meters":38800,"station_id":"","pricing_plan_id":"cebpf4jnsgd1na2vs0mg"},{"bike_id":"afcae62c-635b-4484-9281-8b2321203264","system_id":"levelo_inurba_marseille","lat":43.33609,"lon":5.41033,"is_reserved":false,"is_disabled":false,"rental_uris":{"android":"levelo://app?vid=afcae62c-635b-4484-9281-8b2321203264","ios":"levelo://app?vid=afcae62c-635b-4484-9281-8b2321203264"},"vehicle_type_id":"4","last_reported":1735433516,"current_range_meters":38000,"station_id":"ce4bhqh2rcd13ifvqhmg","pricing_plan_id":"cebpf4jnsgd1na2vs0mg"},{"bike_id":"f751eb90-8ea2-42b6-b8d1-6ae617c85942","system_id":"levelo_inurba_marseille","lat":43.28711,"lon":5.39978,"is_reserved":false,"is_disabled":false,"rental_uris":{"android":"levelo://app?vid=f751eb90-8ea2-42b6-b8d1-6ae617c85942","ios":"levelo://app?vid=f751eb90-8ea2-42b6-b8d1-6ae617c85942"},"vehicle_type_id":"4","last_reported":1735433516,"current_range_meters":38000,"station_id":"ce4bho92rcd13ifvqh3g","pricing_plan_id":"cebpf4jnsgd1na2vs0mg"},{"bike_id":"c22bbf32-8fa7-4c11-aec0-e06228310adf","system_id":"levelo_inurba_marseille","lat":43.2962,"lon":5.3772,"is_reserved":false,"is_disabled":false,"rental_uris":{"android":"levelo://app?vid=c22bbf32-8fa7-4c11-aec0-e06228310adf","ios":"levelo://app?vid=c22bbf32-8fa7-4c11-aec0-e06228310adf"},"vehicle_type_id":"4","last_reported":1735433516,"current_range_meters":37600,"station_id":"ce4bgi92rcd13ifvqb90","pricing_plan_id":"cebpf4jnsgd1na2vs0mg"},{"bike_id":"dde23100-284b-476d-b6ea-b936ad5ae2e8","system_id":"levelo_inurba_marseille","lat":43.29605,"lon":5.38115,"is_reserved":false,"is_disabled":false,"rental_uris":{"android":"levelo://app?vid=dde23100-284b-476d-b6ea-b936ad5ae2e8","ios":"levelo://app?vid=dde23100-284b-476d-b6ea-b936ad5ae2e8"},"vehicle_type_id":"4","last_reported":1735433516,"current_range_meters":38800,"station_id":"ce4bgl12rcd13ifvqbo0","pricing_plan_id":"cebpf4jnsgd1na2vs0mg"},{"bike_id":"857344dd-6be1-4d34-90e7-6f62afbbef2e","system_id":"levelo_inurba_marseille","lat":43.32113,"lon":5.36774,"is_reserved":false,"is_disabled":false,"rental_uris":{"android":"levelo://app?vid=857344dd-6be1-4d34-90e7-6f62afbbef2e","ios":"levelo://app?vid=857344dd-6be1-4d34-90e7-6f62afbbef2e"},"vehicle_type_id":"4","last_reported":1735433516,"current_range_meters":30400,"station_id":"ce4bhrh2rcd13ifvqhug","pricing_plan_id":"cebpf4jnsgd1na2vs0mg"},{"bike_id":"ebb6d78e-59e9-467c-bd6f-0ce95ca839c8","system_id":"levelo_inurba_marseille","lat":43.29213,"lon":5.36074,"is_reserved":false,"is_disabled":false,"rental_uris":{"android":"levelo://app?vid=ebb6d78e-59e9-467c-bd6f-0ce95ca839c8","ios":"levelo://app?vid=ebb6d78e-59e9-467c-bd6f-0ce95ca839c8"},"vehicle_type_id":"4","last_reported":1735433516,"current_range_meters":19600,"station_id":"ce4bhbh2rcd13ifvqeqg","pricing_plan_id":"cebpf4jnsgd1na2vs0mg"},{"bike_id":"2aeeb016-c0f4-4948-bd59-1c7a9e3cc1c6","system_id":"levelo_inurba_marseille","lat":43.29684,"lon":5.37285,"is_reserved":false,"is_disabled":false,"rental_uris":{"android":"levelo://app?vid=2aeeb016-c0f4-4948-bd59-1c7a9e3cc1c6","ios":"levelo://app?vid=2aeeb016-c0f4-4948-bd59-1c7a9e3cc1c6"},"vehicle_type_id":"4","last_reported":1735433516,"current_range_meters":14000,"station_id":"ce4bgk12rcd13ifvqbj0","pricing_plan_id":"cebpf4jnsgd1na2vs0mg"},{"bike_id":"353a11f9-7601-454c-8af2-e5ea93e8a34d","system_id":"levelo_inurba_marseille","lat":43.27498,"lon":5.42453,"is_reserved":false,"is_disabled":false,"rental_uris":{"android":"levelo://app?vid=353a11f9-7601-454c-8af2-e5ea93e8a34d","ios":"levelo://app?vid=353a11f9-7601-454c-8af2-e5ea93e8a34d"},"vehicle_type_id":"4","last_reported":1735433516,"current_range_meters":6800,"station_id":"ce4bhn92rcd13ifvqgrg","pricing_plan_id":"cebpf4jnsgd1na2vs0mg"},{"bike_id":"8cd79fc5-8c43-4cc2-9244-3964c23b631c","system_id":"levelo_inurba_marseille","lat":43.31331,"lon":5.39692,"is_reserved":false,"is_disabled":false,"rental_uris":{"android":"levelo://app?vid=8cd79fc5-8c43-4cc2-9244-3964c23b631c","ios":"levelo://app?vid=8cd79fc5-8c43-4cc2-9244-3964c23b631c"},"vehicle_type_id":"4","last_reported":1735433516,"current_range_meters":38800,"station_id":"ce4bgvp2rcd13ifvqcu0","pricing_plan_id":"cebpf4jnsgd1na2vs0mg"},{"bike_id":"b4d130c6-4fa7-4fa3-83b8-3ae416781279","system_id":"levelo_inurba_marseille","lat":43.27437,"lon":5.39285,"is_reserved":false,"is_disabled":false,"rental_uris":{"android":"levelo://app?vid=b4d130c6-4fa7-4fa3-83b8-3ae416781279","ios":"levelo://app?vid=b4d130c6-4fa7-4fa3-83b8-3ae416781279"},"vehicle_type_id":"4","last_reported":1735433516,"current_range_meters":18800,"station_id":"","pricing_plan_id":"cebpf4jnsgd1na2vs0mg"},{"bike_id":"ad66ce9d-e2b2-4064-ae7f-fe87403c632b","system_id":"levelo_inurba_marseille","lat":43.23066,"lon":5.35496,"is_reserved":false,"is_disabled":false,"rental_uris":{"android":"levelo://app?vid=ad66ce9d-e2b2-4064-ae7f-fe87403c632b","ios":"levelo://app?vid=ad66ce9d-e2b2-4064-ae7f-fe87403c632b"},"vehicle_type_id":"4","last_reported":1735433516,"current_range_meters":20000,"station_id":"cpo3342slgdg3j2ifvpg","pricing_plan_id":"cebpf4jnsgd1na2vs0mg"},{"bike_id":"1478bea1-2af1-4ed8-8f2c-d44771132b57","system_id":"levelo_inurba_marseille","lat":43.31331,"lon":5.39668,"is_reserved":false,"is_disabled":false,"rental_uris":{"android":"levelo://app?vid=1478bea1-2af1-4ed8-8f2c-d44771132b57","ios":"levelo://app?vid=1478bea1-2af1-4ed8-8f2c-d44771132b57"},"vehicle_type_id":"4","last_reported":1735433516,"current_range_meters":38800,"station_id":"ce4bgvp2rcd13ifvqcu0","pricing_plan_id":"cebpf4jnsgd1na2vs0mg"},{"bike_id":"4e6a6b09-c29d-4572-bd03-ffe64c36b39b","system_id":"levelo_inurba_marseille","lat":43.24057,"lon":5.37778,"is_reserved":false,"is_disabled":false,"rental_uris":{"android":"levelo://app?vid=4e6a6b09-c29d-4572-bd03-ffe64c36b39b","ios":"levelo://app?vid=4e6a6b09-c29d-4572-bd03-ffe64c36b39b"},"vehicle_type_id":"4","last_reported":1735433516,"current_range_meters":10000,"station_id":"ce4bhnp2rcd13ifvqgvg","pricing_plan_id":"cebpf4jnsgd1na2vs0mg"},{"bike_id":"2e276ef7-feaf-420f-8098-2c7924a8a5cf","system_id":"levelo_inurba_marseille","lat":43.29047,"lon":5.35915,"is_reserved":false,"is_disabled":false,"rental_uris":{"android":"levelo://app?vid=2e276ef7-feaf-420f-8098-2c7924a8a5cf","ios":"levelo://app?vid=2e276ef7-feaf-420f-8098-2c7924a8a5cf"},"vehicle_type_id":"4","last_reported":1735433516,"current_range_meters":38800,"station_id":"ce4bha92rcd13ifvqeg0","pricing_plan_id":"cebpf4jnsgd1na2vs0mg"},{"bike_id":"753fe1a2-6ec1-4d51-9513-13144401ea46","system_id":"levelo_inurba_marseille","lat":43.29173,"lon":5.37152,"is_reserved":false,"is_disabled":false,"rental_uris":{"android":"levelo://app?vid=753fe1a2-6ec1-4d51-9513-13144401ea46","ios":"levelo://app?vid=753fe1a2-6ec1-4d51-9513-13144401ea46"},"vehicle_type_id":"4","last_reported":1735433516,"current_range_meters":32800,"station_id":"ce4bha92rcd13ifvqeh0","pricing_plan_id":"cebpf4jnsgd1na2vs0mg"},{"bike_id":"2924d707-8197-454c-9f11-6f7bb738d897","system_id":"levelo_inurba_marseille","lat":43.25132,"lon":5.40332,"is_reserved":false,"is_disabled":false,"rental_uris":{"android":"levelo://app?vid=2924d707-8197-454c-9f11-6f7bb738d897","ios":"levelo://app?vid=2924d707-8197-454c-9f11-6f7bb738d897"},"vehicle_type_id":"4","last_reported":1735433516,"current_range_meters":39200,"station_id":"ce4bhlh2rcd13ifvqgig","pricing_plan_id":"cebpf4jnsgd1na2vs0mg"},{"bike_id":"d0533ccb-11ce-46dc-9cca-daa9f7a4985a","system_id":"levelo_inurba_marseille","lat":43.29572,"lon":5.42218,"is_reserved":false,"is_disabled":false,"rental_uris":{"android":"levelo://app?vid=d0533ccb-11ce-46dc-9cca-daa9f7a4985a","ios":"levelo://app?vid=d0533ccb-11ce-46dc-9cca-daa9f7a4985a"},"vehicle_type_id":"4","last_reported":1735433516,"current_range_meters":36400,"station_id":"","pricing_plan_id":"cebpf4jnsgd1na2vs0mg"},{"bike_id":"18ed169b-f8e6-48ff-8d23-5f83e81eb63f","system_id":"levelo_inurba_marseille","lat":43.3173,"lon":5.37783,"is_reserved":false,"is_disabled":false,"rental_uris":{"android":"levelo://app?vid=18ed169b-f8e6-48ff-8d23-5f83e81eb63f","ios":"levelo://app?vid=18ed169b-f8e6-48ff-8d23-5f83e81eb63f"},"vehicle_type_id":"4","last_reported":1735433516,"current_range_meters":38000,"station_id":"ce4bgth2rcd13ifvqch0","pricing_plan_id":"cebpf4jnsgd1na2vs0mg"},{"bike_id":"bd786018-ba3e-405e-a2ad-921d23d059be","system_id":"levelo_inurba_marseille","lat":43.29633,"lon":5.40601,"is_reserved":false,"is_disabled":false,"rental_uris":{"android":"levelo://app?vid=bd786018-ba3e-405e-a2ad-921d23d059be","ios":"levelo://app?vid=bd786018-ba3e-405e-a2ad-921d23d059be"},"vehicle_type_id":"4","last_reported":1735433516,"current_range_meters":19200,"station_id":"ce4bh0h2rcd13ifvqd60","pricing_plan_id":"cebpf4jnsgd1na2vs0mg"},{"bike_id":"69ea627f-8133-4621-9c71-fa696edaad99","system_id":"levelo_inurba_marseille","lat":43.30914,"lon":5.37212,"is_reserved":false,"is_disabled":false,"rental_uris":{"android":"levelo://app?vid=69ea627f-8133-4621-9c71-fa696edaad99","ios":"levelo://app?vid=69ea627f-8133-4621-9c71-fa696edaad99"},"vehicle_type_id":"4","last_reported":1735433516,"current_range_meters":9600,"station_id":"ce4bguh2rcd13ifvqckg","pricing_plan_id":"cebpf4jnsgd1na2vs0mg"},{"bike_id":"f224ddde-7972-4224-907d-1a67fbcdb69a","system_id":"levelo_inurba_marseille","lat":43.31114,"lon":5.37785,"is_reserved":false,"is_disabled":false,"rental_uris":{"android":"levelo://app?vid=f224ddde-7972-4224-907d-1a67fbcdb69a","ios":"levelo://app?vid=f224ddde-7972-4224-907d-1a67fbcdb69a"},"vehicle_type_id":"4","last_reported":1735433516,"current_range_meters":20400,"station_id":"ce4bgt92rcd13ifvqcg0","pricing_plan_id":"cebpf4jnsgd1na2vs0mg"},{"bike_id":"13f84696-4405-43e0-b0f5-1a61d67abe32","system_id":"levelo_inurba_marseille","lat":43.27815,"lon":5.39206,"is_reserved":false,"is_disabled":false,"rental_uris":{"android":"levelo://app?vid=13f84696-4405-43e0-b0f5-1a61d67abe32","ios":"levelo://app?vid=13f84696-4405-43e0-b0f5-1a61d67abe32"},"vehicle_type_id":"4","last_reported":1735433516,"current_range_meters":26000,"station_id":"ce4bhjp2rcd13ifvqga0","pricing_plan_id":"cebpf4jnsgd1na2vs0mg"},{"bike_id":"cec46986-8084-4582-9609-3a943ca152f7","system_id":"levelo_inurba_marseille","lat":43.30437,"lon":5.3889,"is_reserved":false,"is_disabled":false,"rental_uris":{"android":"levelo://app?vid=cec46986-8084-4582-9609-3a943ca152f7","ios":"levelo://app?vid=cec46986-8084-4582-9609-3a943ca152f7"},"vehicle_type_id":"4","last_reported":1735433516,"current_range_meters":16800,"station_id":"ce4bgk12rcd13ifvqbi0","pricing_plan_id":"cebpf4jnsgd1na2vs0mg"},{"bike_id":"caab34a4-5264-4b72-a12f-e55159fe93b6","system_id":"levelo_inurba_marseille","lat":43.270731,"lon":5.422655,"is_reserved":false,"is_disabled":false,"rental_uris":{"android":"levelo://app?vid=caab34a4-5264-4b72-a12f-e55159fe93b6","ios":"levelo://app?vid=caab34a4-5264-4b72-a12f-e55159fe93b6"},"vehicle_type_id":"4","last_reported":1735433516,"current_range_meters":27200,"station_id":"ce4bhk92rcd13ifvqgb0","pricing_plan_id":"cebpf4jnsgd1na2vs0mg"},{"bike_id":"cce6858f-c8be-4191-b778-87c9fa54dd9b","system_id":"levelo_inurba_marseille","lat":43.30205,"lon":5.39481,"is_reserved":false,"is_disabled":false,"rental_uris":{"android":"levelo://app?vid=cce6858f-c8be-4191-b778-87c9fa54dd9b","ios":"levelo://app?vid=cce6858f-c8be-4191-b778-87c9fa54dd9b"},"vehicle_type_id":"4","last_reported":1735433516,"current_range_meters":38800,"station_id":"ce4bh0p2rcd13ifvqd70","pricing_plan_id":"cebpf4jnsgd1na2vs0mg"},{"bike_id":"da963667-a8aa-4b23-8c8e-e29f6f393424","system_id":"levelo_inurba_marseille","lat":43.31078,"lon":5.38351,"is_reserved":false,"is_disabled":false,"rental_uris":{"android":"levelo://app?vid=da963667-a8aa-4b23-8c8e-e29f6f393424","ios":"levelo://app?vid=da963667-a8aa-4b23-8c8e-e29f6f393424"},"vehicle_type_id":"4","last_reported":1735433516,"current_range_meters":17600,"station_id":"ce4bgv92rcd13ifvqcr0","pricing_plan_id":"cebpf4jnsgd1na2vs0mg"},{"bike_id":"66fa2585-2039-4042-aec2-0f0b06993c07","system_id":"levelo_inurba_marseille","lat":43.31707,"lon":5.37765,"is_reserved":false,"is_disabled":false,"rental_uris":{"android":"levelo://app?vid=66fa2585-2039-4042-aec2-0f0b06993c07","ios":"levelo://app?vid=66fa2585-2039-4042-aec2-0f0b06993c07"},"vehicle_type_id":"4","last_reported":1735433516,"current_range_meters":38000,"station_id":"ce4bgth2rcd13ifvqch0","pricing_plan_id":"cebpf4jnsgd1na2vs0mg"},{"bike_id":"af24a059-f0b9-4451-8b3e-21219bfba3ca","system_id":"levelo_inurba_marseille","lat":43.32284,"lon":5.38276,"is_reserved":false,"is_disabled":false,"rental_uris":{"android":"levelo://app?vid=af24a059-f0b9-4451-8b3e-21219bfba3ca","ios":"levelo://app?vid=af24a059-f0b9-4451-8b3e-21219bfba3ca"},"vehicle_type_id":"4","last_reported":1735433516,"current_range_meters":38800,"station_id":"ce4bhr12rcd13ifvqhqg","pricing_plan_id":"cebpf4jnsgd1na2vs0mg"},{"bike_id":"2eaf5aab-e12e-4e93-a20d-88a34894165c","system_id":"levelo_inurba_marseille","lat":43.28461,"lon":5.35891,"is_reserved":false,"is_disabled":true,"rental_uris":{"android":"levelo://app?vid=2eaf5aab-e12e-4e93-a20d-88a34894165c","ios":"levelo://app?vid=2eaf5aab-e12e-4e93-a20d-88a34894165c"},"vehicle_type_id":"4","last_reported":1735433516,"current_range_meters":0,"station_id":"ce4bhah2rcd13ifvqei0","pricing_plan_id":"cebpf4jnsgd1na2vs0mg"},{"bike_id":"edf0b663-1d49-48b0-9482-86766f1b112c","system_id":"levelo_inurba_marseille","lat":43.28671,"lon":5.36324,"is_reserved":false,"is_disabled":false,"rental_uris":{"android":"levelo://app?vid=edf0b663-1d49-48b0-9482-86766f1b112c","ios":"levelo://app?vid=edf0b663-1d49-48b0-9482-86766f1b112c"},"vehicle_type_id":"4","last_reported":1735433516,"current_range_meters":33200,"station_id":"ce4bhah2rcd13ifvqej0","pricing_plan_id":"cebpf4jnsgd1na2vs0mg"},{"bike_id":"d07ac0e3-849c-44fe-ab38-0273add2ad10","system_id":"levelo_inurba_marseille","lat":43.30894,"lon":5.37194,"is_reserved":false,"is_disabled":false,"rental_uris":{"android":"levelo://app?vid=d07ac0e3-849c-44fe-ab38-0273add2ad10","ios":"levelo://app?vid=d07ac0e3-849c-44fe-ab38-0273add2ad10"},"vehicle_type_id":"4","last_reported":1735433516,"current_range_meters":11600,"station_id":"ce4bguh2rcd13ifvqckg","pricing_plan_id":"cebpf4jnsgd1na2vs0mg"},{"bike_id":"874a55c5-2be9-45f9-acec-1c06f64f0a03","system_id":"levelo_inurba_marseille","lat":43.31328,"lon":5.39692,"is_reserved":false,"is_disabled":false,"rental_uris":{"android":"levelo://app?vid=874a55c5-2be9-45f9-acec-1c06f64f0a03","ios":"levelo://app?vid=874a55c5-2be9-45f9-acec-1c06f64f0a03"},"vehicle_type_id":"4","last_reported":1735433516,"current_range_meters":38400,"station_id":"ce4bgvp2rcd13ifvqcu0","pricing_plan_id":"cebpf4jnsgd1na2vs0mg"},{"bike_id":"b8310779-a1ed-43b8-93c2-4d2a1cabb080","system_id":"levelo_inurba_marseille","lat":43.26484,"lon":5.3952,"is_reserved":false,"is_disabled":false,"rental_uris":{"android":"levelo://app?vid=b8310779-a1ed-43b8-93c2-4d2a1cabb080","ios":"levelo://app?vid=b8310779-a1ed-43b8-93c2-4d2a1cabb080"},"vehicle_type_id":"4","last_reported":1735433516,"current_range_meters":38800,"station_id":"ce4bhi12rcd13ifvqfq0","pricing_plan_id":"cebpf4jnsgd1na2vs0mg"},{"bike_id":"63e292a4-7211-4399-b573-131fa3cc14cf","system_id":"levelo_inurba_marseille","lat":43.3415,"lon":5.40908,"is_reserved":false,"is_disabled":false,"rental_uris":{"android":"levelo://app?vid=63e292a4-7211-4399-b573-131fa3cc14cf","ios":"levelo://app?vid=63e292a4-7211-4399-b573-131fa3cc14cf"},"vehicle_type_id":"4","last_reported":1735433516,"current_range_meters":38000,"station_id":"ce4bhqh2rcd13ifvqhlg","pricing_plan_id":"cebpf4jnsgd1na2vs0mg"},{"bike_id":"9f98d7c2-7b73-45e9-a880-31a76fde57c2","system_id":"levelo_inurba_marseille","lat":43.27384,"lon":5.36262,"is_reserved":false,"is_disabled":false,"rental_uris":{"android":"levelo://app?vid=9f98d7c2-7b73-45e9-a880-31a76fde57c2","ios":"levelo://app?vid=9f98d7c2-7b73-45e9-a880-31a76fde57c2"},"vehicle_type_id":"4","last_reported":1735433516,"current_range_meters":6800,"station_id":"ce4bhbh2rcd13ifvqeo0","pricing_plan_id":"cebpf4jnsgd1na2vs0mg"},{"bike_id":"de652fd2-3910-45ac-b39a-451460679920","system_id":"levelo_inurba_marseille","lat":43.29298,"lon":5.37157,"is_reserved":false,"is_disabled":false,"rental_uris":{"android":"levelo://app?vid=de652fd2-3910-45ac-b39a-451460679920","ios":"levelo://app?vid=de652fd2-3910-45ac-b39a-451460679920"},"vehicle_type_id":"4","last_reported":1735433516,"current_range_meters":19200,"station_id":"ce4bgh92rcd13ifvqb40","pricing_plan_id":"cebpf4jnsgd1na2vs0mg"},{"bike_id":"eccfad66-c267-470e-be27-7e3cd3a0d1c8","system_id":"levelo_inurba_marseille","lat":43.26485,"lon":5.39561,"is_reserved":false,"is_disabled":false,"rental_uris":{"android":"levelo://app?vid=eccfad66-c267-470e-be27-7e3cd3a0d1c8","ios":"levelo://app?vid=eccfad66-c267-470e-be27-7e3cd3a0d1c8"},"vehicle_type_id":"4","last_reported":1735433516,"current_range_meters":38800,"station_id":"ce4bhi12rcd13ifvqfq0","pricing_plan_id":"cebpf4jnsgd1na2vs0mg"},{"bike_id":"d225e49f-de10-470b-90af-648b3c15cce7","system_id":"levelo_inurba_marseille","lat":43.25735,"lon":5.4111,"is_reserved":false,"is_disabled":false,"rental_uris":{"android":"levelo://app?vid=d225e49f-de10-470b-90af-648b3c15cce7","ios":"levelo://app?vid=d225e49f-de10-470b-90af-648b3c15cce7"},"vehicle_type_id":"4","last_reported":1735433516,"current_range_meters":38800,"station_id":"ce4bhkp2rcd13ifvqgd0","pricing_plan_id":"cebpf4jnsgd1na2vs0mg"},{"bike_id":"2ad96645-53b8-4b57-b8b9-898b5d0758ec","system_id":"levelo_inurba_marseille","lat":43.27327,"lon":5.36263,"is_reserved":false,"is_disabled":false,"rental_uris":{"android":"levelo://app?vid=2ad96645-53b8-4b57-b8b9-898b5d0758ec","ios":"levelo://app?vid=2ad96645-53b8-4b57-b8b9-898b5d0758ec"},"vehicle_type_id":"4","last_reported":1735433516,"current_range_meters":22400,"station_id":"ce4bhbh2rcd13ifvqeo0","pricing_plan_id":"cebpf4jnsgd1na2vs0mg"},{"bike_id":"ffdb2c0d-1337-4b95-a10f-755453ca9eb2","system_id":"levelo_inurba_marseille","lat":43.29318,"lon":5.37187,"is_reserved":false,"is_disabled":false,"rental_uris":{"android":"levelo://app?vid=ffdb2c0d-1337-4b95-a10f-755453ca9eb2","ios":"levelo://app?vid=ffdb2c0d-1337-4b95-a10f-755453ca9eb2"},"vehicle_type_id":"4","last_reported":1735433516,"current_range_meters":32400,"station_id":"ce4bgh92rcd13ifvqb40","pricing_plan_id":"cebpf4jnsgd1na2vs0mg"},{"bike_id":"05fb7452-2e75-415b-85e8-66f72f2a1cf5","system_id":"levelo_inurba_marseille","lat":43.313588,"lon":5.391555,"is_reserved":false,"is_disabled":false,"rental_uris":{"android":"levelo://app?vid=05fb7452-2e75-415b-85e8-66f72f2a1cf5","ios":"levelo://app?vid=05fb7452-2e75-415b-85e8-66f72f2a1cf5"},"vehicle_type_id":"4","last_reported":1735433516,"current_range_meters":21600,"station_id":"","pricing_plan_id":"cebpf4jnsgd1na2vs0mg"},{"bike_id":"158e017f-4a76-4ad7-a5e3-1ca7daceabea","system_id":"levelo_inurba_marseille","lat":43.27495,"lon":5.42452,"is_reserved":false,"is_disabled":false,"rental_uris":{"android":"levelo://app?vid=158e017f-4a76-4ad7-a5e3-1ca7daceabea","ios":"levelo://app?vid=158e017f-4a76-4ad7-a5e3-1ca7daceabea"},"vehicle_type_id":"4","last_reported":1735433516,"current_range_meters":20000,"station_id":"ce4bhn92rcd13ifvqgrg","pricing_plan_id":"cebpf4jnsgd1na2vs0mg"},{"bike_id":"d6144803-d96b-4980-90a1-d59f6d11564c","system_id":"levelo_inurba_marseille","lat":43.28153,"lon":5.42651,"is_reserved":false,"is_disabled":false,"rental_uris":{"android":"levelo://app?vid=d6144803-d96b-4980-90a1-d59f6d11564c","ios":"levelo://app?vid=d6144803-d96b-4980-90a1-d59f6d11564c"},"vehicle_type_id":"4","last_reported":1735433516,"current_range_meters":8800,"station_id":"ce4bhnh2rcd13ifvqgug","pricing_plan_id":"cebpf4jnsgd1na2vs0mg"},{"bike_id":"c74aa9b1-1e0f-46cb-8704-6e5852910a9d","system_id":"levelo_inurba_marseille","lat":43.26567,"lon":5.39001,"is_reserved":false,"is_disabled":false,"rental_uris":{"android":"levelo://app?vid=c74aa9b1-1e0f-46cb-8704-6e5852910a9d","ios":"levelo://app?vid=c74aa9b1-1e0f-46cb-8704-6e5852910a9d"},"vehicle_type_id":"4","last_reported":1735433516,"current_range_meters":16400,"station_id":"ce4bhe12rcd13ifvqf30","pricing_plan_id":"cebpf4jnsgd1na2vs0mg"},{"bike_id":"8ed5a1f5-589e-42ed-8f11-2d154ce6b9eb","system_id":"levelo_inurba_marseille","lat":43.23964,"lon":5.36632,"is_reserved":false,"is_disabled":false,"rental_uris":{"android":"levelo://app?vid=8ed5a1f5-589e-42ed-8f11-2d154ce6b9eb","ios":"levelo://app?vid=8ed5a1f5-589e-42ed-8f11-2d154ce6b9eb"},"vehicle_type_id":"4","last_reported":1735433516,"current_range_meters":37600,"station_id":"ce4bhi12rcd13ifvqfp0","pricing_plan_id":"cebpf4jnsgd1na2vs0mg"},{"bike_id":"de06c0d0-2db9-4125-a372-f852a51e4c9a","system_id":"levelo_inurba_marseille","lat":43.29173,"lon":5.37161,"is_reserved":false,"is_disabled":false,"rental_uris":{"android":"levelo://app?vid=de06c0d0-2db9-4125-a372-f852a51e4c9a","ios":"levelo://app?vid=de06c0d0-2db9-4125-a372-f852a51e4c9a"},"vehicle_type_id":"4","last_reported":1735433516,"current_range_meters":38800,"station_id":"ce4bha92rcd13ifvqeh0","pricing_plan_id":"cebpf4jnsgd1na2vs0mg"},{"bike_id":"f2771906-c31b-4e20-a9b5-59005e9607b6","system_id":"levelo_inurba_marseille","lat":43.29804,"lon":5.38091,"is_reserved":false,"is_disabled":false,"rental_uris":{"android":"levelo://app?vid=f2771906-c31b-4e20-a9b5-59005e9607b6","ios":"levelo://app?vid=f2771906-c31b-4e20-a9b5-59005e9607b6"},"vehicle_type_id":"4","last_reported":1735433516,"current_range_meters":28800,"station_id":"ce4bgip2rcd13ifvqbb0","pricing_plan_id":"cebpf4jnsgd1na2vs0mg"},{"bike_id":"0648f805-83c3-4f41-94a8-dbc8ddf9855c","system_id":"levelo_inurba_marseille","lat":43.31528,"lon":5.38054,"is_reserved":false,"is_disabled":false,"rental_uris":{"android":"levelo://app?vid=0648f805-83c3-4f41-94a8-dbc8ddf9855c","ios":"levelo://app?vid=0648f805-83c3-4f41-94a8-dbc8ddf9855c"},"vehicle_type_id":"4","last_reported":1735433516,"current_range_meters":38000,"station_id":"ce4bhsp2rcd13ifvqi50","pricing_plan_id":"cebpf4jnsgd1na2vs0mg"},{"bike_id":"1ae49562-e208-40cc-80b1-002fe3e5a605","system_id":"levelo_inurba_marseille","lat":43.28579,"lon":5.39502,"is_reserved":false,"is_disabled":false,"rental_uris":{"android":"levelo://app?vid=1ae49562-e208-40cc-80b1-002fe3e5a605","ios":"levelo://app?vid=1ae49562-e208-40cc-80b1-002fe3e5a605"},"vehicle_type_id":"4","last_reported":1735433516,"current_range_meters":28000,"station_id":"ce4bh292rcd13ifvqdg0","pricing_plan_id":"cebpf4jnsgd1na2vs0mg"},{"bike_id":"5c3ea395-3e8e-4cad-994f-ebaf85927680","system_id":"levelo_inurba_marseille","lat":43.29538,"lon":5.38546,"is_reserved":false,"is_disabled":false,"rental_uris":{"android":"levelo://app?vid=5c3ea395-3e8e-4cad-994f-ebaf85927680","ios":"levelo://app?vid=5c3ea395-3e8e-4cad-994f-ebaf85927680"},"vehicle_type_id":"4","last_reported":1735433516,"current_range_meters":38800,"station_id":"ce4bgih2rcd13ifvqba0","pricing_plan_id":"cebpf4jnsgd1na2vs0mg"},{"bike_id":"289c7f20-3fd2-43a0-9b76-274c495998e0","system_id":"levelo_inurba_marseille","lat":43.28103,"lon":5.37832,"is_reserved":false,"is_disabled":false,"rental_uris":{"android":"levelo://app?vid=289c7f20-3fd2-43a0-9b76-274c495998e0","ios":"levelo://app?vid=289c7f20-3fd2-43a0-9b76-274c495998e0"},"vehicle_type_id":"4","last_reported":1735433516,"current_range_meters":29600,"station_id":"ce4bha12rcd13ifvqee0","pricing_plan_id":"cebpf4jnsgd1na2vs0mg"},{"bike_id":"75586ade-f7a4-41b5-afef-c1e2f4499a7d","system_id":"levelo_inurba_marseille","lat":43.30883,"lon":5.37199,"is_reserved":false,"is_disabled":false,"rental_uris":{"android":"levelo://app?vid=75586ade-f7a4-41b5-afef-c1e2f4499a7d","ios":"levelo://app?vid=75586ade-f7a4-41b5-afef-c1e2f4499a7d"},"vehicle_type_id":"4","last_reported":1735433516,"current_range_meters":37600,"station_id":"ce4bguh2rcd13ifvqckg","pricing_plan_id":"cebpf4jnsgd1na2vs0mg"},{"bike_id":"b3bf66fd-e609-467c-a5ee-ab6ea256e2c4","system_id":"levelo_inurba_marseille","lat":43.307945,"lon":5.381522,"is_reserved":false,"is_disabled":false,"rental_uris":{"android":"levelo://app?vid=b3bf66fd-e609-467c-a5ee-ab6ea256e2c4","ios":"levelo://app?vid=b3bf66fd-e609-467c-a5ee-ab6ea256e2c4"},"vehicle_type_id":"4","last_reported":1735433516,"current_range_meters":30400,"station_id":"ce4bgt12rcd13ifvqce0","pricing_plan_id":"cebpf4jnsgd1na2vs0mg"},{"bike_id":"b4e7838d-bfdb-4c56-a2e8-bb0e1e73cbb7","system_id":"levelo_inurba_marseille","lat":43.29959,"lon":5.37176,"is_reserved":false,"is_disabled":false,"rental_uris":{"android":"levelo://app?vid=b4e7838d-bfdb-4c56-a2e8-bb0e1e73cbb7","ios":"levelo://app?vid=b4e7838d-bfdb-4c56-a2e8-bb0e1e73cbb7"},"vehicle_type_id":"4","last_reported":1735433516,"current_range_meters":38800,"station_id":"ce4bgr92rcd13ifvqc7g","pricing_plan_id":"cebpf4jnsgd1na2vs0mg"},{"bike_id":"ade8f6ef-b3ee-4321-b0e3-fa2122109c5d","system_id":"levelo_inurba_marseille","lat":43.25008,"lon":5.38931,"is_reserved":false,"is_disabled":false,"rental_uris":{"android":"levelo://app?vid=ade8f6ef-b3ee-4321-b0e3-fa2122109c5d","ios":"levelo://app?vid=ade8f6ef-b3ee-4321-b0e3-fa2122109c5d"},"vehicle_type_id":"4","last_reported":1735433516,"current_range_meters":23200,"station_id":"ce4bhgp2rcd13ifvqfd0","pricing_plan_id":"cebpf4jnsgd1na2vs0mg"},{"bike_id":"22fd7190-4a48-4311-a205-02e98d2bbea1","system_id":"levelo_inurba_marseille","lat":43.33735,"lon":5.3915,"is_reserved":false,"is_disabled":false,"rental_uris":{"android":"levelo://app?vid=22fd7190-4a48-4311-a205-02e98d2bbea1","ios":"levelo://app?vid=22fd7190-4a48-4311-a205-02e98d2bbea1"},"vehicle_type_id":"4","last_reported":1735433516,"current_range_meters":38000,"station_id":"ce4bhr92rcd13ifvqhsg","pricing_plan_id":"cebpf4jnsgd1na2vs0mg"},{"bike_id":"c2e178aa-81c8-48f1-83f8-a7e7c71225b2","system_id":"levelo_inurba_marseille","lat":43.3091,"lon":5.37189,"is_reserved":false,"is_disabled":false,"rental_uris":{"android":"levelo://app?vid=c2e178aa-81c8-48f1-83f8-a7e7c71225b2","ios":"levelo://app?vid=c2e178aa-81c8-48f1-83f8-a7e7c71225b2"},"vehicle_type_id":"4","last_reported":1735433516,"current_range_meters":24800,"station_id":"ce4bguh2rcd13ifvqckg","pricing_plan_id":"cebpf4jnsgd1na2vs0mg"},{"bike_id":"51b816a6-83e6-4dcb-a064-9cd7eae1f3e4","system_id":"levelo_inurba_marseille","lat":43.29974,"lon":5.37186,"is_reserved":false,"is_disabled":false,"rental_uris":{"android":"levelo://app?vid=51b816a6-83e6-4dcb-a064-9cd7eae1f3e4","ios":"levelo://app?vid=51b816a6-83e6-4dcb-a064-9cd7eae1f3e4"},"vehicle_type_id":"4","last_reported":1735433516,"current_range_meters":20400,"station_id":"ce4bgr92rcd13ifvqc7g","pricing_plan_id":"cebpf4jnsgd1na2vs0mg"},{"bike_id":"b51899bf-eb59-4427-b974-726780043f14","system_id":"levelo_inurba_marseille","lat":43.27959,"lon":5.41077,"is_reserved":false,"is_disabled":false,"rental_uris":{"android":"levelo://app?vid=b51899bf-eb59-4427-b974-726780043f14","ios":"levelo://app?vid=b51899bf-eb59-4427-b974-726780043f14"},"vehicle_type_id":"4","last_reported":1735433516,"current_range_meters":36400,"station_id":"ce4bhnp2rcd13ifvqh0g","pricing_plan_id":"cebpf4jnsgd1na2vs0mg"},{"bike_id":"12b1618d-0fb4-456a-85c6-525a9c9a4a79","system_id":"levelo_inurba_marseille","lat":43.24547,"lon":5.39534,"is_reserved":false,"is_disabled":false,"rental_uris":{"android":"levelo://app?vid=12b1618d-0fb4-456a-85c6-525a9c9a4a79","ios":"levelo://app?vid=12b1618d-0fb4-456a-85c6-525a9c9a4a79"},"vehicle_type_id":"4","last_reported":1735433516,"current_range_meters":38800,"station_id":"ce4bhlp2rcd13ifvqgjg","pricing_plan_id":"cebpf4jnsgd1na2vs0mg"},{"bike_id":"e73e6057-e6e9-407b-a17e-f4e119a96aba","system_id":"levelo_inurba_marseille","lat":43.32111,"lon":5.36781,"is_reserved":false,"is_disabled":false,"rental_uris":{"android":"levelo://app?vid=e73e6057-e6e9-407b-a17e-f4e119a96aba","ios":"levelo://app?vid=e73e6057-e6e9-407b-a17e-f4e119a96aba"},"vehicle_type_id":"4","last_reported":1735433516,"current_range_meters":12000,"station_id":"ce4bhrh2rcd13ifvqhug","pricing_plan_id":"cebpf4jnsgd1na2vs0mg"},{"bike_id":"81153036-60c1-41ab-b815-babcaaf9e6b0","system_id":"levelo_inurba_marseille","lat":43.31276,"lon":5.4017,"is_reserved":false,"is_disabled":false,"rental_uris":{"android":"levelo://app?vid=81153036-60c1-41ab-b815-babcaaf9e6b0","ios":"levelo://app?vid=81153036-60c1-41ab-b815-babcaaf9e6b0"},"vehicle_type_id":"4","last_reported":1735433516,"current_range_meters":38800,"station_id":"ce4bh092rcd13ifvqd30","pricing_plan_id":"cebpf4jnsgd1na2vs0mg"},{"bike_id":"f7c5bc57-cb9a-4b83-bec7-1ac1d80db1c8","system_id":"levelo_inurba_marseille","lat":43.28,"lon":5.40005,"is_reserved":false,"is_disabled":false,"rental_uris":{"android":"levelo://app?vid=f7c5bc57-cb9a-4b83-bec7-1ac1d80db1c8","ios":"levelo://app?vid=f7c5bc57-cb9a-4b83-bec7-1ac1d80db1c8"},"vehicle_type_id":"4","last_reported":1735433516,"current_range_meters":24800,"station_id":"ce4bho92rcd13ifvqh4g","pricing_plan_id":"cebpf4jnsgd1na2vs0mg"},{"bike_id":"9e6d9495-e6fc-46af-bf3a-7dc282e2ba92","system_id":"levelo_inurba_marseille","lat":43.27066,"lon":5.42273,"is_reserved":false,"is_disabled":false,"rental_uris":{"android":"levelo://app?vid=9e6d9495-e6fc-46af-bf3a-7dc282e2ba92","ios":"levelo://app?vid=9e6d9495-e6fc-46af-bf3a-7dc282e2ba92"},"vehicle_type_id":"4","last_reported":1735433516,"current_range_meters":35600,"station_id":"ce4bhk92rcd13ifvqgb0","pricing_plan_id":"cebpf4jnsgd1na2vs0mg"},{"bike_id":"57103b12-06fc-494b-9a1a-1903f8f245d5","system_id":"levelo_inurba_marseille","lat":43.2798,"lon":5.41655,"is_reserved":false,"is_disabled":false,"rental_uris":{"android":"levelo://app?vid=57103b12-06fc-494b-9a1a-1903f8f245d5","ios":"levelo://app?vid=57103b12-06fc-494b-9a1a-1903f8f245d5"},"vehicle_type_id":"4","last_reported":1735433516,"current_range_meters":20800,"station_id":"ce4bho12rcd13ifvqh1g","pricing_plan_id":"cebpf4jnsgd1na2vs0mg"},{"bike_id":"c851116d-99dd-4dac-b2f2-5a1f9d6851a0","system_id":"levelo_inurba_marseille","lat":43.27378,"lon":5.36251,"is_reserved":false,"is_disabled":false,"rental_uris":{"android":"levelo://app?vid=c851116d-99dd-4dac-b2f2-5a1f9d6851a0","ios":"levelo://app?vid=c851116d-99dd-4dac-b2f2-5a1f9d6851a0"},"vehicle_type_id":"4","last_reported":1735433516,"current_range_meters":38400,"station_id":"ce4bhbh2rcd13ifvqeo0","pricing_plan_id":"cebpf4jnsgd1na2vs0mg"},{"bike_id":"3db05973-cc08-4299-9c9c-1e95f6ad1810","system_id":"levelo_inurba_marseille","lat":43.30805,"lon":5.38152,"is_reserved":false,"is_disabled":false,"rental_uris":{"android":"levelo://app?vid=3db05973-cc08-4299-9c9c-1e95f6ad1810","ios":"levelo://app?vid=3db05973-cc08-4299-9c9c-1e95f6ad1810"},"vehicle_type_id":"4","last_reported":1735433516,"current_range_meters":28000,"station_id":"ce4bgt12rcd13ifvqce0","pricing_plan_id":"cebpf4jnsgd1na2vs0mg"},{"bike_id":"d9d97985-8792-47a3-ab8c-09980f6a9900","system_id":"levelo_inurba_marseille","lat":43.29522,"lon":5.37508,"is_reserved":false,"is_disabled":true,"rental_uris":{"android":"levelo://app?vid=d9d97985-8792-47a3-ab8c-09980f6a9900","ios":"levelo://app?vid=d9d97985-8792-47a3-ab8c-09980f6a9900"},"vehicle_type_id":"4","last_reported":1735433516,"current_range_meters":8400,"station_id":"ce4bgkp2rcd13ifvqbmg","pricing_plan_id":"cebpf4jnsgd1na2vs0mg"},{"bike_id":"e1e242d1-2cf6-4a1f-8622-55d7b81af7d8","system_id":"levelo_inurba_marseille","lat":43.27812,"lon":5.4072,"is_reserved":false,"is_disabled":false,"rental_uris":{"android":"levelo://app?vid=e1e242d1-2cf6-4a1f-8622-55d7b81af7d8","ios":"levelo://app?vid=e1e242d1-2cf6-4a1f-8622-55d7b81af7d8"},"vehicle_type_id":"4","last_reported":1735433516,"current_range_meters":33600,"station_id":"ce4bhnh2rcd13ifvqgtg","pricing_plan_id":"cebpf4jnsgd1na2vs0mg"},{"bike_id":"62c6d429-3767-4773-be41-bb492a25ccfa","system_id":"levelo_inurba_marseille","lat":43.27939,"lon":5.41043,"is_reserved":false,"is_disabled":false,"rental_uris":{"android":"levelo://app?vid=62c6d429-3767-4773-be41-bb492a25ccfa","ios":"levelo://app?vid=62c6d429-3767-4773-be41-bb492a25ccfa"},"vehicle_type_id":"4","last_reported":1735433516,"current_range_meters":17200,"station_id":"ce4bhnp2rcd13ifvqh0g","pricing_plan_id":"cebpf4jnsgd1na2vs0mg"},{"bike_id":"88e36fed-0cdc-4bfe-8d6f-fe94bdcf376b","system_id":"levelo_inurba_marseille","lat":43.2998,"lon":5.37179,"is_reserved":false,"is_disabled":false,"rental_uris":{"android":"levelo://app?vid=88e36fed-0cdc-4bfe-8d6f-fe94bdcf376b","ios":"levelo://app?vid=88e36fed-0cdc-4bfe-8d6f-fe94bdcf376b"},"vehicle_type_id":"4","last_reported":1735433516,"current_range_meters":38800,"station_id":"ce4bgr92rcd13ifvqc7g","pricing_plan_id":"cebpf4jnsgd1na2vs0mg"},{"bike_id":"51145a9f-1dd5-49ff-b0a8-9d0e3c399b7d","system_id":"levelo_inurba_marseille","lat":43.290739,"lon":5.371709,"is_reserved":false,"is_disabled":false,"rental_uris":{"android":"levelo://app?vid=51145a9f-1dd5-49ff-b0a8-9d0e3c399b7d","ios":"levelo://app?vid=51145a9f-1dd5-49ff-b0a8-9d0e3c399b7d"},"vehicle_type_id":"4","last_reported":1735433516,"current_range_meters":20000,"station_id":"ce4bh5p2rcd13ifvqe4g","pricing_plan_id":"cebpf4jnsgd1na2vs0mg"},{"bike_id":"482b0b80-c53d-4d05-aa82-218b22575b6c","system_id":"levelo_inurba_marseille","lat":43.23156,"lon":5.43698,"is_reserved":false,"is_disabled":true,"rental_uris":{"android":"levelo://app?vid=482b0b80-c53d-4d05-aa82-218b22575b6c","ios":"levelo://app?vid=482b0b80-c53d-4d05-aa82-218b22575b6c"},"vehicle_type_id":"4","last_reported":1735433516,"current_range_meters":38800,"station_id":"ce4bhmp2rcd13ifvqgog","pricing_plan_id":"cebpf4jnsgd1na2vs0mg"},{"bike_id":"67f8cd57-8ffe-42c1-8d00-3fac83d8c193","system_id":"levelo_inurba_marseille","lat":43.30135,"lon":5.38786,"is_reserved":false,"is_disabled":false,"rental_uris":{"android":"levelo://app?vid=67f8cd57-8ffe-42c1-8d00-3fac83d8c193","ios":"levelo://app?vid=67f8cd57-8ffe-42c1-8d00-3fac83d8c193"},"vehicle_type_id":"4","last_reported":1735433516,"current_range_meters":34800,"station_id":"ce4bghh2rcd13ifvqb60","pricing_plan_id":"cebpf4jnsgd1na2vs0mg"},{"bike_id":"337c7ecd-95c1-4e9a-8b35-bb37ebfe1bec","system_id":"levelo_inurba_marseille","lat":43.31331,"lon":5.39696,"is_reserved":false,"is_disabled":false,"rental_uris":{"android":"levelo://app?vid=337c7ecd-95c1-4e9a-8b35-bb37ebfe1bec","ios":"levelo://app?vid=337c7ecd-95c1-4e9a-8b35-bb37ebfe1bec"},"vehicle_type_id":"4","last_reported":1735433516,"current_range_meters":37600,"station_id":"ce4bgvp2rcd13ifvqcu0","pricing_plan_id":"cebpf4jnsgd1na2vs0mg"},{"bike_id":"cb0d02f4-613e-4027-9f67-1bb49f28195e","system_id":"levelo_inurba_marseille","lat":43.29272,"lon":5.36846,"is_reserved":false,"is_disabled":false,"rental_uris":{"android":"levelo://app?vid=cb0d02f4-613e-4027-9f67-1bb49f28195e","ios":"levelo://app?vid=cb0d02f4-613e-4027-9f67-1bb49f28195e"},"vehicle_type_id":"4","last_reported":1735433516,"current_range_meters":36000,"station_id":"ce4bhbp2rcd13ifvqesg","pricing_plan_id":"cebpf4jnsgd1na2vs0mg"},{"bike_id":"4f159b3a-7c41-4df4-8fad-ed79f7f1368b","system_id":"levelo_inurba_marseille","lat":43.30892,"lon":5.37193,"is_reserved":false,"is_disabled":false,"rental_uris":{"android":"levelo://app?vid=4f159b3a-7c41-4df4-8fad-ed79f7f1368b","ios":"levelo://app?vid=4f159b3a-7c41-4df4-8fad-ed79f7f1368b"},"vehicle_type_id":"4","last_reported":1735433516,"current_range_meters":29600,"station_id":"ce4bguh2rcd13ifvqckg","pricing_plan_id":"cebpf4jnsgd1na2vs0mg"},{"bike_id":"c33f4286-aba0-493b-a84b-cccc50a4fb8c","system_id":"levelo_inurba_marseille","lat":43.27616,"lon":5.36099,"is_reserved":false,"is_disabled":false,"rental_uris":{"android":"levelo://app?vid=c33f4286-aba0-493b-a84b-cccc50a4fb8c","ios":"levelo://app?vid=c33f4286-aba0-493b-a84b-cccc50a4fb8c"},"vehicle_type_id":"4","last_reported":1735433516,"current_range_meters":16400,"station_id":"ce4bgj92rcd13ifvqbe0","pricing_plan_id":"cebpf4jnsgd1na2vs0mg"},{"bike_id":"78d78409-6047-4bf5-98fe-70640013593d","system_id":"levelo_inurba_marseille","lat":43.31498,"lon":5.37282,"is_reserved":false,"is_disabled":false,"rental_uris":{"android":"levelo://app?vid=78d78409-6047-4bf5-98fe-70640013593d","ios":"levelo://app?vid=78d78409-6047-4bf5-98fe-70640013593d"},"vehicle_type_id":"4","last_reported":1735433516,"current_range_meters":38800,"station_id":"ce4bgt12rcd13ifvqcd0","pricing_plan_id":"cebpf4jnsgd1na2vs0mg"},{"bike_id":"6a65b5f4-f935-4b10-b393-4853aba7b25b","system_id":"levelo_inurba_marseille","lat":43.26689,"lon":5.38264,"is_reserved":false,"is_disabled":false,"rental_uris":{"android":"levelo://app?vid=6a65b5f4-f935-4b10-b393-4853aba7b25b","ios":"levelo://app?vid=6a65b5f4-f935-4b10-b393-4853aba7b25b"},"vehicle_type_id":"4","last_reported":1735433516,"current_range_meters":9600,"station_id":"ce4bhg92rcd13ifvqf90","pricing_plan_id":"cebpf4jnsgd1na2vs0mg"},{"bike_id":"2608bfd0-7254-412f-9d5f-3d3bb26a8adf","system_id":"levelo_inurba_marseille","lat":43.31125,"lon":5.37767,"is_reserved":false,"is_disabled":false,"rental_uris":{"android":"levelo://app?vid=2608bfd0-7254-412f-9d5f-3d3bb26a8adf","ios":"levelo://app?vid=2608bfd0-7254-412f-9d5f-3d3bb26a8adf"},"vehicle_type_id":"4","last_reported":1735433516,"current_range_meters":38800,"station_id":"ce4bgt92rcd13ifvqcg0","pricing_plan_id":"cebpf4jnsgd1na2vs0mg"},{"bike_id":"4ad90c5f-0183-47bc-b8b1-1d566a31b127","system_id":"levelo_inurba_marseille","lat":43.30917,"lon":5.36848,"is_reserved":false,"is_disabled":false,"rental_uris":{"android":"levelo://app?vid=4ad90c5f-0183-47bc-b8b1-1d566a31b127","ios":"levelo://app?vid=4ad90c5f-0183-47bc-b8b1-1d566a31b127"},"vehicle_type_id":"4","last_reported":1735433516,"current_range_meters":27200,"station_id":"ce4bgn92rcd13ifvqbvg","pricing_plan_id":"cebpf4jnsgd1na2vs0mg"},{"bike_id":"f6a398ba-af8e-4fe3-a6c0-f28cb0077f88","system_id":"levelo_inurba_marseille","lat":43.28238,"lon":5.42701,"is_reserved":false,"is_disabled":false,"rental_uris":{"android":"levelo://app?vid=f6a398ba-af8e-4fe3-a6c0-f28cb0077f88","ios":"levelo://app?vid=f6a398ba-af8e-4fe3-a6c0-f28cb0077f88"},"vehicle_type_id":"4","last_reported":1735433516,"current_range_meters":23200,"station_id":"","pricing_plan_id":"cebpf4jnsgd1na2vs0mg"},{"bike_id":"0bcec2f5-0203-436b-a80c-c30c50ac99f3","system_id":"levelo_inurba_marseille","lat":43.25866,"lon":5.39897,"is_reserved":false,"is_disabled":false,"rental_uris":{"android":"levelo://app?vid=0bcec2f5-0203-436b-a80c-c30c50ac99f3","ios":"levelo://app?vid=0bcec2f5-0203-436b-a80c-c30c50ac99f3"},"vehicle_type_id":"4","last_reported":1735433516,"current_range_meters":3200,"station_id":"ce4bhl92rcd13ifvqghg","pricing_plan_id":"cebpf4jnsgd1na2vs0mg"},{"bike_id":"7bd44d09-e872-4291-b548-1cbe40f16cac","system_id":"levelo_inurba_marseille","lat":43.28146,"lon":5.42636,"is_reserved":false,"is_disabled":false,"rental_uris":{"android":"levelo://app?vid=7bd44d09-e872-4291-b548-1cbe40f16cac","ios":"levelo://app?vid=7bd44d09-e872-4291-b548-1cbe40f16cac"},"vehicle_type_id":"4","last_reported":1735433516,"current_range_meters":26000,"station_id":"ce4bhnh2rcd13ifvqgug","pricing_plan_id":"cebpf4jnsgd1na2vs0mg"},{"bike_id":"17f11d6e-aa7f-4c3a-a8cc-c12fcf3b37a3","system_id":"levelo_inurba_marseille","lat":43.30985,"lon":5.41731,"is_reserved":false,"is_disabled":false,"rental_uris":{"android":"levelo://app?vid=17f11d6e-aa7f-4c3a-a8cc-c12fcf3b37a3","ios":"levelo://app?vid=17f11d6e-aa7f-4c3a-a8cc-c12fcf3b37a3"},"vehicle_type_id":"4","last_reported":1735433516,"current_range_meters":28400,"station_id":"","pricing_plan_id":"cebpf4jnsgd1na2vs0mg"},{"bike_id":"d124b3fa-f3a5-4c6d-bebc-2f7ad1a1004e","system_id":"levelo_inurba_marseille","lat":43.26953,"lon":5.38641,"is_reserved":false,"is_disabled":false,"rental_uris":{"android":"levelo://app?vid=d124b3fa-f3a5-4c6d-bebc-2f7ad1a1004e","ios":"levelo://app?vid=d124b3fa-f3a5-4c6d-bebc-2f7ad1a1004e"},"vehicle_type_id":"4","last_reported":1735433516,"current_range_meters":39200,"station_id":"ce4bhh92rcd13ifvqfh0","pricing_plan_id":"cebpf4jnsgd1na2vs0mg"},{"bike_id":"100ef54d-79f8-4689-8411-ae5cedc3c94e","system_id":"levelo_inurba_marseille","lat":43.29071,"lon":5.3718,"is_reserved":false,"is_disabled":false,"rental_uris":{"android":"levelo://app?vid=100ef54d-79f8-4689-8411-ae5cedc3c94e","ios":"levelo://app?vid=100ef54d-79f8-4689-8411-ae5cedc3c94e"},"vehicle_type_id":"4","last_reported":1735433516,"current_range_meters":12000,"station_id":"ce4bh5p2rcd13ifvqe4g","pricing_plan_id":"cebpf4jnsgd1na2vs0mg"},{"bike_id":"98a38826-a83c-4c18-bc58-68fa8c2c0dd9","system_id":"levelo_inurba_marseille","lat":43.29398,"lon":5.37874,"is_reserved":false,"is_disabled":false,"rental_uris":{"android":"levelo://app?vid=98a38826-a83c-4c18-bc58-68fa8c2c0dd9","ios":"levelo://app?vid=98a38826-a83c-4c18-bc58-68fa8c2c0dd9"},"vehicle_type_id":"4","last_reported":1735433516,"current_range_meters":13600,"station_id":"","pricing_plan_id":"cebpf4jnsgd1na2vs0mg"},{"bike_id":"84e9960c-5d51-43ec-a5af-2b8f0882416c","system_id":"levelo_inurba_marseille","lat":43.24076,"lon":5.37762,"is_reserved":false,"is_disabled":false,"rental_uris":{"android":"levelo://app?vid=84e9960c-5d51-43ec-a5af-2b8f0882416c","ios":"levelo://app?vid=84e9960c-5d51-43ec-a5af-2b8f0882416c"},"vehicle_type_id":"4","last_reported":1735433516,"current_range_meters":28800,"station_id":"ce4bhnp2rcd13ifvqgvg","pricing_plan_id":"cebpf4jnsgd1na2vs0mg"},{"bike_id":"359ddae0-5d3f-4b29-8d32-daa2bb9138da","system_id":"levelo_inurba_marseille","lat":43.29762,"lon":5.37737,"is_reserved":false,"is_disabled":false,"rental_uris":{"android":"levelo://app?vid=359ddae0-5d3f-4b29-8d32-daa2bb9138da","ios":"levelo://app?vid=359ddae0-5d3f-4b29-8d32-daa2bb9138da"},"vehicle_type_id":"4","last_reported":1735433516,"current_range_meters":31200,"station_id":"","pricing_plan_id":"cebpf4jnsgd1na2vs0mg"},{"bike_id":"1107b56a-98a5-4a01-8449-9eba086fee5a","system_id":"levelo_inurba_marseille","lat":43.29073,"lon":5.39883,"is_reserved":false,"is_disabled":true,"rental_uris":{"android":"levelo://app?vid=1107b56a-98a5-4a01-8449-9eba086fee5a","ios":"levelo://app?vid=1107b56a-98a5-4a01-8449-9eba086fee5a"},"vehicle_type_id":"4","last_reported":1735433516,"current_range_meters":18000,"station_id":"","pricing_plan_id":"cebpf4jnsgd1na2vs0mg"},{"bike_id":"5b1cd6da-e84a-476d-b462-54b1dc0dcd97","system_id":"levelo_inurba_marseille","lat":43.2927,"lon":5.36845,"is_reserved":false,"is_disabled":false,"rental_uris":{"android":"levelo://app?vid=5b1cd6da-e84a-476d-b462-54b1dc0dcd97","ios":"levelo://app?vid=5b1cd6da-e84a-476d-b462-54b1dc0dcd97"},"vehicle_type_id":"4","last_reported":1735433516,"current_range_meters":36000,"station_id":"ce4bhbp2rcd13ifvqesg","pricing_plan_id":"cebpf4jnsgd1na2vs0mg"},{"bike_id":"b26295a2-53a3-4c96-9a49-718cdfe52e77","system_id":"levelo_inurba_marseille","lat":43.28707,"lon":5.37379,"is_reserved":false,"is_disabled":false,"rental_uris":{"android":"levelo://app?vid=b26295a2-53a3-4c96-9a49-718cdfe52e77","ios":"levelo://app?vid=b26295a2-53a3-4c96-9a49-718cdfe52e77"},"vehicle_type_id":"4","last_reported":1735433516,"current_range_meters":39200,"station_id":"ce4bh3p2rcd13ifvqdq0","pricing_plan_id":"cebpf4jnsgd1na2vs0mg"},{"bike_id":"f98f86cd-bd12-4a77-a017-bbfdfb0a17cc","system_id":"levelo_inurba_marseille","lat":43.26502,"lon":5.3954,"is_reserved":false,"is_disabled":false,"rental_uris":{"android":"levelo://app?vid=f98f86cd-bd12-4a77-a017-bbfdfb0a17cc","ios":"levelo://app?vid=f98f86cd-bd12-4a77-a017-bbfdfb0a17cc"},"vehicle_type_id":"4","last_reported":1735433516,"current_range_meters":38000,"station_id":"ce4bhi12rcd13ifvqfq0","pricing_plan_id":"cebpf4jnsgd1na2vs0mg"},{"bike_id":"c9b97fb7-b709-4c26-ae01-dabf637bc152","system_id":"levelo_inurba_marseille","lat":43.27814,"lon":5.40722,"is_reserved":false,"is_disabled":false,"rental_uris":{"android":"levelo://app?vid=c9b97fb7-b709-4c26-ae01-dabf637bc152","ios":"levelo://app?vid=c9b97fb7-b709-4c26-ae01-dabf637bc152"},"vehicle_type_id":"4","last_reported":1735433516,"current_range_meters":26000,"station_id":"ce4bhnh2rcd13ifvqgtg","pricing_plan_id":"cebpf4jnsgd1na2vs0mg"},{"bike_id":"8d5af813-b00e-4aed-8d13-e6a45a692526","system_id":"levelo_inurba_marseille","lat":43.24806,"lon":5.37456,"is_reserved":false,"is_disabled":false,"rental_uris":{"android":"levelo://app?vid=8d5af813-b00e-4aed-8d13-e6a45a692526","ios":"levelo://app?vid=8d5af813-b00e-4aed-8d13-e6a45a692526"},"vehicle_type_id":"4","last_reported":1735433516,"current_range_meters":28000,"station_id":"ce4bhgh2rcd13ifvqfb0","pricing_plan_id":"cebpf4jnsgd1na2vs0mg"},{"bike_id":"578dd5e9-358c-4278-8b5e-0a437e65059a","system_id":"levelo_inurba_marseille","lat":43.30889,"lon":5.39657,"is_reserved":false,"is_disabled":false,"rental_uris":{"android":"levelo://app?vid=578dd5e9-358c-4278-8b5e-0a437e65059a","ios":"levelo://app?vid=578dd5e9-358c-4278-8b5e-0a437e65059a"},"vehicle_type_id":"4","last_reported":1735433516,"current_range_meters":8800,"station_id":"ce4bh012rcd13ifvqcv0","pricing_plan_id":"cebpf4jnsgd1na2vs0mg"},{"bike_id":"5e5f9118-f1a7-4026-8d57-b98e33d5393e","system_id":"levelo_inurba_marseille","lat":43.29609,"lon":5.37505,"is_reserved":false,"is_disabled":false,"rental_uris":{"android":"levelo://app?vid=5e5f9118-f1a7-4026-8d57-b98e33d5393e","ios":"levelo://app?vid=5e5f9118-f1a7-4026-8d57-b98e33d5393e"},"vehicle_type_id":"4","last_reported":1735433516,"current_range_meters":35200,"station_id":"ce4bgh92rcd13ifvqb50","pricing_plan_id":"cebpf4jnsgd1na2vs0mg"},{"bike_id":"ed49c6a3-5e64-485a-beb0-24d7970e5e6b","system_id":"levelo_inurba_marseille","lat":43.26502,"lon":5.39541,"is_reserved":false,"is_disabled":false,"rental_uris":{"android":"levelo://app?vid=ed49c6a3-5e64-485a-beb0-24d7970e5e6b","ios":"levelo://app?vid=ed49c6a3-5e64-485a-beb0-24d7970e5e6b"},"vehicle_type_id":"4","last_reported":1735433516,"current_range_meters":38400,"station_id":"ce4bhi12rcd13ifvqfq0","pricing_plan_id":"cebpf4jnsgd1na2vs0mg"},{"bike_id":"7bbbe588-477a-4ab8-8baa-1e74ea895ee0","system_id":"levelo_inurba_marseille","lat":43.30435,"lon":5.38888,"is_reserved":false,"is_disabled":false,"rental_uris":{"android":"levelo://app?vid=7bbbe588-477a-4ab8-8baa-1e74ea895ee0","ios":"levelo://app?vid=7bbbe588-477a-4ab8-8baa-1e74ea895ee0"},"vehicle_type_id":"4","last_reported":1735433516,"current_range_meters":9200,"station_id":"ce4bgk12rcd13ifvqbi0","pricing_plan_id":"cebpf4jnsgd1na2vs0mg"},{"bike_id":"fd9dccc3-920a-4f08-931a-e49fee0b5433","system_id":"levelo_inurba_marseille","lat":43.2925,"lon":5.409,"is_reserved":false,"is_disabled":false,"rental_uris":{"android":"levelo://app?vid=fd9dccc3-920a-4f08-931a-e49fee0b5433","ios":"levelo://app?vid=fd9dccc3-920a-4f08-931a-e49fee0b5433"},"vehicle_type_id":"4","last_reported":1735433516,"current_range_meters":38800,"station_id":"ce4bh192rcd13ifvqdc0","pricing_plan_id":"cebpf4jnsgd1na2vs0mg"},{"bike_id":"e56a5aaf-50c3-4775-a06f-8f7c009f81a1","system_id":"levelo_inurba_marseille","lat":43.28658,"lon":5.36357,"is_reserved":false,"is_disabled":false,"rental_uris":{"android":"levelo://app?vid=e56a5aaf-50c3-4775-a06f-8f7c009f81a1","ios":"levelo://app?vid=e56a5aaf-50c3-4775-a06f-8f7c009f81a1"},"vehicle_type_id":"4","last_reported":1735433516,"current_range_meters":26000,"station_id":"ce4bhah2rcd13ifvqej0","pricing_plan_id":"cebpf4jnsgd1na2vs0mg"},{"bike_id":"41e441a8-4ad2-4bf0-81ba-96c35feaf6d8","system_id":"levelo_inurba_marseille","lat":43.28153,"lon":5.42636,"is_reserved":false,"is_disabled":false,"rental_uris":{"android":"levelo://app?vid=41e441a8-4ad2-4bf0-81ba-96c35feaf6d8","ios":"levelo://app?vid=41e441a8-4ad2-4bf0-81ba-96c35feaf6d8"},"vehicle_type_id":"4","last_reported":1735433516,"current_range_meters":31200,"station_id":"ce4bhnh2rcd13ifvqgug","pricing_plan_id":"cebpf4jnsgd1na2vs0mg"},{"bike_id":"709ae17d-e4b3-4756-b5f5-c67b4fadf597","system_id":"levelo_inurba_marseille","lat":43.29243,"lon":5.38252,"is_reserved":false,"is_disabled":false,"rental_uris":{"android":"levelo://app?vid=709ae17d-e4b3-4756-b5f5-c67b4fadf597","ios":"levelo://app?vid=709ae17d-e4b3-4756-b5f5-c67b4fadf597"},"vehicle_type_id":"4","last_reported":1735433516,"current_range_meters":37600,"station_id":"","pricing_plan_id":"cebpf4jnsgd1na2vs0mg"},{"bike_id":"32df57d1-e0ec-4810-b7dc-22334ce161d5","system_id":"levelo_inurba_marseille","lat":43.23184,"lon":5.39989,"is_reserved":false,"is_disabled":false,"rental_uris":{"android":"levelo://app?vid=32df57d1-e0ec-4810-b7dc-22334ce161d5","ios":"levelo://app?vid=32df57d1-e0ec-4810-b7dc-22334ce161d5"},"vehicle_type_id":"4","last_reported":1735433516,"current_range_meters":35200,"station_id":"ce4bhn12rcd13ifvqgqg","pricing_plan_id":"cebpf4jnsgd1na2vs0mg"},{"bike_id":"d2cb3dc8-9c6d-486b-b6fe-943502ea293f","system_id":"levelo_inurba_marseille","lat":43.27192,"lon":5.40989,"is_reserved":false,"is_disabled":false,"rental_uris":{"android":"levelo://app?vid=d2cb3dc8-9c6d-486b-b6fe-943502ea293f","ios":"levelo://app?vid=d2cb3dc8-9c6d-486b-b6fe-943502ea293f"},"vehicle_type_id":"4","last_reported":1735433516,"current_range_meters":37600,"station_id":"ce4bhl12rcd13ifvqgf0","pricing_plan_id":"cebpf4jnsgd1na2vs0mg"},{"bike_id":"5639f52b-1196-4558-b062-4f7891cec443","system_id":"levelo_inurba_marseille","lat":43.284,"lon":5.3757,"is_reserved":false,"is_disabled":true,"rental_uris":{"android":"levelo://app?vid=5639f52b-1196-4558-b062-4f7891cec443","ios":"levelo://app?vid=5639f52b-1196-4558-b062-4f7891cec443"},"vehicle_type_id":"4","last_reported":1735433516,"current_range_meters":27600,"station_id":"ce4bh412rcd13ifvqds0","pricing_plan_id":"cebpf4jnsgd1na2vs0mg"},{"bike_id":"05ea7531-2604-406e-90c5-9fe48debdbca","system_id":"levelo_inurba_marseille","lat":43.31496,"lon":5.37306,"is_reserved":false,"is_disabled":false,"rental_uris":{"android":"levelo://app?vid=05ea7531-2604-406e-90c5-9fe48debdbca","ios":"levelo://app?vid=05ea7531-2604-406e-90c5-9fe48debdbca"},"vehicle_type_id":"4","last_reported":1735433516,"current_range_meters":38800,"station_id":"ce4bgt12rcd13ifvqcd0","pricing_plan_id":"cebpf4jnsgd1na2vs0mg"},{"bike_id":"5d00176f-f72e-4f7d-b282-7beea5cffcbf","system_id":"levelo_inurba_marseille","lat":43.29575,"lon":5.36758,"is_reserved":false,"is_disabled":false,"rental_uris":{"android":"levelo://app?vid=5d00176f-f72e-4f7d-b282-7beea5cffcbf","ios":"levelo://app?vid=5d00176f-f72e-4f7d-b282-7beea5cffcbf"},"vehicle_type_id":"4","last_reported":1735433516,"current_range_meters":36800,"station_id":"ce4bgph2rcd13ifvqc2g","pricing_plan_id":"cebpf4jnsgd1na2vs0mg"},{"bike_id":"9cb744ce-e2a6-4f49-969f-f3c21749d065","system_id":"levelo_inurba_marseille","lat":43.2961,"lon":5.38103,"is_reserved":false,"is_disabled":false,"rental_uris":{"android":"levelo://app?vid=9cb744ce-e2a6-4f49-969f-f3c21749d065","ios":"levelo://app?vid=9cb744ce-e2a6-4f49-969f-f3c21749d065"},"vehicle_type_id":"4","last_reported":1735433516,"current_range_meters":18800,"station_id":"ce4bgl12rcd13ifvqbo0","pricing_plan_id":"cebpf4jnsgd1na2vs0mg"},{"bike_id":"c4464463-92cc-48b8-b950-7ed437f91335","system_id":"levelo_inurba_marseille","lat":43.29217,"lon":5.36043,"is_reserved":false,"is_disabled":false,"rental_uris":{"android":"levelo://app?vid=c4464463-92cc-48b8-b950-7ed437f91335","ios":"levelo://app?vid=c4464463-92cc-48b8-b950-7ed437f91335"},"vehicle_type_id":"4","last_reported":1735433516,"current_range_meters":36800,"station_id":"ce4bhbh2rcd13ifvqeqg","pricing_plan_id":"cebpf4jnsgd1na2vs0mg"},{"bike_id":"b561c8dd-38e0-48e4-a326-a9f947862345","system_id":"levelo_inurba_marseille","lat":43.25723,"lon":5.41104,"is_reserved":false,"is_disabled":false,"rental_uris":{"android":"levelo://app?vid=b561c8dd-38e0-48e4-a326-a9f947862345","ios":"levelo://app?vid=b561c8dd-38e0-48e4-a326-a9f947862345"},"vehicle_type_id":"4","last_reported":1735433516,"current_range_meters":5600,"station_id":"ce4bhkp2rcd13ifvqgd0","pricing_plan_id":"cebpf4jnsgd1na2vs0mg"},{"bike_id":"356fd92d-e963-40e6-b40e-58fc72ac9553","system_id":"levelo_inurba_marseille","lat":43.32108,"lon":5.36772,"is_reserved":false,"is_disabled":false,"rental_uris":{"android":"levelo://app?vid=356fd92d-e963-40e6-b40e-58fc72ac9553","ios":"levelo://app?vid=356fd92d-e963-40e6-b40e-58fc72ac9553"},"vehicle_type_id":"4","last_reported":1735433516,"current_range_meters":38800,"station_id":"ce4bhrh2rcd13ifvqhug","pricing_plan_id":"cebpf4jnsgd1na2vs0mg"},{"bike_id":"179942e2-7898-46ea-b089-9434d086e24c","system_id":"levelo_inurba_marseille","lat":43.29538,"lon":5.37499,"is_reserved":false,"is_disabled":false,"rental_uris":{"android":"levelo://app?vid=179942e2-7898-46ea-b089-9434d086e24c","ios":"levelo://app?vid=179942e2-7898-46ea-b089-9434d086e24c"},"vehicle_type_id":"4","last_reported":1735433516,"current_range_meters":38800,"station_id":"ce4bgkp2rcd13ifvqbmg","pricing_plan_id":"cebpf4jnsgd1na2vs0mg"},{"bike_id":"12b64bf2-4ce1-4146-af5b-eb3b72f8d5ae","system_id":"levelo_inurba_marseille","lat":43.25726,"lon":5.41036,"is_reserved":false,"is_disabled":false,"rental_uris":{"android":"levelo://app?vid=12b64bf2-4ce1-4146-af5b-eb3b72f8d5ae","ios":"levelo://app?vid=12b64bf2-4ce1-4146-af5b-eb3b72f8d5ae"},"vehicle_type_id":"4","last_reported":1735433516,"current_range_meters":38800,"station_id":"ce4bhkp2rcd13ifvqgd0","pricing_plan_id":"cebpf4jnsgd1na2vs0mg"},{"bike_id":"efc67237-bff8-4d45-a704-9f884c3fa2a3","system_id":"levelo_inurba_marseille","lat":43.29574,"lon":5.3751,"is_reserved":false,"is_disabled":false,"rental_uris":{"android":"levelo://app?vid=efc67237-bff8-4d45-a704-9f884c3fa2a3","ios":"levelo://app?vid=efc67237-bff8-4d45-a704-9f884c3fa2a3"},"vehicle_type_id":"4","last_reported":1735433516,"current_range_meters":9200,"station_id":"ce4bgh92rcd13ifvqb50","pricing_plan_id":"cebpf4jnsgd1na2vs0mg"},{"bike_id":"fcdd3935-a6ab-4bfc-88fa-958dbffddcd1","system_id":"levelo_inurba_marseille","lat":43.28871,"lon":5.39333,"is_reserved":false,"is_disabled":false,"rental_uris":{"android":"levelo://app?vid=fcdd3935-a6ab-4bfc-88fa-958dbffddcd1","ios":"levelo://app?vid=fcdd3935-a6ab-4bfc-88fa-958dbffddcd1"},"vehicle_type_id":"4","last_reported":1735433516,"current_range_meters":18000,"station_id":"ce4bh2p2rcd13ifvqdi0","pricing_plan_id":"cebpf4jnsgd1na2vs0mg"},{"bike_id":"a0a23f3e-a7a3-4649-a9f6-4d7c21f4f9e5","system_id":"levelo_inurba_marseille","lat":43.29654,"lon":5.37286,"is_reserved":false,"is_disabled":false,"rental_uris":{"android":"levelo://app?vid=a0a23f3e-a7a3-4649-a9f6-4d7c21f4f9e5","ios":"levelo://app?vid=a0a23f3e-a7a3-4649-a9f6-4d7c21f4f9e5"},"vehicle_type_id":"4","last_reported":1735433516,"current_range_meters":38800,"station_id":"ce4bgk12rcd13ifvqbj0","pricing_plan_id":"cebpf4jnsgd1na2vs0mg"},{"bike_id":"48f29c6e-6ba1-4983-9b51-aed3e0dab820","system_id":"levelo_inurba_marseille","lat":43.29625,"lon":5.37166,"is_reserved":false,"is_disabled":false,"rental_uris":{"android":"levelo://app?vid=48f29c6e-6ba1-4983-9b51-aed3e0dab820","ios":"levelo://app?vid=48f29c6e-6ba1-4983-9b51-aed3e0dab820"},"vehicle_type_id":"4","last_reported":1735433516,"current_range_meters":37600,"station_id":"ce4bgnh2rcd13ifvqc0g","pricing_plan_id":"cebpf4jnsgd1na2vs0mg"},{"bike_id":"7e1dc608-a820-41f3-8381-31f3794c2504","system_id":"levelo_inurba_marseille","lat":43.27984,"lon":5.41656,"is_reserved":false,"is_disabled":false,"rental_uris":{"android":"levelo://app?vid=7e1dc608-a820-41f3-8381-31f3794c2504","ios":"levelo://app?vid=7e1dc608-a820-41f3-8381-31f3794c2504"},"vehicle_type_id":"4","last_reported":1735433516,"current_range_meters":38800,"station_id":"ce4bho12rcd13ifvqh1g","pricing_plan_id":"cebpf4jnsgd1na2vs0mg"},{"bike_id":"1dc9b5ac-423e-4208-b4b0-dfeb4aaeb140","system_id":"levelo_inurba_marseille","lat":43.31717,"lon":5.42402,"is_reserved":false,"is_disabled":false,"rental_uris":{"android":"levelo://app?vid=1dc9b5ac-423e-4208-b4b0-dfeb4aaeb140","ios":"levelo://app?vid=1dc9b5ac-423e-4208-b4b0-dfeb4aaeb140"},"vehicle_type_id":"4","last_reported":1735433516,"current_range_meters":28000,"station_id":"ce4bhp92rcd13ifvqhbg","pricing_plan_id":"cebpf4jnsgd1na2vs0mg"},{"bike_id":"8045ef19-cb1d-4f0c-b3f3-2e8015411f38","system_id":"levelo_inurba_marseille","lat":43.29791,"lon":5.38061,"is_reserved":false,"is_disabled":false,"rental_uris":{"android":"levelo://app?vid=8045ef19-cb1d-4f0c-b3f3-2e8015411f38","ios":"levelo://app?vid=8045ef19-cb1d-4f0c-b3f3-2e8015411f38"},"vehicle_type_id":"4","last_reported":1735433516,"current_range_meters":32000,"station_id":"ce4bgip2rcd13ifvqbb0","pricing_plan_id":"cebpf4jnsgd1na2vs0mg"},{"bike_id":"673ed0fe-3027-4e1f-9efc-2804b0e32190","system_id":"levelo_inurba_marseille","lat":43.2668,"lon":5.38266,"is_reserved":false,"is_disabled":false,"rental_uris":{"android":"levelo://app?vid=673ed0fe-3027-4e1f-9efc-2804b0e32190","ios":"levelo://app?vid=673ed0fe-3027-4e1f-9efc-2804b0e32190"},"vehicle_type_id":"4","last_reported":1735433516,"current_range_meters":9600,"station_id":"ce4bhg92rcd13ifvqf90","pricing_plan_id":"cebpf4jnsgd1na2vs0mg"},{"bike_id":"c2b38636-82b3-4c3a-88d2-48449d43e7b0","system_id":"levelo_inurba_marseille","lat":43.305366,"lon":5.384234,"is_reserved":false,"is_disabled":false,"rental_uris":{"android":"levelo://app?vid=c2b38636-82b3-4c3a-88d2-48449d43e7b0","ios":"levelo://app?vid=c2b38636-82b3-4c3a-88d2-48449d43e7b0"},"vehicle_type_id":"4","last_reported":1735433516,"current_range_meters":38400,"station_id":"ce4bgg92rcd13ifvqb30","pricing_plan_id":"cebpf4jnsgd1na2vs0mg"},{"bike_id":"839d9add-f6be-4f14-b54d-e253e7d94bc5","system_id":"levelo_inurba_marseille","lat":43.31118,"lon":5.37751,"is_reserved":false,"is_disabled":false,"rental_uris":{"android":"levelo://app?vid=839d9add-f6be-4f14-b54d-e253e7d94bc5","ios":"levelo://app?vid=839d9add-f6be-4f14-b54d-e253e7d94bc5"},"vehicle_type_id":"4","last_reported":1735433516,"current_range_meters":36000,"station_id":"ce4bgt92rcd13ifvqcg0","pricing_plan_id":"cebpf4jnsgd1na2vs0mg"},{"bike_id":"17281b94-d9ee-4de2-b86b-bf8a41fceb2b","system_id":"levelo_inurba_marseille","lat":43.25007,"lon":5.3891,"is_reserved":false,"is_disabled":false,"rental_uris":{"android":"levelo://app?vid=17281b94-d9ee-4de2-b86b-bf8a41fceb2b","ios":"levelo://app?vid=17281b94-d9ee-4de2-b86b-bf8a41fceb2b"},"vehicle_type_id":"4","last_reported":1735433516,"current_range_meters":24000,"station_id":"ce4bhgp2rcd13ifvqfd0","pricing_plan_id":"cebpf4jnsgd1na2vs0mg"},{"bike_id":"e70ce8bb-674e-436b-ab6d-79ca756c291a","system_id":"levelo_inurba_marseille","lat":43.25726,"lon":5.41106,"is_reserved":false,"is_disabled":false,"rental_uris":{"android":"levelo://app?vid=e70ce8bb-674e-436b-ab6d-79ca756c291a","ios":"levelo://app?vid=e70ce8bb-674e-436b-ab6d-79ca756c291a"},"vehicle_type_id":"4","last_reported":1735433516,"current_range_meters":35200,"station_id":"ce4bhkp2rcd13ifvqgd0","pricing_plan_id":"cebpf4jnsgd1na2vs0mg"},{"bike_id":"c8d1c33c-78e9-42be-a881-5b72ffd6d815","system_id":"levelo_inurba_marseille","lat":43.29912,"lon":5.37464,"is_reserved":false,"is_disabled":false,"rental_uris":{"android":"levelo://app?vid=c8d1c33c-78e9-42be-a881-5b72ffd6d815","ios":"levelo://app?vid=c8d1c33c-78e9-42be-a881-5b72ffd6d815"},"vehicle_type_id":"4","last_reported":1735433516,"current_range_meters":38800,"station_id":"ce4bgjh2rcd13ifvqbg0","pricing_plan_id":"cebpf4jnsgd1na2vs0mg"},{"bike_id":"2524961b-2c06-4256-ab6a-2f5342052226","system_id":"levelo_inurba_marseille","lat":43.303041,"lon":5.368928,"is_reserved":false,"is_disabled":false,"rental_uris":{"android":"levelo://app?vid=2524961b-2c06-4256-ab6a-2f5342052226","ios":"levelo://app?vid=2524961b-2c06-4256-ab6a-2f5342052226"},"vehicle_type_id":"4","last_reported":1735433516,"current_range_meters":38800,"station_id":"ce4bgqh2rcd13ifvqc5g","pricing_plan_id":"cebpf4jnsgd1na2vs0mg"},{"bike_id":"182697cb-2219-4e08-8291-846687f91a97","system_id":"levelo_inurba_marseille","lat":43.28164,"lon":5.4264,"is_reserved":false,"is_disabled":false,"rental_uris":{"android":"levelo://app?vid=182697cb-2219-4e08-8291-846687f91a97","ios":"levelo://app?vid=182697cb-2219-4e08-8291-846687f91a97"},"vehicle_type_id":"4","last_reported":1735433516,"current_range_meters":38000,"station_id":"ce4bhnh2rcd13ifvqgug","pricing_plan_id":"cebpf4jnsgd1na2vs0mg"},{"bike_id":"f119d51a-5c20-447e-8a4a-b026c7a23c3c","system_id":"levelo_inurba_marseille","lat":43.29065,"lon":5.37165,"is_reserved":false,"is_disabled":false,"rental_uris":{"android":"levelo://app?vid=f119d51a-5c20-447e-8a4a-b026c7a23c3c","ios":"levelo://app?vid=f119d51a-5c20-447e-8a4a-b026c7a23c3c"},"vehicle_type_id":"4","last_reported":1735433516,"current_range_meters":21600,"station_id":"ce4bh5p2rcd13ifvqe4g","pricing_plan_id":"cebpf4jnsgd1na2vs0mg"},{"bike_id":"35142cb1-da84-4465-a902-1b70f5829b31","system_id":"levelo_inurba_marseille","lat":43.25727,"lon":5.41108,"is_reserved":false,"is_disabled":false,"rental_uris":{"android":"levelo://app?vid=35142cb1-da84-4465-a902-1b70f5829b31","ios":"levelo://app?vid=35142cb1-da84-4465-a902-1b70f5829b31"},"vehicle_type_id":"4","last_reported":1735433516,"current_range_meters":38800,"station_id":"ce4bhkp2rcd13ifvqgd0","pricing_plan_id":"cebpf4jnsgd1na2vs0mg"},{"bike_id":"622825f4-100c-4370-a3e7-a2ac977f5898","system_id":"levelo_inurba_marseille","lat":43.29927,"lon":5.38188,"is_reserved":false,"is_disabled":false,"rental_uris":{"android":"levelo://app?vid=622825f4-100c-4370-a3e7-a2ac977f5898","ios":"levelo://app?vid=622825f4-100c-4370-a3e7-a2ac977f5898"},"vehicle_type_id":"4","last_reported":1735433516,"current_range_meters":38800,"station_id":"ce4bgj12rcd13ifvqbc0","pricing_plan_id":"cebpf4jnsgd1na2vs0mg"},{"bike_id":"f32cca47-ddd8-4ccd-b197-1c4f0f381420","system_id":"levelo_inurba_marseille","lat":43.29925,"lon":5.37474,"is_reserved":false,"is_disabled":false,"rental_uris":{"android":"levelo://app?vid=f32cca47-ddd8-4ccd-b197-1c4f0f381420","ios":"levelo://app?vid=f32cca47-ddd8-4ccd-b197-1c4f0f381420"},"vehicle_type_id":"4","last_reported":1735433516,"current_range_meters":37600,"station_id":"ce4bgjh2rcd13ifvqbg0","pricing_plan_id":"cebpf4jnsgd1na2vs0mg"},{"bike_id":"8b2caef2-7af0-44d2-8f46-cb4ab8b932ab","system_id":"levelo_inurba_marseille","lat":43.2606,"lon":5.39396,"is_reserved":false,"is_disabled":false,"rental_uris":{"android":"levelo://app?vid=8b2caef2-7af0-44d2-8f46-cb4ab8b932ab","ios":"levelo://app?vid=8b2caef2-7af0-44d2-8f46-cb4ab8b932ab"},"vehicle_type_id":"4","last_reported":1735433516,"current_range_meters":38800,"station_id":"ce4bhh92rcd13ifvqfj0","pricing_plan_id":"cebpf4jnsgd1na2vs0mg"},{"bike_id":"a0bbff0e-56cf-4023-9db7-f1e3fca408c5","system_id":"levelo_inurba_marseille","lat":43.29027,"lon":5.386381,"is_reserved":false,"is_disabled":false,"rental_uris":{"android":"levelo://app?vid=a0bbff0e-56cf-4023-9db7-f1e3fca408c5","ios":"levelo://app?vid=a0bbff0e-56cf-4023-9db7-f1e3fca408c5"},"vehicle_type_id":"4","last_reported":1735433516,"current_range_meters":37600,"station_id":"ce4bh4p2rcd13ifvqe0g","pricing_plan_id":"cebpf4jnsgd1na2vs0mg"},{"bike_id":"6cbcc705-6e63-4b17-a38d-4b8f3a48d5b6","system_id":"levelo_inurba_marseille","lat":43.29322,"lon":5.37156,"is_reserved":false,"is_disabled":false,"rental_uris":{"android":"levelo://app?vid=6cbcc705-6e63-4b17-a38d-4b8f3a48d5b6","ios":"levelo://app?vid=6cbcc705-6e63-4b17-a38d-4b8f3a48d5b6"},"vehicle_type_id":"4","last_reported":1735433516,"current_range_meters":38800,"station_id":"ce4bgh92rcd13ifvqb40","pricing_plan_id":"cebpf4jnsgd1na2vs0mg"},{"bike_id":"309a9554-13e3-4a27-8da4-4d931614d914","system_id":"levelo_inurba_marseille","lat":43.2901,"lon":5.38134,"is_reserved":false,"is_disabled":true,"rental_uris":{"android":"levelo://app?vid=309a9554-13e3-4a27-8da4-4d931614d914","ios":"levelo://app?vid=309a9554-13e3-4a27-8da4-4d931614d914"},"vehicle_type_id":"4","last_reported":1735433516,"current_range_meters":6400,"station_id":"ce4bh4p2rcd13ifvqe1g","pricing_plan_id":"cebpf4jnsgd1na2vs0mg"},{"bike_id":"661db2d5-e28b-4307-b130-bd69e3d3aa66","system_id":"levelo_inurba_marseille","lat":43.28673,"lon":5.36355,"is_reserved":false,"is_disabled":false,"rental_uris":{"android":"levelo://app?vid=661db2d5-e28b-4307-b130-bd69e3d3aa66","ios":"levelo://app?vid=661db2d5-e28b-4307-b130-bd69e3d3aa66"},"vehicle_type_id":"4","last_reported":1735433516,"current_range_meters":38800,"station_id":"ce4bhah2rcd13ifvqej0","pricing_plan_id":"cebpf4jnsgd1na2vs0mg"},{"bike_id":"c34d9afa-322f-4432-80f7-c93ed46f513c","system_id":"levelo_inurba_marseille","lat":43.29002,"lon":5.3561,"is_reserved":false,"is_disabled":false,"rental_uris":{"android":"levelo://app?vid=c34d9afa-322f-4432-80f7-c93ed46f513c","ios":"levelo://app?vid=c34d9afa-322f-4432-80f7-c93ed46f513c"},"vehicle_type_id":"4","last_reported":1735433516,"current_range_meters":38400,"station_id":"ce4bhb92rcd13ifvqen0","pricing_plan_id":"cebpf4jnsgd1na2vs0mg"},{"bike_id":"2598d78b-c5cd-4ad1-8306-8c58913fa9c2","system_id":"levelo_inurba_marseille","lat":43.265587,"lon":5.422309,"is_reserved":false,"is_disabled":false,"rental_uris":{"android":"levelo://app?vid=2598d78b-c5cd-4ad1-8306-8c58913fa9c2","ios":"levelo://app?vid=2598d78b-c5cd-4ad1-8306-8c58913fa9c2"},"vehicle_type_id":"4","last_reported":1735433516,"current_range_meters":32400,"station_id":"","pricing_plan_id":"cebpf4jnsgd1na2vs0mg"},{"bike_id":"2d76d9f4-5ac3-420c-b7d3-8710df44025b","system_id":"levelo_inurba_marseille","lat":43.29549,"lon":5.42285,"is_reserved":false,"is_disabled":false,"rental_uris":{"android":"levelo://app?vid=2d76d9f4-5ac3-420c-b7d3-8710df44025b","ios":"levelo://app?vid=2d76d9f4-5ac3-420c-b7d3-8710df44025b"},"vehicle_type_id":"4","last_reported":1735433516,"current_range_meters":12000,"station_id":"ce4bhph2rcd13ifvqhdg","pricing_plan_id":"cebpf4jnsgd1na2vs0mg"},{"bike_id":"5477d212-35e2-4622-b27a-bfe5ff434d03","system_id":"levelo_inurba_marseille","lat":43.337603,"lon":5.374424,"is_reserved":false,"is_disabled":false,"rental_uris":{"android":"levelo://app?vid=5477d212-35e2-4622-b27a-bfe5ff434d03","ios":"levelo://app?vid=5477d212-35e2-4622-b27a-bfe5ff434d03"},"vehicle_type_id":"4","last_reported":1735433516,"current_range_meters":23200,"station_id":"","pricing_plan_id":"cebpf4jnsgd1na2vs0mg"},{"bike_id":"efa53824-6098-4031-9f6b-661c3ddc619c","system_id":"levelo_inurba_marseille","lat":43.29289,"lon":5.40145,"is_reserved":false,"is_disabled":false,"rental_uris":{"android":"levelo://app?vid=efa53824-6098-4031-9f6b-661c3ddc619c","ios":"levelo://app?vid=efa53824-6098-4031-9f6b-661c3ddc619c"},"vehicle_type_id":"4","last_reported":1735433516,"current_range_meters":30400,"station_id":"ce4bh312rcd13ifvqdk0","pricing_plan_id":"cebpf4jnsgd1na2vs0mg"},{"bike_id":"7cf41231-9c34-44f1-b1cd-beecfc1f3442","system_id":"levelo_inurba_marseille","lat":43.31375,"lon":5.38506,"is_reserved":false,"is_disabled":false,"rental_uris":{"android":"levelo://app?vid=7cf41231-9c34-44f1-b1cd-beecfc1f3442","ios":"levelo://app?vid=7cf41231-9c34-44f1-b1cd-beecfc1f3442"},"vehicle_type_id":"4","last_reported":1735433516,"current_range_meters":38800,"station_id":"ce4bgt92rcd13ifvqcf0","pricing_plan_id":"cebpf4jnsgd1na2vs0mg"},{"bike_id":"ee8cf5f1-3afc-4c7b-8ed3-ddb81b6ed983","system_id":"levelo_inurba_marseille","lat":43.29926,"lon":5.36541,"is_reserved":false,"is_disabled":false,"rental_uris":{"android":"levelo://app?vid=ee8cf5f1-3afc-4c7b-8ed3-ddb81b6ed983","ios":"levelo://app?vid=ee8cf5f1-3afc-4c7b-8ed3-ddb81b6ed983"},"vehicle_type_id":"4","last_reported":1735433516,"current_range_meters":10000,"station_id":"ce4bgm92rcd13ifvqbr0","pricing_plan_id":"cebpf4jnsgd1na2vs0mg"},{"bike_id":"88b5984c-6754-4288-b0c2-ab7044a16ba7","system_id":"levelo_inurba_marseille","lat":43.2979,"lon":5.39358,"is_reserved":false,"is_disabled":false,"rental_uris":{"android":"levelo://app?vid=88b5984c-6754-4288-b0c2-ab7044a16ba7","ios":"levelo://app?vid=88b5984c-6754-4288-b0c2-ab7044a16ba7"},"vehicle_type_id":"4","last_reported":1735433516,"current_range_meters":38800,"station_id":"chh1huq6cuj3fo74tm60","pricing_plan_id":"cebpf4jnsgd1na2vs0mg"},{"bike_id":"55b4f27e-55a9-4af7-9ed5-7dd2e962bf42","system_id":"levelo_inurba_marseille","lat":43.28721,"lon":5.36092,"is_reserved":false,"is_disabled":false,"rental_uris":{"android":"levelo://app?vid=55b4f27e-55a9-4af7-9ed5-7dd2e962bf42","ios":"levelo://app?vid=55b4f27e-55a9-4af7-9ed5-7dd2e962bf42"},"vehicle_type_id":"4","last_reported":1735433516,"current_range_meters":13600,"station_id":"cki0cbj6b192h4jlfktg","pricing_plan_id":"cebpf4jnsgd1na2vs0mg"},{"bike_id":"f9567761-a8ca-431c-b942-708ea0b62e16","system_id":"levelo_inurba_marseille","lat":43.31519,"lon":5.37301,"is_reserved":false,"is_disabled":false,"rental_uris":{"android":"levelo://app?vid=f9567761-a8ca-431c-b942-708ea0b62e16","ios":"levelo://app?vid=f9567761-a8ca-431c-b942-708ea0b62e16"},"vehicle_type_id":"4","last_reported":1735433516,"current_range_meters":38800,"station_id":"ce4bgt12rcd13ifvqcd0","pricing_plan_id":"cebpf4jnsgd1na2vs0mg"},{"bike_id":"9397a9f3-9f96-4b91-ad51-8ffa68a2aeb8","system_id":"levelo_inurba_marseille","lat":43.25929,"lon":5.40904,"is_reserved":false,"is_disabled":false,"rental_uris":{"android":"levelo://app?vid=9397a9f3-9f96-4b91-ad51-8ffa68a2aeb8","ios":"levelo://app?vid=9397a9f3-9f96-4b91-ad51-8ffa68a2aeb8"},"vehicle_type_id":"4","last_reported":1735433516,"current_range_meters":38800,"station_id":"ce4bhm92rcd13ifvqglg","pricing_plan_id":"cebpf4jnsgd1na2vs0mg"},{"bike_id":"b1c0ee8d-93e8-4cc8-82d6-c539d877336e","system_id":"levelo_inurba_marseille","lat":43.24403,"lon":5.37039,"is_reserved":false,"is_disabled":false,"rental_uris":{"android":"levelo://app?vid=b1c0ee8d-93e8-4cc8-82d6-c539d877336e","ios":"levelo://app?vid=b1c0ee8d-93e8-4cc8-82d6-c539d877336e"},"vehicle_type_id":"4","last_reported":1735433516,"current_range_meters":37600,"station_id":"ce4bhhh2rcd13ifvqfk0","pricing_plan_id":"cebpf4jnsgd1na2vs0mg"},{"bike_id":"e6d4b05e-c0c1-475b-859b-26539b7e3cbf","system_id":"levelo_inurba_marseille","lat":43.28717,"lon":5.37934,"is_reserved":false,"is_disabled":false,"rental_uris":{"android":"levelo://app?vid=e6d4b05e-c0c1-475b-859b-26539b7e3cbf","ios":"levelo://app?vid=e6d4b05e-c0c1-475b-859b-26539b7e3cbf"},"vehicle_type_id":"4","last_reported":1735433516,"current_range_meters":38800,"station_id":"ce4bh9p2rcd13ifvqec0","pricing_plan_id":"cebpf4jnsgd1na2vs0mg"},{"bike_id":"b59c2b9b-2b70-4d18-a0f4-0864f501dcb7","system_id":"levelo_inurba_marseille","lat":43.3111,"lon":5.37773,"is_reserved":false,"is_disabled":false,"rental_uris":{"android":"levelo://app?vid=b59c2b9b-2b70-4d18-a0f4-0864f501dcb7","ios":"levelo://app?vid=b59c2b9b-2b70-4d18-a0f4-0864f501dcb7"},"vehicle_type_id":"4","last_reported":1735433516,"current_range_meters":24400,"station_id":"ce4bgt92rcd13ifvqcg0","pricing_plan_id":"cebpf4jnsgd1na2vs0mg"},{"bike_id":"92dd54a8-6297-48ae-9237-9bdc79ec15c4","system_id":"levelo_inurba_marseille","lat":43.281058,"lon":5.37836,"is_reserved":false,"is_disabled":false,"rental_uris":{"android":"levelo://app?vid=92dd54a8-6297-48ae-9237-9bdc79ec15c4","ios":"levelo://app?vid=92dd54a8-6297-48ae-9237-9bdc79ec15c4"},"vehicle_type_id":"4","last_reported":1735433516,"current_range_meters":38000,"station_id":"ce4bha12rcd13ifvqee0","pricing_plan_id":"cebpf4jnsgd1na2vs0mg"},{"bike_id":"985ed8ed-3d7d-4e7b-94dc-c835e2cdf888","system_id":"levelo_inurba_marseille","lat":43.29308,"lon":5.3747,"is_reserved":false,"is_disabled":false,"rental_uris":{"android":"levelo://app?vid=985ed8ed-3d7d-4e7b-94dc-c835e2cdf888","ios":"levelo://app?vid=985ed8ed-3d7d-4e7b-94dc-c835e2cdf888"},"vehicle_type_id":"4","last_reported":1735433516,"current_range_meters":38800,"station_id":"ce4bgi12rcd13ifvqb70","pricing_plan_id":"cebpf4jnsgd1na2vs0mg"},{"bike_id":"cf9ecf03-93d1-4a63-a732-45c22e46698e","system_id":"levelo_inurba_marseille","lat":43.25742,"lon":5.41098,"is_reserved":false,"is_disabled":false,"rental_uris":{"android":"levelo://app?vid=cf9ecf03-93d1-4a63-a732-45c22e46698e","ios":"levelo://app?vid=cf9ecf03-93d1-4a63-a732-45c22e46698e"},"vehicle_type_id":"4","last_reported":1735433516,"current_range_meters":38800,"station_id":"ce4bhkp2rcd13ifvqgd0","pricing_plan_id":"cebpf4jnsgd1na2vs0mg"},{"bike_id":"5e2e67f6-8855-4a1a-a193-10c8e793ffd7","system_id":"levelo_inurba_marseille","lat":43.24086,"lon":5.37749,"is_reserved":false,"is_disabled":false,"rental_uris":{"android":"levelo://app?vid=5e2e67f6-8855-4a1a-a193-10c8e793ffd7","ios":"levelo://app?vid=5e2e67f6-8855-4a1a-a193-10c8e793ffd7"},"vehicle_type_id":"4","last_reported":1735433516,"current_range_meters":12000,"station_id":"ce4bhnp2rcd13ifvqgvg","pricing_plan_id":"cebpf4jnsgd1na2vs0mg"},{"bike_id":"c8596511-a927-487e-87f2-1f7eb3dfb39e","system_id":"levelo_inurba_marseille","lat":43.25581,"lon":5.38235,"is_reserved":false,"is_disabled":false,"rental_uris":{"android":"levelo://app?vid=c8596511-a927-487e-87f2-1f7eb3dfb39e","ios":"levelo://app?vid=c8596511-a927-487e-87f2-1f7eb3dfb39e"},"vehicle_type_id":"4","last_reported":1735433516,"current_range_meters":18800,"station_id":"ce4bhih2rcd13ifvqfs0","pricing_plan_id":"cebpf4jnsgd1na2vs0mg"},{"bike_id":"ae9b6908-7454-4899-a4fc-b8e9335bda92","system_id":"levelo_inurba_marseille","lat":43.31776,"lon":5.38994,"is_reserved":false,"is_disabled":false,"rental_uris":{"android":"levelo://app?vid=ae9b6908-7454-4899-a4fc-b8e9335bda92","ios":"levelo://app?vid=ae9b6908-7454-4899-a4fc-b8e9335bda92"},"vehicle_type_id":"4","last_reported":1735433516,"current_range_meters":38800,"station_id":"ce4bhqp2rcd13ifvqhng","pricing_plan_id":"cebpf4jnsgd1na2vs0mg"},{"bike_id":"27001726-4b0a-4ba0-8261-5a303bdee373","system_id":"levelo_inurba_marseille","lat":43.2758,"lon":5.38401,"is_reserved":false,"is_disabled":false,"rental_uris":{"android":"levelo://app?vid=27001726-4b0a-4ba0-8261-5a303bdee373","ios":"levelo://app?vid=27001726-4b0a-4ba0-8261-5a303bdee373"},"vehicle_type_id":"4","last_reported":1735433516,"current_range_meters":38800,"station_id":"ce4bhh92rcd13ifvqfi0","pricing_plan_id":"cebpf4jnsgd1na2vs0mg"},{"bike_id":"f821925e-3304-41cf-9231-baea52712b70","system_id":"levelo_inurba_marseille","lat":43.31487,"lon":5.37296,"is_reserved":false,"is_disabled":false,"rental_uris":{"android":"levelo://app?vid=f821925e-3304-41cf-9231-baea52712b70","ios":"levelo://app?vid=f821925e-3304-41cf-9231-baea52712b70"},"vehicle_type_id":"4","last_reported":1735433516,"current_range_meters":37600,"station_id":"ce4bgt12rcd13ifvqcd0","pricing_plan_id":"cebpf4jnsgd1na2vs0mg"},{"bike_id":"7f2c0d20-0bda-4b30-8461-9e68485c94c4","system_id":"levelo_inurba_marseille","lat":43.29579,"lon":5.3752,"is_reserved":false,"is_disabled":false,"rental_uris":{"android":"levelo://app?vid=7f2c0d20-0bda-4b30-8461-9e68485c94c4","ios":"levelo://app?vid=7f2c0d20-0bda-4b30-8461-9e68485c94c4"},"vehicle_type_id":"4","last_reported":1735433516,"current_range_meters":34000,"station_id":"ce4bgh92rcd13ifvqb50","pricing_plan_id":"cebpf4jnsgd1na2vs0mg"},{"bike_id":"9925f51a-d18b-45b4-85cc-29e16c4b5245","system_id":"levelo_inurba_marseille","lat":43.30545,"lon":5.38434,"is_reserved":false,"is_disabled":false,"rental_uris":{"android":"levelo://app?vid=9925f51a-d18b-45b4-85cc-29e16c4b5245","ios":"levelo://app?vid=9925f51a-d18b-45b4-85cc-29e16c4b5245"},"vehicle_type_id":"4","last_reported":1735433516,"current_range_meters":33200,"station_id":"ce4bgg92rcd13ifvqb30","pricing_plan_id":"cebpf4jnsgd1na2vs0mg"},{"bike_id":"5f8ee9c5-4e33-43ee-b8aa-ac908ba0aac5","system_id":"levelo_inurba_marseille","lat":43.27496,"lon":5.42446,"is_reserved":false,"is_disabled":false,"rental_uris":{"android":"levelo://app?vid=5f8ee9c5-4e33-43ee-b8aa-ac908ba0aac5","ios":"levelo://app?vid=5f8ee9c5-4e33-43ee-b8aa-ac908ba0aac5"},"vehicle_type_id":"4","last_reported":1735433516,"current_range_meters":27600,"station_id":"ce4bhn92rcd13ifvqgrg","pricing_plan_id":"cebpf4jnsgd1na2vs0mg"},{"bike_id":"865504b2-84d5-4346-b281-5074eb78a914","system_id":"levelo_inurba_marseille","lat":43.29436,"lon":5.39739,"is_reserved":false,"is_disabled":false,"rental_uris":{"android":"levelo://app?vid=865504b2-84d5-4346-b281-5074eb78a914","ios":"levelo://app?vid=865504b2-84d5-4346-b281-5074eb78a914"},"vehicle_type_id":"4","last_reported":1735433516,"current_range_meters":38400,"station_id":"ce4bh3h2rcd13ifvqdo0","pricing_plan_id":"cebpf4jnsgd1na2vs0mg"},{"bike_id":"1560d899-203a-414b-9dd8-6d05efff7eee","system_id":"levelo_inurba_marseille","lat":43.276763,"lon":5.389083,"is_reserved":false,"is_disabled":false,"rental_uris":{"android":"levelo://app?vid=1560d899-203a-414b-9dd8-6d05efff7eee","ios":"levelo://app?vid=1560d899-203a-414b-9dd8-6d05efff7eee"},"vehicle_type_id":"4","last_reported":1735433516,"current_range_meters":8400,"station_id":"ce4bhi12rcd13ifvqfo0","pricing_plan_id":"cebpf4jnsgd1na2vs0mg"},{"bike_id":"c4fd707c-d047-48ec-b77f-f5859c2695cf","system_id":"levelo_inurba_marseille","lat":43.29252,"lon":5.40902,"is_reserved":false,"is_disabled":false,"rental_uris":{"android":"levelo://app?vid=c4fd707c-d047-48ec-b77f-f5859c2695cf","ios":"levelo://app?vid=c4fd707c-d047-48ec-b77f-f5859c2695cf"},"vehicle_type_id":"4","last_reported":1735433516,"current_range_meters":30800,"station_id":"ce4bh192rcd13ifvqdc0","pricing_plan_id":"cebpf4jnsgd1na2vs0mg"},{"bike_id":"7eeb53ca-6ac6-4389-9214-110ac78b2c17","system_id":"levelo_inurba_marseille","lat":43.30657,"lon":5.400674,"is_reserved":false,"is_disabled":false,"rental_uris":{"android":"levelo://app?vid=7eeb53ca-6ac6-4389-9214-110ac78b2c17","ios":"levelo://app?vid=7eeb53ca-6ac6-4389-9214-110ac78b2c17"},"vehicle_type_id":"4","last_reported":1735433516,"current_range_meters":39200,"station_id":"ce4bh112rcd13ifvqda0","pricing_plan_id":"cebpf4jnsgd1na2vs0mg"},{"bike_id":"c9e5d6c6-5601-4769-be5c-20fef93ca121","system_id":"levelo_inurba_marseille","lat":43.241682,"lon":5.363882,"is_reserved":false,"is_disabled":false,"rental_uris":{"android":"levelo://app?vid=c9e5d6c6-5601-4769-be5c-20fef93ca121","ios":"levelo://app?vid=c9e5d6c6-5601-4769-be5c-20fef93ca121"},"vehicle_type_id":"4","last_reported":1735433516,"current_range_meters":14800,"station_id":"cpo36qri1sfpv3e86is0","pricing_plan_id":"cebpf4jnsgd1na2vs0mg"},{"bike_id":"e23a7d55-7ce1-4f20-a71a-26c06c907d82","system_id":"levelo_inurba_marseille","lat":43.27945,"lon":5.41043,"is_reserved":false,"is_disabled":false,"rental_uris":{"android":"levelo://app?vid=e23a7d55-7ce1-4f20-a71a-26c06c907d82","ios":"levelo://app?vid=e23a7d55-7ce1-4f20-a71a-26c06c907d82"},"vehicle_type_id":"4","last_reported":1735433516,"current_range_meters":38000,"station_id":"ce4bhnp2rcd13ifvqh0g","pricing_plan_id":"cebpf4jnsgd1na2vs0mg"},{"bike_id":"b0c4d0d6-5451-4daa-af56-54957229db80","system_id":"levelo_inurba_marseille","lat":43.32366,"lon":5.36758,"is_reserved":false,"is_disabled":false,"rental_uris":{"android":"levelo://app?vid=b0c4d0d6-5451-4daa-af56-54957229db80","ios":"levelo://app?vid=b0c4d0d6-5451-4daa-af56-54957229db80"},"vehicle_type_id":"4","last_reported":1735433516,"current_range_meters":37600,"station_id":"ce4bhsh2rcd13ifvqi2g","pricing_plan_id":"cebpf4jnsgd1na2vs0mg"},{"bike_id":"5367a292-5564-4681-91cd-97babb89fc00","system_id":"levelo_inurba_marseille","lat":43.22947,"lon":5.35408,"is_reserved":false,"is_disabled":false,"rental_uris":{"android":"levelo://app?vid=5367a292-5564-4681-91cd-97babb89fc00","ios":"levelo://app?vid=5367a292-5564-4681-91cd-97babb89fc00"},"vehicle_type_id":"4","last_reported":1735433516,"current_range_meters":38800,"station_id":"cpo3532slgdg3j2ikp40","pricing_plan_id":"cebpf4jnsgd1na2vs0mg"},{"bike_id":"b63b9eb6-fafc-4c7c-ad91-57273b105b52","system_id":"levelo_inurba_marseille","lat":43.29899,"lon":5.3815,"is_reserved":false,"is_disabled":false,"rental_uris":{"android":"levelo://app?vid=b63b9eb6-fafc-4c7c-ad91-57273b105b52","ios":"levelo://app?vid=b63b9eb6-fafc-4c7c-ad91-57273b105b52"},"vehicle_type_id":"4","last_reported":1735433516,"current_range_meters":38000,"station_id":"ce4bgj12rcd13ifvqbc0","pricing_plan_id":"cebpf4jnsgd1na2vs0mg"},{"bike_id":"eea9a291-5bfa-4e24-9cae-5655da129e69","system_id":"levelo_inurba_marseille","lat":43.30646,"lon":5.40076,"is_reserved":false,"is_disabled":false,"rental_uris":{"android":"levelo://app?vid=eea9a291-5bfa-4e24-9cae-5655da129e69","ios":"levelo://app?vid=eea9a291-5bfa-4e24-9cae-5655da129e69"},"vehicle_type_id":"4","last_reported":1735433516,"current_range_meters":38800,"station_id":"ce4bh112rcd13ifvqda0","pricing_plan_id":"cebpf4jnsgd1na2vs0mg"},{"bike_id":"5c02046d-1ad7-4bbf-8c51-bc86c793dce3","system_id":"levelo_inurba_marseille","lat":43.24071,"lon":5.37761,"is_reserved":false,"is_disabled":false,"rental_uris":{"android":"levelo://app?vid=5c02046d-1ad7-4bbf-8c51-bc86c793dce3","ios":"levelo://app?vid=5c02046d-1ad7-4bbf-8c51-bc86c793dce3"},"vehicle_type_id":"4","last_reported":1735433516,"current_range_meters":38800,"station_id":"ce4bhnp2rcd13ifvqgvg","pricing_plan_id":"cebpf4jnsgd1na2vs0mg"},{"bike_id":"af10e129-04e6-4262-8e34-7b4f92e8696a","system_id":"levelo_inurba_marseille","lat":43.28373,"lon":5.38129,"is_reserved":false,"is_disabled":false,"rental_uris":{"android":"levelo://app?vid=af10e129-04e6-4262-8e34-7b4f92e8696a","ios":"levelo://app?vid=af10e129-04e6-4262-8e34-7b4f92e8696a"},"vehicle_type_id":"4","last_reported":1735433516,"current_range_meters":38000,"station_id":"ce4bh412rcd13ifvqdr0","pricing_plan_id":"cebpf4jnsgd1na2vs0mg"},{"bike_id":"50a3e1ef-3112-43ba-899d-0c8245e0b2c8","system_id":"levelo_inurba_marseille","lat":43.27811,"lon":5.40711,"is_reserved":false,"is_disabled":false,"rental_uris":{"android":"levelo://app?vid=50a3e1ef-3112-43ba-899d-0c8245e0b2c8","ios":"levelo://app?vid=50a3e1ef-3112-43ba-899d-0c8245e0b2c8"},"vehicle_type_id":"4","last_reported":1735433516,"current_range_meters":7200,"station_id":"ce4bhnh2rcd13ifvqgtg","pricing_plan_id":"cebpf4jnsgd1na2vs0mg"},{"bike_id":"0ae1d3b3-a9fe-46c7-ae33-ae19cf9920f9","system_id":"levelo_inurba_marseille","lat":43.25118,"lon":5.40348,"is_reserved":false,"is_disabled":false,"rental_uris":{"android":"levelo://app?vid=0ae1d3b3-a9fe-46c7-ae33-ae19cf9920f9","ios":"levelo://app?vid=0ae1d3b3-a9fe-46c7-ae33-ae19cf9920f9"},"vehicle_type_id":"4","last_reported":1735433516,"current_range_meters":24000,"station_id":"ce4bhlh2rcd13ifvqgig","pricing_plan_id":"cebpf4jnsgd1na2vs0mg"},{"bike_id":"e8dd34c9-6e3b-4bd0-a4ea-a3dc8a2f5c17","system_id":"levelo_inurba_marseille","lat":43.31508,"lon":5.37285,"is_reserved":false,"is_disabled":false,"rental_uris":{"android":"levelo://app?vid=e8dd34c9-6e3b-4bd0-a4ea-a3dc8a2f5c17","ios":"levelo://app?vid=e8dd34c9-6e3b-4bd0-a4ea-a3dc8a2f5c17"},"vehicle_type_id":"4","last_reported":1735433516,"current_range_meters":28400,"station_id":"ce4bgt12rcd13ifvqcd0","pricing_plan_id":"cebpf4jnsgd1na2vs0mg"},{"bike_id":"3bb6c0a3-c27d-4867-bf76-4190ca2b375a","system_id":"levelo_inurba_marseille","lat":43.26192,"lon":5.3746,"is_reserved":false,"is_disabled":false,"rental_uris":{"android":"levelo://app?vid=3bb6c0a3-c27d-4867-bf76-4190ca2b375a","ios":"levelo://app?vid=3bb6c0a3-c27d-4867-bf76-4190ca2b375a"},"vehicle_type_id":"4","last_reported":1735433516,"current_range_meters":28000,"station_id":"ce4bhgp2rcd13ifvqfc0","pricing_plan_id":"cebpf4jnsgd1na2vs0mg"},{"bike_id":"aee1df5a-e1a7-4198-8e9a-8af139d05686","system_id":"levelo_inurba_marseille","lat":43.29366,"lon":5.37842,"is_reserved":false,"is_disabled":false,"rental_uris":{"android":"levelo://app?vid=aee1df5a-e1a7-4198-8e9a-8af139d05686","ios":"levelo://app?vid=aee1df5a-e1a7-4198-8e9a-8af139d05686"},"vehicle_type_id":"4","last_reported":1735433516,"current_range_meters":38800,"station_id":"ce4bgjh2rcd13ifvqbf0","pricing_plan_id":"cebpf4jnsgd1na2vs0mg"},{"bike_id":"aa84b285-16b2-4b70-a598-6982866d3689","system_id":"levelo_inurba_marseille","lat":43.29171,"lon":5.37153,"is_reserved":false,"is_disabled":false,"rental_uris":{"android":"levelo://app?vid=aa84b285-16b2-4b70-a598-6982866d3689","ios":"levelo://app?vid=aa84b285-16b2-4b70-a598-6982866d3689"},"vehicle_type_id":"4","last_reported":1735433516,"current_range_meters":18000,"station_id":"ce4bha92rcd13ifvqeh0","pricing_plan_id":"cebpf4jnsgd1na2vs0mg"},{"bike_id":"9da6422d-bebb-40a9-a854-a23b31415f24","system_id":"levelo_inurba_marseille","lat":43.28716,"lon":5.3998,"is_reserved":false,"is_disabled":false,"rental_uris":{"android":"levelo://app?vid=9da6422d-bebb-40a9-a854-a23b31415f24","ios":"levelo://app?vid=9da6422d-bebb-40a9-a854-a23b31415f24"},"vehicle_type_id":"4","last_reported":1735433516,"current_range_meters":12400,"station_id":"ce4bho92rcd13ifvqh3g","pricing_plan_id":"cebpf4jnsgd1na2vs0mg"},{"bike_id":"6a29575b-1e36-49ac-86ce-fd989f52fc91","system_id":"levelo_inurba_marseille","lat":43.25828,"lon":5.39437,"is_reserved":false,"is_disabled":false,"rental_uris":{"android":"levelo://app?vid=6a29575b-1e36-49ac-86ce-fd989f52fc91","ios":"levelo://app?vid=6a29575b-1e36-49ac-86ce-fd989f52fc91"},"vehicle_type_id":"4","last_reported":1735433516,"current_range_meters":30400,"station_id":"ce4bhip2rcd13ifvqft0","pricing_plan_id":"cebpf4jnsgd1na2vs0mg"},{"bike_id":"0af144d3-8ed3-43d9-b3cb-2413587223bd","system_id":"levelo_inurba_marseille","lat":43.30781,"lon":5.37651,"is_reserved":false,"is_disabled":false,"rental_uris":{"android":"levelo://app?vid=0af144d3-8ed3-43d9-b3cb-2413587223bd","ios":"levelo://app?vid=0af144d3-8ed3-43d9-b3cb-2413587223bd"},"vehicle_type_id":"4","last_reported":1735433516,"current_range_meters":37600,"station_id":"ce4bgv92rcd13ifvqcq0","pricing_plan_id":"cebpf4jnsgd1na2vs0mg"},{"bike_id":"f0077348-7794-4c44-b497-994ee37381b0","system_id":"levelo_inurba_marseille","lat":43.28371,"lon":5.38648,"is_reserved":false,"is_disabled":false,"rental_uris":{"android":"levelo://app?vid=f0077348-7794-4c44-b497-994ee37381b0","ios":"levelo://app?vid=f0077348-7794-4c44-b497-994ee37381b0"},"vehicle_type_id":"4","last_reported":1735433516,"current_range_meters":28800,"station_id":"ce4bh492rcd13ifvqdvg","pricing_plan_id":"cebpf4jnsgd1na2vs0mg"},{"bike_id":"5cbd32e6-7fc0-4d1a-9262-b1453f12f3f3","system_id":"levelo_inurba_marseille","lat":43.28724,"lon":5.3609,"is_reserved":false,"is_disabled":false,"rental_uris":{"android":"levelo://app?vid=5cbd32e6-7fc0-4d1a-9262-b1453f12f3f3","ios":"levelo://app?vid=5cbd32e6-7fc0-4d1a-9262-b1453f12f3f3"},"vehicle_type_id":"4","last_reported":1735433516,"current_range_meters":26800,"station_id":"cki0cbj6b192h4jlfktg","pricing_plan_id":"cebpf4jnsgd1na2vs0mg"},{"bike_id":"7ddb5dff-5374-463b-b779-7fa95712fb46","system_id":"levelo_inurba_marseille","lat":43.31129,"lon":5.37761,"is_reserved":false,"is_disabled":false,"rental_uris":{"android":"levelo://app?vid=7ddb5dff-5374-463b-b779-7fa95712fb46","ios":"levelo://app?vid=7ddb5dff-5374-463b-b779-7fa95712fb46"},"vehicle_type_id":"4","last_reported":1735433516,"current_range_meters":38800,"station_id":"ce4bgt92rcd13ifvqcg0","pricing_plan_id":"cebpf4jnsgd1na2vs0mg"},{"bike_id":"6381aefa-cca5-4bb8-8e97-94b4d9e28caa","system_id":"levelo_inurba_marseille","lat":43.32345,"lon":5.4062,"is_reserved":false,"is_disabled":false,"rental_uris":{"android":"levelo://app?vid=6381aefa-cca5-4bb8-8e97-94b4d9e28caa","ios":"levelo://app?vid=6381aefa-cca5-4bb8-8e97-94b4d9e28caa"},"vehicle_type_id":"4","last_reported":1735433516,"current_range_meters":38800,"station_id":"ce4bhq92rcd13ifvqhjg","pricing_plan_id":"cebpf4jnsgd1na2vs0mg"},{"bike_id":"392eab52-06c1-42e0-bb9f-7f2ccf60606f","system_id":"levelo_inurba_marseille","lat":43.26194,"lon":5.37454,"is_reserved":false,"is_disabled":false,"rental_uris":{"android":"levelo://app?vid=392eab52-06c1-42e0-bb9f-7f2ccf60606f","ios":"levelo://app?vid=392eab52-06c1-42e0-bb9f-7f2ccf60606f"},"vehicle_type_id":"4","last_reported":1735433516,"current_range_meters":20000,"station_id":"ce4bhgp2rcd13ifvqfc0","pricing_plan_id":"cebpf4jnsgd1na2vs0mg"},{"bike_id":"dac94ecf-3203-4c89-acc0-21c14e979588","system_id":"levelo_inurba_marseille","lat":43.266823,"lon":5.382697,"is_reserved":false,"is_disabled":false,"rental_uris":{"android":"levelo://app?vid=dac94ecf-3203-4c89-acc0-21c14e979588","ios":"levelo://app?vid=dac94ecf-3203-4c89-acc0-21c14e979588"},"vehicle_type_id":"4","last_reported":1735433516,"current_range_meters":29600,"station_id":"ce4bhg92rcd13ifvqf90","pricing_plan_id":"cebpf4jnsgd1na2vs0mg"},{"bike_id":"a79b7af7-122b-4816-9af7-43ab92fd3a76","system_id":"levelo_inurba_marseille","lat":43.306,"lon":5.39375,"is_reserved":false,"is_disabled":false,"rental_uris":{"android":"levelo://app?vid=a79b7af7-122b-4816-9af7-43ab92fd3a76","ios":"levelo://app?vid=a79b7af7-122b-4816-9af7-43ab92fd3a76"},"vehicle_type_id":"4","last_reported":1735433516,"current_range_meters":33600,"station_id":"ce4bh0p2rcd13ifvqd80","pricing_plan_id":"cebpf4jnsgd1na2vs0mg"},{"bike_id":"05e7b36a-4752-4e38-b866-674cfd74ea0b","system_id":"levelo_inurba_marseille","lat":43.29523,"lon":5.39404,"is_reserved":false,"is_disabled":false,"rental_uris":{"android":"levelo://app?vid=05e7b36a-4752-4e38-b866-674cfd74ea0b","ios":"levelo://app?vid=05e7b36a-4752-4e38-b866-674cfd74ea0b"},"vehicle_type_id":"4","last_reported":1735433516,"current_range_meters":38000,"station_id":"ce4bh292rcd13ifvqdf0","pricing_plan_id":"cebpf4jnsgd1na2vs0mg"},{"bike_id":"d787e330-e288-4e1c-926a-5bcb7a236ca2","system_id":"levelo_inurba_marseille","lat":43.281506,"lon":5.426438,"is_reserved":false,"is_disabled":false,"rental_uris":{"android":"levelo://app?vid=d787e330-e288-4e1c-926a-5bcb7a236ca2","ios":"levelo://app?vid=d787e330-e288-4e1c-926a-5bcb7a236ca2"},"vehicle_type_id":"4","last_reported":1735433516,"current_range_meters":26000,"station_id":"ce4bhnh2rcd13ifvqgug","pricing_plan_id":"cebpf4jnsgd1na2vs0mg"},{"bike_id":"bc07a130-a398-4275-a70f-6a4ce60282d6","system_id":"levelo_inurba_marseille","lat":43.3031,"lon":5.36901,"is_reserved":false,"is_disabled":false,"rental_uris":{"android":"levelo://app?vid=bc07a130-a398-4275-a70f-6a4ce60282d6","ios":"levelo://app?vid=bc07a130-a398-4275-a70f-6a4ce60282d6"},"vehicle_type_id":"4","last_reported":1735433516,"current_range_meters":39200,"station_id":"ce4bgqh2rcd13ifvqc5g","pricing_plan_id":"cebpf4jnsgd1na2vs0mg"},{"bike_id":"ca42594c-4c0a-4080-98d3-9312d00d8df7","system_id":"levelo_inurba_marseille","lat":43.23094,"lon":5.35523,"is_reserved":false,"is_disabled":false,"rental_uris":{"android":"levelo://app?vid=ca42594c-4c0a-4080-98d3-9312d00d8df7","ios":"levelo://app?vid=ca42594c-4c0a-4080-98d3-9312d00d8df7"},"vehicle_type_id":"4","last_reported":1735433516,"current_range_meters":9600,"station_id":"cpo3342slgdg3j2ifvpg","pricing_plan_id":"cebpf4jnsgd1na2vs0mg"},{"bike_id":"c08daccd-9b4c-4b76-a69c-de43c8a37003","system_id":"levelo_inurba_marseille","lat":43.29939,"lon":5.36534,"is_reserved":false,"is_disabled":false,"rental_uris":{"android":"levelo://app?vid=c08daccd-9b4c-4b76-a69c-de43c8a37003","ios":"levelo://app?vid=c08daccd-9b4c-4b76-a69c-de43c8a37003"},"vehicle_type_id":"4","last_reported":1735433516,"current_range_meters":11600,"station_id":"ce4bgm92rcd13ifvqbr0","pricing_plan_id":"cebpf4jnsgd1na2vs0mg"},{"bike_id":"2fc30ed6-020c-4eac-9373-0023079d58af","system_id":"levelo_inurba_marseille","lat":43.30139,"lon":5.37406,"is_reserved":false,"is_disabled":false,"rental_uris":{"android":"levelo://app?vid=2fc30ed6-020c-4eac-9373-0023079d58af","ios":"levelo://app?vid=2fc30ed6-020c-4eac-9373-0023079d58af"},"vehicle_type_id":"4","last_reported":1735433516,"current_range_meters":36000,"station_id":"ce4bgs92rcd13ifvqcc0","pricing_plan_id":"cebpf4jnsgd1na2vs0mg"},{"bike_id":"c5f9d832-95a0-462d-964e-f839e239b5da","system_id":"levelo_inurba_marseille","lat":43.25728,"lon":5.41108,"is_reserved":false,"is_disabled":false,"rental_uris":{"android":"levelo://app?vid=c5f9d832-95a0-462d-964e-f839e239b5da","ios":"levelo://app?vid=c5f9d832-95a0-462d-964e-f839e239b5da"},"vehicle_type_id":"4","last_reported":1735433516,"current_range_meters":12800,"station_id":"ce4bhkp2rcd13ifvqgd0","pricing_plan_id":"cebpf4jnsgd1na2vs0mg"},