{"last_updated":1744121412,"ttl":60,"version":"2.2","data":{"bikes":[{"bike_id":"715a65c0-4e50-4c8d-8743-fc3fd80d2a34","system_id":"levelo_inurba_marseille","lat":43.28419,"lon":5.34982,"is_reserved":false,"is_disabled":false,"rental_uris":{"android":"levelo://app?vid=715a65c0-4e50-4c8d-8743-fc3fd80d2a34","ios":"levelo://app?vid=715a65c0-4e50-4c8d-8743-fc3fd80d2a34"},"vehicle_type_id":"4","last_reported":1744121412,"current_range_meters":2800,"station_id":"ce4bhbh2rcd13ifvqepg","pricing_plan_id":"cebpf4jnsgd1na2vs0mg"},{"bike_id":"042c3d9d-61ec-4f5e-a42a-1ad591df516f","system_id":"levelo_inurba_marseille","lat":43.26211,"lon":5.37443,"is_reserved":false,"is_disabled":false,"rental_uris":{"android":"levelo://app?vid=042c3d9d-61ec-4f5e-a42a-1ad591df516f","ios":"levelo://app?vid=042c3d9d-61ec-4f5e-a42a-1ad591df516f"},"vehicle_type_id":"4","last_reported":1744121412,"current_range_meters":2800,"station_id":"ce4bhgp2rcd13ifvqfc0","pricing_plan_id":"cebpf4jnsgd1na2vs0mg"},{"bike_id":"d5f104fc-3d4c-4ac0-b425-43333aff74f2","system_id":"levelo_inurba_marseille","lat":43.26189,"lon":5.37448,"is_reserved":false,"is_disabled":false,"rental_uris":{"android":"levelo://app?vid=d5f104fc-3d4c-4ac0-b425-43333aff74f2","ios":"levelo://app?vid=d5f104fc-3d4c-4ac0-b425-43333aff74f2"},"vehicle_type_id":"4","last_reported":1744121412,"current_range_meters":2800,"station_id":"ce4bhgp2rcd13ifvqfc0","pricing_plan_id":"cebpf4jnsgd1na2vs0mg"},{"bike_id":"60ca4ed0-4270-4e6a-add1-0effcea8c2b2","system_id":"levelo_inurba_marseille","lat":43.21192,"lon":5.35074,"is_reserved":false,"is_disabled":false,"rental_uris":{"android":"levelo://app?vid=60ca4ed0-4270-4e6a-add1-0effcea8c2b2","ios":"levelo://app?vid=60ca4ed0-4270-4e6a-add1-0effcea8c2b2"},"vehicle_type_id":"4","last_reported":1744121412,"current_range_meters":3200,"station_id":"st_cvj6sg6p6f1abm77japg","pricing_plan_id":"cebpf4jnsgd1na2vs0mg"},{"bike_id":"1309b156-7294-4d56-9a45-771ba8fa4fc1","system_id":"levelo_inurba_marseille","lat":43.29074,"lon":5.37178,"is_reserved":false,"is_disabled":false,"rental_uris":{"android":"levelo://app?vid=1309b156-7294-4d56-9a45-771ba8fa4fc1","ios":"levelo://app?vid=1309b156-7294-4d56-9a45-771ba8fa4fc1"},"vehicle_type_id":"4","last_reported":1744121412,"current_range_meters":3600,"station_id":"ce4bh5p2rcd13ifvqe4g","pricing_plan_id":"cebpf4jnsgd1na2vs0mg"},{"bike_id":"8e647d2f-fc03-4a3a-8692-e047cb5c2ec0","system_id":"levelo_inurba_marseille","lat":43.28418,"lon":5.37515,"is_reserved":false,"is_disabled":false,"rental_uris":{"android":"levelo://app?vid=8e647d2f-fc03-4a3a-8692-e047cb5c2ec0","ios":"levelo://app?vid=8e647d2f-fc03-4a3a-8692-e047cb5c2ec0"},"vehicle_type_id":"4","last_reported":1744121412,"current_range_meters":3600,"station_id":"ce4bh412rcd13ifvqds0","pricing_plan_id":"cebpf4jnsgd1na2vs0mg"},{"bike_id":"8126cba6-d1e1-4a94-8c76-50a124f169ed","system_id":"levelo_inurba_marseille","lat":43.27207,"lon":5.39177,"is_reserved":false,"is_disabled":false,"rental_uris":{"android":"levelo://app?vid=8126cba6-d1e1-4a94-8c76-50a124f169ed","ios":"levelo://app?vid=8126cba6-d1e1-4a94-8c76-50a124f169ed"},"vehicle_type_id":"4","last_reported":1744121412,"current_range_meters":3600,"station_id":"ce4bhhp2rcd13ifvqfm0","pricing_plan_id":"cebpf4jnsgd1na2vs0mg"},{"bike_id":"25f19322-3940-48f6-9994-30b1cf35b098","system_id":"levelo_inurba_marseille","lat":43.28606,"lon":5.35128,"is_reserved":false,"is_disabled":false,"rental_uris":{"android":"levelo://app?vid=25f19322-3940-48f6-9994-30b1cf35b098","ios":"levelo://app?vid=25f19322-3940-48f6-9994-30b1cf35b098"},"vehicle_type_id":"4","last_reported":1744121412,"current_range_meters":3600,"station_id":"ce4bhch2rcd13ifvqeug","pricing_plan_id":"cebpf4jnsgd1na2vs0mg"},{"bike_id":"d3045b13-ea31-46e1-9d34-d6ac8eb2daa2","system_id":"levelo_inurba_marseille","lat":43.27376,"lon":5.36262,"is_reserved":false,"is_disabled":false,"rental_uris":{"android":"levelo://app?vid=d3045b13-ea31-46e1-9d34-d6ac8eb2daa2","ios":"levelo://app?vid=d3045b13-ea31-46e1-9d34-d6ac8eb2daa2"},"vehicle_type_id":"4","last_reported":1744121412,"current_range_meters":3600,"station_id":"ce4bhbh2rcd13ifvqeo0","pricing_plan_id":"cebpf4jnsgd1na2vs0mg"},{"bike_id":"a959694d-18ce-4d80-917f-23c91ed81065","system_id":"levelo_inurba_marseille","lat":43.29901,"lon":5.43668,"is_reserved":false,"is_disabled":true,"rental_uris":{"android":"levelo://app?vid=a959694d-18ce-4d80-917f-23c91ed81065","ios":"levelo://app?vid=a959694d-18ce-4d80-917f-23c91ed81065"},"vehicle_type_id":"4","last_reported":1744121412,"current_range_meters":3600,"station_id":"ce4bhpp2rcd13ifvqhfg","pricing_plan_id":"cebpf4jnsgd1na2vs0mg"},{"bike_id":"81b4eeec-d26b-4050-a92d-04743fb93072","system_id":"levelo_inurba_marseille","lat":43.231811,"lon":5.399773,"is_reserved":false,"is_disabled":true,"rental_uris":{"android":"levelo://app?vid=81b4eeec-d26b-4050-a92d-04743fb93072","ios":"levelo://app?vid=81b4eeec-d26b-4050-a92d-04743fb93072"},"vehicle_type_id":"4","last_reported":1744121412,"current_range_meters":3600,"station_id":"ce4bhn12rcd13ifvqgqg","pricing_plan_id":"cebpf4jnsgd1na2vs0mg"},{"bike_id":"f69d0db3-876b-4162-b6f4-9aa70a989bbd","system_id":"levelo_inurba_marseille","lat":43.28268,"lon":5.3508,"is_reserved":false,"is_disabled":false,"rental_uris":{"android":"levelo://app?vid=f69d0db3-876b-4162-b6f4-9aa70a989bbd","ios":"levelo://app?vid=f69d0db3-876b-4162-b6f4-9aa70a989bbd"},"vehicle_type_id":"4","last_reported":1744121412,"current_range_meters":3600,"station_id":"ce4bhbp2rcd13ifvqerg","pricing_plan_id":"cebpf4jnsgd1na2vs0mg"},{"bike_id":"ffca35fb-9f06-4972-a98a-693002aa2868","system_id":"levelo_inurba_marseille","lat":43.29514,"lon":5.39034,"is_reserved":false,"is_disabled":false,"rental_uris":{"android":"levelo://app?vid=ffca35fb-9f06-4972-a98a-693002aa2868","ios":"levelo://app?vid=ffca35fb-9f06-4972-a98a-693002aa2868"},"vehicle_type_id":"4","last_reported":1744121412,"current_range_meters":3600,"station_id":"ce4bh3p2rcd13ifvqdp0","pricing_plan_id":"cebpf4jnsgd1na2vs0mg"},{"bike_id":"9d1cb431-750b-4b3f-a24e-4ad2e2ef301a","system_id":"levelo_inurba_marseille","lat":43.31321,"lon":5.39691,"is_reserved":false,"is_disabled":false,"rental_uris":{"android":"levelo://app?vid=9d1cb431-750b-4b3f-a24e-4ad2e2ef301a","ios":"levelo://app?vid=9d1cb431-750b-4b3f-a24e-4ad2e2ef301a"},"vehicle_type_id":"4","last_reported":1744121412,"current_range_meters":4000,"station_id":"ce4bgvp2rcd13ifvqcu0","pricing_plan_id":"cebpf4jnsgd1na2vs0mg"},{"bike_id":"c7eca016-d0ab-4102-9488-6e9cb6e56128","system_id":"levelo_inurba_marseille","lat":43.29573,"lon":5.39965,"is_reserved":false,"is_disabled":false,"rental_uris":{"android":"levelo://app?vid=c7eca016-d0ab-4102-9488-6e9cb6e56128","ios":"levelo://app?vid=c7eca016-d0ab-4102-9488-6e9cb6e56128"},"vehicle_type_id":"4","last_reported":1744121412,"current_range_meters":4000,"station_id":"ce4bh312rcd13ifvqdj0","pricing_plan_id":"cebpf4jnsgd1na2vs0mg"},{"bike_id":"8391fb49-d5d7-4cb2-afbd-9565f53dad12","system_id":"levelo_inurba_marseille","lat":43.282765,"lon":5.35074,"is_reserved":false,"is_disabled":false,"rental_uris":{"android":"levelo://app?vid=8391fb49-d5d7-4cb2-afbd-9565f53dad12","ios":"levelo://app?vid=8391fb49-d5d7-4cb2-afbd-9565f53dad12"},"vehicle_type_id":"4","last_reported":1744121412,"current_range_meters":4400,"station_id":"ce4bhah2rcd13ifvqej0","pricing_plan_id":"cebpf4jnsgd1na2vs0mg"},{"bike_id":"b9431eef-d7e2-4f75-96fa-11dfb4e9c2e3","system_id":"levelo_inurba_marseille","lat":43.28264,"lon":5.35062,"is_reserved":false,"is_disabled":false,"rental_uris":{"android":"levelo://app?vid=b9431eef-d7e2-4f75-96fa-11dfb4e9c2e3","ios":"levelo://app?vid=b9431eef-d7e2-4f75-96fa-11dfb4e9c2e3"},"vehicle_type_id":"4","last_reported":1744121412,"current_range_meters":4400,"station_id":"","pricing_plan_id":"cebpf4jnsgd1na2vs0mg"},{"bike_id":"385c6352-e3ba-4dce-9c4a-e59a544e6998","system_id":"levelo_inurba_marseille","lat":43.28611,"lon":5.35104,"is_reserved":false,"is_disabled":false,"rental_uris":{"android":"levelo://app?vid=385c6352-e3ba-4dce-9c4a-e59a544e6998","ios":"levelo://app?vid=385c6352-e3ba-4dce-9c4a-e59a544e6998"},"vehicle_type_id":"4","last_reported":1744121412,"current_range_meters":4400,"station_id":"ce4bhch2rcd13ifvqeug","pricing_plan_id":"cebpf4jnsgd1na2vs0mg"},{"bike_id":"1bdd2909-77c9-48d1-bb86-de7660d11cf8","system_id":"levelo_inurba_marseille","lat":43.28271,"lon":5.3507,"is_reserved":false,"is_disabled":false,"rental_uris":{"android":"levelo://app?vid=1bdd2909-77c9-48d1-bb86-de7660d11cf8","ios":"levelo://app?vid=1bdd2909-77c9-48d1-bb86-de7660d11cf8"},"vehicle_type_id":"4","last_reported":1744121412,"current_range_meters":4400,"station_id":"ce4bhbp2rcd13ifvqerg","pricing_plan_id":"cebpf4jnsgd1na2vs0mg"},{"bike_id":"e4937fbf-feae-4491-8738-42d2a4fa8526","system_id":"levelo_inurba_marseille","lat":43.26218,"lon":5.37439,"is_reserved":false,"is_disabled":false,"rental_uris":{"android":"levelo://app?vid=e4937fbf-feae-4491-8738-42d2a4fa8526","ios":"levelo://app?vid=e4937fbf-feae-4491-8738-42d2a4fa8526"},"vehicle_type_id":"4","last_reported":1744121412,"current_range_meters":4400,"station_id":"ce4bhgp2rcd13ifvqfc0","pricing_plan_id":"cebpf4jnsgd1na2vs0mg"},{"bike_id":"f3b83e8a-c65f-4f5d-8899-2b84c089f530","system_id":"levelo_inurba_marseille","lat":43.32113,"lon":5.36773,"is_reserved":false,"is_disabled":false,"rental_uris":{"android":"levelo://app?vid=f3b83e8a-c65f-4f5d-8899-2b84c089f530","ios":"levelo://app?vid=f3b83e8a-c65f-4f5d-8899-2b84c089f530"},"vehicle_type_id":"4","last_reported":1744121412,"current_range_meters":4800,"station_id":"ce4bhrh2rcd13ifvqhug","pricing_plan_id":"cebpf4jnsgd1na2vs0mg"},{"bike_id":"c8de488d-150a-4e5c-be5e-2fb651298a29","system_id":"levelo_inurba_marseille","lat":43.290266,"lon":5.386478,"is_reserved":false,"is_disabled":false,"rental_uris":{"android":"levelo://app?vid=c8de488d-150a-4e5c-be5e-2fb651298a29","ios":"levelo://app?vid=c8de488d-150a-4e5c-be5e-2fb651298a29"},"vehicle_type_id":"4","last_reported":1744121412,"current_range_meters":4800,"station_id":"ce4bh4p2rcd13ifvqe0g","pricing_plan_id":"cebpf4jnsgd1na2vs0mg"},{"bike_id":"f94338fd-9e3b-4372-8ee4-831ad6954be2","system_id":"levelo_inurba_marseille","lat":43.2867,"lon":5.36356,"is_reserved":false,"is_disabled":false,"rental_uris":{"android":"levelo://app?vid=f94338fd-9e3b-4372-8ee4-831ad6954be2","ios":"levelo://app?vid=f94338fd-9e3b-4372-8ee4-831ad6954be2"},"vehicle_type_id":"4","last_reported":1744121412,"current_range_meters":4800,"station_id":"ce4bhah2rcd13ifvqej0","pricing_plan_id":"cebpf4jnsgd1na2vs0mg"},{"bike_id":"86ffe40c-7e66-4c4b-9088-52673c3f68d5","system_id":"levelo_inurba_marseille","lat":43.286133,"lon":5.351094,"is_reserved":false,"is_disabled":false,"rental_uris":{"android":"levelo://app?vid=86ffe40c-7e66-4c4b-9088-52673c3f68d5","ios":"levelo://app?vid=86ffe40c-7e66-4c4b-9088-52673c3f68d5"},"vehicle_type_id":"4","last_reported":1744121412,"current_range_meters":5600,"station_id":"ce4bhch2rcd13ifvqeug","pricing_plan_id":"cebpf4jnsgd1na2vs0mg"},{"bike_id":"ad32c025-38d9-4ccd-8c97-69a7e2da72e3","system_id":"levelo_inurba_marseille","lat":43.287169,"lon":5.379309,"is_reserved":false,"is_disabled":false,"rental_uris":{"android":"levelo://app?vid=ad32c025-38d9-4ccd-8c97-69a7e2da72e3","ios":"levelo://app?vid=ad32c025-38d9-4ccd-8c97-69a7e2da72e3"},"vehicle_type_id":"4","last_reported":1744121412,"current_range_meters":5600,"station_id":"ce4bgnh2rcd13ifvqc0g","pricing_plan_id":"cebpf4jnsgd1na2vs0mg"},{"bike_id":"9c247a00-2127-45b8-b99f-950d4ddf6a38","system_id":"levelo_inurba_marseille","lat":43.30146,"lon":5.38095,"is_reserved":false,"is_disabled":false,"rental_uris":{"android":"levelo://app?vid=9c247a00-2127-45b8-b99f-950d4ddf6a38","ios":"levelo://app?vid=9c247a00-2127-45b8-b99f-950d4ddf6a38"},"vehicle_type_id":"4","last_reported":1744121412,"current_range_meters":5600,"station_id":"ce4bgjp2rcd13ifvqbh0","pricing_plan_id":"cebpf4jnsgd1na2vs0mg"},{"bike_id":"3e3172b1-ade3-45cb-9056-a68fd5861276","system_id":"levelo_inurba_marseille","lat":43.2862,"lon":5.35105,"is_reserved":false,"is_disabled":false,"rental_uris":{"android":"levelo://app?vid=3e3172b1-ade3-45cb-9056-a68fd5861276","ios":"levelo://app?vid=3e3172b1-ade3-45cb-9056-a68fd5861276"},"vehicle_type_id":"4","last_reported":1744121412,"current_range_meters":6000,"station_id":"ce4bhch2rcd13ifvqeug","pricing_plan_id":"cebpf4jnsgd1na2vs0mg"},{"bike_id":"abf828e0-bebc-4654-bc93-1d92f449deee","system_id":"levelo_inurba_marseille","lat":43.32279,"lon":5.36732,"is_reserved":false,"is_disabled":false,"rental_uris":{"android":"levelo://app?vid=abf828e0-bebc-4654-bc93-1d92f449deee","ios":"levelo://app?vid=abf828e0-bebc-4654-bc93-1d92f449deee"},"vehicle_type_id":"4","last_reported":1744121412,"current_range_meters":6000,"station_id":"ce4bhsh2rcd13ifvqi2g","pricing_plan_id":"cebpf4jnsgd1na2vs0mg"},{"bike_id":"4fa8044f-e926-4391-82dc-73d182c8bca3","system_id":"levelo_inurba_marseille","lat":43.3132,"lon":5.39698,"is_reserved":false,"is_disabled":false,"rental_uris":{"android":"levelo://app?vid=4fa8044f-e926-4391-82dc-73d182c8bca3","ios":"levelo://app?vid=4fa8044f-e926-4391-82dc-73d182c8bca3"},"vehicle_type_id":"4","last_reported":1744121412,"current_range_meters":6000,"station_id":"ce4bgvp2rcd13ifvqcu0","pricing_plan_id":"cebpf4jnsgd1na2vs0mg"},{"bike_id":"71f0f39e-e688-425c-9fa2-212452674ff5","system_id":"levelo_inurba_marseille","lat":43.30915,"lon":5.37196,"is_reserved":false,"is_disabled":false,"rental_uris":{"android":"levelo://app?vid=71f0f39e-e688-425c-9fa2-212452674ff5","ios":"levelo://app?vid=71f0f39e-e688-425c-9fa2-212452674ff5"},"vehicle_type_id":"4","last_reported":1744121412,"current_range_meters":6000,"station_id":"ce4bguh2rcd13ifvqckg","pricing_plan_id":"cebpf4jnsgd1na2vs0mg"},{"bike_id":"a5ea8bcc-8b6e-4036-844d-683543de99f7","system_id":"levelo_inurba_marseille","lat":43.26781,"lon":5.39417,"is_reserved":false,"is_disabled":false,"rental_uris":{"android":"levelo://app?vid=a5ea8bcc-8b6e-4036-844d-683543de99f7","ios":"levelo://app?vid=a5ea8bcc-8b6e-4036-844d-683543de99f7"},"vehicle_type_id":"4","last_reported":1744121412,"current_range_meters":6400,"station_id":"ce4bhh12rcd13ifvqfg0","pricing_plan_id":"cebpf4jnsgd1na2vs0mg"},{"bike_id":"87bda883-ac94-49fc-94c2-3a86e52b4f97","system_id":"levelo_inurba_marseille","lat":43.307303,"lon":5.38344,"is_reserved":false,"is_disabled":false,"rental_uris":{"android":"levelo://app?vid=87bda883-ac94-49fc-94c2-3a86e52b4f97","ios":"levelo://app?vid=87bda883-ac94-49fc-94c2-3a86e52b4f97"},"vehicle_type_id":"4","last_reported":1744121412,"current_range_meters":6400,"station_id":"","pricing_plan_id":"cebpf4jnsgd1na2vs0mg"},{"bike_id":"3070725d-d407-46fd-82c0-8da7e9760e2b","system_id":"levelo_inurba_marseille","lat":43.27171,"lon":5.40995,"is_reserved":false,"is_disabled":false,"rental_uris":{"android":"levelo://app?vid=3070725d-d407-46fd-82c0-8da7e9760e2b","ios":"levelo://app?vid=3070725d-d407-46fd-82c0-8da7e9760e2b"},"vehicle_type_id":"4","last_reported":1744121412,"current_range_meters":6400,"station_id":"ce4bhl12rcd13ifvqgf0","pricing_plan_id":"cebpf4jnsgd1na2vs0mg"},{"bike_id":"9f58fe17-7445-4171-ab8a-b7da8864df25","system_id":"levelo_inurba_marseille","lat":43.29888,"lon":5.43699,"is_reserved":false,"is_disabled":false,"rental_uris":{"android":"levelo://app?vid=9f58fe17-7445-4171-ab8a-b7da8864df25","ios":"levelo://app?vid=9f58fe17-7445-4171-ab8a-b7da8864df25"},"vehicle_type_id":"4","last_reported":1744121412,"current_range_meters":6400,"station_id":"ce4bhpp2rcd13ifvqhfg","pricing_plan_id":"cebpf4jnsgd1na2vs0mg"},{"bike_id":"cc057f14-b1e1-4dee-b107-8741c01c5964","system_id":"levelo_inurba_marseille","lat":43.32116,"lon":5.36783,"is_reserved":false,"is_disabled":true,"rental_uris":{"android":"levelo://app?vid=cc057f14-b1e1-4dee-b107-8741c01c5964","ios":"levelo://app?vid=cc057f14-b1e1-4dee-b107-8741c01c5964"},"vehicle_type_id":"4","last_reported":1744121412,"current_range_meters":6400,"station_id":"ce4bhrh2rcd13ifvqhug","pricing_plan_id":"cebpf4jnsgd1na2vs0mg"},{"bike_id":"252e6c12-3e63-49da-b6ab-9d85406b6d2d","system_id":"levelo_inurba_marseille","lat":43.28432,"lon":5.34995,"is_reserved":false,"is_disabled":false,"rental_uris":{"android":"levelo://app?vid=252e6c12-3e63-49da-b6ab-9d85406b6d2d","ios":"levelo://app?vid=252e6c12-3e63-49da-b6ab-9d85406b6d2d"},"vehicle_type_id":"4","last_reported":1744121412,"current_range_meters":6800,"station_id":"ce4bhbh2rcd13ifvqepg","pricing_plan_id":"cebpf4jnsgd1na2vs0mg"},{"bike_id":"bd5bc3f1-119c-4bb7-956e-42d530cf8fb8","system_id":"levelo_inurba_marseille","lat":43.2836,"lon":5.38629,"is_reserved":false,"is_disabled":false,"rental_uris":{"android":"levelo://app?vid=bd5bc3f1-119c-4bb7-956e-42d530cf8fb8","ios":"levelo://app?vid=bd5bc3f1-119c-4bb7-956e-42d530cf8fb8"},"vehicle_type_id":"4","last_reported":1744121412,"current_range_meters":13600,"station_id":"ce4bh492rcd13ifvqdvg","pricing_plan_id":"cebpf4jnsgd1na2vs0mg"},{"bike_id":"159779cf-52bd-4b36-a130-092d2c35fb4d","system_id":"levelo_inurba_marseille","lat":43.27378,"lon":5.3625,"is_reserved":false,"is_disabled":false,"rental_uris":{"android":"levelo://app?vid=159779cf-52bd-4b36-a130-092d2c35fb4d","ios":"levelo://app?vid=159779cf-52bd-4b36-a130-092d2c35fb4d"},"vehicle_type_id":"4","last_reported":1744121412,"current_range_meters":6800,"station_id":"ce4bhbh2rcd13ifvqeo0","pricing_plan_id":"cebpf4jnsgd1na2vs0mg"},{"bike_id":"06027a16-f687-449b-8347-6295815589f3","system_id":"levelo_inurba_marseille","lat":43.28435,"lon":5.35001,"is_reserved":false,"is_disabled":false,"rental_uris":{"android":"levelo://app?vid=06027a16-f687-449b-8347-6295815589f3","ios":"levelo://app?vid=06027a16-f687-449b-8347-6295815589f3"},"vehicle_type_id":"4","last_reported":1744121412,"current_range_meters":6800,"station_id":"ce4bhbh2rcd13ifvqepg","pricing_plan_id":"cebpf4jnsgd1na2vs0mg"},{"bike_id":"cd577a70-1285-4212-be14-c738c01c14c9","system_id":"levelo_inurba_marseille","lat":43.33693,"lon":5.39212,"is_reserved":false,"is_disabled":false,"rental_uris":{"android":"levelo://app?vid=cd577a70-1285-4212-be14-c738c01c14c9","ios":"levelo://app?vid=cd577a70-1285-4212-be14-c738c01c14c9"},"vehicle_type_id":"4","last_reported":1744121412,"current_range_meters":6800,"station_id":"ce4bhr92rcd13ifvqhsg","pricing_plan_id":"cebpf4jnsgd1na2vs0mg"},{"bike_id":"19ea3453-876d-4cc9-a4c9-814320109266","system_id":"levelo_inurba_marseille","lat":43.269332,"lon":5.402401,"is_reserved":false,"is_disabled":false,"rental_uris":{"android":"levelo://app?vid=19ea3453-876d-4cc9-a4c9-814320109266","ios":"levelo://app?vid=19ea3453-876d-4cc9-a4c9-814320109266"},"vehicle_type_id":"4","last_reported":1744121412,"current_range_meters":6800,"station_id":"cjm6bp8fraef2m0cb0m0","pricing_plan_id":"cebpf4jnsgd1na2vs0mg"},{"bike_id":"08b4192b-6f7a-42c9-8227-1854d64540a6","system_id":"levelo_inurba_marseille","lat":43.301894,"lon":5.380705,"is_reserved":false,"is_disabled":false,"rental_uris":{"android":"levelo://app?vid=08b4192b-6f7a-42c9-8227-1854d64540a6","ios":"levelo://app?vid=08b4192b-6f7a-42c9-8227-1854d64540a6"},"vehicle_type_id":"4","last_reported":1744121412,"current_range_meters":8400,"station_id":"ce4bgjp2rcd13ifvqbh0","pricing_plan_id":"cebpf4jnsgd1na2vs0mg"},{"bike_id":"b2c03bd9-c98c-4659-918c-7a5785ca1407","system_id":"levelo_inurba_marseille","lat":43.28283,"lon":5.3508,"is_reserved":false,"is_disabled":false,"rental_uris":{"android":"levelo://app?vid=b2c03bd9-c98c-4659-918c-7a5785ca1407","ios":"levelo://app?vid=b2c03bd9-c98c-4659-918c-7a5785ca1407"},"vehicle_type_id":"4","last_reported":1744121412,"current_range_meters":6800,"station_id":"ce4bhbp2rcd13ifvqerg","pricing_plan_id":"cebpf4jnsgd1na2vs0mg"},{"bike_id":"e1e3e4d7-821d-4134-a13a-280ec3f9cbaa","system_id":"levelo_inurba_marseille","lat":43.32358,"lon":5.36753,"is_reserved":false,"is_disabled":false,"rental_uris":{"android":"levelo://app?vid=e1e3e4d7-821d-4134-a13a-280ec3f9cbaa","ios":"levelo://app?vid=e1e3e4d7-821d-4134-a13a-280ec3f9cbaa"},"vehicle_type_id":"4","last_reported":1744121412,"current_range_meters":6800,"station_id":"ce4bhsh2rcd13ifvqi2g","pricing_plan_id":"cebpf4jnsgd1na2vs0mg"},{"bike_id":"d1d3d353-b4c0-42d1-a9fa-6dc52075c4c2","system_id":"levelo_inurba_marseille","lat":43.27371,"lon":5.3625,"is_reserved":false,"is_disabled":false,"rental_uris":{"android":"levelo://app?vid=d1d3d353-b4c0-42d1-a9fa-6dc52075c4c2","ios":"levelo://app?vid=d1d3d353-b4c0-42d1-a9fa-6dc52075c4c2"},"vehicle_type_id":"4","last_reported":1744121412,"current_range_meters":7200,"station_id":"ce4bhbh2rcd13ifvqeo0","pricing_plan_id":"cebpf4jnsgd1na2vs0mg"},{"bike_id":"a7184a15-a462-4c1f-998d-abd1b0b3a033","system_id":"levelo_inurba_marseille","lat":43.23057,"lon":5.35492,"is_reserved":false,"is_disabled":false,"rental_uris":{"android":"levelo://app?vid=a7184a15-a462-4c1f-998d-abd1b0b3a033","ios":"levelo://app?vid=a7184a15-a462-4c1f-998d-abd1b0b3a033"},"vehicle_type_id":"4","last_reported":1744121412,"current_range_meters":7200,"station_id":"cpo3342slgdg3j2ifvpg","pricing_plan_id":"cebpf4jnsgd1na2vs0mg"},{"bike_id":"a7d3b2f4-0a8a-4400-9556-b337345fe9c5","system_id":"levelo_inurba_marseille","lat":43.30836,"lon":5.3735,"is_reserved":false,"is_disabled":false,"rental_uris":{"android":"levelo://app?vid=a7d3b2f4-0a8a-4400-9556-b337345fe9c5","ios":"levelo://app?vid=a7d3b2f4-0a8a-4400-9556-b337345fe9c5"},"vehicle_type_id":"4","last_reported":1744121412,"current_range_meters":7200,"station_id":"","pricing_plan_id":"cebpf4jnsgd1na2vs0mg"},{"bike_id":"4fe21798-e4d1-4985-bc15-6a7a89cb6541","system_id":"levelo_inurba_marseille","lat":43.21199,"lon":5.35098,"is_reserved":false,"is_disabled":false,"rental_uris":{"android":"levelo://app?vid=4fe21798-e4d1-4985-bc15-6a7a89cb6541","ios":"levelo://app?vid=4fe21798-e4d1-4985-bc15-6a7a89cb6541"},"vehicle_type_id":"4","last_reported":1744121412,"current_range_meters":7200,"station_id":"st_cvj6sg6p6f1abm77japg","pricing_plan_id":"cebpf4jnsgd1na2vs0mg"},{"bike_id":"5f940e72-1254-45bd-94ff-b64cce570b6b","system_id":"levelo_inurba_marseille","lat":43.2936,"lon":5.37839,"is_reserved":false,"is_disabled":false,"rental_uris":{"android":"levelo://app?vid=5f940e72-1254-45bd-94ff-b64cce570b6b","ios":"levelo://app?vid=5f940e72-1254-45bd-94ff-b64cce570b6b"},"vehicle_type_id":"4","last_reported":1744121412,"current_range_meters":7200,"station_id":"ce4bgjh2rcd13ifvqbf0","pricing_plan_id":"cebpf4jnsgd1na2vs0mg"},{"bike_id":"c69c88ed-5ffa-4990-a2e1-b69286124fee","system_id":"levelo_inurba_marseille","lat":43.25491,"lon":5.37645,"is_reserved":false,"is_disabled":false,"rental_uris":{"android":"levelo://app?vid=c69c88ed-5ffa-4990-a2e1-b69286124fee","ios":"levelo://app?vid=c69c88ed-5ffa-4990-a2e1-b69286124fee"},"vehicle_type_id":"4","last_reported":1744121412,"current_range_meters":10000,"station_id":"ce4bhh12rcd13ifvqff0","pricing_plan_id":"cebpf4jnsgd1na2vs0mg"},{"bike_id":"210a1b69-34bd-43d5-b551-3f109607b3f6","system_id":"levelo_inurba_marseille","lat":43.29869,"lon":5.39733,"is_reserved":false,"is_disabled":false,"rental_uris":{"android":"levelo://app?vid=210a1b69-34bd-43d5-b551-3f109607b3f6","ios":"levelo://app?vid=210a1b69-34bd-43d5-b551-3f109607b3f6"},"vehicle_type_id":"4","last_reported":1744121412,"current_range_meters":8000,"station_id":"ce4bh0h2rcd13ifvqd50","pricing_plan_id":"cebpf4jnsgd1na2vs0mg"},{"bike_id":"3cbad1fb-d71d-4e4f-90fa-c1465f9f9b65","system_id":"levelo_inurba_marseille","lat":43.21186,"lon":5.35078,"is_reserved":false,"is_disabled":true,"rental_uris":{"android":"levelo://app?vid=3cbad1fb-d71d-4e4f-90fa-c1465f9f9b65","ios":"levelo://app?vid=3cbad1fb-d71d-4e4f-90fa-c1465f9f9b65"},"vehicle_type_id":"4","last_reported":1744121412,"current_range_meters":8000,"station_id":"st_cvj6sg6p6f1abm77japg","pricing_plan_id":"cebpf4jnsgd1na2vs0mg"},{"bike_id":"8996734d-6220-4f42-9598-3bf7de51ad18","system_id":"levelo_inurba_marseille","lat":43.26954,"lon":5.38623,"is_reserved":false,"is_disabled":false,"rental_uris":{"android":"levelo://app?vid=8996734d-6220-4f42-9598-3bf7de51ad18","ios":"levelo://app?vid=8996734d-6220-4f42-9598-3bf7de51ad18"},"vehicle_type_id":"4","last_reported":1744121412,"current_range_meters":8000,"station_id":"ce4bhh92rcd13ifvqfh0","pricing_plan_id":"cebpf4jnsgd1na2vs0mg"},{"bike_id":"9fd9afcf-8606-4db3-b765-345a62705d71","system_id":"levelo_inurba_marseille","lat":43.27367,"lon":5.36251,"is_reserved":false,"is_disabled":false,"rental_uris":{"android":"levelo://app?vid=9fd9afcf-8606-4db3-b765-345a62705d71","ios":"levelo://app?vid=9fd9afcf-8606-4db3-b765-345a62705d71"},"vehicle_type_id":"4","last_reported":1744121412,"current_range_meters":8400,"station_id":"ce4bhbh2rcd13ifvqeo0","pricing_plan_id":"cebpf4jnsgd1na2vs0mg"},{"bike_id":"7e2bfb3c-422b-4033-ada7-8c5491c48bc9","system_id":"levelo_inurba_marseille","lat":43.25085,"lon":5.39492,"is_reserved":false,"is_disabled":false,"rental_uris":{"android":"levelo://app?vid=7e2bfb3c-422b-4033-ada7-8c5491c48bc9","ios":"levelo://app?vid=7e2bfb3c-422b-4033-ada7-8c5491c48bc9"},"vehicle_type_id":"4","last_reported":1744121412,"current_range_meters":8400,"station_id":"ce4bhm12rcd13ifvqgkg","pricing_plan_id":"cebpf4jnsgd1na2vs0mg"},{"bike_id":"68566975-0b3b-4a64-b00e-c69179933749","system_id":"levelo_inurba_marseille","lat":43.24162,"lon":5.36405,"is_reserved":false,"is_disabled":false,"rental_uris":{"android":"levelo://app?vid=68566975-0b3b-4a64-b00e-c69179933749","ios":"levelo://app?vid=68566975-0b3b-4a64-b00e-c69179933749"},"vehicle_type_id":"4","last_reported":1744121412,"current_range_meters":8400,"station_id":"","pricing_plan_id":"cebpf4jnsgd1na2vs0mg"},{"bike_id":"a4289c3d-27f3-4c3f-829e-0d00a0c64123","system_id":"levelo_inurba_marseille","lat":43.23966,"lon":5.36641,"is_reserved":false,"is_disabled":false,"rental_uris":{"android":"levelo://app?vid=a4289c3d-27f3-4c3f-829e-0d00a0c64123","ios":"levelo://app?vid=a4289c3d-27f3-4c3f-829e-0d00a0c64123"},"vehicle_type_id":"4","last_reported":1744121412,"current_range_meters":8400,"station_id":"ce4bhi12rcd13ifvqfp0","pricing_plan_id":"cebpf4jnsgd1na2vs0mg"},{"bike_id":"41606307-268b-4f30-88fd-87c1ec1f526f","system_id":"levelo_inurba_marseille","lat":43.33022,"lon":5.39041,"is_reserved":false,"is_disabled":false,"rental_uris":{"android":"levelo://app?vid=41606307-268b-4f30-88fd-87c1ec1f526f","ios":"levelo://app?vid=41606307-268b-4f30-88fd-87c1ec1f526f"},"vehicle_type_id":"4","last_reported":1744121412,"current_range_meters":8400,"station_id":"ce4bhr92rcd13ifvqhrg","pricing_plan_id":"cebpf4jnsgd1na2vs0mg"},{"bike_id":"ecef8e9e-03dc-4612-b74e-b978f92e2873","system_id":"levelo_inurba_marseille","lat":43.30093,"lon":5.39091,"is_reserved":false,"is_disabled":true,"rental_uris":{"android":"levelo://app?vid=ecef8e9e-03dc-4612-b74e-b978f92e2873","ios":"levelo://app?vid=ecef8e9e-03dc-4612-b74e-b978f92e2873"},"vehicle_type_id":"4","last_reported":1744121412,"current_range_meters":8400,"station_id":"ce4bh192rcd13ifvqdb0","pricing_plan_id":"cebpf4jnsgd1na2vs0mg"},{"bike_id":"cf350222-2d93-4318-a820-870a23d03c0c","system_id":"levelo_inurba_marseille","lat":43.30369,"lon":5.425,"is_reserved":false,"is_disabled":false,"rental_uris":{"android":"levelo://app?vid=cf350222-2d93-4318-a820-870a23d03c0c","ios":"levelo://app?vid=cf350222-2d93-4318-a820-870a23d03c0c"},"vehicle_type_id":"4","last_reported":1744121412,"current_range_meters":8400,"station_id":"ce4bhoh2rcd13ifvqh6g","pricing_plan_id":"cebpf4jnsgd1na2vs0mg"},{"bike_id":"f39be6f5-2f69-4c37-b021-559d20b299a4","system_id":"levelo_inurba_marseille","lat":43.30007,"lon":5.37648,"is_reserved":false,"is_disabled":false,"rental_uris":{"android":"levelo://app?vid=f39be6f5-2f69-4c37-b021-559d20b299a4","ios":"levelo://app?vid=f39be6f5-2f69-4c37-b021-559d20b299a4"},"vehicle_type_id":"4","last_reported":1744121412,"current_range_meters":8400,"station_id":"","pricing_plan_id":"cebpf4jnsgd1na2vs0mg"},{"bike_id":"f54ed993-fedb-455c-8329-424ac8299963","system_id":"levelo_inurba_marseille","lat":43.32359,"lon":5.36752,"is_reserved":false,"is_disabled":false,"rental_uris":{"android":"levelo://app?vid=f54ed993-fedb-455c-8329-424ac8299963","ios":"levelo://app?vid=f54ed993-fedb-455c-8329-424ac8299963"},"vehicle_type_id":"4","last_reported":1744121412,"current_range_meters":8400,"station_id":"ce4bhsh2rcd13ifvqi2g","pricing_plan_id":"cebpf4jnsgd1na2vs0mg"},{"bike_id":"a1214fb6-ec32-4f6d-b480-2c868d210d82","system_id":"levelo_inurba_marseille","lat":43.232,"lon":5.35553,"is_reserved":false,"is_disabled":false,"rental_uris":{"android":"levelo://app?vid=a1214fb6-ec32-4f6d-b480-2c868d210d82","ios":"levelo://app?vid=a1214fb6-ec32-4f6d-b480-2c868d210d82"},"vehicle_type_id":"4","last_reported":1744121412,"current_range_meters":8400,"station_id":"ce4bhu92rcd13ifvqi70","pricing_plan_id":"cebpf4jnsgd1na2vs0mg"},{"bike_id":"07815203-1e24-4b69-9b35-293289bf4a45","system_id":"levelo_inurba_marseille","lat":43.29783,"lon":5.37097,"is_reserved":false,"is_disabled":false,"rental_uris":{"android":"levelo://app?vid=07815203-1e24-4b69-9b35-293289bf4a45","ios":"levelo://app?vid=07815203-1e24-4b69-9b35-293289bf4a45"},"vehicle_type_id":"4","last_reported":1744121412,"current_range_meters":8400,"station_id":"ce4bgop2rcd13ifvqc1g","pricing_plan_id":"cebpf4jnsgd1na2vs0mg"},{"bike_id":"444a5f07-09c5-40f5-8d58-60f1f25c67b9","system_id":"levelo_inurba_marseille","lat":43.31996,"lon":5.38161,"is_reserved":false,"is_disabled":false,"rental_uris":{"android":"levelo://app?vid=444a5f07-09c5-40f5-8d58-60f1f25c67b9","ios":"levelo://app?vid=444a5f07-09c5-40f5-8d58-60f1f25c67b9"},"vehicle_type_id":"4","last_reported":1744121412,"current_range_meters":8400,"station_id":"ce4bhr12rcd13ifvqhpg","pricing_plan_id":"cebpf4jnsgd1na2vs0mg"},{"bike_id":"2e9000dc-6400-4918-a994-dd60039ca96d","system_id":"levelo_inurba_marseille","lat":43.319974,"lon":5.38154,"is_reserved":false,"is_disabled":true,"rental_uris":{"android":"levelo://app?vid=2e9000dc-6400-4918-a994-dd60039ca96d","ios":"levelo://app?vid=2e9000dc-6400-4918-a994-dd60039ca96d"},"vehicle_type_id":"4","last_reported":1744121412,"current_range_meters":8400,"station_id":"ce4bhr12rcd13ifvqhpg","pricing_plan_id":"cebpf4jnsgd1na2vs0mg"},{"bike_id":"a64d5619-a0b7-45c0-9eb6-a537688e2c9c","system_id":"levelo_inurba_marseille","lat":43.31755,"lon":5.39018,"is_reserved":false,"is_disabled":false,"rental_uris":{"android":"levelo://app?vid=a64d5619-a0b7-45c0-9eb6-a537688e2c9c","ios":"levelo://app?vid=a64d5619-a0b7-45c0-9eb6-a537688e2c9c"},"vehicle_type_id":"4","last_reported":1744121412,"current_range_meters":8400,"station_id":"ce4bhqp2rcd13ifvqhng","pricing_plan_id":"cebpf4jnsgd1na2vs0mg"},{"bike_id":"3576b946-70b3-456f-a60a-d98e227f015c","system_id":"levelo_inurba_marseille","lat":43.30102,"lon":5.38216,"is_reserved":false,"is_disabled":false,"rental_uris":{"android":"levelo://app?vid=3576b946-70b3-456f-a60a-d98e227f015c","ios":"levelo://app?vid=3576b946-70b3-456f-a60a-d98e227f015c"},"vehicle_type_id":"4","last_reported":1744121412,"current_range_meters":8800,"station_id":"ce4bgup2rcd13ifvqcn0","pricing_plan_id":"cebpf4jnsgd1na2vs0mg"},{"bike_id":"02f5f556-9aca-41a9-928c-e217b6392b4b","system_id":"levelo_inurba_marseille","lat":43.31827,"lon":5.43511,"is_reserved":false,"is_disabled":false,"rental_uris":{"android":"levelo://app?vid=02f5f556-9aca-41a9-928c-e217b6392b4b","ios":"levelo://app?vid=02f5f556-9aca-41a9-928c-e217b6392b4b"},"vehicle_type_id":"4","last_reported":1744121412,"current_range_meters":8800,"station_id":"","pricing_plan_id":"cebpf4jnsgd1na2vs0mg"},{"bike_id":"a5a91561-2f09-4f9b-b6ea-7a04283e7393","system_id":"levelo_inurba_marseille","lat":43.30127,"lon":5.39842,"is_reserved":false,"is_disabled":false,"rental_uris":{"android":"levelo://app?vid=a5a91561-2f09-4f9b-b6ea-7a04283e7393","ios":"levelo://app?vid=a5a91561-2f09-4f9b-b6ea-7a04283e7393"},"vehicle_type_id":"4","last_reported":1744121412,"current_range_meters":8400,"station_id":"ce4bh0h2rcd13ifvqd40","pricing_plan_id":"cebpf4jnsgd1na2vs0mg"},{"bike_id":"49e0cbb5-0f11-4cb1-a039-dec692cb761b","system_id":"levelo_inurba_marseille","lat":43.28627,"lon":5.35097,"is_reserved":false,"is_disabled":false,"rental_uris":{"android":"levelo://app?vid=49e0cbb5-0f11-4cb1-a039-dec692cb761b","ios":"levelo://app?vid=49e0cbb5-0f11-4cb1-a039-dec692cb761b"},"vehicle_type_id":"4","last_reported":1744121412,"current_range_meters":8800,"station_id":"ce4bhch2rcd13ifvqeug","pricing_plan_id":"cebpf4jnsgd1na2vs0mg"},{"bike_id":"e4ae93b2-a534-4202-b71b-1cf97be29067","system_id":"levelo_inurba_marseille","lat":43.28613,"lon":5.35103,"is_reserved":false,"is_disabled":false,"rental_uris":{"android":"levelo://app?vid=e4ae93b2-a534-4202-b71b-1cf97be29067","ios":"levelo://app?vid=e4ae93b2-a534-4202-b71b-1cf97be29067"},"vehicle_type_id":"4","last_reported":1744121412,"current_range_meters":8800,"station_id":"ce4bhch2rcd13ifvqeug","pricing_plan_id":"cebpf4jnsgd1na2vs0mg"},{"bike_id":"82f28cf6-556c-431d-a12b-bd3ce5fc2f28","system_id":"levelo_inurba_marseille","lat":43.27496,"lon":5.37742,"is_reserved":false,"is_disabled":false,"rental_uris":{"android":"levelo://app?vid=82f28cf6-556c-431d-a12b-bd3ce5fc2f28","ios":"levelo://app?vid=82f28cf6-556c-431d-a12b-bd3ce5fc2f28"},"vehicle_type_id":"4","last_reported":1744121412,"current_range_meters":9200,"station_id":"","pricing_plan_id":"cebpf4jnsgd1na2vs0mg"},{"bike_id":"91af7c49-4122-4f83-a08d-fc084211eb7b","system_id":"levelo_inurba_marseille","lat":43.31346,"lon":5.36737,"is_reserved":false,"is_disabled":false,"rental_uris":{"android":"levelo://app?vid=91af7c49-4122-4f83-a08d-fc084211eb7b","ios":"levelo://app?vid=91af7c49-4122-4f83-a08d-fc084211eb7b"},"vehicle_type_id":"4","last_reported":1744121412,"current_range_meters":9200,"station_id":"ce4bgr92rcd13ifvqc6g","pricing_plan_id":"cebpf4jnsgd1na2vs0mg"},{"bike_id":"70810d3e-9936-4863-b211-84f880613e88","system_id":"levelo_inurba_marseille","lat":43.31284,"lon":5.3734,"is_reserved":false,"is_disabled":false,"rental_uris":{"android":"levelo://app?vid=70810d3e-9936-4863-b211-84f880613e88","ios":"levelo://app?vid=70810d3e-9936-4863-b211-84f880613e88"},"vehicle_type_id":"4","last_reported":1744121412,"current_range_meters":9200,"station_id":"","pricing_plan_id":"cebpf4jnsgd1na2vs0mg"},{"bike_id":"f52aaec5-90f2-4d64-91f1-4feb23995dd6","system_id":"levelo_inurba_marseille","lat":43.3414,"lon":5.40908,"is_reserved":false,"is_disabled":false,"rental_uris":{"android":"levelo://app?vid=f52aaec5-90f2-4d64-91f1-4feb23995dd6","ios":"levelo://app?vid=f52aaec5-90f2-4d64-91f1-4feb23995dd6"},"vehicle_type_id":"4","last_reported":1744121412,"current_range_meters":9200,"station_id":"ce4bhqh2rcd13ifvqhlg","pricing_plan_id":"cebpf4jnsgd1na2vs0mg"},{"bike_id":"91280ebd-28ba-47b5-bd60-b9f91a82422d","system_id":"levelo_inurba_marseille","lat":43.32349,"lon":5.36745,"is_reserved":false,"is_disabled":false,"rental_uris":{"android":"levelo://app?vid=91280ebd-28ba-47b5-bd60-b9f91a82422d","ios":"levelo://app?vid=91280ebd-28ba-47b5-bd60-b9f91a82422d"},"vehicle_type_id":"4","last_reported":1744121412,"current_range_meters":9200,"station_id":"ce4bhsh2rcd13ifvqi2g","pricing_plan_id":"cebpf4jnsgd1na2vs0mg"},{"bike_id":"10abc5b5-d7c8-46d7-8fc7-2334b8e6761c","system_id":"levelo_inurba_marseille","lat":43.25117,"lon":5.40322,"is_reserved":false,"is_disabled":false,"rental_uris":{"android":"levelo://app?vid=10abc5b5-d7c8-46d7-8fc7-2334b8e6761c","ios":"levelo://app?vid=10abc5b5-d7c8-46d7-8fc7-2334b8e6761c"},"vehicle_type_id":"4","last_reported":1744121412,"current_range_meters":9200,"station_id":"ce4bhlh2rcd13ifvqgig","pricing_plan_id":"cebpf4jnsgd1na2vs0mg"},{"bike_id":"dff0c398-5457-4c82-99b9-071db8607d47","system_id":"levelo_inurba_marseille","lat":43.25688,"lon":5.41939,"is_reserved":false,"is_disabled":false,"rental_uris":{"android":"levelo://app?vid=dff0c398-5457-4c82-99b9-071db8607d47","ios":"levelo://app?vid=dff0c398-5457-4c82-99b9-071db8607d47"},"vehicle_type_id":"4","last_reported":1744121412,"current_range_meters":9600,"station_id":"","pricing_plan_id":"cebpf4jnsgd1na2vs0mg"},{"bike_id":"f17ce36f-e80a-4732-89e2-7a7dfab19d87","system_id":"levelo_inurba_marseille","lat":43.2992,"lon":5.4368,"is_reserved":false,"is_disabled":false,"rental_uris":{"android":"levelo://app?vid=f17ce36f-e80a-4732-89e2-7a7dfab19d87","ios":"levelo://app?vid=f17ce36f-e80a-4732-89e2-7a7dfab19d87"},"vehicle_type_id":"4","last_reported":1744121412,"current_range_meters":9600,"station_id":"ce4bhpp2rcd13ifvqhfg","pricing_plan_id":"cebpf4jnsgd1na2vs0mg"},{"bike_id":"89771962-fe60-4144-a8a6-39dd0f7b9fb3","system_id":"levelo_inurba_marseille","lat":43.21197,"lon":5.35079,"is_reserved":false,"is_disabled":false,"rental_uris":{"android":"levelo://app?vid=89771962-fe60-4144-a8a6-39dd0f7b9fb3","ios":"levelo://app?vid=89771962-fe60-4144-a8a6-39dd0f7b9fb3"},"vehicle_type_id":"4","last_reported":1744121412,"current_range_meters":9600,"station_id":"st_cvj6sg6p6f1abm77japg","pricing_plan_id":"cebpf4jnsgd1na2vs0mg"},{"bike_id":"0057f413-e319-43b9-b172-ad35f9c2e6aa","system_id":"levelo_inurba_marseille","lat":43.26192,"lon":5.37448,"is_reserved":false,"is_disabled":false,"rental_uris":{"android":"levelo://app?vid=0057f413-e319-43b9-b172-ad35f9c2e6aa","ios":"levelo://app?vid=0057f413-e319-43b9-b172-ad35f9c2e6aa"},"vehicle_type_id":"4","last_reported":1744121412,"current_range_meters":9600,"station_id":"ce4bhgp2rcd13ifvqfc0","pricing_plan_id":"cebpf4jnsgd1na2vs0mg"},{"bike_id":"55a6f835-53a5-4dd4-9ebe-e93604b635be","system_id":"levelo_inurba_marseille","lat":43.26209,"lon":5.37442,"is_reserved":false,"is_disabled":false,"rental_uris":{"android":"levelo://app?vid=55a6f835-53a5-4dd4-9ebe-e93604b635be","ios":"levelo://app?vid=55a6f835-53a5-4dd4-9ebe-e93604b635be"},"vehicle_type_id":"4","last_reported":1744121412,"current_range_meters":9600,"station_id":"ce4bhgp2rcd13ifvqfc0","pricing_plan_id":"cebpf4jnsgd1na2vs0mg"},{"bike_id":"9a40efa3-7426-433a-81fc-7c27ab3c7932","system_id":"levelo_inurba_marseille","lat":43.23189,"lon":5.35549,"is_reserved":false,"is_disabled":false,"rental_uris":{"android":"levelo://app?vid=9a40efa3-7426-433a-81fc-7c27ab3c7932","ios":"levelo://app?vid=9a40efa3-7426-433a-81fc-7c27ab3c7932"},"vehicle_type_id":"4","last_reported":1744121412,"current_range_meters":9600,"station_id":"ce4bhu92rcd13ifvqi70","pricing_plan_id":"cebpf4jnsgd1na2vs0mg"},{"bike_id":"3f3b9480-7ec0-4ac7-8a9b-e0ac0ad3b0dd","system_id":"levelo_inurba_marseille","lat":43.28277,"lon":5.35066,"is_reserved":false,"is_disabled":false,"rental_uris":{"android":"levelo://app?vid=3f3b9480-7ec0-4ac7-8a9b-e0ac0ad3b0dd","ios":"levelo://app?vid=3f3b9480-7ec0-4ac7-8a9b-e0ac0ad3b0dd"},"vehicle_type_id":"4","last_reported":1744121412,"current_range_meters":9600,"station_id":"ce4bhbp2rcd13ifvqerg","pricing_plan_id":"cebpf4jnsgd1na2vs0mg"},{"bike_id":"b344f492-a10e-443a-a2fd-bda399fd56e4","system_id":"levelo_inurba_marseille","lat":43.28154,"lon":5.42642,"is_reserved":false,"is_disabled":false,"rental_uris":{"android":"levelo://app?vid=b344f492-a10e-443a-a2fd-bda399fd56e4","ios":"levelo://app?vid=b344f492-a10e-443a-a2fd-bda399fd56e4"},"vehicle_type_id":"4","last_reported":1744121412,"current_range_meters":9600,"station_id":"ce4bhnh2rcd13ifvqgug","pricing_plan_id":"cebpf4jnsgd1na2vs0mg"},{"bike_id":"c57c451f-2113-4f8f-8962-6b5082c0541f","system_id":"levelo_inurba_marseille","lat":43.28412,"lon":5.34987,"is_reserved":false,"is_disabled":false,"rental_uris":{"android":"levelo://app?vid=c57c451f-2113-4f8f-8962-6b5082c0541f","ios":"levelo://app?vid=c57c451f-2113-4f8f-8962-6b5082c0541f"},"vehicle_type_id":"4","last_reported":1744121412,"current_range_meters":9600,"station_id":"ce4bhbh2rcd13ifvqepg","pricing_plan_id":"cebpf4jnsgd1na2vs0mg"},{"bike_id":"2a2bd6cc-71a0-48aa-b164-79cda08fe0c8","system_id":"levelo_inurba_marseille","lat":43.27374,"lon":5.36251,"is_reserved":false,"is_disabled":false,"rental_uris":{"android":"levelo://app?vid=2a2bd6cc-71a0-48aa-b164-79cda08fe0c8","ios":"levelo://app?vid=2a2bd6cc-71a0-48aa-b164-79cda08fe0c8"},"vehicle_type_id":"4","last_reported":1744121412,"current_range_meters":10000,"station_id":"ce4bhbh2rcd13ifvqeo0","pricing_plan_id":"cebpf4jnsgd1na2vs0mg"},{"bike_id":"42a2a0dd-e073-46d3-a004-33e2e45e3038","system_id":"levelo_inurba_marseille","lat":43.34141,"lon":5.40914,"is_reserved":false,"is_disabled":false,"rental_uris":{"android":"levelo://app?vid=42a2a0dd-e073-46d3-a004-33e2e45e3038","ios":"levelo://app?vid=42a2a0dd-e073-46d3-a004-33e2e45e3038"},"vehicle_type_id":"4","last_reported":1744121412,"current_range_meters":10000,"station_id":"ce4bhqh2rcd13ifvqhlg","pricing_plan_id":"cebpf4jnsgd1na2vs0mg"},{"bike_id":"37b2591d-7265-4820-a87b-554301495f71","system_id":"levelo_inurba_marseille","lat":43.28944,"lon":5.36636,"is_reserved":false,"is_disabled":true,"rental_uris":{"android":"levelo://app?vid=37b2591d-7265-4820-a87b-554301495f71","ios":"levelo://app?vid=37b2591d-7265-4820-a87b-554301495f71"},"vehicle_type_id":"4","last_reported":1744121412,"current_range_meters":10000,"station_id":"ce4bhap2rcd13ifvqek0","pricing_plan_id":"cebpf4jnsgd1na2vs0mg"},{"bike_id":"dcc77af8-9392-4285-88f9-bba3e9a760e8","system_id":"levelo_inurba_marseille","lat":43.29275,"lon":5.36843,"is_reserved":false,"is_disabled":false,"rental_uris":{"android":"levelo://app?vid=dcc77af8-9392-4285-88f9-bba3e9a760e8","ios":"levelo://app?vid=dcc77af8-9392-4285-88f9-bba3e9a760e8"},"vehicle_type_id":"4","last_reported":1744121412,"current_range_meters":10000,"station_id":"ce4bhbp2rcd13ifvqesg","pricing_plan_id":"cebpf4jnsgd1na2vs0mg"},{"bike_id":"ed99067f-b25e-4803-81a9-25852f568c79","system_id":"levelo_inurba_marseille","lat":43.28416,"lon":5.34977,"is_reserved":false,"is_disabled":false,"rental_uris":{"android":"levelo://app?vid=ed99067f-b25e-4803-81a9-25852f568c79","ios":"levelo://app?vid=ed99067f-b25e-4803-81a9-25852f568c79"},"vehicle_type_id":"4","last_reported":1744121412,"current_range_meters":10000,"station_id":"ce4bhbh2rcd13ifvqepg","pricing_plan_id":"cebpf4jnsgd1na2vs0mg"},{"bike_id":"e53687c2-99ef-4e08-b330-875ddc608553","system_id":"levelo_inurba_marseille","lat":43.305377,"lon":5.367075,"is_reserved":false,"is_disabled":false,"rental_uris":{"android":"levelo://app?vid=e53687c2-99ef-4e08-b330-875ddc608553","ios":"levelo://app?vid=e53687c2-99ef-4e08-b330-875ddc608553"},"vehicle_type_id":"4","last_reported":1744121412,"current_range_meters":10000,"station_id":"ce4bgrp2rcd13ifvqc9g","pricing_plan_id":"cebpf4jnsgd1na2vs0mg"},{"bike_id":"68a7da11-b211-47bc-9d67-46c2d4a20d9c","system_id":"levelo_inurba_marseille","lat":43.29974,"lon":5.41304,"is_reserved":false,"is_disabled":false,"rental_uris":{"android":"levelo://app?vid=68a7da11-b211-47bc-9d67-46c2d4a20d9c","ios":"levelo://app?vid=68a7da11-b211-47bc-9d67-46c2d4a20d9c"},"vehicle_type_id":"4","last_reported":1744121412,"current_range_meters":10000,"station_id":"ce4bhp12rcd13ifvqh9g","pricing_plan_id":"cebpf4jnsgd1na2vs0mg"},{"bike_id":"aa656a1a-b190-40e2-9ce5-4d8e4c929feb","system_id":"levelo_inurba_marseille","lat":43.23194,"lon":5.35556,"is_reserved":false,"is_disabled":false,"rental_uris":{"android":"levelo://app?vid=aa656a1a-b190-40e2-9ce5-4d8e4c929feb","ios":"levelo://app?vid=aa656a1a-b190-40e2-9ce5-4d8e4c929feb"},"vehicle_type_id":"4","last_reported":1744121412,"current_range_meters":9600,"station_id":"ce4bhu92rcd13ifvqi70","pricing_plan_id":"cebpf4jnsgd1na2vs0mg"},{"bike_id":"7b3e4211-06aa-4c92-a626-ee2c9b137a23","system_id":"levelo_inurba_marseille","lat":43.31708,"lon":5.4371,"is_reserved":false,"is_disabled":false,"rental_uris":{"android":"levelo://app?vid=7b3e4211-06aa-4c92-a626-ee2c9b137a23","ios":"levelo://app?vid=7b3e4211-06aa-4c92-a626-ee2c9b137a23"},"vehicle_type_id":"4","last_reported":1744121412,"current_range_meters":10800,"station_id":"ce4bhp92rcd13ifvqhcg","pricing_plan_id":"cebpf4jnsgd1na2vs0mg"},{"bike_id":"31134649-31b9-42bc-b51e-ef06ed5b347a","system_id":"levelo_inurba_marseille","lat":43.286134,"lon":5.351078,"is_reserved":false,"is_disabled":false,"rental_uris":{"android":"levelo://app?vid=31134649-31b9-42bc-b51e-ef06ed5b347a","ios":"levelo://app?vid=31134649-31b9-42bc-b51e-ef06ed5b347a"},"vehicle_type_id":"4","last_reported":1744121412,"current_range_meters":10800,"station_id":"","pricing_plan_id":"cebpf4jnsgd1na2vs0mg"},{"bike_id":"dbf25181-7087-4d19-b165-a51d187ab120","system_id":"levelo_inurba_marseille","lat":43.30306,"lon":5.36902,"is_reserved":false,"is_disabled":false,"rental_uris":{"android":"levelo://app?vid=dbf25181-7087-4d19-b165-a51d187ab120","ios":"levelo://app?vid=dbf25181-7087-4d19-b165-a51d187ab120"},"vehicle_type_id":"4","last_reported":1744121412,"current_range_meters":10800,"station_id":"ce4bgqh2rcd13ifvqc5g","pricing_plan_id":"cebpf4jnsgd1na2vs0mg"},{"bike_id":"a6093dbc-a7c6-404f-906d-e5410b791e91","system_id":"levelo_inurba_marseille","lat":43.27373,"lon":5.36246,"is_reserved":false,"is_disabled":false,"rental_uris":{"android":"levelo://app?vid=a6093dbc-a7c6-404f-906d-e5410b791e91","ios":"levelo://app?vid=a6093dbc-a7c6-404f-906d-e5410b791e91"},"vehicle_type_id":"4","last_reported":1744121412,"current_range_meters":10800,"station_id":"ce4bhbh2rcd13ifvqeo0","pricing_plan_id":"cebpf4jnsgd1na2vs0mg"},{"bike_id":"f2f8031e-8acf-441f-a6b8-4b845409031c","system_id":"levelo_inurba_marseille","lat":43.27372,"lon":5.36258,"is_reserved":false,"is_disabled":false,"rental_uris":{"android":"levelo://app?vid=f2f8031e-8acf-441f-a6b8-4b845409031c","ios":"levelo://app?vid=f2f8031e-8acf-441f-a6b8-4b845409031c"},"vehicle_type_id":"4","last_reported":1744121412,"current_range_meters":10800,"station_id":"ce4bhbh2rcd13ifvqeo0","pricing_plan_id":"cebpf4jnsgd1na2vs0mg"},{"bike_id":"a613de97-0090-4415-bf45-b9a7dfc2a534","system_id":"levelo_inurba_marseille","lat":43.24171,"lon":5.36397,"is_reserved":false,"is_disabled":false,"rental_uris":{"android":"levelo://app?vid=a613de97-0090-4415-bf45-b9a7dfc2a534","ios":"levelo://app?vid=a613de97-0090-4415-bf45-b9a7dfc2a534"},"vehicle_type_id":"4","last_reported":1744121412,"current_range_meters":10800,"station_id":"cpo36qri1sfpv3e86is0","pricing_plan_id":"cebpf4jnsgd1na2vs0mg"},{"bike_id":"1c16ce55-fc77-44db-8b14-5e0e03e28ace","system_id":"levelo_inurba_marseille","lat":43.28428,"lon":5.34971,"is_reserved":false,"is_disabled":false,"rental_uris":{"android":"levelo://app?vid=1c16ce55-fc77-44db-8b14-5e0e03e28ace","ios":"levelo://app?vid=1c16ce55-fc77-44db-8b14-5e0e03e28ace"},"vehicle_type_id":"4","last_reported":1744121412,"current_range_meters":10800,"station_id":"ce4bhbh2rcd13ifvqepg","pricing_plan_id":"cebpf4jnsgd1na2vs0mg"},{"bike_id":"68d1cc33-0218-451e-8e10-d32225c21263","system_id":"levelo_inurba_marseille","lat":43.23157,"lon":5.437,"is_reserved":false,"is_disabled":true,"rental_uris":{"android":"levelo://app?vid=68d1cc33-0218-451e-8e10-d32225c21263","ios":"levelo://app?vid=68d1cc33-0218-451e-8e10-d32225c21263"},"vehicle_type_id":"4","last_reported":1744121412,"current_range_meters":10800,"station_id":"ce4bhmp2rcd13ifvqgog","pricing_plan_id":"cebpf4jnsgd1na2vs0mg"},{"bike_id":"bd6d089a-fd9c-4290-99cd-cee2b616090e","system_id":"levelo_inurba_marseille","lat":43.31531,"lon":5.38039,"is_reserved":false,"is_disabled":false,"rental_uris":{"android":"levelo://app?vid=bd6d089a-fd9c-4290-99cd-cee2b616090e","ios":"levelo://app?vid=bd6d089a-fd9c-4290-99cd-cee2b616090e"},"vehicle_type_id":"4","last_reported":1744121412,"current_range_meters":10800,"station_id":"ce4bhsp2rcd13ifvqi50","pricing_plan_id":"cebpf4jnsgd1na2vs0mg"},{"bike_id":"cf1ff944-6ec6-45c5-ad6f-1a6c9a1154b0","system_id":"levelo_inurba_marseille","lat":43.3091,"lon":5.36846,"is_reserved":false,"is_disabled":false,"rental_uris":{"android":"levelo://app?vid=cf1ff944-6ec6-45c5-ad6f-1a6c9a1154b0","ios":"levelo://app?vid=cf1ff944-6ec6-45c5-ad6f-1a6c9a1154b0"},"vehicle_type_id":"4","last_reported":1744121412,"current_range_meters":10800,"station_id":"ce4bgn92rcd13ifvqbvg","pricing_plan_id":"cebpf4jnsgd1na2vs0mg"},{"bike_id":"5da5528e-814b-4b4f-b220-30f567d44162","system_id":"levelo_inurba_marseille","lat":43.290976,"lon":5.381269,"is_reserved":false,"is_disabled":false,"rental_uris":{"android":"levelo://app?vid=5da5528e-814b-4b4f-b220-30f567d44162","ios":"levelo://app?vid=5da5528e-814b-4b4f-b220-30f567d44162"},"vehicle_type_id":"4","last_reported":1744121412,"current_range_meters":10800,"station_id":"ce4bhb92rcd13ifvqen0","pricing_plan_id":"cebpf4jnsgd1na2vs0mg"},{"bike_id":"8707e44c-dd0e-413f-87fc-7b5f1f4409c1","system_id":"levelo_inurba_marseille","lat":43.28834,"lon":5.35874,"is_reserved":false,"is_disabled":false,"rental_uris":{"android":"levelo://app?vid=8707e44c-dd0e-413f-87fc-7b5f1f4409c1","ios":"levelo://app?vid=8707e44c-dd0e-413f-87fc-7b5f1f4409c1"},"vehicle_type_id":"4","last_reported":1744121412,"current_range_meters":11200,"station_id":"ce4bhb12rcd13ifvqem0","pricing_plan_id":"cebpf4jnsgd1na2vs0mg"},{"bike_id":"462484fb-7399-4810-a9af-37dc48881c50","system_id":"levelo_inurba_marseille","lat":43.25496,"lon":5.37652,"is_reserved":false,"is_disabled":false,"rental_uris":{"android":"levelo://app?vid=462484fb-7399-4810-a9af-37dc48881c50","ios":"levelo://app?vid=462484fb-7399-4810-a9af-37dc48881c50"},"vehicle_type_id":"4","last_reported":1744121412,"current_range_meters":11200,"station_id":"ce4bhh12rcd13ifvqff0","pricing_plan_id":"cebpf4jnsgd1na2vs0mg"},{"bike_id":"ee22328b-554a-4b1a-b84c-e86b9e5143a2","system_id":"levelo_inurba_marseille","lat":43.27369,"lon":5.36247,"is_reserved":false,"is_disabled":false,"rental_uris":{"android":"levelo://app?vid=ee22328b-554a-4b1a-b84c-e86b9e5143a2","ios":"levelo://app?vid=ee22328b-554a-4b1a-b84c-e86b9e5143a2"},"vehicle_type_id":"4","last_reported":1744121412,"current_range_meters":11200,"station_id":"ce4bhbh2rcd13ifvqeo0","pricing_plan_id":"cebpf4jnsgd1na2vs0mg"},{"bike_id":"1a8e45ee-8139-4a75-a3f7-d4d70c524501","system_id":"levelo_inurba_marseille","lat":43.26785,"lon":5.39413,"is_reserved":false,"is_disabled":false,"rental_uris":{"android":"levelo://app?vid=1a8e45ee-8139-4a75-a3f7-d4d70c524501","ios":"levelo://app?vid=1a8e45ee-8139-4a75-a3f7-d4d70c524501"},"vehicle_type_id":"4","last_reported":1744121412,"current_range_meters":11200,"station_id":"ce4bhh12rcd13ifvqfg0","pricing_plan_id":"cebpf4jnsgd1na2vs0mg"},{"bike_id":"196aab48-85b0-499e-8220-62200322436d","system_id":"levelo_inurba_marseille","lat":43.23195,"lon":5.35552,"is_reserved":false,"is_disabled":false,"rental_uris":{"android":"levelo://app?vid=196aab48-85b0-499e-8220-62200322436d","ios":"levelo://app?vid=196aab48-85b0-499e-8220-62200322436d"},"vehicle_type_id":"4","last_reported":1744121412,"current_range_meters":11200,"station_id":"ce4bhu92rcd13ifvqi70","pricing_plan_id":"cebpf4jnsgd1na2vs0mg"},{"bike_id":"0aa02c49-cbb3-4907-a588-f754056f3ba8","system_id":"levelo_inurba_marseille","lat":43.30815,"lon":5.38157,"is_reserved":false,"is_disabled":true,"rental_uris":{"android":"levelo://app?vid=0aa02c49-cbb3-4907-a588-f754056f3ba8","ios":"levelo://app?vid=0aa02c49-cbb3-4907-a588-f754056f3ba8"},"vehicle_type_id":"4","last_reported":1744121412,"current_range_meters":11200,"station_id":"ce4bgt12rcd13ifvqce0","pricing_plan_id":"cebpf4jnsgd1na2vs0mg"},{"bike_id":"14031425-56fe-4d59-8635-56f17d050a85","system_id":"levelo_inurba_marseille","lat":43.21743,"lon":5.34606,"is_reserved":false,"is_disabled":false,"rental_uris":{"android":"levelo://app?vid=14031425-56fe-4d59-8635-56f17d050a85","ios":"levelo://app?vid=14031425-56fe-4d59-8635-56f17d050a85"},"vehicle_type_id":"4","last_reported":1744121412,"current_range_meters":11200,"station_id":"st_cvj6r9ubvosntc0bgbag","pricing_plan_id":"cebpf4jnsgd1na2vs0mg"},{"bike_id":"4af48280-972e-4331-a42c-8ad0c9df46e1","system_id":"levelo_inurba_marseille","lat":43.27368,"lon":5.36245,"is_reserved":false,"is_disabled":false,"rental_uris":{"android":"levelo://app?vid=4af48280-972e-4331-a42c-8ad0c9df46e1","ios":"levelo://app?vid=4af48280-972e-4331-a42c-8ad0c9df46e1"},"vehicle_type_id":"4","last_reported":1744121412,"current_range_meters":11200,"station_id":"ce4bhbh2rcd13ifvqeo0","pricing_plan_id":"cebpf4jnsgd1na2vs0mg"},{"bike_id":"49840a0e-a6a2-42db-92af-a5353a50e7c7","system_id":"levelo_inurba_marseille","lat":43.28498,"lon":5.38579,"is_reserved":false,"is_disabled":false,"rental_uris":{"android":"levelo://app?vid=49840a0e-a6a2-42db-92af-a5353a50e7c7","ios":"levelo://app?vid=49840a0e-a6a2-42db-92af-a5353a50e7c7"},"vehicle_type_id":"4","last_reported":1744121412,"current_range_meters":9600,"station_id":"ce4bh8p2rcd13ifvqeb0","pricing_plan_id":"cebpf4jnsgd1na2vs0mg"},{"bike_id":"4bacdaaa-7fb4-452a-b873-94dd24624c9a","system_id":"levelo_inurba_marseille","lat":43.3134,"lon":5.3677,"is_reserved":false,"is_disabled":false,"rental_uris":{"android":"levelo://app?vid=4bacdaaa-7fb4-452a-b873-94dd24624c9a","ios":"levelo://app?vid=4bacdaaa-7fb4-452a-b873-94dd24624c9a"},"vehicle_type_id":"4","last_reported":1744121412,"current_range_meters":11200,"station_id":"","pricing_plan_id":"cebpf4jnsgd1na2vs0mg"},{"bike_id":"93e3fd92-d65f-4f36-ba40-a3e5476ebc87","system_id":"levelo_inurba_marseille","lat":43.3069,"lon":5.3656,"is_reserved":false,"is_disabled":false,"rental_uris":{"android":"levelo://app?vid=93e3fd92-d65f-4f36-ba40-a3e5476ebc87","ios":"levelo://app?vid=93e3fd92-d65f-4f36-ba40-a3e5476ebc87"},"vehicle_type_id":"4","last_reported":1744121412,"current_range_meters":11600,"station_id":"","pricing_plan_id":"cebpf4jnsgd1na2vs0mg"},{"bike_id":"43a6e851-c3b6-44f5-a2ca-e63489086d6e","system_id":"levelo_inurba_marseille","lat":43.21754,"lon":5.34582,"is_reserved":false,"is_disabled":false,"rental_uris":{"android":"levelo://app?vid=43a6e851-c3b6-44f5-a2ca-e63489086d6e","ios":"levelo://app?vid=43a6e851-c3b6-44f5-a2ca-e63489086d6e"},"vehicle_type_id":"4","last_reported":1744121412,"current_range_meters":11600,"station_id":"st_cvj6r9ubvosntc0bgbag","pricing_plan_id":"cebpf4jnsgd1na2vs0mg"},{"bike_id":"5b808185-0a5a-48a8-8a34-81f7ce536aa8","system_id":"levelo_inurba_marseille","lat":43.28415,"lon":5.35001,"is_reserved":false,"is_disabled":false,"rental_uris":{"android":"levelo://app?vid=5b808185-0a5a-48a8-8a34-81f7ce536aa8","ios":"levelo://app?vid=5b808185-0a5a-48a8-8a34-81f7ce536aa8"},"vehicle_type_id":"4","last_reported":1744121412,"current_range_meters":11600,"station_id":"ce4bhbh2rcd13ifvqepg","pricing_plan_id":"cebpf4jnsgd1na2vs0mg"},{"bike_id":"65fcbb35-f94c-4eda-8aae-880ee014924c","system_id":"levelo_inurba_marseille","lat":43.23144,"lon":5.4374,"is_reserved":false,"is_disabled":false,"rental_uris":{"android":"levelo://app?vid=65fcbb35-f94c-4eda-8aae-880ee014924c","ios":"levelo://app?vid=65fcbb35-f94c-4eda-8aae-880ee014924c"},"vehicle_type_id":"4","last_reported":1744121412,"current_range_meters":11600,"station_id":"ce4bhmp2rcd13ifvqgog","pricing_plan_id":"cebpf4jnsgd1na2vs0mg"},{"bike_id":"f5a1cd1b-e744-408c-b818-d509102bafb0","system_id":"levelo_inurba_marseille","lat":43.26036,"lon":5.3753,"is_reserved":false,"is_disabled":false,"rental_uris":{"android":"levelo://app?vid=f5a1cd1b-e744-408c-b818-d509102bafb0","ios":"levelo://app?vid=f5a1cd1b-e744-408c-b818-d509102bafb0"},"vehicle_type_id":"4","last_reported":1744121412,"current_range_meters":11600,"station_id":"ce4bhgh2rcd13ifvqfa0","pricing_plan_id":"cebpf4jnsgd1na2vs0mg"},{"bike_id":"1c742ca1-3de1-4f3a-a7e8-0f2bb31fecde","system_id":"levelo_inurba_marseille","lat":43.28373,"lon":5.38647,"is_reserved":false,"is_disabled":false,"rental_uris":{"android":"levelo://app?vid=1c742ca1-3de1-4f3a-a7e8-0f2bb31fecde","ios":"levelo://app?vid=1c742ca1-3de1-4f3a-a7e8-0f2bb31fecde"},"vehicle_type_id":"4","last_reported":1744121412,"current_range_meters":11600,"station_id":"ce4bh492rcd13ifvqdvg","pricing_plan_id":"cebpf4jnsgd1na2vs0mg"},{"bike_id":"311ffc55-dc15-4f2b-8075-3136d92a3444","system_id":"levelo_inurba_marseille","lat":43.21198,"lon":5.35068,"is_reserved":false,"is_disabled":false,"rental_uris":{"android":"levelo://app?vid=311ffc55-dc15-4f2b-8075-3136d92a3444","ios":"levelo://app?vid=311ffc55-dc15-4f2b-8075-3136d92a3444"},"vehicle_type_id":"4","last_reported":1744121412,"current_range_meters":12000,"station_id":"st_cvj6sg6p6f1abm77japg","pricing_plan_id":"cebpf4jnsgd1na2vs0mg"},{"bike_id":"3c0bc8e6-e01a-4c86-9548-0adc3597e1cc","system_id":"levelo_inurba_marseille","lat":43.24162,"lon":5.364,"is_reserved":false,"is_disabled":false,"rental_uris":{"android":"levelo://app?vid=3c0bc8e6-e01a-4c86-9548-0adc3597e1cc","ios":"levelo://app?vid=3c0bc8e6-e01a-4c86-9548-0adc3597e1cc"},"vehicle_type_id":"4","last_reported":1744121412,"current_range_meters":12000,"station_id":"cpo36qri1sfpv3e86is0","pricing_plan_id":"cebpf4jnsgd1na2vs0mg"},{"bike_id":"1ca7d0c4-b7aa-4350-ad9f-4e24c2ba029a","system_id":"levelo_inurba_marseille","lat":43.3038,"lon":5.42477,"is_reserved":false,"is_disabled":true,"rental_uris":{"android":"levelo://app?vid=1ca7d0c4-b7aa-4350-ad9f-4e24c2ba029a","ios":"levelo://app?vid=1ca7d0c4-b7aa-4350-ad9f-4e24c2ba029a"},"vehicle_type_id":"4","last_reported":1744121412,"current_range_meters":12000,"station_id":"ce4bhoh2rcd13ifvqh6g","pricing_plan_id":"cebpf4jnsgd1na2vs0mg"},{"bike_id":"08f9c0c8-8b33-4578-8a03-20f44d582241","system_id":"levelo_inurba_marseille","lat":43.30622,"lon":5.37181,"is_reserved":false,"is_disabled":false,"rental_uris":{"android":"levelo://app?vid=08f9c0c8-8b33-4578-8a03-20f44d582241","ios":"levelo://app?vid=08f9c0c8-8b33-4578-8a03-20f44d582241"},"vehicle_type_id":"4","last_reported":1744121412,"current_range_meters":12000,"station_id":"ce4bgqh2rcd13ifvqc4g","pricing_plan_id":"cebpf4jnsgd1na2vs0mg"},{"bike_id":"e6ab676c-5ee0-49ce-89c7-0b7245d348b4","system_id":"levelo_inurba_marseille","lat":43.25819,"lon":5.39437,"is_reserved":false,"is_disabled":false,"rental_uris":{"android":"levelo://app?vid=e6ab676c-5ee0-49ce-89c7-0b7245d348b4","ios":"levelo://app?vid=e6ab676c-5ee0-49ce-89c7-0b7245d348b4"},"vehicle_type_id":"4","last_reported":1744121412,"current_range_meters":11600,"station_id":"ce4bhip2rcd13ifvqft0","pricing_plan_id":"cebpf4jnsgd1na2vs0mg"},{"bike_id":"1beb47fb-f287-4516-a530-277403222a68","system_id":"levelo_inurba_marseille","lat":43.21749,"lon":5.34605,"is_reserved":false,"is_disabled":false,"rental_uris":{"android":"levelo://app?vid=1beb47fb-f287-4516-a530-277403222a68","ios":"levelo://app?vid=1beb47fb-f287-4516-a530-277403222a68"},"vehicle_type_id":"4","last_reported":1744121412,"current_range_meters":12000,"station_id":"","pricing_plan_id":"cebpf4jnsgd1na2vs0mg"},{"bike_id":"54845fa1-1632-4a00-a01b-c44c822db490","system_id":"levelo_inurba_marseille","lat":43.25583,"lon":5.3823,"is_reserved":false,"is_disabled":false,"rental_uris":{"android":"levelo://app?vid=54845fa1-1632-4a00-a01b-c44c822db490","ios":"levelo://app?vid=54845fa1-1632-4a00-a01b-c44c822db490"},"vehicle_type_id":"4","last_reported":1744121412,"current_range_meters":12400,"station_id":"ce4bhih2rcd13ifvqfs0","pricing_plan_id":"cebpf4jnsgd1na2vs0mg"},{"bike_id":"323f192d-ea8f-4896-973d-0fbfc89b345d","system_id":"levelo_inurba_marseille","lat":43.3205,"lon":5.41546,"is_reserved":false,"is_disabled":false,"rental_uris":{"android":"levelo://app?vid=323f192d-ea8f-4896-973d-0fbfc89b345d","ios":"levelo://app?vid=323f192d-ea8f-4896-973d-0fbfc89b345d"},"vehicle_type_id":"4","last_reported":1744121412,"current_range_meters":12400,"station_id":"ce4bhq92rcd13ifvqhkg","pricing_plan_id":"cebpf4jnsgd1na2vs0mg"},{"bike_id":"7e38575f-a06e-4842-8493-5986bfafd4b8","system_id":"levelo_inurba_marseille","lat":43.30913,"lon":5.36851,"is_reserved":false,"is_disabled":false,"rental_uris":{"android":"levelo://app?vid=7e38575f-a06e-4842-8493-5986bfafd4b8","ios":"levelo://app?vid=7e38575f-a06e-4842-8493-5986bfafd4b8"},"vehicle_type_id":"4","last_reported":1744121412,"current_range_meters":12800,"station_id":"ce4bgn92rcd13ifvqbvg","pricing_plan_id":"cebpf4jnsgd1na2vs0mg"},{"bike_id":"3d1eb205-2ecd-4c0c-943f-044d0f428068","system_id":"levelo_inurba_marseille","lat":43.30434,"lon":5.39749,"is_reserved":false,"is_disabled":false,"rental_uris":{"android":"levelo://app?vid=3d1eb205-2ecd-4c0c-943f-044d0f428068","ios":"levelo://app?vid=3d1eb205-2ecd-4c0c-943f-044d0f428068"},"vehicle_type_id":"4","last_reported":1744121412,"current_range_meters":12800,"station_id":"ce4bh092rcd13ifvqd20","pricing_plan_id":"cebpf4jnsgd1na2vs0mg"},{"bike_id":"7cc05a6f-f6d3-4115-b0dc-3e32cdace27e","system_id":"levelo_inurba_marseille","lat":43.27377,"lon":5.36251,"is_reserved":false,"is_disabled":false,"rental_uris":{"android":"levelo://app?vid=7cc05a6f-f6d3-4115-b0dc-3e32cdace27e","ios":"levelo://app?vid=7cc05a6f-f6d3-4115-b0dc-3e32cdace27e"},"vehicle_type_id":"4","last_reported":1744121412,"current_range_meters":12800,"station_id":"ce4bhbh2rcd13ifvqeo0","pricing_plan_id":"cebpf4jnsgd1na2vs0mg"},{"bike_id":"fcba2fad-8717-4251-93ef-1b115b919533","system_id":"levelo_inurba_marseille","lat":43.27373,"lon":5.36256,"is_reserved":false,"is_disabled":false,"rental_uris":{"android":"levelo://app?vid=fcba2fad-8717-4251-93ef-1b115b919533","ios":"levelo://app?vid=fcba2fad-8717-4251-93ef-1b115b919533"},"vehicle_type_id":"4","last_reported":1744121412,"current_range_meters":12800,"station_id":"ce4bhbh2rcd13ifvqeo0","pricing_plan_id":"cebpf4jnsgd1na2vs0mg"},{"bike_id":"62e56be1-61b4-4817-b7ee-bfab63ccce6b","system_id":"levelo_inurba_marseille","lat":43.27818,"lon":5.39195,"is_reserved":false,"is_disabled":false,"rental_uris":{"android":"levelo://app?vid=62e56be1-61b4-4817-b7ee-bfab63ccce6b","ios":"levelo://app?vid=62e56be1-61b4-4817-b7ee-bfab63ccce6b"},"vehicle_type_id":"4","last_reported":1744121412,"current_range_meters":12800,"station_id":"ce4bhjp2rcd13ifvqga0","pricing_plan_id":"cebpf4jnsgd1na2vs0mg"},{"bike_id":"b397701f-0d3d-44bf-ab3e-3ccc7e74fb2e","system_id":"levelo_inurba_marseille","lat":43.26434,"lon":5.42284,"is_reserved":false,"is_disabled":false,"rental_uris":{"android":"levelo://app?vid=b397701f-0d3d-44bf-ab3e-3ccc7e74fb2e","ios":"levelo://app?vid=b397701f-0d3d-44bf-ab3e-3ccc7e74fb2e"},"vehicle_type_id":"4","last_reported":1744121412,"current_range_meters":12800,"station_id":"","pricing_plan_id":"cebpf4jnsgd1na2vs0mg"},{"bike_id":"f978d584-91c8-4564-9357-6f3a99f023f1","system_id":"levelo_inurba_marseille","lat":43.24809,"lon":5.37453,"is_reserved":false,"is_disabled":false,"rental_uris":{"android":"levelo://app?vid=f978d584-91c8-4564-9357-6f3a99f023f1","ios":"levelo://app?vid=f978d584-91c8-4564-9357-6f3a99f023f1"},"vehicle_type_id":"4","last_reported":1744121412,"current_range_meters":12800,"station_id":"ce4bhgh2rcd13ifvqfb0","pricing_plan_id":"cebpf4jnsgd1na2vs0mg"},{"bike_id":"583aff7a-d1eb-475d-b0a5-743049ce2944","system_id":"levelo_inurba_marseille","lat":43.29188,"lon":5.35804,"is_reserved":false,"is_disabled":false,"rental_uris":{"android":"levelo://app?vid=583aff7a-d1eb-475d-b0a5-743049ce2944","ios":"levelo://app?vid=583aff7a-d1eb-475d-b0a5-743049ce2944"},"vehicle_type_id":"4","last_reported":1744121412,"current_range_meters":13600,"station_id":"ce4bhb12rcd13ifvqel0","pricing_plan_id":"cebpf4jnsgd1na2vs0mg"},{"bike_id":"56ee759a-b574-4911-9e6e-32e32e9ade9a","system_id":"levelo_inurba_marseille","lat":43.28619,"lon":5.35109,"is_reserved":false,"is_disabled":false,"rental_uris":{"android":"levelo://app?vid=56ee759a-b574-4911-9e6e-32e32e9ade9a","ios":"levelo://app?vid=56ee759a-b574-4911-9e6e-32e32e9ade9a"},"vehicle_type_id":"4","last_reported":1744121412,"current_range_meters":13600,"station_id":"ce4bhch2rcd13ifvqeug","pricing_plan_id":"cebpf4jnsgd1na2vs0mg"},{"bike_id":"a1dfac71-396d-4248-90f0-3201e8c9897a","system_id":"levelo_inurba_marseille","lat":43.2886,"lon":5.35839,"is_reserved":false,"is_disabled":false,"rental_uris":{"android":"levelo://app?vid=a1dfac71-396d-4248-90f0-3201e8c9897a","ios":"levelo://app?vid=a1dfac71-396d-4248-90f0-3201e8c9897a"},"vehicle_type_id":"4","last_reported":1744121412,"current_range_meters":13600,"station_id":"ce4bhb12rcd13ifvqem0","pricing_plan_id":"cebpf4jnsgd1na2vs0mg"},{"bike_id":"f463a4c8-37a7-4526-9d03-611b5e485f2c","system_id":"levelo_inurba_marseille","lat":43.26563,"lon":5.39008,"is_reserved":false,"is_disabled":false,"rental_uris":{"android":"levelo://app?vid=f463a4c8-37a7-4526-9d03-611b5e485f2c","ios":"levelo://app?vid=f463a4c8-37a7-4526-9d03-611b5e485f2c"},"vehicle_type_id":"4","last_reported":1744121412,"current_range_meters":13600,"station_id":"ce4bhe12rcd13ifvqf30","pricing_plan_id":"cebpf4jnsgd1na2vs0mg"},{"bike_id":"8c33120b-fb8a-43fc-b964-011265f7c0c0","system_id":"levelo_inurba_marseille","lat":43.28614,"lon":5.351,"is_reserved":false,"is_disabled":false,"rental_uris":{"android":"levelo://app?vid=8c33120b-fb8a-43fc-b964-011265f7c0c0","ios":"levelo://app?vid=8c33120b-fb8a-43fc-b964-011265f7c0c0"},"vehicle_type_id":"4","last_reported":1744121412,"current_range_meters":14000,"station_id":"ce4bhch2rcd13ifvqeug","pricing_plan_id":"cebpf4jnsgd1na2vs0mg"},{"bike_id":"bb904d44-ca2e-48b0-8250-adccabe9ffcc","system_id":"levelo_inurba_marseille","lat":43.29786,"lon":5.38106,"is_reserved":false,"is_disabled":false,"rental_uris":{"android":"levelo://app?vid=bb904d44-ca2e-48b0-8250-adccabe9ffcc","ios":"levelo://app?vid=bb904d44-ca2e-48b0-8250-adccabe9ffcc"},"vehicle_type_id":"4","last_reported":1744121412,"current_range_meters":14000,"station_id":"ce4bgip2rcd13ifvqbb0","pricing_plan_id":"cebpf4jnsgd1na2vs0mg"},{"bike_id":"d131cfdb-7e25-4f64-8f39-e585b97585e3","system_id":"levelo_inurba_marseille","lat":43.28417,"lon":5.34982,"is_reserved":false,"is_disabled":false,"rental_uris":{"android":"levelo://app?vid=d131cfdb-7e25-4f64-8f39-e585b97585e3","ios":"levelo://app?vid=d131cfdb-7e25-4f64-8f39-e585b97585e3"},"vehicle_type_id":"4","last_reported":1744121412,"current_range_meters":14000,"station_id":"ce4bhbh2rcd13ifvqepg","pricing_plan_id":"cebpf4jnsgd1na2vs0mg"},{"bike_id":"e369bf82-6cc6-437c-90e2-7dde304cbc2f","system_id":"levelo_inurba_marseille","lat":43.24165,"lon":5.36396,"is_reserved":false,"is_disabled":false,"rental_uris":{"android":"levelo://app?vid=e369bf82-6cc6-437c-90e2-7dde304cbc2f","ios":"levelo://app?vid=e369bf82-6cc6-437c-90e2-7dde304cbc2f"},"vehicle_type_id":"4","last_reported":1744121412,"current_range_meters":14000,"station_id":"cpo36qri1sfpv3e86is0","pricing_plan_id":"cebpf4jnsgd1na2vs0mg"},{"bike_id":"6e2215c5-01cf-447b-9d39-17218ad4eea9","system_id":"levelo_inurba_marseille","lat":43.24801,"lon":5.3746,"is_reserved":false,"is_disabled":false,"rental_uris":{"android":"levelo://app?vid=6e2215c5-01cf-447b-9d39-17218ad4eea9","ios":"levelo://app?vid=6e2215c5-01cf-447b-9d39-17218ad4eea9"},"vehicle_type_id":"4","last_reported":1744121412,"current_range_meters":14400,"station_id":"ce4bhgh2rcd13ifvqfb0","pricing_plan_id":"cebpf4jnsgd1na2vs0mg"},{"bike_id":"cd5855d7-14b7-47dd-9c8b-cb3e4a80be36","system_id":"levelo_inurba_marseille","lat":43.28365,"lon":5.38642,"is_reserved":false,"is_disabled":false,"rental_uris":{"android":"levelo://app?vid=cd5855d7-14b7-47dd-9c8b-cb3e4a80be36","ios":"levelo://app?vid=cd5855d7-14b7-47dd-9c8b-cb3e4a80be36"},"vehicle_type_id":"4","last_reported":1744121412,"current_range_meters":14400,"station_id":"ce4bh492rcd13ifvqdvg","pricing_plan_id":"cebpf4jnsgd1na2vs0mg"},{"bike_id":"d9a00655-9937-4e00-82fd-08f0f84632ce","system_id":"levelo_inurba_marseille","lat":43.28371,"lon":5.38646,"is_reserved":false,"is_disabled":false,"rental_uris":{"android":"levelo://app?vid=d9a00655-9937-4e00-82fd-08f0f84632ce","ios":"levelo://app?vid=d9a00655-9937-4e00-82fd-08f0f84632ce"},"vehicle_type_id":"4","last_reported":1744121412,"current_range_meters":14400,"station_id":"ce4bh492rcd13ifvqdvg","pricing_plan_id":"cebpf4jnsgd1na2vs0mg"},{"bike_id":"9dca3891-9b7b-436b-b429-2efbd0592259","system_id":"levelo_inurba_marseille","lat":43.2849,"lon":5.38589,"is_reserved":false,"is_disabled":false,"rental_uris":{"android":"levelo://app?vid=9dca3891-9b7b-436b-b429-2efbd0592259","ios":"levelo://app?vid=9dca3891-9b7b-436b-b429-2efbd0592259"},"vehicle_type_id":"4","last_reported":1744121412,"current_range_meters":14400,"station_id":"ce4bh8p2rcd13ifvqeb0","pricing_plan_id":"cebpf4jnsgd1na2vs0mg"},{"bike_id":"938af3aa-4626-4b76-ab6f-c46a6f371448","system_id":"levelo_inurba_marseille","lat":43.21188,"lon":5.35088,"is_reserved":false,"is_disabled":false,"rental_uris":{"android":"levelo://app?vid=938af3aa-4626-4b76-ab6f-c46a6f371448","ios":"levelo://app?vid=938af3aa-4626-4b76-ab6f-c46a6f371448"},"vehicle_type_id":"4","last_reported":1744121412,"current_range_meters":14400,"station_id":"st_cvj6sg6p6f1abm77japg","pricing_plan_id":"cebpf4jnsgd1na2vs0mg"},{"bike_id":"56c7453a-4b90-4606-af9f-a42180c4ae62","system_id":"levelo_inurba_marseille","lat":43.25702,"lon":5.4111,"is_reserved":false,"is_disabled":false,"rental_uris":{"android":"levelo://app?vid=56c7453a-4b90-4606-af9f-a42180c4ae62","ios":"levelo://app?vid=56c7453a-4b90-4606-af9f-a42180c4ae62"},"vehicle_type_id":"4","last_reported":1744121412,"current_range_meters":14400,"station_id":"ce4bhkp2rcd13ifvqgd0","pricing_plan_id":"cebpf4jnsgd1na2vs0mg"},{"bike_id":"e5fd3e87-e999-47bf-9e70-4d9b0877d42b","system_id":"levelo_inurba_marseille","lat":43.26051,"lon":5.39399,"is_reserved":false,"is_disabled":false,"rental_uris":{"android":"levelo://app?vid=e5fd3e87-e999-47bf-9e70-4d9b0877d42b","ios":"levelo://app?vid=e5fd3e87-e999-47bf-9e70-4d9b0877d42b"},"vehicle_type_id":"4","last_reported":1744121412,"current_range_meters":14800,"station_id":"ce4bhh92rcd13ifvqfj0","pricing_plan_id":"cebpf4jnsgd1na2vs0mg"},{"bike_id":"852819f8-8577-46de-b1fa-432b264e47e4","system_id":"levelo_inurba_marseille","lat":43.24186,"lon":5.39729,"is_reserved":false,"is_disabled":false,"rental_uris":{"android":"levelo://app?vid=852819f8-8577-46de-b1fa-432b264e47e4","ios":"levelo://app?vid=852819f8-8577-46de-b1fa-432b264e47e4"},"vehicle_type_id":"4","last_reported":1744121412,"current_range_meters":14800,"station_id":"ce4bhn12rcd13ifvqgpg","pricing_plan_id":"cebpf4jnsgd1na2vs0mg"},{"bike_id":"f288ef47-f5bc-46ad-9e45-27d18ed31c1f","system_id":"levelo_inurba_marseille","lat":43.25501,"lon":5.37652,"is_reserved":false,"is_disabled":false,"rental_uris":{"android":"levelo://app?vid=f288ef47-f5bc-46ad-9e45-27d18ed31c1f","ios":"levelo://app?vid=f288ef47-f5bc-46ad-9e45-27d18ed31c1f"},"vehicle_type_id":"4","last_reported":1744121412,"current_range_meters":14800,"station_id":"ce4bhh12rcd13ifvqff0","pricing_plan_id":"cebpf4jnsgd1na2vs0mg"},{"bike_id":"f3d476a0-2fa3-46de-82dc-f0c839aa2122","system_id":"levelo_inurba_marseille","lat":43.30779,"lon":5.37652,"is_reserved":false,"is_disabled":false,"rental_uris":{"android":"levelo://app?vid=f3d476a0-2fa3-46de-82dc-f0c839aa2122","ios":"levelo://app?vid=f3d476a0-2fa3-46de-82dc-f0c839aa2122"},"vehicle_type_id":"4","last_reported":1744121412,"current_range_meters":14800,"station_id":"ce4bgv92rcd13ifvqcq0","pricing_plan_id":"cebpf4jnsgd1na2vs0mg"},{"bike_id":"3b7ee1d6-18a1-436c-80ef-0981adce94e9","system_id":"levelo_inurba_marseille","lat":43.287,"lon":5.37395,"is_reserved":false,"is_disabled":false,"rental_uris":{"android":"levelo://app?vid=3b7ee1d6-18a1-436c-80ef-0981adce94e9","ios":"levelo://app?vid=3b7ee1d6-18a1-436c-80ef-0981adce94e9"},"vehicle_type_id":"4","last_reported":1744121412,"current_range_meters":15200,"station_id":"ce4bh3p2rcd13ifvqdq0","pricing_plan_id":"cebpf4jnsgd1na2vs0mg"},{"bike_id":"b82be460-391f-4622-8721-ae14d7086d04","system_id":"levelo_inurba_marseille","lat":43.27371,"lon":5.36259,"is_reserved":false,"is_disabled":false,"rental_uris":{"android":"levelo://app?vid=b82be460-391f-4622-8721-ae14d7086d04","ios":"levelo://app?vid=b82be460-391f-4622-8721-ae14d7086d04"},"vehicle_type_id":"4","last_reported":1744121412,"current_range_meters":15200,"station_id":"ce4bhbh2rcd13ifvqeo0","pricing_plan_id":"cebpf4jnsgd1na2vs0mg"},{"bike_id":"778ae29f-c0cc-4885-b47f-d5af45df93e2","system_id":"levelo_inurba_marseille","lat":43.26942,"lon":5.386373,"is_reserved":false,"is_disabled":false,"rental_uris":{"android":"levelo://app?vid=778ae29f-c0cc-4885-b47f-d5af45df93e2","ios":"levelo://app?vid=778ae29f-c0cc-4885-b47f-d5af45df93e2"},"vehicle_type_id":"4","last_reported":1744121412,"current_range_meters":15200,"station_id":"ce4bhh92rcd13ifvqfh0","pricing_plan_id":"cebpf4jnsgd1na2vs0mg"},{"bike_id":"ad344dcc-3c2d-4f06-ba90-42f7e7237719","system_id":"levelo_inurba_marseille","lat":43.29776,"lon":5.37096,"is_reserved":false,"is_disabled":false,"rental_uris":{"android":"levelo://app?vid=ad344dcc-3c2d-4f06-ba90-42f7e7237719","ios":"levelo://app?vid=ad344dcc-3c2d-4f06-ba90-42f7e7237719"},"vehicle_type_id":"4","last_reported":1744121412,"current_range_meters":15200,"station_id":"ce4bgop2rcd13ifvqc1g","pricing_plan_id":"cebpf4jnsgd1na2vs0mg"},{"bike_id":"b3eaef5b-dac9-4f1e-aa7e-dd808d1ba556","system_id":"levelo_inurba_marseille","lat":43.31361,"lon":5.36722,"is_reserved":false,"is_disabled":false,"rental_uris":{"android":"levelo://app?vid=b3eaef5b-dac9-4f1e-aa7e-dd808d1ba556","ios":"levelo://app?vid=b3eaef5b-dac9-4f1e-aa7e-dd808d1ba556"},"vehicle_type_id":"4","last_reported":1744121412,"current_range_meters":16000,"station_id":"ce4bgr92rcd13ifvqc6g","pricing_plan_id":"cebpf4jnsgd1na2vs0mg"},{"bike_id":"0af03d3f-f21d-4916-8e8b-2cafda4bac5b","system_id":"levelo_inurba_marseille","lat":43.25492,"lon":5.37648,"is_reserved":false,"is_disabled":false,"rental_uris":{"android":"levelo://app?vid=0af03d3f-f21d-4916-8e8b-2cafda4bac5b","ios":"levelo://app?vid=0af03d3f-f21d-4916-8e8b-2cafda4bac5b"},"vehicle_type_id":"4","last_reported":1744121412,"current_range_meters":15200,"station_id":"ce4bhh12rcd13ifvqff0","pricing_plan_id":"cebpf4jnsgd1na2vs0mg"},{"bike_id":"d220da27-bb5e-4ca4-b262-16736cac0246","system_id":"levelo_inurba_marseille","lat":43.28426,"lon":5.3499,"is_reserved":false,"is_disabled":false,"rental_uris":{"android":"levelo://app?vid=d220da27-bb5e-4ca4-b262-16736cac0246","ios":"levelo://app?vid=d220da27-bb5e-4ca4-b262-16736cac0246"},"vehicle_type_id":"4","last_reported":1744121412,"current_range_meters":16000,"station_id":"ce4bhbh2rcd13ifvqepg","pricing_plan_id":"cebpf4jnsgd1na2vs0mg"},{"bike_id":"c7a7cb72-094c-45dd-b3f0-e9ee814fbe54","system_id":"levelo_inurba_marseille","lat":43.22514,"lon":5.34784,"is_reserved":false,"is_disabled":false,"rental_uris":{"android":"levelo://app?vid=c7a7cb72-094c-45dd-b3f0-e9ee814fbe54","ios":"levelo://app?vid=c7a7cb72-094c-45dd-b3f0-e9ee814fbe54"},"vehicle_type_id":"4","last_reported":1744121412,"current_range_meters":16000,"station_id":"st_cvj5dfep6f1abm77gieg","pricing_plan_id":"cebpf4jnsgd1na2vs0mg"},{"bike_id":"748d9fcc-75df-4b82-a50f-d9451ac1ca58","system_id":"levelo_inurba_marseille","lat":43.24174,"lon":5.39724,"is_reserved":false,"is_disabled":false,"rental_uris":{"android":"levelo://app?vid=748d9fcc-75df-4b82-a50f-d9451ac1ca58","ios":"levelo://app?vid=748d9fcc-75df-4b82-a50f-d9451ac1ca58"},"vehicle_type_id":"4","last_reported":1744121412,"current_range_meters":16000,"station_id":"ce4bhn12rcd13ifvqgpg","pricing_plan_id":"cebpf4jnsgd1na2vs0mg"},{"bike_id":"80b28a06-0460-4c38-af0e-3afb42278e3e","system_id":"levelo_inurba_marseille","lat":43.29902,"lon":5.38142,"is_reserved":false,"is_disabled":false,"rental_uris":{"android":"levelo://app?vid=80b28a06-0460-4c38-af0e-3afb42278e3e","ios":"levelo://app?vid=80b28a06-0460-4c38-af0e-3afb42278e3e"},"vehicle_type_id":"4","last_reported":1744121412,"current_range_meters":16000,"station_id":"ce4bgj12rcd13ifvqbc0","pricing_plan_id":"cebpf4jnsgd1na2vs0mg"},{"bike_id":"3b1bcdcd-f955-42f5-bf83-85261567bb8a","system_id":"levelo_inurba_marseille","lat":43.28274,"lon":5.3509,"is_reserved":false,"is_disabled":false,"rental_uris":{"android":"levelo://app?vid=3b1bcdcd-f955-42f5-bf83-85261567bb8a","ios":"levelo://app?vid=3b1bcdcd-f955-42f5-bf83-85261567bb8a"},"vehicle_type_id":"4","last_reported":1744121412,"current_range_meters":16000,"station_id":"ce4bhbp2rcd13ifvqerg","pricing_plan_id":"cebpf4jnsgd1na2vs0mg"},{"bike_id":"e24c6fd3-f9cb-40c7-9e57-dd2c20540e9b","system_id":"levelo_inurba_marseille","lat":43.31723,"lon":5.424,"is_reserved":false,"is_disabled":false,"rental_uris":{"android":"levelo://app?vid=e24c6fd3-f9cb-40c7-9e57-dd2c20540e9b","ios":"levelo://app?vid=e24c6fd3-f9cb-40c7-9e57-dd2c20540e9b"},"vehicle_type_id":"4","last_reported":1744121412,"current_range_meters":16000,"station_id":"ce4bhp92rcd13ifvqhbg","pricing_plan_id":"cebpf4jnsgd1na2vs0mg"},{"bike_id":"f72f75a5-43f0-45ff-942a-fd3cc84b7d49","system_id":"levelo_inurba_marseille","lat":43.27374,"lon":5.36249,"is_reserved":false,"is_disabled":false,"rental_uris":{"android":"levelo://app?vid=f72f75a5-43f0-45ff-942a-fd3cc84b7d49","ios":"levelo://app?vid=f72f75a5-43f0-45ff-942a-fd3cc84b7d49"},"vehicle_type_id":"4","last_reported":1744121412,"current_range_meters":16000,"station_id":"ce4bhbh2rcd13ifvqeo0","pricing_plan_id":"cebpf4jnsgd1na2vs0mg"},{"bike_id":"8de911fb-750c-45f4-afe3-d7903f67d759","system_id":"levelo_inurba_marseille","lat":43.28421,"lon":5.34943,"is_reserved":false,"is_disabled":false,"rental_uris":{"android":"levelo://app?vid=8de911fb-750c-45f4-afe3-d7903f67d759","ios":"levelo://app?vid=8de911fb-750c-45f4-afe3-d7903f67d759"},"vehicle_type_id":"4","last_reported":1744121412,"current_range_meters":16000,"station_id":"ce4bhbh2rcd13ifvqepg","pricing_plan_id":"cebpf4jnsgd1na2vs0mg"},{"bike_id":"f9bb641a-3aa6-454b-8c6e-e8ef8bccd17c","system_id":"levelo_inurba_marseille","lat":43.29028,"lon":5.35578,"is_reserved":false,"is_disabled":false,"rental_uris":{"android":"levelo://app?vid=f9bb641a-3aa6-454b-8c6e-e8ef8bccd17c","ios":"levelo://app?vid=f9bb641a-3aa6-454b-8c6e-e8ef8bccd17c"},"vehicle_type_id":"4","last_reported":1744121412,"current_range_meters":16400,"station_id":"ce4bhb92rcd13ifvqen0","pricing_plan_id":"cebpf4jnsgd1na2vs0mg"},{"bike_id":"4860c08b-4ef3-4607-9d0a-259178908859","system_id":"levelo_inurba_marseille","lat":43.2749,"lon":5.42455,"is_reserved":false,"is_disabled":false,"rental_uris":{"android":"levelo://app?vid=4860c08b-4ef3-4607-9d0a-259178908859","ios":"levelo://app?vid=4860c08b-4ef3-4607-9d0a-259178908859"},"vehicle_type_id":"4","last_reported":1744121412,"current_range_meters":16400,"station_id":"ce4bhn92rcd13ifvqgrg","pricing_plan_id":"cebpf4jnsgd1na2vs0mg"},{"bike_id":"ffd23061-d90c-47a4-89fb-f1646bcdff1c","system_id":"levelo_inurba_marseille","lat":43.2707,"lon":5.42281,"is_reserved":false,"is_disabled":false,"rental_uris":{"android":"levelo://app?vid=ffd23061-d90c-47a4-89fb-f1646bcdff1c","ios":"levelo://app?vid=ffd23061-d90c-47a4-89fb-f1646bcdff1c"},"vehicle_type_id":"4","last_reported":1744121412,"current_range_meters":16400,"station_id":"ce4bhk92rcd13ifvqgb0","pricing_plan_id":"cebpf4jnsgd1na2vs0mg"},{"bike_id":"92c822fe-ff9f-4023-a7a2-fe479a6e58f0","system_id":"levelo_inurba_marseille","lat":43.30529,"lon":5.36534,"is_reserved":false,"is_disabled":false,"rental_uris":{"android":"levelo://app?vid=92c822fe-ff9f-4023-a7a2-fe479a6e58f0","ios":"levelo://app?vid=92c822fe-ff9f-4023-a7a2-fe479a6e58f0"},"vehicle_type_id":"4","last_reported":1744121412,"current_range_meters":16400,"station_id":"ce4bgs12rcd13ifvqcag","pricing_plan_id":"cebpf4jnsgd1na2vs0mg"},{"bike_id":"46c99737-914c-4908-aeb8-48d54b22c93a","system_id":"levelo_inurba_marseille","lat":43.31713,"lon":5.42407,"is_reserved":false,"is_disabled":false,"rental_uris":{"android":"levelo://app?vid=46c99737-914c-4908-aeb8-48d54b22c93a","ios":"levelo://app?vid=46c99737-914c-4908-aeb8-48d54b22c93a"},"vehicle_type_id":"4","last_reported":1744121412,"current_range_meters":16400,"station_id":"ce4bhp92rcd13ifvqhbg","pricing_plan_id":"cebpf4jnsgd1na2vs0mg"},{"bike_id":"5cd55434-0ee1-47bf-a02c-188eab98bd0d","system_id":"levelo_inurba_marseille","lat":43.30415,"lon":5.41284,"is_reserved":false,"is_disabled":false,"rental_uris":{"android":"levelo://app?vid=5cd55434-0ee1-47bf-a02c-188eab98bd0d","ios":"levelo://app?vid=5cd55434-0ee1-47bf-a02c-188eab98bd0d"},"vehicle_type_id":"4","last_reported":1744121412,"current_range_meters":16400,"station_id":"ce4bhop2rcd13ifvqh8g","pricing_plan_id":"cebpf4jnsgd1na2vs0mg"},{"bike_id":"1bd13a7d-0679-4e49-80f4-6344c093eaf2","system_id":"levelo_inurba_marseille","lat":43.25582,"lon":5.38243,"is_reserved":false,"is_disabled":false,"rental_uris":{"android":"levelo://app?vid=1bd13a7d-0679-4e49-80f4-6344c093eaf2","ios":"levelo://app?vid=1bd13a7d-0679-4e49-80f4-6344c093eaf2"},"vehicle_type_id":"4","last_reported":1744121412,"current_range_meters":16800,"station_id":"ce4bhih2rcd13ifvqfs0","pricing_plan_id":"cebpf4jnsgd1na2vs0mg"},{"bike_id":"34145812-0e18-49d8-ba9c-ca44c922ead0","system_id":"levelo_inurba_marseille","lat":43.248074,"lon":5.374573,"is_reserved":false,"is_disabled":false,"rental_uris":{"android":"levelo://app?vid=34145812-0e18-49d8-ba9c-ca44c922ead0","ios":"levelo://app?vid=34145812-0e18-49d8-ba9c-ca44c922ead0"},"vehicle_type_id":"4","last_reported":1744121412,"current_range_meters":16800,"station_id":"ce4bhgh2rcd13ifvqfb0","pricing_plan_id":"cebpf4jnsgd1na2vs0mg"},{"bike_id":"85a76ecc-4c66-47d9-b042-bbda4482e9a2","system_id":"levelo_inurba_marseille","lat":43.28041,"lon":5.3694,"is_reserved":false,"is_disabled":false,"rental_uris":{"android":"levelo://app?vid=85a76ecc-4c66-47d9-b042-bbda4482e9a2","ios":"levelo://app?vid=85a76ecc-4c66-47d9-b042-bbda4482e9a2"},"vehicle_type_id":"4","last_reported":1744121412,"current_range_meters":16800,"station_id":"ce4bha12rcd13ifvqef0","pricing_plan_id":"cebpf4jnsgd1na2vs0mg"},{"bike_id":"6457813b-91c8-4881-a63f-4f6ecbd16b2f","system_id":"levelo_inurba_marseille","lat":43.28613,"lon":5.35104,"is_reserved":false,"is_disabled":false,"rental_uris":{"android":"levelo://app?vid=6457813b-91c8-4881-a63f-4f6ecbd16b2f","ios":"levelo://app?vid=6457813b-91c8-4881-a63f-4f6ecbd16b2f"},"vehicle_type_id":"4","last_reported":1744121412,"current_range_meters":16800,"station_id":"ce4bhch2rcd13ifvqeug","pricing_plan_id":"cebpf4jnsgd1na2vs0mg"},{"bike_id":"2628e6bd-b679-49bc-9af2-e3c1f9dbead2","system_id":"levelo_inurba_marseille","lat":43.28726,"lon":5.36077,"is_reserved":false,"is_disabled":false,"rental_uris":{"android":"levelo://app?vid=2628e6bd-b679-49bc-9af2-e3c1f9dbead2","ios":"levelo://app?vid=2628e6bd-b679-49bc-9af2-e3c1f9dbead2"},"vehicle_type_id":"4","last_reported":1744121412,"current_range_meters":16800,"station_id":"cki0cbj6b192h4jlfktg","pricing_plan_id":"cebpf4jnsgd1na2vs0mg"},{"bike_id":"d5c0918c-4021-4f5a-a2cb-a74b493b3636","system_id":"levelo_inurba_marseille","lat":43.24169,"lon":5.36401,"is_reserved":false,"is_disabled":false,"rental_uris":{"android":"levelo://app?vid=d5c0918c-4021-4f5a-a2cb-a74b493b3636","ios":"levelo://app?vid=d5c0918c-4021-4f5a-a2cb-a74b493b3636"},"vehicle_type_id":"4","last_reported":1744121412,"current_range_meters":16800,"station_id":"cpo36qri1sfpv3e86is0","pricing_plan_id":"cebpf4jnsgd1na2vs0mg"},{"bike_id":"1e099cf5-9456-4ac3-8d36-9153ce8a87f2","system_id":"levelo_inurba_marseille","lat":43.29567,"lon":5.39959,"is_reserved":false,"is_disabled":true,"rental_uris":{"android":"levelo://app?vid=1e099cf5-9456-4ac3-8d36-9153ce8a87f2","ios":"levelo://app?vid=1e099cf5-9456-4ac3-8d36-9153ce8a87f2"},"vehicle_type_id":"4","last_reported":1744121412,"current_range_meters":17200,"station_id":"ce4bh312rcd13ifvqdj0","pricing_plan_id":"cebpf4jnsgd1na2vs0mg"},{"bike_id":"dc87015a-af2a-4f15-902d-c021b1c9a0e6","system_id":"levelo_inurba_marseille","lat":43.30896,"lon":5.39646,"is_reserved":false,"is_disabled":false,"rental_uris":{"android":"levelo://app?vid=dc87015a-af2a-4f15-902d-c021b1c9a0e6","ios":"levelo://app?vid=dc87015a-af2a-4f15-902d-c021b1c9a0e6"},"vehicle_type_id":"4","last_reported":1744121412,"current_range_meters":17200,"station_id":"ce4bh012rcd13ifvqcv0","pricing_plan_id":"cebpf4jnsgd1na2vs0mg"},{"bike_id":"a39ff9c3-8391-4246-bc08-bfe789d104d3","system_id":"levelo_inurba_marseille","lat":43.31228,"lon":5.36847,"is_reserved":false,"is_disabled":false,"rental_uris":{"android":"levelo://app?vid=a39ff9c3-8391-4246-bc08-bfe789d104d3","ios":"levelo://app?vid=a39ff9c3-8391-4246-bc08-bfe789d104d3"},"vehicle_type_id":"4","last_reported":1744121412,"current_range_meters":17200,"station_id":"ce4bgl92rcd13ifvqbq0","pricing_plan_id":"cebpf4jnsgd1na2vs0mg"},{"bike_id":"5273534c-3473-4abd-9c4b-e677a5c1499a","system_id":"levelo_inurba_marseille","lat":43.2902,"lon":5.36969,"is_reserved":false,"is_disabled":false,"rental_uris":{"android":"levelo://app?vid=5273534c-3473-4abd-9c4b-e677a5c1499a","ios":"levelo://app?vid=5273534c-3473-4abd-9c4b-e677a5c1499a"},"vehicle_type_id":"4","last_reported":1744121412,"current_range_meters":17200,"station_id":"","pricing_plan_id":"cebpf4jnsgd1na2vs0mg"},{"bike_id":"f3df46a2-9cc6-40fb-a8cf-816e6fd135f2","system_id":"levelo_inurba_marseille","lat":43.324853,"lon":5.382664,"is_reserved":false,"is_disabled":false,"rental_uris":{"android":"levelo://app?vid=f3df46a2-9cc6-40fb-a8cf-816e6fd135f2","ios":"levelo://app?vid=f3df46a2-9cc6-40fb-a8cf-816e6fd135f2"},"vehicle_type_id":"4","last_reported":1744121412,"current_range_meters":17200,"station_id":"ce4bgth2rcd13ifvqch0","pricing_plan_id":"cebpf4jnsgd1na2vs0mg"},{"bike_id":"8da7e182-e861-4dc8-b9db-124368a227c9","system_id":"levelo_inurba_marseille","lat":43.33024,"lon":5.39039,"is_reserved":false,"is_disabled":false,"rental_uris":{"android":"levelo://app?vid=8da7e182-e861-4dc8-b9db-124368a227c9","ios":"levelo://app?vid=8da7e182-e861-4dc8-b9db-124368a227c9"},"vehicle_type_id":"4","last_reported":1744121412,"current_range_meters":17600,"station_id":"ce4bhr92rcd13ifvqhrg","pricing_plan_id":"cebpf4jnsgd1na2vs0mg"},{"bike_id":"5f11688d-b62b-4562-ac08-c3ff1e4d72a1","system_id":"levelo_inurba_marseille","lat":43.28154,"lon":5.42647,"is_reserved":false,"is_disabled":false,"rental_uris":{"android":"levelo://app?vid=5f11688d-b62b-4562-ac08-c3ff1e4d72a1","ios":"levelo://app?vid=5f11688d-b62b-4562-ac08-c3ff1e4d72a1"},"vehicle_type_id":"4","last_reported":1744121412,"current_range_meters":17600,"station_id":"ce4bhnh2rcd13ifvqgug","pricing_plan_id":"cebpf4jnsgd1na2vs0mg"},{"bike_id":"27768073-dde6-48e9-bf13-e40e2934834a","system_id":"levelo_inurba_marseille","lat":43.24173,"lon":5.39732,"is_reserved":false,"is_disabled":false,"rental_uris":{"android":"levelo://app?vid=27768073-dde6-48e9-bf13-e40e2934834a","ios":"levelo://app?vid=27768073-dde6-48e9-bf13-e40e2934834a"},"vehicle_type_id":"4","last_reported":1744121412,"current_range_meters":17600,"station_id":"ce4bhn12rcd13ifvqgpg","pricing_plan_id":"cebpf4jnsgd1na2vs0mg"},{"bike_id":"838b6c94-0e01-4187-9134-a2d054992184","system_id":"levelo_inurba_marseille","lat":43.26226,"lon":5.4045,"is_reserved":false,"is_disabled":false,"rental_uris":{"android":"levelo://app?vid=838b6c94-0e01-4187-9134-a2d054992184","ios":"levelo://app?vid=838b6c94-0e01-4187-9134-a2d054992184"},"vehicle_type_id":"4","last_reported":1744121412,"current_range_meters":17600,"station_id":"ce4bhmh2rcd13ifvqgmg","pricing_plan_id":"cebpf4jnsgd1na2vs0mg"},{"bike_id":"af35f528-8d25-40f1-a0b3-955a3cd5f527","system_id":"levelo_inurba_marseille","lat":43.285007,"lon":5.394438,"is_reserved":false,"is_disabled":false,"rental_uris":{"android":"levelo://app?vid=af35f528-8d25-40f1-a0b3-955a3cd5f527","ios":"levelo://app?vid=af35f528-8d25-40f1-a0b3-955a3cd5f527"},"vehicle_type_id":"4","last_reported":1744121412,"current_range_meters":18000,"station_id":"ce4bh292rcd13ifvqdg0","pricing_plan_id":"cebpf4jnsgd1na2vs0mg"},{"bike_id":"52dfef30-eef0-4dd6-a138-a48c8dcc2c3a","system_id":"levelo_inurba_marseille","lat":43.30384,"lon":5.42767,"is_reserved":false,"is_disabled":true,"rental_uris":{"android":"levelo://app?vid=52dfef30-eef0-4dd6-a138-a48c8dcc2c3a","ios":"levelo://app?vid=52dfef30-eef0-4dd6-a138-a48c8dcc2c3a"},"vehicle_type_id":"4","last_reported":1744121412,"current_range_meters":18000,"station_id":"","pricing_plan_id":"cebpf4jnsgd1na2vs0mg"},{"bike_id":"33586a7c-f52a-4f7d-9e96-bb7e2cca08c4","system_id":"levelo_inurba_marseille","lat":43.28616,"lon":5.35101,"is_reserved":false,"is_disabled":false,"rental_uris":{"android":"levelo://app?vid=33586a7c-f52a-4f7d-9e96-bb7e2cca08c4","ios":"levelo://app?vid=33586a7c-f52a-4f7d-9e96-bb7e2cca08c4"},"vehicle_type_id":"4","last_reported":1744121412,"current_range_meters":18000,"station_id":"ce4bhch2rcd13ifvqeug","pricing_plan_id":"cebpf4jnsgd1na2vs0mg"},{"bike_id":"b37944fb-f9c1-4c8e-ac3a-9da227afb433","system_id":"levelo_inurba_marseille","lat":43.3081,"lon":5.38146,"is_reserved":false,"is_disabled":true,"rental_uris":{"android":"levelo://app?vid=b37944fb-f9c1-4c8e-ac3a-9da227afb433","ios":"levelo://app?vid=b37944fb-f9c1-4c8e-ac3a-9da227afb433"},"vehicle_type_id":"4","last_reported":1744121412,"current_range_meters":18000,"station_id":"ce4bgt12rcd13ifvqce0","pricing_plan_id":"cebpf4jnsgd1na2vs0mg"},{"bike_id":"8b02b398-7e69-4517-b745-659a010c21f3","system_id":"levelo_inurba_marseille","lat":43.27165,"lon":5.40997,"is_reserved":false,"is_disabled":false,"rental_uris":{"android":"levelo://app?vid=8b02b398-7e69-4517-b745-659a010c21f3","ios":"levelo://app?vid=8b02b398-7e69-4517-b745-659a010c21f3"},"vehicle_type_id":"4","last_reported":1744121412,"current_range_meters":18000,"station_id":"ce4bhl12rcd13ifvqgf0","pricing_plan_id":"cebpf4jnsgd1na2vs0mg"},{"bike_id":"9f2d0244-f31e-4b70-a107-9fcab4aa7eae","system_id":"levelo_inurba_marseille","lat":43.27381,"lon":5.36261,"is_reserved":false,"is_disabled":false,"rental_uris":{"android":"levelo://app?vid=9f2d0244-f31e-4b70-a107-9fcab4aa7eae","ios":"levelo://app?vid=9f2d0244-f31e-4b70-a107-9fcab4aa7eae"},"vehicle_type_id":"4","last_reported":1744121412,"current_range_meters":18000,"station_id":"ce4bhbh2rcd13ifvqeo0","pricing_plan_id":"cebpf4jnsgd1na2vs0mg"},{"bike_id":"3c583870-4069-4701-b273-c3ce225cf097","system_id":"levelo_inurba_marseille","lat":43.25498,"lon":5.37654,"is_reserved":false,"is_disabled":false,"rental_uris":{"android":"levelo://app?vid=3c583870-4069-4701-b273-c3ce225cf097","ios":"levelo://app?vid=3c583870-4069-4701-b273-c3ce225cf097"},"vehicle_type_id":"4","last_reported":1744121412,"current_range_meters":18000,"station_id":"ce4bhh12rcd13ifvqff0","pricing_plan_id":"cebpf4jnsgd1na2vs0mg"},{"bike_id":"b497db2f-45f7-40e8-bc7e-106ebe5f2593","system_id":"levelo_inurba_marseille","lat":43.305304,"lon":5.367161,"is_reserved":false,"is_disabled":false,"rental_uris":{"android":"levelo://app?vid=b497db2f-45f7-40e8-bc7e-106ebe5f2593","ios":"levelo://app?vid=b497db2f-45f7-40e8-bc7e-106ebe5f2593"},"vehicle_type_id":"4","last_reported":1744121412,"current_range_meters":18800,"station_id":"ce4bgrp2rcd13ifvqc9g","pricing_plan_id":"cebpf4jnsgd1na2vs0mg"},{"bike_id":"0103d34f-185b-423b-b8b4-4b2e88b3eb7e","system_id":"levelo_inurba_marseille","lat":43.27945,"lon":5.4104,"is_reserved":false,"is_disabled":false,"rental_uris":{"android":"levelo://app?vid=0103d34f-185b-423b-b8b4-4b2e88b3eb7e","ios":"levelo://app?vid=0103d34f-185b-423b-b8b4-4b2e88b3eb7e"},"vehicle_type_id":"4","last_reported":1744121412,"current_range_meters":18800,"station_id":"ce4bhnp2rcd13ifvqh0g","pricing_plan_id":"cebpf4jnsgd1na2vs0mg"},{"bike_id":"ffa44d8b-2d4b-416a-a68e-6f2cf44e1fea","system_id":"levelo_inurba_marseille","lat":43.27362,"lon":5.36259,"is_reserved":false,"is_disabled":false,"rental_uris":{"android":"levelo://app?vid=ffa44d8b-2d4b-416a-a68e-6f2cf44e1fea","ios":"levelo://app?vid=ffa44d8b-2d4b-416a-a68e-6f2cf44e1fea"},"vehicle_type_id":"4","last_reported":1744121412,"current_range_meters":18800,"station_id":"ce4bhbh2rcd13ifvqeo0","pricing_plan_id":"cebpf4jnsgd1na2vs0mg"},{"bike_id":"7f0461a3-eda9-4a6e-a747-45172186b6cb","system_id":"levelo_inurba_marseille","lat":43.2815,"lon":5.42647,"is_reserved":false,"is_disabled":false,"rental_uris":{"android":"levelo://app?vid=7f0461a3-eda9-4a6e-a747-45172186b6cb","ios":"levelo://app?vid=7f0461a3-eda9-4a6e-a747-45172186b6cb"},"vehicle_type_id":"4","last_reported":1744121412,"current_range_meters":18800,"station_id":"ce4bhnh2rcd13ifvqgug","pricing_plan_id":"cebpf4jnsgd1na2vs0mg"},{"bike_id":"6995c95e-e12f-499b-a4fc-347df14b734e","system_id":"levelo_inurba_marseille","lat":43.28616,"lon":5.35106,"is_reserved":false,"is_disabled":false,"rental_uris":{"android":"levelo://app?vid=6995c95e-e12f-499b-a4fc-347df14b734e","ios":"levelo://app?vid=6995c95e-e12f-499b-a4fc-347df14b734e"},"vehicle_type_id":"4","last_reported":1744121412,"current_range_meters":18800,"station_id":"ce4bhch2rcd13ifvqeug","pricing_plan_id":"cebpf4jnsgd1na2vs0mg"},{"bike_id":"d1ab4a48-3ebf-4448-991f-741c70a9cfa1","system_id":"levelo_inurba_marseille","lat":43.28412,"lon":5.34988,"is_reserved":false,"is_disabled":false,"rental_uris":{"android":"levelo://app?vid=d1ab4a48-3ebf-4448-991f-741c70a9cfa1","ios":"levelo://app?vid=d1ab4a48-3ebf-4448-991f-741c70a9cfa1"},"vehicle_type_id":"4","last_reported":1744121412,"current_range_meters":18800,"station_id":"ce4bhbh2rcd13ifvqepg","pricing_plan_id":"cebpf4jnsgd1na2vs0mg"},{"bike_id":"6e5ac126-c372-4a39-b836-bcab5ad1f2e7","system_id":"levelo_inurba_marseille","lat":43.24172,"lon":5.36402,"is_reserved":false,"is_disabled":false,"rental_uris":{"android":"levelo://app?vid=6e5ac126-c372-4a39-b836-bcab5ad1f2e7","ios":"levelo://app?vid=6e5ac126-c372-4a39-b836-bcab5ad1f2e7"},"vehicle_type_id":"4","last_reported":1744121412,"current_range_meters":19200,"station_id":"cpo36qri1sfpv3e86is0","pricing_plan_id":"cebpf4jnsgd1na2vs0mg"},{"bike_id":"03f1cdbc-7776-4280-aebb-6a3e15b193f3","system_id":"levelo_inurba_marseille","lat":43.26226,"lon":5.4045,"is_reserved":false,"is_disabled":false,"rental_uris":{"android":"levelo://app?vid=03f1cdbc-7776-4280-aebb-6a3e15b193f3","ios":"levelo://app?vid=03f1cdbc-7776-4280-aebb-6a3e15b193f3"},"vehicle_type_id":"4","last_reported":1744121412,"current_range_meters":19200,"station_id":"ce4bhmh2rcd13ifvqgmg","pricing_plan_id":"cebpf4jnsgd1na2vs0mg"},{"bike_id":"6b68cb44-2214-4363-bbfb-6597cc95cf8e","system_id":"levelo_inurba_marseille","lat":43.2737,"lon":5.36258,"is_reserved":false,"is_disabled":false,"rental_uris":{"android":"levelo://app?vid=6b68cb44-2214-4363-bbfb-6597cc95cf8e","ios":"levelo://app?vid=6b68cb44-2214-4363-bbfb-6597cc95cf8e"},"vehicle_type_id":"4","last_reported":1744121412,"current_range_meters":19200,"station_id":"ce4bhbh2rcd13ifvqeo0","pricing_plan_id":"cebpf4jnsgd1na2vs0mg"},{"bike_id":"1c847153-94c1-43ae-841d-ed1885c3844f","system_id":"levelo_inurba_marseille","lat":43.287,"lon":5.37952,"is_reserved":false,"is_disabled":false,"rental_uris":{"android":"levelo://app?vid=1c847153-94c1-43ae-841d-ed1885c3844f","ios":"levelo://app?vid=1c847153-94c1-43ae-841d-ed1885c3844f"},"vehicle_type_id":"4","last_reported":1744121412,"current_range_meters":19200,"station_id":"ce4bh9p2rcd13ifvqec0","pricing_plan_id":"cebpf4jnsgd1na2vs0mg"},{"bike_id":"c1c63035-c83b-4419-8cbf-133778d95125","system_id":"levelo_inurba_marseille","lat":43.29779,"lon":5.39336,"is_reserved":false,"is_disabled":true,"rental_uris":{"android":"levelo://app?vid=c1c63035-c83b-4419-8cbf-133778d95125","ios":"levelo://app?vid=c1c63035-c83b-4419-8cbf-133778d95125"},"vehicle_type_id":"4","last_reported":1744121412,"current_range_meters":19200,"station_id":"chh1huq6cuj3fo74tm60","pricing_plan_id":"cebpf4jnsgd1na2vs0mg"},{"bike_id":"8fac91fa-9b3d-4ad0-bede-583061a959b8","system_id":"levelo_inurba_marseille","lat":43.2738,"lon":5.36254,"is_reserved":false,"is_disabled":false,"rental_uris":{"android":"levelo://app?vid=8fac91fa-9b3d-4ad0-bede-583061a959b8","ios":"levelo://app?vid=8fac91fa-9b3d-4ad0-bede-583061a959b8"},"vehicle_type_id":"4","last_reported":1744121412,"current_range_meters":19200,"station_id":"ce4bhbh2rcd13ifvqeo0","pricing_plan_id":"cebpf4jnsgd1na2vs0mg"},{"bike_id":"4818a333-e2d7-4f15-b301-c1332126dbfb","system_id":"levelo_inurba_marseille","lat":43.30922,"lon":5.3684,"is_reserved":false,"is_disabled":false,"rental_uris":{"android":"levelo://app?vid=4818a333-e2d7-4f15-b301-c1332126dbfb","ios":"levelo://app?vid=4818a333-e2d7-4f15-b301-c1332126dbfb"},"vehicle_type_id":"4","last_reported":1744121412,"current_range_meters":19200,"station_id":"ce4bgn92rcd13ifvqbvg","pricing_plan_id":"cebpf4jnsgd1na2vs0mg"},{"bike_id":"6278194a-3064-41bd-8565-b8ff44b1552d","system_id":"levelo_inurba_marseille","lat":43.29533,"lon":5.38549,"is_reserved":false,"is_disabled":true,"rental_uris":{"android":"levelo://app?vid=6278194a-3064-41bd-8565-b8ff44b1552d","ios":"levelo://app?vid=6278194a-3064-41bd-8565-b8ff44b1552d"},"vehicle_type_id":"4","last_reported":1744121412,"current_range_meters":19200,"station_id":"ce4bgih2rcd13ifvqba0","pricing_plan_id":"cebpf4jnsgd1na2vs0mg"},{"bike_id":"d7b2134e-575c-40f1-9b3b-0ad40ab4b220","system_id":"levelo_inurba_marseille","lat":43.29843,"lon":5.43677,"is_reserved":false,"is_disabled":false,"rental_uris":{"android":"levelo://app?vid=d7b2134e-575c-40f1-9b3b-0ad40ab4b220","ios":"levelo://app?vid=d7b2134e-575c-40f1-9b3b-0ad40ab4b220"},"vehicle_type_id":"4","last_reported":1744121412,"current_range_meters":19200,"station_id":"ce4bhpp2rcd13ifvqhfg","pricing_plan_id":"cebpf4jnsgd1na2vs0mg"},{"bike_id":"75888e86-0bdd-4792-9457-bfa908acbb1b","system_id":"levelo_inurba_marseille","lat":43.30875,"lon":5.39644,"is_reserved":false,"is_disabled":false,"rental_uris":{"android":"levelo://app?vid=75888e86-0bdd-4792-9457-bfa908acbb1b","ios":"levelo://app?vid=75888e86-0bdd-4792-9457-bfa908acbb1b"},"vehicle_type_id":"4","last_reported":1744121412,"current_range_meters":19200,"station_id":"ce4bh012rcd13ifvqcv0","pricing_plan_id":"cebpf4jnsgd1na2vs0mg"},{"bike_id":"294e3a44-6a69-46e5-87fd-cbddf154da4c","system_id":"levelo_inurba_marseille","lat":43.28418,"lon":5.34987,"is_reserved":false,"is_disabled":false,"rental_uris":{"android":"levelo://app?vid=294e3a44-6a69-46e5-87fd-cbddf154da4c","ios":"levelo://app?vid=294e3a44-6a69-46e5-87fd-cbddf154da4c"},"vehicle_type_id":"4","last_reported":1744121412,"current_range_meters":19200,"station_id":"ce4bhbh2rcd13ifvqepg","pricing_plan_id":"cebpf4jnsgd1na2vs0mg"},{"bike_id":"48c44744-ba8a-46c5-a83d-0f033160ac07","system_id":"levelo_inurba_marseille","lat":43.26201,"lon":5.3745,"is_reserved":false,"is_disabled":false,"rental_uris":{"android":"levelo://app?vid=48c44744-ba8a-46c5-a83d-0f033160ac07","ios":"levelo://app?vid=48c44744-ba8a-46c5-a83d-0f033160ac07"},"vehicle_type_id":"4","last_reported":1744121412,"current_range_meters":19200,"station_id":"ce4bhgp2rcd13ifvqfc0","pricing_plan_id":"cebpf4jnsgd1na2vs0mg"},{"bike_id":"52211bc8-bafc-4966-8660-97691fa220af","system_id":"levelo_inurba_marseille","lat":43.27366,"lon":5.36256,"is_reserved":false,"is_disabled":false,"rental_uris":{"android":"levelo://app?vid=52211bc8-bafc-4966-8660-97691fa220af","ios":"levelo://app?vid=52211bc8-bafc-4966-8660-97691fa220af"},"vehicle_type_id":"4","last_reported":1744121412,"current_range_meters":19200,"station_id":"ce4bhbh2rcd13ifvqeo0","pricing_plan_id":"cebpf4jnsgd1na2vs0mg"},{"bike_id":"ad0ffa71-34fe-45a7-bf4c-e33cb25ec4af","system_id":"levelo_inurba_marseille","lat":43.30522,"lon":5.367,"is_reserved":false,"is_disabled":false,"rental_uris":{"android":"levelo://app?vid=ad0ffa71-34fe-45a7-bf4c-e33cb25ec4af","ios":"levelo://app?vid=ad0ffa71-34fe-45a7-bf4c-e33cb25ec4af"},"vehicle_type_id":"4","last_reported":1744121412,"current_range_meters":19600,"station_id":"ce4bgrp2rcd13ifvqc9g","pricing_plan_id":"cebpf4jnsgd1na2vs0mg"},{"bike_id":"168b3bd3-4d4f-4d90-a7bd-a1d4012eca2c","system_id":"levelo_inurba_marseille","lat":43.28423,"lon":5.34991,"is_reserved":false,"is_disabled":false,"rental_uris":{"android":"levelo://app?vid=168b3bd3-4d4f-4d90-a7bd-a1d4012eca2c","ios":"levelo://app?vid=168b3bd3-4d4f-4d90-a7bd-a1d4012eca2c"},"vehicle_type_id":"4","last_reported":1744121412,"current_range_meters":19600,"station_id":"ce4bhbh2rcd13ifvqepg","pricing_plan_id":"cebpf4jnsgd1na2vs0mg"},{"bike_id":"5d200865-e82d-47ff-b057-2f1ef512d668","system_id":"levelo_inurba_marseille","lat":43.26031,"lon":5.37563,"is_reserved":false,"is_disabled":false,"rental_uris":{"android":"levelo://app?vid=5d200865-e82d-47ff-b057-2f1ef512d668","ios":"levelo://app?vid=5d200865-e82d-47ff-b057-2f1ef512d668"},"vehicle_type_id":"4","last_reported":1744121412,"current_range_meters":19600,"station_id":"ce4bhgh2rcd13ifvqfa0","pricing_plan_id":"cebpf4jnsgd1na2vs0mg"},