{"last_updated":1683835618,"ttl":30,"version":"2.2","data":{"bikes":[{"bike_id":"0ae934da-8e6e-4e8c-b64d-8647b24ab0d9","system_id":"levelo_inurba_marseille","lat":43.312239,"lon":5.368562,"is_reserved":false,"is_disabled":false,"rental_uris":{"android":"levelo://app?vid=0ae934da-8e6e-4e8c-b64d-8647b24ab0d9","ios":"levelo://app?vid=0ae934da-8e6e-4e8c-b64d-8647b24ab0d9"},"vehicle_type_id":"4","last_reported":1683835618,"current_range_meters":19200,"station_id":"ce4bgl92rcd13ifvqbq0","pricing_plan_id":"free"},{"bike_id":"634f3891-a60a-46bd-b58f-258ffeef9930","system_id":"levelo_inurba_marseille","lat":43.312239,"lon":5.368562,"is_reserved":false,"is_disabled":false,"rental_uris":{"android":"levelo://app?vid=634f3891-a60a-46bd-b58f-258ffeef9930","ios":"levelo://app?vid=634f3891-a60a-46bd-b58f-258ffeef9930"},"vehicle_type_id":"4","last_reported":1683835618,"current_range_meters":26400,"station_id":"ce4bgl92rcd13ifvqbq0","pricing_plan_id":"free"},{"bike_id":"9e73ac15-2ec6-438a-8b2a-1c76cf0698bb","system_id":"levelo_inurba_marseille","lat":43.312239,"lon":5.368562,"is_reserved":false,"is_disabled":false,"rental_uris":{"android":"levelo://app?vid=9e73ac15-2ec6-438a-8b2a-1c76cf0698bb","ios":"levelo://app?vid=9e73ac15-2ec6-438a-8b2a-1c76cf0698bb"},"vehicle_type_id":"4","last_reported":1683835618,"current_range_meters":15200,"station_id":"ce4bgl92rcd13ifvqbq0","pricing_plan_id":"free"},{"bike_id":"f9e44f9b-0aeb-4f6c-99dc-9856e808ed3c","system_id":"levelo_inurba_marseille","lat":43.309076,"lon":5.368465,"is_reserved":false,"is_disabled":false,"rental_uris":{"android":"levelo://app?vid=f9e44f9b-0aeb-4f6c-99dc-9856e808ed3c","ios":"levelo://app?vid=f9e44f9b-0aeb-4f6c-99dc-9856e808ed3c"},"vehicle_type_id":"4","last_reported":1683835618,"current_range_meters":21600,"station_id":"ce4bgn92rcd13ifvqbvg","pricing_plan_id":"free"},{"bike_id":"d288020f-a6f3-4585-972d-dfc775558452","system_id":"levelo_inurba_marseille","lat":43.314811,"lon":5.373103,"is_reserved":false,"is_disabled":false,"rental_uris":{"android":"levelo://app?vid=d288020f-a6f3-4585-972d-dfc775558452","ios":"levelo://app?vid=d288020f-a6f3-4585-972d-dfc775558452"},"vehicle_type_id":"4","last_reported":1683835618,"current_range_meters":13200,"station_id":"ce4bgt12rcd13ifvqcd0","pricing_plan_id":"free"},{"bike_id":"8f45af67-d5cc-457e-aae5-5f05fd8d86f4","system_id":"levelo_inurba_marseille","lat":43.314811,"lon":5.373103,"is_reserved":false,"is_disabled":false,"rental_uris":{"android":"levelo://app?vid=8f45af67-d5cc-457e-aae5-5f05fd8d86f4","ios":"levelo://app?vid=8f45af67-d5cc-457e-aae5-5f05fd8d86f4"},"vehicle_type_id":"4","last_reported":1683835618,"current_range_meters":11600,"station_id":"ce4bgt12rcd13ifvqcd0","pricing_plan_id":"free"},{"bike_id":"0b6c66e2-f169-4e8f-bf39-d7eea5eacf6d","system_id":"levelo_inurba_marseille","lat":43.31481,"lon":5.37307,"is_reserved":false,"is_disabled":false,"rental_uris":{"android":"levelo://app?vid=0b6c66e2-f169-4e8f-bf39-d7eea5eacf6d","ios":"levelo://app?vid=0b6c66e2-f169-4e8f-bf39-d7eea5eacf6d"},"vehicle_type_id":"4","last_reported":1683835618,"current_range_meters":0,"station_id":"ce4bgt12rcd13ifvqcd0","pricing_plan_id":"free"},{"bike_id":"6353c599-045d-46ad-b157-4588fdf778ec","system_id":"levelo_inurba_marseille","lat":43.308614,"lon":5.372098,"is_reserved":false,"is_disabled":false,"rental_uris":{"android":"levelo://app?vid=6353c599-045d-46ad-b157-4588fdf778ec","ios":"levelo://app?vid=6353c599-045d-46ad-b157-4588fdf778ec"},"vehicle_type_id":"4","last_reported":1683835618,"current_range_meters":18800,"station_id":"ce4bguh2rcd13ifvqckg","pricing_plan_id":"free"},{"bike_id":"b95fd31b-d0ad-43a9-a020-a0ed6f2c4108","system_id":"levelo_inurba_marseille","lat":43.311131,"lon":5.377651,"is_reserved":false,"is_disabled":false,"rental_uris":{"android":"levelo://app?vid=b95fd31b-d0ad-43a9-a020-a0ed6f2c4108","ios":"levelo://app?vid=b95fd31b-d0ad-43a9-a020-a0ed6f2c4108"},"vehicle_type_id":"4","last_reported":1683835618,"current_range_meters":24000,"station_id":"ce4bgt92rcd13ifvqcg0","pricing_plan_id":"free"},{"bike_id":"b414f2a0-544d-4f14-97c7-77ba1b11654d","system_id":"levelo_inurba_marseille","lat":43.311131,"lon":5.377651,"is_reserved":false,"is_disabled":false,"rental_uris":{"android":"levelo://app?vid=b414f2a0-544d-4f14-97c7-77ba1b11654d","ios":"levelo://app?vid=b414f2a0-544d-4f14-97c7-77ba1b11654d"},"vehicle_type_id":"4","last_reported":1683835618,"current_range_meters":4800,"station_id":"ce4bgt92rcd13ifvqcg0","pricing_plan_id":"free"},{"bike_id":"4972ddac-b976-4943-a782-2244908bc345","system_id":"levelo_inurba_marseille","lat":43.30958,"lon":5.37944,"is_reserved":false,"is_disabled":false,"rental_uris":{"android":"levelo://app?vid=4972ddac-b976-4943-a782-2244908bc345","ios":"levelo://app?vid=4972ddac-b976-4943-a782-2244908bc345"},"vehicle_type_id":"4","last_reported":1683835618,"current_range_meters":400,"station_id":"ce4bgi12rcd13ifvqb80","pricing_plan_id":"free"},{"bike_id":"09800373-eca1-447f-8e43-dc5d1834a922","system_id":"levelo_inurba_marseille","lat":43.315293,"lon":5.380349,"is_reserved":false,"is_disabled":false,"rental_uris":{"android":"levelo://app?vid=09800373-eca1-447f-8e43-dc5d1834a922","ios":"levelo://app?vid=09800373-eca1-447f-8e43-dc5d1834a922"},"vehicle_type_id":"4","last_reported":1683835618,"current_range_meters":24400,"station_id":"ce4bhsp2rcd13ifvqi50","pricing_plan_id":"free"},{"bike_id":"7aed2eff-a9b8-4455-933b-5fbc3a8d5e2c","system_id":"levelo_inurba_marseille","lat":43.315289,"lon":5.380349,"is_reserved":false,"is_disabled":false,"rental_uris":{"android":"levelo://app?vid=7aed2eff-a9b8-4455-933b-5fbc3a8d5e2c","ios":"levelo://app?vid=7aed2eff-a9b8-4455-933b-5fbc3a8d5e2c"},"vehicle_type_id":"4","last_reported":1683835618,"current_range_meters":1600,"station_id":"ce4bhsp2rcd13ifvqi50","pricing_plan_id":"free"},{"bike_id":"a5ebb803-dedb-4c15-aa5b-76188b6041e0","system_id":"levelo_inurba_marseille","lat":43.315293,"lon":5.380349,"is_reserved":false,"is_disabled":false,"rental_uris":{"android":"levelo://app?vid=a5ebb803-dedb-4c15-aa5b-76188b6041e0","ios":"levelo://app?vid=a5ebb803-dedb-4c15-aa5b-76188b6041e0"},"vehicle_type_id":"4","last_reported":1683835618,"current_range_meters":21200,"station_id":"ce4bhsp2rcd13ifvqi50","pricing_plan_id":"free"},{"bike_id":"90252daa-476a-4a00-8b9a-c37b93a0bcbb","system_id":"levelo_inurba_marseille","lat":43.30796,"lon":5.38146,"is_reserved":false,"is_disabled":false,"rental_uris":{"android":"levelo://app?vid=90252daa-476a-4a00-8b9a-c37b93a0bcbb","ios":"levelo://app?vid=90252daa-476a-4a00-8b9a-c37b93a0bcbb"},"vehicle_type_id":"4","last_reported":1683835618,"current_range_meters":12000,"station_id":"ce4bgt12rcd13ifvqce0","pricing_plan_id":"free"},{"bike_id":"682583b7-2a0b-4554-a89a-3e7c86473fe8","system_id":"levelo_inurba_marseille","lat":43.304606,"lon":5.379026,"is_reserved":false,"is_disabled":false,"rental_uris":{"android":"levelo://app?vid=682583b7-2a0b-4554-a89a-3e7c86473fe8","ios":"levelo://app?vid=682583b7-2a0b-4554-a89a-3e7c86473fe8"},"vehicle_type_id":"4","last_reported":1683835618,"current_range_meters":4400,"station_id":"ce4bgup2rcd13ifvqcn0","pricing_plan_id":"free"},{"bike_id":"f1dffba1-3ead-4641-aead-b49aacb0a83f","system_id":"levelo_inurba_marseille","lat":43.313571,"lon":5.384829,"is_reserved":false,"is_disabled":false,"rental_uris":{"android":"levelo://app?vid=f1dffba1-3ead-4641-aead-b49aacb0a83f","ios":"levelo://app?vid=f1dffba1-3ead-4641-aead-b49aacb0a83f"},"vehicle_type_id":"4","last_reported":1683835618,"current_range_meters":12000,"station_id":"ce4bgt92rcd13ifvqcf0","pricing_plan_id":"free"},{"bike_id":"e8544594-9fdb-4bbb-8164-a2f70d2ad897","system_id":"levelo_inurba_marseille","lat":43.313571,"lon":5.384829,"is_reserved":false,"is_disabled":false,"rental_uris":{"android":"levelo://app?vid=e8544594-9fdb-4bbb-8164-a2f70d2ad897","ios":"levelo://app?vid=e8544594-9fdb-4bbb-8164-a2f70d2ad897"},"vehicle_type_id":"4","last_reported":1683835618,"current_range_meters":0,"station_id":"ce4bgt92rcd13ifvqcf0","pricing_plan_id":"free"},{"bike_id":"c84d783a-f22d-445a-a5a0-d08c11ad3183","system_id":"levelo_inurba_marseille","lat":43.313571,"lon":5.384829,"is_reserved":false,"is_disabled":false,"rental_uris":{"android":"levelo://app?vid=c84d783a-f22d-445a-a5a0-d08c11ad3183","ios":"levelo://app?vid=c84d783a-f22d-445a-a5a0-d08c11ad3183"},"vehicle_type_id":"4","last_reported":1683835618,"current_range_meters":14400,"station_id":"ce4bgt92rcd13ifvqcf0","pricing_plan_id":"free"},{"bike_id":"87f4f7a0-e835-4266-a6a6-6b76db8494eb","system_id":"levelo_inurba_marseille","lat":43.313571,"lon":5.384829,"is_reserved":false,"is_disabled":false,"rental_uris":{"android":"levelo://app?vid=87f4f7a0-e835-4266-a6a6-6b76db8494eb","ios":"levelo://app?vid=87f4f7a0-e835-4266-a6a6-6b76db8494eb"},"vehicle_type_id":"4","last_reported":1683835618,"current_range_meters":31200,"station_id":"ce4bgt92rcd13ifvqcf0","pricing_plan_id":"free"},{"bike_id":"bfda6436-078d-419d-a57d-a4e10dd8b437","system_id":"levelo_inurba_marseille","lat":43.313571,"lon":5.384829,"is_reserved":false,"is_disabled":false,"rental_uris":{"android":"levelo://app?vid=bfda6436-078d-419d-a57d-a4e10dd8b437","ios":"levelo://app?vid=bfda6436-078d-419d-a57d-a4e10dd8b437"},"vehicle_type_id":"4","last_reported":1683835618,"current_range_meters":1200,"station_id":"ce4bgt92rcd13ifvqcf0","pricing_plan_id":"free"},{"bike_id":"a3cb4e7f-0ea5-4250-89bd-f08f3d471d49","system_id":"levelo_inurba_marseille","lat":43.313571,"lon":5.384829,"is_reserved":false,"is_disabled":false,"rental_uris":{"android":"levelo://app?vid=a3cb4e7f-0ea5-4250-89bd-f08f3d471d49","ios":"levelo://app?vid=a3cb4e7f-0ea5-4250-89bd-f08f3d471d49"},"vehicle_type_id":"4","last_reported":1683835618,"current_range_meters":4000,"station_id":"ce4bgt92rcd13ifvqcf0","pricing_plan_id":"free"},{"bike_id":"11355a26-ce04-4637-b186-e63c722271b4","system_id":"levelo_inurba_marseille","lat":43.31364,"lon":5.38518,"is_reserved":false,"is_disabled":false,"rental_uris":{"android":"levelo://app?vid=11355a26-ce04-4637-b186-e63c722271b4","ios":"levelo://app?vid=11355a26-ce04-4637-b186-e63c722271b4"},"vehicle_type_id":"4","last_reported":1683835618,"current_range_meters":13600,"station_id":"","pricing_plan_id":"free"},{"bike_id":"7de66255-895b-4316-9818-6ddb41cf565d","system_id":"levelo_inurba_marseille","lat":43.299222,"lon":5.365554,"is_reserved":false,"is_disabled":false,"rental_uris":{"android":"levelo://app?vid=7de66255-895b-4316-9818-6ddb41cf565d","ios":"levelo://app?vid=7de66255-895b-4316-9818-6ddb41cf565d"},"vehicle_type_id":"4","last_reported":1683835618,"current_range_meters":4000,"station_id":"ce4bgm92rcd13ifvqbr0","pricing_plan_id":"free"},{"bike_id":"ef79fdd8-da51-4d9a-9bc2-026691a545a7","system_id":"levelo_inurba_marseille","lat":43.305364,"lon":5.384119,"is_reserved":false,"is_disabled":false,"rental_uris":{"android":"levelo://app?vid=ef79fdd8-da51-4d9a-9bc2-026691a545a7","ios":"levelo://app?vid=ef79fdd8-da51-4d9a-9bc2-026691a545a7"},"vehicle_type_id":"4","last_reported":1683835618,"current_range_meters":4400,"station_id":"ce4bgg92rcd13ifvqb30","pricing_plan_id":"free"},{"bike_id":"4764fbe4-5995-47c4-9f07-0bb229f55351","system_id":"levelo_inurba_marseille","lat":43.311722,"lon":5.387247,"is_reserved":false,"is_disabled":false,"rental_uris":{"android":"levelo://app?vid=4764fbe4-5995-47c4-9f07-0bb229f55351","ios":"levelo://app?vid=4764fbe4-5995-47c4-9f07-0bb229f55351"},"vehicle_type_id":"4","last_reported":1683835618,"current_range_meters":2800,"station_id":"ce4bgv12rcd13ifvqcp0","pricing_plan_id":"free"},{"bike_id":"2f96f4b7-d3f1-4b87-b98f-caf50ba6d13d","system_id":"levelo_inurba_marseille","lat":43.32762,"lon":5.36693,"is_reserved":false,"is_disabled":false,"rental_uris":{"android":"levelo://app?vid=2f96f4b7-d3f1-4b87-b98f-caf50ba6d13d","ios":"levelo://app?vid=2f96f4b7-d3f1-4b87-b98f-caf50ba6d13d"},"vehicle_type_id":"4","last_reported":1683835618,"current_range_meters":19200,"station_id":"","pricing_plan_id":"free"},{"bike_id":"dc1b8ebd-dede-429a-b119-0ca47be45320","system_id":"levelo_inurba_marseille","lat":43.297774,"lon":5.370875,"is_reserved":false,"is_disabled":false,"rental_uris":{"android":"levelo://app?vid=dc1b8ebd-dede-429a-b119-0ca47be45320","ios":"levelo://app?vid=dc1b8ebd-dede-429a-b119-0ca47be45320"},"vehicle_type_id":"4","last_reported":1683835618,"current_range_meters":21600,"station_id":"ce4bgop2rcd13ifvqc1g","pricing_plan_id":"free"},{"bike_id":"b2eeddbd-d0fd-4228-90de-f8e410a5b73a","system_id":"levelo_inurba_marseille","lat":43.297774,"lon":5.370875,"is_reserved":false,"is_disabled":false,"rental_uris":{"android":"levelo://app?vid=b2eeddbd-d0fd-4228-90de-f8e410a5b73a","ios":"levelo://app?vid=b2eeddbd-d0fd-4228-90de-f8e410a5b73a"},"vehicle_type_id":"4","last_reported":1683835618,"current_range_meters":16800,"station_id":"ce4bgop2rcd13ifvqc1g","pricing_plan_id":"free"},{"bike_id":"b1262093-6340-4ea8-b5dd-a5236523aa86","system_id":"levelo_inurba_marseille","lat":43.297832,"lon":5.371089,"is_reserved":false,"is_disabled":false,"rental_uris":{"android":"levelo://app?vid=b1262093-6340-4ea8-b5dd-a5236523aa86","ios":"levelo://app?vid=b1262093-6340-4ea8-b5dd-a5236523aa86"},"vehicle_type_id":"4","last_reported":1683835618,"current_range_meters":10800,"station_id":"","pricing_plan_id":"free"},{"bike_id":"afcb6986-356b-4859-8c29-ac34da7debef","system_id":"levelo_inurba_marseille","lat":43.32826,"lon":5.3668,"is_reserved":false,"is_disabled":false,"rental_uris":{"android":"levelo://app?vid=afcb6986-356b-4859-8c29-ac34da7debef","ios":"levelo://app?vid=afcb6986-356b-4859-8c29-ac34da7debef"},"vehicle_type_id":"4","last_reported":1683835618,"current_range_meters":22800,"station_id":"ce4bhs92rcd13ifvqi0g","pricing_plan_id":"free"},{"bike_id":"9466398a-ab63-492b-a983-e43b41d0acd9","system_id":"levelo_inurba_marseille","lat":43.32832,"lon":5.36682,"is_reserved":false,"is_disabled":false,"rental_uris":{"android":"levelo://app?vid=9466398a-ab63-492b-a983-e43b41d0acd9","ios":"levelo://app?vid=9466398a-ab63-492b-a983-e43b41d0acd9"},"vehicle_type_id":"4","last_reported":1683835618,"current_range_meters":8400,"station_id":"ce4bhs92rcd13ifvqi0g","pricing_plan_id":"free"},{"bike_id":"2be82f79-e3a2-4567-8fca-bd9d15afdecb","system_id":"levelo_inurba_marseille","lat":43.32833,"lon":5.36681,"is_reserved":false,"is_disabled":false,"rental_uris":{"android":"levelo://app?vid=2be82f79-e3a2-4567-8fca-bd9d15afdecb","ios":"levelo://app?vid=2be82f79-e3a2-4567-8fca-bd9d15afdecb"},"vehicle_type_id":"4","last_reported":1683835618,"current_range_meters":24000,"station_id":"ce4bhs92rcd13ifvqi0g","pricing_plan_id":"free"},{"bike_id":"b4b5d2f8-79bb-4164-9d73-764bd2366590","system_id":"levelo_inurba_marseille","lat":43.32835,"lon":5.36682,"is_reserved":false,"is_disabled":false,"rental_uris":{"android":"levelo://app?vid=b4b5d2f8-79bb-4164-9d73-764bd2366590","ios":"levelo://app?vid=b4b5d2f8-79bb-4164-9d73-764bd2366590"},"vehicle_type_id":"4","last_reported":1683835618,"current_range_meters":0,"station_id":"ce4bhs92rcd13ifvqi0g","pricing_plan_id":"free"},{"bike_id":"a43bb755-57b3-4dca-9972-7e70c5be6ed9","system_id":"levelo_inurba_marseille","lat":43.32835,"lon":5.36677,"is_reserved":false,"is_disabled":false,"rental_uris":{"android":"levelo://app?vid=a43bb755-57b3-4dca-9972-7e70c5be6ed9","ios":"levelo://app?vid=a43bb755-57b3-4dca-9972-7e70c5be6ed9"},"vehicle_type_id":"4","last_reported":1683835618,"current_range_meters":10000,"station_id":"ce4bhs92rcd13ifvqi0g","pricing_plan_id":"free"},{"bike_id":"1947f8f3-4469-4118-bbf1-4f1d9c715805","system_id":"levelo_inurba_marseille","lat":43.317557,"lon":5.390173,"is_reserved":false,"is_disabled":false,"rental_uris":{"android":"levelo://app?vid=1947f8f3-4469-4118-bbf1-4f1d9c715805","ios":"levelo://app?vid=1947f8f3-4469-4118-bbf1-4f1d9c715805"},"vehicle_type_id":"4","last_reported":1683835618,"current_range_meters":20400,"station_id":"ce4bhqp2rcd13ifvqhng","pricing_plan_id":"free"},{"bike_id":"c52157db-38b9-4052-8281-b7f835d73599","system_id":"levelo_inurba_marseille","lat":43.3176,"lon":5.39011,"is_reserved":false,"is_disabled":false,"rental_uris":{"android":"levelo://app?vid=c52157db-38b9-4052-8281-b7f835d73599","ios":"levelo://app?vid=c52157db-38b9-4052-8281-b7f835d73599"},"vehicle_type_id":"4","last_reported":1683835618,"current_range_meters":1200,"station_id":"ce4bhqp2rcd13ifvqhng","pricing_plan_id":"free"},{"bike_id":"8128bf0a-e817-4f56-a609-37c577f5d054","system_id":"levelo_inurba_marseille","lat":43.317557,"lon":5.390173,"is_reserved":false,"is_disabled":false,"rental_uris":{"android":"levelo://app?vid=8128bf0a-e817-4f56-a609-37c577f5d054","ios":"levelo://app?vid=8128bf0a-e817-4f56-a609-37c577f5d054"},"vehicle_type_id":"4","last_reported":1683835618,"current_range_meters":7200,"station_id":"ce4bhqp2rcd13ifvqhng","pricing_plan_id":"free"},{"bike_id":"9db086e2-c5f4-4246-bfe3-5cd54baed79f","system_id":"levelo_inurba_marseille","lat":43.3176,"lon":5.39019,"is_reserved":false,"is_disabled":false,"rental_uris":{"android":"levelo://app?vid=9db086e2-c5f4-4246-bfe3-5cd54baed79f","ios":"levelo://app?vid=9db086e2-c5f4-4246-bfe3-5cd54baed79f"},"vehicle_type_id":"4","last_reported":1683835618,"current_range_meters":25200,"station_id":"ce4bhqp2rcd13ifvqhng","pricing_plan_id":"free"},{"bike_id":"2d7ddae0-75c5-4f27-bb77-758cf5ca3c9f","system_id":"levelo_inurba_marseille","lat":43.317557,"lon":5.390173,"is_reserved":false,"is_disabled":false,"rental_uris":{"android":"levelo://app?vid=2d7ddae0-75c5-4f27-bb77-758cf5ca3c9f","ios":"levelo://app?vid=2d7ddae0-75c5-4f27-bb77-758cf5ca3c9f"},"vehicle_type_id":"4","last_reported":1683835618,"current_range_meters":14800,"station_id":"ce4bhqp2rcd13ifvqhng","pricing_plan_id":"free"},{"bike_id":"096747d2-be2c-41ce-a182-b5bae8168c27","system_id":"levelo_inurba_marseille","lat":43.298037,"lon":5.381066,"is_reserved":false,"is_disabled":false,"rental_uris":{"android":"levelo://app?vid=096747d2-be2c-41ce-a182-b5bae8168c27","ios":"levelo://app?vid=096747d2-be2c-41ce-a182-b5bae8168c27"},"vehicle_type_id":"4","last_reported":1683835618,"current_range_meters":3600,"station_id":"ce4bgip2rcd13ifvqbb0","pricing_plan_id":"free"},{"bike_id":"ce2ba6d0-3b0a-40fd-9347-824bc1977744","system_id":"levelo_inurba_marseille","lat":43.304278,"lon":5.388868,"is_reserved":false,"is_disabled":false,"rental_uris":{"android":"levelo://app?vid=ce2ba6d0-3b0a-40fd-9347-824bc1977744","ios":"levelo://app?vid=ce2ba6d0-3b0a-40fd-9347-824bc1977744"},"vehicle_type_id":"4","last_reported":1683835618,"current_range_meters":27600,"station_id":"ce4bgk12rcd13ifvqbi0","pricing_plan_id":"free"},{"bike_id":"b2a57a0f-df6a-4aed-86fb-037040c25194","system_id":"levelo_inurba_marseille","lat":43.298037,"lon":5.381066,"is_reserved":false,"is_disabled":false,"rental_uris":{"android":"levelo://app?vid=b2a57a0f-df6a-4aed-86fb-037040c25194","ios":"levelo://app?vid=b2a57a0f-df6a-4aed-86fb-037040c25194"},"vehicle_type_id":"4","last_reported":1683835618,"current_range_meters":29200,"station_id":"ce4bgip2rcd13ifvqbb0","pricing_plan_id":"free"},{"bike_id":"89f542f1-53e0-4e10-970b-5d8bdfaabea7","system_id":"levelo_inurba_marseille","lat":43.304278,"lon":5.388868,"is_reserved":false,"is_disabled":false,"rental_uris":{"android":"levelo://app?vid=89f542f1-53e0-4e10-970b-5d8bdfaabea7","ios":"levelo://app?vid=89f542f1-53e0-4e10-970b-5d8bdfaabea7"},"vehicle_type_id":"4","last_reported":1683835618,"current_range_meters":1600,"station_id":"ce4bgk12rcd13ifvqbi0","pricing_plan_id":"free"},{"bike_id":"8df68812-c9ca-4ff9-bfd6-cc348d0d2a2e","system_id":"levelo_inurba_marseille","lat":43.304278,"lon":5.388868,"is_reserved":false,"is_disabled":false,"rental_uris":{"android":"levelo://app?vid=8df68812-c9ca-4ff9-bfd6-cc348d0d2a2e","ios":"levelo://app?vid=8df68812-c9ca-4ff9-bfd6-cc348d0d2a2e"},"vehicle_type_id":"4","last_reported":1683835618,"current_range_meters":8000,"station_id":"ce4bgk12rcd13ifvqbi0","pricing_plan_id":"free"},{"bike_id":"2f7ebc1e-60b2-43ce-9c42-207a2db2f02e","system_id":"levelo_inurba_marseille","lat":43.299724,"lon":5.384848,"is_reserved":false,"is_disabled":false,"rental_uris":{"android":"levelo://app?vid=2f7ebc1e-60b2-43ce-9c42-207a2db2f02e","ios":"levelo://app?vid=2f7ebc1e-60b2-43ce-9c42-207a2db2f02e"},"vehicle_type_id":"4","last_reported":1683835618,"current_range_meters":16400,"station_id":"ce4bgj92rcd13ifvqbd0","pricing_plan_id":"free"},{"bike_id":"da90b4d7-5da9-4bef-a66c-616eb8a9d325","system_id":"levelo_inurba_marseille","lat":43.295279,"lon":5.375048,"is_reserved":false,"is_disabled":false,"rental_uris":{"android":"levelo://app?vid=da90b4d7-5da9-4bef-a66c-616eb8a9d325","ios":"levelo://app?vid=da90b4d7-5da9-4bef-a66c-616eb8a9d325"},"vehicle_type_id":"4","last_reported":1683835618,"current_range_meters":16000,"station_id":"ce4bgkp2rcd13ifvqbmg","pricing_plan_id":"free"},{"bike_id":"097082c5-c309-458c-9260-6a4b56aaca04","system_id":"levelo_inurba_marseille","lat":43.29602,"lon":5.381084,"is_reserved":false,"is_disabled":false,"rental_uris":{"android":"levelo://app?vid=097082c5-c309-458c-9260-6a4b56aaca04","ios":"levelo://app?vid=097082c5-c309-458c-9260-6a4b56aaca04"},"vehicle_type_id":"4","last_reported":1683835618,"current_range_meters":23200,"station_id":"ce4bgl12rcd13ifvqbo0","pricing_plan_id":"free"},{"bike_id":"fb279e40-667c-4488-82ff-53d887cb36a5","system_id":"levelo_inurba_marseille","lat":43.292749,"lon":5.368398,"is_reserved":false,"is_disabled":false,"rental_uris":{"android":"levelo://app?vid=fb279e40-667c-4488-82ff-53d887cb36a5","ios":"levelo://app?vid=fb279e40-667c-4488-82ff-53d887cb36a5"},"vehicle_type_id":"4","last_reported":1683835618,"current_range_meters":11200,"station_id":"ce4bhbp2rcd13ifvqesg","pricing_plan_id":"free"},{"bike_id":"1e705572-1746-4676-9426-2433bbc0b977","system_id":"levelo_inurba_marseille","lat":43.293009,"lon":5.374584,"is_reserved":false,"is_disabled":false,"rental_uris":{"android":"levelo://app?vid=1e705572-1746-4676-9426-2433bbc0b977","ios":"levelo://app?vid=1e705572-1746-4676-9426-2433bbc0b977"},"vehicle_type_id":"4","last_reported":1683835618,"current_range_meters":30400,"station_id":"ce4bgi12rcd13ifvqb70","pricing_plan_id":"free"},{"bike_id":"444ccc45-eb43-4f31-9cb8-0253a709a12f","system_id":"levelo_inurba_marseille","lat":43.30085,"lon":5.390856,"is_reserved":false,"is_disabled":false,"rental_uris":{"android":"levelo://app?vid=444ccc45-eb43-4f31-9cb8-0253a709a12f","ios":"levelo://app?vid=444ccc45-eb43-4f31-9cb8-0253a709a12f"},"vehicle_type_id":"4","last_reported":1683835618,"current_range_meters":10800,"station_id":"ce4bh192rcd13ifvqdb0","pricing_plan_id":"free"},{"bike_id":"8f529701-710e-4cb1-b162-9bac895816cb","system_id":"levelo_inurba_marseille","lat":43.30085,"lon":5.390856,"is_reserved":false,"is_disabled":false,"rental_uris":{"android":"levelo://app?vid=8f529701-710e-4cb1-b162-9bac895816cb","ios":"levelo://app?vid=8f529701-710e-4cb1-b162-9bac895816cb"},"vehicle_type_id":"4","last_reported":1683835618,"current_range_meters":31200,"station_id":"ce4bh192rcd13ifvqdb0","pricing_plan_id":"free"},{"bike_id":"17e38c6f-8dff-4bea-a5be-8045ae669134","system_id":"levelo_inurba_marseille","lat":43.30085,"lon":5.390856,"is_reserved":false,"is_disabled":false,"rental_uris":{"android":"levelo://app?vid=17e38c6f-8dff-4bea-a5be-8045ae669134","ios":"levelo://app?vid=17e38c6f-8dff-4bea-a5be-8045ae669134"},"vehicle_type_id":"4","last_reported":1683835618,"current_range_meters":15200,"station_id":"ce4bh192rcd13ifvqdb0","pricing_plan_id":"free"},{"bike_id":"e9db0986-493b-4262-859b-8bc0106589a4","system_id":"levelo_inurba_marseille","lat":43.30085,"lon":5.390856,"is_reserved":false,"is_disabled":false,"rental_uris":{"android":"levelo://app?vid=e9db0986-493b-4262-859b-8bc0106589a4","ios":"levelo://app?vid=e9db0986-493b-4262-859b-8bc0106589a4"},"vehicle_type_id":"4","last_reported":1683835618,"current_range_meters":18400,"station_id":"ce4bh192rcd13ifvqdb0","pricing_plan_id":"free"},{"bike_id":"be833b3c-962a-4061-8f96-bb89a23ccca9","system_id":"levelo_inurba_marseille","lat":43.30085,"lon":5.390856,"is_reserved":false,"is_disabled":false,"rental_uris":{"android":"levelo://app?vid=be833b3c-962a-4061-8f96-bb89a23ccca9","ios":"levelo://app?vid=be833b3c-962a-4061-8f96-bb89a23ccca9"},"vehicle_type_id":"4","last_reported":1683835618,"current_range_meters":2400,"station_id":"ce4bh192rcd13ifvqdb0","pricing_plan_id":"free"},{"bike_id":"d75d0732-878b-4369-882e-f19fe8db6782","system_id":"levelo_inurba_marseille","lat":43.29199,"lon":5.35816,"is_reserved":false,"is_disabled":false,"rental_uris":{"android":"levelo://app?vid=d75d0732-878b-4369-882e-f19fe8db6782","ios":"levelo://app?vid=d75d0732-878b-4369-882e-f19fe8db6782"},"vehicle_type_id":"4","last_reported":1683835618,"current_range_meters":14800,"station_id":"","pricing_plan_id":"free"},{"bike_id":"8e291836-c71f-4e6a-9d2c-3f10b76f718e","system_id":"levelo_inurba_marseille","lat":43.29194,"lon":5.35803,"is_reserved":false,"is_disabled":false,"rental_uris":{"android":"levelo://app?vid=8e291836-c71f-4e6a-9d2c-3f10b76f718e","ios":"levelo://app?vid=8e291836-c71f-4e6a-9d2c-3f10b76f718e"},"vehicle_type_id":"4","last_reported":1683835618,"current_range_meters":16800,"station_id":"","pricing_plan_id":"free"},{"bike_id":"4f9350fc-4b13-4992-84b3-2a3efeccacae","system_id":"levelo_inurba_marseille","lat":43.309038,"lon":5.396546,"is_reserved":false,"is_disabled":false,"rental_uris":{"android":"levelo://app?vid=4f9350fc-4b13-4992-84b3-2a3efeccacae","ios":"levelo://app?vid=4f9350fc-4b13-4992-84b3-2a3efeccacae"},"vehicle_type_id":"4","last_reported":1683835618,"current_range_meters":21600,"station_id":"ce4bh012rcd13ifvqcv0","pricing_plan_id":"free"},{"bike_id":"8cff9d44-c78f-4cd2-b6f4-f78b5b90e1b4","system_id":"levelo_inurba_marseille","lat":43.309038,"lon":5.396546,"is_reserved":false,"is_disabled":false,"rental_uris":{"android":"levelo://app?vid=8cff9d44-c78f-4cd2-b6f4-f78b5b90e1b4","ios":"levelo://app?vid=8cff9d44-c78f-4cd2-b6f4-f78b5b90e1b4"},"vehicle_type_id":"4","last_reported":1683835618,"current_range_meters":30800,"station_id":"ce4bh012rcd13ifvqcv0","pricing_plan_id":"free"},{"bike_id":"bbdb49f9-a9d2-4746-8164-05438f82bf6c","system_id":"levelo_inurba_marseille","lat":43.309038,"lon":5.396546,"is_reserved":false,"is_disabled":false,"rental_uris":{"android":"levelo://app?vid=bbdb49f9-a9d2-4746-8164-05438f82bf6c","ios":"levelo://app?vid=bbdb49f9-a9d2-4746-8164-05438f82bf6c"},"vehicle_type_id":"4","last_reported":1683835618,"current_range_meters":29600,"station_id":"ce4bh012rcd13ifvqcv0","pricing_plan_id":"free"},{"bike_id":"65682eba-b56f-4b03-90da-3d70ec5df09c","system_id":"levelo_inurba_marseille","lat":43.31322,"lon":5.3969,"is_reserved":false,"is_disabled":false,"rental_uris":{"android":"levelo://app?vid=65682eba-b56f-4b03-90da-3d70ec5df09c","ios":"levelo://app?vid=65682eba-b56f-4b03-90da-3d70ec5df09c"},"vehicle_type_id":"4","last_reported":1683835618,"current_range_meters":5600,"station_id":"ce4bgvp2rcd13ifvqcu0","pricing_plan_id":"free"},{"bike_id":"89194808-5c37-4adc-8194-0c75e8d3c734","system_id":"levelo_inurba_marseille","lat":43.313291,"lon":5.396838,"is_reserved":false,"is_disabled":false,"rental_uris":{"android":"levelo://app?vid=89194808-5c37-4adc-8194-0c75e8d3c734","ios":"levelo://app?vid=89194808-5c37-4adc-8194-0c75e8d3c734"},"vehicle_type_id":"4","last_reported":1683835618,"current_range_meters":800,"station_id":"ce4bgvp2rcd13ifvqcu0","pricing_plan_id":"free"},{"bike_id":"b1688492-1a62-4d1e-a0f8-928de1a5ce80","system_id":"levelo_inurba_marseille","lat":43.309038,"lon":5.396546,"is_reserved":false,"is_disabled":false,"rental_uris":{"android":"levelo://app?vid=b1688492-1a62-4d1e-a0f8-928de1a5ce80","ios":"levelo://app?vid=b1688492-1a62-4d1e-a0f8-928de1a5ce80"},"vehicle_type_id":"4","last_reported":1683835618,"current_range_meters":6000,"station_id":"ce4bh012rcd13ifvqcv0","pricing_plan_id":"free"},{"bike_id":"6e1e0ebf-cd87-42cd-8923-ffcd27de824c","system_id":"levelo_inurba_marseille","lat":43.29193,"lon":5.35786,"is_reserved":false,"is_disabled":false,"rental_uris":{"android":"levelo://app?vid=6e1e0ebf-cd87-42cd-8923-ffcd27de824c","ios":"levelo://app?vid=6e1e0ebf-cd87-42cd-8923-ffcd27de824c"},"vehicle_type_id":"4","last_reported":1683835618,"current_range_meters":31200,"station_id":"","pricing_plan_id":"free"},{"bike_id":"b5fe510c-6df3-47c7-b1a4-b887a08664e9","system_id":"levelo_inurba_marseille","lat":43.309038,"lon":5.396546,"is_reserved":false,"is_disabled":false,"rental_uris":{"android":"levelo://app?vid=b5fe510c-6df3-47c7-b1a4-b887a08664e9","ios":"levelo://app?vid=b5fe510c-6df3-47c7-b1a4-b887a08664e9"},"vehicle_type_id":"4","last_reported":1683835618,"current_range_meters":2800,"station_id":"ce4bh012rcd13ifvqcv0","pricing_plan_id":"free"},{"bike_id":"2d72918a-0a65-455b-9f4a-e5125fa03012","system_id":"levelo_inurba_marseille","lat":43.3133,"lon":5.39693,"is_reserved":false,"is_disabled":false,"rental_uris":{"android":"levelo://app?vid=2d72918a-0a65-455b-9f4a-e5125fa03012","ios":"levelo://app?vid=2d72918a-0a65-455b-9f4a-e5125fa03012"},"vehicle_type_id":"4","last_reported":1683835618,"current_range_meters":3600,"station_id":"ce4bgvp2rcd13ifvqcu0","pricing_plan_id":"free"},{"bike_id":"cb1f809d-373e-41b6-a68c-8d80633064b2","system_id":"levelo_inurba_marseille","lat":43.2919,"lon":5.35794,"is_reserved":false,"is_disabled":false,"rental_uris":{"android":"levelo://app?vid=cb1f809d-373e-41b6-a68c-8d80633064b2","ios":"levelo://app?vid=cb1f809d-373e-41b6-a68c-8d80633064b2"},"vehicle_type_id":"4","last_reported":1683835618,"current_range_meters":5600,"station_id":"","pricing_plan_id":"free"},{"bike_id":"9c781ae8-341e-4c24-9287-7dca908894b0","system_id":"levelo_inurba_marseille","lat":43.31318,"lon":5.39694,"is_reserved":false,"is_disabled":false,"rental_uris":{"android":"levelo://app?vid=9c781ae8-341e-4c24-9287-7dca908894b0","ios":"levelo://app?vid=9c781ae8-341e-4c24-9287-7dca908894b0"},"vehicle_type_id":"4","last_reported":1683835618,"current_range_meters":10400,"station_id":"ce4bgvp2rcd13ifvqcu0","pricing_plan_id":"free"},{"bike_id":"f0bacf1e-5ca7-4e49-99b4-d044c3fbdea0","system_id":"levelo_inurba_marseille","lat":43.31329,"lon":5.39694,"is_reserved":false,"is_disabled":false,"rental_uris":{"android":"levelo://app?vid=f0bacf1e-5ca7-4e49-99b4-d044c3fbdea0","ios":"levelo://app?vid=f0bacf1e-5ca7-4e49-99b4-d044c3fbdea0"},"vehicle_type_id":"4","last_reported":1683835618,"current_range_meters":1200,"station_id":"ce4bgvp2rcd13ifvqcu0","pricing_plan_id":"free"},{"bike_id":"b95c60c6-66e5-426e-8cdb-2728632759a7","system_id":"levelo_inurba_marseille","lat":43.313291,"lon":5.396838,"is_reserved":false,"is_disabled":false,"rental_uris":{"android":"levelo://app?vid=b95c60c6-66e5-426e-8cdb-2728632759a7","ios":"levelo://app?vid=b95c60c6-66e5-426e-8cdb-2728632759a7"},"vehicle_type_id":"4","last_reported":1683835618,"current_range_meters":800,"station_id":"ce4bgvp2rcd13ifvqcu0","pricing_plan_id":"free"},{"bike_id":"81ad1314-9fce-45ce-b57a-f015dbca1541","system_id":"levelo_inurba_marseille","lat":43.30878,"lon":5.39647,"is_reserved":false,"is_disabled":false,"rental_uris":{"android":"levelo://app?vid=81ad1314-9fce-45ce-b57a-f015dbca1541","ios":"levelo://app?vid=81ad1314-9fce-45ce-b57a-f015dbca1541"},"vehicle_type_id":"4","last_reported":1683835618,"current_range_meters":5200,"station_id":"","pricing_plan_id":"free"},{"bike_id":"867a0806-578c-4311-aec3-987ab4749fe5","system_id":"levelo_inurba_marseille","lat":43.313291,"lon":5.396838,"is_reserved":false,"is_disabled":false,"rental_uris":{"android":"levelo://app?vid=867a0806-578c-4311-aec3-987ab4749fe5","ios":"levelo://app?vid=867a0806-578c-4311-aec3-987ab4749fe5"},"vehicle_type_id":"4","last_reported":1683835618,"current_range_meters":7600,"station_id":"ce4bgvp2rcd13ifvqcu0","pricing_plan_id":"free"},{"bike_id":"b126e2a7-b553-466f-8a1c-72be379b30c0","system_id":"levelo_inurba_marseille","lat":43.313291,"lon":5.396838,"is_reserved":false,"is_disabled":false,"rental_uris":{"android":"levelo://app?vid=b126e2a7-b553-466f-8a1c-72be379b30c0","ios":"levelo://app?vid=b126e2a7-b553-466f-8a1c-72be379b30c0"},"vehicle_type_id":"4","last_reported":1683835618,"current_range_meters":19200,"station_id":"ce4bgvp2rcd13ifvqcu0","pricing_plan_id":"free"},{"bike_id":"a8dfed8a-56df-4e30-9215-2620076dd475","system_id":"levelo_inurba_marseille","lat":43.31326,"lon":5.39699,"is_reserved":false,"is_disabled":false,"rental_uris":{"android":"levelo://app?vid=a8dfed8a-56df-4e30-9215-2620076dd475","ios":"levelo://app?vid=a8dfed8a-56df-4e30-9215-2620076dd475"},"vehicle_type_id":"4","last_reported":1683835618,"current_range_meters":6400,"station_id":"ce4bgvp2rcd13ifvqcu0","pricing_plan_id":"free"},{"bike_id":"33c3dea9-4c1f-452f-89ed-554afd0b40fc","system_id":"levelo_inurba_marseille","lat":43.309038,"lon":5.396546,"is_reserved":false,"is_disabled":false,"rental_uris":{"android":"levelo://app?vid=33c3dea9-4c1f-452f-89ed-554afd0b40fc","ios":"levelo://app?vid=33c3dea9-4c1f-452f-89ed-554afd0b40fc"},"vehicle_type_id":"4","last_reported":1683835618,"current_range_meters":17600,"station_id":"ce4bh012rcd13ifvqcv0","pricing_plan_id":"free"},{"bike_id":"c4abafb2-972b-482e-9a95-05f83c2588ec","system_id":"levelo_inurba_marseille","lat":43.29539,"lon":5.38542,"is_reserved":false,"is_disabled":false,"rental_uris":{"android":"levelo://app?vid=c4abafb2-972b-482e-9a95-05f83c2588ec","ios":"levelo://app?vid=c4abafb2-972b-482e-9a95-05f83c2588ec"},"vehicle_type_id":"4","last_reported":1683835618,"current_range_meters":12400,"station_id":"ce4bgih2rcd13ifvqba0","pricing_plan_id":"free"},{"bike_id":"252129d5-3e60-4d9c-815b-0a56f868432b","system_id":"levelo_inurba_marseille","lat":43.29534,"lon":5.38535,"is_reserved":false,"is_disabled":false,"rental_uris":{"android":"levelo://app?vid=252129d5-3e60-4d9c-815b-0a56f868432b","ios":"levelo://app?vid=252129d5-3e60-4d9c-815b-0a56f868432b"},"vehicle_type_id":"4","last_reported":1683835618,"current_range_meters":0,"station_id":"ce4bgih2rcd13ifvqba0","pricing_plan_id":"free"},{"bike_id":"f6e4612d-28b9-4f54-8e79-69ec6913c214","system_id":"levelo_inurba_marseille","lat":43.29529,"lon":5.385581,"is_reserved":false,"is_disabled":false,"rental_uris":{"android":"levelo://app?vid=f6e4612d-28b9-4f54-8e79-69ec6913c214","ios":"levelo://app?vid=f6e4612d-28b9-4f54-8e79-69ec6913c214"},"vehicle_type_id":"4","last_reported":1683835618,"current_range_meters":24800,"station_id":"ce4bgih2rcd13ifvqba0","pricing_plan_id":"free"},{"bike_id":"b52a7ab1-e3bc-4a62-a230-11dece269337","system_id":"levelo_inurba_marseille","lat":43.29529,"lon":5.385581,"is_reserved":false,"is_disabled":false,"rental_uris":{"android":"levelo://app?vid=b52a7ab1-e3bc-4a62-a230-11dece269337","ios":"levelo://app?vid=b52a7ab1-e3bc-4a62-a230-11dece269337"},"vehicle_type_id":"4","last_reported":1683835618,"current_range_meters":0,"station_id":"ce4bgih2rcd13ifvqba0","pricing_plan_id":"free"},{"bike_id":"d9e970e2-9de8-46ac-82cb-5a79a9211f07","system_id":"levelo_inurba_marseille","lat":43.29529,"lon":5.385581,"is_reserved":false,"is_disabled":false,"rental_uris":{"android":"levelo://app?vid=d9e970e2-9de8-46ac-82cb-5a79a9211f07","ios":"levelo://app?vid=d9e970e2-9de8-46ac-82cb-5a79a9211f07"},"vehicle_type_id":"4","last_reported":1683835618,"current_range_meters":8400,"station_id":"ce4bgih2rcd13ifvqba0","pricing_plan_id":"free"},{"bike_id":"71ab4a90-fc80-40d1-900d-a85e734b9a5c","system_id":"levelo_inurba_marseille","lat":43.29529,"lon":5.385581,"is_reserved":false,"is_disabled":false,"rental_uris":{"android":"levelo://app?vid=71ab4a90-fc80-40d1-900d-a85e734b9a5c","ios":"levelo://app?vid=71ab4a90-fc80-40d1-900d-a85e734b9a5c"},"vehicle_type_id":"4","last_reported":1683835618,"current_range_meters":7200,"station_id":"ce4bgih2rcd13ifvqba0","pricing_plan_id":"free"},{"bike_id":"1c32023c-b3ce-4282-af53-de3d9f097340","system_id":"levelo_inurba_marseille","lat":43.29529,"lon":5.385581,"is_reserved":false,"is_disabled":false,"rental_uris":{"android":"levelo://app?vid=1c32023c-b3ce-4282-af53-de3d9f097340","ios":"levelo://app?vid=1c32023c-b3ce-4282-af53-de3d9f097340"},"vehicle_type_id":"4","last_reported":1683835618,"current_range_meters":0,"station_id":"ce4bgih2rcd13ifvqba0","pricing_plan_id":"free"},{"bike_id":"e5e504eb-9178-4085-a38b-5ff1b13c7685","system_id":"levelo_inurba_marseille","lat":43.29532,"lon":5.38541,"is_reserved":false,"is_disabled":false,"rental_uris":{"android":"levelo://app?vid=e5e504eb-9178-4085-a38b-5ff1b13c7685","ios":"levelo://app?vid=e5e504eb-9178-4085-a38b-5ff1b13c7685"},"vehicle_type_id":"4","last_reported":1683835618,"current_range_meters":8000,"station_id":"ce4bgih2rcd13ifvqba0","pricing_plan_id":"free"},{"bike_id":"dd72a00f-48c6-4b21-a859-28e5a4355550","system_id":"levelo_inurba_marseille","lat":43.2953,"lon":5.38539,"is_reserved":false,"is_disabled":false,"rental_uris":{"android":"levelo://app?vid=dd72a00f-48c6-4b21-a859-28e5a4355550","ios":"levelo://app?vid=dd72a00f-48c6-4b21-a859-28e5a4355550"},"vehicle_type_id":"4","last_reported":1683835618,"current_range_meters":8400,"station_id":"ce4bgih2rcd13ifvqba0","pricing_plan_id":"free"},{"bike_id":"63b5d64c-0a01-490b-82c7-11a3368ba277","system_id":"levelo_inurba_marseille","lat":43.29529,"lon":5.38539,"is_reserved":false,"is_disabled":false,"rental_uris":{"android":"levelo://app?vid=63b5d64c-0a01-490b-82c7-11a3368ba277","ios":"levelo://app?vid=63b5d64c-0a01-490b-82c7-11a3368ba277"},"vehicle_type_id":"4","last_reported":1683835618,"current_range_meters":4400,"station_id":"ce4bgih2rcd13ifvqba0","pricing_plan_id":"free"},{"bike_id":"0661f8f9-0b86-4b11-8731-90ea24497206","system_id":"levelo_inurba_marseille","lat":43.29529,"lon":5.385581,"is_reserved":false,"is_disabled":false,"rental_uris":{"android":"levelo://app?vid=0661f8f9-0b86-4b11-8731-90ea24497206","ios":"levelo://app?vid=0661f8f9-0b86-4b11-8731-90ea24497206"},"vehicle_type_id":"4","last_reported":1683835618,"current_range_meters":14800,"station_id":"ce4bgih2rcd13ifvqba0","pricing_plan_id":"free"},{"bike_id":"b8f4cb18-ae32-44ee-84f4-ade23e63ff98","system_id":"levelo_inurba_marseille","lat":43.29527,"lon":5.38539,"is_reserved":false,"is_disabled":false,"rental_uris":{"android":"levelo://app?vid=b8f4cb18-ae32-44ee-84f4-ade23e63ff98","ios":"levelo://app?vid=b8f4cb18-ae32-44ee-84f4-ade23e63ff98"},"vehicle_type_id":"4","last_reported":1683835618,"current_range_meters":10400,"station_id":"ce4bgih2rcd13ifvqba0","pricing_plan_id":"free"},{"bike_id":"9b5e63f9-ab25-452e-b08e-a48d7ed850dc","system_id":"levelo_inurba_marseille","lat":43.295343,"lon":5.385576,"is_reserved":false,"is_disabled":false,"rental_uris":{"android":"levelo://app?vid=9b5e63f9-ab25-452e-b08e-a48d7ed850dc","ios":"levelo://app?vid=9b5e63f9-ab25-452e-b08e-a48d7ed850dc"},"vehicle_type_id":"4","last_reported":1683835618,"current_range_meters":2000,"station_id":"ce4bgih2rcd13ifvqba0","pricing_plan_id":"free"},{"bike_id":"f350c34b-3b7e-4cdd-a69b-44d18d203dd0","system_id":"levelo_inurba_marseille","lat":43.29524,"lon":5.38544,"is_reserved":false,"is_disabled":false,"rental_uris":{"android":"levelo://app?vid=f350c34b-3b7e-4cdd-a69b-44d18d203dd0","ios":"levelo://app?vid=f350c34b-3b7e-4cdd-a69b-44d18d203dd0"},"vehicle_type_id":"4","last_reported":1683835618,"current_range_meters":0,"station_id":"ce4bgih2rcd13ifvqba0","pricing_plan_id":"free"},{"bike_id":"74d1dde1-54b7-4424-9d90-540df9ddd0fc","system_id":"levelo_inurba_marseille","lat":43.29527,"lon":5.38557,"is_reserved":false,"is_disabled":false,"rental_uris":{"android":"levelo://app?vid=74d1dde1-54b7-4424-9d90-540df9ddd0fc","ios":"levelo://app?vid=74d1dde1-54b7-4424-9d90-540df9ddd0fc"},"vehicle_type_id":"4","last_reported":1683835618,"current_range_meters":4400,"station_id":"ce4bgih2rcd13ifvqba0","pricing_plan_id":"free"},{"bike_id":"b664c6c9-78b7-47dc-b278-a44e04b5090b","system_id":"levelo_inurba_marseille","lat":43.29529,"lon":5.385581,"is_reserved":false,"is_disabled":false,"rental_uris":{"android":"levelo://app?vid=b664c6c9-78b7-47dc-b278-a44e04b5090b","ios":"levelo://app?vid=b664c6c9-78b7-47dc-b278-a44e04b5090b"},"vehicle_type_id":"4","last_reported":1683835618,"current_range_meters":7600,"station_id":"ce4bgih2rcd13ifvqba0","pricing_plan_id":"free"},{"bike_id":"13d039da-d874-4002-8199-e755f52e42eb","system_id":"levelo_inurba_marseille","lat":43.302008,"lon":5.394694,"is_reserved":false,"is_disabled":false,"rental_uris":{"android":"levelo://app?vid=13d039da-d874-4002-8199-e755f52e42eb","ios":"levelo://app?vid=13d039da-d874-4002-8199-e755f52e42eb"},"vehicle_type_id":"4","last_reported":1683835618,"current_range_meters":16000,"station_id":"ce4bh0p2rcd13ifvqd70","pricing_plan_id":"free"},{"bike_id":"030c41f0-23cd-4d30-a855-07b21eb59873","system_id":"levelo_inurba_marseille","lat":43.290624,"lon":5.359245,"is_reserved":false,"is_disabled":false,"rental_uris":{"android":"levelo://app?vid=030c41f0-23cd-4d30-a855-07b21eb59873","ios":"levelo://app?vid=030c41f0-23cd-4d30-a855-07b21eb59873"},"vehicle_type_id":"4","last_reported":1683835618,"current_range_meters":28400,"station_id":"ce4bha92rcd13ifvqeg0","pricing_plan_id":"free"},{"bike_id":"29e5ff42-b97a-4f1c-a643-ac8380861ecd","system_id":"levelo_inurba_marseille","lat":43.290624,"lon":5.359245,"is_reserved":false,"is_disabled":false,"rental_uris":{"android":"levelo://app?vid=29e5ff42-b97a-4f1c-a643-ac8380861ecd","ios":"levelo://app?vid=29e5ff42-b97a-4f1c-a643-ac8380861ecd"},"vehicle_type_id":"4","last_reported":1683835618,"current_range_meters":6800,"station_id":"ce4bha92rcd13ifvqeg0","pricing_plan_id":"free"},{"bike_id":"d1c18c6f-4319-4ee5-93d3-9928d527fc9b","system_id":"levelo_inurba_marseille","lat":43.290624,"lon":5.359245,"is_reserved":false,"is_disabled":false,"rental_uris":{"android":"levelo://app?vid=d1c18c6f-4319-4ee5-93d3-9928d527fc9b","ios":"levelo://app?vid=d1c18c6f-4319-4ee5-93d3-9928d527fc9b"},"vehicle_type_id":"4","last_reported":1683835618,"current_range_meters":8400,"station_id":"ce4bha92rcd13ifvqeg0","pricing_plan_id":"free"},{"bike_id":"3c665711-a129-4dfb-ab0e-efcb6c69ada2","system_id":"levelo_inurba_marseille","lat":43.290624,"lon":5.359245,"is_reserved":false,"is_disabled":false,"rental_uris":{"android":"levelo://app?vid=3c665711-a129-4dfb-ab0e-efcb6c69ada2","ios":"levelo://app?vid=3c665711-a129-4dfb-ab0e-efcb6c69ada2"},"vehicle_type_id":"4","last_reported":1683835618,"current_range_meters":31200,"station_id":"ce4bha92rcd13ifvqeg0","pricing_plan_id":"free"},{"bike_id":"8de187a8-1d8c-4396-beb9-cb6032030250","system_id":"levelo_inurba_marseille","lat":43.290624,"lon":5.359245,"is_reserved":false,"is_disabled":false,"rental_uris":{"android":"levelo://app?vid=8de187a8-1d8c-4396-beb9-cb6032030250","ios":"levelo://app?vid=8de187a8-1d8c-4396-beb9-cb6032030250"},"vehicle_type_id":"4","last_reported":1683835618,"current_range_meters":31600,"station_id":"ce4bha92rcd13ifvqeg0","pricing_plan_id":"free"},{"bike_id":"e1fe4519-b91b-411a-9f3b-cda3c220af65","system_id":"levelo_inurba_marseille","lat":43.290631,"lon":5.359244,"is_reserved":false,"is_disabled":false,"rental_uris":{"android":"levelo://app?vid=e1fe4519-b91b-411a-9f3b-cda3c220af65","ios":"levelo://app?vid=e1fe4519-b91b-411a-9f3b-cda3c220af65"},"vehicle_type_id":"4","last_reported":1683835618,"current_range_meters":10000,"station_id":"ce4bha92rcd13ifvqeg0","pricing_plan_id":"free"},{"bike_id":"4c033138-1ea8-4e67-9998-ad8ff532c267","system_id":"levelo_inurba_marseille","lat":43.290631,"lon":5.359244,"is_reserved":false,"is_disabled":false,"rental_uris":{"android":"levelo://app?vid=4c033138-1ea8-4e67-9998-ad8ff532c267","ios":"levelo://app?vid=4c033138-1ea8-4e67-9998-ad8ff532c267"},"vehicle_type_id":"4","last_reported":1683835618,"current_range_meters":19600,"station_id":"ce4bha92rcd13ifvqeg0","pricing_plan_id":"free"},{"bike_id":"eb138541-24c0-47fd-a5b4-d63fe8df2cae","system_id":"levelo_inurba_marseille","lat":43.290319,"lon":5.375732,"is_reserved":false,"is_disabled":false,"rental_uris":{"android":"levelo://app?vid=eb138541-24c0-47fd-a5b4-d63fe8df2cae","ios":"levelo://app?vid=eb138541-24c0-47fd-a5b4-d63fe8df2cae"},"vehicle_type_id":"4","last_reported":1683835618,"current_range_meters":20800,"station_id":"ce4bh692rcd13ifvqe90","pricing_plan_id":"free"},{"bike_id":"539ab05a-8ce1-46b5-b8de-d8ecb2573fc7","system_id":"levelo_inurba_marseille","lat":43.29422,"lon":5.38616,"is_reserved":false,"is_disabled":false,"rental_uris":{"android":"levelo://app?vid=539ab05a-8ce1-46b5-b8de-d8ecb2573fc7","ios":"levelo://app?vid=539ab05a-8ce1-46b5-b8de-d8ecb2573fc7"},"vehicle_type_id":"4","last_reported":1683835618,"current_range_meters":0,"station_id":"ce4bh2h2rcd13ifvqdh0","pricing_plan_id":"free"},{"bike_id":"51f22715-b7b2-417f-a2fa-47ca84cb25c9","system_id":"levelo_inurba_marseille","lat":43.294153,"lon":5.386305,"is_reserved":false,"is_disabled":false,"rental_uris":{"android":"levelo://app?vid=51f22715-b7b2-417f-a2fa-47ca84cb25c9","ios":"levelo://app?vid=51f22715-b7b2-417f-a2fa-47ca84cb25c9"},"vehicle_type_id":"4","last_reported":1683835618,"current_range_meters":3200,"station_id":"ce4bh2h2rcd13ifvqdh0","pricing_plan_id":"free"},{"bike_id":"0fd8c324-5f61-4d89-ac3b-413f0a090283","system_id":"levelo_inurba_marseille","lat":43.2942,"lon":5.38624,"is_reserved":false,"is_disabled":false,"rental_uris":{"android":"levelo://app?vid=0fd8c324-5f61-4d89-ac3b-413f0a090283","ios":"levelo://app?vid=0fd8c324-5f61-4d89-ac3b-413f0a090283"},"vehicle_type_id":"4","last_reported":1683835618,"current_range_meters":7200,"station_id":"ce4bh2h2rcd13ifvqdh0","pricing_plan_id":"free"},{"bike_id":"24e407ad-65cc-4df3-b826-65cd5b5741b0","system_id":"levelo_inurba_marseille","lat":43.294162,"lon":5.386292,"is_reserved":false,"is_disabled":false,"rental_uris":{"android":"levelo://app?vid=24e407ad-65cc-4df3-b826-65cd5b5741b0","ios":"levelo://app?vid=24e407ad-65cc-4df3-b826-65cd5b5741b0"},"vehicle_type_id":"4","last_reported":1683835618,"current_range_meters":11200,"station_id":"ce4bh2h2rcd13ifvqdh0","pricing_plan_id":"free"},{"bike_id":"d4c6c819-fa97-4fb4-93c4-e091daf75bb8","system_id":"levelo_inurba_marseille","lat":43.294153,"lon":5.386305,"is_reserved":false,"is_disabled":false,"rental_uris":{"android":"levelo://app?vid=d4c6c819-fa97-4fb4-93c4-e091daf75bb8","ios":"levelo://app?vid=d4c6c819-fa97-4fb4-93c4-e091daf75bb8"},"vehicle_type_id":"4","last_reported":1683835618,"current_range_meters":16000,"station_id":"ce4bh2h2rcd13ifvqdh0","pricing_plan_id":"free"},{"bike_id":"8524090b-260b-47fb-9bb4-34d03d93d3e4","system_id":"levelo_inurba_marseille","lat":43.294162,"lon":5.386292,"is_reserved":false,"is_disabled":false,"rental_uris":{"android":"levelo://app?vid=8524090b-260b-47fb-9bb4-34d03d93d3e4","ios":"levelo://app?vid=8524090b-260b-47fb-9bb4-34d03d93d3e4"},"vehicle_type_id":"4","last_reported":1683835618,"current_range_meters":14800,"station_id":"ce4bh2h2rcd13ifvqdh0","pricing_plan_id":"free"},{"bike_id":"393073c3-0f7b-4d3f-b66a-4ed416cd1b4b","system_id":"levelo_inurba_marseille","lat":43.294162,"lon":5.386292,"is_reserved":false,"is_disabled":false,"rental_uris":{"android":"levelo://app?vid=393073c3-0f7b-4d3f-b66a-4ed416cd1b4b","ios":"levelo://app?vid=393073c3-0f7b-4d3f-b66a-4ed416cd1b4b"},"vehicle_type_id":"4","last_reported":1683835618,"current_range_meters":25200,"station_id":"ce4bh2h2rcd13ifvqdh0","pricing_plan_id":"free"},{"bike_id":"1068ebfb-5c5f-48f5-b32c-b617f278bea5","system_id":"levelo_inurba_marseille","lat":43.294162,"lon":5.386292,"is_reserved":false,"is_disabled":false,"rental_uris":{"android":"levelo://app?vid=1068ebfb-5c5f-48f5-b32c-b617f278bea5","ios":"levelo://app?vid=1068ebfb-5c5f-48f5-b32c-b617f278bea5"},"vehicle_type_id":"4","last_reported":1683835618,"current_range_meters":6000,"station_id":"ce4bh2h2rcd13ifvqdh0","pricing_plan_id":"free"},{"bike_id":"da82fe22-d28e-4b2d-b076-78bb90038d2b","system_id":"levelo_inurba_marseille","lat":43.290319,"lon":5.375732,"is_reserved":false,"is_disabled":false,"rental_uris":{"android":"levelo://app?vid=da82fe22-d28e-4b2d-b076-78bb90038d2b","ios":"levelo://app?vid=da82fe22-d28e-4b2d-b076-78bb90038d2b"},"vehicle_type_id":"4","last_reported":1683835618,"current_range_meters":11200,"station_id":"ce4bh692rcd13ifvqe90","pricing_plan_id":"free"},{"bike_id":"583c04d8-b24c-4d27-95b6-6082a11af535","system_id":"levelo_inurba_marseille","lat":43.289184,"lon":5.366408,"is_reserved":false,"is_disabled":false,"rental_uris":{"android":"levelo://app?vid=583c04d8-b24c-4d27-95b6-6082a11af535","ios":"levelo://app?vid=583c04d8-b24c-4d27-95b6-6082a11af535"},"vehicle_type_id":"4","last_reported":1683835618,"current_range_meters":11600,"station_id":"ce4bhap2rcd13ifvqek0","pricing_plan_id":"free"},{"bike_id":"b85e6563-86dc-419a-855d-a5ae1d26574e","system_id":"levelo_inurba_marseille","lat":43.289468,"lon":5.363719,"is_reserved":false,"is_disabled":false,"rental_uris":{"android":"levelo://app?vid=b85e6563-86dc-419a-855d-a5ae1d26574e","ios":"levelo://app?vid=b85e6563-86dc-419a-855d-a5ae1d26574e"},"vehicle_type_id":"4","last_reported":1683835618,"current_range_meters":8800,"station_id":"ce4bhc92rcd13ifvqetg","pricing_plan_id":"free"},{"bike_id":"7e724c29-3b7f-4b62-b575-8a7b49844a51","system_id":"levelo_inurba_marseille","lat":43.292644,"lon":5.384257,"is_reserved":false,"is_disabled":false,"rental_uris":{"android":"levelo://app?vid=7e724c29-3b7f-4b62-b575-8a7b49844a51","ios":"levelo://app?vid=7e724c29-3b7f-4b62-b575-8a7b49844a51"},"vehicle_type_id":"4","last_reported":1683835618,"current_range_meters":24400,"station_id":"ce4bh692rcd13ifvqea0","pricing_plan_id":"free"},{"bike_id":"ded74cd8-cb1d-43d3-9ef4-7e4b8bb94d2b","system_id":"levelo_inurba_marseille","lat":43.292644,"lon":5.384257,"is_reserved":false,"is_disabled":false,"rental_uris":{"android":"levelo://app?vid=ded74cd8-cb1d-43d3-9ef4-7e4b8bb94d2b","ios":"levelo://app?vid=ded74cd8-cb1d-43d3-9ef4-7e4b8bb94d2b"},"vehicle_type_id":"4","last_reported":1683835618,"current_range_meters":12800,"station_id":"ce4bh692rcd13ifvqea0","pricing_plan_id":"free"},{"bike_id":"61df8c02-5947-4817-8820-5498ce05dd19","system_id":"levelo_inurba_marseille","lat":43.292644,"lon":5.384257,"is_reserved":false,"is_disabled":false,"rental_uris":{"android":"levelo://app?vid=61df8c02-5947-4817-8820-5498ce05dd19","ios":"levelo://app?vid=61df8c02-5947-4817-8820-5498ce05dd19"},"vehicle_type_id":"4","last_reported":1683835618,"current_range_meters":14800,"station_id":"ce4bh692rcd13ifvqea0","pricing_plan_id":"free"},{"bike_id":"a6b5910e-c3e8-49a7-b22c-08b3584d1e71","system_id":"levelo_inurba_marseille","lat":43.292644,"lon":5.384257,"is_reserved":false,"is_disabled":false,"rental_uris":{"android":"levelo://app?vid=a6b5910e-c3e8-49a7-b22c-08b3584d1e71","ios":"levelo://app?vid=a6b5910e-c3e8-49a7-b22c-08b3584d1e71"},"vehicle_type_id":"4","last_reported":1683835618,"current_range_meters":29200,"station_id":"ce4bh692rcd13ifvqea0","pricing_plan_id":"free"},{"bike_id":"8fe4de54-99f6-4123-aae7-362b71abe442","system_id":"levelo_inurba_marseille","lat":43.292644,"lon":5.384257,"is_reserved":false,"is_disabled":false,"rental_uris":{"android":"levelo://app?vid=8fe4de54-99f6-4123-aae7-362b71abe442","ios":"levelo://app?vid=8fe4de54-99f6-4123-aae7-362b71abe442"},"vehicle_type_id":"4","last_reported":1683835618,"current_range_meters":12800,"station_id":"ce4bh692rcd13ifvqea0","pricing_plan_id":"free"},{"bike_id":"b3e3a37e-eea1-4183-bc4a-ec0b03aaaeda","system_id":"levelo_inurba_marseille","lat":43.292644,"lon":5.384257,"is_reserved":false,"is_disabled":false,"rental_uris":{"android":"levelo://app?vid=b3e3a37e-eea1-4183-bc4a-ec0b03aaaeda","ios":"levelo://app?vid=b3e3a37e-eea1-4183-bc4a-ec0b03aaaeda"},"vehicle_type_id":"4","last_reported":1683835618,"current_range_meters":7200,"station_id":"ce4bh692rcd13ifvqea0","pricing_plan_id":"free"},{"bike_id":"beaff1fa-b965-430c-bac2-40a920974077","system_id":"levelo_inurba_marseille","lat":43.292644,"lon":5.384257,"is_reserved":false,"is_disabled":false,"rental_uris":{"android":"levelo://app?vid=beaff1fa-b965-430c-bac2-40a920974077","ios":"levelo://app?vid=beaff1fa-b965-430c-bac2-40a920974077"},"vehicle_type_id":"4","last_reported":1683835618,"current_range_meters":4000,"station_id":"ce4bh692rcd13ifvqea0","pricing_plan_id":"free"},{"bike_id":"ff2819bd-abc4-40a2-8226-0ef7fecda992","system_id":"levelo_inurba_marseille","lat":43.292644,"lon":5.384257,"is_reserved":false,"is_disabled":false,"rental_uris":{"android":"levelo://app?vid=ff2819bd-abc4-40a2-8226-0ef7fecda992","ios":"levelo://app?vid=ff2819bd-abc4-40a2-8226-0ef7fecda992"},"vehicle_type_id":"4","last_reported":1683835618,"current_range_meters":4000,"station_id":"ce4bh692rcd13ifvqea0","pricing_plan_id":"free"},{"bike_id":"f62671a7-4561-4fa7-ac23-fa2cddcdcc0c","system_id":"levelo_inurba_marseille","lat":43.29281,"lon":5.38495,"is_reserved":false,"is_disabled":false,"rental_uris":{"android":"levelo://app?vid=f62671a7-4561-4fa7-ac23-fa2cddcdcc0c","ios":"levelo://app?vid=f62671a7-4561-4fa7-ac23-fa2cddcdcc0c"},"vehicle_type_id":"4","last_reported":1683835618,"current_range_meters":0,"station_id":"","pricing_plan_id":"free"},{"bike_id":"6037a3e7-2714-4916-af14-5804c705a059","system_id":"levelo_inurba_marseille","lat":43.292644,"lon":5.384257,"is_reserved":false,"is_disabled":false,"rental_uris":{"android":"levelo://app?vid=6037a3e7-2714-4916-af14-5804c705a059","ios":"levelo://app?vid=6037a3e7-2714-4916-af14-5804c705a059"},"vehicle_type_id":"4","last_reported":1683835618,"current_range_meters":31200,"station_id":"ce4bh692rcd13ifvqea0","pricing_plan_id":"free"},{"bike_id":"17c751fb-1a8a-44ce-a799-1c8f067c9441","system_id":"levelo_inurba_marseille","lat":43.292644,"lon":5.384257,"is_reserved":false,"is_disabled":false,"rental_uris":{"android":"levelo://app?vid=17c751fb-1a8a-44ce-a799-1c8f067c9441","ios":"levelo://app?vid=17c751fb-1a8a-44ce-a799-1c8f067c9441"},"vehicle_type_id":"4","last_reported":1683835618,"current_range_meters":10400,"station_id":"ce4bh692rcd13ifvqea0","pricing_plan_id":"free"},{"bike_id":"24528863-e36f-4e8c-a5f9-e409bbc6f600","system_id":"levelo_inurba_marseille","lat":43.292644,"lon":5.384257,"is_reserved":false,"is_disabled":false,"rental_uris":{"android":"levelo://app?vid=24528863-e36f-4e8c-a5f9-e409bbc6f600","ios":"levelo://app?vid=24528863-e36f-4e8c-a5f9-e409bbc6f600"},"vehicle_type_id":"4","last_reported":1683835618,"current_range_meters":3200,"station_id":"ce4bh692rcd13ifvqea0","pricing_plan_id":"free"},{"bike_id":"27c5e084-4dcb-41fd-adee-415524d565d1","system_id":"levelo_inurba_marseille","lat":43.292644,"lon":5.384257,"is_reserved":false,"is_disabled":false,"rental_uris":{"android":"levelo://app?vid=27c5e084-4dcb-41fd-adee-415524d565d1","ios":"levelo://app?vid=27c5e084-4dcb-41fd-adee-415524d565d1"},"vehicle_type_id":"4","last_reported":1683835618,"current_range_meters":0,"station_id":"ce4bh692rcd13ifvqea0","pricing_plan_id":"free"},{"bike_id":"5dcf46f4-485b-42b0-94f2-d41ed94a734e","system_id":"levelo_inurba_marseille","lat":43.292644,"lon":5.384257,"is_reserved":false,"is_disabled":false,"rental_uris":{"android":"levelo://app?vid=5dcf46f4-485b-42b0-94f2-d41ed94a734e","ios":"levelo://app?vid=5dcf46f4-485b-42b0-94f2-d41ed94a734e"},"vehicle_type_id":"4","last_reported":1683835618,"current_range_meters":4000,"station_id":"ce4bh692rcd13ifvqea0","pricing_plan_id":"free"},{"bike_id":"5fd7af10-b221-41e5-bf4b-48c537a6d499","system_id":"levelo_inurba_marseille","lat":43.292644,"lon":5.384257,"is_reserved":false,"is_disabled":false,"rental_uris":{"android":"levelo://app?vid=5fd7af10-b221-41e5-bf4b-48c537a6d499","ios":"levelo://app?vid=5fd7af10-b221-41e5-bf4b-48c537a6d499"},"vehicle_type_id":"4","last_reported":1683835618,"current_range_meters":10800,"station_id":"ce4bh692rcd13ifvqea0","pricing_plan_id":"free"},{"bike_id":"87d53d42-6530-4901-ad81-52a9ddc7102f","system_id":"levelo_inurba_marseille","lat":43.33041,"lon":5.38911,"is_reserved":false,"is_disabled":false,"rental_uris":{"android":"levelo://app?vid=87d53d42-6530-4901-ad81-52a9ddc7102f","ios":"levelo://app?vid=87d53d42-6530-4901-ad81-52a9ddc7102f"},"vehicle_type_id":"4","last_reported":1683835618,"current_range_meters":5600,"station_id":"ce4bhr92rcd13ifvqhrg","pricing_plan_id":"free"},{"bike_id":"211b7316-10de-4bc7-a044-db2211126bbf","system_id":"levelo_inurba_marseille","lat":43.3304,"lon":5.3892,"is_reserved":false,"is_disabled":false,"rental_uris":{"android":"levelo://app?vid=211b7316-10de-4bc7-a044-db2211126bbf","ios":"levelo://app?vid=211b7316-10de-4bc7-a044-db2211126bbf"},"vehicle_type_id":"4","last_reported":1683835618,"current_range_meters":18000,"station_id":"ce4bhr92rcd13ifvqhrg","pricing_plan_id":"free"},{"bike_id":"96508dd3-e75e-447b-9060-f0fce6780cc4","system_id":"levelo_inurba_marseille","lat":43.289468,"lon":5.363719,"is_reserved":false,"is_disabled":false,"rental_uris":{"android":"levelo://app?vid=96508dd3-e75e-447b-9060-f0fce6780cc4","ios":"levelo://app?vid=96508dd3-e75e-447b-9060-f0fce6780cc4"},"vehicle_type_id":"4","last_reported":1683835618,"current_range_meters":24800,"station_id":"ce4bhc92rcd13ifvqetg","pricing_plan_id":"free"},{"bike_id":"eb9c1069-6fcc-4052-90a5-6b75bbaeaa66","system_id":"levelo_inurba_marseille","lat":43.33044,"lon":5.38918,"is_reserved":false,"is_disabled":false,"rental_uris":{"android":"levelo://app?vid=eb9c1069-6fcc-4052-90a5-6b75bbaeaa66","ios":"levelo://app?vid=eb9c1069-6fcc-4052-90a5-6b75bbaeaa66"},"vehicle_type_id":"4","last_reported":1683835618,"current_range_meters":7200,"station_id":"ce4bhr92rcd13ifvqhrg","pricing_plan_id":"free"},{"bike_id":"f55f9613-885a-4d9f-b9d0-876dd874452b","system_id":"levelo_inurba_marseille","lat":43.33041,"lon":5.38924,"is_reserved":false,"is_disabled":false,"rental_uris":{"android":"levelo://app?vid=f55f9613-885a-4d9f-b9d0-876dd874452b","ios":"levelo://app?vid=f55f9613-885a-4d9f-b9d0-876dd874452b"},"vehicle_type_id":"4","last_reported":1683835618,"current_range_meters":22800,"station_id":"ce4bhr92rcd13ifvqhrg","pricing_plan_id":"free"},{"bike_id":"b2762af6-feb0-422f-a5b7-a9914f7259ff","system_id":"levelo_inurba_marseille","lat":43.290036,"lon":5.356179,"is_reserved":false,"is_disabled":false,"rental_uris":{"android":"levelo://app?vid=b2762af6-feb0-422f-a5b7-a9914f7259ff","ios":"levelo://app?vid=b2762af6-feb0-422f-a5b7-a9914f7259ff"},"vehicle_type_id":"4","last_reported":1683835618,"current_range_meters":6400,"station_id":"ce4bhb92rcd13ifvqen0","pricing_plan_id":"free"},{"bike_id":"dcc144aa-a9bd-4c08-8a4a-dd77e94ea628","system_id":"levelo_inurba_marseille","lat":43.33047,"lon":5.38919,"is_reserved":false,"is_disabled":false,"rental_uris":{"android":"levelo://app?vid=dcc144aa-a9bd-4c08-8a4a-dd77e94ea628","ios":"levelo://app?vid=dcc144aa-a9bd-4c08-8a4a-dd77e94ea628"},"vehicle_type_id":"4","last_reported":1683835618,"current_range_meters":0,"station_id":"ce4bhr92rcd13ifvqhrg","pricing_plan_id":"free"},{"bike_id":"154bd7a0-b17c-47e4-a248-4f695cb75ec6","system_id":"levelo_inurba_marseille","lat":43.33046,"lon":5.38921,"is_reserved":false,"is_disabled":false,"rental_uris":{"android":"levelo://app?vid=154bd7a0-b17c-47e4-a248-4f695cb75ec6","ios":"levelo://app?vid=154bd7a0-b17c-47e4-a248-4f695cb75ec6"},"vehicle_type_id":"4","last_reported":1683835618,"current_range_meters":22800,"station_id":"ce4bhr92rcd13ifvqhrg","pricing_plan_id":"free"},{"bike_id":"203b2f11-a3b5-475b-8f41-939e1d33a596","system_id":"levelo_inurba_marseille","lat":43.33049,"lon":5.3892,"is_reserved":false,"is_disabled":false,"rental_uris":{"android":"levelo://app?vid=203b2f11-a3b5-475b-8f41-939e1d33a596","ios":"levelo://app?vid=203b2f11-a3b5-475b-8f41-939e1d33a596"},"vehicle_type_id":"4","last_reported":1683835618,"current_range_meters":26800,"station_id":"ce4bhr92rcd13ifvqhrg","pricing_plan_id":"free"},{"bike_id":"faa96f17-b2d0-4d0e-ac12-1ca775556f52","system_id":"levelo_inurba_marseille","lat":43.29004,"lon":5.35606,"is_reserved":false,"is_disabled":false,"rental_uris":{"android":"levelo://app?vid=faa96f17-b2d0-4d0e-ac12-1ca775556f52","ios":"levelo://app?vid=faa96f17-b2d0-4d0e-ac12-1ca775556f52"},"vehicle_type_id":"4","last_reported":1683835618,"current_range_meters":20800,"station_id":"ce4bhb92rcd13ifvqen0","pricing_plan_id":"free"},{"bike_id":"291e92dd-c2ab-4c58-b1dd-0973f1c413d5","system_id":"levelo_inurba_marseille","lat":43.33045,"lon":5.38928,"is_reserved":false,"is_disabled":false,"rental_uris":{"android":"levelo://app?vid=291e92dd-c2ab-4c58-b1dd-0973f1c413d5","ios":"levelo://app?vid=291e92dd-c2ab-4c58-b1dd-0973f1c413d5"},"vehicle_type_id":"4","last_reported":1683835618,"current_range_meters":24800,"station_id":"ce4bhr92rcd13ifvqhrg","pricing_plan_id":"free"},{"bike_id":"75896dd4-6382-42e4-9f9c-b166af27695d","system_id":"levelo_inurba_marseille","lat":43.289996,"lon":5.356145,"is_reserved":false,"is_disabled":false,"rental_uris":{"android":"levelo://app?vid=75896dd4-6382-42e4-9f9c-b166af27695d","ios":"levelo://app?vid=75896dd4-6382-42e4-9f9c-b166af27695d"},"vehicle_type_id":"4","last_reported":1683835618,"current_range_meters":24000,"station_id":"ce4bhb92rcd13ifvqen0","pricing_plan_id":"free"},{"bike_id":"f9627aa7-8b94-4472-9f30-b4849a211408","system_id":"levelo_inurba_marseille","lat":43.290995,"lon":5.381361,"is_reserved":false,"is_disabled":false,"rental_uris":{"android":"levelo://app?vid=f9627aa7-8b94-4472-9f30-b4849a211408","ios":"levelo://app?vid=f9627aa7-8b94-4472-9f30-b4849a211408"},"vehicle_type_id":"4","last_reported":1683835618,"current_range_meters":8800,"station_id":"ce4bh512rcd13ifvqe2g","pricing_plan_id":"free"},{"bike_id":"94f7f6e0-6812-4bb8-bfbd-23abae7854e7","system_id":"levelo_inurba_marseille","lat":43.28996,"lon":5.35608,"is_reserved":false,"is_disabled":false,"rental_uris":{"android":"levelo://app?vid=94f7f6e0-6812-4bb8-bfbd-23abae7854e7","ios":"levelo://app?vid=94f7f6e0-6812-4bb8-bfbd-23abae7854e7"},"vehicle_type_id":"4","last_reported":1683835618,"current_range_meters":16000,"station_id":"","pricing_plan_id":"free"},{"bike_id":"22a789aa-dc67-4ff6-b512-159a5e831dfe","system_id":"levelo_inurba_marseille","lat":43.28996,"lon":5.35603,"is_reserved":false,"is_disabled":false,"rental_uris":{"android":"levelo://app?vid=22a789aa-dc67-4ff6-b512-159a5e831dfe","ios":"levelo://app?vid=22a789aa-dc67-4ff6-b512-159a5e831dfe"},"vehicle_type_id":"4","last_reported":1683835618,"current_range_meters":0,"station_id":"ce4bhb92rcd13ifvqen0","pricing_plan_id":"free"},{"bike_id":"ab192ea4-3970-44c9-9d9a-000dbae77ee3","system_id":"levelo_inurba_marseille","lat":43.290995,"lon":5.381361,"is_reserved":false,"is_disabled":false,"rental_uris":{"android":"levelo://app?vid=ab192ea4-3970-44c9-9d9a-000dbae77ee3","ios":"levelo://app?vid=ab192ea4-3970-44c9-9d9a-000dbae77ee3"},"vehicle_type_id":"4","last_reported":1683835618,"current_range_meters":1600,"station_id":"ce4bh512rcd13ifvqe2g","pricing_plan_id":"free"},{"bike_id":"6b9de610-2def-40ae-8ac3-5eb99f5b1df9","system_id":"levelo_inurba_marseille","lat":43.289743,"lon":5.378304,"is_reserved":false,"is_disabled":false,"rental_uris":{"android":"levelo://app?vid=6b9de610-2def-40ae-8ac3-5eb99f5b1df9","ios":"levelo://app?vid=6b9de610-2def-40ae-8ac3-5eb99f5b1df9"},"vehicle_type_id":"4","last_reported":1683835618,"current_range_meters":27600,"station_id":"ce4bh9p2rcd13ifvqed0","pricing_plan_id":"free"},{"bike_id":"685b4045-ff8b-445d-ac8c-7696e718373e","system_id":"levelo_inurba_marseille","lat":43.289743,"lon":5.378304,"is_reserved":false,"is_disabled":false,"rental_uris":{"android":"levelo://app?vid=685b4045-ff8b-445d-ac8c-7696e718373e","ios":"levelo://app?vid=685b4045-ff8b-445d-ac8c-7696e718373e"},"vehicle_type_id":"4","last_reported":1683835618,"current_range_meters":12800,"station_id":"ce4bh9p2rcd13ifvqed0","pricing_plan_id":"free"},{"bike_id":"03c0fc3e-c30e-4b5c-804d-ea92a846ae9c","system_id":"levelo_inurba_marseille","lat":43.295169,"lon":5.390426,"is_reserved":false,"is_disabled":false,"rental_uris":{"android":"levelo://app?vid=03c0fc3e-c30e-4b5c-804d-ea92a846ae9c","ios":"levelo://app?vid=03c0fc3e-c30e-4b5c-804d-ea92a846ae9c"},"vehicle_type_id":"4","last_reported":1683835618,"current_range_meters":0,"station_id":"ce4bh3p2rcd13ifvqdp0","pricing_plan_id":"free"},{"bike_id":"965f41eb-9ff1-43cb-a092-460ad46f4702","system_id":"levelo_inurba_marseille","lat":43.295169,"lon":5.390426,"is_reserved":false,"is_disabled":false,"rental_uris":{"android":"levelo://app?vid=965f41eb-9ff1-43cb-a092-460ad46f4702","ios":"levelo://app?vid=965f41eb-9ff1-43cb-a092-460ad46f4702"},"vehicle_type_id":"4","last_reported":1683835618,"current_range_meters":16800,"station_id":"ce4bh3p2rcd13ifvqdp0","pricing_plan_id":"free"},{"bike_id":"bdea518c-4bb3-4755-a3d1-bd8e01be0abc","system_id":"levelo_inurba_marseille","lat":43.301117,"lon":5.398795,"is_reserved":false,"is_disabled":false,"rental_uris":{"android":"levelo://app?vid=bdea518c-4bb3-4755-a3d1-bd8e01be0abc","ios":"levelo://app?vid=bdea518c-4bb3-4755-a3d1-bd8e01be0abc"},"vehicle_type_id":"4","last_reported":1683835618,"current_range_meters":19200,"station_id":"ce4bh0h2rcd13ifvqd40","pricing_plan_id":"free"},{"bike_id":"049c6eb3-6745-4eaf-9a73-f064d6d3798b","system_id":"levelo_inurba_marseille","lat":43.2901,"lon":5.381269,"is_reserved":false,"is_disabled":false,"rental_uris":{"android":"levelo://app?vid=049c6eb3-6745-4eaf-9a73-f064d6d3798b","ios":"levelo://app?vid=049c6eb3-6745-4eaf-9a73-f064d6d3798b"},"vehicle_type_id":"4","last_reported":1683835618,"current_range_meters":10800,"station_id":"ce4bh4p2rcd13ifvqe1g","pricing_plan_id":"free"},{"bike_id":"17fc2cd7-97da-4594-81ff-1bf06a954a9c","system_id":"levelo_inurba_marseille","lat":43.2901,"lon":5.381269,"is_reserved":false,"is_disabled":false,"rental_uris":{"android":"levelo://app?vid=17fc2cd7-97da-4594-81ff-1bf06a954a9c","ios":"levelo://app?vid=17fc2cd7-97da-4594-81ff-1bf06a954a9c"},"vehicle_type_id":"4","last_reported":1683835618,"current_range_meters":1200,"station_id":"ce4bh4p2rcd13ifvqe1g","pricing_plan_id":"free"},{"bike_id":"c6247679-7b1f-4c64-b670-ed2bca15cd8d","system_id":"levelo_inurba_marseille","lat":43.290094,"lon":5.381264,"is_reserved":false,"is_disabled":false,"rental_uris":{"android":"levelo://app?vid=c6247679-7b1f-4c64-b670-ed2bca15cd8d","ios":"levelo://app?vid=c6247679-7b1f-4c64-b670-ed2bca15cd8d"},"vehicle_type_id":"4","last_reported":1683835618,"current_range_meters":22000,"station_id":"ce4bh4p2rcd13ifvqe1g","pricing_plan_id":"free"},{"bike_id":"b915105b-500b-46f3-b101-50a018fbc645","system_id":"levelo_inurba_marseille","lat":43.28856,"lon":5.358371,"is_reserved":false,"is_disabled":false,"rental_uris":{"android":"levelo://app?vid=b915105b-500b-46f3-b101-50a018fbc645","ios":"levelo://app?vid=b915105b-500b-46f3-b101-50a018fbc645"},"vehicle_type_id":"4","last_reported":1683835618,"current_range_meters":3600,"station_id":"ce4bhb12rcd13ifvqem0","pricing_plan_id":"free"},{"bike_id":"07c09652-a375-4e07-b544-478aed47fcbb","system_id":"levelo_inurba_marseille","lat":43.28856,"lon":5.358371,"is_reserved":false,"is_disabled":false,"rental_uris":{"android":"levelo://app?vid=07c09652-a375-4e07-b544-478aed47fcbb","ios":"levelo://app?vid=07c09652-a375-4e07-b544-478aed47fcbb"},"vehicle_type_id":"4","last_reported":1683835618,"current_range_meters":7600,"station_id":"ce4bhb12rcd13ifvqem0","pricing_plan_id":"free"},{"bike_id":"b812c44a-a09b-4c74-b7fb-55422a491016","system_id":"levelo_inurba_marseille","lat":43.28856,"lon":5.358371,"is_reserved":false,"is_disabled":false,"rental_uris":{"android":"levelo://app?vid=b812c44a-a09b-4c74-b7fb-55422a491016","ios":"levelo://app?vid=b812c44a-a09b-4c74-b7fb-55422a491016"},"vehicle_type_id":"4","last_reported":1683835618,"current_range_meters":15200,"station_id":"ce4bhb12rcd13ifvqem0","pricing_plan_id":"free"},{"bike_id":"b4b39268-3abf-4f4a-a0e4-52244da9a53a","system_id":"levelo_inurba_marseille","lat":43.28848,"lon":5.35851,"is_reserved":false,"is_disabled":false,"rental_uris":{"android":"levelo://app?vid=b4b39268-3abf-4f4a-a0e4-52244da9a53a","ios":"levelo://app?vid=b4b39268-3abf-4f4a-a0e4-52244da9a53a"},"vehicle_type_id":"4","last_reported":1683835618,"current_range_meters":24400,"station_id":"ce4bhb12rcd13ifvqem0","pricing_plan_id":"free"},{"bike_id":"455a9745-7a2f-4918-a7cd-e222d863a164","system_id":"levelo_inurba_marseille","lat":43.28856,"lon":5.358371,"is_reserved":false,"is_disabled":false,"rental_uris":{"android":"levelo://app?vid=455a9745-7a2f-4918-a7cd-e222d863a164","ios":"levelo://app?vid=455a9745-7a2f-4918-a7cd-e222d863a164"},"vehicle_type_id":"4","last_reported":1683835618,"current_range_meters":10000,"station_id":"ce4bhb12rcd13ifvqem0","pricing_plan_id":"free"},{"bike_id":"f4378986-38d2-4251-9b6d-c744659242de","system_id":"levelo_inurba_marseille","lat":43.28849,"lon":5.35839,"is_reserved":false,"is_disabled":false,"rental_uris":{"android":"levelo://app?vid=f4378986-38d2-4251-9b6d-c744659242de","ios":"levelo://app?vid=f4378986-38d2-4251-9b6d-c744659242de"},"vehicle_type_id":"4","last_reported":1683835618,"current_range_meters":0,"station_id":"ce4bhb12rcd13ifvqem0","pricing_plan_id":"free"},{"bike_id":"0693a76e-00d0-4673-ad0e-13d8a14367c2","system_id":"levelo_inurba_marseille","lat":43.28856,"lon":5.358371,"is_reserved":false,"is_disabled":false,"rental_uris":{"android":"levelo://app?vid=0693a76e-00d0-4673-ad0e-13d8a14367c2","ios":"levelo://app?vid=0693a76e-00d0-4673-ad0e-13d8a14367c2"},"vehicle_type_id":"4","last_reported":1683835618,"current_range_meters":4400,"station_id":"ce4bhb12rcd13ifvqem0","pricing_plan_id":"free"},{"bike_id":"bd8a5d8f-fcf9-4c0b-beea-fbf07004b732","system_id":"levelo_inurba_marseille","lat":43.28856,"lon":5.358371,"is_reserved":false,"is_disabled":false,"rental_uris":{"android":"levelo://app?vid=bd8a5d8f-fcf9-4c0b-beea-fbf07004b732","ios":"levelo://app?vid=bd8a5d8f-fcf9-4c0b-beea-fbf07004b732"},"vehicle_type_id":"4","last_reported":1683835618,"current_range_meters":13200,"station_id":"ce4bhb12rcd13ifvqem0","pricing_plan_id":"free"},{"bike_id":"4f252e65-e480-4a8f-9278-ab1dfd67121e","system_id":"levelo_inurba_marseille","lat":43.28856,"lon":5.358371,"is_reserved":false,"is_disabled":false,"rental_uris":{"android":"levelo://app?vid=4f252e65-e480-4a8f-9278-ab1dfd67121e","ios":"levelo://app?vid=4f252e65-e480-4a8f-9278-ab1dfd67121e"},"vehicle_type_id":"4","last_reported":1683835618,"current_range_meters":0,"station_id":"ce4bhb12rcd13ifvqem0","pricing_plan_id":"free"},{"bike_id":"5092c268-7bfe-4872-8dbb-ea7a979d6715","system_id":"levelo_inurba_marseille","lat":43.28843,"lon":5.35858,"is_reserved":false,"is_disabled":false,"rental_uris":{"android":"levelo://app?vid=5092c268-7bfe-4872-8dbb-ea7a979d6715","ios":"levelo://app?vid=5092c268-7bfe-4872-8dbb-ea7a979d6715"},"vehicle_type_id":"4","last_reported":1683835618,"current_range_meters":7200,"station_id":"ce4bhb12rcd13ifvqem0","pricing_plan_id":"free"},{"bike_id":"542f67ff-b962-4f43-ad16-62426bb802af","system_id":"levelo_inurba_marseille","lat":43.28856,"lon":5.358371,"is_reserved":false,"is_disabled":false,"rental_uris":{"android":"levelo://app?vid=542f67ff-b962-4f43-ad16-62426bb802af","ios":"levelo://app?vid=542f67ff-b962-4f43-ad16-62426bb802af"},"vehicle_type_id":"4","last_reported":1683835618,"current_range_meters":3600,"station_id":"ce4bhb12rcd13ifvqem0","pricing_plan_id":"free"},{"bike_id":"c4021901-a9c3-4d42-b783-ce6991355322","system_id":"levelo_inurba_marseille","lat":43.33105,"lon":5.39055,"is_reserved":false,"is_disabled":false,"rental_uris":{"android":"levelo://app?vid=c4021901-a9c3-4d42-b783-ce6991355322","ios":"levelo://app?vid=c4021901-a9c3-4d42-b783-ce6991355322"},"vehicle_type_id":"4","last_reported":1683835618,"current_range_meters":0,"station_id":"","pricing_plan_id":"free"},{"bike_id":"1ae28bd7-c220-4767-bb54-a194de2d1ca9","system_id":"levelo_inurba_marseille","lat":43.28856,"lon":5.358371,"is_reserved":false,"is_disabled":false,"rental_uris":{"android":"levelo://app?vid=1ae28bd7-c220-4767-bb54-a194de2d1ca9","ios":"levelo://app?vid=1ae28bd7-c220-4767-bb54-a194de2d1ca9"},"vehicle_type_id":"4","last_reported":1683835618,"current_range_meters":22000,"station_id":"ce4bhb12rcd13ifvqem0","pricing_plan_id":"free"},{"bike_id":"ef38c5ae-8310-421c-8175-6fc4e9e20913","system_id":"levelo_inurba_marseille","lat":43.30642,"lon":5.401031,"is_reserved":false,"is_disabled":false,"rental_uris":{"android":"levelo://app?vid=ef38c5ae-8310-421c-8175-6fc4e9e20913","ios":"levelo://app?vid=ef38c5ae-8310-421c-8175-6fc4e9e20913"},"vehicle_type_id":"4","last_reported":1683835618,"current_range_meters":11200,"station_id":"ce4bh112rcd13ifvqda0","pricing_plan_id":"free"},{"bike_id":"7c56c76c-733e-4eb1-9830-931e734057aa","system_id":"levelo_inurba_marseille","lat":43.33758,"lon":5.3745,"is_reserved":false,"is_disabled":false,"rental_uris":{"android":"levelo://app?vid=7c56c76c-733e-4eb1-9830-931e734057aa","ios":"levelo://app?vid=7c56c76c-733e-4eb1-9830-931e734057aa"},"vehicle_type_id":"4","last_reported":1683835618,"current_range_meters":28000,"station_id":"","pricing_plan_id":"free"},{"bike_id":"b580e0e2-2f8d-4df7-94bc-e067ad6ab0cb","system_id":"levelo_inurba_marseille","lat":43.32686,"lon":5.39611,"is_reserved":false,"is_disabled":false,"rental_uris":{"android":"levelo://app?vid=b580e0e2-2f8d-4df7-94bc-e067ad6ab0cb","ios":"levelo://app?vid=b580e0e2-2f8d-4df7-94bc-e067ad6ab0cb"},"vehicle_type_id":"4","last_reported":1683835618,"current_range_meters":14400,"station_id":"","pricing_plan_id":"free"},{"bike_id":"80b5d26d-9f34-44b8-a0ca-d698b1997862","system_id":"levelo_inurba_marseille","lat":43.30642,"lon":5.401031,"is_reserved":false,"is_disabled":false,"rental_uris":{"android":"levelo://app?vid=80b5d26d-9f34-44b8-a0ca-d698b1997862","ios":"levelo://app?vid=80b5d26d-9f34-44b8-a0ca-d698b1997862"},"vehicle_type_id":"4","last_reported":1683835618,"current_range_meters":21200,"station_id":"ce4bh112rcd13ifvqda0","pricing_plan_id":"free"},{"bike_id":"5548ceef-d80a-4f5e-9a32-f70cff2652c2","system_id":"levelo_inurba_marseille","lat":43.30642,"lon":5.401031,"is_reserved":false,"is_disabled":false,"rental_uris":{"android":"levelo://app?vid=5548ceef-d80a-4f5e-9a32-f70cff2652c2","ios":"levelo://app?vid=5548ceef-d80a-4f5e-9a32-f70cff2652c2"},"vehicle_type_id":"4","last_reported":1683835618,"current_range_meters":14400,"station_id":"ce4bh112rcd13ifvqda0","pricing_plan_id":"free"},{"bike_id":"d8e24d0a-7c9b-4688-b856-b43dfd483c8d","system_id":"levelo_inurba_marseille","lat":43.30642,"lon":5.401031,"is_reserved":false,"is_disabled":false,"rental_uris":{"android":"levelo://app?vid=d8e24d0a-7c9b-4688-b856-b43dfd483c8d","ios":"levelo://app?vid=d8e24d0a-7c9b-4688-b856-b43dfd483c8d"},"vehicle_type_id":"4","last_reported":1683835618,"current_range_meters":4000,"station_id":"ce4bh112rcd13ifvqda0","pricing_plan_id":"free"},{"bike_id":"44b60798-415a-4d53-be27-8f1163f3857d","system_id":"levelo_inurba_marseille","lat":43.30642,"lon":5.401031,"is_reserved":false,"is_disabled":false,"rental_uris":{"android":"levelo://app?vid=44b60798-415a-4d53-be27-8f1163f3857d","ios":"levelo://app?vid=44b60798-415a-4d53-be27-8f1163f3857d"},"vehicle_type_id":"4","last_reported":1683835618,"current_range_meters":6400,"station_id":"ce4bh112rcd13ifvqda0","pricing_plan_id":"free"},{"bike_id":"4ba922c5-2f98-4693-8f92-a43d05cde276","system_id":"levelo_inurba_marseille","lat":43.301117,"lon":5.398795,"is_reserved":false,"is_disabled":false,"rental_uris":{"android":"levelo://app?vid=4ba922c5-2f98-4693-8f92-a43d05cde276","ios":"levelo://app?vid=4ba922c5-2f98-4693-8f92-a43d05cde276"},"vehicle_type_id":"4","last_reported":1683835618,"current_range_meters":16400,"station_id":"ce4bh0h2rcd13ifvqd40","pricing_plan_id":"free"},{"bike_id":"6c2e3b69-9159-417b-8bfa-d230992ca7a4","system_id":"levelo_inurba_marseille","lat":43.286591,"lon":5.363346,"is_reserved":false,"is_disabled":false,"rental_uris":{"android":"levelo://app?vid=6c2e3b69-9159-417b-8bfa-d230992ca7a4","ios":"levelo://app?vid=6c2e3b69-9159-417b-8bfa-d230992ca7a4"},"vehicle_type_id":"4","last_reported":1683835618,"current_range_meters":13200,"station_id":"ce4bhah2rcd13ifvqej0","pricing_plan_id":"free"},{"bike_id":"dde08a80-06cc-47ec-95c2-d5f0d88341ff","system_id":"levelo_inurba_marseille","lat":43.286593,"lon":5.363346,"is_reserved":false,"is_disabled":false,"rental_uris":{"android":"levelo://app?vid=dde08a80-06cc-47ec-95c2-d5f0d88341ff","ios":"levelo://app?vid=dde08a80-06cc-47ec-95c2-d5f0d88341ff"},"vehicle_type_id":"4","last_reported":1683835618,"current_range_meters":19600,"station_id":"ce4bhah2rcd13ifvqej0","pricing_plan_id":"free"},{"bike_id":"60493dda-69fc-40ed-a2e4-1305418d9310","system_id":"levelo_inurba_marseille","lat":43.295194,"lon":5.39397,"is_reserved":false,"is_disabled":false,"rental_uris":{"android":"levelo://app?vid=60493dda-69fc-40ed-a2e4-1305418d9310","ios":"levelo://app?vid=60493dda-69fc-40ed-a2e4-1305418d9310"},"vehicle_type_id":"4","last_reported":1683835618,"current_range_meters":16800,"station_id":"ce4bh292rcd13ifvqdf0","pricing_plan_id":"free"},{"bike_id":"9e3cc95c-d365-4d30-95a7-0e048152d637","system_id":"levelo_inurba_marseille","lat":43.286591,"lon":5.363346,"is_reserved":false,"is_disabled":false,"rental_uris":{"android":"levelo://app?vid=9e3cc95c-d365-4d30-95a7-0e048152d637","ios":"levelo://app?vid=9e3cc95c-d365-4d30-95a7-0e048152d637"},"vehicle_type_id":"4","last_reported":1683835618,"current_range_meters":16400,"station_id":"ce4bhah2rcd13ifvqej0","pricing_plan_id":"free"},{"bike_id":"91675983-6472-43cf-99b4-7ccaeb63232c","system_id":"levelo_inurba_marseille","lat":43.286591,"lon":5.363346,"is_reserved":false,"is_disabled":false,"rental_uris":{"android":"levelo://app?vid=91675983-6472-43cf-99b4-7ccaeb63232c","ios":"levelo://app?vid=91675983-6472-43cf-99b4-7ccaeb63232c"},"vehicle_type_id":"4","last_reported":1683835618,"current_range_meters":30400,"station_id":"ce4bhah2rcd13ifvqej0","pricing_plan_id":"free"},{"bike_id":"da505b1a-ae50-41f7-9197-e8e910dbfeea","system_id":"levelo_inurba_marseille","lat":43.286591,"lon":5.363346,"is_reserved":false,"is_disabled":false,"rental_uris":{"android":"levelo://app?vid=da505b1a-ae50-41f7-9197-e8e910dbfeea","ios":"levelo://app?vid=da505b1a-ae50-41f7-9197-e8e910dbfeea"},"vehicle_type_id":"4","last_reported":1683835618,"current_range_meters":14000,"station_id":"ce4bhah2rcd13ifvqej0","pricing_plan_id":"free"},{"bike_id":"a991e0a0-7a30-4f4a-802c-b7d21b0741bc","system_id":"levelo_inurba_marseille","lat":43.298681,"lon":5.397225,"is_reserved":false,"is_disabled":false,"rental_uris":{"android":"levelo://app?vid=a991e0a0-7a30-4f4a-802c-b7d21b0741bc","ios":"levelo://app?vid=a991e0a0-7a30-4f4a-802c-b7d21b0741bc"},"vehicle_type_id":"4","last_reported":1683835618,"current_range_meters":22400,"station_id":"ce4bh0h2rcd13ifvqd50","pricing_plan_id":"free"},{"bike_id":"128bc6eb-4c81-460b-8283-4accb5937edb","system_id":"levelo_inurba_marseille","lat":43.295194,"lon":5.39397,"is_reserved":false,"is_disabled":false,"rental_uris":{"android":"levelo://app?vid=128bc6eb-4c81-460b-8283-4accb5937edb","ios":"levelo://app?vid=128bc6eb-4c81-460b-8283-4accb5937edb"},"vehicle_type_id":"4","last_reported":1683835618,"current_range_meters":1200,"station_id":"ce4bh292rcd13ifvqdf0","pricing_plan_id":"free"},{"bike_id":"25f6726d-e722-4370-a663-73bd40adce3c","system_id":"levelo_inurba_marseille","lat":43.286591,"lon":5.363346,"is_reserved":false,"is_disabled":false,"rental_uris":{"android":"levelo://app?vid=25f6726d-e722-4370-a663-73bd40adce3c","ios":"levelo://app?vid=25f6726d-e722-4370-a663-73bd40adce3c"},"vehicle_type_id":"4","last_reported":1683835618,"current_range_meters":2400,"station_id":"ce4bhah2rcd13ifvqej0","pricing_plan_id":"free"},{"bike_id":"994f47c5-07d6-4bbb-9a39-4a95ca61ca6f","system_id":"levelo_inurba_marseille","lat":43.295194,"lon":5.39397,"is_reserved":false,"is_disabled":false,"rental_uris":{"android":"levelo://app?vid=994f47c5-07d6-4bbb-9a39-4a95ca61ca6f","ios":"levelo://app?vid=994f47c5-07d6-4bbb-9a39-4a95ca61ca6f"},"vehicle_type_id":"4","last_reported":1683835618,"current_range_meters":0,"station_id":"ce4bh292rcd13ifvqdf0","pricing_plan_id":"free"},{"bike_id":"f506aa84-ed86-40b8-9f19-d77600318775","system_id":"levelo_inurba_marseille","lat":43.295196,"lon":5.39397,"is_reserved":false,"is_disabled":false,"rental_uris":{"android":"levelo://app?vid=f506aa84-ed86-40b8-9f19-d77600318775","ios":"levelo://app?vid=f506aa84-ed86-40b8-9f19-d77600318775"},"vehicle_type_id":"4","last_reported":1683835618,"current_range_meters":9600,"station_id":"ce4bh292rcd13ifvqdf0","pricing_plan_id":"free"},{"bike_id":"6f6273e5-d914-4a15-8fa7-e3d298df410e","system_id":"levelo_inurba_marseille","lat":43.295196,"lon":5.39397,"is_reserved":false,"is_disabled":false,"rental_uris":{"android":"levelo://app?vid=6f6273e5-d914-4a15-8fa7-e3d298df410e","ios":"levelo://app?vid=6f6273e5-d914-4a15-8fa7-e3d298df410e"},"vehicle_type_id":"4","last_reported":1683835618,"current_range_meters":18400,"station_id":"ce4bh292rcd13ifvqdf0","pricing_plan_id":"free"},{"bike_id":"97f95c39-5732-431f-90c5-b1f54f8a94d5","system_id":"levelo_inurba_marseille","lat":43.295194,"lon":5.39397,"is_reserved":false,"is_disabled":false,"rental_uris":{"android":"levelo://app?vid=97f95c39-5732-431f-90c5-b1f54f8a94d5","ios":"levelo://app?vid=97f95c39-5732-431f-90c5-b1f54f8a94d5"},"vehicle_type_id":"4","last_reported":1683835618,"current_range_meters":16400,"station_id":"ce4bh292rcd13ifvqdf0","pricing_plan_id":"free"},{"bike_id":"7931051b-ff7d-4ca7-bbc7-027abafb1061","system_id":"levelo_inurba_marseille","lat":43.295196,"lon":5.39397,"is_reserved":false,"is_disabled":false,"rental_uris":{"android":"levelo://app?vid=7931051b-ff7d-4ca7-bbc7-027abafb1061","ios":"levelo://app?vid=7931051b-ff7d-4ca7-bbc7-027abafb1061"},"vehicle_type_id":"4","last_reported":1683835618,"current_range_meters":10000,"station_id":"ce4bh292rcd13ifvqdf0","pricing_plan_id":"free"},{"bike_id":"47cbb5c8-4490-44d5-850f-82139616c211","system_id":"levelo_inurba_marseille","lat":43.29515,"lon":5.39401,"is_reserved":false,"is_disabled":false,"rental_uris":{"android":"levelo://app?vid=47cbb5c8-4490-44d5-850f-82139616c211","ios":"levelo://app?vid=47cbb5c8-4490-44d5-850f-82139616c211"},"vehicle_type_id":"4","last_reported":1683835618,"current_range_meters":18000,"station_id":"ce4bh292rcd13ifvqdf0","pricing_plan_id":"free"},{"bike_id":"6d884877-8fe7-49ef-b1e4-bae796311dd0","system_id":"levelo_inurba_marseille","lat":43.29508,"lon":5.39401,"is_reserved":false,"is_disabled":false,"rental_uris":{"android":"levelo://app?vid=6d884877-8fe7-49ef-b1e4-bae796311dd0","ios":"levelo://app?vid=6d884877-8fe7-49ef-b1e4-bae796311dd0"},"vehicle_type_id":"4","last_reported":1683835618,"current_range_meters":18800,"station_id":"ce4bh292rcd13ifvqdf0","pricing_plan_id":"free"},{"bike_id":"91f0b2af-ee73-4891-9c76-8480620d9084","system_id":"levelo_inurba_marseille","lat":43.30262,"lon":5.40061,"is_reserved":false,"is_disabled":false,"rental_uris":{"android":"levelo://app?vid=91f0b2af-ee73-4891-9c76-8480620d9084","ios":"levelo://app?vid=91f0b2af-ee73-4891-9c76-8480620d9084"},"vehicle_type_id":"4","last_reported":1683835618,"current_range_meters":6000,"station_id":"ce4bgvh2rcd13ifvqcs0","pricing_plan_id":"free"},{"bike_id":"07a56df1-d46b-4e32-a817-7b826b79575b","system_id":"levelo_inurba_marseille","lat":43.295194,"lon":5.39397,"is_reserved":false,"is_disabled":false,"rental_uris":{"android":"levelo://app?vid=07a56df1-d46b-4e32-a817-7b826b79575b","ios":"levelo://app?vid=07a56df1-d46b-4e32-a817-7b826b79575b"},"vehicle_type_id":"4","last_reported":1683835618,"current_range_meters":11600,"station_id":"ce4bh292rcd13ifvqdf0","pricing_plan_id":"free"},{"bike_id":"6704e9b0-a110-4991-952f-6e782e7e1f17","system_id":"levelo_inurba_marseille","lat":43.290345,"lon":5.38646,"is_reserved":false,"is_disabled":false,"rental_uris":{"android":"levelo://app?vid=6704e9b0-a110-4991-952f-6e782e7e1f17","ios":"levelo://app?vid=6704e9b0-a110-4991-952f-6e782e7e1f17"},"vehicle_type_id":"4","last_reported":1683835618,"current_range_meters":20000,"station_id":"ce4bh4p2rcd13ifvqe0g","pricing_plan_id":"free"},{"bike_id":"27805373-52f2-49c7-b0f7-85cf186aa2bd","system_id":"levelo_inurba_marseille","lat":43.290345,"lon":5.38646,"is_reserved":false,"is_disabled":false,"rental_uris":{"android":"levelo://app?vid=27805373-52f2-49c7-b0f7-85cf186aa2bd","ios":"levelo://app?vid=27805373-52f2-49c7-b0f7-85cf186aa2bd"},"vehicle_type_id":"4","last_reported":1683835618,"current_range_meters":3600,"station_id":"ce4bh4p2rcd13ifvqe0g","pricing_plan_id":"free"},{"bike_id":"3d66eff7-2911-4776-9050-3c091612bf78","system_id":"levelo_inurba_marseille","lat":43.302759,"lon":5.400793,"is_reserved":false,"is_disabled":false,"rental_uris":{"android":"levelo://app?vid=3d66eff7-2911-4776-9050-3c091612bf78","ios":"levelo://app?vid=3d66eff7-2911-4776-9050-3c091612bf78"},"vehicle_type_id":"4","last_reported":1683835618,"current_range_meters":15600,"station_id":"ce4bgvh2rcd13ifvqcs0","pricing_plan_id":"free"},{"bike_id":"331ea8c0-e919-4de2-9c2b-718aa0964353","system_id":"levelo_inurba_marseille","lat":43.30249,"lon":5.40072,"is_reserved":false,"is_disabled":false,"rental_uris":{"android":"levelo://app?vid=331ea8c0-e919-4de2-9c2b-718aa0964353","ios":"levelo://app?vid=331ea8c0-e919-4de2-9c2b-718aa0964353"},"vehicle_type_id":"4","last_reported":1683835618,"current_range_meters":30000,"station_id":"","pricing_plan_id":"free"},{"bike_id":"7a25e7e9-1c38-4323-af68-61edadf007a5","system_id":"levelo_inurba_marseille","lat":43.290336,"lon":5.386425,"is_reserved":false,"is_disabled":false,"rental_uris":{"android":"levelo://app?vid=7a25e7e9-1c38-4323-af68-61edadf007a5","ios":"levelo://app?vid=7a25e7e9-1c38-4323-af68-61edadf007a5"},"vehicle_type_id":"4","last_reported":1683835618,"current_range_meters":27200,"station_id":"ce4bh4p2rcd13ifvqe0g","pricing_plan_id":"free"},{"bike_id":"08228185-7020-4580-93b6-8f81a8fd70ad","system_id":"levelo_inurba_marseille","lat":43.290336,"lon":5.386425,"is_reserved":false,"is_disabled":false,"rental_uris":{"android":"levelo://app?vid=08228185-7020-4580-93b6-8f81a8fd70ad","ios":"levelo://app?vid=08228185-7020-4580-93b6-8f81a8fd70ad"},"vehicle_type_id":"4","last_reported":1683835618,"current_range_meters":1600,"station_id":"ce4bh4p2rcd13ifvqe0g","pricing_plan_id":"free"},{"bike_id":"8c8202d9-ea3b-4182-a2ff-912af7ac5e2f","system_id":"levelo_inurba_marseille","lat":43.302759,"lon":5.400793,"is_reserved":false,"is_disabled":false,"rental_uris":{"android":"levelo://app?vid=8c8202d9-ea3b-4182-a2ff-912af7ac5e2f","ios":"levelo://app?vid=8c8202d9-ea3b-4182-a2ff-912af7ac5e2f"},"vehicle_type_id":"4","last_reported":1683835618,"current_range_meters":10800,"station_id":"ce4bgvh2rcd13ifvqcs0","pricing_plan_id":"free"},{"bike_id":"742fc298-88d3-40c0-8b42-a3eae1a7061e","system_id":"levelo_inurba_marseille","lat":43.286039,"lon":5.370681,"is_reserved":false,"is_disabled":false,"rental_uris":{"android":"levelo://app?vid=742fc298-88d3-40c0-8b42-a3eae1a7061e","ios":"levelo://app?vid=742fc298-88d3-40c0-8b42-a3eae1a7061e"},"vehicle_type_id":"4","last_reported":1683835618,"current_range_meters":30400,"station_id":"ce4bht12rcd13ifvqi60","pricing_plan_id":"free"},{"bike_id":"281fa2d6-5cc6-4700-9a84-d76537d8c9d0","system_id":"levelo_inurba_marseille","lat":43.286039,"lon":5.370679,"is_reserved":false,"is_disabled":false,"rental_uris":{"android":"levelo://app?vid=281fa2d6-5cc6-4700-9a84-d76537d8c9d0","ios":"levelo://app?vid=281fa2d6-5cc6-4700-9a84-d76537d8c9d0"},"vehicle_type_id":"4","last_reported":1683835618,"current_range_meters":30800,"station_id":"ce4bht12rcd13ifvqi60","pricing_plan_id":"free"},{"bike_id":"0055e18f-ab85-4366-b680-d9b9c7ebd9fb","system_id":"levelo_inurba_marseille","lat":43.286039,"lon":5.370681,"is_reserved":false,"is_disabled":false,"rental_uris":{"android":"levelo://app?vid=0055e18f-ab85-4366-b680-d9b9c7ebd9fb","ios":"levelo://app?vid=0055e18f-ab85-4366-b680-d9b9c7ebd9fb"},"vehicle_type_id":"4","last_reported":1683835618,"current_range_meters":7600,"station_id":"ce4bht12rcd13ifvqi60","pricing_plan_id":"free"},{"bike_id":"14cc38db-2f9e-41d7-8d81-894361656ff6","system_id":"levelo_inurba_marseille","lat":43.286039,"lon":5.370681,"is_reserved":false,"is_disabled":false,"rental_uris":{"android":"levelo://app?vid=14cc38db-2f9e-41d7-8d81-894361656ff6","ios":"levelo://app?vid=14cc38db-2f9e-41d7-8d81-894361656ff6"},"vehicle_type_id":"4","last_reported":1683835618,"current_range_meters":10800,"station_id":"ce4bht12rcd13ifvqi60","pricing_plan_id":"free"},{"bike_id":"ceb320f3-fdfb-40f2-bd4e-849f86cf3d64","system_id":"levelo_inurba_marseille","lat":43.286039,"lon":5.370679,"is_reserved":false,"is_disabled":false,"rental_uris":{"android":"levelo://app?vid=ceb320f3-fdfb-40f2-bd4e-849f86cf3d64","ios":"levelo://app?vid=ceb320f3-fdfb-40f2-bd4e-849f86cf3d64"},"vehicle_type_id":"4","last_reported":1683835618,"current_range_meters":11200,"station_id":"ce4bht12rcd13ifvqi60","pricing_plan_id":"free"},{"bike_id":"d903b76b-5c81-41c6-82d0-63f314fd4dbf","system_id":"levelo_inurba_marseille","lat":43.286039,"lon":5.370681,"is_reserved":false,"is_disabled":false,"rental_uris":{"android":"levelo://app?vid=d903b76b-5c81-41c6-82d0-63f314fd4dbf","ios":"levelo://app?vid=d903b76b-5c81-41c6-82d0-63f314fd4dbf"},"vehicle_type_id":"4","last_reported":1683835618,"current_range_meters":3200,"station_id":"ce4bht12rcd13ifvqi60","pricing_plan_id":"free"},{"bike_id":"848f2907-dab2-4967-8fd0-41eb23c24209","system_id":"levelo_inurba_marseille","lat":43.286039,"lon":5.370679,"is_reserved":false,"is_disabled":false,"rental_uris":{"android":"levelo://app?vid=848f2907-dab2-4967-8fd0-41eb23c24209","ios":"levelo://app?vid=848f2907-dab2-4967-8fd0-41eb23c24209"},"vehicle_type_id":"4","last_reported":1683835618,"current_range_meters":31200,"station_id":"ce4bht12rcd13ifvqi60","pricing_plan_id":"free"},{"bike_id":"b3345545-3256-4e30-9a35-4c79ece76446","system_id":"levelo_inurba_marseille","lat":43.286039,"lon":5.370681,"is_reserved":false,"is_disabled":false,"rental_uris":{"android":"levelo://app?vid=b3345545-3256-4e30-9a35-4c79ece76446","ios":"levelo://app?vid=b3345545-3256-4e30-9a35-4c79ece76446"},"vehicle_type_id":"4","last_reported":1683835618,"current_range_meters":22000,"station_id":"ce4bht12rcd13ifvqi60","pricing_plan_id":"free"},{"bike_id":"8de25265-cb32-40af-b7e9-7e04493c4117","system_id":"levelo_inurba_marseille","lat":43.287185,"lon":5.379373,"is_reserved":false,"is_disabled":false,"rental_uris":{"android":"levelo://app?vid=8de25265-cb32-40af-b7e9-7e04493c4117","ios":"levelo://app?vid=8de25265-cb32-40af-b7e9-7e04493c4117"},"vehicle_type_id":"4","last_reported":1683835618,"current_range_meters":24000,"station_id":"ce4bh9p2rcd13ifvqec0","pricing_plan_id":"free"},{"bike_id":"5aff4a71-e2f0-424f-83e9-365e2ca6788c","system_id":"levelo_inurba_marseille","lat":43.287184,"lon":5.37937,"is_reserved":false,"is_disabled":false,"rental_uris":{"android":"levelo://app?vid=5aff4a71-e2f0-424f-83e9-365e2ca6788c","ios":"levelo://app?vid=5aff4a71-e2f0-424f-83e9-365e2ca6788c"},"vehicle_type_id":"4","last_reported":1683835618,"current_range_meters":15200,"station_id":"ce4bh9p2rcd13ifvqec0","pricing_plan_id":"free"},{"bike_id":"9a59020d-336f-45ec-81bf-e70770d90e56","system_id":"levelo_inurba_marseille","lat":43.290345,"lon":5.38646,"is_reserved":false,"is_disabled":false,"rental_uris":{"android":"levelo://app?vid=9a59020d-336f-45ec-81bf-e70770d90e56","ios":"levelo://app?vid=9a59020d-336f-45ec-81bf-e70770d90e56"},"vehicle_type_id":"4","last_reported":1683835618,"current_range_meters":14800,"station_id":"ce4bh4p2rcd13ifvqe0g","pricing_plan_id":"free"},{"bike_id":"e515d082-b630-45a5-8415-1a214d2a93f9","system_id":"levelo_inurba_marseille","lat":43.33877,"lon":5.35498,"is_reserved":false,"is_disabled":false,"rental_uris":{"android":"levelo://app?vid=e515d082-b630-45a5-8415-1a214d2a93f9","ios":"levelo://app?vid=e515d082-b630-45a5-8415-1a214d2a93f9"},"vehicle_type_id":"4","last_reported":1683835618,"current_range_meters":1200,"station_id":"","pricing_plan_id":"free"},{"bike_id":"22add3eb-1267-4934-b622-5a14bba8059b","system_id":"levelo_inurba_marseille","lat":43.316517,"lon":5.404375,"is_reserved":false,"is_disabled":false,"rental_uris":{"android":"levelo://app?vid=22add3eb-1267-4934-b622-5a14bba8059b","ios":"levelo://app?vid=22add3eb-1267-4934-b622-5a14bba8059b"},"vehicle_type_id":"4","last_reported":1683835618,"current_range_meters":20800,"station_id":"ce4bh012rcd13ifvqd00","pricing_plan_id":"free"},{"bike_id":"e9de2bf1-79b4-4e4f-825b-c823633b6caa","system_id":"levelo_inurba_marseille","lat":43.316517,"lon":5.404375,"is_reserved":false,"is_disabled":false,"rental_uris":{"android":"levelo://app?vid=e9de2bf1-79b4-4e4f-825b-c823633b6caa","ios":"levelo://app?vid=e9de2bf1-79b4-4e4f-825b-c823633b6caa"},"vehicle_type_id":"4","last_reported":1683835618,"current_range_meters":10800,"station_id":"ce4bh012rcd13ifvqd00","pricing_plan_id":"free"},{"bike_id":"3831de5b-d3ef-4771-897b-b275916ac354","system_id":"levelo_inurba_marseille","lat":43.316517,"lon":5.404375,"is_reserved":false,"is_disabled":false,"rental_uris":{"android":"levelo://app?vid=3831de5b-d3ef-4771-897b-b275916ac354","ios":"levelo://app?vid=3831de5b-d3ef-4771-897b-b275916ac354"},"vehicle_type_id":"4","last_reported":1683835618,"current_range_meters":0,"station_id":"ce4bh012rcd13ifvqd00","pricing_plan_id":"free"},{"bike_id":"4a38995e-7de6-45fe-b2cf-c930e753c276","system_id":"levelo_inurba_marseille","lat":43.291994,"lon":5.392907,"is_reserved":false,"is_disabled":false,"rental_uris":{"android":"levelo://app?vid=4a38995e-7de6-45fe-b2cf-c930e753c276","ios":"levelo://app?vid=4a38995e-7de6-45fe-b2cf-c930e753c276"},"vehicle_type_id":"4","last_reported":1683835618,"current_range_meters":26400,"station_id":"ce4bh192rcd13ifvqdd0","pricing_plan_id":"free"},{"bike_id":"fcfc0305-bc57-4c92-953e-06644f61cd75","system_id":"levelo_inurba_marseille","lat":43.29201,"lon":5.39316,"is_reserved":false,"is_disabled":false,"rental_uris":{"android":"levelo://app?vid=fcfc0305-bc57-4c92-953e-06644f61cd75","ios":"levelo://app?vid=fcfc0305-bc57-4c92-953e-06644f61cd75"},"vehicle_type_id":"4","last_reported":1683835618,"current_range_meters":13200,"station_id":"ce4bh192rcd13ifvqdd0","pricing_plan_id":"free"},{"bike_id":"0eea871a-326c-4277-a2e4-069e52d72d4a","system_id":"levelo_inurba_marseille","lat":43.291994,"lon":5.392907,"is_reserved":false,"is_disabled":false,"rental_uris":{"android":"levelo://app?vid=0eea871a-326c-4277-a2e4-069e52d72d4a","ios":"levelo://app?vid=0eea871a-326c-4277-a2e4-069e52d72d4a"},"vehicle_type_id":"4","last_reported":1683835618,"current_range_meters":27200,"station_id":"ce4bh192rcd13ifvqdd0","pricing_plan_id":"free"},{"bike_id":"e903bd0c-48ef-4211-9a65-5c1e01b8ee9f","system_id":"levelo_inurba_marseille","lat":43.291994,"lon":5.392907,"is_reserved":false,"is_disabled":false,"rental_uris":{"android":"levelo://app?vid=e903bd0c-48ef-4211-9a65-5c1e01b8ee9f","ios":"levelo://app?vid=e903bd0c-48ef-4211-9a65-5c1e01b8ee9f"},"vehicle_type_id":"4","last_reported":1683835618,"current_range_meters":10800,"station_id":"ce4bh192rcd13ifvqdd0","pricing_plan_id":"free"},{"bike_id":"b46308d4-7426-4de3-a11a-0fe17dbe26a9","system_id":"levelo_inurba_marseille","lat":43.291994,"lon":5.392907,"is_reserved":false,"is_disabled":false,"rental_uris":{"android":"levelo://app?vid=b46308d4-7426-4de3-a11a-0fe17dbe26a9","ios":"levelo://app?vid=b46308d4-7426-4de3-a11a-0fe17dbe26a9"},"vehicle_type_id":"4","last_reported":1683835618,"current_range_meters":20800,"station_id":"ce4bh192rcd13ifvqdd0","pricing_plan_id":"free"},{"bike_id":"12908d3c-c2e0-4563-8026-b48589b429ea","system_id":"levelo_inurba_marseille","lat":43.284534,"lon":5.358662,"is_reserved":false,"is_disabled":false,"rental_uris":{"android":"levelo://app?vid=12908d3c-c2e0-4563-8026-b48589b429ea","ios":"levelo://app?vid=12908d3c-c2e0-4563-8026-b48589b429ea"},"vehicle_type_id":"4","last_reported":1683835618,"current_range_meters":17600,"station_id":"ce4bhah2rcd13ifvqei0","pricing_plan_id":"free"},{"bike_id":"9fe37205-5633-4964-bee1-59123d498b6c","system_id":"levelo_inurba_marseille","lat":43.28472,"lon":5.35874,"is_reserved":false,"is_disabled":false,"rental_uris":{"android":"levelo://app?vid=9fe37205-5633-4964-bee1-59123d498b6c","ios":"levelo://app?vid=9fe37205-5633-4964-bee1-59123d498b6c"},"vehicle_type_id":"4","last_reported":1683835618,"current_range_meters":13600,"station_id":"ce4bhah2rcd13ifvqei0","pricing_plan_id":"free"},{"bike_id":"617f8467-f49b-4b42-afec-1f9f6d39c9c2","system_id":"levelo_inurba_marseille","lat":43.28469,"lon":5.3589,"is_reserved":false,"is_disabled":false,"rental_uris":{"android":"levelo://app?vid=617f8467-f49b-4b42-afec-1f9f6d39c9c2","ios":"levelo://app?vid=617f8467-f49b-4b42-afec-1f9f6d39c9c2"},"vehicle_type_id":"4","last_reported":1683835618,"current_range_meters":18400,"station_id":"ce4bhah2rcd13ifvqei0","pricing_plan_id":"free"},{"bike_id":"afb0e273-e365-48b3-809f-c448745728a3","system_id":"levelo_inurba_marseille","lat":43.28467,"lon":5.35882,"is_reserved":false,"is_disabled":false,"rental_uris":{"android":"levelo://app?vid=afb0e273-e365-48b3-809f-c448745728a3","ios":"levelo://app?vid=afb0e273-e365-48b3-809f-c448745728a3"},"vehicle_type_id":"4","last_reported":1683835618,"current_range_meters":21200,"station_id":"ce4bhah2rcd13ifvqei0","pricing_plan_id":"free"},{"bike_id":"1b44bec4-7364-4c8f-b3ec-d7d366e6a842","system_id":"levelo_inurba_marseille","lat":43.28466,"lon":5.35883,"is_reserved":false,"is_disabled":false,"rental_uris":{"android":"levelo://app?vid=1b44bec4-7364-4c8f-b3ec-d7d366e6a842","ios":"levelo://app?vid=1b44bec4-7364-4c8f-b3ec-d7d366e6a842"},"vehicle_type_id":"4","last_reported":1683835618,"current_range_meters":2400,"station_id":"ce4bhah2rcd13ifvqei0","pricing_plan_id":"free"},{"bike_id":"05c88aa4-2137-4669-afc4-5b2eac840005","system_id":"levelo_inurba_marseille","lat":43.284534,"lon":5.358662,"is_reserved":false,"is_disabled":false,"rental_uris":{"android":"levelo://app?vid=05c88aa4-2137-4669-afc4-5b2eac840005","ios":"levelo://app?vid=05c88aa4-2137-4669-afc4-5b2eac840005"},"vehicle_type_id":"4","last_reported":1683835618,"current_range_meters":30400,"station_id":"ce4bhah2rcd13ifvqei0","pricing_plan_id":"free"},{"bike_id":"c99af658-0625-425c-bb12-0f719b23fac1","system_id":"levelo_inurba_marseille","lat":43.28462,"lon":5.35888,"is_reserved":false,"is_disabled":false,"rental_uris":{"android":"levelo://app?vid=c99af658-0625-425c-bb12-0f719b23fac1","ios":"levelo://app?vid=c99af658-0625-425c-bb12-0f719b23fac1"},"vehicle_type_id":"4","last_reported":1683835618,"current_range_meters":18000,"station_id":"ce4bhah2rcd13ifvqei0","pricing_plan_id":"free"},{"bike_id":"85121a95-064d-47df-998d-286191cc92a4","system_id":"levelo_inurba_marseille","lat":43.28461,"lon":5.35891,"is_reserved":false,"is_disabled":false,"rental_uris":{"android":"levelo://app?vid=85121a95-064d-47df-998d-286191cc92a4","ios":"levelo://app?vid=85121a95-064d-47df-998d-286191cc92a4"},"vehicle_type_id":"4","last_reported":1683835618,"current_range_meters":23600,"station_id":"ce4bhah2rcd13ifvqei0","pricing_plan_id":"free"},{"bike_id":"1bddfe32-b8b3-407e-a30f-a339622a801b","system_id":"levelo_inurba_marseille","lat":43.284534,"lon":5.358662,"is_reserved":false,"is_disabled":false,"rental_uris":{"android":"levelo://app?vid=1bddfe32-b8b3-407e-a30f-a339622a801b","ios":"levelo://app?vid=1bddfe32-b8b3-407e-a30f-a339622a801b"},"vehicle_type_id":"4","last_reported":1683835618,"current_range_meters":8800,"station_id":"ce4bhah2rcd13ifvqei0","pricing_plan_id":"free"},{"bike_id":"7f91c3c9-a6ec-4cc3-a3f5-75698355bff8","system_id":"levelo_inurba_marseille","lat":43.284534,"lon":5.358662,"is_reserved":false,"is_disabled":false,"rental_uris":{"android":"levelo://app?vid=7f91c3c9-a6ec-4cc3-a3f5-75698355bff8","ios":"levelo://app?vid=7f91c3c9-a6ec-4cc3-a3f5-75698355bff8"},"vehicle_type_id":"4","last_reported":1683835618,"current_range_meters":20800,"station_id":"ce4bhah2rcd13ifvqei0","pricing_plan_id":"free"},{"bike_id":"f79a4966-49fb-4116-934f-6bac4987897d","system_id":"levelo_inurba_marseille","lat":43.28456,"lon":5.35889,"is_reserved":false,"is_disabled":false,"rental_uris":{"android":"levelo://app?vid=f79a4966-49fb-4116-934f-6bac4987897d","ios":"levelo://app?vid=f79a4966-49fb-4116-934f-6bac4987897d"},