{"last_updated":1773703276,"ttl":60,"version":"2.2","data":{"bikes":[{"bike_id":"6cfe60e5-b626-45d1-bae6-cad7912c41eb","system_id":"levelo_inurba_marseille","lat":43.3053,"lon":5.38408,"is_reserved":false,"is_disabled":false,"rental_uris":{"android":"levelo://app?vid=6cfe60e5-b626-45d1-bae6-cad7912c41eb","ios":"levelo://app?vid=6cfe60e5-b626-45d1-bae6-cad7912c41eb"},"vehicle_type_id":"4","last_reported":1773703276,"current_range_meters":2800,"station_id":"ce4bgg92rcd13ifvqb30","pricing_plan_id":"cebpf4jnsgd1na2vs0mg"},{"bike_id":"6c7607db-b9c8-43e1-9538-75a01a9b1190","system_id":"levelo_inurba_marseille","lat":43.23195,"lon":5.39981,"is_reserved":false,"is_disabled":false,"rental_uris":{"android":"levelo://app?vid=6c7607db-b9c8-43e1-9538-75a01a9b1190","ios":"levelo://app?vid=6c7607db-b9c8-43e1-9538-75a01a9b1190"},"vehicle_type_id":"4","last_reported":1773703276,"current_range_meters":2800,"station_id":"ce4bhn12rcd13ifvqgqg","pricing_plan_id":"cebpf4jnsgd1na2vs0mg"},{"bike_id":"8bd1f181-d593-456a-8cae-bcce00145c34","system_id":"levelo_inurba_marseille","lat":43.33118,"lon":5.37709,"is_reserved":false,"is_disabled":false,"rental_uris":{"android":"levelo://app?vid=8bd1f181-d593-456a-8cae-bcce00145c34","ios":"levelo://app?vid=8bd1f181-d593-456a-8cae-bcce00145c34"},"vehicle_type_id":"4","last_reported":1773703276,"current_range_meters":2800,"station_id":"st_d46cu089ee8s73dldbu0","pricing_plan_id":"cebpf4jnsgd1na2vs0mg"},{"bike_id":"77c52809-6bc2-4b06-bbf1-e117a899c862","system_id":"levelo_inurba_marseille","lat":43.30009,"lon":5.37672,"is_reserved":false,"is_disabled":false,"rental_uris":{"android":"levelo://app?vid=77c52809-6bc2-4b06-bbf1-e117a899c862","ios":"levelo://app?vid=77c52809-6bc2-4b06-bbf1-e117a899c862"},"vehicle_type_id":"4","last_reported":1773703276,"current_range_meters":2800,"station_id":"","pricing_plan_id":"cebpf4jnsgd1na2vs0mg"},{"bike_id":"b5c8f609-b568-42ab-82ae-8fc642042b6c","system_id":"levelo_inurba_marseille","lat":43.30665,"lon":5.3996,"is_reserved":false,"is_disabled":true,"rental_uris":{"android":"levelo://app?vid=b5c8f609-b568-42ab-82ae-8fc642042b6c","ios":"levelo://app?vid=b5c8f609-b568-42ab-82ae-8fc642042b6c"},"vehicle_type_id":"4","last_reported":1773703276,"current_range_meters":2800,"station_id":"","pricing_plan_id":"cebpf4jnsgd1na2vs0mg"},{"bike_id":"0c34cb0b-afd0-4853-8b96-895b29cec707","system_id":"levelo_inurba_marseille","lat":43.31182,"lon":5.38716,"is_reserved":false,"is_disabled":false,"rental_uris":{"android":"levelo://app?vid=0c34cb0b-afd0-4853-8b96-895b29cec707","ios":"levelo://app?vid=0c34cb0b-afd0-4853-8b96-895b29cec707"},"vehicle_type_id":"4","last_reported":1773703276,"current_range_meters":2800,"station_id":"ce4bgv12rcd13ifvqcp0","pricing_plan_id":"cebpf4jnsgd1na2vs0mg"},{"bike_id":"91645543-cd98-47c6-9615-9e7f1933d127","system_id":"levelo_inurba_marseille","lat":43.28502,"lon":5.38993,"is_reserved":false,"is_disabled":true,"rental_uris":{"android":"levelo://app?vid=91645543-cd98-47c6-9615-9e7f1933d127","ios":"levelo://app?vid=91645543-cd98-47c6-9615-9e7f1933d127"},"vehicle_type_id":"4","last_reported":1773703276,"current_range_meters":3200,"station_id":"","pricing_plan_id":"cebpf4jnsgd1na2vs0mg"},{"bike_id":"a1b39dea-1cc8-413f-a42f-bce6bbd9feaa","system_id":"levelo_inurba_marseille","lat":43.27819,"lon":5.4072,"is_reserved":false,"is_disabled":false,"rental_uris":{"android":"levelo://app?vid=a1b39dea-1cc8-413f-a42f-bce6bbd9feaa","ios":"levelo://app?vid=a1b39dea-1cc8-413f-a42f-bce6bbd9feaa"},"vehicle_type_id":"4","last_reported":1773703276,"current_range_meters":3200,"station_id":"ce4bhnh2rcd13ifvqgtg","pricing_plan_id":"cebpf4jnsgd1na2vs0mg"},{"bike_id":"6487bb12-af11-4bf6-b5aa-82628f2bf091","system_id":"levelo_inurba_marseille","lat":43.29901,"lon":5.38129,"is_reserved":false,"is_disabled":true,"rental_uris":{"android":"levelo://app?vid=6487bb12-af11-4bf6-b5aa-82628f2bf091","ios":"levelo://app?vid=6487bb12-af11-4bf6-b5aa-82628f2bf091"},"vehicle_type_id":"4","last_reported":1773703276,"current_range_meters":3200,"station_id":"ce4bgj12rcd13ifvqbc0","pricing_plan_id":"cebpf4jnsgd1na2vs0mg"},{"bike_id":"2a4b7d30-eb80-4592-97f4-26028167dbb4","system_id":"levelo_inurba_marseille","lat":43.28619,"lon":5.35096,"is_reserved":false,"is_disabled":false,"rental_uris":{"android":"levelo://app?vid=2a4b7d30-eb80-4592-97f4-26028167dbb4","ios":"levelo://app?vid=2a4b7d30-eb80-4592-97f4-26028167dbb4"},"vehicle_type_id":"4","last_reported":1773703276,"current_range_meters":3200,"station_id":"ce4bhch2rcd13ifvqeug","pricing_plan_id":"cebpf4jnsgd1na2vs0mg"},{"bike_id":"e0ef80c9-3b8d-4d3d-905c-f53d16879618","system_id":"levelo_inurba_marseille","lat":43.30082,"lon":5.39082,"is_reserved":false,"is_disabled":false,"rental_uris":{"android":"levelo://app?vid=e0ef80c9-3b8d-4d3d-905c-f53d16879618","ios":"levelo://app?vid=e0ef80c9-3b8d-4d3d-905c-f53d16879618"},"vehicle_type_id":"4","last_reported":1773703276,"current_range_meters":3200,"station_id":"ce4bh192rcd13ifvqdb0","pricing_plan_id":"cebpf4jnsgd1na2vs0mg"},{"bike_id":"3d9d6d9a-cb28-40d6-835a-6278a83bd50a","system_id":"levelo_inurba_marseille","lat":43.25577,"lon":5.38259,"is_reserved":false,"is_disabled":false,"rental_uris":{"android":"levelo://app?vid=3d9d6d9a-cb28-40d6-835a-6278a83bd50a","ios":"levelo://app?vid=3d9d6d9a-cb28-40d6-835a-6278a83bd50a"},"vehicle_type_id":"4","last_reported":1773703276,"current_range_meters":3200,"station_id":"ce4bhih2rcd13ifvqfs0","pricing_plan_id":"cebpf4jnsgd1na2vs0mg"},{"bike_id":"e93c24cc-6b39-499b-a883-3b9c2cd855e0","system_id":"levelo_inurba_marseille","lat":43.30594,"lon":5.37194,"is_reserved":false,"is_disabled":false,"rental_uris":{"android":"levelo://app?vid=e93c24cc-6b39-499b-a883-3b9c2cd855e0","ios":"levelo://app?vid=e93c24cc-6b39-499b-a883-3b9c2cd855e0"},"vehicle_type_id":"4","last_reported":1773703276,"current_range_meters":3200,"station_id":"ce4bgqh2rcd13ifvqc4g","pricing_plan_id":"cebpf4jnsgd1na2vs0mg"},{"bike_id":"8b12a948-8cad-48c4-84aa-609895ccc452","system_id":"levelo_inurba_marseille","lat":43.26214,"lon":5.37448,"is_reserved":false,"is_disabled":false,"rental_uris":{"android":"levelo://app?vid=8b12a948-8cad-48c4-84aa-609895ccc452","ios":"levelo://app?vid=8b12a948-8cad-48c4-84aa-609895ccc452"},"vehicle_type_id":"4","last_reported":1773703276,"current_range_meters":3200,"station_id":"ce4bhgp2rcd13ifvqfc0","pricing_plan_id":"cebpf4jnsgd1na2vs0mg"},{"bike_id":"bac7aa93-e00a-4348-bfda-864cee871059","system_id":"levelo_inurba_marseille","lat":43.30323,"lon":5.40435,"is_reserved":false,"is_disabled":false,"rental_uris":{"android":"levelo://app?vid=bac7aa93-e00a-4348-bfda-864cee871059","ios":"levelo://app?vid=bac7aa93-e00a-4348-bfda-864cee871059"},"vehicle_type_id":"4","last_reported":1773703276,"current_range_meters":3200,"station_id":"ce4bh012rcd13ifvqd10","pricing_plan_id":"cebpf4jnsgd1na2vs0mg"},{"bike_id":"2a889267-0d71-4697-b5d3-456be0e15e07","system_id":"levelo_inurba_marseille","lat":43.29881,"lon":5.39723,"is_reserved":false,"is_disabled":false,"rental_uris":{"android":"levelo://app?vid=2a889267-0d71-4697-b5d3-456be0e15e07","ios":"levelo://app?vid=2a889267-0d71-4697-b5d3-456be0e15e07"},"vehicle_type_id":"4","last_reported":1773703276,"current_range_meters":3200,"station_id":"ce4bh0h2rcd13ifvqd50","pricing_plan_id":"cebpf4jnsgd1na2vs0mg"},{"bike_id":"d27b2e8b-130e-44b4-bd77-e119fd00698a","system_id":"levelo_inurba_marseille","lat":43.25811,"lon":5.39958,"is_reserved":false,"is_disabled":true,"rental_uris":{"android":"levelo://app?vid=d27b2e8b-130e-44b4-bd77-e119fd00698a","ios":"levelo://app?vid=d27b2e8b-130e-44b4-bd77-e119fd00698a"},"vehicle_type_id":"4","last_reported":1773703276,"current_range_meters":3200,"station_id":"ce4bhl92rcd13ifvqghg","pricing_plan_id":"cebpf4jnsgd1na2vs0mg"},{"bike_id":"80536bf9-95e6-42bc-aeae-d18ca81c59c1","system_id":"levelo_inurba_marseille","lat":43.28916,"lon":5.38387,"is_reserved":false,"is_disabled":false,"rental_uris":{"android":"levelo://app?vid=80536bf9-95e6-42bc-aeae-d18ca81c59c1","ios":"levelo://app?vid=80536bf9-95e6-42bc-aeae-d18ca81c59c1"},"vehicle_type_id":"4","last_reported":1773703276,"current_range_meters":3200,"station_id":"ce4bh612rcd13ifvqe6g","pricing_plan_id":"cebpf4jnsgd1na2vs0mg"},{"bike_id":"986dcfc1-2670-4627-a72b-0664ff596a0a","system_id":"levelo_inurba_marseille","lat":43.24634,"lon":5.38932,"is_reserved":false,"is_disabled":false,"rental_uris":{"android":"levelo://app?vid=986dcfc1-2670-4627-a72b-0664ff596a0a","ios":"levelo://app?vid=986dcfc1-2670-4627-a72b-0664ff596a0a"},"vehicle_type_id":"4","last_reported":1773703276,"current_range_meters":3600,"station_id":"ce4bhg12rcd13ifvqf60","pricing_plan_id":"cebpf4jnsgd1na2vs0mg"},{"bike_id":"3b367277-7d84-46f8-b434-3ae3e715ef46","system_id":"levelo_inurba_marseille","lat":43.286,"lon":5.39901,"is_reserved":false,"is_disabled":false,"rental_uris":{"android":"levelo://app?vid=3b367277-7d84-46f8-b434-3ae3e715ef46","ios":"levelo://app?vid=3b367277-7d84-46f8-b434-3ae3e715ef46"},"vehicle_type_id":"4","last_reported":1773703276,"current_range_meters":3600,"station_id":"st_d4a7ka997mjs738ck50g","pricing_plan_id":"cebpf4jnsgd1na2vs0mg"},{"bike_id":"6240f846-b45c-482c-a0c5-1cbc3defae3d","system_id":"levelo_inurba_marseille","lat":43.31148,"lon":5.37774,"is_reserved":false,"is_disabled":true,"rental_uris":{"android":"levelo://app?vid=6240f846-b45c-482c-a0c5-1cbc3defae3d","ios":"levelo://app?vid=6240f846-b45c-482c-a0c5-1cbc3defae3d"},"vehicle_type_id":"4","last_reported":1773703276,"current_range_meters":3600,"station_id":"ce4bgt92rcd13ifvqcg0","pricing_plan_id":"cebpf4jnsgd1na2vs0mg"},{"bike_id":"4d876322-584a-4b9d-934a-70855e7e71e2","system_id":"levelo_inurba_marseille","lat":43.29571,"lon":5.39967,"is_reserved":false,"is_disabled":true,"rental_uris":{"android":"levelo://app?vid=4d876322-584a-4b9d-934a-70855e7e71e2","ios":"levelo://app?vid=4d876322-584a-4b9d-934a-70855e7e71e2"},"vehicle_type_id":"4","last_reported":1773703276,"current_range_meters":3600,"station_id":"ce4bh312rcd13ifvqdj0","pricing_plan_id":"cebpf4jnsgd1na2vs0mg"},{"bike_id":"857f32d2-76cd-4054-b56f-2273542213a9","system_id":"levelo_inurba_marseille","lat":43.33539,"lon":5.37461,"is_reserved":false,"is_disabled":false,"rental_uris":{"android":"levelo://app?vid=857f32d2-76cd-4054-b56f-2273542213a9","ios":"levelo://app?vid=857f32d2-76cd-4054-b56f-2273542213a9"},"vehicle_type_id":"4","last_reported":1773703276,"current_range_meters":3600,"station_id":"st_d46tts09ee8s73dlu43g","pricing_plan_id":"cebpf4jnsgd1na2vs0mg"},{"bike_id":"07b9bc70-027b-481d-a7cf-53c5e32ae0ac","system_id":"levelo_inurba_marseille","lat":43.28689,"lon":5.39979,"is_reserved":false,"is_disabled":false,"rental_uris":{"android":"levelo://app?vid=07b9bc70-027b-481d-a7cf-53c5e32ae0ac","ios":"levelo://app?vid=07b9bc70-027b-481d-a7cf-53c5e32ae0ac"},"vehicle_type_id":"4","last_reported":1773703276,"current_range_meters":3600,"station_id":"ce4bho92rcd13ifvqh3g","pricing_plan_id":"cebpf4jnsgd1na2vs0mg"},{"bike_id":"7a87e8e7-8255-4fdf-af6b-d9757a3210b0","system_id":"levelo_inurba_marseille","lat":43.31285,"lon":5.40153,"is_reserved":false,"is_disabled":false,"rental_uris":{"android":"levelo://app?vid=7a87e8e7-8255-4fdf-af6b-d9757a3210b0","ios":"levelo://app?vid=7a87e8e7-8255-4fdf-af6b-d9757a3210b0"},"vehicle_type_id":"4","last_reported":1773703276,"current_range_meters":3600,"station_id":"ce4bh092rcd13ifvqd30","pricing_plan_id":"cebpf4jnsgd1na2vs0mg"},{"bike_id":"d6a845a3-6e68-490c-8fc7-772d163b8c93","system_id":"levelo_inurba_marseille","lat":43.28938,"lon":5.36367,"is_reserved":false,"is_disabled":false,"rental_uris":{"android":"levelo://app?vid=d6a845a3-6e68-490c-8fc7-772d163b8c93","ios":"levelo://app?vid=d6a845a3-6e68-490c-8fc7-772d163b8c93"},"vehicle_type_id":"4","last_reported":1773703276,"current_range_meters":3600,"station_id":"ce4bhc92rcd13ifvqetg","pricing_plan_id":"cebpf4jnsgd1na2vs0mg"},{"bike_id":"e8d8c5f0-9c1f-438a-8a70-f71901059aa4","system_id":"levelo_inurba_marseille","lat":43.30811,"lon":5.38145,"is_reserved":false,"is_disabled":false,"rental_uris":{"android":"levelo://app?vid=e8d8c5f0-9c1f-438a-8a70-f71901059aa4","ios":"levelo://app?vid=e8d8c5f0-9c1f-438a-8a70-f71901059aa4"},"vehicle_type_id":"4","last_reported":1773703276,"current_range_meters":3600,"station_id":"ce4bgt12rcd13ifvqce0","pricing_plan_id":"cebpf4jnsgd1na2vs0mg"},{"bike_id":"71436a00-a99c-4f59-8321-10888f9c2ae8","system_id":"levelo_inurba_marseille","lat":43.2841,"lon":5.37518,"is_reserved":false,"is_disabled":false,"rental_uris":{"android":"levelo://app?vid=71436a00-a99c-4f59-8321-10888f9c2ae8","ios":"levelo://app?vid=71436a00-a99c-4f59-8321-10888f9c2ae8"},"vehicle_type_id":"4","last_reported":1773703276,"current_range_meters":3600,"station_id":"ce4bh412rcd13ifvqds0","pricing_plan_id":"cebpf4jnsgd1na2vs0mg"},{"bike_id":"ccb54f6f-537f-4ee3-8bf1-50606846f171","system_id":"levelo_inurba_marseille","lat":43.28716,"lon":5.35204,"is_reserved":false,"is_disabled":false,"rental_uris":{"android":"levelo://app?vid=ccb54f6f-537f-4ee3-8bf1-50606846f171","ios":"levelo://app?vid=ccb54f6f-537f-4ee3-8bf1-50606846f171"},"vehicle_type_id":"4","last_reported":1773703276,"current_range_meters":4000,"station_id":"","pricing_plan_id":"cebpf4jnsgd1na2vs0mg"},{"bike_id":"6684ef43-aed7-4c02-8193-b5dcc2905571","system_id":"levelo_inurba_marseille","lat":43.25339,"lon":5.42165,"is_reserved":false,"is_disabled":false,"rental_uris":{"android":"levelo://app?vid=6684ef43-aed7-4c02-8193-b5dcc2905571","ios":"levelo://app?vid=6684ef43-aed7-4c02-8193-b5dcc2905571"},"vehicle_type_id":"4","last_reported":1773703276,"current_range_meters":4000,"station_id":"st_d2m65c5bi1j21697t3ng","pricing_plan_id":"cebpf4jnsgd1na2vs0mg"},{"bike_id":"fff1eb00-ea59-4e62-ad67-e2fd5ad5dda0","system_id":"levelo_inurba_marseille","lat":43.23193,"lon":5.39982,"is_reserved":false,"is_disabled":false,"rental_uris":{"android":"levelo://app?vid=fff1eb00-ea59-4e62-ad67-e2fd5ad5dda0","ios":"levelo://app?vid=fff1eb00-ea59-4e62-ad67-e2fd5ad5dda0"},"vehicle_type_id":"4","last_reported":1773703276,"current_range_meters":4000,"station_id":"ce4bhn12rcd13ifvqgqg","pricing_plan_id":"cebpf4jnsgd1na2vs0mg"},{"bike_id":"546dec86-6efc-40ae-95e8-ef7683c73998","system_id":"levelo_inurba_marseille","lat":43.24669,"lon":5.43168,"is_reserved":false,"is_disabled":false,"rental_uris":{"android":"levelo://app?vid=546dec86-6efc-40ae-95e8-ef7683c73998","ios":"levelo://app?vid=546dec86-6efc-40ae-95e8-ef7683c73998"},"vehicle_type_id":"4","last_reported":1773703276,"current_range_meters":4000,"station_id":"","pricing_plan_id":"cebpf4jnsgd1na2vs0mg"},{"bike_id":"90cf72eb-9816-4579-b039-fd78eaf7bdbb","system_id":"levelo_inurba_marseille","lat":43.28418,"lon":5.37515,"is_reserved":false,"is_disabled":false,"rental_uris":{"android":"levelo://app?vid=90cf72eb-9816-4579-b039-fd78eaf7bdbb","ios":"levelo://app?vid=90cf72eb-9816-4579-b039-fd78eaf7bdbb"},"vehicle_type_id":"4","last_reported":1773703276,"current_range_meters":4000,"station_id":"ce4bh412rcd13ifvqds0","pricing_plan_id":"cebpf4jnsgd1na2vs0mg"},{"bike_id":"9ea4f135-4964-42f6-86a6-ba484d204cec","system_id":"levelo_inurba_marseille","lat":43.29019,"lon":5.38088,"is_reserved":false,"is_disabled":true,"rental_uris":{"android":"levelo://app?vid=9ea4f135-4964-42f6-86a6-ba484d204cec","ios":"levelo://app?vid=9ea4f135-4964-42f6-86a6-ba484d204cec"},"vehicle_type_id":"4","last_reported":1773703276,"current_range_meters":4000,"station_id":"ce4bh4p2rcd13ifvqe1g","pricing_plan_id":"cebpf4jnsgd1na2vs0mg"},{"bike_id":"c7c2da94-b7b3-4141-835b-05e2807ae11f","system_id":"levelo_inurba_marseille","lat":43.31545,"lon":5.38022,"is_reserved":false,"is_disabled":false,"rental_uris":{"android":"levelo://app?vid=c7c2da94-b7b3-4141-835b-05e2807ae11f","ios":"levelo://app?vid=c7c2da94-b7b3-4141-835b-05e2807ae11f"},"vehicle_type_id":"4","last_reported":1773703276,"current_range_meters":4000,"station_id":"ce4bhsp2rcd13ifvqi50","pricing_plan_id":"cebpf4jnsgd1na2vs0mg"},{"bike_id":"33090029-f845-49b7-8206-25ff29ffa267","system_id":"levelo_inurba_marseille","lat":43.3149,"lon":5.37297,"is_reserved":false,"is_disabled":false,"rental_uris":{"android":"levelo://app?vid=33090029-f845-49b7-8206-25ff29ffa267","ios":"levelo://app?vid=33090029-f845-49b7-8206-25ff29ffa267"},"vehicle_type_id":"4","last_reported":1773703276,"current_range_meters":4000,"station_id":"ce4bgt12rcd13ifvqcd0","pricing_plan_id":"cebpf4jnsgd1na2vs0mg"},{"bike_id":"a57fd276-80d6-4f2f-8fbc-0c5a46f65dce","system_id":"levelo_inurba_marseille","lat":43.30916,"lon":5.36842,"is_reserved":false,"is_disabled":false,"rental_uris":{"android":"levelo://app?vid=a57fd276-80d6-4f2f-8fbc-0c5a46f65dce","ios":"levelo://app?vid=a57fd276-80d6-4f2f-8fbc-0c5a46f65dce"},"vehicle_type_id":"4","last_reported":1773703276,"current_range_meters":4000,"station_id":"ce4bgn92rcd13ifvqbvg","pricing_plan_id":"cebpf4jnsgd1na2vs0mg"},{"bike_id":"39c2392a-3aae-4405-89c9-271ea82c16ec","system_id":"levelo_inurba_marseille","lat":43.28403,"lon":5.37507,"is_reserved":false,"is_disabled":false,"rental_uris":{"android":"levelo://app?vid=39c2392a-3aae-4405-89c9-271ea82c16ec","ios":"levelo://app?vid=39c2392a-3aae-4405-89c9-271ea82c16ec"},"vehicle_type_id":"4","last_reported":1773703276,"current_range_meters":4000,"station_id":"ce4bh412rcd13ifvqds0","pricing_plan_id":"cebpf4jnsgd1na2vs0mg"},{"bike_id":"5c6bcaf2-3895-415c-b8c2-27c24d5ead77","system_id":"levelo_inurba_marseille","lat":43.22556,"lon":5.4164,"is_reserved":false,"is_disabled":false,"rental_uris":{"android":"levelo://app?vid=5c6bcaf2-3895-415c-b8c2-27c24d5ead77","ios":"levelo://app?vid=5c6bcaf2-3895-415c-b8c2-27c24d5ead77"},"vehicle_type_id":"4","last_reported":1773703276,"current_range_meters":4000,"station_id":"st_d2o4gvlbi1j2169b742g","pricing_plan_id":"cebpf4jnsgd1na2vs0mg"},{"bike_id":"9a3df205-a794-496a-85fc-469cbe3ff37a","system_id":"levelo_inurba_marseille","lat":43.29194,"lon":5.37131,"is_reserved":false,"is_disabled":false,"rental_uris":{"android":"levelo://app?vid=9a3df205-a794-496a-85fc-469cbe3ff37a","ios":"levelo://app?vid=9a3df205-a794-496a-85fc-469cbe3ff37a"},"vehicle_type_id":"4","last_reported":1773703276,"current_range_meters":4000,"station_id":"ce4bha92rcd13ifvqeh0","pricing_plan_id":"cebpf4jnsgd1na2vs0mg"},{"bike_id":"e7c58db4-424e-4970-92fb-a0dce31132b1","system_id":"levelo_inurba_marseille","lat":43.22564,"lon":5.41635,"is_reserved":false,"is_disabled":false,"rental_uris":{"android":"levelo://app?vid=e7c58db4-424e-4970-92fb-a0dce31132b1","ios":"levelo://app?vid=e7c58db4-424e-4970-92fb-a0dce31132b1"},"vehicle_type_id":"4","last_reported":1773703276,"current_range_meters":4000,"station_id":"st_d2o4gvlbi1j2169b742g","pricing_plan_id":"cebpf4jnsgd1na2vs0mg"},{"bike_id":"3e29b245-6248-4e2f-9ee4-f4cd0f161451","system_id":"levelo_inurba_marseille","lat":43.25496,"lon":5.37667,"is_reserved":false,"is_disabled":false,"rental_uris":{"android":"levelo://app?vid=3e29b245-6248-4e2f-9ee4-f4cd0f161451","ios":"levelo://app?vid=3e29b245-6248-4e2f-9ee4-f4cd0f161451"},"vehicle_type_id":"4","last_reported":1773703276,"current_range_meters":4000,"station_id":"ce4bhh12rcd13ifvqff0","pricing_plan_id":"cebpf4jnsgd1na2vs0mg"},{"bike_id":"0699e983-e0b6-437d-99d3-1a27e44dfafb","system_id":"levelo_inurba_marseille","lat":43.27656,"lon":5.38882,"is_reserved":false,"is_disabled":false,"rental_uris":{"android":"levelo://app?vid=0699e983-e0b6-437d-99d3-1a27e44dfafb","ios":"levelo://app?vid=0699e983-e0b6-437d-99d3-1a27e44dfafb"},"vehicle_type_id":"4","last_reported":1773703276,"current_range_meters":4000,"station_id":"ce4bhi12rcd13ifvqfo0","pricing_plan_id":"cebpf4jnsgd1na2vs0mg"},{"bike_id":"5693d629-ccf5-4f00-8a40-fb430b7fc87c","system_id":"levelo_inurba_marseille","lat":43.28398,"lon":5.37512,"is_reserved":false,"is_disabled":false,"rental_uris":{"android":"levelo://app?vid=5693d629-ccf5-4f00-8a40-fb430b7fc87c","ios":"levelo://app?vid=5693d629-ccf5-4f00-8a40-fb430b7fc87c"},"vehicle_type_id":"4","last_reported":1773703276,"current_range_meters":4400,"station_id":"ce4bh412rcd13ifvqds0","pricing_plan_id":"cebpf4jnsgd1na2vs0mg"},{"bike_id":"86bab4d9-8dd5-4b0f-8a22-2f88c70337ef","system_id":"levelo_inurba_marseille","lat":43.287026,"lon":5.373634,"is_reserved":false,"is_disabled":false,"rental_uris":{"android":"levelo://app?vid=86bab4d9-8dd5-4b0f-8a22-2f88c70337ef","ios":"levelo://app?vid=86bab4d9-8dd5-4b0f-8a22-2f88c70337ef"},"vehicle_type_id":"4","last_reported":1773703276,"current_range_meters":4400,"station_id":"ce4bh3p2rcd13ifvqdq0","pricing_plan_id":"cebpf4jnsgd1na2vs0mg"},{"bike_id":"bed28392-0da1-43b5-9fd6-079b95697677","system_id":"levelo_inurba_marseille","lat":43.246546,"lon":5.381586,"is_reserved":false,"is_disabled":false,"rental_uris":{"android":"levelo://app?vid=bed28392-0da1-43b5-9fd6-079b95697677","ios":"levelo://app?vid=bed28392-0da1-43b5-9fd6-079b95697677"},"vehicle_type_id":"4","last_reported":1773703276,"current_range_meters":4400,"station_id":"ce4bhih2rcd13ifvqfr0","pricing_plan_id":"cebpf4jnsgd1na2vs0mg"},{"bike_id":"010a9f6e-3baf-4328-b2cc-6d9ecc86357b","system_id":"levelo_inurba_marseille","lat":43.31484,"lon":5.37312,"is_reserved":false,"is_disabled":false,"rental_uris":{"android":"levelo://app?vid=010a9f6e-3baf-4328-b2cc-6d9ecc86357b","ios":"levelo://app?vid=010a9f6e-3baf-4328-b2cc-6d9ecc86357b"},"vehicle_type_id":"4","last_reported":1773703276,"current_range_meters":4400,"station_id":"ce4bgt12rcd13ifvqcd0","pricing_plan_id":"cebpf4jnsgd1na2vs0mg"},{"bike_id":"f6bbce4d-c9cb-4b24-b614-4ec4b4cd66d1","system_id":"levelo_inurba_marseille","lat":43.24547,"lon":5.39521,"is_reserved":false,"is_disabled":false,"rental_uris":{"android":"levelo://app?vid=f6bbce4d-c9cb-4b24-b614-4ec4b4cd66d1","ios":"levelo://app?vid=f6bbce4d-c9cb-4b24-b614-4ec4b4cd66d1"},"vehicle_type_id":"4","last_reported":1773703276,"current_range_meters":4400,"station_id":"ce4bhlp2rcd13ifvqgjg","pricing_plan_id":"cebpf4jnsgd1na2vs0mg"},{"bike_id":"1412d134-b8dd-45cf-807f-8fe8d90007c6","system_id":"levelo_inurba_marseille","lat":43.31173,"lon":5.38712,"is_reserved":false,"is_disabled":false,"rental_uris":{"android":"levelo://app?vid=1412d134-b8dd-45cf-807f-8fe8d90007c6","ios":"levelo://app?vid=1412d134-b8dd-45cf-807f-8fe8d90007c6"},"vehicle_type_id":"4","last_reported":1773703276,"current_range_meters":4400,"station_id":"ce4bgv12rcd13ifvqcp0","pricing_plan_id":"cebpf4jnsgd1na2vs0mg"},{"bike_id":"5de67a92-61a8-45e0-a3f7-5012c66c2695","system_id":"levelo_inurba_marseille","lat":43.25344,"lon":5.4214,"is_reserved":false,"is_disabled":false,"rental_uris":{"android":"levelo://app?vid=5de67a92-61a8-45e0-a3f7-5012c66c2695","ios":"levelo://app?vid=5de67a92-61a8-45e0-a3f7-5012c66c2695"},"vehicle_type_id":"4","last_reported":1773703276,"current_range_meters":4400,"station_id":"st_d2m65c5bi1j21697t3ng","pricing_plan_id":"cebpf4jnsgd1na2vs0mg"},{"bike_id":"cfc46c13-5058-4d83-a0b2-12941f296b13","system_id":"levelo_inurba_marseille","lat":43.30799,"lon":5.38183,"is_reserved":false,"is_disabled":false,"rental_uris":{"android":"levelo://app?vid=cfc46c13-5058-4d83-a0b2-12941f296b13","ios":"levelo://app?vid=cfc46c13-5058-4d83-a0b2-12941f296b13"},"vehicle_type_id":"4","last_reported":1773703276,"current_range_meters":4400,"station_id":"ce4bgt12rcd13ifvqce0","pricing_plan_id":"cebpf4jnsgd1na2vs0mg"},{"bike_id":"eeae0e95-cea9-4eae-9f05-bd0e55033ffe","system_id":"levelo_inurba_marseille","lat":43.3012,"lon":5.39864,"is_reserved":false,"is_disabled":false,"rental_uris":{"android":"levelo://app?vid=eeae0e95-cea9-4eae-9f05-bd0e55033ffe","ios":"levelo://app?vid=eeae0e95-cea9-4eae-9f05-bd0e55033ffe"},"vehicle_type_id":"4","last_reported":1773703276,"current_range_meters":4400,"station_id":"ce4bh0h2rcd13ifvqd40","pricing_plan_id":"cebpf4jnsgd1na2vs0mg"},{"bike_id":"4b66d87f-df59-44c5-bb47-d7e0503e1b42","system_id":"levelo_inurba_marseille","lat":43.21747,"lon":5.34602,"is_reserved":false,"is_disabled":false,"rental_uris":{"android":"levelo://app?vid=4b66d87f-df59-44c5-bb47-d7e0503e1b42","ios":"levelo://app?vid=4b66d87f-df59-44c5-bb47-d7e0503e1b42"},"vehicle_type_id":"4","last_reported":1773703276,"current_range_meters":4400,"station_id":"st_cvj6r9ubvosntc0bgbag","pricing_plan_id":"cebpf4jnsgd1na2vs0mg"},{"bike_id":"625c1130-7336-4ab6-95da-008141105a0d","system_id":"levelo_inurba_marseille","lat":43.30231,"lon":5.39468,"is_reserved":false,"is_disabled":false,"rental_uris":{"android":"levelo://app?vid=625c1130-7336-4ab6-95da-008141105a0d","ios":"levelo://app?vid=625c1130-7336-4ab6-95da-008141105a0d"},"vehicle_type_id":"4","last_reported":1773703276,"current_range_meters":4400,"station_id":"ce4bh0p2rcd13ifvqd70","pricing_plan_id":"cebpf4jnsgd1na2vs0mg"},{"bike_id":"6f1681e6-745f-4763-a26a-a8cfdac1adae","system_id":"levelo_inurba_marseille","lat":43.30349,"lon":5.36885,"is_reserved":false,"is_disabled":false,"rental_uris":{"android":"levelo://app?vid=6f1681e6-745f-4763-a26a-a8cfdac1adae","ios":"levelo://app?vid=6f1681e6-745f-4763-a26a-a8cfdac1adae"},"vehicle_type_id":"4","last_reported":1773703276,"current_range_meters":4800,"station_id":"","pricing_plan_id":"cebpf4jnsgd1na2vs0mg"},{"bike_id":"f757319f-bbe4-441c-858e-47c13f95c4eb","system_id":"levelo_inurba_marseille","lat":43.24498,"lon":5.42517,"is_reserved":false,"is_disabled":false,"rental_uris":{"android":"levelo://app?vid=f757319f-bbe4-441c-858e-47c13f95c4eb","ios":"levelo://app?vid=f757319f-bbe4-441c-858e-47c13f95c4eb"},"vehicle_type_id":"4","last_reported":1773703276,"current_range_meters":4800,"station_id":"st_d4a3vfp97mjs738cd8kg","pricing_plan_id":"cebpf4jnsgd1na2vs0mg"},{"bike_id":"50a992db-0f19-4564-9631-440135fc81b6","system_id":"levelo_inurba_marseille","lat":43.29018,"lon":5.35606,"is_reserved":false,"is_disabled":false,"rental_uris":{"android":"levelo://app?vid=50a992db-0f19-4564-9631-440135fc81b6","ios":"levelo://app?vid=50a992db-0f19-4564-9631-440135fc81b6"},"vehicle_type_id":"4","last_reported":1773703276,"current_range_meters":4800,"station_id":"ce4bhb92rcd13ifvqen0","pricing_plan_id":"cebpf4jnsgd1na2vs0mg"},{"bike_id":"c8431d5e-fe62-4c51-a67e-06bd269df984","system_id":"levelo_inurba_marseille","lat":43.33542,"lon":5.37447,"is_reserved":false,"is_disabled":false,"rental_uris":{"android":"levelo://app?vid=c8431d5e-fe62-4c51-a67e-06bd269df984","ios":"levelo://app?vid=c8431d5e-fe62-4c51-a67e-06bd269df984"},"vehicle_type_id":"4","last_reported":1773703276,"current_range_meters":4800,"station_id":"st_d46tts09ee8s73dlu43g","pricing_plan_id":"cebpf4jnsgd1na2vs0mg"},{"bike_id":"4fb702b1-5215-4524-9260-909a50753239","system_id":"levelo_inurba_marseille","lat":43.21741,"lon":5.34615,"is_reserved":false,"is_disabled":false,"rental_uris":{"android":"levelo://app?vid=4fb702b1-5215-4524-9260-909a50753239","ios":"levelo://app?vid=4fb702b1-5215-4524-9260-909a50753239"},"vehicle_type_id":"4","last_reported":1773703276,"current_range_meters":4800,"station_id":"st_cvj6r9ubvosntc0bgbag","pricing_plan_id":"cebpf4jnsgd1na2vs0mg"},{"bike_id":"6e77419f-563e-4dd4-bc51-2cf7383e2f66","system_id":"levelo_inurba_marseille","lat":43.30183,"lon":5.39842,"is_reserved":false,"is_disabled":false,"rental_uris":{"android":"levelo://app?vid=6e77419f-563e-4dd4-bc51-2cf7383e2f66","ios":"levelo://app?vid=6e77419f-563e-4dd4-bc51-2cf7383e2f66"},"vehicle_type_id":"4","last_reported":1773703276,"current_range_meters":4800,"station_id":"","pricing_plan_id":"cebpf4jnsgd1na2vs0mg"},{"bike_id":"16ec8de2-7797-46a8-9aff-ec827b63b48f","system_id":"levelo_inurba_marseille","lat":43.24659,"lon":5.38186,"is_reserved":false,"is_disabled":false,"rental_uris":{"android":"levelo://app?vid=16ec8de2-7797-46a8-9aff-ec827b63b48f","ios":"levelo://app?vid=16ec8de2-7797-46a8-9aff-ec827b63b48f"},"vehicle_type_id":"4","last_reported":1773703276,"current_range_meters":4800,"station_id":"ce4bhih2rcd13ifvqfr0","pricing_plan_id":"cebpf4jnsgd1na2vs0mg"},{"bike_id":"944609b4-af99-4644-8455-0446826bce9b","system_id":"levelo_inurba_marseille","lat":43.30258,"lon":5.40055,"is_reserved":false,"is_disabled":false,"rental_uris":{"android":"levelo://app?vid=944609b4-af99-4644-8455-0446826bce9b","ios":"levelo://app?vid=944609b4-af99-4644-8455-0446826bce9b"},"vehicle_type_id":"4","last_reported":1773703276,"current_range_meters":4800,"station_id":"ce4bgvh2rcd13ifvqcs0","pricing_plan_id":"cebpf4jnsgd1na2vs0mg"},{"bike_id":"a8c11763-251e-4b93-9a01-e0a3db398ee7","system_id":"levelo_inurba_marseille","lat":43.27981,"lon":5.41673,"is_reserved":false,"is_disabled":false,"rental_uris":{"android":"levelo://app?vid=a8c11763-251e-4b93-9a01-e0a3db398ee7","ios":"levelo://app?vid=a8c11763-251e-4b93-9a01-e0a3db398ee7"},"vehicle_type_id":"4","last_reported":1773703276,"current_range_meters":5600,"station_id":"ce4bho12rcd13ifvqh1g","pricing_plan_id":"cebpf4jnsgd1na2vs0mg"},{"bike_id":"99405a20-80f7-49c0-b29c-9bad75458236","system_id":"levelo_inurba_marseille","lat":43.2642,"lon":5.41063,"is_reserved":false,"is_disabled":false,"rental_uris":{"android":"levelo://app?vid=99405a20-80f7-49c0-b29c-9bad75458236","ios":"levelo://app?vid=99405a20-80f7-49c0-b29c-9bad75458236"},"vehicle_type_id":"4","last_reported":1773703276,"current_range_meters":5600,"station_id":"","pricing_plan_id":"cebpf4jnsgd1na2vs0mg"},{"bike_id":"624d2080-13b9-4d2a-b0fd-9db757f408b9","system_id":"levelo_inurba_marseille","lat":43.30601,"lon":5.401,"is_reserved":false,"is_disabled":false,"rental_uris":{"android":"levelo://app?vid=624d2080-13b9-4d2a-b0fd-9db757f408b9","ios":"levelo://app?vid=624d2080-13b9-4d2a-b0fd-9db757f408b9"},"vehicle_type_id":"4","last_reported":1773703276,"current_range_meters":5600,"station_id":"ce4bh112rcd13ifvqda0","pricing_plan_id":"cebpf4jnsgd1na2vs0mg"},{"bike_id":"87896560-78dd-4bd7-91cf-8c7262cac97b","system_id":"levelo_inurba_marseille","lat":43.29038,"lon":5.39991,"is_reserved":false,"is_disabled":false,"rental_uris":{"android":"levelo://app?vid=87896560-78dd-4bd7-91cf-8c7262cac97b","ios":"levelo://app?vid=87896560-78dd-4bd7-91cf-8c7262cac97b"},"vehicle_type_id":"4","last_reported":1773703276,"current_range_meters":5600,"station_id":"ce4bh392rcd13ifvqdm0","pricing_plan_id":"cebpf4jnsgd1na2vs0mg"},{"bike_id":"fb8b3091-18c3-465a-8625-70f5c0063377","system_id":"levelo_inurba_marseille","lat":43.3119,"lon":5.38705,"is_reserved":false,"is_disabled":false,"rental_uris":{"android":"levelo://app?vid=fb8b3091-18c3-465a-8625-70f5c0063377","ios":"levelo://app?vid=fb8b3091-18c3-465a-8625-70f5c0063377"},"vehicle_type_id":"4","last_reported":1773703276,"current_range_meters":5600,"station_id":"ce4bgv12rcd13ifvqcp0","pricing_plan_id":"cebpf4jnsgd1na2vs0mg"},{"bike_id":"d91f5059-f6b7-4289-a686-c55193d574bf","system_id":"levelo_inurba_marseille","lat":43.29724,"lon":5.36607,"is_reserved":false,"is_disabled":false,"rental_uris":{"android":"levelo://app?vid=d91f5059-f6b7-4289-a686-c55193d574bf","ios":"levelo://app?vid=d91f5059-f6b7-4289-a686-c55193d574bf"},"vehicle_type_id":"4","last_reported":1773703276,"current_range_meters":5600,"station_id":"ce4bgn12rcd13ifvqbt0","pricing_plan_id":"cebpf4jnsgd1na2vs0mg"},{"bike_id":"7077099d-bec4-45e6-9cb2-740f7185bcfe","system_id":"levelo_inurba_marseille","lat":43.31064,"lon":5.37166,"is_reserved":false,"is_disabled":false,"rental_uris":{"android":"levelo://app?vid=7077099d-bec4-45e6-9cb2-740f7185bcfe","ios":"levelo://app?vid=7077099d-bec4-45e6-9cb2-740f7185bcfe"},"vehicle_type_id":"4","last_reported":1773703276,"current_range_meters":5600,"station_id":"st_d4kl2rp97mjs73e7tdfg","pricing_plan_id":"cebpf4jnsgd1na2vs0mg"},{"bike_id":"367d1ebd-1fe7-4381-bb25-dac6bfe4a266","system_id":"levelo_inurba_marseille","lat":43.25325,"lon":5.42153,"is_reserved":false,"is_disabled":false,"rental_uris":{"android":"levelo://app?vid=367d1ebd-1fe7-4381-bb25-dac6bfe4a266","ios":"levelo://app?vid=367d1ebd-1fe7-4381-bb25-dac6bfe4a266"},"vehicle_type_id":"4","last_reported":1773703276,"current_range_meters":5600,"station_id":"st_d2m65c5bi1j21697t3ng","pricing_plan_id":"cebpf4jnsgd1na2vs0mg"},{"bike_id":"ef275710-a738-4425-a373-87c195840051","system_id":"levelo_inurba_marseille","lat":43.30748,"lon":5.42504,"is_reserved":false,"is_disabled":false,"rental_uris":{"android":"levelo://app?vid=ef275710-a738-4425-a373-87c195840051","ios":"levelo://app?vid=ef275710-a738-4425-a373-87c195840051"},"vehicle_type_id":"4","last_reported":1773703276,"current_range_meters":5600,"station_id":"st_cvj6ca6bvosntc0bfgr0","pricing_plan_id":"cebpf4jnsgd1na2vs0mg"},{"bike_id":"f241c30b-2b1a-4f86-a532-796da72b8ac2","system_id":"levelo_inurba_marseille","lat":43.21206,"lon":5.35064,"is_reserved":false,"is_disabled":false,"rental_uris":{"android":"levelo://app?vid=f241c30b-2b1a-4f86-a532-796da72b8ac2","ios":"levelo://app?vid=f241c30b-2b1a-4f86-a532-796da72b8ac2"},"vehicle_type_id":"4","last_reported":1773703276,"current_range_meters":5600,"station_id":"st_cvj6sg6p6f1abm77japg","pricing_plan_id":"cebpf4jnsgd1na2vs0mg"},{"bike_id":"8df1e407-29ec-4599-83e3-964b3440f28c","system_id":"levelo_inurba_marseille","lat":43.2893,"lon":5.38396,"is_reserved":false,"is_disabled":false,"rental_uris":{"android":"levelo://app?vid=8df1e407-29ec-4599-83e3-964b3440f28c","ios":"levelo://app?vid=8df1e407-29ec-4599-83e3-964b3440f28c"},"vehicle_type_id":"4","last_reported":1773703276,"current_range_meters":5600,"station_id":"ce4bh612rcd13ifvqe6g","pricing_plan_id":"cebpf4jnsgd1na2vs0mg"},{"bike_id":"41a475e8-8f60-49e5-932c-2037737c2411","system_id":"levelo_inurba_marseille","lat":43.33531,"lon":5.37466,"is_reserved":false,"is_disabled":false,"rental_uris":{"android":"levelo://app?vid=41a475e8-8f60-49e5-932c-2037737c2411","ios":"levelo://app?vid=41a475e8-8f60-49e5-932c-2037737c2411"},"vehicle_type_id":"4","last_reported":1773703276,"current_range_meters":5600,"station_id":"st_d46tts09ee8s73dlu43g","pricing_plan_id":"cebpf4jnsgd1na2vs0mg"},{"bike_id":"ca5af02f-49f7-48db-a0c5-85c6fd8e11c9","system_id":"levelo_inurba_marseille","lat":43.25015,"lon":5.38912,"is_reserved":false,"is_disabled":true,"rental_uris":{"android":"levelo://app?vid=ca5af02f-49f7-48db-a0c5-85c6fd8e11c9","ios":"levelo://app?vid=ca5af02f-49f7-48db-a0c5-85c6fd8e11c9"},"vehicle_type_id":"4","last_reported":1773703276,"current_range_meters":5600,"station_id":"ce4bhgp2rcd13ifvqfd0","pricing_plan_id":"cebpf4jnsgd1na2vs0mg"},{"bike_id":"04ff217c-edd8-44fc-aef2-2c4a4ad3c253","system_id":"levelo_inurba_marseille","lat":43.29722,"lon":5.36613,"is_reserved":false,"is_disabled":false,"rental_uris":{"android":"levelo://app?vid=04ff217c-edd8-44fc-aef2-2c4a4ad3c253","ios":"levelo://app?vid=04ff217c-edd8-44fc-aef2-2c4a4ad3c253"},"vehicle_type_id":"4","last_reported":1773703276,"current_range_meters":5600,"station_id":"ce4bgn12rcd13ifvqbt0","pricing_plan_id":"cebpf4jnsgd1na2vs0mg"},{"bike_id":"7d5e5488-b062-4979-8056-f7926cc5db5b","system_id":"levelo_inurba_marseille","lat":43.28475,"lon":5.48384,"is_reserved":false,"is_disabled":false,"rental_uris":{"android":"levelo://app?vid=7d5e5488-b062-4979-8056-f7926cc5db5b","ios":"levelo://app?vid=7d5e5488-b062-4979-8056-f7926cc5db5b"},"vehicle_type_id":"4","last_reported":1773703276,"current_range_meters":5600,"station_id":"","pricing_plan_id":"cebpf4jnsgd1na2vs0mg"},{"bike_id":"c6d69b4d-4c87-44fe-a02d-92b1370b69aa","system_id":"levelo_inurba_marseille","lat":43.22563,"lon":5.41618,"is_reserved":false,"is_disabled":false,"rental_uris":{"android":"levelo://app?vid=c6d69b4d-4c87-44fe-a02d-92b1370b69aa","ios":"levelo://app?vid=c6d69b4d-4c87-44fe-a02d-92b1370b69aa"},"vehicle_type_id":"4","last_reported":1773703276,"current_range_meters":6000,"station_id":"st_d2o4gvlbi1j2169b742g","pricing_plan_id":"cebpf4jnsgd1na2vs0mg"},{"bike_id":"9d8618ab-de6a-46c3-b454-d4196c014401","system_id":"levelo_inurba_marseille","lat":43.28415,"lon":5.34987,"is_reserved":false,"is_disabled":false,"rental_uris":{"android":"levelo://app?vid=9d8618ab-de6a-46c3-b454-d4196c014401","ios":"levelo://app?vid=9d8618ab-de6a-46c3-b454-d4196c014401"},"vehicle_type_id":"4","last_reported":1773703276,"current_range_meters":6000,"station_id":"ce4bhbh2rcd13ifvqepg","pricing_plan_id":"cebpf4jnsgd1na2vs0mg"},{"bike_id":"ac4ec8f4-cbf9-4d7a-8f9b-9d7e4720889b","system_id":"levelo_inurba_marseille","lat":43.29084,"lon":5.37176,"is_reserved":false,"is_disabled":true,"rental_uris":{"android":"levelo://app?vid=ac4ec8f4-cbf9-4d7a-8f9b-9d7e4720889b","ios":"levelo://app?vid=ac4ec8f4-cbf9-4d7a-8f9b-9d7e4720889b"},"vehicle_type_id":"4","last_reported":1773703276,"current_range_meters":6000,"station_id":"ce4bh5p2rcd13ifvqe4g","pricing_plan_id":"cebpf4jnsgd1na2vs0mg"},{"bike_id":"4b338ce8-5a1d-45ae-98e5-89395f01eed6","system_id":"levelo_inurba_marseille","lat":43.28412,"lon":5.37275,"is_reserved":false,"is_disabled":false,"rental_uris":{"android":"levelo://app?vid=4b338ce8-5a1d-45ae-98e5-89395f01eed6","ios":"levelo://app?vid=4b338ce8-5a1d-45ae-98e5-89395f01eed6"},"vehicle_type_id":"4","last_reported":1773703276,"current_range_meters":6000,"station_id":"ce4bh412rcd13ifvqds0","pricing_plan_id":"cebpf4jnsgd1na2vs0mg"},{"bike_id":"f95354ea-890e-4f56-964f-c3b309b3efe6","system_id":"levelo_inurba_marseille","lat":43.31721,"lon":5.40465,"is_reserved":false,"is_disabled":false,"rental_uris":{"android":"levelo://app?vid=f95354ea-890e-4f56-964f-c3b309b3efe6","ios":"levelo://app?vid=f95354ea-890e-4f56-964f-c3b309b3efe6"},"vehicle_type_id":"4","last_reported":1773703276,"current_range_meters":6000,"station_id":"ce4bh012rcd13ifvqd00","pricing_plan_id":"cebpf4jnsgd1na2vs0mg"},{"bike_id":"54e1430e-f603-4f12-94e1-97898e39d9f4","system_id":"levelo_inurba_marseille","lat":43.31053,"lon":5.37165,"is_reserved":false,"is_disabled":false,"rental_uris":{"android":"levelo://app?vid=54e1430e-f603-4f12-94e1-97898e39d9f4","ios":"levelo://app?vid=54e1430e-f603-4f12-94e1-97898e39d9f4"},"vehicle_type_id":"4","last_reported":1773703276,"current_range_meters":6000,"station_id":"st_d4kl2rp97mjs73e7tdfg","pricing_plan_id":"cebpf4jnsgd1na2vs0mg"},{"bike_id":"ff6903f8-7d6d-4329-9980-dd36491025a5","system_id":"levelo_inurba_marseille","lat":43.28493,"lon":5.48397,"is_reserved":false,"is_disabled":false,"rental_uris":{"android":"levelo://app?vid=ff6903f8-7d6d-4329-9980-dd36491025a5","ios":"levelo://app?vid=ff6903f8-7d6d-4329-9980-dd36491025a5"},"vehicle_type_id":"4","last_reported":1773703276,"current_range_meters":6000,"station_id":"st_d3svhcjqgbts73a3dn0g","pricing_plan_id":"cebpf4jnsgd1na2vs0mg"},{"bike_id":"2be48d0d-c988-40d6-948e-4adda5345ace","system_id":"levelo_inurba_marseille","lat":43.2977,"lon":5.42787,"is_reserved":false,"is_disabled":false,"rental_uris":{"android":"levelo://app?vid=2be48d0d-c988-40d6-948e-4adda5345ace","ios":"levelo://app?vid=2be48d0d-c988-40d6-948e-4adda5345ace"},"vehicle_type_id":"4","last_reported":1773703276,"current_range_meters":6000,"station_id":"st_d3md5207bmas73dh9klg","pricing_plan_id":"cebpf4jnsgd1na2vs0mg"},{"bike_id":"b3fb0cd9-0d50-4402-b1d7-e0ca7cbbf02f","system_id":"levelo_inurba_marseille","lat":43.22547,"lon":5.41638,"is_reserved":false,"is_disabled":false,"rental_uris":{"android":"levelo://app?vid=b3fb0cd9-0d50-4402-b1d7-e0ca7cbbf02f","ios":"levelo://app?vid=b3fb0cd9-0d50-4402-b1d7-e0ca7cbbf02f"},"vehicle_type_id":"4","last_reported":1773703276,"current_range_meters":6000,"station_id":"st_d2o4gvlbi1j2169b742g","pricing_plan_id":"cebpf4jnsgd1na2vs0mg"},{"bike_id":"e7d20ce8-61ee-4df3-9ba4-585a7648c721","system_id":"levelo_inurba_marseille","lat":43.24647,"lon":5.43158,"is_reserved":false,"is_disabled":false,"rental_uris":{"android":"levelo://app?vid=e7d20ce8-61ee-4df3-9ba4-585a7648c721","ios":"levelo://app?vid=e7d20ce8-61ee-4df3-9ba4-585a7648c721"},"vehicle_type_id":"4","last_reported":1773703276,"current_range_meters":6000,"station_id":"","pricing_plan_id":"cebpf4jnsgd1na2vs0mg"},{"bike_id":"a64c7316-4124-45b6-aec3-937069d4f72f","system_id":"levelo_inurba_marseille","lat":43.21753,"lon":5.34595,"is_reserved":false,"is_disabled":false,"rental_uris":{"android":"levelo://app?vid=a64c7316-4124-45b6-aec3-937069d4f72f","ios":"levelo://app?vid=a64c7316-4124-45b6-aec3-937069d4f72f"},"vehicle_type_id":"4","last_reported":1773703276,"current_range_meters":6000,"station_id":"st_cvj6r9ubvosntc0bgbag","pricing_plan_id":"cebpf4jnsgd1na2vs0mg"},{"bike_id":"879a873f-004f-4af1-a55c-41f0a4bec7bc","system_id":"levelo_inurba_marseille","lat":43.21205,"lon":5.35062,"is_reserved":false,"is_disabled":false,"rental_uris":{"android":"levelo://app?vid=879a873f-004f-4af1-a55c-41f0a4bec7bc","ios":"levelo://app?vid=879a873f-004f-4af1-a55c-41f0a4bec7bc"},"vehicle_type_id":"4","last_reported":1773703276,"current_range_meters":6000,"station_id":"st_cvj6sg6p6f1abm77japg","pricing_plan_id":"cebpf4jnsgd1na2vs0mg"},{"bike_id":"46a72c77-9cb6-4d3a-be39-99894c1d44af","system_id":"levelo_inurba_marseille","lat":43.27911,"lon":5.38007,"is_reserved":false,"is_disabled":false,"rental_uris":{"android":"levelo://app?vid=46a72c77-9cb6-4d3a-be39-99894c1d44af","ios":"levelo://app?vid=46a72c77-9cb6-4d3a-be39-99894c1d44af"},"vehicle_type_id":"4","last_reported":1773703276,"current_range_meters":6000,"station_id":"ce4bhf92rcd13ifvqf50","pricing_plan_id":"cebpf4jnsgd1na2vs0mg"},{"bike_id":"12861d53-e350-4c70-b373-90fb44769018","system_id":"levelo_inurba_marseille","lat":43.29192,"lon":5.39317,"is_reserved":false,"is_disabled":false,"rental_uris":{"android":"levelo://app?vid=12861d53-e350-4c70-b373-90fb44769018","ios":"levelo://app?vid=12861d53-e350-4c70-b373-90fb44769018"},"vehicle_type_id":"4","last_reported":1773703276,"current_range_meters":6000,"station_id":"ce4bh192rcd13ifvqdd0","pricing_plan_id":"cebpf4jnsgd1na2vs0mg"},{"bike_id":"a57d9288-08f3-4738-a2f2-d182664b4b38","system_id":"levelo_inurba_marseille","lat":43.28474,"lon":5.38405,"is_reserved":false,"is_disabled":false,"rental_uris":{"android":"levelo://app?vid=a57d9288-08f3-4738-a2f2-d182664b4b38","ios":"levelo://app?vid=a57d9288-08f3-4738-a2f2-d182664b4b38"},"vehicle_type_id":"4","last_reported":1773703276,"current_range_meters":6000,"station_id":"ce4bh512rcd13ifvqe3g","pricing_plan_id":"cebpf4jnsgd1na2vs0mg"},{"bike_id":"3d30fa5d-e15c-42cd-96f6-7cab21121729","system_id":"levelo_inurba_marseille","lat":43.30797,"lon":5.38156,"is_reserved":false,"is_disabled":false,"rental_uris":{"android":"levelo://app?vid=3d30fa5d-e15c-42cd-96f6-7cab21121729","ios":"levelo://app?vid=3d30fa5d-e15c-42cd-96f6-7cab21121729"},"vehicle_type_id":"4","last_reported":1773703276,"current_range_meters":6000,"station_id":"ce4bgt12rcd13ifvqce0","pricing_plan_id":"cebpf4jnsgd1na2vs0mg"},{"bike_id":"20d965c2-9356-4a2d-b2d1-b586da5c97e8","system_id":"levelo_inurba_marseille","lat":43.2814,"lon":5.40583,"is_reserved":false,"is_disabled":true,"rental_uris":{"android":"levelo://app?vid=20d965c2-9356-4a2d-b2d1-b586da5c97e8","ios":"levelo://app?vid=20d965c2-9356-4a2d-b2d1-b586da5c97e8"},"vehicle_type_id":"4","last_reported":1773703276,"current_range_meters":6400,"station_id":"","pricing_plan_id":"cebpf4jnsgd1na2vs0mg"},{"bike_id":"9f96e3e5-0df4-4f85-8707-d098d0747392","system_id":"levelo_inurba_marseille","lat":43.25338,"lon":5.42159,"is_reserved":false,"is_disabled":false,"rental_uris":{"android":"levelo://app?vid=9f96e3e5-0df4-4f85-8707-d098d0747392","ios":"levelo://app?vid=9f96e3e5-0df4-4f85-8707-d098d0747392"},"vehicle_type_id":"4","last_reported":1773703276,"current_range_meters":6400,"station_id":"st_d2m65c5bi1j21697t3ng","pricing_plan_id":"cebpf4jnsgd1na2vs0mg"},{"bike_id":"a0806e25-dade-486d-85c7-f7d09b5532b3","system_id":"levelo_inurba_marseille","lat":43.31368,"lon":5.38495,"is_reserved":false,"is_disabled":false,"rental_uris":{"android":"levelo://app?vid=a0806e25-dade-486d-85c7-f7d09b5532b3","ios":"levelo://app?vid=a0806e25-dade-486d-85c7-f7d09b5532b3"},"vehicle_type_id":"4","last_reported":1773703276,"current_range_meters":6400,"station_id":"ce4bgt92rcd13ifvqcf0","pricing_plan_id":"cebpf4jnsgd1na2vs0mg"},{"bike_id":"6bf65720-8266-4d1b-8965-d8f376442203","system_id":"levelo_inurba_marseille","lat":43.25329,"lon":5.42166,"is_reserved":false,"is_disabled":false,"rental_uris":{"android":"levelo://app?vid=6bf65720-8266-4d1b-8965-d8f376442203","ios":"levelo://app?vid=6bf65720-8266-4d1b-8965-d8f376442203"},"vehicle_type_id":"4","last_reported":1773703276,"current_range_meters":6400,"station_id":"st_d2m65c5bi1j21697t3ng","pricing_plan_id":"cebpf4jnsgd1na2vs0mg"},{"bike_id":"e2992129-175c-4815-b6ef-f2418d5b54cf","system_id":"levelo_inurba_marseille","lat":43.28406,"lon":5.37514,"is_reserved":false,"is_disabled":false,"rental_uris":{"android":"levelo://app?vid=e2992129-175c-4815-b6ef-f2418d5b54cf","ios":"levelo://app?vid=e2992129-175c-4815-b6ef-f2418d5b54cf"},"vehicle_type_id":"4","last_reported":1773703276,"current_range_meters":6400,"station_id":"ce4bh412rcd13ifvqds0","pricing_plan_id":"cebpf4jnsgd1na2vs0mg"},{"bike_id":"83ccaa9b-978c-429e-8f2d-59508aa8522c","system_id":"levelo_inurba_marseille","lat":43.28393,"lon":5.37523,"is_reserved":false,"is_disabled":false,"rental_uris":{"android":"levelo://app?vid=83ccaa9b-978c-429e-8f2d-59508aa8522c","ios":"levelo://app?vid=83ccaa9b-978c-429e-8f2d-59508aa8522c"},"vehicle_type_id":"4","last_reported":1773703276,"current_range_meters":6400,"station_id":"ce4bh412rcd13ifvqds0","pricing_plan_id":"cebpf4jnsgd1na2vs0mg"},{"bike_id":"4a560852-9384-45ed-b37f-f950441e1aa5","system_id":"levelo_inurba_marseille","lat":43.31186,"lon":5.38702,"is_reserved":false,"is_disabled":false,"rental_uris":{"android":"levelo://app?vid=4a560852-9384-45ed-b37f-f950441e1aa5","ios":"levelo://app?vid=4a560852-9384-45ed-b37f-f950441e1aa5"},"vehicle_type_id":"4","last_reported":1773703276,"current_range_meters":6400,"station_id":"ce4bgv12rcd13ifvqcp0","pricing_plan_id":"cebpf4jnsgd1na2vs0mg"},{"bike_id":"d89134ff-a044-45c7-94db-9ed2eccb039f","system_id":"levelo_inurba_marseille","lat":43.3135,"lon":5.38497,"is_reserved":false,"is_disabled":true,"rental_uris":{"android":"levelo://app?vid=d89134ff-a044-45c7-94db-9ed2eccb039f","ios":"levelo://app?vid=d89134ff-a044-45c7-94db-9ed2eccb039f"},"vehicle_type_id":"4","last_reported":1773703276,"current_range_meters":6400,"station_id":"ce4bgt92rcd13ifvqcf0","pricing_plan_id":"cebpf4jnsgd1na2vs0mg"},{"bike_id":"47ddc6d4-9a28-47c6-8b9b-4ea35b57561d","system_id":"levelo_inurba_marseille","lat":43.28587,"lon":5.39946,"is_reserved":false,"is_disabled":false,"rental_uris":{"android":"levelo://app?vid=47ddc6d4-9a28-47c6-8b9b-4ea35b57561d","ios":"levelo://app?vid=47ddc6d4-9a28-47c6-8b9b-4ea35b57561d"},"vehicle_type_id":"4","last_reported":1773703276,"current_range_meters":6400,"station_id":"","pricing_plan_id":"cebpf4jnsgd1na2vs0mg"},{"bike_id":"649f0a63-4734-4229-a1e9-8eb20e6ecc07","system_id":"levelo_inurba_marseille","lat":43.28389,"lon":5.37501,"is_reserved":false,"is_disabled":false,"rental_uris":{"android":"levelo://app?vid=649f0a63-4734-4229-a1e9-8eb20e6ecc07","ios":"levelo://app?vid=649f0a63-4734-4229-a1e9-8eb20e6ecc07"},"vehicle_type_id":"4","last_reported":1773703276,"current_range_meters":6400,"station_id":"ce4bh412rcd13ifvqds0","pricing_plan_id":"cebpf4jnsgd1na2vs0mg"},{"bike_id":"2d475c7c-0764-4ac9-8950-41d5059b573b","system_id":"levelo_inurba_marseille","lat":43.28472,"lon":5.48444,"is_reserved":false,"is_disabled":false,"rental_uris":{"android":"levelo://app?vid=2d475c7c-0764-4ac9-8950-41d5059b573b","ios":"levelo://app?vid=2d475c7c-0764-4ac9-8950-41d5059b573b"},"vehicle_type_id":"4","last_reported":1773703276,"current_range_meters":6800,"station_id":"st_d3svhcjqgbts73a3dn0g","pricing_plan_id":"cebpf4jnsgd1na2vs0mg"},{"bike_id":"87cf2c9e-dd79-479c-9e15-2f0aaae6b8ee","system_id":"levelo_inurba_marseille","lat":43.31456,"lon":5.37361,"is_reserved":false,"is_disabled":false,"rental_uris":{"android":"levelo://app?vid=87cf2c9e-dd79-479c-9e15-2f0aaae6b8ee","ios":"levelo://app?vid=87cf2c9e-dd79-479c-9e15-2f0aaae6b8ee"},"vehicle_type_id":"4","last_reported":1773703276,"current_range_meters":6800,"station_id":"ce4bgt12rcd13ifvqcd0","pricing_plan_id":"cebpf4jnsgd1na2vs0mg"},{"bike_id":"8a3e1ef0-5bb7-4a21-945c-924fce356611","system_id":"levelo_inurba_marseille","lat":43.28846,"lon":5.39317,"is_reserved":false,"is_disabled":false,"rental_uris":{"android":"levelo://app?vid=8a3e1ef0-5bb7-4a21-945c-924fce356611","ios":"levelo://app?vid=8a3e1ef0-5bb7-4a21-945c-924fce356611"},"vehicle_type_id":"4","last_reported":1773703276,"current_range_meters":6800,"station_id":"ce4bh2p2rcd13ifvqdi0","pricing_plan_id":"cebpf4jnsgd1na2vs0mg"},{"bike_id":"4279b292-9079-40e5-9b9e-dfa720a44d15","system_id":"levelo_inurba_marseille","lat":43.29043,"lon":5.39951,"is_reserved":false,"is_disabled":false,"rental_uris":{"android":"levelo://app?vid=4279b292-9079-40e5-9b9e-dfa720a44d15","ios":"levelo://app?vid=4279b292-9079-40e5-9b9e-dfa720a44d15"},"vehicle_type_id":"4","last_reported":1773703276,"current_range_meters":6800,"station_id":"ce4bh392rcd13ifvqdm0","pricing_plan_id":"cebpf4jnsgd1na2vs0mg"},{"bike_id":"bca8615a-1eb7-4f98-af6b-bbc2d2c17df9","system_id":"levelo_inurba_marseille","lat":43.29708,"lon":5.36613,"is_reserved":false,"is_disabled":false,"rental_uris":{"android":"levelo://app?vid=bca8615a-1eb7-4f98-af6b-bbc2d2c17df9","ios":"levelo://app?vid=bca8615a-1eb7-4f98-af6b-bbc2d2c17df9"},"vehicle_type_id":"4","last_reported":1773703276,"current_range_meters":6800,"station_id":"ce4bgn12rcd13ifvqbt0","pricing_plan_id":"cebpf4jnsgd1na2vs0mg"},{"bike_id":"e7489f16-bff7-4ee8-8d7f-feebdff4ccbe","system_id":"levelo_inurba_marseille","lat":43.33161,"lon":5.37676,"is_reserved":false,"is_disabled":false,"rental_uris":{"android":"levelo://app?vid=e7489f16-bff7-4ee8-8d7f-feebdff4ccbe","ios":"levelo://app?vid=e7489f16-bff7-4ee8-8d7f-feebdff4ccbe"},"vehicle_type_id":"4","last_reported":1773703276,"current_range_meters":6800,"station_id":"st_d46cu089ee8s73dldbu0","pricing_plan_id":"cebpf4jnsgd1na2vs0mg"},{"bike_id":"5ceea874-16bc-4dc6-9858-1b3ce34dfda6","system_id":"levelo_inurba_marseille","lat":43.28478,"lon":5.48389,"is_reserved":false,"is_disabled":false,"rental_uris":{"android":"levelo://app?vid=5ceea874-16bc-4dc6-9858-1b3ce34dfda6","ios":"levelo://app?vid=5ceea874-16bc-4dc6-9858-1b3ce34dfda6"},"vehicle_type_id":"4","last_reported":1773703276,"current_range_meters":6800,"station_id":"st_d3svhcjqgbts73a3dn0g","pricing_plan_id":"cebpf4jnsgd1na2vs0mg"},{"bike_id":"ced58fee-f3ca-4544-a644-35772759b3ce","system_id":"levelo_inurba_marseille","lat":43.28401,"lon":5.37517,"is_reserved":false,"is_disabled":false,"rental_uris":{"android":"levelo://app?vid=ced58fee-f3ca-4544-a644-35772759b3ce","ios":"levelo://app?vid=ced58fee-f3ca-4544-a644-35772759b3ce"},"vehicle_type_id":"4","last_reported":1773703276,"current_range_meters":6800,"station_id":"ce4bh412rcd13ifvqds0","pricing_plan_id":"cebpf4jnsgd1na2vs0mg"},{"bike_id":"5c13d3bc-3946-4016-b223-a96c424763ee","system_id":"levelo_inurba_marseille","lat":43.24159,"lon":5.36392,"is_reserved":false,"is_disabled":false,"rental_uris":{"android":"levelo://app?vid=5c13d3bc-3946-4016-b223-a96c424763ee","ios":"levelo://app?vid=5c13d3bc-3946-4016-b223-a96c424763ee"},"vehicle_type_id":"4","last_reported":1773703276,"current_range_meters":6800,"station_id":"cpo36qri1sfpv3e86is0","pricing_plan_id":"cebpf4jnsgd1na2vs0mg"},{"bike_id":"fa22a6dc-5a6e-474c-a607-70fab0c52ebd","system_id":"levelo_inurba_marseille","lat":43.30247,"lon":5.40057,"is_reserved":false,"is_disabled":false,"rental_uris":{"android":"levelo://app?vid=fa22a6dc-5a6e-474c-a607-70fab0c52ebd","ios":"levelo://app?vid=fa22a6dc-5a6e-474c-a607-70fab0c52ebd"},"vehicle_type_id":"4","last_reported":1773703276,"current_range_meters":6800,"station_id":"ce4bgvh2rcd13ifvqcs0","pricing_plan_id":"cebpf4jnsgd1na2vs0mg"},{"bike_id":"99c3cad1-1350-428f-86e7-6615ff5bf918","system_id":"levelo_inurba_marseille","lat":43.29535,"lon":5.38133,"is_reserved":false,"is_disabled":false,"rental_uris":{"android":"levelo://app?vid=99c3cad1-1350-428f-86e7-6615ff5bf918","ios":"levelo://app?vid=99c3cad1-1350-428f-86e7-6615ff5bf918"},"vehicle_type_id":"4","last_reported":1773703276,"current_range_meters":6800,"station_id":"","pricing_plan_id":"cebpf4jnsgd1na2vs0mg"},{"bike_id":"a17ef251-b33b-4cf2-8d59-c05b27699232","system_id":"levelo_inurba_marseille","lat":43.28519,"lon":5.38426,"is_reserved":false,"is_disabled":false,"rental_uris":{"android":"levelo://app?vid=a17ef251-b33b-4cf2-8d59-c05b27699232","ios":"levelo://app?vid=a17ef251-b33b-4cf2-8d59-c05b27699232"},"vehicle_type_id":"4","last_reported":1773703276,"current_range_meters":6800,"station_id":"ce4bh512rcd13ifvqe3g","pricing_plan_id":"cebpf4jnsgd1na2vs0mg"},{"bike_id":"92ff8135-dae4-44bd-b24c-b9f5df00543b","system_id":"levelo_inurba_marseille","lat":43.2558,"lon":5.38242,"is_reserved":false,"is_disabled":false,"rental_uris":{"android":"levelo://app?vid=92ff8135-dae4-44bd-b24c-b9f5df00543b","ios":"levelo://app?vid=92ff8135-dae4-44bd-b24c-b9f5df00543b"},"vehicle_type_id":"4","last_reported":1773703276,"current_range_meters":6800,"station_id":"ce4bhih2rcd13ifvqfs0","pricing_plan_id":"cebpf4jnsgd1na2vs0mg"},{"bike_id":"d06b1804-70fd-40ad-8edd-a00949173812","system_id":"levelo_inurba_marseille","lat":43.23206,"lon":5.39983,"is_reserved":false,"is_disabled":false,"rental_uris":{"android":"levelo://app?vid=d06b1804-70fd-40ad-8edd-a00949173812","ios":"levelo://app?vid=d06b1804-70fd-40ad-8edd-a00949173812"},"vehicle_type_id":"4","last_reported":1773703276,"current_range_meters":6800,"station_id":"ce4bhn12rcd13ifvqgqg","pricing_plan_id":"cebpf4jnsgd1na2vs0mg"},{"bike_id":"580e4e1f-c821-4f35-b0d2-4b7d76377e51","system_id":"levelo_inurba_marseille","lat":43.29192,"lon":5.35817,"is_reserved":false,"is_disabled":true,"rental_uris":{"android":"levelo://app?vid=580e4e1f-c821-4f35-b0d2-4b7d76377e51","ios":"levelo://app?vid=580e4e1f-c821-4f35-b0d2-4b7d76377e51"},"vehicle_type_id":"4","last_reported":1773703276,"current_range_meters":6800,"station_id":"ce4bhb12rcd13ifvqel0","pricing_plan_id":"cebpf4jnsgd1na2vs0mg"},{"bike_id":"3b2d3b2b-9e7f-43fe-b40c-4cc1b73a89cf","system_id":"levelo_inurba_marseille","lat":43.28451,"lon":5.38483,"is_reserved":false,"is_disabled":false,"rental_uris":{"android":"levelo://app?vid=3b2d3b2b-9e7f-43fe-b40c-4cc1b73a89cf","ios":"levelo://app?vid=3b2d3b2b-9e7f-43fe-b40c-4cc1b73a89cf"},"vehicle_type_id":"4","last_reported":1773703276,"current_range_meters":6800,"station_id":"","pricing_plan_id":"cebpf4jnsgd1na2vs0mg"},{"bike_id":"5247c951-a74f-455c-8348-09a4b4062d01","system_id":"levelo_inurba_marseille","lat":43.21752,"lon":5.34603,"is_reserved":false,"is_disabled":false,"rental_uris":{"android":"levelo://app?vid=5247c951-a74f-455c-8348-09a4b4062d01","ios":"levelo://app?vid=5247c951-a74f-455c-8348-09a4b4062d01"},"vehicle_type_id":"4","last_reported":1773703276,"current_range_meters":6800,"station_id":"st_cvj6r9ubvosntc0bgbag","pricing_plan_id":"cebpf4jnsgd1na2vs0mg"},{"bike_id":"e05e4dde-ebb0-4f90-9bb9-88151c19d6a0","system_id":"levelo_inurba_marseille","lat":43.29021,"lon":5.4001,"is_reserved":false,"is_disabled":false,"rental_uris":{"android":"levelo://app?vid=e05e4dde-ebb0-4f90-9bb9-88151c19d6a0","ios":"levelo://app?vid=e05e4dde-ebb0-4f90-9bb9-88151c19d6a0"},"vehicle_type_id":"4","last_reported":1773703276,"current_range_meters":6800,"station_id":"ce4bh392rcd13ifvqdm0","pricing_plan_id":"cebpf4jnsgd1na2vs0mg"},{"bike_id":"fcc16676-bdcc-453d-943e-a6082336e83f","system_id":"levelo_inurba_marseille","lat":43.29764,"lon":5.44075,"is_reserved":false,"is_disabled":false,"rental_uris":{"android":"levelo://app?vid=fcc16676-bdcc-453d-943e-a6082336e83f","ios":"levelo://app?vid=fcc16676-bdcc-453d-943e-a6082336e83f"},"vehicle_type_id":"4","last_reported":1773703276,"current_range_meters":7200,"station_id":"st_d3jp68qikq2c7381ktn0","pricing_plan_id":"cebpf4jnsgd1na2vs0mg"},{"bike_id":"8431c0ae-c291-4e69-8c30-9ab81ad19a14","system_id":"levelo_inurba_marseille","lat":43.2655,"lon":5.37301,"is_reserved":false,"is_disabled":false,"rental_uris":{"android":"levelo://app?vid=8431c0ae-c291-4e69-8c30-9ab81ad19a14","ios":"levelo://app?vid=8431c0ae-c291-4e69-8c30-9ab81ad19a14"},"vehicle_type_id":"4","last_reported":1773703276,"current_range_meters":7200,"station_id":"ce4bhg12rcd13ifvqf70","pricing_plan_id":"cebpf4jnsgd1na2vs0mg"},{"bike_id":"0f53d472-bee4-40de-8ab2-7656a789b4f7","system_id":"levelo_inurba_marseille","lat":43.22533,"lon":5.34844,"is_reserved":false,"is_disabled":false,"rental_uris":{"android":"levelo://app?vid=0f53d472-bee4-40de-8ab2-7656a789b4f7","ios":"levelo://app?vid=0f53d472-bee4-40de-8ab2-7656a789b4f7"},"vehicle_type_id":"4","last_reported":1773703276,"current_range_meters":7200,"station_id":"st_cvj5dfep6f1abm77gieg","pricing_plan_id":"cebpf4jnsgd1na2vs0mg"},{"bike_id":"3286180d-3b2d-484f-adc4-200321598259","system_id":"levelo_inurba_marseille","lat":43.31282,"lon":5.40166,"is_reserved":false,"is_disabled":false,"rental_uris":{"android":"levelo://app?vid=3286180d-3b2d-484f-adc4-200321598259","ios":"levelo://app?vid=3286180d-3b2d-484f-adc4-200321598259"},"vehicle_type_id":"4","last_reported":1773703276,"current_range_meters":7200,"station_id":"ce4bh092rcd13ifvqd30","pricing_plan_id":"cebpf4jnsgd1na2vs0mg"},{"bike_id":"910604b9-cf7f-4f47-be12-9b600261c12b","system_id":"levelo_inurba_marseille","lat":43.29771,"lon":5.38529,"is_reserved":false,"is_disabled":false,"rental_uris":{"android":"levelo://app?vid=910604b9-cf7f-4f47-be12-9b600261c12b","ios":"levelo://app?vid=910604b9-cf7f-4f47-be12-9b600261c12b"},"vehicle_type_id":"4","last_reported":1773703276,"current_range_meters":7200,"station_id":"","pricing_plan_id":"cebpf4jnsgd1na2vs0mg"},{"bike_id":"e6976f45-722a-450e-8afb-2257e547ec8d","system_id":"levelo_inurba_marseille","lat":43.25591,"lon":5.38229,"is_reserved":false,"is_disabled":false,"rental_uris":{"android":"levelo://app?vid=e6976f45-722a-450e-8afb-2257e547ec8d","ios":"levelo://app?vid=e6976f45-722a-450e-8afb-2257e547ec8d"},"vehicle_type_id":"4","last_reported":1773703276,"current_range_meters":7200,"station_id":"ce4bhih2rcd13ifvqfs0","pricing_plan_id":"cebpf4jnsgd1na2vs0mg"},{"bike_id":"53336338-5141-44ec-bb59-6df2460b79a8","system_id":"levelo_inurba_marseille","lat":43.30206,"lon":5.3946,"is_reserved":false,"is_disabled":true,"rental_uris":{"android":"levelo://app?vid=53336338-5141-44ec-bb59-6df2460b79a8","ios":"levelo://app?vid=53336338-5141-44ec-bb59-6df2460b79a8"},"vehicle_type_id":"4","last_reported":1773703276,"current_range_meters":7200,"station_id":"ce4bh0p2rcd13ifvqd70","pricing_plan_id":"cebpf4jnsgd1na2vs0mg"},{"bike_id":"9cb55d20-a7eb-44cb-b8b5-e241c5520e9d","system_id":"levelo_inurba_marseille","lat":43.29281,"lon":5.36833,"is_reserved":false,"is_disabled":true,"rental_uris":{"android":"levelo://app?vid=9cb55d20-a7eb-44cb-b8b5-e241c5520e9d","ios":"levelo://app?vid=9cb55d20-a7eb-44cb-b8b5-e241c5520e9d"},"vehicle_type_id":"4","last_reported":1773703276,"current_range_meters":7200,"station_id":"ce4bhbp2rcd13ifvqesg","pricing_plan_id":"cebpf4jnsgd1na2vs0mg"},{"bike_id":"523ea723-1fdd-4331-ab86-103e48a58552","system_id":"levelo_inurba_marseille","lat":43.28656,"lon":5.36357,"is_reserved":false,"is_disabled":false,"rental_uris":{"android":"levelo://app?vid=523ea723-1fdd-4331-ab86-103e48a58552","ios":"levelo://app?vid=523ea723-1fdd-4331-ab86-103e48a58552"},"vehicle_type_id":"4","last_reported":1773703276,"current_range_meters":7200,"station_id":"ce4bhah2rcd13ifvqej0","pricing_plan_id":"cebpf4jnsgd1na2vs0mg"},{"bike_id":"0da3b02c-b0d0-467c-97ca-108ebe63788e","system_id":"levelo_inurba_marseille","lat":43.24846,"lon":5.3852,"is_reserved":false,"is_disabled":false,"rental_uris":{"android":"levelo://app?vid=0da3b02c-b0d0-467c-97ca-108ebe63788e","ios":"levelo://app?vid=0da3b02c-b0d0-467c-97ca-108ebe63788e"},"vehicle_type_id":"4","last_reported":1773703276,"current_range_meters":7200,"station_id":"","pricing_plan_id":"cebpf4jnsgd1na2vs0mg"},{"bike_id":"22845ade-7123-47f8-9fbf-da53693666d9","system_id":"levelo_inurba_marseille","lat":43.28491,"lon":5.38422,"is_reserved":false,"is_disabled":false,"rental_uris":{"android":"levelo://app?vid=22845ade-7123-47f8-9fbf-da53693666d9","ios":"levelo://app?vid=22845ade-7123-47f8-9fbf-da53693666d9"},"vehicle_type_id":"4","last_reported":1773703276,"current_range_meters":7200,"station_id":"ce4bh512rcd13ifvqe3g","pricing_plan_id":"cebpf4jnsgd1na2vs0mg"},{"bike_id":"71a7dee1-095f-49bb-8fa0-e71145d45acb","system_id":"levelo_inurba_marseille","lat":43.30324,"lon":5.40424,"is_reserved":false,"is_disabled":false,"rental_uris":{"android":"levelo://app?vid=71a7dee1-095f-49bb-8fa0-e71145d45acb","ios":"levelo://app?vid=71a7dee1-095f-49bb-8fa0-e71145d45acb"},"vehicle_type_id":"4","last_reported":1773703276,"current_range_meters":7200,"station_id":"ce4bh012rcd13ifvqd10","pricing_plan_id":"cebpf4jnsgd1na2vs0mg"},{"bike_id":"09670bd3-4cc6-40d6-b9c7-c1422d1906d5","system_id":"levelo_inurba_marseille","lat":43.28504,"lon":5.38412,"is_reserved":false,"is_disabled":false,"rental_uris":{"android":"levelo://app?vid=09670bd3-4cc6-40d6-b9c7-c1422d1906d5","ios":"levelo://app?vid=09670bd3-4cc6-40d6-b9c7-c1422d1906d5"},"vehicle_type_id":"4","last_reported":1773703276,"current_range_meters":7200,"station_id":"ce4bh512rcd13ifvqe3g","pricing_plan_id":"cebpf4jnsgd1na2vs0mg"},{"bike_id":"4ca2074d-5be8-4f09-a2f9-0200664389f9","system_id":"levelo_inurba_marseille","lat":43.30741,"lon":5.42423,"is_reserved":false,"is_disabled":false,"rental_uris":{"android":"levelo://app?vid=4ca2074d-5be8-4f09-a2f9-0200664389f9","ios":"levelo://app?vid=4ca2074d-5be8-4f09-a2f9-0200664389f9"},"vehicle_type_id":"4","last_reported":1773703276,"current_range_meters":7200,"station_id":"st_cvj6ca6bvosntc0bfgr0","pricing_plan_id":"cebpf4jnsgd1na2vs0mg"},{"bike_id":"d114d824-e871-4708-87e4-8f178331015c","system_id":"levelo_inurba_marseille","lat":43.26558,"lon":5.39018,"is_reserved":false,"is_disabled":false,"rental_uris":{"android":"levelo://app?vid=d114d824-e871-4708-87e4-8f178331015c","ios":"levelo://app?vid=d114d824-e871-4708-87e4-8f178331015c"},"vehicle_type_id":"4","last_reported":1773703276,"current_range_meters":7200,"station_id":"ce4bhe12rcd13ifvqf30","pricing_plan_id":"cebpf4jnsgd1na2vs0mg"},{"bike_id":"feaf2e83-6bc7-46d3-b8dc-e52b9fc8cf3e","system_id":"levelo_inurba_marseille","lat":43.2256,"lon":5.4162,"is_reserved":false,"is_disabled":false,"rental_uris":{"android":"levelo://app?vid=feaf2e83-6bc7-46d3-b8dc-e52b9fc8cf3e","ios":"levelo://app?vid=feaf2e83-6bc7-46d3-b8dc-e52b9fc8cf3e"},"vehicle_type_id":"4","last_reported":1773703276,"current_range_meters":8000,"station_id":"st_d2o4gvlbi1j2169b742g","pricing_plan_id":"cebpf4jnsgd1na2vs0mg"},{"bike_id":"cf7e06e7-174f-44ce-bebf-7de04dbdbc0d","system_id":"levelo_inurba_marseille","lat":43.30318,"lon":5.36894,"is_reserved":false,"is_disabled":true,"rental_uris":{"android":"levelo://app?vid=cf7e06e7-174f-44ce-bebf-7de04dbdbc0d","ios":"levelo://app?vid=cf7e06e7-174f-44ce-bebf-7de04dbdbc0d"},"vehicle_type_id":"4","last_reported":1773703276,"current_range_meters":8000,"station_id":"ce4bgqh2rcd13ifvqc5g","pricing_plan_id":"cebpf4jnsgd1na2vs0mg"},{"bike_id":"55ad6576-3c79-4a6b-881b-323a7e8b70a1","system_id":"levelo_inurba_marseille","lat":43.25003,"lon":5.38931,"is_reserved":false,"is_disabled":false,"rental_uris":{"android":"levelo://app?vid=55ad6576-3c79-4a6b-881b-323a7e8b70a1","ios":"levelo://app?vid=55ad6576-3c79-4a6b-881b-323a7e8b70a1"},"vehicle_type_id":"4","last_reported":1773703276,"current_range_meters":8000,"station_id":"ce4bhgp2rcd13ifvqfd0","pricing_plan_id":"cebpf4jnsgd1na2vs0mg"},{"bike_id":"6bc5f594-410a-4343-81bf-8f97fb45a9b4","system_id":"levelo_inurba_marseille","lat":43.29626,"lon":5.3842,"is_reserved":false,"is_disabled":false,"rental_uris":{"android":"levelo://app?vid=6bc5f594-410a-4343-81bf-8f97fb45a9b4","ios":"levelo://app?vid=6bc5f594-410a-4343-81bf-8f97fb45a9b4"},"vehicle_type_id":"4","last_reported":1773703276,"current_range_meters":8000,"station_id":"","pricing_plan_id":"cebpf4jnsgd1na2vs0mg"},{"bike_id":"4c3d3553-54d0-46a3-acda-d420768e23c3","system_id":"levelo_inurba_marseille","lat":43.27374,"lon":5.3626,"is_reserved":false,"is_disabled":false,"rental_uris":{"android":"levelo://app?vid=4c3d3553-54d0-46a3-acda-d420768e23c3","ios":"levelo://app?vid=4c3d3553-54d0-46a3-acda-d420768e23c3"},"vehicle_type_id":"4","last_reported":1773703276,"current_range_meters":8000,"station_id":"ce4bhbh2rcd13ifvqeo0","pricing_plan_id":"cebpf4jnsgd1na2vs0mg"},{"bike_id":"69d2e5d2-aab9-4fc9-a42e-b520c7e8b4f1","system_id":"levelo_inurba_marseille","lat":43.23056,"lon":5.35497,"is_reserved":false,"is_disabled":false,"rental_uris":{"android":"levelo://app?vid=69d2e5d2-aab9-4fc9-a42e-b520c7e8b4f1","ios":"levelo://app?vid=69d2e5d2-aab9-4fc9-a42e-b520c7e8b4f1"},"vehicle_type_id":"4","last_reported":1773703276,"current_range_meters":8000,"station_id":"cpo3342slgdg3j2ifvpg","pricing_plan_id":"cebpf4jnsgd1na2vs0mg"},{"bike_id":"796ed888-5e80-4248-a7be-20570706635d","system_id":"levelo_inurba_marseille","lat":43.23793,"lon":5.3664,"is_reserved":false,"is_disabled":false,"rental_uris":{"android":"levelo://app?vid=796ed888-5e80-4248-a7be-20570706635d","ios":"levelo://app?vid=796ed888-5e80-4248-a7be-20570706635d"},"vehicle_type_id":"4","last_reported":1773703276,"current_range_meters":8000,"station_id":"st_d3nk18o9ro0c73en2l3g","pricing_plan_id":"cebpf4jnsgd1na2vs0mg"},{"bike_id":"4d249554-eaa2-4bab-b72e-eeba96c5647c","system_id":"levelo_inurba_marseille","lat":43.28686,"lon":5.38665,"is_reserved":false,"is_disabled":false,"rental_uris":{"android":"levelo://app?vid=4d249554-eaa2-4bab-b72e-eeba96c5647c","ios":"levelo://app?vid=4d249554-eaa2-4bab-b72e-eeba96c5647c"},"vehicle_type_id":"4","last_reported":1773703276,"current_range_meters":8000,"station_id":"ce4bh492rcd13ifvqdug","pricing_plan_id":"cebpf4jnsgd1na2vs0mg"},{"bike_id":"e2cb063b-d4c0-49ae-a9e6-3e54366b95e7","system_id":"levelo_inurba_marseille","lat":43.31185,"lon":5.38716,"is_reserved":false,"is_disabled":false,"rental_uris":{"android":"levelo://app?vid=e2cb063b-d4c0-49ae-a9e6-3e54366b95e7","ios":"levelo://app?vid=e2cb063b-d4c0-49ae-a9e6-3e54366b95e7"},"vehicle_type_id":"4","last_reported":1773703276,"current_range_meters":8000,"station_id":"ce4bgv12rcd13ifvqcp0","pricing_plan_id":"cebpf4jnsgd1na2vs0mg"},{"bike_id":"37968066-0b78-49a9-89f8-964d9774907e","system_id":"levelo_inurba_marseille","lat":43.26555,"lon":5.37279,"is_reserved":false,"is_disabled":false,"rental_uris":{"android":"levelo://app?vid=37968066-0b78-49a9-89f8-964d9774907e","ios":"levelo://app?vid=37968066-0b78-49a9-89f8-964d9774907e"},"vehicle_type_id":"4","last_reported":1773703276,"current_range_meters":8000,"station_id":"ce4bhg12rcd13ifvqf70","pricing_plan_id":"cebpf4jnsgd1na2vs0mg"},{"bike_id":"7e4878ae-c376-48c8-ad77-0c9152653552","system_id":"levelo_inurba_marseille","lat":43.27509,"lon":5.41585,"is_reserved":false,"is_disabled":false,"rental_uris":{"android":"levelo://app?vid=7e4878ae-c376-48c8-ad77-0c9152653552","ios":"levelo://app?vid=7e4878ae-c376-48c8-ad77-0c9152653552"},"vehicle_type_id":"4","last_reported":1773703276,"current_range_meters":8000,"station_id":"st_d6im8g6chgec73a5pndg","pricing_plan_id":"cebpf4jnsgd1na2vs0mg"},{"bike_id":"de42a507-3e11-4890-843b-f2e70371efaa","system_id":"levelo_inurba_marseille","lat":43.29194,"lon":5.3934,"is_reserved":false,"is_disabled":false,"rental_uris":{"android":"levelo://app?vid=de42a507-3e11-4890-843b-f2e70371efaa","ios":"levelo://app?vid=de42a507-3e11-4890-843b-f2e70371efaa"},"vehicle_type_id":"4","last_reported":1773703276,"current_range_meters":8000,"station_id":"ce4bh192rcd13ifvqdd0","pricing_plan_id":"cebpf4jnsgd1na2vs0mg"},{"bike_id":"e7729074-2a00-415f-9930-82488baee2d4","system_id":"levelo_inurba_marseille","lat":43.30745,"lon":5.44016,"is_reserved":false,"is_disabled":false,"rental_uris":{"android":"levelo://app?vid=e7729074-2a00-415f-9930-82488baee2d4","ios":"levelo://app?vid=e7729074-2a00-415f-9930-82488baee2d4"},"vehicle_type_id":"4","last_reported":1773703276,"current_range_meters":8000,"station_id":"","pricing_plan_id":"cebpf4jnsgd1na2vs0mg"},{"bike_id":"1a9fc9d5-bae5-4261-a897-bce269a6d0cd","system_id":"levelo_inurba_marseille","lat":43.28409,"lon":5.37508,"is_reserved":false,"is_disabled":false,"rental_uris":{"android":"levelo://app?vid=1a9fc9d5-bae5-4261-a897-bce269a6d0cd","ios":"levelo://app?vid=1a9fc9d5-bae5-4261-a897-bce269a6d0cd"},"vehicle_type_id":"4","last_reported":1773703276,"current_range_meters":8000,"station_id":"ce4bh412rcd13ifvqds0","pricing_plan_id":"cebpf4jnsgd1na2vs0mg"},{"bike_id":"b3f9d14b-bef5-4d03-bd67-be3b0a71369f","system_id":"levelo_inurba_marseille","lat":43.28156,"lon":5.42644,"is_reserved":false,"is_disabled":false,"rental_uris":{"android":"levelo://app?vid=b3f9d14b-bef5-4d03-bd67-be3b0a71369f","ios":"levelo://app?vid=b3f9d14b-bef5-4d03-bd67-be3b0a71369f"},"vehicle_type_id":"4","last_reported":1773703276,"current_range_meters":8000,"station_id":"ce4bhnh2rcd13ifvqgug","pricing_plan_id":"cebpf4jnsgd1na2vs0mg"},{"bike_id":"36e7825d-18ee-4545-bd56-42f076240256","system_id":"levelo_inurba_marseille","lat":43.29453,"lon":5.39754,"is_reserved":false,"is_disabled":false,"rental_uris":{"android":"levelo://app?vid=36e7825d-18ee-4545-bd56-42f076240256","ios":"levelo://app?vid=36e7825d-18ee-4545-bd56-42f076240256"},"vehicle_type_id":"4","last_reported":1773703276,"current_range_meters":8000,"station_id":"ce4bh3h2rcd13ifvqdo0","pricing_plan_id":"cebpf4jnsgd1na2vs0mg"},{"bike_id":"8f31d5b9-6e05-407e-b4ff-967a781ffb57","system_id":"levelo_inurba_marseille","lat":43.25721,"lon":5.4111,"is_reserved":false,"is_disabled":false,"rental_uris":{"android":"levelo://app?vid=8f31d5b9-6e05-407e-b4ff-967a781ffb57","ios":"levelo://app?vid=8f31d5b9-6e05-407e-b4ff-967a781ffb57"},"vehicle_type_id":"4","last_reported":1773703276,"current_range_meters":8000,"station_id":"ce4bhkp2rcd13ifvqgd0","pricing_plan_id":"cebpf4jnsgd1na2vs0mg"},{"bike_id":"14370fd8-633a-42b1-bb6d-842188cff19e","system_id":"levelo_inurba_marseille","lat":43.30884,"lon":5.39638,"is_reserved":false,"is_disabled":false,"rental_uris":{"android":"levelo://app?vid=14370fd8-633a-42b1-bb6d-842188cff19e","ios":"levelo://app?vid=14370fd8-633a-42b1-bb6d-842188cff19e"},"vehicle_type_id":"4","last_reported":1773703276,"current_range_meters":8000,"station_id":"ce4bh012rcd13ifvqcv0","pricing_plan_id":"cebpf4jnsgd1na2vs0mg"},{"bike_id":"f1e7a618-a119-4155-a3d6-184a729bf431","system_id":"levelo_inurba_marseille","lat":43.29931,"lon":5.3718,"is_reserved":false,"is_disabled":false,"rental_uris":{"android":"levelo://app?vid=f1e7a618-a119-4155-a3d6-184a729bf431","ios":"levelo://app?vid=f1e7a618-a119-4155-a3d6-184a729bf431"},"vehicle_type_id":"4","last_reported":1773703276,"current_range_meters":8000,"station_id":"ce4bgr92rcd13ifvqc7g","pricing_plan_id":"cebpf4jnsgd1na2vs0mg"},{"bike_id":"88858f89-fe21-45f8-acbb-9ce67472ddb3","system_id":"levelo_inurba_marseille","lat":43.22929,"lon":5.35379,"is_reserved":false,"is_disabled":false,"rental_uris":{"android":"levelo://app?vid=88858f89-fe21-45f8-acbb-9ce67472ddb3","ios":"levelo://app?vid=88858f89-fe21-45f8-acbb-9ce67472ddb3"},"vehicle_type_id":"4","last_reported":1773703276,"current_range_meters":8000,"station_id":"cpo3532slgdg3j2ikp40","pricing_plan_id":"cebpf4jnsgd1na2vs0mg"},{"bike_id":"18d4da97-4d1e-4ec3-a9b0-1cc877f1b1a6","system_id":"levelo_inurba_marseille","lat":43.28427,"lon":5.37514,"is_reserved":false,"is_disabled":false,"rental_uris":{"android":"levelo://app?vid=18d4da97-4d1e-4ec3-a9b0-1cc877f1b1a6","ios":"levelo://app?vid=18d4da97-4d1e-4ec3-a9b0-1cc877f1b1a6"},"vehicle_type_id":"4","last_reported":1773703276,"current_range_meters":8000,"station_id":"ce4bh412rcd13ifvqds0","pricing_plan_id":"cebpf4jnsgd1na2vs0mg"},{"bike_id":"b3e3399c-3837-42b8-afac-39674642005e","system_id":"levelo_inurba_marseille","lat":43.29766,"lon":5.42762,"is_reserved":false,"is_disabled":false,"rental_uris":{"android":"levelo://app?vid=b3e3399c-3837-42b8-afac-39674642005e","ios":"levelo://app?vid=b3e3399c-3837-42b8-afac-39674642005e"},"vehicle_type_id":"4","last_reported":1773703276,"current_range_meters":8000,"station_id":"st_d3md5207bmas73dh9klg","pricing_plan_id":"cebpf4jnsgd1na2vs0mg"},{"bike_id":"e4b515b3-5a64-4f24-8a63-3407e3500a15","system_id":"levelo_inurba_marseille","lat":43.2432,"lon":5.40262,"is_reserved":false,"is_disabled":false,"rental_uris":{"android":"levelo://app?vid=e4b515b3-5a64-4f24-8a63-3407e3500a15","ios":"levelo://app?vid=e4b515b3-5a64-4f24-8a63-3407e3500a15"},"vehicle_type_id":"4","last_reported":1773703276,"current_range_meters":8000,"station_id":"","pricing_plan_id":"cebpf4jnsgd1na2vs0mg"},{"bike_id":"c8c55895-5b3d-43f1-bd84-6ea50a633d30","system_id":"levelo_inurba_marseille","lat":43.31178,"lon":5.38724,"is_reserved":false,"is_disabled":false,"rental_uris":{"android":"levelo://app?vid=c8c55895-5b3d-43f1-bd84-6ea50a633d30","ios":"levelo://app?vid=c8c55895-5b3d-43f1-bd84-6ea50a633d30"},"vehicle_type_id":"4","last_reported":1773703276,"current_range_meters":8000,"station_id":"ce4bgv12rcd13ifvqcp0","pricing_plan_id":"cebpf4jnsgd1na2vs0mg"},{"bike_id":"ff9203fd-0bb1-4884-b41f-8581d5e023b1","system_id":"levelo_inurba_marseille","lat":43.2864,"lon":5.3635,"is_reserved":false,"is_disabled":false,"rental_uris":{"android":"levelo://app?vid=ff9203fd-0bb1-4884-b41f-8581d5e023b1","ios":"levelo://app?vid=ff9203fd-0bb1-4884-b41f-8581d5e023b1"},"vehicle_type_id":"4","last_reported":1773703276,"current_range_meters":8000,"station_id":"ce4bhah2rcd13ifvqej0","pricing_plan_id":"cebpf4jnsgd1na2vs0mg"},{"bike_id":"8489365d-5feb-4109-a0cf-3015c0ef09d7","system_id":"levelo_inurba_marseille","lat":43.30153,"lon":5.43728,"is_reserved":false,"is_disabled":false,"rental_uris":{"android":"levelo://app?vid=8489365d-5feb-4109-a0cf-3015c0ef09d7","ios":"levelo://app?vid=8489365d-5feb-4109-a0cf-3015c0ef09d7"},"vehicle_type_id":"4","last_reported":1773703276,"current_range_meters":8000,"station_id":"","pricing_plan_id":"cebpf4jnsgd1na2vs0mg"},{"bike_id":"44eb75d5-b1f6-4346-97b5-c95c65600eac","system_id":"levelo_inurba_marseille","lat":43.296796,"lon":5.372939,"is_reserved":false,"is_disabled":false,"rental_uris":{"android":"levelo://app?vid=44eb75d5-b1f6-4346-97b5-c95c65600eac","ios":"levelo://app?vid=44eb75d5-b1f6-4346-97b5-c95c65600eac"},"vehicle_type_id":"4","last_reported":1773703276,"current_range_meters":8000,"station_id":"ce4bgk12rcd13ifvqbj0","pricing_plan_id":"cebpf4jnsgd1na2vs0mg"},{"bike_id":"fcbfb760-5a9b-4a42-ba9a-31ce9e93dbce","system_id":"levelo_inurba_marseille","lat":43.29716,"lon":5.38763,"is_reserved":false,"is_disabled":false,"rental_uris":{"android":"levelo://app?vid=fcbfb760-5a9b-4a42-ba9a-31ce9e93dbce","ios":"levelo://app?vid=fcbfb760-5a9b-4a42-ba9a-31ce9e93dbce"},"vehicle_type_id":"4","last_reported":1773703276,"current_range_meters":8000,"station_id":"","pricing_plan_id":"cebpf4jnsgd1na2vs0mg"},{"bike_id":"99b3399f-a7f1-46ba-9d8d-17a6644bc2b4","system_id":"levelo_inurba_marseille","lat":43.21731,"lon":5.34609,"is_reserved":false,"is_disabled":false,"rental_uris":{"android":"levelo://app?vid=99b3399f-a7f1-46ba-9d8d-17a6644bc2b4","ios":"levelo://app?vid=99b3399f-a7f1-46ba-9d8d-17a6644bc2b4"},"vehicle_type_id":"4","last_reported":1773703276,"current_range_meters":8000,"station_id":"st_cvj6r9ubvosntc0bgbag","pricing_plan_id":"cebpf4jnsgd1na2vs0mg"},{"bike_id":"03812eec-b185-465c-8c48-7984e651c3d0","system_id":"levelo_inurba_marseille","lat":43.33029,"lon":5.3906,"is_reserved":false,"is_disabled":false,"rental_uris":{"android":"levelo://app?vid=03812eec-b185-465c-8c48-7984e651c3d0","ios":"levelo://app?vid=03812eec-b185-465c-8c48-7984e651c3d0"},"vehicle_type_id":"4","last_reported":1773703276,"current_range_meters":8400,"station_id":"ce4bhr92rcd13ifvqhrg","pricing_plan_id":"cebpf4jnsgd1na2vs0mg"},{"bike_id":"57f59ea7-9661-484b-ab62-8930e39b76a3","system_id":"levelo_inurba_marseille","lat":43.23798,"lon":5.36639,"is_reserved":false,"is_disabled":false,"rental_uris":{"android":"levelo://app?vid=57f59ea7-9661-484b-ab62-8930e39b76a3","ios":"levelo://app?vid=57f59ea7-9661-484b-ab62-8930e39b76a3"},"vehicle_type_id":"4","last_reported":1773703276,"current_range_meters":8400,"station_id":"st_d3nk18o9ro0c73en2l3g","pricing_plan_id":"cebpf4jnsgd1na2vs0mg"},{"bike_id":"c0ddb57f-e5f5-4ce0-b6c4-75fd2010b9ba","system_id":"levelo_inurba_marseille","lat":43.27431,"lon":5.41595,"is_reserved":false,"is_disabled":false,"rental_uris":{"android":"levelo://app?vid=c0ddb57f-e5f5-4ce0-b6c4-75fd2010b9ba","ios":"levelo://app?vid=c0ddb57f-e5f5-4ce0-b6c4-75fd2010b9ba"},"vehicle_type_id":"4","last_reported":1773703276,"current_range_meters":8400,"station_id":"st_d6im8g6chgec73a5pndg","pricing_plan_id":"cebpf4jnsgd1na2vs0mg"},{"bike_id":"ea67d905-c4ed-45bd-8dcf-e898f8bb576f","system_id":"levelo_inurba_marseille","lat":43.27831,"lon":5.40685,"is_reserved":false,"is_disabled":false,"rental_uris":{"android":"levelo://app?vid=ea67d905-c4ed-45bd-8dcf-e898f8bb576f","ios":"levelo://app?vid=ea67d905-c4ed-45bd-8dcf-e898f8bb576f"},"vehicle_type_id":"4","last_reported":1773703276,"current_range_meters":8400,"station_id":"ce4bhnh2rcd13ifvqgtg","pricing_plan_id":"cebpf4jnsgd1na2vs0mg"},{"bike_id":"8cb2a7a3-90e1-4b31-8c3b-89053d13e1d9","system_id":"levelo_inurba_marseille","lat":43.23212,"lon":5.35531,"is_reserved":false,"is_disabled":false,"rental_uris":{"android":"levelo://app?vid=8cb2a7a3-90e1-4b31-8c3b-89053d13e1d9","ios":"levelo://app?vid=8cb2a7a3-90e1-4b31-8c3b-89053d13e1d9"},"vehicle_type_id":"4","last_reported":1773703276,"current_range_meters":8400,"station_id":"ce4bhu92rcd13ifvqi70","pricing_plan_id":"cebpf4jnsgd1na2vs0mg"},{"bike_id":"6f83eb31-b48e-41cc-86f8-dc0cead3d767","system_id":"levelo_inurba_marseille","lat":43.21201,"lon":5.35074,"is_reserved":false,"is_disabled":false,"rental_uris":{"android":"levelo://app?vid=6f83eb31-b48e-41cc-86f8-dc0cead3d767","ios":"levelo://app?vid=6f83eb31-b48e-41cc-86f8-dc0cead3d767"},"vehicle_type_id":"4","last_reported":1773703276,"current_range_meters":8400,"station_id":"st_cvj6sg6p6f1abm77japg","pricing_plan_id":"cebpf4jnsgd1na2vs0mg"},{"bike_id":"3dad20a7-e396-4101-adc6-30f4c7f64d56","system_id":"levelo_inurba_marseille","lat":43.24986,"lon":5.3893,"is_reserved":false,"is_disabled":false,"rental_uris":{"android":"levelo://app?vid=3dad20a7-e396-4101-adc6-30f4c7f64d56","ios":"levelo://app?vid=3dad20a7-e396-4101-adc6-30f4c7f64d56"},"vehicle_type_id":"4","last_reported":1773703276,"current_range_meters":8400,"station_id":"ce4bhgp2rcd13ifvqfd0","pricing_plan_id":"cebpf4jnsgd1na2vs0mg"},{"bike_id":"9cb07ab3-75f5-4b10-84f8-b86a241dd760","system_id":"levelo_inurba_marseille","lat":43.24961,"lon":5.40478,"is_reserved":false,"is_disabled":false,"rental_uris":{"android":"levelo://app?vid=9cb07ab3-75f5-4b10-84f8-b86a241dd760","ios":"levelo://app?vid=9cb07ab3-75f5-4b10-84f8-b86a241dd760"},"vehicle_type_id":"4","last_reported":1773703276,"current_range_meters":8400,"station_id":"st_d2ngiaodas8pm72gd1h0","pricing_plan_id":"cebpf4jnsgd1na2vs0mg"},{"bike_id":"f986afd9-309a-4656-a5b6-91519d19ac02","system_id":"levelo_inurba_marseille","lat":43.31109,"lon":5.37781,"is_reserved":false,"is_disabled":false,"rental_uris":{"android":"levelo://app?vid=f986afd9-309a-4656-a5b6-91519d19ac02","ios":"levelo://app?vid=f986afd9-309a-4656-a5b6-91519d19ac02"},"vehicle_type_id":"4","last_reported":1773703276,"current_range_meters":8400,"station_id":"ce4bgt92rcd13ifvqcg0","pricing_plan_id":"cebpf4jnsgd1na2vs0mg"},{"bike_id":"8c1e3212-5ed6-4e22-9fbb-40647a958991","system_id":"levelo_inurba_marseille","lat":43.29282,"lon":5.40131,"is_reserved":false,"is_disabled":false,"rental_uris":{"android":"levelo://app?vid=8c1e3212-5ed6-4e22-9fbb-40647a958991","ios":"levelo://app?vid=8c1e3212-5ed6-4e22-9fbb-40647a958991"},"vehicle_type_id":"4","last_reported":1773703276,"current_range_meters":8400,"station_id":"ce4bh312rcd13ifvqdk0","pricing_plan_id":"cebpf4jnsgd1na2vs0mg"},{"bike_id":"44abcca0-01f1-457d-9700-f4ae6bcdaacd","system_id":"levelo_inurba_marseille","lat":43.30949,"lon":5.39023,"is_reserved":false,"is_disabled":true,"rental_uris":{"android":"levelo://app?vid=44abcca0-01f1-457d-9700-f4ae6bcdaacd","ios":"levelo://app?vid=44abcca0-01f1-457d-9700-f4ae6bcdaacd"},"vehicle_type_id":"4","last_reported":1773703276,"current_range_meters":8400,"station_id":"ce4bgup2rcd13ifvqco0","pricing_plan_id":"cebpf4jnsgd1na2vs0mg"},{"bike_id":"9f3de8e4-6de7-43bb-aaaa-2dc06225ca4a","system_id":"levelo_inurba_marseille","lat":43.25586,"lon":5.38233,"is_reserved":false,"is_disabled":false,"rental_uris":{"android":"levelo://app?vid=9f3de8e4-6de7-43bb-aaaa-2dc06225ca4a","ios":"levelo://app?vid=9f3de8e4-6de7-43bb-aaaa-2dc06225ca4a"},"vehicle_type_id":"4","last_reported":1773703276,"current_range_meters":8400,"station_id":"ce4bhih2rcd13ifvqfs0","pricing_plan_id":"cebpf4jnsgd1na2vs0mg"},{"bike_id":"75056a4b-7dce-4842-b5f6-e3da4f22a752","system_id":"levelo_inurba_marseille","lat":43.21748,"lon":5.34593,"is_reserved":false,"is_disabled":false,"rental_uris":{"android":"levelo://app?vid=75056a4b-7dce-4842-b5f6-e3da4f22a752","ios":"levelo://app?vid=75056a4b-7dce-4842-b5f6-e3da4f22a752"},"vehicle_type_id":"4","last_reported":1773703276,"current_range_meters":8400,"station_id":"st_cvj6r9ubvosntc0bgbag","pricing_plan_id":"cebpf4jnsgd1na2vs0mg"},{"bike_id":"faa8d18a-3767-4f17-b9c5-3e2ab989e6d0","system_id":"levelo_inurba_marseille","lat":43.25095,"lon":5.39519,"is_reserved":false,"is_disabled":false,"rental_uris":{"android":"levelo://app?vid=faa8d18a-3767-4f17-b9c5-3e2ab989e6d0","ios":"levelo://app?vid=faa8d18a-3767-4f17-b9c5-3e2ab989e6d0"},"vehicle_type_id":"4","last_reported":1773703276,"current_range_meters":8400,"station_id":"ce4bhm12rcd13ifvqgkg","pricing_plan_id":"cebpf4jnsgd1na2vs0mg"},{"bike_id":"1f50381c-781e-49e6-9665-ffc0ed64e369","system_id":"levelo_inurba_marseille","lat":43.30371,"lon":5.39762,"is_reserved":false,"is_disabled":false,"rental_uris":{"android":"levelo://app?vid=1f50381c-781e-49e6-9665-ffc0ed64e369","ios":"levelo://app?vid=1f50381c-781e-49e6-9665-ffc0ed64e369"},"vehicle_type_id":"4","last_reported":1773703276,"current_range_meters":8400,"station_id":"","pricing_plan_id":"cebpf4jnsgd1na2vs0mg"},{"bike_id":"4edc1e69-f919-4c2f-a6b8-66257e87a54f","system_id":"levelo_inurba_marseille","lat":43.28477,"lon":5.48397,"is_reserved":false,"is_disabled":false,"rental_uris":{"android":"levelo://app?vid=4edc1e69-f919-4c2f-a6b8-66257e87a54f","ios":"levelo://app?vid=4edc1e69-f919-4c2f-a6b8-66257e87a54f"},"vehicle_type_id":"4","last_reported":1773703276,"current_range_meters":8400,"station_id":"","pricing_plan_id":"cebpf4jnsgd1na2vs0mg"},{"bike_id":"41b7b418-9b4f-4bf0-a387-6295ab4a59a6","system_id":"levelo_inurba_marseille","lat":43.25827,"lon":5.39425,"is_reserved":false,"is_disabled":false,"rental_uris":{"android":"levelo://app?vid=41b7b418-9b4f-4bf0-a387-6295ab4a59a6","ios":"levelo://app?vid=41b7b418-9b4f-4bf0-a387-6295ab4a59a6"},"vehicle_type_id":"4","last_reported":1773703276,"current_range_meters":8400,"station_id":"ce4bhip2rcd13ifvqft0","pricing_plan_id":"cebpf4jnsgd1na2vs0mg"},{"bike_id":"7d5b3664-02ce-4451-b3f2-afda1ab3ce3d","system_id":"levelo_inurba_marseille","lat":43.33566,"lon":5.3746,"is_reserved":false,"is_disabled":false,"rental_uris":{"android":"levelo://app?vid=7d5b3664-02ce-4451-b3f2-afda1ab3ce3d","ios":"levelo://app?vid=7d5b3664-02ce-4451-b3f2-afda1ab3ce3d"},"vehicle_type_id":"4","last_reported":1773703276,"current_range_meters":8400,"station_id":"st_d46tts09ee8s73dlu43g","pricing_plan_id":"cebpf4jnsgd1na2vs0mg"},{"bike_id":"5b8e3c8e-3836-445f-9c32-1c29d67af9cc","system_id":"levelo_inurba_marseille","lat":43.29036,"lon":5.39975,"is_reserved":false,"is_disabled":false,"rental_uris":{"android":"levelo://app?vid=5b8e3c8e-3836-445f-9c32-1c29d67af9cc","ios":"levelo://app?vid=5b8e3c8e-3836-445f-9c32-1c29d67af9cc"},"vehicle_type_id":"4","last_reported":1773703276,"current_range_meters":8400,"station_id":"ce4bh392rcd13ifvqdm0","pricing_plan_id":"cebpf4jnsgd1na2vs0mg"},{"bike_id":"70fdc065-93d6-4dd2-977b-71ec2a296371","system_id":"levelo_inurba_marseille","lat":43.21748,"lon":5.34597,"is_reserved":false,"is_disabled":false,"rental_uris":{"android":"levelo://app?vid=70fdc065-93d6-4dd2-977b-71ec2a296371","ios":"levelo://app?vid=70fdc065-93d6-4dd2-977b-71ec2a296371"},"vehicle_type_id":"4","last_reported":1773703276,"current_range_meters":8800,"station_id":"st_cvj6r9ubvosntc0bgbag","pricing_plan_id":"cebpf4jnsgd1na2vs0mg"},{"bike_id":"5a3cd94f-5376-459f-8f50-1ad36fc9a2e4","system_id":"levelo_inurba_marseille","lat":43.33023,"lon":5.41237,"is_reserved":false,"is_disabled":false,"rental_uris":{"android":"levelo://app?vid=5a3cd94f-5376-459f-8f50-1ad36fc9a2e4","ios":"levelo://app?vid=5a3cd94f-5376-459f-8f50-1ad36fc9a2e4"},"vehicle_type_id":"4","last_reported":1773703276,"current_range_meters":8800,"station_id":"","pricing_plan_id":"cebpf4jnsgd1na2vs0mg"},{"bike_id":"86f3c3e6-1877-45e4-95fe-47aa36990f39","system_id":"levelo_inurba_marseille","lat":43.31057,"lon":5.37183,"is_reserved":false,"is_disabled":false,"rental_uris":{"android":"levelo://app?vid=86f3c3e6-1877-45e4-95fe-47aa36990f39","ios":"levelo://app?vid=86f3c3e6-1877-45e4-95fe-47aa36990f39"},"vehicle_type_id":"4","last_reported":1773703276,"current_range_meters":8800,"station_id":"st_d4kl2rp97mjs73e7tdfg","pricing_plan_id":"cebpf4jnsgd1na2vs0mg"},{"bike_id":"41fe94d0-8507-497a-b68d-9853b68cb678","system_id":"levelo_inurba_marseille","lat":43.30318,"lon":5.39223,"is_reserved":false,"is_disabled":false,"rental_uris":{"android":"levelo://app?vid=41fe94d0-8507-497a-b68d-9853b68cb678","ios":"levelo://app?vid=41fe94d0-8507-497a-b68d-9853b68cb678"},"vehicle_type_id":"4","last_reported":1773703276,"current_range_meters":8800,"station_id":"ce4bgkh2rcd13ifvqbk0","pricing_plan_id":"cebpf4jnsgd1na2vs0mg"},{"bike_id":"ff99e1dc-9a58-421d-aabd-15e44ad6f286","system_id":"levelo_inurba_marseille","lat":43.30903,"lon":5.37208,"is_reserved":false,"is_disabled":false,"rental_uris":{"android":"levelo://app?vid=ff99e1dc-9a58-421d-aabd-15e44ad6f286","ios":"levelo://app?vid=ff99e1dc-9a58-421d-aabd-15e44ad6f286"},"vehicle_type_id":"4","last_reported":1773703276,"current_range_meters":8800,"station_id":"ce4bguh2rcd13ifvqckg","pricing_plan_id":"cebpf4jnsgd1na2vs0mg"},{"bike_id":"672fa0ba-3d99-41b0-afd6-530e5de380de","system_id":"levelo_inurba_marseille","lat":43.29738,"lon":5.38742,"is_reserved":false,"is_disabled":false,"rental_uris":{"android":"levelo://app?vid=672fa0ba-3d99-41b0-afd6-530e5de380de","ios":"levelo://app?vid=672fa0ba-3d99-41b0-afd6-530e5de380de"},"vehicle_type_id":"4","last_reported":1773703276,"current_range_meters":8800,"station_id":"","pricing_plan_id":"cebpf4jnsgd1na2vs0mg"},{"bike_id":"b21e3be4-c7ed-41ef-8b12-6d82d73722e2","system_id":"levelo_inurba_marseille","lat":43.24814,"lon":5.37456,"is_reserved":false,"is_disabled":false,"rental_uris":{"android":"levelo://app?vid=b21e3be4-c7ed-41ef-8b12-6d82d73722e2","ios":"levelo://app?vid=b21e3be4-c7ed-41ef-8b12-6d82d73722e2"},"vehicle_type_id":"4","last_reported":1773703276,"current_range_meters":8800,"station_id":"ce4bhgh2rcd13ifvqfb0","pricing_plan_id":"cebpf4jnsgd1na2vs0mg"},{"bike_id":"f0d67aa5-6ce8-4985-ba9c-9a7791af2155","system_id":"levelo_inurba_marseille","lat":43.29523,"lon":5.394,"is_reserved":false,"is_disabled":false,"rental_uris":{"android":"levelo://app?vid=f0d67aa5-6ce8-4985-ba9c-9a7791af2155","ios":"levelo://app?vid=f0d67aa5-6ce8-4985-ba9c-9a7791af2155"},"vehicle_type_id":"4","last_reported":1773703276,"current_range_meters":8800,"station_id":"ce4bh292rcd13ifvqdf0","pricing_plan_id":"cebpf4jnsgd1na2vs0mg"},{"bike_id":"225b849b-451b-440d-a48c-4a485e0a2d92","system_id":"levelo_inurba_marseille","lat":43.2588,"lon":5.39923,"is_reserved":false,"is_disabled":false,"rental_uris":{"android":"levelo://app?vid=225b849b-451b-440d-a48c-4a485e0a2d92","ios":"levelo://app?vid=225b849b-451b-440d-a48c-4a485e0a2d92"},"vehicle_type_id":"4","last_reported":1773703276,"current_range_meters":8800,"station_id":"ce4bhl92rcd13ifvqghg","pricing_plan_id":"cebpf4jnsgd1na2vs0mg"},{"bike_id":"dd60e221-7b57-45b0-9f67-03f2a66d7ded","system_id":"levelo_inurba_marseille","lat":43.28209,"lon":5.39052,"is_reserved":false,"is_disabled":false,"rental_uris":{"android":"levelo://app?vid=dd60e221-7b57-45b0-9f67-03f2a66d7ded","ios":"levelo://app?vid=dd60e221-7b57-45b0-9f67-03f2a66d7ded"},"vehicle_type_id":"4","last_reported":1773703276,"current_range_meters":8800,"station_id":"ce4bhn92rcd13ifvqgsg","pricing_plan_id":"cebpf4jnsgd1na2vs0mg"},{"bike_id":"911d7ff4-1fcf-4b2e-8856-4e6ebf6eb40f","system_id":"levelo_inurba_marseille","lat":43.25587,"lon":5.38241,"is_reserved":false,"is_disabled":false,"rental_uris":{"android":"levelo://app?vid=911d7ff4-1fcf-4b2e-8856-4e6ebf6eb40f","ios":"levelo://app?vid=911d7ff4-1fcf-4b2e-8856-4e6ebf6eb40f"},"vehicle_type_id":"4","last_reported":1773703276,"current_range_meters":8800,"station_id":"ce4bhih2rcd13ifvqfs0","pricing_plan_id":"cebpf4jnsgd1na2vs0mg"},{"bike_id":"3f9c975b-8975-4d5a-be79-6dc5c3c296b5","system_id":"levelo_inurba_marseille","lat":43.28949,"lon":5.36398,"is_reserved":false,"is_disabled":false,"rental_uris":{"android":"levelo://app?vid=3f9c975b-8975-4d5a-be79-6dc5c3c296b5","ios":"levelo://app?vid=3f9c975b-8975-4d5a-be79-6dc5c3c296b5"},"vehicle_type_id":"4","last_reported":1773703276,"current_range_meters":8800,"station_id":"ce4bhc92rcd13ifvqetg","pricing_plan_id":"cebpf4jnsgd1na2vs0mg"},{"bike_id":"a1cbdf85-43b7-4cdc-b096-1df550b7ce74","system_id":"levelo_inurba_marseille","lat":43.29579,"lon":5.39945,"is_reserved":false,"is_disabled":false,"rental_uris":{"android":"levelo://app?vid=a1cbdf85-43b7-4cdc-b096-1df550b7ce74","ios":"levelo://app?vid=a1cbdf85-43b7-4cdc-b096-1df550b7ce74"},"vehicle_type_id":"4","last_reported":1773703276,"current_range_meters":8800,"station_id":"ce4bh312rcd13ifvqdj0","pricing_plan_id":"cebpf4jnsgd1na2vs0mg"},{"bike_id":"9b44eabc-9473-4aeb-8589-934e8f4a2c0e","system_id":"levelo_inurba_marseille","lat":43.22936,"lon":5.3538,"is_reserved":false,"is_disabled":false,"rental_uris":{"android":"levelo://app?vid=9b44eabc-9473-4aeb-8589-934e8f4a2c0e","ios":"levelo://app?vid=9b44eabc-9473-4aeb-8589-934e8f4a2c0e"},"vehicle_type_id":"4","last_reported":1773703276,"current_range_meters":8800,"station_id":"cpo3532slgdg3j2ikp40","pricing_plan_id":"cebpf4jnsgd1na2vs0mg"},{"bike_id":"5a6b09ca-106f-44d2-9055-b06f0e268d47","system_id":"levelo_inurba_marseille","lat":43.30317,"lon":5.40443,"is_reserved":false,"is_disabled":false,"rental_uris":{"android":"levelo://app?vid=5a6b09ca-106f-44d2-9055-b06f0e268d47","ios":"levelo://app?vid=5a6b09ca-106f-44d2-9055-b06f0e268d47"},"vehicle_type_id":"4","last_reported":1773703276,"current_range_meters":8800,"station_id":"ce4bh012rcd13ifvqd10","pricing_plan_id":"cebpf4jnsgd1na2vs0mg"},{"bike_id":"a650f10d-9ab2-42e1-a1ec-b23d66310508","system_id":"levelo_inurba_marseille","lat":43.27355,"lon":5.42398,"is_reserved":false,"is_disabled":true,"rental_uris":{"android":"levelo://app?vid=a650f10d-9ab2-42e1-a1ec-b23d66310508","ios":"levelo://app?vid=a650f10d-9ab2-42e1-a1ec-b23d66310508"},"vehicle_type_id":"4","last_reported":1773703276,"current_range_meters":8800,"station_id":"","pricing_plan_id":"cebpf4jnsgd1na2vs0mg"},{"bike_id":"c6bad372-41ad-42c1-be12-31c25e37b1de","system_id":"levelo_inurba_marseille","lat":43.30159,"lon":5.38094,"is_reserved":false,"is_disabled":true,"rental_uris":{"android":"levelo://app?vid=c6bad372-41ad-42c1-be12-31c25e37b1de","ios":"levelo://app?vid=c6bad372-41ad-42c1-be12-31c25e37b1de"},"vehicle_type_id":"4","last_reported":1773703276,"current_range_meters":8800,"station_id":"ce4bgjp2rcd13ifvqbh0","pricing_plan_id":"cebpf4jnsgd1na2vs0mg"},{"bike_id":"fab30b79-abc3-4296-b3f2-e9dd866ff19d","system_id":"levelo_inurba_marseille","lat":43.28414,"lon":5.37511,"is_reserved":false,"is_disabled":false,"rental_uris":{"android":"levelo://app?vid=fab30b79-abc3-4296-b3f2-e9dd866ff19d","ios":"levelo://app?vid=fab30b79-abc3-4296-b3f2-e9dd866ff19d"},"vehicle_type_id":"4","last_reported":1773703276,"current_range_meters":8800,"station_id":"ce4bh412rcd13ifvqds0","pricing_plan_id":"cebpf4jnsgd1na2vs0mg"},{"bike_id":"99ba46b4-4c6f-44d5-9c27-ad82efd84c9b","system_id":"levelo_inurba_marseille","lat":43.21194,"lon":5.35065,"is_reserved":false,"is_disabled":false,"rental_uris":{"android":"levelo://app?vid=99ba46b4-4c6f-44d5-9c27-ad82efd84c9b","ios":"levelo://app?vid=99ba46b4-4c6f-44d5-9c27-ad82efd84c9b"},"vehicle_type_id":"4","last_reported":1773703276,"current_range_meters":8800,"station_id":"st_cvj6sg6p6f1abm77japg","pricing_plan_id":"cebpf4jnsgd1na2vs0mg"},{"bike_id":"9812183f-695a-4186-b0bd-d2ed9e64fd57","system_id":"levelo_inurba_marseille","lat":43.29238,"lon":5.40904,"is_reserved":false,"is_disabled":false,"rental_uris":{"android":"levelo://app?vid=9812183f-695a-4186-b0bd-d2ed9e64fd57","ios":"levelo://app?vid=9812183f-695a-4186-b0bd-d2ed9e64fd57"},"vehicle_type_id":"4","last_reported":1773703276,"current_range_meters":8800,"station_id":"ce4bh192rcd13ifvqdc0","pricing_plan_id":"cebpf4jnsgd1na2vs0mg"},{"bike_id":"947e1acd-8816-4ff5-9c35-e02eb3948228","system_id":"levelo_inurba_marseille","lat":43.29903,"lon":5.43673,"is_reserved":false,"is_disabled":false,"rental_uris":{"android":"levelo://app?vid=947e1acd-8816-4ff5-9c35-e02eb3948228","ios":"levelo://app?vid=947e1acd-8816-4ff5-9c35-e02eb3948228"},"vehicle_type_id":"4","last_reported":1773703276,"current_range_meters":8800,"station_id":"ce4bhpp2rcd13ifvqhfg","pricing_plan_id":"cebpf4jnsgd1na2vs0mg"},{"bike_id":"30452716-fdf0-46f7-b612-544b97eb5536","system_id":"levelo_inurba_marseille","lat":43.28461,"lon":5.35889,"is_reserved":false,"is_disabled":false,"rental_uris":{"android":"levelo://app?vid=30452716-fdf0-46f7-b612-544b97eb5536","ios":"levelo://app?vid=30452716-fdf0-46f7-b612-544b97eb5536"},"vehicle_type_id":"4","last_reported":1773703276,"current_range_meters":8800,"station_id":"ce4bhah2rcd13ifvqei0","pricing_plan_id":"cebpf4jnsgd1na2vs0mg"},{"bike_id":"617de69c-c5b5-4a8d-82d1-0f8e4719e1e8","system_id":"levelo_inurba_marseille","lat":43.28856,"lon":5.39321,"is_reserved":false,"is_disabled":false,"rental_uris":{"android":"levelo://app?vid=617de69c-c5b5-4a8d-82d1-0f8e4719e1e8","ios":"levelo://app?vid=617de69c-c5b5-4a8d-82d1-0f8e4719e1e8"},"vehicle_type_id":"4","last_reported":1773703276,"current_range_meters":8800,"station_id":"ce4bh2p2rcd13ifvqdi0","pricing_plan_id":"cebpf4jnsgd1na2vs0mg"},{"bike_id":"e1eb24be-88ce-4afc-810b-4e3be98721f5","system_id":"levelo_inurba_marseille","lat":43.30124,"lon":5.39858,"is_reserved":false,"is_disabled":false,"rental_uris":{"android":"levelo://app?vid=e1eb24be-88ce-4afc-810b-4e3be98721f5","ios":"levelo://app?vid=e1eb24be-88ce-4afc-810b-4e3be98721f5"},"vehicle_type_id":"4","last_reported":1773703276,"current_range_meters":8800,"station_id":"ce4bh0h2rcd13ifvqd40","pricing_plan_id":"cebpf4jnsgd1na2vs0mg"},{"bike_id":"6c7da26a-6e3c-4915-81a4-435886bc144f","system_id":"levelo_inurba_marseille","lat":43.23191,"lon":5.35551,"is_reserved":false,"is_disabled":false,"rental_uris":{"android":"levelo://app?vid=6c7da26a-6e3c-4915-81a4-435886bc144f","ios":"levelo://app?vid=6c7da26a-6e3c-4915-81a4-435886bc144f"},"vehicle_type_id":"4","last_reported":1773703276,"current_range_meters":8800,"station_id":"ce4bhu92rcd13ifvqi70","pricing_plan_id":"cebpf4jnsgd1na2vs0mg"},{"bike_id":"3a2c16fa-f087-430f-a626-5009aeb4e722","system_id":"levelo_inurba_marseille","lat":43.27497,"lon":5.41613,"is_reserved":false,"is_disabled":true,"rental_uris":{"android":"levelo://app?vid=3a2c16fa-f087-430f-a626-5009aeb4e722","ios":"levelo://app?vid=3a2c16fa-f087-430f-a626-5009aeb4e722"},"vehicle_type_id":"4","last_reported":1773703276,"current_range_meters":8800,"station_id":"st_d6im8g6chgec73a5pndg","pricing_plan_id":"cebpf4jnsgd1na2vs0mg"},{"bike_id":"cd459daa-f438-4782-85d7-185b801cd5ea","system_id":"levelo_inurba_marseille","lat":43.25083,"lon":5.39496,"is_reserved":false,"is_disabled":false,"rental_uris":{"android":"levelo://app?vid=cd459daa-f438-4782-85d7-185b801cd5ea","ios":"levelo://app?vid=cd459daa-f438-4782-85d7-185b801cd5ea"},"vehicle_type_id":"4","last_reported":1773703276,"current_range_meters":8800,"station_id":"ce4bhm12rcd13ifvqgkg","pricing_plan_id":"cebpf4jnsgd1na2vs0mg"},{"bike_id":"54af553e-147e-422c-8df8-1fced8e4968c","system_id":"levelo_inurba_marseille","lat":43.28715,"lon":5.37387,"is_reserved":false,"is_disabled":false,"rental_uris":{"android":"levelo://app?vid=54af553e-147e-422c-8df8-1fced8e4968c","ios":"levelo://app?vid=54af553e-147e-422c-8df8-1fced8e4968c"},"vehicle_type_id":"4","last_reported":1773703276,"current_range_meters":8800,"station_id":"ce4bh3p2rcd13ifvqdq0","pricing_plan_id":"cebpf4jnsgd1na2vs0mg"},{"bike_id":"5546bd0f-7ced-4964-ba48-a430fa2adf47","system_id":"levelo_inurba_marseille","lat":43.21741,"lon":5.34603,"is_reserved":false,"is_disabled":false,"rental_uris":{"android":"levelo://app?vid=5546bd0f-7ced-4964-ba48-a430fa2adf47","ios":"levelo://app?vid=5546bd0f-7ced-4964-ba48-a430fa2adf47"},"vehicle_type_id":"4","last_reported":1773703276,"current_range_meters":9200,"station_id":"st_cvj6r9ubvosntc0bgbag","pricing_plan_id":"cebpf4jnsgd1na2vs0mg"},{"bike_id":"7ee8d230-e429-4fae-927f-7a22b79397b7","system_id":"levelo_inurba_marseille","lat":43.33762,"lon":5.37469,"is_reserved":false,"is_disabled":false,"rental_uris":{"android":"levelo://app?vid=7ee8d230-e429-4fae-927f-7a22b79397b7","ios":"levelo://app?vid=7ee8d230-e429-4fae-927f-7a22b79397b7"},"vehicle_type_id":"4","last_reported":1773703276,"current_range_meters":9200,"station_id":"","pricing_plan_id":"cebpf4jnsgd1na2vs0mg"},{"bike_id":"8c7e5b46-f676-445b-94f5-19e8387b60cc","system_id":"levelo_inurba_marseille","lat":43.29812,"lon":5.40405,"is_reserved":false,"is_disabled":false,"rental_uris":{"android":"levelo://app?vid=8c7e5b46-f676-445b-94f5-19e8387b60cc","ios":"levelo://app?vid=8c7e5b46-f676-445b-94f5-19e8387b60cc"},"vehicle_type_id":"4","last_reported":1773703276,"current_range_meters":9200,"station_id":"ce4bh112rcd13ifvqd90","pricing_plan_id":"cebpf4jnsgd1na2vs0mg"},{"bike_id":"aa8c03a5-097b-4c47-9e42-1ec9be261b8f","system_id":"levelo_inurba_marseille","lat":43.23196,"lon":5.39972,"is_reserved":false,"is_disabled":false,"rental_uris":{"android":"levelo://app?vid=aa8c03a5-097b-4c47-9e42-1ec9be261b8f","ios":"levelo://app?vid=aa8c03a5-097b-4c47-9e42-1ec9be261b8f"},"vehicle_type_id":"4","last_reported":1773703276,"current_range_meters":9200,"station_id":"ce4bhn12rcd13ifvqgqg","pricing_plan_id":"cebpf4jnsgd1na2vs0mg"},{"bike_id":"f6c860f4-9c2e-4a13-b509-50fb1709859b","system_id":"levelo_inurba_marseille","lat":43.21198,"lon":5.35062,"is_reserved":false,"is_disabled":false,"rental_uris":{"android":"levelo://app?vid=f6c860f4-9c2e-4a13-b509-50fb1709859b","ios":"levelo://app?vid=f6c860f4-9c2e-4a13-b509-50fb1709859b"},"vehicle_type_id":"4","last_reported":1773703276,"current_range_meters":9200,"station_id":"st_cvj6sg6p6f1abm77japg","pricing_plan_id":"cebpf4jnsgd1na2vs0mg"},{"bike_id":"62833aa1-f08b-421a-91dc-ee779a4b72de","system_id":"levelo_inurba_marseille","lat":43.2917,"lon":5.3934,"is_reserved":false,"is_disabled":false,"rental_uris":{"android":"levelo://app?vid=62833aa1-f08b-421a-91dc-ee779a4b72de","ios":"levelo://app?vid=62833aa1-f08b-421a-91dc-ee779a4b72de"},"vehicle_type_id":"4","last_reported":1773703276,"current_range_meters":9200,"station_id":"","pricing_plan_id":"cebpf4jnsgd1na2vs0mg"},{"bike_id":"a198b19a-147f-4fb3-822c-608a1d587cb8","system_id":"levelo_inurba_marseille","lat":43.21753,"lon":5.34598,"is_reserved":false,"is_disabled":false,"rental_uris":{"android":"levelo://app?vid=a198b19a-147f-4fb3-822c-608a1d587cb8","ios":"levelo://app?vid=a198b19a-147f-4fb3-822c-608a1d587cb8"},"vehicle_type_id":"4","last_reported":1773703276,"current_range_meters":9200,"station_id":"st_cvj6r9ubvosntc0bgbag","pricing_plan_id":"cebpf4jnsgd1na2vs0mg"},{"bike_id":"1efdf774-ac53-4e02-955d-e1c21beb8351","system_id":"levelo_inurba_marseille","lat":43.29285,"lon":5.40127,"is_reserved":false,"is_disabled":false,"rental_uris":{"android":"levelo://app?vid=1efdf774-ac53-4e02-955d-e1c21beb8351","ios":"levelo://app?vid=1efdf774-ac53-4e02-955d-e1c21beb8351"},"vehicle_type_id":"4","last_reported":1773703276,"current_range_meters":9200,"station_id":"ce4bh312rcd13ifvqdk0","pricing_plan_id":"cebpf4jnsgd1na2vs0mg"},