{"last_updated":1728155237,"ttl":60,"version":"2.2","data":{"bikes":[{"bike_id":"c5df284a-3de6-4dbd-9337-d41a10812c99","system_id":"levelo_inurba_marseille","lat":43.31219,"lon":5.36848,"is_reserved":false,"is_disabled":false,"rental_uris":{"android":"levelo://app?vid=c5df284a-3de6-4dbd-9337-d41a10812c99","ios":"levelo://app?vid=c5df284a-3de6-4dbd-9337-d41a10812c99"},"vehicle_type_id":"4","last_reported":1728155237,"current_range_meters":14000,"station_id":"ce4bgl92rcd13ifvqbq0","pricing_plan_id":"cebpf4jnsgd1na2vs0mg"},{"bike_id":"3edccbad-c604-40df-acb2-6e9d91b67298","system_id":"levelo_inurba_marseille","lat":43.337637,"lon":5.37432,"is_reserved":false,"is_disabled":false,"rental_uris":{"android":"levelo://app?vid=3edccbad-c604-40df-acb2-6e9d91b67298","ios":"levelo://app?vid=3edccbad-c604-40df-acb2-6e9d91b67298"},"vehicle_type_id":"4","last_reported":1728155237,"current_range_meters":33200,"station_id":"","pricing_plan_id":"cebpf4jnsgd1na2vs0mg"},{"bike_id":"501ea81c-786b-4ed6-9f91-1c4872301b7f","system_id":"levelo_inurba_marseille","lat":43.25004,"lon":5.38931,"is_reserved":false,"is_disabled":false,"rental_uris":{"android":"levelo://app?vid=501ea81c-786b-4ed6-9f91-1c4872301b7f","ios":"levelo://app?vid=501ea81c-786b-4ed6-9f91-1c4872301b7f"},"vehicle_type_id":"4","last_reported":1728155237,"current_range_meters":2800,"station_id":"ce4bhgp2rcd13ifvqfd0","pricing_plan_id":"cebpf4jnsgd1na2vs0mg"},{"bike_id":"f42ba909-c6af-4d4c-bcad-ee9c6f8944ff","system_id":"levelo_inurba_marseille","lat":43.31762,"lon":5.390153,"is_reserved":false,"is_disabled":false,"rental_uris":{"android":"levelo://app?vid=f42ba909-c6af-4d4c-bcad-ee9c6f8944ff","ios":"levelo://app?vid=f42ba909-c6af-4d4c-bcad-ee9c6f8944ff"},"vehicle_type_id":"4","last_reported":1728155237,"current_range_meters":27600,"station_id":"ce4bhqp2rcd13ifvqhng","pricing_plan_id":"cebpf4jnsgd1na2vs0mg"},{"bike_id":"c4a72f9b-0116-46b2-9ef9-7a48680f1539","system_id":"levelo_inurba_marseille","lat":43.29035,"lon":5.39981,"is_reserved":false,"is_disabled":false,"rental_uris":{"android":"levelo://app?vid=c4a72f9b-0116-46b2-9ef9-7a48680f1539","ios":"levelo://app?vid=c4a72f9b-0116-46b2-9ef9-7a48680f1539"},"vehicle_type_id":"4","last_reported":1728155237,"current_range_meters":38400,"station_id":"ce4bh392rcd13ifvqdm0","pricing_plan_id":"cebpf4jnsgd1na2vs0mg"},{"bike_id":"a996fcc2-8a84-4b0c-8846-56f0763d1b1f","system_id":"levelo_inurba_marseille","lat":43.2901,"lon":5.35613,"is_reserved":false,"is_disabled":false,"rental_uris":{"android":"levelo://app?vid=a996fcc2-8a84-4b0c-8846-56f0763d1b1f","ios":"levelo://app?vid=a996fcc2-8a84-4b0c-8846-56f0763d1b1f"},"vehicle_type_id":"4","last_reported":1728155237,"current_range_meters":20000,"station_id":"ce4bhb92rcd13ifvqen0","pricing_plan_id":"cebpf4jnsgd1na2vs0mg"},{"bike_id":"a336a620-72f2-4999-8c01-3a9c4cffb926","system_id":"levelo_inurba_marseille","lat":43.29422,"lon":5.3863,"is_reserved":false,"is_disabled":false,"rental_uris":{"android":"levelo://app?vid=a336a620-72f2-4999-8c01-3a9c4cffb926","ios":"levelo://app?vid=a336a620-72f2-4999-8c01-3a9c4cffb926"},"vehicle_type_id":"4","last_reported":1728155237,"current_range_meters":12000,"station_id":"ce4bh2h2rcd13ifvqdh0","pricing_plan_id":"cebpf4jnsgd1na2vs0mg"},{"bike_id":"ba0180d4-cf64-48df-8270-0db5fe20d0c7","system_id":"levelo_inurba_marseille","lat":43.29555,"lon":5.42293,"is_reserved":false,"is_disabled":false,"rental_uris":{"android":"levelo://app?vid=ba0180d4-cf64-48df-8270-0db5fe20d0c7","ios":"levelo://app?vid=ba0180d4-cf64-48df-8270-0db5fe20d0c7"},"vehicle_type_id":"4","last_reported":1728155237,"current_range_meters":24800,"station_id":"ce4bhph2rcd13ifvqhdg","pricing_plan_id":"cebpf4jnsgd1na2vs0mg"},{"bike_id":"e0ce1f16-3242-4d59-850f-f72736825b31","system_id":"levelo_inurba_marseille","lat":43.28612,"lon":5.37068,"is_reserved":false,"is_disabled":false,"rental_uris":{"android":"levelo://app?vid=e0ce1f16-3242-4d59-850f-f72736825b31","ios":"levelo://app?vid=e0ce1f16-3242-4d59-850f-f72736825b31"},"vehicle_type_id":"4","last_reported":1728155237,"current_range_meters":15200,"station_id":"ce4bht12rcd13ifvqi60","pricing_plan_id":"cebpf4jnsgd1na2vs0mg"},{"bike_id":"74f9773c-bc34-4f20-b692-a88fbf26ba94","system_id":"levelo_inurba_marseille","lat":43.286683,"lon":5.361075,"is_reserved":false,"is_disabled":false,"rental_uris":{"android":"levelo://app?vid=74f9773c-bc34-4f20-b692-a88fbf26ba94","ios":"levelo://app?vid=74f9773c-bc34-4f20-b692-a88fbf26ba94"},"vehicle_type_id":"4","last_reported":1728155237,"current_range_meters":4400,"station_id":"cki0cbj6b192h4jlfktg","pricing_plan_id":"cebpf4jnsgd1na2vs0mg"},{"bike_id":"5ef3c31e-c35f-40aa-b8c1-6220ed55888e","system_id":"levelo_inurba_marseille","lat":43.25093,"lon":5.39532,"is_reserved":false,"is_disabled":false,"rental_uris":{"android":"levelo://app?vid=5ef3c31e-c35f-40aa-b8c1-6220ed55888e","ios":"levelo://app?vid=5ef3c31e-c35f-40aa-b8c1-6220ed55888e"},"vehicle_type_id":"4","last_reported":1728155237,"current_range_meters":36800,"station_id":"ce4bhm12rcd13ifvqgkg","pricing_plan_id":"cebpf4jnsgd1na2vs0mg"},{"bike_id":"fcd5b10a-92a0-4099-bcca-4cbff39971c9","system_id":"levelo_inurba_marseille","lat":43.2582,"lon":5.39436,"is_reserved":false,"is_disabled":false,"rental_uris":{"android":"levelo://app?vid=fcd5b10a-92a0-4099-bcca-4cbff39971c9","ios":"levelo://app?vid=fcd5b10a-92a0-4099-bcca-4cbff39971c9"},"vehicle_type_id":"4","last_reported":1728155237,"current_range_meters":5600,"station_id":"ce4bhip2rcd13ifvqft0","pricing_plan_id":"cebpf4jnsgd1na2vs0mg"},{"bike_id":"e944e2c8-3cc4-4553-bf9c-19fb03b060de","system_id":"levelo_inurba_marseille","lat":43.31231,"lon":5.36862,"is_reserved":false,"is_disabled":false,"rental_uris":{"android":"levelo://app?vid=e944e2c8-3cc4-4553-bf9c-19fb03b060de","ios":"levelo://app?vid=e944e2c8-3cc4-4553-bf9c-19fb03b060de"},"vehicle_type_id":"4","last_reported":1728155237,"current_range_meters":23200,"station_id":"ce4bgl92rcd13ifvqbq0","pricing_plan_id":"cebpf4jnsgd1na2vs0mg"},{"bike_id":"c699d83b-0c7f-460c-8d7c-78b821d44bd9","system_id":"levelo_inurba_marseille","lat":43.29257,"lon":5.38439,"is_reserved":false,"is_disabled":false,"rental_uris":{"android":"levelo://app?vid=c699d83b-0c7f-460c-8d7c-78b821d44bd9","ios":"levelo://app?vid=c699d83b-0c7f-460c-8d7c-78b821d44bd9"},"vehicle_type_id":"4","last_reported":1728155237,"current_range_meters":24400,"station_id":"ce4bh692rcd13ifvqea0","pricing_plan_id":"cebpf4jnsgd1na2vs0mg"},{"bike_id":"0c336abc-b1c9-434c-8c5a-1b8627bf7e90","system_id":"levelo_inurba_marseille","lat":43.30542,"lon":5.384203,"is_reserved":false,"is_disabled":false,"rental_uris":{"android":"levelo://app?vid=0c336abc-b1c9-434c-8c5a-1b8627bf7e90","ios":"levelo://app?vid=0c336abc-b1c9-434c-8c5a-1b8627bf7e90"},"vehicle_type_id":"4","last_reported":1728155237,"current_range_meters":8000,"station_id":"ce4bh192rcd13ifvqdd0","pricing_plan_id":"cebpf4jnsgd1na2vs0mg"},{"bike_id":"9221852e-d7d8-460a-8693-86e29ac1cae4","system_id":"levelo_inurba_marseille","lat":43.29516,"lon":5.39044,"is_reserved":false,"is_disabled":false,"rental_uris":{"android":"levelo://app?vid=9221852e-d7d8-460a-8693-86e29ac1cae4","ios":"levelo://app?vid=9221852e-d7d8-460a-8693-86e29ac1cae4"},"vehicle_type_id":"4","last_reported":1728155237,"current_range_meters":8800,"station_id":"ce4bh3p2rcd13ifvqdp0","pricing_plan_id":"cebpf4jnsgd1na2vs0mg"},{"bike_id":"03ebdfef-60b9-4383-b780-f6e10ef5dff9","system_id":"levelo_inurba_marseille","lat":43.33758,"lon":5.37452,"is_reserved":false,"is_disabled":false,"rental_uris":{"android":"levelo://app?vid=03ebdfef-60b9-4383-b780-f6e10ef5dff9","ios":"levelo://app?vid=03ebdfef-60b9-4383-b780-f6e10ef5dff9"},"vehicle_type_id":"4","last_reported":1728155237,"current_range_meters":31200,"station_id":"","pricing_plan_id":"cebpf4jnsgd1na2vs0mg"},{"bike_id":"e1dba178-7273-4b9b-9eec-ae32e8a6f98b","system_id":"levelo_inurba_marseille","lat":43.27911,"lon":5.41225,"is_reserved":false,"is_disabled":false,"rental_uris":{"android":"levelo://app?vid=e1dba178-7273-4b9b-9eec-ae32e8a6f98b","ios":"levelo://app?vid=e1dba178-7273-4b9b-9eec-ae32e8a6f98b"},"vehicle_type_id":"4","last_reported":1728155237,"current_range_meters":38400,"station_id":"","pricing_plan_id":"cebpf4jnsgd1na2vs0mg"},{"bike_id":"5ca8b4f4-4525-4fd8-9588-42fe90f5c172","system_id":"levelo_inurba_marseille","lat":43.28081,"lon":5.3966,"is_reserved":false,"is_disabled":false,"rental_uris":{"android":"levelo://app?vid=5ca8b4f4-4525-4fd8-9588-42fe90f5c172","ios":"levelo://app?vid=5ca8b4f4-4525-4fd8-9588-42fe90f5c172"},"vehicle_type_id":"4","last_reported":1728155237,"current_range_meters":27600,"station_id":"ce4bho12rcd13ifvqh2g","pricing_plan_id":"cebpf4jnsgd1na2vs0mg"},{"bike_id":"b27a4ada-d751-46b4-a3e3-aa93d7b8bb7f","system_id":"levelo_inurba_marseille","lat":43.33026,"lon":5.39049,"is_reserved":false,"is_disabled":false,"rental_uris":{"android":"levelo://app?vid=b27a4ada-d751-46b4-a3e3-aa93d7b8bb7f","ios":"levelo://app?vid=b27a4ada-d751-46b4-a3e3-aa93d7b8bb7f"},"vehicle_type_id":"4","last_reported":1728155237,"current_range_meters":36000,"station_id":"ce4bhr92rcd13ifvqhrg","pricing_plan_id":"cebpf4jnsgd1na2vs0mg"},{"bike_id":"8c4ede2a-8479-4951-912b-e9104b176599","system_id":"levelo_inurba_marseille","lat":43.33731,"lon":5.39194,"is_reserved":false,"is_disabled":false,"rental_uris":{"android":"levelo://app?vid=8c4ede2a-8479-4951-912b-e9104b176599","ios":"levelo://app?vid=8c4ede2a-8479-4951-912b-e9104b176599"},"vehicle_type_id":"4","last_reported":1728155237,"current_range_meters":11200,"station_id":"ce4bhr92rcd13ifvqhsg","pricing_plan_id":"cebpf4jnsgd1na2vs0mg"},{"bike_id":"fdf15607-daec-4f3c-841b-8f65f98f31c9","system_id":"levelo_inurba_marseille","lat":43.30808,"lon":5.4353,"is_reserved":false,"is_disabled":false,"rental_uris":{"android":"levelo://app?vid=fdf15607-daec-4f3c-841b-8f65f98f31c9","ios":"levelo://app?vid=fdf15607-daec-4f3c-841b-8f65f98f31c9"},"vehicle_type_id":"4","last_reported":1728155237,"current_range_meters":13600,"station_id":"ce4bhph2rcd13ifvqheg","pricing_plan_id":"cebpf4jnsgd1na2vs0mg"},{"bike_id":"852457a1-813f-46b8-bb13-232384e208e9","system_id":"levelo_inurba_marseille","lat":43.33759,"lon":5.37447,"is_reserved":false,"is_disabled":false,"rental_uris":{"android":"levelo://app?vid=852457a1-813f-46b8-bb13-232384e208e9","ios":"levelo://app?vid=852457a1-813f-46b8-bb13-232384e208e9"},"vehicle_type_id":"4","last_reported":1728155237,"current_range_meters":32000,"station_id":"","pricing_plan_id":"cebpf4jnsgd1na2vs0mg"},{"bike_id":"1d5f3bf5-914c-4a81-acb7-4de7dd97966a","system_id":"levelo_inurba_marseille","lat":43.29415,"lon":5.38634,"is_reserved":false,"is_disabled":false,"rental_uris":{"android":"levelo://app?vid=1d5f3bf5-914c-4a81-acb7-4de7dd97966a","ios":"levelo://app?vid=1d5f3bf5-914c-4a81-acb7-4de7dd97966a"},"vehicle_type_id":"4","last_reported":1728155237,"current_range_meters":9600,"station_id":"ce4bh2h2rcd13ifvqdh0","pricing_plan_id":"cebpf4jnsgd1na2vs0mg"},{"bike_id":"ac7477e2-647f-4698-b2f1-05ac6bd7ca79","system_id":"levelo_inurba_marseille","lat":43.2738,"lon":5.36257,"is_reserved":false,"is_disabled":false,"rental_uris":{"android":"levelo://app?vid=ac7477e2-647f-4698-b2f1-05ac6bd7ca79","ios":"levelo://app?vid=ac7477e2-647f-4698-b2f1-05ac6bd7ca79"},"vehicle_type_id":"4","last_reported":1728155237,"current_range_meters":37600,"station_id":"ce4bhbh2rcd13ifvqeo0","pricing_plan_id":"cebpf4jnsgd1na2vs0mg"},{"bike_id":"54d09a39-e79d-434c-8a05-a8f2660c6a94","system_id":"levelo_inurba_marseille","lat":43.294245,"lon":5.433708,"is_reserved":false,"is_disabled":false,"rental_uris":{"android":"levelo://app?vid=54d09a39-e79d-434c-8a05-a8f2660c6a94","ios":"levelo://app?vid=54d09a39-e79d-434c-8a05-a8f2660c6a94"},"vehicle_type_id":"4","last_reported":1728155237,"current_range_meters":8800,"station_id":"","pricing_plan_id":"cebpf4jnsgd1na2vs0mg"},{"bike_id":"69b330ae-1dc4-4893-985f-b03e6f6b07e8","system_id":"levelo_inurba_marseille","lat":43.31238,"lon":5.36863,"is_reserved":false,"is_disabled":false,"rental_uris":{"android":"levelo://app?vid=69b330ae-1dc4-4893-985f-b03e6f6b07e8","ios":"levelo://app?vid=69b330ae-1dc4-4893-985f-b03e6f6b07e8"},"vehicle_type_id":"4","last_reported":1728155237,"current_range_meters":23200,"station_id":"ce4bgl92rcd13ifvqbq0","pricing_plan_id":"cebpf4jnsgd1na2vs0mg"},{"bike_id":"a664ba76-70b4-439d-9ef3-e4b3b8bb7997","system_id":"levelo_inurba_marseille","lat":43.28944,"lon":5.36629,"is_reserved":false,"is_disabled":false,"rental_uris":{"android":"levelo://app?vid=a664ba76-70b4-439d-9ef3-e4b3b8bb7997","ios":"levelo://app?vid=a664ba76-70b4-439d-9ef3-e4b3b8bb7997"},"vehicle_type_id":"4","last_reported":1728155237,"current_range_meters":38800,"station_id":"ce4bhap2rcd13ifvqek0","pricing_plan_id":"cebpf4jnsgd1na2vs0mg"},{"bike_id":"bceea58a-8efd-4da4-af17-365bdf2475bb","system_id":"levelo_inurba_marseille","lat":43.24549,"lon":5.3953,"is_reserved":false,"is_disabled":false,"rental_uris":{"android":"levelo://app?vid=bceea58a-8efd-4da4-af17-365bdf2475bb","ios":"levelo://app?vid=bceea58a-8efd-4da4-af17-365bdf2475bb"},"vehicle_type_id":"4","last_reported":1728155237,"current_range_meters":7200,"station_id":"ce4bhlp2rcd13ifvqgjg","pricing_plan_id":"cebpf4jnsgd1na2vs0mg"},{"bike_id":"491813ec-5bcd-4eda-acb2-c01ccb4e9894","system_id":"levelo_inurba_marseille","lat":43.33757,"lon":5.37448,"is_reserved":false,"is_disabled":false,"rental_uris":{"android":"levelo://app?vid=491813ec-5bcd-4eda-acb2-c01ccb4e9894","ios":"levelo://app?vid=491813ec-5bcd-4eda-acb2-c01ccb4e9894"},"vehicle_type_id":"4","last_reported":1728155237,"current_range_meters":34000,"station_id":"","pricing_plan_id":"cebpf4jnsgd1na2vs0mg"},{"bike_id":"423bf93d-ac69-4ff2-94e6-c0831a5f9e05","system_id":"levelo_inurba_marseille","lat":43.29793,"lon":5.38116,"is_reserved":false,"is_disabled":false,"rental_uris":{"android":"levelo://app?vid=423bf93d-ac69-4ff2-94e6-c0831a5f9e05","ios":"levelo://app?vid=423bf93d-ac69-4ff2-94e6-c0831a5f9e05"},"vehicle_type_id":"4","last_reported":1728155237,"current_range_meters":4400,"station_id":"ce4bgip2rcd13ifvqbb0","pricing_plan_id":"cebpf4jnsgd1na2vs0mg"},{"bike_id":"c26d8e27-cedc-42eb-9e1e-845bbcffb567","system_id":"levelo_inurba_marseille","lat":43.28734,"lon":5.37945,"is_reserved":false,"is_disabled":false,"rental_uris":{"android":"levelo://app?vid=c26d8e27-cedc-42eb-9e1e-845bbcffb567","ios":"levelo://app?vid=c26d8e27-cedc-42eb-9e1e-845bbcffb567"},"vehicle_type_id":"4","last_reported":1728155237,"current_range_meters":35600,"station_id":"ce4bh9p2rcd13ifvqec0","pricing_plan_id":"cebpf4jnsgd1na2vs0mg"},{"bike_id":"5c41f57a-d019-403d-8472-db02b51f2eec","system_id":"levelo_inurba_marseille","lat":43.29418,"lon":5.38624,"is_reserved":false,"is_disabled":false,"rental_uris":{"android":"levelo://app?vid=5c41f57a-d019-403d-8472-db02b51f2eec","ios":"levelo://app?vid=5c41f57a-d019-403d-8472-db02b51f2eec"},"vehicle_type_id":"4","last_reported":1728155237,"current_range_meters":30400,"station_id":"ce4bh2h2rcd13ifvqdh0","pricing_plan_id":"cebpf4jnsgd1na2vs0mg"},{"bike_id":"baba7691-81ff-4c7d-90d9-c89eba9696cb","system_id":"levelo_inurba_marseille","lat":43.25932,"lon":5.40924,"is_reserved":false,"is_disabled":false,"rental_uris":{"android":"levelo://app?vid=baba7691-81ff-4c7d-90d9-c89eba9696cb","ios":"levelo://app?vid=baba7691-81ff-4c7d-90d9-c89eba9696cb"},"vehicle_type_id":"4","last_reported":1728155237,"current_range_meters":36000,"station_id":"ce4bhm92rcd13ifvqglg","pricing_plan_id":"cebpf4jnsgd1na2vs0mg"},{"bike_id":"e0179d50-0c61-4ee2-b09e-1eaa4a352563","system_id":"levelo_inurba_marseille","lat":43.309455,"lon":5.39024,"is_reserved":false,"is_disabled":false,"rental_uris":{"android":"levelo://app?vid=e0179d50-0c61-4ee2-b09e-1eaa4a352563","ios":"levelo://app?vid=e0179d50-0c61-4ee2-b09e-1eaa4a352563"},"vehicle_type_id":"4","last_reported":1728155237,"current_range_meters":38800,"station_id":"ce4bgup2rcd13ifvqco0","pricing_plan_id":"cebpf4jnsgd1na2vs0mg"},{"bike_id":"5252d2cc-48cf-4598-a7b3-06d1f3fd4c23","system_id":"levelo_inurba_marseille","lat":43.27072,"lon":5.42283,"is_reserved":false,"is_disabled":false,"rental_uris":{"android":"levelo://app?vid=5252d2cc-48cf-4598-a7b3-06d1f3fd4c23","ios":"levelo://app?vid=5252d2cc-48cf-4598-a7b3-06d1f3fd4c23"},"vehicle_type_id":"4","last_reported":1728155237,"current_range_meters":29600,"station_id":"ce4bhk92rcd13ifvqgb0","pricing_plan_id":"cebpf4jnsgd1na2vs0mg"},{"bike_id":"ad337cf8-9612-4bfe-bb7b-d71774bbb0d6","system_id":"levelo_inurba_marseille","lat":43.27498,"lon":5.42453,"is_reserved":false,"is_disabled":false,"rental_uris":{"android":"levelo://app?vid=ad337cf8-9612-4bfe-bb7b-d71774bbb0d6","ios":"levelo://app?vid=ad337cf8-9612-4bfe-bb7b-d71774bbb0d6"},"vehicle_type_id":"4","last_reported":1728155237,"current_range_meters":18800,"station_id":"ce4bhn92rcd13ifvqgrg","pricing_plan_id":"cebpf4jnsgd1na2vs0mg"},{"bike_id":"5cdb568d-e06d-4868-a035-8a83bc4fda55","system_id":"levelo_inurba_marseille","lat":43.27467,"lon":5.40911,"is_reserved":false,"is_disabled":false,"rental_uris":{"android":"levelo://app?vid=5cdb568d-e06d-4868-a035-8a83bc4fda55","ios":"levelo://app?vid=5cdb568d-e06d-4868-a035-8a83bc4fda55"},"vehicle_type_id":"4","last_reported":1728155237,"current_range_meters":38000,"station_id":"","pricing_plan_id":"cebpf4jnsgd1na2vs0mg"},{"bike_id":"2eecc969-58aa-4895-aa6e-67a0a5e1437f","system_id":"levelo_inurba_marseille","lat":43.2926,"lon":5.38455,"is_reserved":false,"is_disabled":false,"rental_uris":{"android":"levelo://app?vid=2eecc969-58aa-4895-aa6e-67a0a5e1437f","ios":"levelo://app?vid=2eecc969-58aa-4895-aa6e-67a0a5e1437f"},"vehicle_type_id":"4","last_reported":1728155237,"current_range_meters":26000,"station_id":"ce4bh692rcd13ifvqea0","pricing_plan_id":"cebpf4jnsgd1na2vs0mg"},{"bike_id":"d23ddbe4-840b-4d6d-8e13-a20922334a77","system_id":"levelo_inurba_marseille","lat":43.32487,"lon":5.36562,"is_reserved":false,"is_disabled":false,"rental_uris":{"android":"levelo://app?vid=d23ddbe4-840b-4d6d-8e13-a20922334a77","ios":"levelo://app?vid=d23ddbe4-840b-4d6d-8e13-a20922334a77"},"vehicle_type_id":"4","last_reported":1728155237,"current_range_meters":20400,"station_id":"ce4bhs12rcd13ifvqhvg","pricing_plan_id":"cebpf4jnsgd1na2vs0mg"},{"bike_id":"4af55307-045f-4c66-a045-a91d88bb4c16","system_id":"levelo_inurba_marseille","lat":43.33766,"lon":5.37442,"is_reserved":false,"is_disabled":false,"rental_uris":{"android":"levelo://app?vid=4af55307-045f-4c66-a045-a91d88bb4c16","ios":"levelo://app?vid=4af55307-045f-4c66-a045-a91d88bb4c16"},"vehicle_type_id":"4","last_reported":1728155237,"current_range_meters":35200,"station_id":"","pricing_plan_id":"cebpf4jnsgd1na2vs0mg"},{"bike_id":"67f54536-42f1-4c4f-9ebe-5c62b3e5335e","system_id":"levelo_inurba_marseille","lat":43.292,"lon":5.39322,"is_reserved":false,"is_disabled":false,"rental_uris":{"android":"levelo://app?vid=67f54536-42f1-4c4f-9ebe-5c62b3e5335e","ios":"levelo://app?vid=67f54536-42f1-4c4f-9ebe-5c62b3e5335e"},"vehicle_type_id":"4","last_reported":1728155237,"current_range_meters":8000,"station_id":"ce4bh192rcd13ifvqdd0","pricing_plan_id":"cebpf4jnsgd1na2vs0mg"},{"bike_id":"13a35d1a-1c21-4cdd-9282-17040c700716","system_id":"levelo_inurba_marseille","lat":43.32544,"lon":5.4144,"is_reserved":false,"is_disabled":false,"rental_uris":{"android":"levelo://app?vid=13a35d1a-1c21-4cdd-9282-17040c700716","ios":"levelo://app?vid=13a35d1a-1c21-4cdd-9282-17040c700716"},"vehicle_type_id":"4","last_reported":1728155237,"current_range_meters":37600,"station_id":"ce4bhq12rcd13ifvqhhg","pricing_plan_id":"cebpf4jnsgd1na2vs0mg"},{"bike_id":"9559b57d-f14b-4c35-8ab8-050f1f405ecc","system_id":"levelo_inurba_marseille","lat":43.30424,"lon":5.38895,"is_reserved":false,"is_disabled":false,"rental_uris":{"android":"levelo://app?vid=9559b57d-f14b-4c35-8ab8-050f1f405ecc","ios":"levelo://app?vid=9559b57d-f14b-4c35-8ab8-050f1f405ecc"},"vehicle_type_id":"4","last_reported":1728155237,"current_range_meters":24000,"station_id":"ce4bgk12rcd13ifvqbi0","pricing_plan_id":"cebpf4jnsgd1na2vs0mg"},{"bike_id":"ec6e251e-99d1-4ac4-a075-545dbd029bdc","system_id":"levelo_inurba_marseille","lat":43.28915,"lon":5.36208,"is_reserved":false,"is_disabled":false,"rental_uris":{"android":"levelo://app?vid=ec6e251e-99d1-4ac4-a075-545dbd029bdc","ios":"levelo://app?vid=ec6e251e-99d1-4ac4-a075-545dbd029bdc"},"vehicle_type_id":"4","last_reported":1728155237,"current_range_meters":33200,"station_id":"","pricing_plan_id":"cebpf4jnsgd1na2vs0mg"},{"bike_id":"32de8690-8902-45d9-9261-1a5a54055b39","system_id":"levelo_inurba_marseille","lat":43.33027,"lon":5.39049,"is_reserved":false,"is_disabled":false,"rental_uris":{"android":"levelo://app?vid=32de8690-8902-45d9-9261-1a5a54055b39","ios":"levelo://app?vid=32de8690-8902-45d9-9261-1a5a54055b39"},"vehicle_type_id":"4","last_reported":1728155237,"current_range_meters":4800,"station_id":"ce4bhr92rcd13ifvqhrg","pricing_plan_id":"cebpf4jnsgd1na2vs0mg"},{"bike_id":"f8dc473d-f4ae-4037-a6d9-7034d5079f09","system_id":"levelo_inurba_marseille","lat":43.29778,"lon":5.39344,"is_reserved":false,"is_disabled":false,"rental_uris":{"android":"levelo://app?vid=f8dc473d-f4ae-4037-a6d9-7034d5079f09","ios":"levelo://app?vid=f8dc473d-f4ae-4037-a6d9-7034d5079f09"},"vehicle_type_id":"4","last_reported":1728155237,"current_range_meters":37600,"station_id":"chh1huq6cuj3fo74tm60","pricing_plan_id":"cebpf4jnsgd1na2vs0mg"},{"bike_id":"3eecc9b8-b64b-4b18-8ad9-348cb0d3dbd2","system_id":"levelo_inurba_marseille","lat":43.30307,"lon":5.36907,"is_reserved":false,"is_disabled":false,"rental_uris":{"android":"levelo://app?vid=3eecc9b8-b64b-4b18-8ad9-348cb0d3dbd2","ios":"levelo://app?vid=3eecc9b8-b64b-4b18-8ad9-348cb0d3dbd2"},"vehicle_type_id":"4","last_reported":1728155237,"current_range_meters":6400,"station_id":"ce4bgqh2rcd13ifvqc5g","pricing_plan_id":"cebpf4jnsgd1na2vs0mg"},{"bike_id":"a887ba90-692b-45be-8b2b-7f037ec1bb0a","system_id":"levelo_inurba_marseille","lat":43.31391,"lon":5.36801,"is_reserved":false,"is_disabled":false,"rental_uris":{"android":"levelo://app?vid=a887ba90-692b-45be-8b2b-7f037ec1bb0a","ios":"levelo://app?vid=a887ba90-692b-45be-8b2b-7f037ec1bb0a"},"vehicle_type_id":"4","last_reported":1728155237,"current_range_meters":4400,"station_id":"","pricing_plan_id":"cebpf4jnsgd1na2vs0mg"},{"bike_id":"6ae5efc6-e95a-4eb2-beca-c83e674a1814","system_id":"levelo_inurba_marseille","lat":43.29978,"lon":5.38492,"is_reserved":false,"is_disabled":false,"rental_uris":{"android":"levelo://app?vid=6ae5efc6-e95a-4eb2-beca-c83e674a1814","ios":"levelo://app?vid=6ae5efc6-e95a-4eb2-beca-c83e674a1814"},"vehicle_type_id":"4","last_reported":1728155237,"current_range_meters":4400,"station_id":"ce4bgj92rcd13ifvqbd0","pricing_plan_id":"cebpf4jnsgd1na2vs0mg"},{"bike_id":"aa502aaf-dcc1-40c0-9ed0-652f4e6d14a4","system_id":"levelo_inurba_marseille","lat":43.28613,"lon":5.3511,"is_reserved":false,"is_disabled":false,"rental_uris":{"android":"levelo://app?vid=aa502aaf-dcc1-40c0-9ed0-652f4e6d14a4","ios":"levelo://app?vid=aa502aaf-dcc1-40c0-9ed0-652f4e6d14a4"},"vehicle_type_id":"4","last_reported":1728155237,"current_range_meters":20000,"station_id":"ce4bhch2rcd13ifvqeug","pricing_plan_id":"cebpf4jnsgd1na2vs0mg"},{"bike_id":"26356eaa-8623-44fb-ba37-80621abfb309","system_id":"levelo_inurba_marseille","lat":43.30637,"lon":5.40089,"is_reserved":false,"is_disabled":false,"rental_uris":{"android":"levelo://app?vid=26356eaa-8623-44fb-ba37-80621abfb309","ios":"levelo://app?vid=26356eaa-8623-44fb-ba37-80621abfb309"},"vehicle_type_id":"4","last_reported":1728155237,"current_range_meters":4000,"station_id":"ce4bh112rcd13ifvqda0","pricing_plan_id":"cebpf4jnsgd1na2vs0mg"},{"bike_id":"7de10673-7556-4ebc-be9c-6081f83d90b6","system_id":"levelo_inurba_marseille","lat":43.2943,"lon":5.38631,"is_reserved":false,"is_disabled":false,"rental_uris":{"android":"levelo://app?vid=7de10673-7556-4ebc-be9c-6081f83d90b6","ios":"levelo://app?vid=7de10673-7556-4ebc-be9c-6081f83d90b6"},"vehicle_type_id":"4","last_reported":1728155237,"current_range_meters":33600,"station_id":"ce4bh2h2rcd13ifvqdh0","pricing_plan_id":"cebpf4jnsgd1na2vs0mg"},{"bike_id":"a69511dd-f3df-415a-b962-7cb6526cfd5e","system_id":"levelo_inurba_marseille","lat":43.29571,"lon":5.3999,"is_reserved":false,"is_disabled":false,"rental_uris":{"android":"levelo://app?vid=a69511dd-f3df-415a-b962-7cb6526cfd5e","ios":"levelo://app?vid=a69511dd-f3df-415a-b962-7cb6526cfd5e"},"vehicle_type_id":"4","last_reported":1728155237,"current_range_meters":6800,"station_id":"ce4bh312rcd13ifvqdj0","pricing_plan_id":"cebpf4jnsgd1na2vs0mg"},{"bike_id":"4983087f-ab4d-45e4-aabe-732638117cf0","system_id":"levelo_inurba_marseille","lat":43.30335,"lon":5.40438,"is_reserved":false,"is_disabled":false,"rental_uris":{"android":"levelo://app?vid=4983087f-ab4d-45e4-aabe-732638117cf0","ios":"levelo://app?vid=4983087f-ab4d-45e4-aabe-732638117cf0"},"vehicle_type_id":"4","last_reported":1728155237,"current_range_meters":22000,"station_id":"ce4bh012rcd13ifvqd10","pricing_plan_id":"cebpf4jnsgd1na2vs0mg"},{"bike_id":"980e4d60-57c3-474b-8626-848b485bbd73","system_id":"levelo_inurba_marseille","lat":43.2943,"lon":5.38638,"is_reserved":false,"is_disabled":false,"rental_uris":{"android":"levelo://app?vid=980e4d60-57c3-474b-8626-848b485bbd73","ios":"levelo://app?vid=980e4d60-57c3-474b-8626-848b485bbd73"},"vehicle_type_id":"4","last_reported":1728155237,"current_range_meters":5600,"station_id":"ce4bh2h2rcd13ifvqdh0","pricing_plan_id":"cebpf4jnsgd1na2vs0mg"},{"bike_id":"29dc75f7-a436-437e-b779-e7babd24b1dc","system_id":"levelo_inurba_marseille","lat":43.309567,"lon":5.390105,"is_reserved":false,"is_disabled":false,"rental_uris":{"android":"levelo://app?vid=29dc75f7-a436-437e-b779-e7babd24b1dc","ios":"levelo://app?vid=29dc75f7-a436-437e-b779-e7babd24b1dc"},"vehicle_type_id":"4","last_reported":1728155237,"current_range_meters":38800,"station_id":"ce4bgup2rcd13ifvqco0","pricing_plan_id":"cebpf4jnsgd1na2vs0mg"},{"bike_id":"a5ca7d7b-527d-4c46-884e-7b2741cb6a77","system_id":"levelo_inurba_marseille","lat":43.30599,"lon":5.39366,"is_reserved":false,"is_disabled":false,"rental_uris":{"android":"levelo://app?vid=a5ca7d7b-527d-4c46-884e-7b2741cb6a77","ios":"levelo://app?vid=a5ca7d7b-527d-4c46-884e-7b2741cb6a77"},"vehicle_type_id":"4","last_reported":1728155237,"current_range_meters":10800,"station_id":"ce4bh0p2rcd13ifvqd80","pricing_plan_id":"cebpf4jnsgd1na2vs0mg"},{"bike_id":"6f13b467-d05c-4083-92a0-2fa2d15deb3c","system_id":"levelo_inurba_marseille","lat":43.29532,"lon":5.39051,"is_reserved":false,"is_disabled":false,"rental_uris":{"android":"levelo://app?vid=6f13b467-d05c-4083-92a0-2fa2d15deb3c","ios":"levelo://app?vid=6f13b467-d05c-4083-92a0-2fa2d15deb3c"},"vehicle_type_id":"4","last_reported":1728155237,"current_range_meters":19600,"station_id":"ce4bh3p2rcd13ifvqdp0","pricing_plan_id":"cebpf4jnsgd1na2vs0mg"},{"bike_id":"682c8c83-ca16-4ef7-9e5a-cfc439b078e7","system_id":"levelo_inurba_marseille","lat":43.29262,"lon":5.38451,"is_reserved":false,"is_disabled":false,"rental_uris":{"android":"levelo://app?vid=682c8c83-ca16-4ef7-9e5a-cfc439b078e7","ios":"levelo://app?vid=682c8c83-ca16-4ef7-9e5a-cfc439b078e7"},"vehicle_type_id":"4","last_reported":1728155237,"current_range_meters":30800,"station_id":"ce4bh692rcd13ifvqea0","pricing_plan_id":"cebpf4jnsgd1na2vs0mg"},{"bike_id":"26db1e37-eb83-4d75-ba26-a75b090c176c","system_id":"levelo_inurba_marseille","lat":43.29595,"lon":5.38112,"is_reserved":false,"is_disabled":false,"rental_uris":{"android":"levelo://app?vid=26db1e37-eb83-4d75-ba26-a75b090c176c","ios":"levelo://app?vid=26db1e37-eb83-4d75-ba26-a75b090c176c"},"vehicle_type_id":"4","last_reported":1728155237,"current_range_meters":30400,"station_id":"ce4bgl12rcd13ifvqbo0","pricing_plan_id":"cebpf4jnsgd1na2vs0mg"},{"bike_id":"d1650418-43e3-47a6-995d-08d3b63316b2","system_id":"levelo_inurba_marseille","lat":43.289307,"lon":5.383992,"is_reserved":false,"is_disabled":false,"rental_uris":{"android":"levelo://app?vid=d1650418-43e3-47a6-995d-08d3b63316b2","ios":"levelo://app?vid=d1650418-43e3-47a6-995d-08d3b63316b2"},"vehicle_type_id":"4","last_reported":1728155237,"current_range_meters":20400,"station_id":"ce4bh612rcd13ifvqe6g","pricing_plan_id":"cebpf4jnsgd1na2vs0mg"},{"bike_id":"505ab9b3-d461-40e6-8c90-5f5b78d9a040","system_id":"levelo_inurba_marseille","lat":43.28465,"lon":5.38438,"is_reserved":false,"is_disabled":false,"rental_uris":{"android":"levelo://app?vid=505ab9b3-d461-40e6-8c90-5f5b78d9a040","ios":"levelo://app?vid=505ab9b3-d461-40e6-8c90-5f5b78d9a040"},"vehicle_type_id":"4","last_reported":1728155237,"current_range_meters":36800,"station_id":"ce4bh512rcd13ifvqe3g","pricing_plan_id":"cebpf4jnsgd1na2vs0mg"},{"bike_id":"f1a31902-bf1f-4725-91b5-b9d9818e5407","system_id":"levelo_inurba_marseille","lat":43.29557,"lon":5.42278,"is_reserved":false,"is_disabled":false,"rental_uris":{"android":"levelo://app?vid=f1a31902-bf1f-4725-91b5-b9d9818e5407","ios":"levelo://app?vid=f1a31902-bf1f-4725-91b5-b9d9818e5407"},"vehicle_type_id":"4","last_reported":1728155237,"current_range_meters":33200,"station_id":"ce4bhph2rcd13ifvqhdg","pricing_plan_id":"cebpf4jnsgd1na2vs0mg"},{"bike_id":"5acad31b-17b6-48f7-866b-ebd9075843c2","system_id":"levelo_inurba_marseille","lat":43.29875,"lon":5.38916,"is_reserved":false,"is_disabled":false,"rental_uris":{"android":"levelo://app?vid=5acad31b-17b6-48f7-866b-ebd9075843c2","ios":"levelo://app?vid=5acad31b-17b6-48f7-866b-ebd9075843c2"},"vehicle_type_id":"4","last_reported":1728155237,"current_range_meters":23200,"station_id":"ce4bh392rcd13ifvqdl0","pricing_plan_id":"cebpf4jnsgd1na2vs0mg"},{"bike_id":"84394f48-0de9-4173-a1a0-805da9922f63","system_id":"levelo_inurba_marseille","lat":43.30787,"lon":5.37662,"is_reserved":false,"is_disabled":false,"rental_uris":{"android":"levelo://app?vid=84394f48-0de9-4173-a1a0-805da9922f63","ios":"levelo://app?vid=84394f48-0de9-4173-a1a0-805da9922f63"},"vehicle_type_id":"4","last_reported":1728155237,"current_range_meters":6800,"station_id":"ce4bgv92rcd13ifvqcq0","pricing_plan_id":"cebpf4jnsgd1na2vs0mg"},{"bike_id":"65824c6a-a2b5-452b-97b2-d4eb0b2fd82c","system_id":"levelo_inurba_marseille","lat":43.31377,"lon":5.38497,"is_reserved":false,"is_disabled":false,"rental_uris":{"android":"levelo://app?vid=65824c6a-a2b5-452b-97b2-d4eb0b2fd82c","ios":"levelo://app?vid=65824c6a-a2b5-452b-97b2-d4eb0b2fd82c"},"vehicle_type_id":"4","last_reported":1728155237,"current_range_meters":29600,"station_id":"ce4bgt92rcd13ifvqcf0","pricing_plan_id":"cebpf4jnsgd1na2vs0mg"},{"bike_id":"1bf82a7f-38de-4ff9-99c6-657a40685e2b","system_id":"levelo_inurba_marseille","lat":43.29596,"lon":5.38114,"is_reserved":false,"is_disabled":false,"rental_uris":{"android":"levelo://app?vid=1bf82a7f-38de-4ff9-99c6-657a40685e2b","ios":"levelo://app?vid=1bf82a7f-38de-4ff9-99c6-657a40685e2b"},"vehicle_type_id":"4","last_reported":1728155237,"current_range_meters":32800,"station_id":"ce4bgl12rcd13ifvqbo0","pricing_plan_id":"cebpf4jnsgd1na2vs0mg"},{"bike_id":"6e723e62-23ca-483f-96ab-3a121205a79b","system_id":"levelo_inurba_marseille","lat":43.34139,"lon":5.40914,"is_reserved":false,"is_disabled":false,"rental_uris":{"android":"levelo://app?vid=6e723e62-23ca-483f-96ab-3a121205a79b","ios":"levelo://app?vid=6e723e62-23ca-483f-96ab-3a121205a79b"},"vehicle_type_id":"4","last_reported":1728155237,"current_range_meters":30000,"station_id":"ce4bhqh2rcd13ifvqhlg","pricing_plan_id":"cebpf4jnsgd1na2vs0mg"},{"bike_id":"933e4f74-5e70-4f46-a0d3-f3ceeb400e4e","system_id":"levelo_inurba_marseille","lat":43.295441,"lon":5.394157,"is_reserved":false,"is_disabled":false,"rental_uris":{"android":"levelo://app?vid=933e4f74-5e70-4f46-a0d3-f3ceeb400e4e","ios":"levelo://app?vid=933e4f74-5e70-4f46-a0d3-f3ceeb400e4e"},"vehicle_type_id":"4","last_reported":1728155237,"current_range_meters":34000,"station_id":"ce4bh292rcd13ifvqdf0","pricing_plan_id":"cebpf4jnsgd1na2vs0mg"},{"bike_id":"6b9a91ec-91de-48ab-ab57-2edc5d204765","system_id":"levelo_inurba_marseille","lat":43.27495,"lon":5.42458,"is_reserved":false,"is_disabled":false,"rental_uris":{"android":"levelo://app?vid=6b9a91ec-91de-48ab-ab57-2edc5d204765","ios":"levelo://app?vid=6b9a91ec-91de-48ab-ab57-2edc5d204765"},"vehicle_type_id":"4","last_reported":1728155237,"current_range_meters":3600,"station_id":"ce4bhn92rcd13ifvqgrg","pricing_plan_id":"cebpf4jnsgd1na2vs0mg"},{"bike_id":"256fa177-60ee-45a2-a2aa-de47baeac3b4","system_id":"levelo_inurba_marseille","lat":43.32063,"lon":5.41559,"is_reserved":false,"is_disabled":false,"rental_uris":{"android":"levelo://app?vid=256fa177-60ee-45a2-a2aa-de47baeac3b4","ios":"levelo://app?vid=256fa177-60ee-45a2-a2aa-de47baeac3b4"},"vehicle_type_id":"4","last_reported":1728155237,"current_range_meters":39200,"station_id":"ce4bhq92rcd13ifvqhkg","pricing_plan_id":"cebpf4jnsgd1na2vs0mg"},{"bike_id":"0151ec56-3dd1-412b-8533-19f331cbde80","system_id":"levelo_inurba_marseille","lat":43.29974,"lon":5.37166,"is_reserved":false,"is_disabled":false,"rental_uris":{"android":"levelo://app?vid=0151ec56-3dd1-412b-8533-19f331cbde80","ios":"levelo://app?vid=0151ec56-3dd1-412b-8533-19f331cbde80"},"vehicle_type_id":"4","last_reported":1728155237,"current_range_meters":12400,"station_id":"ce4bgr92rcd13ifvqc7g","pricing_plan_id":"cebpf4jnsgd1na2vs0mg"},{"bike_id":"df32d2fa-ad6a-4950-b630-47562f1a30bd","system_id":"levelo_inurba_marseille","lat":43.30118,"lon":5.39197,"is_reserved":false,"is_disabled":false,"rental_uris":{"android":"levelo://app?vid=df32d2fa-ad6a-4950-b630-47562f1a30bd","ios":"levelo://app?vid=df32d2fa-ad6a-4950-b630-47562f1a30bd"},"vehicle_type_id":"4","last_reported":1728155237,"current_range_meters":8800,"station_id":"","pricing_plan_id":"cebpf4jnsgd1na2vs0mg"},{"bike_id":"6a116f11-ee86-4b9c-89fb-f428a7e67b07","system_id":"levelo_inurba_marseille","lat":43.290501,"lon":5.359229,"is_reserved":false,"is_disabled":false,"rental_uris":{"android":"levelo://app?vid=6a116f11-ee86-4b9c-89fb-f428a7e67b07","ios":"levelo://app?vid=6a116f11-ee86-4b9c-89fb-f428a7e67b07"},"vehicle_type_id":"4","last_reported":1728155237,"current_range_meters":36800,"station_id":"ce4bha92rcd13ifvqeg0","pricing_plan_id":"cebpf4jnsgd1na2vs0mg"},{"bike_id":"cad8045a-ad31-4c3c-aa6a-df5873232db4","system_id":"levelo_inurba_marseille","lat":43.28477,"lon":5.38424,"is_reserved":false,"is_disabled":false,"rental_uris":{"android":"levelo://app?vid=cad8045a-ad31-4c3c-aa6a-df5873232db4","ios":"levelo://app?vid=cad8045a-ad31-4c3c-aa6a-df5873232db4"},"vehicle_type_id":"4","last_reported":1728155237,"current_range_meters":36800,"station_id":"ce4bh512rcd13ifvqe3g","pricing_plan_id":"cebpf4jnsgd1na2vs0mg"},{"bike_id":"a0c05c07-fdbd-4dd0-bd05-b03a22b9b2a7","system_id":"levelo_inurba_marseille","lat":43.31886,"lon":5.40753,"is_reserved":false,"is_disabled":false,"rental_uris":{"android":"levelo://app?vid=a0c05c07-fdbd-4dd0-bd05-b03a22b9b2a7","ios":"levelo://app?vid=a0c05c07-fdbd-4dd0-bd05-b03a22b9b2a7"},"vehicle_type_id":"4","last_reported":1728155237,"current_range_meters":9200,"station_id":"ce4bhq12rcd13ifvqhig","pricing_plan_id":"cebpf4jnsgd1na2vs0mg"},{"bike_id":"0f2ee7e1-9420-4a65-b0a0-38000617b8d8","system_id":"levelo_inurba_marseille","lat":43.29796,"lon":5.40413,"is_reserved":false,"is_disabled":false,"rental_uris":{"android":"levelo://app?vid=0f2ee7e1-9420-4a65-b0a0-38000617b8d8","ios":"levelo://app?vid=0f2ee7e1-9420-4a65-b0a0-38000617b8d8"},"vehicle_type_id":"4","last_reported":1728155237,"current_range_meters":38800,"station_id":"ce4bh112rcd13ifvqd90","pricing_plan_id":"cebpf4jnsgd1na2vs0mg"},{"bike_id":"c1672db8-4a57-4e1c-b80e-7c613618cbe0","system_id":"levelo_inurba_marseille","lat":43.30068,"lon":5.38715,"is_reserved":false,"is_disabled":false,"rental_uris":{"android":"levelo://app?vid=c1672db8-4a57-4e1c-b80e-7c613618cbe0","ios":"levelo://app?vid=c1672db8-4a57-4e1c-b80e-7c613618cbe0"},"vehicle_type_id":"4","last_reported":1728155237,"current_range_meters":9200,"station_id":"","pricing_plan_id":"cebpf4jnsgd1na2vs0mg"},{"bike_id":"13dfe18d-a4a7-4f94-9d79-d3c27caf95e0","system_id":"levelo_inurba_marseille","lat":43.32292,"lon":5.38279,"is_reserved":false,"is_disabled":false,"rental_uris":{"android":"levelo://app?vid=13dfe18d-a4a7-4f94-9d79-d3c27caf95e0","ios":"levelo://app?vid=13dfe18d-a4a7-4f94-9d79-d3c27caf95e0"},"vehicle_type_id":"4","last_reported":1728155237,"current_range_meters":19200,"station_id":"ce4bhr12rcd13ifvqhqg","pricing_plan_id":"cebpf4jnsgd1na2vs0mg"},{"bike_id":"704d9481-6ec3-47be-8efb-df494f367ab6","system_id":"levelo_inurba_marseille","lat":43.29555,"lon":5.42276,"is_reserved":false,"is_disabled":false,"rental_uris":{"android":"levelo://app?vid=704d9481-6ec3-47be-8efb-df494f367ab6","ios":"levelo://app?vid=704d9481-6ec3-47be-8efb-df494f367ab6"},"vehicle_type_id":"4","last_reported":1728155237,"current_range_meters":38800,"station_id":"ce4bhph2rcd13ifvqhdg","pricing_plan_id":"cebpf4jnsgd1na2vs0mg"},{"bike_id":"200416a1-2985-4900-89b4-42728d50a0e7","system_id":"levelo_inurba_marseille","lat":43.29423,"lon":5.38629,"is_reserved":false,"is_disabled":false,"rental_uris":{"android":"levelo://app?vid=200416a1-2985-4900-89b4-42728d50a0e7","ios":"levelo://app?vid=200416a1-2985-4900-89b4-42728d50a0e7"},"vehicle_type_id":"4","last_reported":1728155237,"current_range_meters":18000,"station_id":"ce4bh2h2rcd13ifvqdh0","pricing_plan_id":"cebpf4jnsgd1na2vs0mg"},{"bike_id":"50664332-acea-42b1-93f9-00345c7cf3b8","system_id":"levelo_inurba_marseille","lat":43.31231,"lon":5.36868,"is_reserved":false,"is_disabled":false,"rental_uris":{"android":"levelo://app?vid=50664332-acea-42b1-93f9-00345c7cf3b8","ios":"levelo://app?vid=50664332-acea-42b1-93f9-00345c7cf3b8"},"vehicle_type_id":"4","last_reported":1728155237,"current_range_meters":6800,"station_id":"ce4bgl92rcd13ifvqbq0","pricing_plan_id":"cebpf4jnsgd1na2vs0mg"},{"bike_id":"fd3fac36-0f62-4b8f-9e9f-151f93b460e5","system_id":"levelo_inurba_marseille","lat":43.282753,"lon":5.350671,"is_reserved":false,"is_disabled":false,"rental_uris":{"android":"levelo://app?vid=fd3fac36-0f62-4b8f-9e9f-151f93b460e5","ios":"levelo://app?vid=fd3fac36-0f62-4b8f-9e9f-151f93b460e5"},"vehicle_type_id":"4","last_reported":1728155237,"current_range_meters":38800,"station_id":"ce4bhbp2rcd13ifvqerg","pricing_plan_id":"cebpf4jnsgd1na2vs0mg"},{"bike_id":"bb5f5452-4b9b-417d-b148-b396a874f3d9","system_id":"levelo_inurba_marseille","lat":43.33767,"lon":5.3743,"is_reserved":false,"is_disabled":false,"rental_uris":{"android":"levelo://app?vid=bb5f5452-4b9b-417d-b148-b396a874f3d9","ios":"levelo://app?vid=bb5f5452-4b9b-417d-b148-b396a874f3d9"},"vehicle_type_id":"4","last_reported":1728155237,"current_range_meters":30400,"station_id":"","pricing_plan_id":"cebpf4jnsgd1na2vs0mg"},{"bike_id":"1bee6c7e-c17b-4735-b064-06cf323da1d0","system_id":"levelo_inurba_marseille","lat":43.29414,"lon":5.38627,"is_reserved":false,"is_disabled":false,"rental_uris":{"android":"levelo://app?vid=1bee6c7e-c17b-4735-b064-06cf323da1d0","ios":"levelo://app?vid=1bee6c7e-c17b-4735-b064-06cf323da1d0"},"vehicle_type_id":"4","last_reported":1728155237,"current_range_meters":38000,"station_id":"ce4bh2h2rcd13ifvqdh0","pricing_plan_id":"cebpf4jnsgd1na2vs0mg"},{"bike_id":"61c924a0-dcdc-43c8-8df1-13027b302538","system_id":"levelo_inurba_marseille","lat":43.28697,"lon":5.39982,"is_reserved":false,"is_disabled":false,"rental_uris":{"android":"levelo://app?vid=61c924a0-dcdc-43c8-8df1-13027b302538","ios":"levelo://app?vid=61c924a0-dcdc-43c8-8df1-13027b302538"},"vehicle_type_id":"4","last_reported":1728155237,"current_range_meters":32000,"station_id":"ce4bho92rcd13ifvqh3g","pricing_plan_id":"cebpf4jnsgd1na2vs0mg"},{"bike_id":"ab83fadf-d068-4c8e-b6a0-a2c4cd43bc9b","system_id":"levelo_inurba_marseille","lat":43.31998,"lon":5.38159,"is_reserved":false,"is_disabled":false,"rental_uris":{"android":"levelo://app?vid=ab83fadf-d068-4c8e-b6a0-a2c4cd43bc9b","ios":"levelo://app?vid=ab83fadf-d068-4c8e-b6a0-a2c4cd43bc9b"},"vehicle_type_id":"4","last_reported":1728155237,"current_range_meters":32400,"station_id":"ce4bhr12rcd13ifvqhpg","pricing_plan_id":"cebpf4jnsgd1na2vs0mg"},{"bike_id":"3b9c8173-c199-4e31-b16a-ade727196e0f","system_id":"levelo_inurba_marseille","lat":43.29526,"lon":5.39406,"is_reserved":false,"is_disabled":false,"rental_uris":{"android":"levelo://app?vid=3b9c8173-c199-4e31-b16a-ade727196e0f","ios":"levelo://app?vid=3b9c8173-c199-4e31-b16a-ade727196e0f"},"vehicle_type_id":"4","last_reported":1728155237,"current_range_meters":35200,"station_id":"ce4bh292rcd13ifvqdf0","pricing_plan_id":"cebpf4jnsgd1na2vs0mg"},{"bike_id":"d5bd4fc9-b596-4a66-8faa-61c6a5dce860","system_id":"levelo_inurba_marseille","lat":43.29897,"lon":5.43679,"is_reserved":false,"is_disabled":false,"rental_uris":{"android":"levelo://app?vid=d5bd4fc9-b596-4a66-8faa-61c6a5dce860","ios":"levelo://app?vid=d5bd4fc9-b596-4a66-8faa-61c6a5dce860"},"vehicle_type_id":"4","last_reported":1728155237,"current_range_meters":25200,"station_id":"ce4bhpp2rcd13ifvqhfg","pricing_plan_id":"cebpf4jnsgd1na2vs0mg"},{"bike_id":"565ca398-4edf-4ea2-8b00-92a40b79c4dc","system_id":"levelo_inurba_marseille","lat":43.28475,"lon":5.38422,"is_reserved":false,"is_disabled":false,"rental_uris":{"android":"levelo://app?vid=565ca398-4edf-4ea2-8b00-92a40b79c4dc","ios":"levelo://app?vid=565ca398-4edf-4ea2-8b00-92a40b79c4dc"},"vehicle_type_id":"4","last_reported":1728155237,"current_range_meters":28800,"station_id":"ce4bh512rcd13ifvqe3g","pricing_plan_id":"cebpf4jnsgd1na2vs0mg"},{"bike_id":"3fcbd708-2b74-42ae-a074-adfc6842b05d","system_id":"levelo_inurba_marseille","lat":43.29256,"lon":5.38445,"is_reserved":false,"is_disabled":false,"rental_uris":{"android":"levelo://app?vid=3fcbd708-2b74-42ae-a074-adfc6842b05d","ios":"levelo://app?vid=3fcbd708-2b74-42ae-a074-adfc6842b05d"},"vehicle_type_id":"4","last_reported":1728155237,"current_range_meters":36000,"station_id":"ce4bh692rcd13ifvqea0","pricing_plan_id":"cebpf4jnsgd1na2vs0mg"},{"bike_id":"5c1f8f93-0917-439b-885c-78f73bc9878e","system_id":"levelo_inurba_marseille","lat":43.27499,"lon":5.42636,"is_reserved":false,"is_disabled":false,"rental_uris":{"android":"levelo://app?vid=5c1f8f93-0917-439b-885c-78f73bc9878e","ios":"levelo://app?vid=5c1f8f93-0917-439b-885c-78f73bc9878e"},"vehicle_type_id":"4","last_reported":1728155237,"current_range_meters":4800,"station_id":"ce4bhn92rcd13ifvqgrg","pricing_plan_id":"cebpf4jnsgd1na2vs0mg"},{"bike_id":"60185539-8fce-4702-94e7-a5580423f55b","system_id":"levelo_inurba_marseille","lat":43.30297,"lon":5.39219,"is_reserved":false,"is_disabled":false,"rental_uris":{"android":"levelo://app?vid=60185539-8fce-4702-94e7-a5580423f55b","ios":"levelo://app?vid=60185539-8fce-4702-94e7-a5580423f55b"},"vehicle_type_id":"4","last_reported":1728155237,"current_range_meters":32800,"station_id":"ce4bgkh2rcd13ifvqbk0","pricing_plan_id":"cebpf4jnsgd1na2vs0mg"},{"bike_id":"7ac3a4e3-f2c5-4c0a-a636-b03352114398","system_id":"levelo_inurba_marseille","lat":43.29958,"lon":5.38507,"is_reserved":false,"is_disabled":false,"rental_uris":{"android":"levelo://app?vid=7ac3a4e3-f2c5-4c0a-a636-b03352114398","ios":"levelo://app?vid=7ac3a4e3-f2c5-4c0a-a636-b03352114398"},"vehicle_type_id":"4","last_reported":1728155237,"current_range_meters":34000,"station_id":"ce4bgj92rcd13ifvqbd0","pricing_plan_id":"cebpf4jnsgd1na2vs0mg"},{"bike_id":"10532e50-ff12-44db-a411-a828ff12c790","system_id":"levelo_inurba_marseille","lat":43.27901,"lon":5.38003,"is_reserved":false,"is_disabled":false,"rental_uris":{"android":"levelo://app?vid=10532e50-ff12-44db-a411-a828ff12c790","ios":"levelo://app?vid=10532e50-ff12-44db-a411-a828ff12c790"},"vehicle_type_id":"4","last_reported":1728155237,"current_range_meters":13600,"station_id":"ce4bhf92rcd13ifvqf50","pricing_plan_id":"cebpf4jnsgd1na2vs0mg"},{"bike_id":"e037b841-4499-4718-8a7d-f1079e1b57ed","system_id":"levelo_inurba_marseille","lat":43.29879,"lon":5.38912,"is_reserved":false,"is_disabled":false,"rental_uris":{"android":"levelo://app?vid=e037b841-4499-4718-8a7d-f1079e1b57ed","ios":"levelo://app?vid=e037b841-4499-4718-8a7d-f1079e1b57ed"},"vehicle_type_id":"4","last_reported":1728155237,"current_range_meters":7200,"station_id":"ce4bh392rcd13ifvqdl0","pricing_plan_id":"cebpf4jnsgd1na2vs0mg"},{"bike_id":"010a0011-a2b1-4e4e-a99c-cd9428e04259","system_id":"levelo_inurba_marseille","lat":43.29169,"lon":5.37166,"is_reserved":false,"is_disabled":false,"rental_uris":{"android":"levelo://app?vid=010a0011-a2b1-4e4e-a99c-cd9428e04259","ios":"levelo://app?vid=010a0011-a2b1-4e4e-a99c-cd9428e04259"},"vehicle_type_id":"4","last_reported":1728155237,"current_range_meters":38800,"station_id":"ce4bha92rcd13ifvqeh0","pricing_plan_id":"cebpf4jnsgd1na2vs0mg"},{"bike_id":"d1c22bff-dd8f-4c55-9db0-fa59411a2072","system_id":"levelo_inurba_marseille","lat":43.31359,"lon":5.36719,"is_reserved":false,"is_disabled":false,"rental_uris":{"android":"levelo://app?vid=d1c22bff-dd8f-4c55-9db0-fa59411a2072","ios":"levelo://app?vid=d1c22bff-dd8f-4c55-9db0-fa59411a2072"},"vehicle_type_id":"4","last_reported":1728155237,"current_range_meters":31200,"station_id":"ce4bgr92rcd13ifvqc6g","pricing_plan_id":"cebpf4jnsgd1na2vs0mg"},{"bike_id":"72ef6c7d-a50c-4638-abb6-a9fbb1272ecf","system_id":"levelo_inurba_marseille","lat":43.30896,"lon":5.39663,"is_reserved":false,"is_disabled":false,"rental_uris":{"android":"levelo://app?vid=72ef6c7d-a50c-4638-abb6-a9fbb1272ecf","ios":"levelo://app?vid=72ef6c7d-a50c-4638-abb6-a9fbb1272ecf"},"vehicle_type_id":"4","last_reported":1728155237,"current_range_meters":15200,"station_id":"ce4bh012rcd13ifvqcv0","pricing_plan_id":"cebpf4jnsgd1na2vs0mg"},{"bike_id":"868601ed-a7fc-4b8f-9ece-134601803092","system_id":"levelo_inurba_marseille","lat":43.29701,"lon":5.36628,"is_reserved":false,"is_disabled":false,"rental_uris":{"android":"levelo://app?vid=868601ed-a7fc-4b8f-9ece-134601803092","ios":"levelo://app?vid=868601ed-a7fc-4b8f-9ece-134601803092"},"vehicle_type_id":"4","last_reported":1728155237,"current_range_meters":4000,"station_id":"ce4bgn12rcd13ifvqbt0","pricing_plan_id":"cebpf4jnsgd1na2vs0mg"},{"bike_id":"97caffac-7c8a-4334-b965-8313481ce6d7","system_id":"levelo_inurba_marseille","lat":43.31736,"lon":5.37322,"is_reserved":false,"is_disabled":false,"rental_uris":{"android":"levelo://app?vid=97caffac-7c8a-4334-b965-8313481ce6d7","ios":"levelo://app?vid=97caffac-7c8a-4334-b965-8313481ce6d7"},"vehicle_type_id":"4","last_reported":1728155237,"current_range_meters":28000,"station_id":"","pricing_plan_id":"cebpf4jnsgd1na2vs0mg"},{"bike_id":"7b18ad98-bdc4-4d75-bdcc-8057a20e7835","system_id":"levelo_inurba_marseille","lat":43.301331,"lon":5.398668,"is_reserved":false,"is_disabled":false,"rental_uris":{"android":"levelo://app?vid=7b18ad98-bdc4-4d75-bdcc-8057a20e7835","ios":"levelo://app?vid=7b18ad98-bdc4-4d75-bdcc-8057a20e7835"},"vehicle_type_id":"4","last_reported":1728155237,"current_range_meters":13600,"station_id":"ce4bh0h2rcd13ifvqd40","pricing_plan_id":"cebpf4jnsgd1na2vs0mg"},{"bike_id":"5e9722b9-527e-4896-955a-569ed40eb913","system_id":"levelo_inurba_marseille","lat":43.3211,"lon":5.36777,"is_reserved":false,"is_disabled":false,"rental_uris":{"android":"levelo://app?vid=5e9722b9-527e-4896-955a-569ed40eb913","ios":"levelo://app?vid=5e9722b9-527e-4896-955a-569ed40eb913"},"vehicle_type_id":"4","last_reported":1728155237,"current_range_meters":28800,"station_id":"ce4bhrh2rcd13ifvqhug","pricing_plan_id":"cebpf4jnsgd1na2vs0mg"},{"bike_id":"cb2241e2-b262-45d8-abdf-715c958d7640","system_id":"levelo_inurba_marseille","lat":43.28269,"lon":5.35077,"is_reserved":false,"is_disabled":false,"rental_uris":{"android":"levelo://app?vid=cb2241e2-b262-45d8-abdf-715c958d7640","ios":"levelo://app?vid=cb2241e2-b262-45d8-abdf-715c958d7640"},"vehicle_type_id":"4","last_reported":1728155237,"current_range_meters":38800,"station_id":"ce4bhbp2rcd13ifvqerg","pricing_plan_id":"cebpf4jnsgd1na2vs0mg"},{"bike_id":"29684462-5776-4a54-9de6-de2413a937b3","system_id":"levelo_inurba_marseille","lat":43.27569,"lon":5.38427,"is_reserved":false,"is_disabled":false,"rental_uris":{"android":"levelo://app?vid=29684462-5776-4a54-9de6-de2413a937b3","ios":"levelo://app?vid=29684462-5776-4a54-9de6-de2413a937b3"},"vehicle_type_id":"4","last_reported":1728155237,"current_range_meters":39200,"station_id":"ce4bhh92rcd13ifvqfi0","pricing_plan_id":"cebpf4jnsgd1na2vs0mg"},{"bike_id":"8f333e64-a742-4f16-9e41-4e5404724006","system_id":"levelo_inurba_marseille","lat":43.31234,"lon":5.36862,"is_reserved":false,"is_disabled":false,"rental_uris":{"android":"levelo://app?vid=8f333e64-a742-4f16-9e41-4e5404724006","ios":"levelo://app?vid=8f333e64-a742-4f16-9e41-4e5404724006"},"vehicle_type_id":"4","last_reported":1728155237,"current_range_meters":27200,"station_id":"ce4bgl92rcd13ifvqbq0","pricing_plan_id":"cebpf4jnsgd1na2vs0mg"},{"bike_id":"50a956b6-adfe-4c26-b440-317ca995fc06","system_id":"levelo_inurba_marseille","lat":43.28858,"lon":5.35873,"is_reserved":false,"is_disabled":false,"rental_uris":{"android":"levelo://app?vid=50a956b6-adfe-4c26-b440-317ca995fc06","ios":"levelo://app?vid=50a956b6-adfe-4c26-b440-317ca995fc06"},"vehicle_type_id":"4","last_reported":1728155237,"current_range_meters":38400,"station_id":"ce4bhb12rcd13ifvqem0","pricing_plan_id":"cebpf4jnsgd1na2vs0mg"},{"bike_id":"78cfcc3c-2061-4c54-8e9a-c4d9b3a845c4","system_id":"levelo_inurba_marseille","lat":43.29553,"lon":5.423,"is_reserved":false,"is_disabled":false,"rental_uris":{"android":"levelo://app?vid=78cfcc3c-2061-4c54-8e9a-c4d9b3a845c4","ios":"levelo://app?vid=78cfcc3c-2061-4c54-8e9a-c4d9b3a845c4"},"vehicle_type_id":"4","last_reported":1728155237,"current_range_meters":11200,"station_id":"ce4bhph2rcd13ifvqhdg","pricing_plan_id":"cebpf4jnsgd1na2vs0mg"},{"bike_id":"c7741dda-522d-4da7-83bc-92f93d33ab57","system_id":"levelo_inurba_marseille","lat":43.31225,"lon":5.36864,"is_reserved":false,"is_disabled":false,"rental_uris":{"android":"levelo://app?vid=c7741dda-522d-4da7-83bc-92f93d33ab57","ios":"levelo://app?vid=c7741dda-522d-4da7-83bc-92f93d33ab57"},"vehicle_type_id":"4","last_reported":1728155237,"current_range_meters":10000,"station_id":"ce4bgl92rcd13ifvqbq0","pricing_plan_id":"cebpf4jnsgd1na2vs0mg"},{"bike_id":"a0867223-e2cf-49a2-bb70-12696eadfb28","system_id":"levelo_inurba_marseille","lat":43.29556,"lon":5.42287,"is_reserved":false,"is_disabled":false,"rental_uris":{"android":"levelo://app?vid=a0867223-e2cf-49a2-bb70-12696eadfb28","ios":"levelo://app?vid=a0867223-e2cf-49a2-bb70-12696eadfb28"},"vehicle_type_id":"4","last_reported":1728155237,"current_range_meters":38400,"station_id":"ce4bhph2rcd13ifvqhdg","pricing_plan_id":"cebpf4jnsgd1na2vs0mg"},{"bike_id":"9c88caaf-444f-4628-8d8a-84c6a5110b9d","system_id":"levelo_inurba_marseille","lat":43.28858,"lon":5.35861,"is_reserved":false,"is_disabled":false,"rental_uris":{"android":"levelo://app?vid=9c88caaf-444f-4628-8d8a-84c6a5110b9d","ios":"levelo://app?vid=9c88caaf-444f-4628-8d8a-84c6a5110b9d"},"vehicle_type_id":"4","last_reported":1728155237,"current_range_meters":7200,"station_id":"ce4bhb12rcd13ifvqem0","pricing_plan_id":"cebpf4jnsgd1na2vs0mg"},{"bike_id":"fa5169dc-e654-4b08-8d0c-5a4caeb11412","system_id":"levelo_inurba_marseille","lat":43.30324,"lon":5.39426,"is_reserved":false,"is_disabled":false,"rental_uris":{"android":"levelo://app?vid=fa5169dc-e654-4b08-8d0c-5a4caeb11412","ios":"levelo://app?vid=fa5169dc-e654-4b08-8d0c-5a4caeb11412"},"vehicle_type_id":"4","last_reported":1728155237,"current_range_meters":38800,"station_id":"","pricing_plan_id":"cebpf4jnsgd1na2vs0mg"},{"bike_id":"68257082-e4ff-48a4-8d6f-d837798e398e","system_id":"levelo_inurba_marseille","lat":43.28454,"lon":5.39206,"is_reserved":false,"is_disabled":false,"rental_uris":{"android":"levelo://app?vid=68257082-e4ff-48a4-8d6f-d837798e398e","ios":"levelo://app?vid=68257082-e4ff-48a4-8d6f-d837798e398e"},"vehicle_type_id":"4","last_reported":1728155237,"current_range_meters":17600,"station_id":"ce4bhoh2rcd13ifvqh5g","pricing_plan_id":"cebpf4jnsgd1na2vs0mg"},{"bike_id":"a80daa0a-80a2-4e2d-80cd-a8358d1b1d90","system_id":"levelo_inurba_marseille","lat":43.30147,"lon":5.38789,"is_reserved":false,"is_disabled":false,"rental_uris":{"android":"levelo://app?vid=a80daa0a-80a2-4e2d-80cd-a8358d1b1d90","ios":"levelo://app?vid=a80daa0a-80a2-4e2d-80cd-a8358d1b1d90"},"vehicle_type_id":"4","last_reported":1728155237,"current_range_meters":38000,"station_id":"ce4bghh2rcd13ifvqb60","pricing_plan_id":"cebpf4jnsgd1na2vs0mg"},{"bike_id":"918bd780-5919-40f1-9036-be659990caaf","system_id":"levelo_inurba_marseille","lat":43.29218,"lon":5.39317,"is_reserved":false,"is_disabled":false,"rental_uris":{"android":"levelo://app?vid=918bd780-5919-40f1-9036-be659990caaf","ios":"levelo://app?vid=918bd780-5919-40f1-9036-be659990caaf"},"vehicle_type_id":"4","last_reported":1728155237,"current_range_meters":30000,"station_id":"ce4bh192rcd13ifvqdd0","pricing_plan_id":"cebpf4jnsgd1na2vs0mg"},{"bike_id":"a96a45da-393a-40d4-bbcd-97b3ac7d3399","system_id":"levelo_inurba_marseille","lat":43.29037,"lon":5.38649,"is_reserved":false,"is_disabled":false,"rental_uris":{"android":"levelo://app?vid=a96a45da-393a-40d4-bbcd-97b3ac7d3399","ios":"levelo://app?vid=a96a45da-393a-40d4-bbcd-97b3ac7d3399"},"vehicle_type_id":"4","last_reported":1728155237,"current_range_meters":37600,"station_id":"ce4bh4p2rcd13ifvqe0g","pricing_plan_id":"cebpf4jnsgd1na2vs0mg"},{"bike_id":"b246900a-4f4a-452b-8229-25bfc48fb398","system_id":"levelo_inurba_marseille","lat":43.295807,"lon":5.3751,"is_reserved":false,"is_disabled":false,"rental_uris":{"android":"levelo://app?vid=b246900a-4f4a-452b-8229-25bfc48fb398","ios":"levelo://app?vid=b246900a-4f4a-452b-8229-25bfc48fb398"},"vehicle_type_id":"4","last_reported":1728155237,"current_range_meters":31200,"station_id":"ce4bgh92rcd13ifvqb50","pricing_plan_id":"cebpf4jnsgd1na2vs0mg"},{"bike_id":"a88de313-6a6c-466a-8431-ca561f3e0c73","system_id":"levelo_inurba_marseille","lat":43.32111,"lon":5.36766,"is_reserved":false,"is_disabled":false,"rental_uris":{"android":"levelo://app?vid=a88de313-6a6c-466a-8431-ca561f3e0c73","ios":"levelo://app?vid=a88de313-6a6c-466a-8431-ca561f3e0c73"},"vehicle_type_id":"4","last_reported":1728155237,"current_range_meters":9200,"station_id":"ce4bhrh2rcd13ifvqhug","pricing_plan_id":"cebpf4jnsgd1na2vs0mg"},{"bike_id":"6829d603-a01d-4d3c-a7f3-c6cd19ab4689","system_id":"levelo_inurba_marseille","lat":43.29305,"lon":5.37464,"is_reserved":false,"is_disabled":false,"rental_uris":{"android":"levelo://app?vid=6829d603-a01d-4d3c-a7f3-c6cd19ab4689","ios":"levelo://app?vid=6829d603-a01d-4d3c-a7f3-c6cd19ab4689"},"vehicle_type_id":"4","last_reported":1728155237,"current_range_meters":26800,"station_id":"ce4bgi12rcd13ifvqb70","pricing_plan_id":"cebpf4jnsgd1na2vs0mg"},{"bike_id":"57404f81-9bbf-4801-926b-58431093b8a9","system_id":"levelo_inurba_marseille","lat":43.313489,"lon":5.366979,"is_reserved":false,"is_disabled":false,"rental_uris":{"android":"levelo://app?vid=57404f81-9bbf-4801-926b-58431093b8a9","ios":"levelo://app?vid=57404f81-9bbf-4801-926b-58431093b8a9"},"vehicle_type_id":"4","last_reported":1728155237,"current_range_meters":12800,"station_id":"ce4bgr92rcd13ifvqc6g","pricing_plan_id":"cebpf4jnsgd1na2vs0mg"},{"bike_id":"052592a8-5968-415b-a743-f61154a62db2","system_id":"levelo_inurba_marseille","lat":43.28719,"lon":5.37946,"is_reserved":false,"is_disabled":false,"rental_uris":{"android":"levelo://app?vid=052592a8-5968-415b-a743-f61154a62db2","ios":"levelo://app?vid=052592a8-5968-415b-a743-f61154a62db2"},"vehicle_type_id":"4","last_reported":1728155237,"current_range_meters":10800,"station_id":"ce4bh9p2rcd13ifvqec0","pricing_plan_id":"cebpf4jnsgd1na2vs0mg"},{"bike_id":"0b1b9850-405b-4638-ae9c-f49960152071","system_id":"levelo_inurba_marseille","lat":43.31711,"lon":5.43714,"is_reserved":false,"is_disabled":false,"rental_uris":{"android":"levelo://app?vid=0b1b9850-405b-4638-ae9c-f49960152071","ios":"levelo://app?vid=0b1b9850-405b-4638-ae9c-f49960152071"},"vehicle_type_id":"4","last_reported":1728155237,"current_range_meters":16000,"station_id":"ce4bhp92rcd13ifvqhcg","pricing_plan_id":"cebpf4jnsgd1na2vs0mg"},{"bike_id":"9a0e12dd-8157-43af-95de-4c4aa779fc52","system_id":"levelo_inurba_marseille","lat":43.2318,"lon":5.39991,"is_reserved":false,"is_disabled":false,"rental_uris":{"android":"levelo://app?vid=9a0e12dd-8157-43af-95de-4c4aa779fc52","ios":"levelo://app?vid=9a0e12dd-8157-43af-95de-4c4aa779fc52"},"vehicle_type_id":"4","last_reported":1728155237,"current_range_meters":11600,"station_id":"ce4bhn12rcd13ifvqgqg","pricing_plan_id":"cebpf4jnsgd1na2vs0mg"},{"bike_id":"4e0c83a2-b0c3-4894-8559-e509681998d3","system_id":"levelo_inurba_marseille","lat":43.31134,"lon":5.38337,"is_reserved":false,"is_disabled":false,"rental_uris":{"android":"levelo://app?vid=4e0c83a2-b0c3-4894-8559-e509681998d3","ios":"levelo://app?vid=4e0c83a2-b0c3-4894-8559-e509681998d3"},"vehicle_type_id":"4","last_reported":1728155237,"current_range_meters":14800,"station_id":"","pricing_plan_id":"cebpf4jnsgd1na2vs0mg"},{"bike_id":"6af29806-47b6-4985-966f-7e091b704e6e","system_id":"levelo_inurba_marseille","lat":43.31875,"lon":5.40741,"is_reserved":false,"is_disabled":false,"rental_uris":{"android":"levelo://app?vid=6af29806-47b6-4985-966f-7e091b704e6e","ios":"levelo://app?vid=6af29806-47b6-4985-966f-7e091b704e6e"},"vehicle_type_id":"4","last_reported":1728155237,"current_range_meters":14400,"station_id":"ce4bhq12rcd13ifvqhig","pricing_plan_id":"cebpf4jnsgd1na2vs0mg"},{"bike_id":"ec0f6e18-8dcb-4ba1-9f4d-468854fad27d","system_id":"levelo_inurba_marseille","lat":43.32337,"lon":5.38521,"is_reserved":false,"is_disabled":false,"rental_uris":{"android":"levelo://app?vid=ec0f6e18-8dcb-4ba1-9f4d-468854fad27d","ios":"levelo://app?vid=ec0f6e18-8dcb-4ba1-9f4d-468854fad27d"},"vehicle_type_id":"4","last_reported":1728155237,"current_range_meters":8000,"station_id":"","pricing_plan_id":"cebpf4jnsgd1na2vs0mg"},{"bike_id":"25c976b4-25a3-42da-9904-c0b766dbada2","system_id":"levelo_inurba_marseille","lat":43.319143,"lon":5.407935,"is_reserved":false,"is_disabled":false,"rental_uris":{"android":"levelo://app?vid=25c976b4-25a3-42da-9904-c0b766dbada2","ios":"levelo://app?vid=25c976b4-25a3-42da-9904-c0b766dbada2"},"vehicle_type_id":"4","last_reported":1728155237,"current_range_meters":7200,"station_id":"ce4bhq12rcd13ifvqhig","pricing_plan_id":"cebpf4jnsgd1na2vs0mg"},{"bike_id":"f1f046b7-a022-4c08-92e7-2badecdc6671","system_id":"levelo_inurba_marseille","lat":43.27981,"lon":5.38758,"is_reserved":false,"is_disabled":false,"rental_uris":{"android":"levelo://app?vid=f1f046b7-a022-4c08-92e7-2badecdc6671","ios":"levelo://app?vid=f1f046b7-a022-4c08-92e7-2badecdc6671"},"vehicle_type_id":"4","last_reported":1728155237,"current_range_meters":6800,"station_id":"ce4bhg12rcd13ifvqf80","pricing_plan_id":"cebpf4jnsgd1na2vs0mg"},{"bike_id":"60accd82-55b7-4577-9c32-ccc4b335c3c1","system_id":"levelo_inurba_marseille","lat":43.29936,"lon":5.36539,"is_reserved":false,"is_disabled":false,"rental_uris":{"android":"levelo://app?vid=60accd82-55b7-4577-9c32-ccc4b335c3c1","ios":"levelo://app?vid=60accd82-55b7-4577-9c32-ccc4b335c3c1"},"vehicle_type_id":"4","last_reported":1728155237,"current_range_meters":37600,"station_id":"ce4bgm92rcd13ifvqbr0","pricing_plan_id":"cebpf4jnsgd1na2vs0mg"},{"bike_id":"89c7c315-2b11-4892-ac3e-9f3021b7e63e","system_id":"levelo_inurba_marseille","lat":43.29127,"lon":5.38247,"is_reserved":false,"is_disabled":false,"rental_uris":{"android":"levelo://app?vid=89c7c315-2b11-4892-ac3e-9f3021b7e63e","ios":"levelo://app?vid=89c7c315-2b11-4892-ac3e-9f3021b7e63e"},"vehicle_type_id":"4","last_reported":1728155237,"current_range_meters":32400,"station_id":"ce4bh512rcd13ifvqe2g","pricing_plan_id":"cebpf4jnsgd1na2vs0mg"},{"bike_id":"1f3e6bd2-25e8-4cc4-81db-105459b44b0e","system_id":"levelo_inurba_marseille","lat":43.29307,"lon":5.37176,"is_reserved":false,"is_disabled":false,"rental_uris":{"android":"levelo://app?vid=1f3e6bd2-25e8-4cc4-81db-105459b44b0e","ios":"levelo://app?vid=1f3e6bd2-25e8-4cc4-81db-105459b44b0e"},"vehicle_type_id":"4","last_reported":1728155237,"current_range_meters":6800,"station_id":"ce4bgh92rcd13ifvqb40","pricing_plan_id":"cebpf4jnsgd1na2vs0mg"},{"bike_id":"8e904ab6-6b68-4b67-85e1-bb2a70b9c8c0","system_id":"levelo_inurba_marseille","lat":43.29563,"lon":5.3751,"is_reserved":false,"is_disabled":false,"rental_uris":{"android":"levelo://app?vid=8e904ab6-6b68-4b67-85e1-bb2a70b9c8c0","ios":"levelo://app?vid=8e904ab6-6b68-4b67-85e1-bb2a70b9c8c0"},"vehicle_type_id":"4","last_reported":1728155237,"current_range_meters":30400,"station_id":"ce4bgh92rcd13ifvqb50","pricing_plan_id":"cebpf4jnsgd1na2vs0mg"},{"bike_id":"cd08a13c-cf4a-485d-8f71-83750f301330","system_id":"levelo_inurba_marseille","lat":43.29039,"lon":5.37567,"is_reserved":false,"is_disabled":false,"rental_uris":{"android":"levelo://app?vid=cd08a13c-cf4a-485d-8f71-83750f301330","ios":"levelo://app?vid=cd08a13c-cf4a-485d-8f71-83750f301330"},"vehicle_type_id":"4","last_reported":1728155237,"current_range_meters":20800,"station_id":"ce4bh692rcd13ifvqe90","pricing_plan_id":"cebpf4jnsgd1na2vs0mg"},{"bike_id":"0135621d-8566-489b-99be-c2a66e09c3bd","system_id":"levelo_inurba_marseille","lat":43.30422,"lon":5.41281,"is_reserved":false,"is_disabled":false,"rental_uris":{"android":"levelo://app?vid=0135621d-8566-489b-99be-c2a66e09c3bd","ios":"levelo://app?vid=0135621d-8566-489b-99be-c2a66e09c3bd"},"vehicle_type_id":"4","last_reported":1728155237,"current_range_meters":13600,"station_id":"ce4bhop2rcd13ifvqh8g","pricing_plan_id":"cebpf4jnsgd1na2vs0mg"},{"bike_id":"2df6ce1d-d892-48d0-b874-b3690911a81a","system_id":"levelo_inurba_marseille","lat":43.30428,"lon":5.41286,"is_reserved":false,"is_disabled":false,"rental_uris":{"android":"levelo://app?vid=2df6ce1d-d892-48d0-b874-b3690911a81a","ios":"levelo://app?vid=2df6ce1d-d892-48d0-b874-b3690911a81a"},"vehicle_type_id":"4","last_reported":1728155237,"current_range_meters":9200,"station_id":"ce4bhop2rcd13ifvqh8g","pricing_plan_id":"cebpf4jnsgd1na2vs0mg"},{"bike_id":"342316ae-28ec-4a00-9fef-57766c633440","system_id":"levelo_inurba_marseille","lat":43.31343,"lon":5.36712,"is_reserved":false,"is_disabled":false,"rental_uris":{"android":"levelo://app?vid=342316ae-28ec-4a00-9fef-57766c633440","ios":"levelo://app?vid=342316ae-28ec-4a00-9fef-57766c633440"},"vehicle_type_id":"4","last_reported":1728155237,"current_range_meters":28400,"station_id":"ce4bgr92rcd13ifvqc6g","pricing_plan_id":"cebpf4jnsgd1na2vs0mg"},{"bike_id":"119dc160-3d55-4d7b-b0c2-df9c8c95db76","system_id":"levelo_inurba_marseille","lat":43.29518,"lon":5.39046,"is_reserved":false,"is_disabled":false,"rental_uris":{"android":"levelo://app?vid=119dc160-3d55-4d7b-b0c2-df9c8c95db76","ios":"levelo://app?vid=119dc160-3d55-4d7b-b0c2-df9c8c95db76"},"vehicle_type_id":"4","last_reported":1728155237,"current_range_meters":38800,"station_id":"ce4bh3p2rcd13ifvqdp0","pricing_plan_id":"cebpf4jnsgd1na2vs0mg"},{"bike_id":"af8fcb77-74bb-46ab-a02e-5017cb4760cd","system_id":"levelo_inurba_marseille","lat":43.29301,"lon":5.37452,"is_reserved":false,"is_disabled":false,"rental_uris":{"android":"levelo://app?vid=af8fcb77-74bb-46ab-a02e-5017cb4760cd","ios":"levelo://app?vid=af8fcb77-74bb-46ab-a02e-5017cb4760cd"},"vehicle_type_id":"4","last_reported":1728155237,"current_range_meters":38000,"station_id":"ce4bgi12rcd13ifvqb70","pricing_plan_id":"cebpf4jnsgd1na2vs0mg"},{"bike_id":"bdefae95-7cc5-4880-bfcb-b1af39586be0","system_id":"levelo_inurba_marseille","lat":43.32662,"lon":5.40995,"is_reserved":false,"is_disabled":false,"rental_uris":{"android":"levelo://app?vid=bdefae95-7cc5-4880-bfcb-b1af39586be0","ios":"levelo://app?vid=bdefae95-7cc5-4880-bfcb-b1af39586be0"},"vehicle_type_id":"4","last_reported":1728155237,"current_range_meters":38800,"station_id":"ce4bhpp2rcd13ifvqhgg","pricing_plan_id":"cebpf4jnsgd1na2vs0mg"},{"bike_id":"112ae88d-7ced-419d-a8ad-131d16c4886c","system_id":"levelo_inurba_marseille","lat":43.31237,"lon":5.36873,"is_reserved":false,"is_disabled":false,"rental_uris":{"android":"levelo://app?vid=112ae88d-7ced-419d-a8ad-131d16c4886c","ios":"levelo://app?vid=112ae88d-7ced-419d-a8ad-131d16c4886c"},"vehicle_type_id":"4","last_reported":1728155237,"current_range_meters":6400,"station_id":"ce4bgl92rcd13ifvqbq0","pricing_plan_id":"cebpf4jnsgd1na2vs0mg"},{"bike_id":"7cfddf95-163a-471b-a8a5-602ec645f4d7","system_id":"levelo_inurba_marseille","lat":43.31239,"lon":5.36877,"is_reserved":false,"is_disabled":false,"rental_uris":{"android":"levelo://app?vid=7cfddf95-163a-471b-a8a5-602ec645f4d7","ios":"levelo://app?vid=7cfddf95-163a-471b-a8a5-602ec645f4d7"},"vehicle_type_id":"4","last_reported":1728155237,"current_range_meters":18800,"station_id":"ce4bgl92rcd13ifvqbq0","pricing_plan_id":"cebpf4jnsgd1na2vs0mg"},{"bike_id":"0bf9e47e-24f9-4f43-be92-506695954c65","system_id":"levelo_inurba_marseille","lat":43.30899,"lon":5.36849,"is_reserved":false,"is_disabled":false,"rental_uris":{"android":"levelo://app?vid=0bf9e47e-24f9-4f43-be92-506695954c65","ios":"levelo://app?vid=0bf9e47e-24f9-4f43-be92-506695954c65"},"vehicle_type_id":"4","last_reported":1728155237,"current_range_meters":27600,"station_id":"ce4bgn92rcd13ifvqbvg","pricing_plan_id":"cebpf4jnsgd1na2vs0mg"},{"bike_id":"e03c9d0c-17ae-4003-b903-fd8aa9951041","system_id":"levelo_inurba_marseille","lat":43.33743,"lon":5.37449,"is_reserved":false,"is_disabled":false,"rental_uris":{"android":"levelo://app?vid=e03c9d0c-17ae-4003-b903-fd8aa9951041","ios":"levelo://app?vid=e03c9d0c-17ae-4003-b903-fd8aa9951041"},"vehicle_type_id":"4","last_reported":1728155237,"current_range_meters":38000,"station_id":"","pricing_plan_id":"cebpf4jnsgd1na2vs0mg"},{"bike_id":"921d4b62-35bc-47cb-9b7f-6ab469803551","system_id":"levelo_inurba_marseille","lat":43.30799,"lon":5.43527,"is_reserved":false,"is_disabled":false,"rental_uris":{"android":"levelo://app?vid=921d4b62-35bc-47cb-9b7f-6ab469803551","ios":"levelo://app?vid=921d4b62-35bc-47cb-9b7f-6ab469803551"},"vehicle_type_id":"4","last_reported":1728155237,"current_range_meters":18000,"station_id":"ce4bhph2rcd13ifvqheg","pricing_plan_id":"cebpf4jnsgd1na2vs0mg"},{"bike_id":"255efb5f-d90d-4ff7-aead-6c8d8f75a799","system_id":"levelo_inurba_marseille","lat":43.29425,"lon":5.3863,"is_reserved":false,"is_disabled":false,"rental_uris":{"android":"levelo://app?vid=255efb5f-d90d-4ff7-aead-6c8d8f75a799","ios":"levelo://app?vid=255efb5f-d90d-4ff7-aead-6c8d8f75a799"},"vehicle_type_id":"4","last_reported":1728155237,"current_range_meters":38400,"station_id":"ce4bh2h2rcd13ifvqdh0","pricing_plan_id":"cebpf4jnsgd1na2vs0mg"},{"bike_id":"446dbbe9-6d99-49b4-b6b0-694cb76edf7c","system_id":"levelo_inurba_marseille","lat":43.29425,"lon":5.38628,"is_reserved":false,"is_disabled":false,"rental_uris":{"android":"levelo://app?vid=446dbbe9-6d99-49b4-b6b0-694cb76edf7c","ios":"levelo://app?vid=446dbbe9-6d99-49b4-b6b0-694cb76edf7c"},"vehicle_type_id":"4","last_reported":1728155237,"current_range_meters":38800,"station_id":"ce4bh2h2rcd13ifvqdh0","pricing_plan_id":"cebpf4jnsgd1na2vs0mg"},{"bike_id":"9e1da660-71e6-4657-964e-172c416d2033","system_id":"levelo_inurba_marseille","lat":43.29418,"lon":5.3863,"is_reserved":false,"is_disabled":false,"rental_uris":{"android":"levelo://app?vid=9e1da660-71e6-4657-964e-172c416d2033","ios":"levelo://app?vid=9e1da660-71e6-4657-964e-172c416d2033"},"vehicle_type_id":"4","last_reported":1728155237,"current_range_meters":8800,"station_id":"ce4bh2h2rcd13ifvqdh0","pricing_plan_id":"cebpf4jnsgd1na2vs0mg"},{"bike_id":"954c0a78-f2ce-4e32-ab87-edcb8ca5e8d6","system_id":"levelo_inurba_marseille","lat":43.3136,"lon":5.36703,"is_reserved":false,"is_disabled":false,"rental_uris":{"android":"levelo://app?vid=954c0a78-f2ce-4e32-ab87-edcb8ca5e8d6","ios":"levelo://app?vid=954c0a78-f2ce-4e32-ab87-edcb8ca5e8d6"},"vehicle_type_id":"4","last_reported":1728155237,"current_range_meters":8000,"station_id":"ce4bgr92rcd13ifvqc6g","pricing_plan_id":"cebpf4jnsgd1na2vs0mg"},{"bike_id":"16518d01-4141-4310-b227-8a9a88118025","system_id":"levelo_inurba_marseille","lat":43.2847,"lon":5.38426,"is_reserved":false,"is_disabled":false,"rental_uris":{"android":"levelo://app?vid=16518d01-4141-4310-b227-8a9a88118025","ios":"levelo://app?vid=16518d01-4141-4310-b227-8a9a88118025"},"vehicle_type_id":"4","last_reported":1728155237,"current_range_meters":38800,"station_id":"ce4bh512rcd13ifvqe3g","pricing_plan_id":"cebpf4jnsgd1na2vs0mg"},{"bike_id":"1326f79d-155c-4525-a534-faf671b49695","system_id":"levelo_inurba_marseille","lat":43.25722,"lon":5.41117,"is_reserved":false,"is_disabled":false,"rental_uris":{"android":"levelo://app?vid=1326f79d-155c-4525-a534-faf671b49695","ios":"levelo://app?vid=1326f79d-155c-4525-a534-faf671b49695"},"vehicle_type_id":"4","last_reported":1728155237,"current_range_meters":12800,"station_id":"ce4bhkp2rcd13ifvqgd0","pricing_plan_id":"cebpf4jnsgd1na2vs0mg"},{"bike_id":"b6a817d8-5787-46a3-898e-0b46c75fc481","system_id":"levelo_inurba_marseille","lat":43.32965,"lon":5.40344,"is_reserved":false,"is_disabled":false,"rental_uris":{"android":"levelo://app?vid=b6a817d8-5787-46a3-898e-0b46c75fc481","ios":"levelo://app?vid=b6a817d8-5787-46a3-898e-0b46c75fc481"},"vehicle_type_id":"4","last_reported":1728155237,"current_range_meters":4800,"station_id":"","pricing_plan_id":"cebpf4jnsgd1na2vs0mg"},{"bike_id":"476b32d8-cb22-418e-b63c-b27ef53acf65","system_id":"levelo_inurba_marseille","lat":43.28699,"lon":5.37398,"is_reserved":false,"is_disabled":false,"rental_uris":{"android":"levelo://app?vid=476b32d8-cb22-418e-b63c-b27ef53acf65","ios":"levelo://app?vid=476b32d8-cb22-418e-b63c-b27ef53acf65"},"vehicle_type_id":"4","last_reported":1728155237,"current_range_meters":38800,"station_id":"ce4bh3p2rcd13ifvqdq0","pricing_plan_id":"cebpf4jnsgd1na2vs0mg"},{"bike_id":"11d8d346-27a3-4da0-8332-2859ff125899","system_id":"levelo_inurba_marseille","lat":43.29789,"lon":5.39347,"is_reserved":false,"is_disabled":false,"rental_uris":{"android":"levelo://app?vid=11d8d346-27a3-4da0-8332-2859ff125899","ios":"levelo://app?vid=11d8d346-27a3-4da0-8332-2859ff125899"},"vehicle_type_id":"4","last_reported":1728155237,"current_range_meters":21600,"station_id":"chh1huq6cuj3fo74tm60","pricing_plan_id":"cebpf4jnsgd1na2vs0mg"},{"bike_id":"6856d22e-440d-40d9-809f-3167dacdbdc3","system_id":"levelo_inurba_marseille","lat":43.337444,"lon":5.374475,"is_reserved":false,"is_disabled":false,"rental_uris":{"android":"levelo://app?vid=6856d22e-440d-40d9-809f-3167dacdbdc3","ios":"levelo://app?vid=6856d22e-440d-40d9-809f-3167dacdbdc3"},"vehicle_type_id":"4","last_reported":1728155237,"current_range_meters":18000,"station_id":"","pricing_plan_id":"cebpf4jnsgd1na2vs0mg"},{"bike_id":"2b6654ca-a299-4462-998d-46266c356b56","system_id":"levelo_inurba_marseille","lat":43.28715,"lon":5.37946,"is_reserved":false,"is_disabled":false,"rental_uris":{"android":"levelo://app?vid=2b6654ca-a299-4462-998d-46266c356b56","ios":"levelo://app?vid=2b6654ca-a299-4462-998d-46266c356b56"},"vehicle_type_id":"4","last_reported":1728155237,"current_range_meters":38800,"station_id":"ce4bh9p2rcd13ifvqec0","pricing_plan_id":"cebpf4jnsgd1na2vs0mg"},{"bike_id":"64bd957e-b978-44cb-a85c-928d627d24ec","system_id":"levelo_inurba_marseille","lat":43.35424,"lon":5.35869,"is_reserved":false,"is_disabled":false,"rental_uris":{"android":"levelo://app?vid=64bd957e-b978-44cb-a85c-928d627d24ec","ios":"levelo://app?vid=64bd957e-b978-44cb-a85c-928d627d24ec"},"vehicle_type_id":"4","last_reported":1728155237,"current_range_meters":6400,"station_id":"","pricing_plan_id":"cebpf4jnsgd1na2vs0mg"},{"bike_id":"64995d1a-0a95-43c1-8426-b3115325266b","system_id":"levelo_inurba_marseille","lat":43.27921,"lon":5.42314,"is_reserved":false,"is_disabled":false,"rental_uris":{"android":"levelo://app?vid=64995d1a-0a95-43c1-8426-b3115325266b","ios":"levelo://app?vid=64995d1a-0a95-43c1-8426-b3115325266b"},"vehicle_type_id":"4","last_reported":1728155237,"current_range_meters":17200,"station_id":"","pricing_plan_id":"cebpf4jnsgd1na2vs0mg"},{"bike_id":"3087cbb8-89ad-4937-9daf-65c8b2772aa2","system_id":"levelo_inurba_marseille","lat":43.33727,"lon":5.39183,"is_reserved":false,"is_disabled":false,"rental_uris":{"android":"levelo://app?vid=3087cbb8-89ad-4937-9daf-65c8b2772aa2","ios":"levelo://app?vid=3087cbb8-89ad-4937-9daf-65c8b2772aa2"},"vehicle_type_id":"4","last_reported":1728155237,"current_range_meters":31200,"station_id":"ce4bhr92rcd13ifvqhsg","pricing_plan_id":"cebpf4jnsgd1na2vs0mg"},{"bike_id":"72cdf711-2663-46e4-8d5b-b95ee2f5dde3","system_id":"levelo_inurba_marseille","lat":43.31222,"lon":5.36877,"is_reserved":false,"is_disabled":false,"rental_uris":{"android":"levelo://app?vid=72cdf711-2663-46e4-8d5b-b95ee2f5dde3","ios":"levelo://app?vid=72cdf711-2663-46e4-8d5b-b95ee2f5dde3"},"vehicle_type_id":"4","last_reported":1728155237,"current_range_meters":12000,"station_id":"ce4bgl92rcd13ifvqbq0","pricing_plan_id":"cebpf4jnsgd1na2vs0mg"},{"bike_id":"0507664d-dc80-4656-a42c-ad55e299fe1b","system_id":"levelo_inurba_marseille","lat":43.28617,"lon":5.35108,"is_reserved":false,"is_disabled":false,"rental_uris":{"android":"levelo://app?vid=0507664d-dc80-4656-a42c-ad55e299fe1b","ios":"levelo://app?vid=0507664d-dc80-4656-a42c-ad55e299fe1b"},"vehicle_type_id":"4","last_reported":1728155237,"current_range_meters":38800,"station_id":"ce4bhch2rcd13ifvqeug","pricing_plan_id":"cebpf4jnsgd1na2vs0mg"},{"bike_id":"57e67165-b85c-405b-a732-679f9f1eebc5","system_id":"levelo_inurba_marseille","lat":43.31889,"lon":5.40738,"is_reserved":false,"is_disabled":false,"rental_uris":{"android":"levelo://app?vid=57e67165-b85c-405b-a732-679f9f1eebc5","ios":"levelo://app?vid=57e67165-b85c-405b-a732-679f9f1eebc5"},"vehicle_type_id":"4","last_reported":1728155237,"current_range_meters":36000,"station_id":"ce4bhq12rcd13ifvqhig","pricing_plan_id":"cebpf4jnsgd1na2vs0mg"},{"bike_id":"79d4ce44-dde0-4856-adfb-9d048612b764","system_id":"levelo_inurba_marseille","lat":43.33753,"lon":5.37443,"is_reserved":false,"is_disabled":false,"rental_uris":{"android":"levelo://app?vid=79d4ce44-dde0-4856-adfb-9d048612b764","ios":"levelo://app?vid=79d4ce44-dde0-4856-adfb-9d048612b764"},"vehicle_type_id":"4","last_reported":1728155237,"current_range_meters":37600,"station_id":"","pricing_plan_id":"cebpf4jnsgd1na2vs0mg"},{"bike_id":"00feb7a7-5689-444a-b4b6-fae7d76eba26","system_id":"levelo_inurba_marseille","lat":43.30123,"lon":5.39855,"is_reserved":false,"is_disabled":false,"rental_uris":{"android":"levelo://app?vid=00feb7a7-5689-444a-b4b6-fae7d76eba26","ios":"levelo://app?vid=00feb7a7-5689-444a-b4b6-fae7d76eba26"},"vehicle_type_id":"4","last_reported":1728155237,"current_range_meters":38800,"station_id":"ce4bh0h2rcd13ifvqd40","pricing_plan_id":"cebpf4jnsgd1na2vs0mg"},{"bike_id":"6362dd7e-711b-4b82-af8e-291ea8f6ea1e","system_id":"levelo_inurba_marseille","lat":43.337612,"lon":5.374352,"is_reserved":false,"is_disabled":false,"rental_uris":{"android":"levelo://app?vid=6362dd7e-711b-4b82-af8e-291ea8f6ea1e","ios":"levelo://app?vid=6362dd7e-711b-4b82-af8e-291ea8f6ea1e"},"vehicle_type_id":"4","last_reported":1728155237,"current_range_meters":36000,"station_id":"","pricing_plan_id":"cebpf4jnsgd1na2vs0mg"},{"bike_id":"c7ec8820-b76c-4b2d-a9fa-ad344f0044c8","system_id":"levelo_inurba_marseille","lat":43.3154,"lon":5.38013,"is_reserved":false,"is_disabled":false,"rental_uris":{"android":"levelo://app?vid=c7ec8820-b76c-4b2d-a9fa-ad344f0044c8","ios":"levelo://app?vid=c7ec8820-b76c-4b2d-a9fa-ad344f0044c8"},"vehicle_type_id":"4","last_reported":1728155237,"current_range_meters":19200,"station_id":"ce4bhsp2rcd13ifvqi50","pricing_plan_id":"cebpf4jnsgd1na2vs0mg"},{"bike_id":"d366c603-0baa-4130-aa14-9de1acc340c3","system_id":"levelo_inurba_marseille","lat":43.31221,"lon":5.36889,"is_reserved":false,"is_disabled":false,"rental_uris":{"android":"levelo://app?vid=d366c603-0baa-4130-aa14-9de1acc340c3","ios":"levelo://app?vid=d366c603-0baa-4130-aa14-9de1acc340c3"},"vehicle_type_id":"4","last_reported":1728155237,"current_range_meters":10800,"station_id":"ce4bgl92rcd13ifvqbq0","pricing_plan_id":"cebpf4jnsgd1na2vs0mg"},{"bike_id":"460bf04e-039e-4e8b-a73a-a10de488d897","system_id":"levelo_inurba_marseille","lat":43.29101,"lon":5.38123,"is_reserved":false,"is_disabled":false,"rental_uris":{"android":"levelo://app?vid=460bf04e-039e-4e8b-a73a-a10de488d897","ios":"levelo://app?vid=460bf04e-039e-4e8b-a73a-a10de488d897"},"vehicle_type_id":"4","last_reported":1728155237,"current_range_meters":20400,"station_id":"ce4bh512rcd13ifvqe2g","pricing_plan_id":"cebpf4jnsgd1na2vs0mg"},{"bike_id":"5305316b-eb43-43cb-bedf-3a735be36892","system_id":"levelo_inurba_marseille","lat":43.31715,"lon":5.43706,"is_reserved":false,"is_disabled":false,"rental_uris":{"android":"levelo://app?vid=5305316b-eb43-43cb-bedf-3a735be36892","ios":"levelo://app?vid=5305316b-eb43-43cb-bedf-3a735be36892"},"vehicle_type_id":"4","last_reported":1728155237,"current_range_meters":36800,"station_id":"ce4bhp92rcd13ifvqhcg","pricing_plan_id":"cebpf4jnsgd1na2vs0mg"},{"bike_id":"5dc8f88b-8ffc-4836-a0ff-d54c842a69e5","system_id":"levelo_inurba_marseille","lat":43.3094,"lon":5.40156,"is_reserved":false,"is_disabled":false,"rental_uris":{"android":"levelo://app?vid=5dc8f88b-8ffc-4836-a0ff-d54c842a69e5","ios":"levelo://app?vid=5dc8f88b-8ffc-4836-a0ff-d54c842a69e5"},"vehicle_type_id":"4","last_reported":1728155237,"current_range_meters":36000,"station_id":"ce4bgvp2rcd13ifvqct0","pricing_plan_id":"cebpf4jnsgd1na2vs0mg"},{"bike_id":"7ea2fe13-345a-4918-b76a-ee614b49ca5d","system_id":"levelo_inurba_marseille","lat":43.3089,"lon":5.37213,"is_reserved":false,"is_disabled":false,"rental_uris":{"android":"levelo://app?vid=7ea2fe13-345a-4918-b76a-ee614b49ca5d","ios":"levelo://app?vid=7ea2fe13-345a-4918-b76a-ee614b49ca5d"},"vehicle_type_id":"4","last_reported":1728155237,"current_range_meters":34800,"station_id":"ce4bguh2rcd13ifvqckg","pricing_plan_id":"cebpf4jnsgd1na2vs0mg"},{"bike_id":"b3f3ec8e-c8b9-4279-a1ca-8c3bcc0be4d6","system_id":"levelo_inurba_marseille","lat":43.28981,"lon":5.37838,"is_reserved":false,"is_disabled":false,"rental_uris":{"android":"levelo://app?vid=b3f3ec8e-c8b9-4279-a1ca-8c3bcc0be4d6","ios":"levelo://app?vid=b3f3ec8e-c8b9-4279-a1ca-8c3bcc0be4d6"},"vehicle_type_id":"4","last_reported":1728155237,"current_range_meters":12800,"station_id":"ce4bh9p2rcd13ifvqed0","pricing_plan_id":"cebpf4jnsgd1na2vs0mg"},{"bike_id":"de168a30-df87-48ea-a647-6b28db4ae1ff","system_id":"levelo_inurba_marseille","lat":43.29284,"lon":5.36847,"is_reserved":false,"is_disabled":false,"rental_uris":{"android":"levelo://app?vid=de168a30-df87-48ea-a647-6b28db4ae1ff","ios":"levelo://app?vid=de168a30-df87-48ea-a647-6b28db4ae1ff"},"vehicle_type_id":"4","last_reported":1728155237,"current_range_meters":38800,"station_id":"ce4bhbp2rcd13ifvqesg","pricing_plan_id":"cebpf4jnsgd1na2vs0mg"},{"bike_id":"b49dd36f-3622-4706-a34b-0008ede9387c","system_id":"levelo_inurba_marseille","lat":43.32003,"lon":5.38162,"is_reserved":false,"is_disabled":false,"rental_uris":{"android":"levelo://app?vid=b49dd36f-3622-4706-a34b-0008ede9387c","ios":"levelo://app?vid=b49dd36f-3622-4706-a34b-0008ede9387c"},"vehicle_type_id":"4","last_reported":1728155237,"current_range_meters":20800,"station_id":"ce4bhr12rcd13ifvqhpg","pricing_plan_id":"cebpf4jnsgd1na2vs0mg"},{"bike_id":"6857f1eb-c18c-42bf-9f01-89e56022ca7a","system_id":"levelo_inurba_marseille","lat":43.3229,"lon":5.38274,"is_reserved":false,"is_disabled":false,"rental_uris":{"android":"levelo://app?vid=6857f1eb-c18c-42bf-9f01-89e56022ca7a","ios":"levelo://app?vid=6857f1eb-c18c-42bf-9f01-89e56022ca7a"},"vehicle_type_id":"4","last_reported":1728155237,"current_range_meters":16000,"station_id":"ce4bhr12rcd13ifvqhqg","pricing_plan_id":"cebpf4jnsgd1na2vs0mg"},{"bike_id":"8763d1b0-9240-4f9a-b971-aa92a9dc1d05","system_id":"levelo_inurba_marseille","lat":43.245442,"lon":5.395253,"is_reserved":false,"is_disabled":false,"rental_uris":{"android":"levelo://app?vid=8763d1b0-9240-4f9a-b971-aa92a9dc1d05","ios":"levelo://app?vid=8763d1b0-9240-4f9a-b971-aa92a9dc1d05"},"vehicle_type_id":"4","last_reported":1728155237,"current_range_meters":800,"station_id":"ce4bhlp2rcd13ifvqgjg","pricing_plan_id":"cebpf4jnsgd1na2vs0mg"},{"bike_id":"10f62f05-9ab7-4ff5-b18f-5a8aea638b28","system_id":"levelo_inurba_marseille","lat":43.31364,"lon":5.38499,"is_reserved":false,"is_disabled":false,"rental_uris":{"android":"levelo://app?vid=10f62f05-9ab7-4ff5-b18f-5a8aea638b28","ios":"levelo://app?vid=10f62f05-9ab7-4ff5-b18f-5a8aea638b28"},"vehicle_type_id":"4","last_reported":1728155237,"current_range_meters":19600,"station_id":"ce4bgt92rcd13ifvqcf0","pricing_plan_id":"cebpf4jnsgd1na2vs0mg"},{"bike_id":"a6e80516-5ecf-469d-885f-cd27ce20e77b","system_id":"levelo_inurba_marseille","lat":43.2417,"lon":5.36408,"is_reserved":false,"is_disabled":false,"rental_uris":{"android":"levelo://app?vid=a6e80516-5ecf-469d-885f-cd27ce20e77b","ios":"levelo://app?vid=a6e80516-5ecf-469d-885f-cd27ce20e77b"},"vehicle_type_id":"4","last_reported":1728155237,"current_range_meters":35200,"station_id":"cpo36qri1sfpv3e86is0","pricing_plan_id":"cebpf4jnsgd1na2vs0mg"},{"bike_id":"fc236949-c1c4-424f-be34-7fb59afe2b3a","system_id":"levelo_inurba_marseille","lat":43.29038,"lon":5.37404,"is_reserved":false,"is_disabled":false,"rental_uris":{"android":"levelo://app?vid=fc236949-c1c4-424f-be34-7fb59afe2b3a","ios":"levelo://app?vid=fc236949-c1c4-424f-be34-7fb59afe2b3a"},"vehicle_type_id":"4","last_reported":1728155237,"current_range_meters":2800,"station_id":"ce4bht12rcd13ifvqi60","pricing_plan_id":"cebpf4jnsgd1na2vs0mg"},{"bike_id":"f8234af9-7cfc-4f49-8fdb-f9cfc7dd604a","system_id":"levelo_inurba_marseille","lat":43.25501,"lon":5.37654,"is_reserved":false,"is_disabled":false,"rental_uris":{"android":"levelo://app?vid=f8234af9-7cfc-4f49-8fdb-f9cfc7dd604a","ios":"levelo://app?vid=f8234af9-7cfc-4f49-8fdb-f9cfc7dd604a"},"vehicle_type_id":"4","last_reported":1728155237,"current_range_meters":38400,"station_id":"ce4bhh12rcd13ifvqff0","pricing_plan_id":"cebpf4jnsgd1na2vs0mg"},{"bike_id":"00a22fc9-4af6-4c8f-83dc-13d1574999d0","system_id":"levelo_inurba_marseille","lat":43.30465,"lon":5.40187,"is_reserved":false,"is_disabled":false,"rental_uris":{"android":"levelo://app?vid=00a22fc9-4af6-4c8f-83dc-13d1574999d0","ios":"levelo://app?vid=00a22fc9-4af6-4c8f-83dc-13d1574999d0"},"vehicle_type_id":"4","last_reported":1728155237,"current_range_meters":38400,"station_id":"","pricing_plan_id":"cebpf4jnsgd1na2vs0mg"},{"bike_id":"7af7ceaf-e1f0-421c-b052-2db75c521802","system_id":"levelo_inurba_marseille","lat":43.31886,"lon":5.40738,"is_reserved":false,"is_disabled":false,"rental_uris":{"android":"levelo://app?vid=7af7ceaf-e1f0-421c-b052-2db75c521802","ios":"levelo://app?vid=7af7ceaf-e1f0-421c-b052-2db75c521802"},"vehicle_type_id":"4","last_reported":1728155237,"current_range_meters":27600,"station_id":"ce4bhq12rcd13ifvqhig","pricing_plan_id":"cebpf4jnsgd1na2vs0mg"},{"bike_id":"449a207b-1032-4881-84ae-8f7a18cd833c","system_id":"levelo_inurba_marseille","lat":43.24169,"lon":5.36407,"is_reserved":false,"is_disabled":false,"rental_uris":{"android":"levelo://app?vid=449a207b-1032-4881-84ae-8f7a18cd833c","ios":"levelo://app?vid=449a207b-1032-4881-84ae-8f7a18cd833c"},"vehicle_type_id":"4","last_reported":1728155237,"current_range_meters":35200,"station_id":"cpo36qri1sfpv3e86is0","pricing_plan_id":"cebpf4jnsgd1na2vs0mg"},{"bike_id":"557edaa4-3e22-47b8-9fcb-aca9ed114b97","system_id":"levelo_inurba_marseille","lat":43.24167,"lon":5.36408,"is_reserved":false,"is_disabled":false,"rental_uris":{"android":"levelo://app?vid=557edaa4-3e22-47b8-9fcb-aca9ed114b97","ios":"levelo://app?vid=557edaa4-3e22-47b8-9fcb-aca9ed114b97"},"vehicle_type_id":"4","last_reported":1728155237,"current_range_meters":37600,"station_id":"cpo36qri1sfpv3e86is0","pricing_plan_id":"cebpf4jnsgd1na2vs0mg"},{"bike_id":"5bb0e93d-b0f6-4ffe-8ebc-5d3e20297f49","system_id":"levelo_inurba_marseille","lat":43.31228,"lon":5.36864,"is_reserved":false,"is_disabled":false,"rental_uris":{"android":"levelo://app?vid=5bb0e93d-b0f6-4ffe-8ebc-5d3e20297f49","ios":"levelo://app?vid=5bb0e93d-b0f6-4ffe-8ebc-5d3e20297f49"},"vehicle_type_id":"4","last_reported":1728155237,"current_range_meters":24400,"station_id":"ce4bgl92rcd13ifvqbq0","pricing_plan_id":"cebpf4jnsgd1na2vs0mg"},{"bike_id":"10e2cad8-5b87-4361-a750-816e7c888c91","system_id":"levelo_inurba_marseille","lat":43.3376,"lon":5.37436,"is_reserved":false,"is_disabled":false,"rental_uris":{"android":"levelo://app?vid=10e2cad8-5b87-4361-a750-816e7c888c91","ios":"levelo://app?vid=10e2cad8-5b87-4361-a750-816e7c888c91"},"vehicle_type_id":"4","last_reported":1728155237,"current_range_meters":35200,"station_id":"","pricing_plan_id":"cebpf4jnsgd1na2vs0mg"},{"bike_id":"72f60b3d-285e-4a66-811e-1803af713747","system_id":"levelo_inurba_marseille","lat":43.33028,"lon":5.39041,"is_reserved":false,"is_disabled":false,"rental_uris":{"android":"levelo://app?vid=72f60b3d-285e-4a66-811e-1803af713747","ios":"levelo://app?vid=72f60b3d-285e-4a66-811e-1803af713747"},"vehicle_type_id":"4","last_reported":1728155237,"current_range_meters":16800,"station_id":"ce4bhr92rcd13ifvqhrg","pricing_plan_id":"cebpf4jnsgd1na2vs0mg"},{"bike_id":"a513ccaa-0c27-439e-bc69-84cf7ff60039","system_id":"levelo_inurba_marseille","lat":43.337444,"lon":5.374475,"is_reserved":false,"is_disabled":false,"rental_uris":{"android":"levelo://app?vid=a513ccaa-0c27-439e-bc69-84cf7ff60039","ios":"levelo://app?vid=a513ccaa-0c27-439e-bc69-84cf7ff60039"},"vehicle_type_id":"4","last_reported":1728155237,"current_range_meters":33200,"station_id":"","pricing_plan_id":"cebpf4jnsgd1na2vs0mg"},{"bike_id":"f7f95201-a17e-4e74-873c-8b4bc70c0c96","system_id":"levelo_inurba_marseille","lat":43.29197,"lon":5.35812,"is_reserved":false,"is_disabled":false,"rental_uris":{"android":"levelo://app?vid=f7f95201-a17e-4e74-873c-8b4bc70c0c96","ios":"levelo://app?vid=f7f95201-a17e-4e74-873c-8b4bc70c0c96"},"vehicle_type_id":"4","last_reported":1728155237,"current_range_meters":6400,"station_id":"ce4bhb12rcd13ifvqel0","pricing_plan_id":"cebpf4jnsgd1na2vs0mg"},{"bike_id":"2edf7a1f-b0d5-4d76-998c-e10264f94a8b","system_id":"levelo_inurba_marseille","lat":43.28317,"lon":5.38735,"is_reserved":false,"is_disabled":false,"rental_uris":{"android":"levelo://app?vid=2edf7a1f-b0d5-4d76-998c-e10264f94a8b","ios":"levelo://app?vid=2edf7a1f-b0d5-4d76-998c-e10264f94a8b"},"vehicle_type_id":"4","last_reported":1728155237,"current_range_meters":36800,"station_id":"ce4bhjp2rcd13ifvqga0","pricing_plan_id":"cebpf4jnsgd1na2vs0mg"},{"bike_id":"a2a55887-a7f0-4857-aed6-46c29fc16bf3","system_id":"levelo_inurba_marseille","lat":43.29047,"lon":5.35916,"is_reserved":false,"is_disabled":false,"rental_uris":{"android":"levelo://app?vid=a2a55887-a7f0-4857-aed6-46c29fc16bf3","ios":"levelo://app?vid=a2a55887-a7f0-4857-aed6-46c29fc16bf3"},"vehicle_type_id":"4","last_reported":1728155237,"current_range_meters":36400,"station_id":"ce4bha92rcd13ifvqeg0","pricing_plan_id":"cebpf4jnsgd1na2vs0mg"},{"bike_id":"5c56a3bd-eee6-46f6-9565-18e2d60b4a2a","system_id":"levelo_inurba_marseille","lat":43.33776,"lon":5.37433,"is_reserved":false,"is_disabled":false,"rental_uris":{"android":"levelo://app?vid=5c56a3bd-eee6-46f6-9565-18e2d60b4a2a","ios":"levelo://app?vid=5c56a3bd-eee6-46f6-9565-18e2d60b4a2a"},"vehicle_type_id":"4","last_reported":1728155237,"current_range_meters":38000,"station_id":"","pricing_plan_id":"cebpf4jnsgd1na2vs0mg"},{"bike_id":"1a469ad8-1658-4523-8aca-85533c4a1f4c","system_id":"levelo_inurba_marseille","lat":43.2857,"lon":5.39511,"is_reserved":false,"is_disabled":false,"rental_uris":{"android":"levelo://app?vid=1a469ad8-1658-4523-8aca-85533c4a1f4c","ios":"levelo://app?vid=1a469ad8-1658-4523-8aca-85533c4a1f4c"},"vehicle_type_id":"4","last_reported":1728155237,"current_range_meters":6400,"station_id":"ce4bh292rcd13ifvqdg0","pricing_plan_id":"cebpf4jnsgd1na2vs0mg"},{"bike_id":"e315600c-3ff8-4893-abe5-0c310d48465d","system_id":"levelo_inurba_marseille","lat":43.3376,"lon":5.37445,"is_reserved":false,"is_disabled":false,"rental_uris":{"android":"levelo://app?vid=e315600c-3ff8-4893-abe5-0c310d48465d","ios":"levelo://app?vid=e315600c-3ff8-4893-abe5-0c310d48465d"},"vehicle_type_id":"4","last_reported":1728155237,"current_range_meters":32000,"station_id":"","pricing_plan_id":"cebpf4jnsgd1na2vs0mg"},{"bike_id":"35723d0f-230e-4ee4-8b28-03b36867399c","system_id":"levelo_inurba_marseille","lat":43.29299,"lon":5.37473,"is_reserved":false,"is_disabled":false,"rental_uris":{"android":"levelo://app?vid=35723d0f-230e-4ee4-8b28-03b36867399c","ios":"levelo://app?vid=35723d0f-230e-4ee4-8b28-03b36867399c"},"vehicle_type_id":"4","last_reported":1728155237,"current_range_meters":11600,"station_id":"ce4bgi12rcd13ifvqb70","pricing_plan_id":"cebpf4jnsgd1na2vs0mg"},{"bike_id":"be148d47-d7f0-4e3b-8308-0b6a3961a66a","system_id":"levelo_inurba_marseille","lat":43.32312,"lon":5.38658,"is_reserved":false,"is_disabled":false,"rental_uris":{"android":"levelo://app?vid=be148d47-d7f0-4e3b-8308-0b6a3961a66a","ios":"levelo://app?vid=be148d47-d7f0-4e3b-8308-0b6a3961a66a"},"vehicle_type_id":"4","last_reported":1728155237,"current_range_meters":6000,"station_id":"ce4bhr12rcd13ifvqhqg","pricing_plan_id":"cebpf4jnsgd1na2vs0mg"},{"bike_id":"9cd1c39e-0da2-4dff-8c65-35a3ba573605","system_id":"levelo_inurba_marseille","lat":43.30884,"lon":5.39658,"is_reserved":false,"is_disabled":false,"rental_uris":{"android":"levelo://app?vid=9cd1c39e-0da2-4dff-8c65-35a3ba573605","ios":"levelo://app?vid=9cd1c39e-0da2-4dff-8c65-35a3ba573605"},"vehicle_type_id":"4","last_reported":1728155237,"current_range_meters":8000,"station_id":"ce4bh012rcd13ifvqcv0","pricing_plan_id":"cebpf4jnsgd1na2vs0mg"},{"bike_id":"c233735c-c979-4943-9443-51948f0336bc","system_id":"levelo_inurba_marseille","lat":43.29258,"lon":5.38448,"is_reserved":false,"is_disabled":false,"rental_uris":{"android":"levelo://app?vid=c233735c-c979-4943-9443-51948f0336bc","ios":"levelo://app?vid=c233735c-c979-4943-9443-51948f0336bc"},"vehicle_type_id":"4","last_reported":1728155237,"current_range_meters":27200,"station_id":"ce4bh692rcd13ifvqea0","pricing_plan_id":"cebpf4jnsgd1na2vs0mg"},{"bike_id":"a5ec0603-1e9d-455e-9929-f4175fdf9cfc","system_id":"levelo_inurba_marseille","lat":43.31358,"lon":5.38494,"is_reserved":false,"is_disabled":false,"rental_uris":{"android":"levelo://app?vid=a5ec0603-1e9d-455e-9929-f4175fdf9cfc","ios":"levelo://app?vid=a5ec0603-1e9d-455e-9929-f4175fdf9cfc"},"vehicle_type_id":"4","last_reported":1728155237,"current_range_meters":36000,"station_id":"ce4bgt92rcd13ifvqcf0","pricing_plan_id":"cebpf4jnsgd1na2vs0mg"},{"bike_id":"8b30111c-7e66-4e43-8ac7-fdc2d85e7402","system_id":"levelo_inurba_marseille","lat":43.302002,"lon":5.366318,"is_reserved":false,"is_disabled":false,"rental_uris":{"android":"levelo://app?vid=8b30111c-7e66-4e43-8ac7-fdc2d85e7402","ios":"levelo://app?vid=8b30111c-7e66-4e43-8ac7-fdc2d85e7402"},"vehicle_type_id":"4","last_reported":1728155237,"current_range_meters":38800,"station_id":"ce4bgrh2rcd13ifvqc8g","pricing_plan_id":"cebpf4jnsgd1na2vs0mg"},{"bike_id":"561da172-f927-4ab1-8058-885bfaf0ba3a","system_id":"levelo_inurba_marseille","lat":43.299683,"lon":5.384924,"is_reserved":false,"is_disabled":false,"rental_uris":{"android":"levelo://app?vid=561da172-f927-4ab1-8058-885bfaf0ba3a","ios":"levelo://app?vid=561da172-f927-4ab1-8058-885bfaf0ba3a"},"vehicle_type_id":"4","last_reported":1728155237,"current_range_meters":14400,"station_id":"ce4bgj92rcd13ifvqbd0","pricing_plan_id":"cebpf4jnsgd1na2vs0mg"},{"bike_id":"5939d457-0f77-41f2-999c-b37b585e3d87","system_id":"levelo_inurba_marseille","lat":43.29736,"lon":5.37685,"is_reserved":false,"is_disabled":false,"rental_uris":{"android":"levelo://app?vid=5939d457-0f77-41f2-999c-b37b585e3d87","ios":"levelo://app?vid=5939d457-0f77-41f2-999c-b37b585e3d87"},"vehicle_type_id":"4","last_reported":1728155237,"current_range_meters":9200,"station_id":"ce4bgkh2rcd13ifvqbl0","pricing_plan_id":"cebpf4jnsgd1na2vs0mg"},{"bike_id":"740aa9b1-bf7f-495f-b4b6-8c44676bc674","system_id":"levelo_inurba_marseille","lat":43.33754,"lon":5.3745,"is_reserved":false,"is_disabled":false,"rental_uris":{"android":"levelo://app?vid=740aa9b1-bf7f-495f-b4b6-8c44676bc674","ios":"levelo://app?vid=740aa9b1-bf7f-495f-b4b6-8c44676bc674"},"vehicle_type_id":"4","last_reported":1728155237,"current_range_meters":4000,"station_id":"","pricing_plan_id":"cebpf4jnsgd1na2vs0mg"},{"bike_id":"e600e58e-3074-45b8-8c07-fb2d55455d26","system_id":"levelo_inurba_marseille","lat":43.30137,"lon":5.38783,"is_reserved":false,"is_disabled":false,"rental_uris":{"android":"levelo://app?vid=e600e58e-3074-45b8-8c07-fb2d55455d26","ios":"levelo://app?vid=e600e58e-3074-45b8-8c07-fb2d55455d26"},"vehicle_type_id":"4","last_reported":1728155237,"current_range_meters":37600,"station_id":"ce4bghh2rcd13ifvqb60","pricing_plan_id":"cebpf4jnsgd1na2vs0mg"},{"bike_id":"5ca248b0-c413-42f8-9407-c12494c2d1cd","system_id":"levelo_inurba_marseille","lat":43.31693,"lon":5.404763,"is_reserved":false,"is_disabled":false,"rental_uris":{"android":"levelo://app?vid=5ca248b0-c413-42f8-9407-c12494c2d1cd","ios":"levelo://app?vid=5ca248b0-c413-42f8-9407-c12494c2d1cd"},"vehicle_type_id":"4","last_reported":1728155237,"current_range_meters":38400,"station_id":"ce4bh012rcd13ifvqd00","pricing_plan_id":"cebpf4jnsgd1na2vs0mg"},{"bike_id":"77b9203a-0842-4b45-acd8-ada92dfc3441","system_id":"levelo_inurba_marseille","lat":43.29918,"lon":5.38166,"is_reserved":false,"is_disabled":false,"rental_uris":{"android":"levelo://app?vid=77b9203a-0842-4b45-acd8-ada92dfc3441","ios":"levelo://app?vid=77b9203a-0842-4b45-acd8-ada92dfc3441"},"vehicle_type_id":"4","last_reported":1728155237,"current_range_meters":10000,"station_id":"ce4bgj12rcd13ifvqbc0","pricing_plan_id":"cebpf4jnsgd1na2vs0mg"},{"bike_id":"8c61526c-2d67-4b1a-8f32-0018924d753f","system_id":"levelo_inurba_marseille","lat":43.337444,"lon":5.374475,"is_reserved":false,"is_disabled":false,"rental_uris":{"android":"levelo://app?vid=8c61526c-2d67-4b1a-8f32-0018924d753f","ios":"levelo://app?vid=8c61526c-2d67-4b1a-8f32-0018924d753f"},"vehicle_type_id":"4","last_reported":1728155237,"current_range_meters":33600,"station_id":"","pricing_plan_id":"cebpf4jnsgd1na2vs0mg"},{"bike_id":"0fce7dd2-7a92-4df5-b4ae-bf080fdd451a","system_id":"levelo_inurba_marseille","lat":43.31358,"lon":5.36715,"is_reserved":false,"is_disabled":false,"rental_uris":{"android":"levelo://app?vid=0fce7dd2-7a92-4df5-b4ae-bf080fdd451a","ios":"levelo://app?vid=0fce7dd2-7a92-4df5-b4ae-bf080fdd451a"},"vehicle_type_id":"4","last_reported":1728155237,"current_range_meters":17200,"station_id":"ce4bgr92rcd13ifvqc6g","pricing_plan_id":"cebpf4jnsgd1na2vs0mg"},{"bike_id":"3931d823-3d45-4984-9627-0745732c9806","system_id":"levelo_inurba_marseille","lat":43.27429,"lon":5.3943,"is_reserved":false,"is_disabled":false,"rental_uris":{"android":"levelo://app?vid=3931d823-3d45-4984-9627-0745732c9806","ios":"levelo://app?vid=3931d823-3d45-4984-9627-0745732c9806"},"vehicle_type_id":"4","last_reported":1728155237,"current_range_meters":6800,"station_id":"ce4bhdp2rcd13ifvqf20","pricing_plan_id":"cebpf4jnsgd1na2vs0mg"},{"bike_id":"2b02f76d-4d16-4cec-b26f-89ae9778cc7f","system_id":"levelo_inurba_marseille","lat":43.28856,"lon":5.35856,"is_reserved":false,"is_disabled":false,"rental_uris":{"android":"levelo://app?vid=2b02f76d-4d16-4cec-b26f-89ae9778cc7f","ios":"levelo://app?vid=2b02f76d-4d16-4cec-b26f-89ae9778cc7f"},"vehicle_type_id":"4","last_reported":1728155237,"current_range_meters":16000,"station_id":"ce4bhb12rcd13ifvqem0","pricing_plan_id":"cebpf4jnsgd1na2vs0mg"},{"bike_id":"b1f0a2a4-9289-4282-ab92-0d7dbb5b1cff","system_id":"levelo_inurba_marseille","lat":43.31227,"lon":5.36845,"is_reserved":false,"is_disabled":false,"rental_uris":{"android":"levelo://app?vid=b1f0a2a4-9289-4282-ab92-0d7dbb5b1cff","ios":"levelo://app?vid=b1f0a2a4-9289-4282-ab92-0d7dbb5b1cff"},"vehicle_type_id":"4","last_reported":1728155237,"current_range_meters":36000,"station_id":"ce4bgl92rcd13ifvqbq0","pricing_plan_id":"cebpf4jnsgd1na2vs0mg"},{"bike_id":"69be0f07-7180-4d2b-af05-c4004b76021e","system_id":"levelo_inurba_marseille","lat":43.31885,"lon":5.40736,"is_reserved":false,"is_disabled":false,"rental_uris":{"android":"levelo://app?vid=69be0f07-7180-4d2b-af05-c4004b76021e","ios":"levelo://app?vid=69be0f07-7180-4d2b-af05-c4004b76021e"},"vehicle_type_id":"4","last_reported":1728155237,"current_range_meters":38800,"station_id":"ce4bhq12rcd13ifvqhig","pricing_plan_id":"cebpf4jnsgd1na2vs0mg"},{"bike_id":"03e10677-46d6-44f3-bb64-5b2d6cb5a52e","system_id":"levelo_inurba_marseille","lat":43.29785,"lon":5.3812,"is_reserved":false,"is_disabled":false,"rental_uris":{"android":"levelo://app?vid=03e10677-46d6-44f3-bb64-5b2d6cb5a52e","ios":"levelo://app?vid=03e10677-46d6-44f3-bb64-5b2d6cb5a52e"},"vehicle_type_id":"4","last_reported":1728155237,"current_range_meters":4000,"station_id":"ce4bgip2rcd13ifvqbb0","pricing_plan_id":"cebpf4jnsgd1na2vs0mg"},{"bike_id":"e270a9ca-84e8-4848-a582-e495af1f14e2","system_id":"levelo_inurba_marseille","lat":43.30646,"lon":5.38005,"is_reserved":false,"is_disabled":false,"rental_uris":{"android":"levelo://app?vid=e270a9ca-84e8-4848-a582-e495af1f14e2","ios":"levelo://app?vid=e270a9ca-84e8-4848-a582-e495af1f14e2"},"vehicle_type_id":"4","last_reported":1728155237,"current_range_meters":28800,"station_id":"","pricing_plan_id":"cebpf4jnsgd1na2vs0mg"},{"bike_id":"e7c35c38-b56f-4165-8da0-abde242fa62d","system_id":"levelo_inurba_marseille","lat":43.27063,"lon":5.42281,"is_reserved":false,"is_disabled":false,"rental_uris":{"android":"levelo://app?vid=e7c35c38-b56f-4165-8da0-abde242fa62d","ios":"levelo://app?vid=e7c35c38-b56f-4165-8da0-abde242fa62d"},"vehicle_type_id":"4","last_reported":1728155237,"current_range_meters":9200,"station_id":"ce4bhk92rcd13ifvqgb0","pricing_plan_id":"cebpf4jnsgd1na2vs0mg"},{"bike_id":"49e15b74-9548-4386-a0ab-cf1e4ed4b315","system_id":"levelo_inurba_marseille","lat":43.30139,"lon":5.3987,"is_reserved":false,"is_disabled":false,"rental_uris":{"android":"levelo://app?vid=49e15b74-9548-4386-a0ab-cf1e4ed4b315","ios":"levelo://app?vid=49e15b74-9548-4386-a0ab-cf1e4ed4b315"},"vehicle_type_id":"4","last_reported":1728155237,"current_range_meters":28800,"station_id":"ce4bh0h2rcd13ifvqd40","pricing_plan_id":"cebpf4jnsgd1na2vs0mg"},{"bike_id":"85d4a11f-da25-42ca-975a-101dba3f2162","system_id":"levelo_inurba_marseille","lat":43.28146,"lon":5.42651,"is_reserved":false,"is_disabled":false,"rental_uris":{"android":"levelo://app?vid=85d4a11f-da25-42ca-975a-101dba3f2162","ios":"levelo://app?vid=85d4a11f-da25-42ca-975a-101dba3f2162"},"vehicle_type_id":"4","last_reported":1728155237,"current_range_meters":11200,"station_id":"ce4bhnh2rcd13ifvqgug","pricing_plan_id":"cebpf4jnsgd1na2vs0mg"},{"bike_id":"9eb53b89-7a05-44e2-923b-44f4ecd2f358","system_id":"levelo_inurba_marseille","lat":43.337444,"lon":5.374475,"is_reserved":false,"is_disabled":false,"rental_uris":{"android":"levelo://app?vid=9eb53b89-7a05-44e2-923b-44f4ecd2f358","ios":"levelo://app?vid=9eb53b89-7a05-44e2-923b-44f4ecd2f358"},"vehicle_type_id":"4","last_reported":1728155237,"current_range_meters":29600,"station_id":"","pricing_plan_id":"cebpf4jnsgd1na2vs0mg"},{"bike_id":"a0b5b5bd-99ec-4ad3-895e-f1e72ee8e2de","system_id":"levelo_inurba_marseille","lat":43.29036,"lon":5.38647,"is_reserved":false,"is_disabled":false,"rental_uris":{"android":"levelo://app?vid=a0b5b5bd-99ec-4ad3-895e-f1e72ee8e2de","ios":"levelo://app?vid=a0b5b5bd-99ec-4ad3-895e-f1e72ee8e2de"},"vehicle_type_id":"4","last_reported":1728155237,"current_range_meters":34000,"station_id":"ce4bh4p2rcd13ifvqe0g","pricing_plan_id":"cebpf4jnsgd1na2vs0mg"},{"bike_id":"5c95c52d-5bb3-493c-9afd-ed689105e617","system_id":"levelo_inurba_marseille","lat":43.29885,"lon":5.39756,"is_reserved":false,"is_disabled":false,"rental_uris":{"android":"levelo://app?vid=5c95c52d-5bb3-493c-9afd-ed689105e617","ios":"levelo://app?vid=5c95c52d-5bb3-493c-9afd-ed689105e617"},"vehicle_type_id":"4","last_reported":1728155237,"current_range_meters":8000,"station_id":"ce4bh0h2rcd13ifvqd50","pricing_plan_id":"cebpf4jnsgd1na2vs0mg"},