{"last_updated":1751141490,"ttl":60,"version":"2.2","data":{"bikes":[{"bike_id":"3da29fb8-fc97-44c6-b9ac-31dd456b2fd4","system_id":"levelo_inurba_marseille","lat":43.33771,"lon":5.37424,"is_reserved":false,"is_disabled":true,"rental_uris":{"android":"levelo://app?vid=3da29fb8-fc97-44c6-b9ac-31dd456b2fd4","ios":"levelo://app?vid=3da29fb8-fc97-44c6-b9ac-31dd456b2fd4"},"vehicle_type_id":"4","last_reported":1751141490,"current_range_meters":0,"station_id":"","pricing_plan_id":"cebpf4jnsgd1na2vs0mg"},{"bike_id":"01861ad8-a8d7-4be6-816e-651927c87584","system_id":"levelo_inurba_marseille","lat":43.33751,"lon":5.37456,"is_reserved":false,"is_disabled":true,"rental_uris":{"android":"levelo://app?vid=01861ad8-a8d7-4be6-816e-651927c87584","ios":"levelo://app?vid=01861ad8-a8d7-4be6-816e-651927c87584"},"vehicle_type_id":"4","last_reported":1751141490,"current_range_meters":0,"station_id":"","pricing_plan_id":"cebpf4jnsgd1na2vs0mg"},{"bike_id":"612b34ed-ddf1-4f6a-96bb-08fc82d7d35a","system_id":"levelo_inurba_marseille","lat":43.27133,"lon":5.40888,"is_reserved":false,"is_disabled":true,"rental_uris":{"android":"levelo://app?vid=612b34ed-ddf1-4f6a-96bb-08fc82d7d35a","ios":"levelo://app?vid=612b34ed-ddf1-4f6a-96bb-08fc82d7d35a"},"vehicle_type_id":"4","last_reported":1751141490,"current_range_meters":0,"station_id":"","pricing_plan_id":"cebpf4jnsgd1na2vs0mg"},{"bike_id":"7aac647a-260b-423f-ae41-874b82472ad9","system_id":"levelo_inurba_marseille","lat":43.232,"lon":5.35169,"is_reserved":false,"is_disabled":true,"rental_uris":{"android":"levelo://app?vid=7aac647a-260b-423f-ae41-874b82472ad9","ios":"levelo://app?vid=7aac647a-260b-423f-ae41-874b82472ad9"},"vehicle_type_id":"4","last_reported":1751141490,"current_range_meters":0,"station_id":"","pricing_plan_id":"cebpf4jnsgd1na2vs0mg"},{"bike_id":"d0d7cc43-521b-4cec-b4c1-a87ba601603e","system_id":"levelo_inurba_marseille","lat":43.26228,"lon":5.37422,"is_reserved":false,"is_disabled":true,"rental_uris":{"android":"levelo://app?vid=d0d7cc43-521b-4cec-b4c1-a87ba601603e","ios":"levelo://app?vid=d0d7cc43-521b-4cec-b4c1-a87ba601603e"},"vehicle_type_id":"4","last_reported":1751141490,"current_range_meters":0,"station_id":"","pricing_plan_id":"cebpf4jnsgd1na2vs0mg"},{"bike_id":"499114bb-646f-4618-a3ce-ee7c9ab2a1c4","system_id":"levelo_inurba_marseille","lat":43.33007,"lon":5.39098,"is_reserved":false,"is_disabled":true,"rental_uris":{"android":"levelo://app?vid=499114bb-646f-4618-a3ce-ee7c9ab2a1c4","ios":"levelo://app?vid=499114bb-646f-4618-a3ce-ee7c9ab2a1c4"},"vehicle_type_id":"4","last_reported":1751141490,"current_range_meters":0,"station_id":"","pricing_plan_id":"cebpf4jnsgd1na2vs0mg"},{"bike_id":"e9a7f2ce-f5b2-41e5-b572-5533013492a4","system_id":"levelo_inurba_marseille","lat":43.337444,"lon":5.374475,"is_reserved":false,"is_disabled":true,"rental_uris":{"android":"levelo://app?vid=e9a7f2ce-f5b2-41e5-b572-5533013492a4","ios":"levelo://app?vid=e9a7f2ce-f5b2-41e5-b572-5533013492a4"},"vehicle_type_id":"4","last_reported":1751141490,"current_range_meters":0,"station_id":"","pricing_plan_id":"cebpf4jnsgd1na2vs0mg"},{"bike_id":"666ef40e-8142-4330-a1bf-355f72ca0910","system_id":"levelo_inurba_marseille","lat":43.26332,"lon":5.4009,"is_reserved":false,"is_disabled":true,"rental_uris":{"android":"levelo://app?vid=666ef40e-8142-4330-a1bf-355f72ca0910","ios":"levelo://app?vid=666ef40e-8142-4330-a1bf-355f72ca0910"},"vehicle_type_id":"4","last_reported":1751141490,"current_range_meters":0,"station_id":"","pricing_plan_id":"cebpf4jnsgd1na2vs0mg"},{"bike_id":"61665d99-4b58-4f53-a869-6e04f0d5f932","system_id":"levelo_inurba_marseille","lat":43.29618,"lon":5.3771,"is_reserved":false,"is_disabled":true,"rental_uris":{"android":"levelo://app?vid=61665d99-4b58-4f53-a869-6e04f0d5f932","ios":"levelo://app?vid=61665d99-4b58-4f53-a869-6e04f0d5f932"},"vehicle_type_id":"4","last_reported":1751141490,"current_range_meters":0,"station_id":"ce4bgi92rcd13ifvqb90","pricing_plan_id":"cebpf4jnsgd1na2vs0mg"},{"bike_id":"dfc1fa1a-1960-4ab3-b08a-9688f05eea11","system_id":"levelo_inurba_marseille","lat":43.27968,"lon":5.38744,"is_reserved":false,"is_disabled":true,"rental_uris":{"android":"levelo://app?vid=dfc1fa1a-1960-4ab3-b08a-9688f05eea11","ios":"levelo://app?vid=dfc1fa1a-1960-4ab3-b08a-9688f05eea11"},"vehicle_type_id":"4","last_reported":1751141490,"current_range_meters":0,"station_id":"ce4bhg12rcd13ifvqf80","pricing_plan_id":"cebpf4jnsgd1na2vs0mg"},{"bike_id":"a3da550e-e205-410d-ad55-02a96c74e158","system_id":"levelo_inurba_marseille","lat":43.262047,"lon":5.374446,"is_reserved":false,"is_disabled":true,"rental_uris":{"android":"levelo://app?vid=a3da550e-e205-410d-ad55-02a96c74e158","ios":"levelo://app?vid=a3da550e-e205-410d-ad55-02a96c74e158"},"vehicle_type_id":"4","last_reported":1751141490,"current_range_meters":0,"station_id":"ce4bhgp2rcd13ifvqfc0","pricing_plan_id":"cebpf4jnsgd1na2vs0mg"},{"bike_id":"ddf7ea66-efd0-456b-a139-fcb3ce0f5444","system_id":"levelo_inurba_marseille","lat":43.27064,"lon":5.40257,"is_reserved":false,"is_disabled":true,"rental_uris":{"android":"levelo://app?vid=ddf7ea66-efd0-456b-a139-fcb3ce0f5444","ios":"levelo://app?vid=ddf7ea66-efd0-456b-a139-fcb3ce0f5444"},"vehicle_type_id":"4","last_reported":1751141490,"current_range_meters":0,"station_id":"ce4bhk92rcd13ifvqgc0","pricing_plan_id":"cebpf4jnsgd1na2vs0mg"},{"bike_id":"05453257-9521-4d46-bd01-83cb8d8806a2","system_id":"levelo_inurba_marseille","lat":43.25128,"lon":5.403236,"is_reserved":false,"is_disabled":true,"rental_uris":{"android":"levelo://app?vid=05453257-9521-4d46-bd01-83cb8d8806a2","ios":"levelo://app?vid=05453257-9521-4d46-bd01-83cb8d8806a2"},"vehicle_type_id":"4","last_reported":1751141490,"current_range_meters":0,"station_id":"ce4bhlh2rcd13ifvqgig","pricing_plan_id":"cebpf4jnsgd1na2vs0mg"},{"bike_id":"92d3bb11-4cf3-47e6-bc0f-ff80eea58ad1","system_id":"levelo_inurba_marseille","lat":43.303753,"lon":5.424951,"is_reserved":false,"is_disabled":true,"rental_uris":{"android":"levelo://app?vid=92d3bb11-4cf3-47e6-bc0f-ff80eea58ad1","ios":"levelo://app?vid=92d3bb11-4cf3-47e6-bc0f-ff80eea58ad1"},"vehicle_type_id":"4","last_reported":1751141490,"current_range_meters":0,"station_id":"ce4bhoh2rcd13ifvqh6g","pricing_plan_id":"cebpf4jnsgd1na2vs0mg"},{"bike_id":"c8ce0351-fe68-40b1-beb5-45d8ee0eed11","system_id":"levelo_inurba_marseille","lat":43.30377,"lon":5.424878,"is_reserved":false,"is_disabled":true,"rental_uris":{"android":"levelo://app?vid=c8ce0351-fe68-40b1-beb5-45d8ee0eed11","ios":"levelo://app?vid=c8ce0351-fe68-40b1-beb5-45d8ee0eed11"},"vehicle_type_id":"4","last_reported":1751141490,"current_range_meters":0,"station_id":"ce4bhoh2rcd13ifvqh6g","pricing_plan_id":"cebpf4jnsgd1na2vs0mg"},{"bike_id":"d362d02d-128e-4cca-a1a9-f3b988a32336","system_id":"levelo_inurba_marseille","lat":43.22926,"lon":5.35373,"is_reserved":false,"is_disabled":true,"rental_uris":{"android":"levelo://app?vid=d362d02d-128e-4cca-a1a9-f3b988a32336","ios":"levelo://app?vid=d362d02d-128e-4cca-a1a9-f3b988a32336"},"vehicle_type_id":"4","last_reported":1751141490,"current_range_meters":0,"station_id":"cpo3532slgdg3j2ikp40","pricing_plan_id":"cebpf4jnsgd1na2vs0mg"},{"bike_id":"38d01765-5414-4f3d-b96c-a482eae367ca","system_id":"levelo_inurba_marseille","lat":43.21747,"lon":5.34604,"is_reserved":false,"is_disabled":true,"rental_uris":{"android":"levelo://app?vid=38d01765-5414-4f3d-b96c-a482eae367ca","ios":"levelo://app?vid=38d01765-5414-4f3d-b96c-a482eae367ca"},"vehicle_type_id":"4","last_reported":1751141490,"current_range_meters":0,"station_id":"st_cvj6r9ubvosntc0bgbag","pricing_plan_id":"cebpf4jnsgd1na2vs0mg"},{"bike_id":"070a5204-3e73-4cf5-9fda-520c8795969f","system_id":"levelo_inurba_marseille","lat":43.21769,"lon":5.34589,"is_reserved":false,"is_disabled":true,"rental_uris":{"android":"levelo://app?vid=070a5204-3e73-4cf5-9fda-520c8795969f","ios":"levelo://app?vid=070a5204-3e73-4cf5-9fda-520c8795969f"},"vehicle_type_id":"4","last_reported":1751141490,"current_range_meters":0,"station_id":"st_cvj6r9ubvosntc0bgbag","pricing_plan_id":"cebpf4jnsgd1na2vs0mg"},{"bike_id":"0dd74537-1eda-4a45-9817-024db8ba2a24","system_id":"levelo_inurba_marseille","lat":43.27989,"lon":5.41664,"is_reserved":false,"is_disabled":true,"rental_uris":{"android":"levelo://app?vid=0dd74537-1eda-4a45-9817-024db8ba2a24","ios":"levelo://app?vid=0dd74537-1eda-4a45-9817-024db8ba2a24"},"vehicle_type_id":"4","last_reported":1751141490,"current_range_meters":400,"station_id":"ce4bho12rcd13ifvqh1g","pricing_plan_id":"cebpf4jnsgd1na2vs0mg"},{"bike_id":"53f760d9-2926-4c0b-9078-ae8706c81b5c","system_id":"levelo_inurba_marseille","lat":43.21743,"lon":5.34587,"is_reserved":false,"is_disabled":true,"rental_uris":{"android":"levelo://app?vid=53f760d9-2926-4c0b-9078-ae8706c81b5c","ios":"levelo://app?vid=53f760d9-2926-4c0b-9078-ae8706c81b5c"},"vehicle_type_id":"4","last_reported":1751141490,"current_range_meters":400,"station_id":"st_cvj6r9ubvosntc0bgbag","pricing_plan_id":"cebpf4jnsgd1na2vs0mg"},{"bike_id":"3ed97791-4fd1-4beb-9e6b-4998740d59d9","system_id":"levelo_inurba_marseille","lat":43.271719,"lon":5.410008,"is_reserved":false,"is_disabled":true,"rental_uris":{"android":"levelo://app?vid=3ed97791-4fd1-4beb-9e6b-4998740d59d9","ios":"levelo://app?vid=3ed97791-4fd1-4beb-9e6b-4998740d59d9"},"vehicle_type_id":"4","last_reported":1751141490,"current_range_meters":800,"station_id":"","pricing_plan_id":"cebpf4jnsgd1na2vs0mg"},{"bike_id":"0fc7f28b-b08f-4861-9663-c590385006bd","system_id":"levelo_inurba_marseille","lat":43.299652,"lon":5.384856,"is_reserved":false,"is_disabled":true,"rental_uris":{"android":"levelo://app?vid=0fc7f28b-b08f-4861-9663-c590385006bd","ios":"levelo://app?vid=0fc7f28b-b08f-4861-9663-c590385006bd"},"vehicle_type_id":"4","last_reported":1751141490,"current_range_meters":1600,"station_id":"ce4bgj92rcd13ifvqbd0","pricing_plan_id":"cebpf4jnsgd1na2vs0mg"},{"bike_id":"dcd485e8-0592-4c15-9fcf-d24e5cca1143","system_id":"levelo_inurba_marseille","lat":43.2953,"lon":5.38543,"is_reserved":false,"is_disabled":true,"rental_uris":{"android":"levelo://app?vid=dcd485e8-0592-4c15-9fcf-d24e5cca1143","ios":"levelo://app?vid=dcd485e8-0592-4c15-9fcf-d24e5cca1143"},"vehicle_type_id":"4","last_reported":1751141490,"current_range_meters":2000,"station_id":"ce4bgih2rcd13ifvqba0","pricing_plan_id":"cebpf4jnsgd1na2vs0mg"},{"bike_id":"c845c067-f719-4f3a-90d0-32d4daeb9bdc","system_id":"levelo_inurba_marseille","lat":43.28696,"lon":5.37379,"is_reserved":false,"is_disabled":true,"rental_uris":{"android":"levelo://app?vid=c845c067-f719-4f3a-90d0-32d4daeb9bdc","ios":"levelo://app?vid=c845c067-f719-4f3a-90d0-32d4daeb9bdc"},"vehicle_type_id":"4","last_reported":1751141490,"current_range_meters":2000,"station_id":"ce4bh3p2rcd13ifvqdq0","pricing_plan_id":"cebpf4jnsgd1na2vs0mg"},{"bike_id":"7ff6cb5c-3a90-41b7-a1f2-0af950ee0733","system_id":"levelo_inurba_marseille","lat":43.32354,"lon":5.36762,"is_reserved":false,"is_disabled":false,"rental_uris":{"android":"levelo://app?vid=7ff6cb5c-3a90-41b7-a1f2-0af950ee0733","ios":"levelo://app?vid=7ff6cb5c-3a90-41b7-a1f2-0af950ee0733"},"vehicle_type_id":"4","last_reported":1751141490,"current_range_meters":2800,"station_id":"ce4bhsh2rcd13ifvqi2g","pricing_plan_id":"cebpf4jnsgd1na2vs0mg"},{"bike_id":"2e968090-6694-40ee-b358-0b4679d8ea80","system_id":"levelo_inurba_marseille","lat":43.327978,"lon":5.403866,"is_reserved":false,"is_disabled":false,"rental_uris":{"android":"levelo://app?vid=2e968090-6694-40ee-b358-0b4679d8ea80","ios":"levelo://app?vid=2e968090-6694-40ee-b358-0b4679d8ea80"},"vehicle_type_id":"4","last_reported":1751141490,"current_range_meters":3200,"station_id":"","pricing_plan_id":"cebpf4jnsgd1na2vs0mg"},{"bike_id":"007cf0ab-d24d-43d4-8f4e-3ce973e32ec4","system_id":"levelo_inurba_marseille","lat":43.29309,"lon":5.37176,"is_reserved":false,"is_disabled":false,"rental_uris":{"android":"levelo://app?vid=007cf0ab-d24d-43d4-8f4e-3ce973e32ec4","ios":"levelo://app?vid=007cf0ab-d24d-43d4-8f4e-3ce973e32ec4"},"vehicle_type_id":"4","last_reported":1751141490,"current_range_meters":3200,"station_id":"ce4bgh92rcd13ifvqb40","pricing_plan_id":"cebpf4jnsgd1na2vs0mg"},{"bike_id":"bf041422-eda2-48fb-bc6b-d71f1b33f04c","system_id":"levelo_inurba_marseille","lat":43.29263,"lon":5.38425,"is_reserved":false,"is_disabled":false,"rental_uris":{"android":"levelo://app?vid=bf041422-eda2-48fb-bc6b-d71f1b33f04c","ios":"levelo://app?vid=bf041422-eda2-48fb-bc6b-d71f1b33f04c"},"vehicle_type_id":"4","last_reported":1751141490,"current_range_meters":3200,"station_id":"ce4bh692rcd13ifvqea0","pricing_plan_id":"cebpf4jnsgd1na2vs0mg"},{"bike_id":"2add8708-acf5-4b4c-b6d7-d9fe59d56f80","system_id":"levelo_inurba_marseille","lat":43.26569,"lon":5.39014,"is_reserved":false,"is_disabled":false,"rental_uris":{"android":"levelo://app?vid=2add8708-acf5-4b4c-b6d7-d9fe59d56f80","ios":"levelo://app?vid=2add8708-acf5-4b4c-b6d7-d9fe59d56f80"},"vehicle_type_id":"4","last_reported":1751141490,"current_range_meters":3200,"station_id":"ce4bhe12rcd13ifvqf30","pricing_plan_id":"cebpf4jnsgd1na2vs0mg"},{"bike_id":"1d84cec2-de1e-4ccf-bf97-ba343df08549","system_id":"levelo_inurba_marseille","lat":43.26209,"lon":5.37445,"is_reserved":false,"is_disabled":false,"rental_uris":{"android":"levelo://app?vid=1d84cec2-de1e-4ccf-bf97-ba343df08549","ios":"levelo://app?vid=1d84cec2-de1e-4ccf-bf97-ba343df08549"},"vehicle_type_id":"4","last_reported":1751141490,"current_range_meters":3200,"station_id":"ce4bhgp2rcd13ifvqfc0","pricing_plan_id":"cebpf4jnsgd1na2vs0mg"},{"bike_id":"0a034962-a078-4cd8-ab5c-29a2f15ac163","system_id":"levelo_inurba_marseille","lat":43.29904,"lon":5.436649,"is_reserved":false,"is_disabled":false,"rental_uris":{"android":"levelo://app?vid=0a034962-a078-4cd8-ab5c-29a2f15ac163","ios":"levelo://app?vid=0a034962-a078-4cd8-ab5c-29a2f15ac163"},"vehicle_type_id":"4","last_reported":1751141490,"current_range_meters":3200,"station_id":"ce4bhpp2rcd13ifvqhfg","pricing_plan_id":"cebpf4jnsgd1na2vs0mg"},{"bike_id":"48c60c85-4f46-4198-abe4-9a08874d2674","system_id":"levelo_inurba_marseille","lat":43.32367,"lon":5.36764,"is_reserved":false,"is_disabled":false,"rental_uris":{"android":"levelo://app?vid=48c60c85-4f46-4198-abe4-9a08874d2674","ios":"levelo://app?vid=48c60c85-4f46-4198-abe4-9a08874d2674"},"vehicle_type_id":"4","last_reported":1751141490,"current_range_meters":4000,"station_id":"ce4bhsh2rcd13ifvqi2g","pricing_plan_id":"cebpf4jnsgd1na2vs0mg"},{"bike_id":"73a03650-973e-42b0-bad4-545481e15f73","system_id":"levelo_inurba_marseille","lat":43.312352,"lon":5.390583,"is_reserved":false,"is_disabled":false,"rental_uris":{"android":"levelo://app?vid=73a03650-973e-42b0-bad4-545481e15f73","ios":"levelo://app?vid=73a03650-973e-42b0-bad4-545481e15f73"},"vehicle_type_id":"4","last_reported":1751141490,"current_range_meters":4400,"station_id":"","pricing_plan_id":"cebpf4jnsgd1na2vs0mg"},{"bike_id":"1aba178b-fd1a-431e-97e4-4f1295b588c3","system_id":"levelo_inurba_marseille","lat":43.30537,"lon":5.36524,"is_reserved":false,"is_disabled":false,"rental_uris":{"android":"levelo://app?vid=1aba178b-fd1a-431e-97e4-4f1295b588c3","ios":"levelo://app?vid=1aba178b-fd1a-431e-97e4-4f1295b588c3"},"vehicle_type_id":"4","last_reported":1751141490,"current_range_meters":4400,"station_id":"ce4bgs12rcd13ifvqcag","pricing_plan_id":"cebpf4jnsgd1na2vs0mg"},{"bike_id":"5e186827-be08-417a-b11f-a7fe0c9f8332","system_id":"levelo_inurba_marseille","lat":43.28669,"lon":5.35164,"is_reserved":false,"is_disabled":false,"rental_uris":{"android":"levelo://app?vid=5e186827-be08-417a-b11f-a7fe0c9f8332","ios":"levelo://app?vid=5e186827-be08-417a-b11f-a7fe0c9f8332"},"vehicle_type_id":"4","last_reported":1751141490,"current_range_meters":4800,"station_id":"","pricing_plan_id":"cebpf4jnsgd1na2vs0mg"},{"bike_id":"89da4245-cca7-4b98-bfc0-199cce3026ab","system_id":"levelo_inurba_marseille","lat":43.217425,"lon":5.346034,"is_reserved":false,"is_disabled":false,"rental_uris":{"android":"levelo://app?vid=89da4245-cca7-4b98-bfc0-199cce3026ab","ios":"levelo://app?vid=89da4245-cca7-4b98-bfc0-199cce3026ab"},"vehicle_type_id":"4","last_reported":1751141490,"current_range_meters":4800,"station_id":"","pricing_plan_id":"cebpf4jnsgd1na2vs0mg"},{"bike_id":"e2b323d4-e32d-41de-bbc0-c9c5775ee17e","system_id":"levelo_inurba_marseille","lat":43.30949,"lon":5.39023,"is_reserved":false,"is_disabled":false,"rental_uris":{"android":"levelo://app?vid=e2b323d4-e32d-41de-bbc0-c9c5775ee17e","ios":"levelo://app?vid=e2b323d4-e32d-41de-bbc0-c9c5775ee17e"},"vehicle_type_id":"4","last_reported":1751141490,"current_range_meters":5600,"station_id":"ce4bgup2rcd13ifvqco0","pricing_plan_id":"cebpf4jnsgd1na2vs0mg"},{"bike_id":"1b37dd08-9f3b-4ce7-80e5-dd07b9bd8321","system_id":"levelo_inurba_marseille","lat":43.28041,"lon":5.36939,"is_reserved":false,"is_disabled":false,"rental_uris":{"android":"levelo://app?vid=1b37dd08-9f3b-4ce7-80e5-dd07b9bd8321","ios":"levelo://app?vid=1b37dd08-9f3b-4ce7-80e5-dd07b9bd8321"},"vehicle_type_id":"4","last_reported":1751141490,"current_range_meters":5600,"station_id":"ce4bha12rcd13ifvqef0","pricing_plan_id":"cebpf4jnsgd1na2vs0mg"},{"bike_id":"a440f2f6-8cf8-4348-9ba1-e21002a18a07","system_id":"levelo_inurba_marseille","lat":43.32116,"lon":5.36756,"is_reserved":false,"is_disabled":false,"rental_uris":{"android":"levelo://app?vid=a440f2f6-8cf8-4348-9ba1-e21002a18a07","ios":"levelo://app?vid=a440f2f6-8cf8-4348-9ba1-e21002a18a07"},"vehicle_type_id":"4","last_reported":1751141490,"current_range_meters":5600,"station_id":"ce4bhrh2rcd13ifvqhug","pricing_plan_id":"cebpf4jnsgd1na2vs0mg"},{"bike_id":"9fc6b39a-5532-40ac-8f58-975bced56a19","system_id":"levelo_inurba_marseille","lat":43.32767,"lon":5.40596,"is_reserved":false,"is_disabled":false,"rental_uris":{"android":"levelo://app?vid=9fc6b39a-5532-40ac-8f58-975bced56a19","ios":"levelo://app?vid=9fc6b39a-5532-40ac-8f58-975bced56a19"},"vehicle_type_id":"4","last_reported":1751141490,"current_range_meters":6000,"station_id":"","pricing_plan_id":"cebpf4jnsgd1na2vs0mg"},{"bike_id":"d93518a7-acea-49d1-8b1d-66917831e25a","system_id":"levelo_inurba_marseille","lat":43.28397,"lon":5.39575,"is_reserved":false,"is_disabled":false,"rental_uris":{"android":"levelo://app?vid=d93518a7-acea-49d1-8b1d-66917831e25a","ios":"levelo://app?vid=d93518a7-acea-49d1-8b1d-66917831e25a"},"vehicle_type_id":"4","last_reported":1751141490,"current_range_meters":6400,"station_id":"","pricing_plan_id":"cebpf4jnsgd1na2vs0mg"},{"bike_id":"6ac01c57-5a18-4107-9b36-edafcf3925d4","system_id":"levelo_inurba_marseille","lat":43.29849,"lon":5.36281,"is_reserved":false,"is_disabled":false,"rental_uris":{"android":"levelo://app?vid=6ac01c57-5a18-4107-9b36-edafcf3925d4","ios":"levelo://app?vid=6ac01c57-5a18-4107-9b36-edafcf3925d4"},"vehicle_type_id":"4","last_reported":1751141490,"current_range_meters":6400,"station_id":"ce4bgpp2rcd13ifvqc3g","pricing_plan_id":"cebpf4jnsgd1na2vs0mg"},{"bike_id":"281c06c7-9aa7-4543-95f4-878f7926a0e9","system_id":"levelo_inurba_marseille","lat":43.25934,"lon":5.40874,"is_reserved":false,"is_disabled":false,"rental_uris":{"android":"levelo://app?vid=281c06c7-9aa7-4543-95f4-878f7926a0e9","ios":"levelo://app?vid=281c06c7-9aa7-4543-95f4-878f7926a0e9"},"vehicle_type_id":"4","last_reported":1751141490,"current_range_meters":6400,"station_id":"ce4bhm92rcd13ifvqglg","pricing_plan_id":"cebpf4jnsgd1na2vs0mg"},{"bike_id":"70e679ce-cf8b-449b-b225-f0a001bb20ad","system_id":"levelo_inurba_marseille","lat":43.32536,"lon":5.41422,"is_reserved":false,"is_disabled":false,"rental_uris":{"android":"levelo://app?vid=70e679ce-cf8b-449b-b225-f0a001bb20ad","ios":"levelo://app?vid=70e679ce-cf8b-449b-b225-f0a001bb20ad"},"vehicle_type_id":"4","last_reported":1751141490,"current_range_meters":6400,"station_id":"ce4bhq12rcd13ifvqhhg","pricing_plan_id":"cebpf4jnsgd1na2vs0mg"},{"bike_id":"b9c687bc-cdc7-4cf4-8ba2-a727604e7f1d","system_id":"levelo_inurba_marseille","lat":43.26558,"lon":5.39009,"is_reserved":false,"is_disabled":false,"rental_uris":{"android":"levelo://app?vid=b9c687bc-cdc7-4cf4-8ba2-a727604e7f1d","ios":"levelo://app?vid=b9c687bc-cdc7-4cf4-8ba2-a727604e7f1d"},"vehicle_type_id":"4","last_reported":1751141490,"current_range_meters":6800,"station_id":"ce4bhe12rcd13ifvqf30","pricing_plan_id":"cebpf4jnsgd1na2vs0mg"},{"bike_id":"ce17393b-1d69-47ed-8e96-1f557099fd66","system_id":"levelo_inurba_marseille","lat":43.29425,"lon":5.386,"is_reserved":false,"is_disabled":false,"rental_uris":{"android":"levelo://app?vid=ce17393b-1d69-47ed-8e96-1f557099fd66","ios":"levelo://app?vid=ce17393b-1d69-47ed-8e96-1f557099fd66"},"vehicle_type_id":"4","last_reported":1751141490,"current_range_meters":7200,"station_id":"ce4bh2h2rcd13ifvqdh0","pricing_plan_id":"cebpf4jnsgd1na2vs0mg"},{"bike_id":"b84fedda-c129-49be-bf1c-b61445b9fbf6","system_id":"levelo_inurba_marseille","lat":43.28351,"lon":5.381,"is_reserved":false,"is_disabled":false,"rental_uris":{"android":"levelo://app?vid=b84fedda-c129-49be-bf1c-b61445b9fbf6","ios":"levelo://app?vid=b84fedda-c129-49be-bf1c-b61445b9fbf6"},"vehicle_type_id":"4","last_reported":1751141490,"current_range_meters":7200,"station_id":"ce4bh412rcd13ifvqdr0","pricing_plan_id":"cebpf4jnsgd1na2vs0mg"},{"bike_id":"44607553-0560-4c94-89f4-01d362ad0104","system_id":"levelo_inurba_marseille","lat":43.32363,"lon":5.38883,"is_reserved":false,"is_disabled":false,"rental_uris":{"android":"levelo://app?vid=44607553-0560-4c94-89f4-01d362ad0104","ios":"levelo://app?vid=44607553-0560-4c94-89f4-01d362ad0104"},"vehicle_type_id":"4","last_reported":1751141490,"current_range_meters":7200,"station_id":"ce4bhqp2rcd13ifvqhog","pricing_plan_id":"cebpf4jnsgd1na2vs0mg"},{"bike_id":"1c8ab180-05fd-405f-9922-b2b2c2d5142f","system_id":"levelo_inurba_marseille","lat":43.32113,"lon":5.36782,"is_reserved":false,"is_disabled":false,"rental_uris":{"android":"levelo://app?vid=1c8ab180-05fd-405f-9922-b2b2c2d5142f","ios":"levelo://app?vid=1c8ab180-05fd-405f-9922-b2b2c2d5142f"},"vehicle_type_id":"4","last_reported":1751141490,"current_range_meters":7200,"station_id":"ce4bhrh2rcd13ifvqhug","pricing_plan_id":"cebpf4jnsgd1na2vs0mg"},{"bike_id":"a0ef9327-b948-4595-bb05-5a36a87bedaa","system_id":"levelo_inurba_marseille","lat":43.25919,"lon":5.41796,"is_reserved":false,"is_disabled":false,"rental_uris":{"android":"levelo://app?vid=a0ef9327-b948-4595-bb05-5a36a87bedaa","ios":"levelo://app?vid=a0ef9327-b948-4595-bb05-5a36a87bedaa"},"vehicle_type_id":"4","last_reported":1751141490,"current_range_meters":8000,"station_id":"","pricing_plan_id":"cebpf4jnsgd1na2vs0mg"},{"bike_id":"454488ea-c8aa-45ee-aeec-e74b301efc9a","system_id":"levelo_inurba_marseille","lat":43.30945,"lon":5.39047,"is_reserved":false,"is_disabled":false,"rental_uris":{"android":"levelo://app?vid=454488ea-c8aa-45ee-aeec-e74b301efc9a","ios":"levelo://app?vid=454488ea-c8aa-45ee-aeec-e74b301efc9a"},"vehicle_type_id":"4","last_reported":1751141490,"current_range_meters":8000,"station_id":"ce4bgup2rcd13ifvqco0","pricing_plan_id":"cebpf4jnsgd1na2vs0mg"},{"bike_id":"27af4a07-b378-4076-805b-3f43a7bdf98e","system_id":"levelo_inurba_marseille","lat":43.27341,"lon":5.39034,"is_reserved":false,"is_disabled":false,"rental_uris":{"android":"levelo://app?vid=27af4a07-b378-4076-805b-3f43a7bdf98e","ios":"levelo://app?vid=27af4a07-b378-4076-805b-3f43a7bdf98e"},"vehicle_type_id":"4","last_reported":1751141490,"current_range_meters":8000,"station_id":"ce4bhgp2rcd13ifvqfe0","pricing_plan_id":"cebpf4jnsgd1na2vs0mg"},{"bike_id":"001fdb65-7adf-45d8-b172-ccc00924ec85","system_id":"levelo_inurba_marseille","lat":43.24166,"lon":5.36393,"is_reserved":false,"is_disabled":false,"rental_uris":{"android":"levelo://app?vid=001fdb65-7adf-45d8-b172-ccc00924ec85","ios":"levelo://app?vid=001fdb65-7adf-45d8-b172-ccc00924ec85"},"vehicle_type_id":"4","last_reported":1751141490,"current_range_meters":8000,"station_id":"cpo36qri1sfpv3e86is0","pricing_plan_id":"cebpf4jnsgd1na2vs0mg"},{"bike_id":"f55d2bb9-1a31-471a-9a94-108a28e269d3","system_id":"levelo_inurba_marseille","lat":43.27999,"lon":5.40016,"is_reserved":false,"is_disabled":false,"rental_uris":{"android":"levelo://app?vid=f55d2bb9-1a31-471a-9a94-108a28e269d3","ios":"levelo://app?vid=f55d2bb9-1a31-471a-9a94-108a28e269d3"},"vehicle_type_id":"4","last_reported":1751141490,"current_range_meters":8400,"station_id":"ce4bho92rcd13ifvqh4g","pricing_plan_id":"cebpf4jnsgd1na2vs0mg"},{"bike_id":"a6b8dee1-fa21-496b-918d-908eb6a95ebe","system_id":"levelo_inurba_marseille","lat":43.32656,"lon":5.40984,"is_reserved":false,"is_disabled":false,"rental_uris":{"android":"levelo://app?vid=a6b8dee1-fa21-496b-918d-908eb6a95ebe","ios":"levelo://app?vid=a6b8dee1-fa21-496b-918d-908eb6a95ebe"},"vehicle_type_id":"4","last_reported":1751141490,"current_range_meters":8400,"station_id":"ce4bhpp2rcd13ifvqhgg","pricing_plan_id":"cebpf4jnsgd1na2vs0mg"},{"bike_id":"ff7b050d-8f96-47e0-9ee4-ee887945ed8e","system_id":"levelo_inurba_marseille","lat":43.31109,"lon":5.38445,"is_reserved":false,"is_disabled":false,"rental_uris":{"android":"levelo://app?vid=ff7b050d-8f96-47e0-9ee4-ee887945ed8e","ios":"levelo://app?vid=ff7b050d-8f96-47e0-9ee4-ee887945ed8e"},"vehicle_type_id":"4","last_reported":1751141490,"current_range_meters":8800,"station_id":"","pricing_plan_id":"cebpf4jnsgd1na2vs0mg"},{"bike_id":"6ba3c878-96df-47b8-a9d1-e6780e7e3171","system_id":"levelo_inurba_marseille","lat":43.31122,"lon":5.37767,"is_reserved":false,"is_disabled":false,"rental_uris":{"android":"levelo://app?vid=6ba3c878-96df-47b8-a9d1-e6780e7e3171","ios":"levelo://app?vid=6ba3c878-96df-47b8-a9d1-e6780e7e3171"},"vehicle_type_id":"4","last_reported":1751141490,"current_range_meters":8800,"station_id":"ce4bgt92rcd13ifvqcg0","pricing_plan_id":"cebpf4jnsgd1na2vs0mg"},{"bike_id":"5285971f-a60d-4bb6-a928-38856b3aa436","system_id":"levelo_inurba_marseille","lat":43.2752,"lon":5.42443,"is_reserved":false,"is_disabled":false,"rental_uris":{"android":"levelo://app?vid=5285971f-a60d-4bb6-a928-38856b3aa436","ios":"levelo://app?vid=5285971f-a60d-4bb6-a928-38856b3aa436"},"vehicle_type_id":"4","last_reported":1751141490,"current_range_meters":8800,"station_id":"ce4bhn92rcd13ifvqgrg","pricing_plan_id":"cebpf4jnsgd1na2vs0mg"},{"bike_id":"5706406e-9b77-4233-8b67-d72ef2f4152d","system_id":"levelo_inurba_marseille","lat":43.26021,"lon":5.3754,"is_reserved":false,"is_disabled":false,"rental_uris":{"android":"levelo://app?vid=5706406e-9b77-4233-8b67-d72ef2f4152d","ios":"levelo://app?vid=5706406e-9b77-4233-8b67-d72ef2f4152d"},"vehicle_type_id":"4","last_reported":1751141490,"current_range_meters":9200,"station_id":"ce4bhgh2rcd13ifvqfa0","pricing_plan_id":"cebpf4jnsgd1na2vs0mg"},{"bike_id":"d5e70777-ad97-4594-91b6-43ede9611b14","system_id":"levelo_inurba_marseille","lat":43.321188,"lon":5.367732,"is_reserved":false,"is_disabled":false,"rental_uris":{"android":"levelo://app?vid=d5e70777-ad97-4594-91b6-43ede9611b14","ios":"levelo://app?vid=d5e70777-ad97-4594-91b6-43ede9611b14"},"vehicle_type_id":"4","last_reported":1751141490,"current_range_meters":9200,"station_id":"ce4bhrh2rcd13ifvqhug","pricing_plan_id":"cebpf4jnsgd1na2vs0mg"},{"bike_id":"a262b0ea-69a7-4e8d-854e-8e63afa111e4","system_id":"levelo_inurba_marseille","lat":43.241636,"lon":5.36395,"is_reserved":false,"is_disabled":false,"rental_uris":{"android":"levelo://app?vid=a262b0ea-69a7-4e8d-854e-8e63afa111e4","ios":"levelo://app?vid=a262b0ea-69a7-4e8d-854e-8e63afa111e4"},"vehicle_type_id":"4","last_reported":1751141490,"current_range_meters":9200,"station_id":"cpo36qri1sfpv3e86is0","pricing_plan_id":"cebpf4jnsgd1na2vs0mg"},{"bike_id":"0ea9a5fa-dfe3-4435-8521-628911f3c041","system_id":"levelo_inurba_marseille","lat":43.232051,"lon":5.355578,"is_reserved":false,"is_disabled":false,"rental_uris":{"android":"levelo://app?vid=0ea9a5fa-dfe3-4435-8521-628911f3c041","ios":"levelo://app?vid=0ea9a5fa-dfe3-4435-8521-628911f3c041"},"vehicle_type_id":"4","last_reported":1751141490,"current_range_meters":9600,"station_id":"","pricing_plan_id":"cebpf4jnsgd1na2vs0mg"},{"bike_id":"9c412288-961d-48a7-8433-008beb4ef59a","system_id":"levelo_inurba_marseille","lat":43.30949,"lon":5.39031,"is_reserved":false,"is_disabled":false,"rental_uris":{"android":"levelo://app?vid=9c412288-961d-48a7-8433-008beb4ef59a","ios":"levelo://app?vid=9c412288-961d-48a7-8433-008beb4ef59a"},"vehicle_type_id":"4","last_reported":1751141490,"current_range_meters":9600,"station_id":"ce4bgup2rcd13ifvqco0","pricing_plan_id":"cebpf4jnsgd1na2vs0mg"},{"bike_id":"2fa8850c-55b8-46b2-a4c0-bf690ef8f3bf","system_id":"levelo_inurba_marseille","lat":43.2893,"lon":5.38395,"is_reserved":false,"is_disabled":false,"rental_uris":{"android":"levelo://app?vid=2fa8850c-55b8-46b2-a4c0-bf690ef8f3bf","ios":"levelo://app?vid=2fa8850c-55b8-46b2-a4c0-bf690ef8f3bf"},"vehicle_type_id":"4","last_reported":1751141490,"current_range_meters":9600,"station_id":"ce4bh612rcd13ifvqe6g","pricing_plan_id":"cebpf4jnsgd1na2vs0mg"},{"bike_id":"411255a8-69a4-496b-9683-76ccf4babba4","system_id":"levelo_inurba_marseille","lat":43.27917,"lon":5.39579,"is_reserved":false,"is_disabled":false,"rental_uris":{"android":"levelo://app?vid=411255a8-69a4-496b-9683-76ccf4babba4","ios":"levelo://app?vid=411255a8-69a4-496b-9683-76ccf4babba4"},"vehicle_type_id":"4","last_reported":1751141490,"current_range_meters":9600,"station_id":"ce4bhf92rcd13ifvqf40","pricing_plan_id":"cebpf4jnsgd1na2vs0mg"},{"bike_id":"b42ea0c2-d9b6-4da1-8944-8baf9807963e","system_id":"levelo_inurba_marseille","lat":43.26213,"lon":5.3744,"is_reserved":false,"is_disabled":false,"rental_uris":{"android":"levelo://app?vid=b42ea0c2-d9b6-4da1-8944-8baf9807963e","ios":"levelo://app?vid=b42ea0c2-d9b6-4da1-8944-8baf9807963e"},"vehicle_type_id":"4","last_reported":1751141490,"current_range_meters":9600,"station_id":"ce4bhgp2rcd13ifvqfc0","pricing_plan_id":"cebpf4jnsgd1na2vs0mg"},{"bike_id":"5b490b7b-acb3-480f-8da9-dc9ae11ef6c8","system_id":"levelo_inurba_marseille","lat":43.2621,"lon":5.37441,"is_reserved":false,"is_disabled":false,"rental_uris":{"android":"levelo://app?vid=5b490b7b-acb3-480f-8da9-dc9ae11ef6c8","ios":"levelo://app?vid=5b490b7b-acb3-480f-8da9-dc9ae11ef6c8"},"vehicle_type_id":"4","last_reported":1751141490,"current_range_meters":9600,"station_id":"ce4bhgp2rcd13ifvqfc0","pricing_plan_id":"cebpf4jnsgd1na2vs0mg"},{"bike_id":"bbc4a376-bee7-4ad5-a49a-1022d27c1489","system_id":"levelo_inurba_marseille","lat":43.32083,"lon":5.36745,"is_reserved":false,"is_disabled":false,"rental_uris":{"android":"levelo://app?vid=bbc4a376-bee7-4ad5-a49a-1022d27c1489","ios":"levelo://app?vid=bbc4a376-bee7-4ad5-a49a-1022d27c1489"},"vehicle_type_id":"4","last_reported":1751141490,"current_range_meters":9600,"station_id":"ce4bhrh2rcd13ifvqhug","pricing_plan_id":"cebpf4jnsgd1na2vs0mg"},{"bike_id":"e6ce70f7-9138-485c-a4db-2c9174614cff","system_id":"levelo_inurba_marseille","lat":43.31775,"lon":5.36847,"is_reserved":false,"is_disabled":false,"rental_uris":{"android":"levelo://app?vid=e6ce70f7-9138-485c-a4db-2c9174614cff","ios":"levelo://app?vid=e6ce70f7-9138-485c-a4db-2c9174614cff"},"vehicle_type_id":"4","last_reported":1751141490,"current_range_meters":10000,"station_id":"","pricing_plan_id":"cebpf4jnsgd1na2vs0mg"},{"bike_id":"a53381d2-35bb-461a-b15e-8d5bf2d8a4c0","system_id":"levelo_inurba_marseille","lat":43.30952,"lon":5.3906,"is_reserved":false,"is_disabled":false,"rental_uris":{"android":"levelo://app?vid=a53381d2-35bb-461a-b15e-8d5bf2d8a4c0","ios":"levelo://app?vid=a53381d2-35bb-461a-b15e-8d5bf2d8a4c0"},"vehicle_type_id":"4","last_reported":1751141490,"current_range_meters":10000,"station_id":"ce4bgup2rcd13ifvqco0","pricing_plan_id":"cebpf4jnsgd1na2vs0mg"},{"bike_id":"2c7dd6f6-1d22-47a5-bf2b-b67a5c3306d9","system_id":"levelo_inurba_marseille","lat":43.28456,"lon":5.35882,"is_reserved":false,"is_disabled":false,"rental_uris":{"android":"levelo://app?vid=2c7dd6f6-1d22-47a5-bf2b-b67a5c3306d9","ios":"levelo://app?vid=2c7dd6f6-1d22-47a5-bf2b-b67a5c3306d9"},"vehicle_type_id":"4","last_reported":1751141490,"current_range_meters":10000,"station_id":"ce4bhah2rcd13ifvqei0","pricing_plan_id":"cebpf4jnsgd1na2vs0mg"},{"bike_id":"fbc3ee83-1cf0-48b2-9ffa-4f82c9c56b49","system_id":"levelo_inurba_marseille","lat":43.26554,"lon":5.37282,"is_reserved":false,"is_disabled":false,"rental_uris":{"android":"levelo://app?vid=fbc3ee83-1cf0-48b2-9ffa-4f82c9c56b49","ios":"levelo://app?vid=fbc3ee83-1cf0-48b2-9ffa-4f82c9c56b49"},"vehicle_type_id":"4","last_reported":1751141490,"current_range_meters":10000,"station_id":"ce4bhg12rcd13ifvqf70","pricing_plan_id":"cebpf4jnsgd1na2vs0mg"},{"bike_id":"579ee661-ccf3-4fea-b854-553310655910","system_id":"levelo_inurba_marseille","lat":43.27308,"lon":5.39078,"is_reserved":false,"is_disabled":false,"rental_uris":{"android":"levelo://app?vid=579ee661-ccf3-4fea-b854-553310655910","ios":"levelo://app?vid=579ee661-ccf3-4fea-b854-553310655910"},"vehicle_type_id":"4","last_reported":1751141490,"current_range_meters":10000,"station_id":"ce4bhgp2rcd13ifvqfe0","pricing_plan_id":"cebpf4jnsgd1na2vs0mg"},{"bike_id":"303e09fe-088b-44ab-9946-308396e29add","system_id":"levelo_inurba_marseille","lat":43.26771,"lon":5.39416,"is_reserved":false,"is_disabled":false,"rental_uris":{"android":"levelo://app?vid=303e09fe-088b-44ab-9946-308396e29add","ios":"levelo://app?vid=303e09fe-088b-44ab-9946-308396e29add"},"vehicle_type_id":"4","last_reported":1751141490,"current_range_meters":10000,"station_id":"ce4bhh12rcd13ifvqfg0","pricing_plan_id":"cebpf4jnsgd1na2vs0mg"},{"bike_id":"13726ea4-91b3-4b24-87ce-db653217d50c","system_id":"levelo_inurba_marseille","lat":43.32122,"lon":5.36736,"is_reserved":false,"is_disabled":false,"rental_uris":{"android":"levelo://app?vid=13726ea4-91b3-4b24-87ce-db653217d50c","ios":"levelo://app?vid=13726ea4-91b3-4b24-87ce-db653217d50c"},"vehicle_type_id":"4","last_reported":1751141490,"current_range_meters":10000,"station_id":"ce4bhrh2rcd13ifvqhug","pricing_plan_id":"cebpf4jnsgd1na2vs0mg"},{"bike_id":"44b677c8-76ed-4eac-8888-58151f9d5d6e","system_id":"levelo_inurba_marseille","lat":43.31952,"lon":5.3676,"is_reserved":false,"is_disabled":false,"rental_uris":{"android":"levelo://app?vid=44b677c8-76ed-4eac-8888-58151f9d5d6e","ios":"levelo://app?vid=44b677c8-76ed-4eac-8888-58151f9d5d6e"},"vehicle_type_id":"4","last_reported":1751141490,"current_range_meters":10800,"station_id":"","pricing_plan_id":"cebpf4jnsgd1na2vs0mg"},{"bike_id":"be69badc-83bc-4ef3-b10e-8e00a10178e0","system_id":"levelo_inurba_marseille","lat":43.31111,"lon":5.3777,"is_reserved":false,"is_disabled":false,"rental_uris":{"android":"levelo://app?vid=be69badc-83bc-4ef3-b10e-8e00a10178e0","ios":"levelo://app?vid=be69badc-83bc-4ef3-b10e-8e00a10178e0"},"vehicle_type_id":"4","last_reported":1751141490,"current_range_meters":10800,"station_id":"ce4bgt92rcd13ifvqcg0","pricing_plan_id":"cebpf4jnsgd1na2vs0mg"},{"bike_id":"a5267c44-1ca3-4b98-aa6b-169664a36ce3","system_id":"levelo_inurba_marseille","lat":43.3094,"lon":5.39029,"is_reserved":false,"is_disabled":false,"rental_uris":{"android":"levelo://app?vid=a5267c44-1ca3-4b98-aa6b-169664a36ce3","ios":"levelo://app?vid=a5267c44-1ca3-4b98-aa6b-169664a36ce3"},"vehicle_type_id":"4","last_reported":1751141490,"current_range_meters":10800,"station_id":"ce4bgup2rcd13ifvqco0","pricing_plan_id":"cebpf4jnsgd1na2vs0mg"},{"bike_id":"1c7298ac-f7ef-4f3e-b709-651abe00d646","system_id":"levelo_inurba_marseille","lat":43.29032,"lon":5.3995,"is_reserved":false,"is_disabled":false,"rental_uris":{"android":"levelo://app?vid=1c7298ac-f7ef-4f3e-b709-651abe00d646","ios":"levelo://app?vid=1c7298ac-f7ef-4f3e-b709-651abe00d646"},"vehicle_type_id":"4","last_reported":1751141490,"current_range_meters":10800,"station_id":"ce4bh392rcd13ifvqdm0","pricing_plan_id":"cebpf4jnsgd1na2vs0mg"},{"bike_id":"177faf2e-8b27-4b58-ac6a-668c8259c1f6","system_id":"levelo_inurba_marseille","lat":43.28038,"lon":5.3694,"is_reserved":false,"is_disabled":false,"rental_uris":{"android":"levelo://app?vid=177faf2e-8b27-4b58-ac6a-668c8259c1f6","ios":"levelo://app?vid=177faf2e-8b27-4b58-ac6a-668c8259c1f6"},"vehicle_type_id":"4","last_reported":1751141490,"current_range_meters":10800,"station_id":"ce4bha12rcd13ifvqef0","pricing_plan_id":"cebpf4jnsgd1na2vs0mg"},{"bike_id":"74555ca3-7bdc-42f3-86b9-006fadb0c716","system_id":"levelo_inurba_marseille","lat":43.29007,"lon":5.356171,"is_reserved":false,"is_disabled":false,"rental_uris":{"android":"levelo://app?vid=74555ca3-7bdc-42f3-86b9-006fadb0c716","ios":"levelo://app?vid=74555ca3-7bdc-42f3-86b9-006fadb0c716"},"vehicle_type_id":"4","last_reported":1751141490,"current_range_meters":10800,"station_id":"ce4bhb92rcd13ifvqen0","pricing_plan_id":"cebpf4jnsgd1na2vs0mg"},{"bike_id":"870e5fb9-c097-4e97-8f15-9764e3c0937f","system_id":"levelo_inurba_marseille","lat":43.27975,"lon":5.38727,"is_reserved":false,"is_disabled":false,"rental_uris":{"android":"levelo://app?vid=870e5fb9-c097-4e97-8f15-9764e3c0937f","ios":"levelo://app?vid=870e5fb9-c097-4e97-8f15-9764e3c0937f"},"vehicle_type_id":"4","last_reported":1751141490,"current_range_meters":10800,"station_id":"ce4bhg12rcd13ifvqf80","pricing_plan_id":"cebpf4jnsgd1na2vs0mg"},{"bike_id":"ddc32f42-6c6b-4efd-b624-808533ea3c9e","system_id":"levelo_inurba_marseille","lat":43.2617,"lon":5.37396,"is_reserved":false,"is_disabled":false,"rental_uris":{"android":"levelo://app?vid=ddc32f42-6c6b-4efd-b624-808533ea3c9e","ios":"levelo://app?vid=ddc32f42-6c6b-4efd-b624-808533ea3c9e"},"vehicle_type_id":"4","last_reported":1751141490,"current_range_meters":10800,"station_id":"ce4bhgp2rcd13ifvqfc0","pricing_plan_id":"cebpf4jnsgd1na2vs0mg"},{"bike_id":"afc5db3e-0ec2-4fcc-8e74-cd2c8402cc54","system_id":"levelo_inurba_marseille","lat":43.28724,"lon":5.36101,"is_reserved":false,"is_disabled":false,"rental_uris":{"android":"levelo://app?vid=afc5db3e-0ec2-4fcc-8e74-cd2c8402cc54","ios":"levelo://app?vid=afc5db3e-0ec2-4fcc-8e74-cd2c8402cc54"},"vehicle_type_id":"4","last_reported":1751141490,"current_range_meters":10800,"station_id":"cki0cbj6b192h4jlfktg","pricing_plan_id":"cebpf4jnsgd1na2vs0mg"},{"bike_id":"fcc46504-cca5-4295-a4f6-1c02e2e46c6a","system_id":"levelo_inurba_marseille","lat":43.262073,"lon":5.374455,"is_reserved":false,"is_disabled":false,"rental_uris":{"android":"levelo://app?vid=fcc46504-cca5-4295-a4f6-1c02e2e46c6a","ios":"levelo://app?vid=fcc46504-cca5-4295-a4f6-1c02e2e46c6a"},"vehicle_type_id":"4","last_reported":1751141490,"current_range_meters":11200,"station_id":"","pricing_plan_id":"cebpf4jnsgd1na2vs0mg"},{"bike_id":"56d6f40b-b923-4128-bbb9-eea3ebe4588f","system_id":"levelo_inurba_marseille","lat":43.27617,"lon":5.36091,"is_reserved":false,"is_disabled":false,"rental_uris":{"android":"levelo://app?vid=56d6f40b-b923-4128-bbb9-eea3ebe4588f","ios":"levelo://app?vid=56d6f40b-b923-4128-bbb9-eea3ebe4588f"},"vehicle_type_id":"4","last_reported":1751141490,"current_range_meters":11200,"station_id":"ce4bgj92rcd13ifvqbe0","pricing_plan_id":"cebpf4jnsgd1na2vs0mg"},{"bike_id":"8ff4fd6f-bf4f-4c77-9752-84131b58737f","system_id":"levelo_inurba_marseille","lat":43.30948,"lon":5.39044,"is_reserved":false,"is_disabled":false,"rental_uris":{"android":"levelo://app?vid=8ff4fd6f-bf4f-4c77-9752-84131b58737f","ios":"levelo://app?vid=8ff4fd6f-bf4f-4c77-9752-84131b58737f"},"vehicle_type_id":"4","last_reported":1751141490,"current_range_meters":11200,"station_id":"ce4bgup2rcd13ifvqco0","pricing_plan_id":"cebpf4jnsgd1na2vs0mg"},{"bike_id":"bde3c7a2-913d-4fa7-8c29-2b089573b6b5","system_id":"levelo_inurba_marseille","lat":43.267796,"lon":5.394187,"is_reserved":false,"is_disabled":false,"rental_uris":{"android":"levelo://app?vid=bde3c7a2-913d-4fa7-8c29-2b089573b6b5","ios":"levelo://app?vid=bde3c7a2-913d-4fa7-8c29-2b089573b6b5"},"vehicle_type_id":"4","last_reported":1751141490,"current_range_meters":11200,"station_id":"ce4bhh12rcd13ifvqfg0","pricing_plan_id":"cebpf4jnsgd1na2vs0mg"},{"bike_id":"c6240266-1b1a-408e-aa67-c6560b60d809","system_id":"levelo_inurba_marseille","lat":43.23951,"lon":5.36632,"is_reserved":false,"is_disabled":false,"rental_uris":{"android":"levelo://app?vid=c6240266-1b1a-408e-aa67-c6560b60d809","ios":"levelo://app?vid=c6240266-1b1a-408e-aa67-c6560b60d809"},"vehicle_type_id":"4","last_reported":1751141490,"current_range_meters":11200,"station_id":"ce4bhi12rcd13ifvqfp0","pricing_plan_id":"cebpf4jnsgd1na2vs0mg"},{"bike_id":"962af267-d53f-46b3-80f5-26c7fbd343ce","system_id":"levelo_inurba_marseille","lat":43.22502,"lon":5.34787,"is_reserved":false,"is_disabled":false,"rental_uris":{"android":"levelo://app?vid=962af267-d53f-46b3-80f5-26c7fbd343ce","ios":"levelo://app?vid=962af267-d53f-46b3-80f5-26c7fbd343ce"},"vehicle_type_id":"4","last_reported":1751141490,"current_range_meters":11200,"station_id":"st_cvj5dfep6f1abm77gieg","pricing_plan_id":"cebpf4jnsgd1na2vs0mg"},{"bike_id":"12c7fc9f-7c7b-4185-9b2f-badd0c17e36b","system_id":"levelo_inurba_marseille","lat":43.24711,"lon":5.37429,"is_reserved":false,"is_disabled":false,"rental_uris":{"android":"levelo://app?vid=12c7fc9f-7c7b-4185-9b2f-badd0c17e36b","ios":"levelo://app?vid=12c7fc9f-7c7b-4185-9b2f-badd0c17e36b"},"vehicle_type_id":"4","last_reported":1751141490,"current_range_meters":11600,"station_id":"","pricing_plan_id":"cebpf4jnsgd1na2vs0mg"},{"bike_id":"07b3984a-2889-4253-99cf-c5ef4530e935","system_id":"levelo_inurba_marseille","lat":43.29414,"lon":5.38609,"is_reserved":false,"is_disabled":false,"rental_uris":{"android":"levelo://app?vid=07b3984a-2889-4253-99cf-c5ef4530e935","ios":"levelo://app?vid=07b3984a-2889-4253-99cf-c5ef4530e935"},"vehicle_type_id":"4","last_reported":1751141490,"current_range_meters":11600,"station_id":"ce4bh2h2rcd13ifvqdh0","pricing_plan_id":"cebpf4jnsgd1na2vs0mg"},{"bike_id":"c7b0be5d-0276-4f88-9983-14d21c290fba","system_id":"levelo_inurba_marseille","lat":43.24812,"lon":5.3746,"is_reserved":false,"is_disabled":false,"rental_uris":{"android":"levelo://app?vid=c7b0be5d-0276-4f88-9983-14d21c290fba","ios":"levelo://app?vid=c7b0be5d-0276-4f88-9983-14d21c290fba"},"vehicle_type_id":"4","last_reported":1751141490,"current_range_meters":11600,"station_id":"ce4bhgh2rcd13ifvqfb0","pricing_plan_id":"cebpf4jnsgd1na2vs0mg"},{"bike_id":"873ce198-d36d-4815-8778-b72bd2ca0116","system_id":"levelo_inurba_marseille","lat":43.321061,"lon":5.367672,"is_reserved":false,"is_disabled":false,"rental_uris":{"android":"levelo://app?vid=873ce198-d36d-4815-8778-b72bd2ca0116","ios":"levelo://app?vid=873ce198-d36d-4815-8778-b72bd2ca0116"},"vehicle_type_id":"4","last_reported":1751141490,"current_range_meters":11600,"station_id":"ce4bhrh2rcd13ifvqhug","pricing_plan_id":"cebpf4jnsgd1na2vs0mg"},{"bike_id":"13fabc0f-5bfd-4dc8-9136-84b1659cd66b","system_id":"levelo_inurba_marseille","lat":43.21189,"lon":5.35062,"is_reserved":false,"is_disabled":false,"rental_uris":{"android":"levelo://app?vid=13fabc0f-5bfd-4dc8-9136-84b1659cd66b","ios":"levelo://app?vid=13fabc0f-5bfd-4dc8-9136-84b1659cd66b"},"vehicle_type_id":"4","last_reported":1751141490,"current_range_meters":11600,"station_id":"st_cvj6sg6p6f1abm77japg","pricing_plan_id":"cebpf4jnsgd1na2vs0mg"},{"bike_id":"721165c1-ef6f-40cc-8d33-af3a7999864b","system_id":"levelo_inurba_marseille","lat":43.32604,"lon":5.37867,"is_reserved":false,"is_disabled":false,"rental_uris":{"android":"levelo://app?vid=721165c1-ef6f-40cc-8d33-af3a7999864b","ios":"levelo://app?vid=721165c1-ef6f-40cc-8d33-af3a7999864b"},"vehicle_type_id":"4","last_reported":1751141490,"current_range_meters":12000,"station_id":"","pricing_plan_id":"cebpf4jnsgd1na2vs0mg"},{"bike_id":"f0b8e7db-d8dd-4574-b97e-3971706fcdfd","system_id":"levelo_inurba_marseille","lat":43.311148,"lon":5.377622,"is_reserved":false,"is_disabled":false,"rental_uris":{"android":"levelo://app?vid=f0b8e7db-d8dd-4574-b97e-3971706fcdfd","ios":"levelo://app?vid=f0b8e7db-d8dd-4574-b97e-3971706fcdfd"},"vehicle_type_id":"4","last_reported":1751141490,"current_range_meters":12000,"station_id":"ce4bgt92rcd13ifvqcg0","pricing_plan_id":"cebpf4jnsgd1na2vs0mg"},{"bike_id":"429f644f-6331-442a-824c-38d47f83d3ec","system_id":"levelo_inurba_marseille","lat":43.27683,"lon":5.38872,"is_reserved":false,"is_disabled":false,"rental_uris":{"android":"levelo://app?vid=429f644f-6331-442a-824c-38d47f83d3ec","ios":"levelo://app?vid=429f644f-6331-442a-824c-38d47f83d3ec"},"vehicle_type_id":"4","last_reported":1751141490,"current_range_meters":12000,"station_id":"ce4bhi12rcd13ifvqfo0","pricing_plan_id":"cebpf4jnsgd1na2vs0mg"},{"bike_id":"753cae3d-13ad-4a0c-8ba8-0b57c59a5512","system_id":"levelo_inurba_marseille","lat":43.25088,"lon":5.3949,"is_reserved":false,"is_disabled":false,"rental_uris":{"android":"levelo://app?vid=753cae3d-13ad-4a0c-8ba8-0b57c59a5512","ios":"levelo://app?vid=753cae3d-13ad-4a0c-8ba8-0b57c59a5512"},"vehicle_type_id":"4","last_reported":1751141490,"current_range_meters":12000,"station_id":"ce4bhm12rcd13ifvqgkg","pricing_plan_id":"cebpf4jnsgd1na2vs0mg"},{"bike_id":"14e8ef37-e834-4d76-9946-e98f7a083a2f","system_id":"levelo_inurba_marseille","lat":43.21193,"lon":5.35068,"is_reserved":false,"is_disabled":false,"rental_uris":{"android":"levelo://app?vid=14e8ef37-e834-4d76-9946-e98f7a083a2f","ios":"levelo://app?vid=14e8ef37-e834-4d76-9946-e98f7a083a2f"},"vehicle_type_id":"4","last_reported":1751141490,"current_range_meters":12000,"station_id":"st_cvj6sg6p6f1abm77japg","pricing_plan_id":"cebpf4jnsgd1na2vs0mg"},{"bike_id":"71c8b17a-46db-4e23-a6c9-8e1431beeb56","system_id":"levelo_inurba_marseille","lat":43.30946,"lon":5.39033,"is_reserved":false,"is_disabled":false,"rental_uris":{"android":"levelo://app?vid=71c8b17a-46db-4e23-a6c9-8e1431beeb56","ios":"levelo://app?vid=71c8b17a-46db-4e23-a6c9-8e1431beeb56"},"vehicle_type_id":"4","last_reported":1751141490,"current_range_meters":12400,"station_id":"ce4bgup2rcd13ifvqco0","pricing_plan_id":"cebpf4jnsgd1na2vs0mg"},{"bike_id":"cb3e2143-c3f5-4240-b015-69f3f2bd439a","system_id":"levelo_inurba_marseille","lat":43.30955,"lon":5.39031,"is_reserved":false,"is_disabled":false,"rental_uris":{"android":"levelo://app?vid=cb3e2143-c3f5-4240-b015-69f3f2bd439a","ios":"levelo://app?vid=cb3e2143-c3f5-4240-b015-69f3f2bd439a"},"vehicle_type_id":"4","last_reported":1751141490,"current_range_meters":12400,"station_id":"ce4bgup2rcd13ifvqco0","pricing_plan_id":"cebpf4jnsgd1na2vs0mg"},{"bike_id":"b2597191-c401-4f04-9f39-de69ea859b45","system_id":"levelo_inurba_marseille","lat":43.30888,"lon":5.39652,"is_reserved":false,"is_disabled":false,"rental_uris":{"android":"levelo://app?vid=b2597191-c401-4f04-9f39-de69ea859b45","ios":"levelo://app?vid=b2597191-c401-4f04-9f39-de69ea859b45"},"vehicle_type_id":"4","last_reported":1751141490,"current_range_meters":12400,"station_id":"ce4bh012rcd13ifvqcv0","pricing_plan_id":"cebpf4jnsgd1na2vs0mg"},{"bike_id":"de97ae83-a34a-46b4-9b85-ba831d130b16","system_id":"levelo_inurba_marseille","lat":43.29796,"lon":5.40402,"is_reserved":false,"is_disabled":false,"rental_uris":{"android":"levelo://app?vid=de97ae83-a34a-46b4-9b85-ba831d130b16","ios":"levelo://app?vid=de97ae83-a34a-46b4-9b85-ba831d130b16"},"vehicle_type_id":"4","last_reported":1751141490,"current_range_meters":12400,"station_id":"ce4bh112rcd13ifvqd90","pricing_plan_id":"cebpf4jnsgd1na2vs0mg"},{"bike_id":"00e3de77-849e-4da6-b812-4c472810f698","system_id":"levelo_inurba_marseille","lat":43.26207,"lon":5.3741,"is_reserved":false,"is_disabled":false,"rental_uris":{"android":"levelo://app?vid=00e3de77-849e-4da6-b812-4c472810f698","ios":"levelo://app?vid=00e3de77-849e-4da6-b812-4c472810f698"},"vehicle_type_id":"4","last_reported":1751141490,"current_range_meters":12400,"station_id":"ce4bhgp2rcd13ifvqfc0","pricing_plan_id":"cebpf4jnsgd1na2vs0mg"},{"bike_id":"a7883090-0e10-4075-944b-a3cca54bc544","system_id":"levelo_inurba_marseille","lat":43.225066,"lon":5.347826,"is_reserved":false,"is_disabled":false,"rental_uris":{"android":"levelo://app?vid=a7883090-0e10-4075-944b-a3cca54bc544","ios":"levelo://app?vid=a7883090-0e10-4075-944b-a3cca54bc544"},"vehicle_type_id":"4","last_reported":1751141490,"current_range_meters":12400,"station_id":"st_cvj5dfep6f1abm77gieg","pricing_plan_id":"cebpf4jnsgd1na2vs0mg"},{"bike_id":"762acdc5-9b99-47a0-bda1-ee8060271245","system_id":"levelo_inurba_marseille","lat":43.21211,"lon":5.35072,"is_reserved":false,"is_disabled":false,"rental_uris":{"android":"levelo://app?vid=762acdc5-9b99-47a0-bda1-ee8060271245","ios":"levelo://app?vid=762acdc5-9b99-47a0-bda1-ee8060271245"},"vehicle_type_id":"4","last_reported":1751141490,"current_range_meters":12400,"station_id":"st_cvj6sg6p6f1abm77japg","pricing_plan_id":"cebpf4jnsgd1na2vs0mg"},{"bike_id":"071d9ad8-79e9-447b-b25c-0a0463116df8","system_id":"levelo_inurba_marseille","lat":43.23842,"lon":5.36527,"is_reserved":false,"is_disabled":false,"rental_uris":{"android":"levelo://app?vid=071d9ad8-79e9-447b-b25c-0a0463116df8","ios":"levelo://app?vid=071d9ad8-79e9-447b-b25c-0a0463116df8"},"vehicle_type_id":"4","last_reported":1751141490,"current_range_meters":12800,"station_id":"","pricing_plan_id":"cebpf4jnsgd1na2vs0mg"},{"bike_id":"1c350623-61f7-4641-af5f-5335359a1062","system_id":"levelo_inurba_marseille","lat":43.30946,"lon":5.39033,"is_reserved":false,"is_disabled":false,"rental_uris":{"android":"levelo://app?vid=1c350623-61f7-4641-af5f-5335359a1062","ios":"levelo://app?vid=1c350623-61f7-4641-af5f-5335359a1062"},"vehicle_type_id":"4","last_reported":1751141490,"current_range_meters":12800,"station_id":"ce4bgup2rcd13ifvqco0","pricing_plan_id":"cebpf4jnsgd1na2vs0mg"},{"bike_id":"2d9685d4-c859-4936-8905-0013a0b2f613","system_id":"levelo_inurba_marseille","lat":43.27425,"lon":5.39363,"is_reserved":false,"is_disabled":false,"rental_uris":{"android":"levelo://app?vid=2d9685d4-c859-4936-8905-0013a0b2f613","ios":"levelo://app?vid=2d9685d4-c859-4936-8905-0013a0b2f613"},"vehicle_type_id":"4","last_reported":1751141490,"current_range_meters":12800,"station_id":"ce4bhdp2rcd13ifvqf20","pricing_plan_id":"cebpf4jnsgd1na2vs0mg"},{"bike_id":"a42812b6-bc78-4157-a520-01ba99a08551","system_id":"levelo_inurba_marseille","lat":43.24166,"lon":5.36395,"is_reserved":false,"is_disabled":false,"rental_uris":{"android":"levelo://app?vid=a42812b6-bc78-4157-a520-01ba99a08551","ios":"levelo://app?vid=a42812b6-bc78-4157-a520-01ba99a08551"},"vehicle_type_id":"4","last_reported":1751141490,"current_range_meters":12800,"station_id":"cpo36qri1sfpv3e86is0","pricing_plan_id":"cebpf4jnsgd1na2vs0mg"},{"bike_id":"44a7cb83-3bdb-4ccb-b4b4-187196fe46a6","system_id":"levelo_inurba_marseille","lat":43.293,"lon":5.37458,"is_reserved":false,"is_disabled":false,"rental_uris":{"android":"levelo://app?vid=44a7cb83-3bdb-4ccb-b4b4-187196fe46a6","ios":"levelo://app?vid=44a7cb83-3bdb-4ccb-b4b4-187196fe46a6"},"vehicle_type_id":"4","last_reported":1751141490,"current_range_meters":13600,"station_id":"ce4bgi12rcd13ifvqb70","pricing_plan_id":"cebpf4jnsgd1na2vs0mg"},{"bike_id":"91b65e10-0e4e-418a-bcf7-105b8872a5de","system_id":"levelo_inurba_marseille","lat":43.23085,"lon":5.3547,"is_reserved":false,"is_disabled":false,"rental_uris":{"android":"levelo://app?vid=91b65e10-0e4e-418a-bcf7-105b8872a5de","ios":"levelo://app?vid=91b65e10-0e4e-418a-bcf7-105b8872a5de"},"vehicle_type_id":"4","last_reported":1751141490,"current_range_meters":13600,"station_id":"cpo3342slgdg3j2ifvpg","pricing_plan_id":"cebpf4jnsgd1na2vs0mg"},{"bike_id":"c7067ed1-f9ee-40ab-a529-1c223a6eea73","system_id":"levelo_inurba_marseille","lat":43.28431,"lon":5.34968,"is_reserved":false,"is_disabled":false,"rental_uris":{"android":"levelo://app?vid=c7067ed1-f9ee-40ab-a529-1c223a6eea73","ios":"levelo://app?vid=c7067ed1-f9ee-40ab-a529-1c223a6eea73"},"vehicle_type_id":"4","last_reported":1751141490,"current_range_meters":14000,"station_id":"ce4bhbh2rcd13ifvqepg","pricing_plan_id":"cebpf4jnsgd1na2vs0mg"},{"bike_id":"c4e23027-fb76-4e12-a17a-e866f2d0c4a5","system_id":"levelo_inurba_marseille","lat":43.26053,"lon":5.37549,"is_reserved":false,"is_disabled":false,"rental_uris":{"android":"levelo://app?vid=c4e23027-fb76-4e12-a17a-e866f2d0c4a5","ios":"levelo://app?vid=c4e23027-fb76-4e12-a17a-e866f2d0c4a5"},"vehicle_type_id":"4","last_reported":1751141490,"current_range_meters":14000,"station_id":"ce4bhgh2rcd13ifvqfa0","pricing_plan_id":"cebpf4jnsgd1na2vs0mg"},{"bike_id":"e9931aff-891f-4ab2-80de-abfe09343716","system_id":"levelo_inurba_marseille","lat":43.26026,"lon":5.3755,"is_reserved":false,"is_disabled":false,"rental_uris":{"android":"levelo://app?vid=e9931aff-891f-4ab2-80de-abfe09343716","ios":"levelo://app?vid=e9931aff-891f-4ab2-80de-abfe09343716"},"vehicle_type_id":"4","last_reported":1751141490,"current_range_meters":14000,"station_id":"ce4bhgh2rcd13ifvqfa0","pricing_plan_id":"cebpf4jnsgd1na2vs0mg"},{"bike_id":"42274c6b-04c6-47ee-bf8a-4ba54b8c42cd","system_id":"levelo_inurba_marseille","lat":43.27318,"lon":5.3907,"is_reserved":false,"is_disabled":false,"rental_uris":{"android":"levelo://app?vid=42274c6b-04c6-47ee-bf8a-4ba54b8c42cd","ios":"levelo://app?vid=42274c6b-04c6-47ee-bf8a-4ba54b8c42cd"},"vehicle_type_id":"4","last_reported":1751141490,"current_range_meters":14000,"station_id":"ce4bhgp2rcd13ifvqfe0","pricing_plan_id":"cebpf4jnsgd1na2vs0mg"},{"bike_id":"a12fe640-e5df-4342-b7d7-754a0bd8aa41","system_id":"levelo_inurba_marseille","lat":43.31071,"lon":5.38355,"is_reserved":false,"is_disabled":false,"rental_uris":{"android":"levelo://app?vid=a12fe640-e5df-4342-b7d7-754a0bd8aa41","ios":"levelo://app?vid=a12fe640-e5df-4342-b7d7-754a0bd8aa41"},"vehicle_type_id":"4","last_reported":1751141490,"current_range_meters":14400,"station_id":"","pricing_plan_id":"cebpf4jnsgd1na2vs0mg"},{"bike_id":"c0a2de0a-20e3-4e62-848e-f0dbd6b2e588","system_id":"levelo_inurba_marseille","lat":43.22502,"lon":5.34777,"is_reserved":false,"is_disabled":false,"rental_uris":{"android":"levelo://app?vid=c0a2de0a-20e3-4e62-848e-f0dbd6b2e588","ios":"levelo://app?vid=c0a2de0a-20e3-4e62-848e-f0dbd6b2e588"},"vehicle_type_id":"4","last_reported":1751141490,"current_range_meters":14400,"station_id":"st_cvj5dfep6f1abm77gieg","pricing_plan_id":"cebpf4jnsgd1na2vs0mg"},{"bike_id":"2a9a5366-8dad-42f1-bee6-ffb042c54776","system_id":"levelo_inurba_marseille","lat":43.21195,"lon":5.35073,"is_reserved":false,"is_disabled":false,"rental_uris":{"android":"levelo://app?vid=2a9a5366-8dad-42f1-bee6-ffb042c54776","ios":"levelo://app?vid=2a9a5366-8dad-42f1-bee6-ffb042c54776"},"vehicle_type_id":"4","last_reported":1751141490,"current_range_meters":14400,"station_id":"st_cvj6sg6p6f1abm77japg","pricing_plan_id":"cebpf4jnsgd1na2vs0mg"},{"bike_id":"8ad24147-d115-497e-92ce-7001eacb97d7","system_id":"levelo_inurba_marseille","lat":43.28748,"lon":5.37955,"is_reserved":false,"is_disabled":false,"rental_uris":{"android":"levelo://app?vid=8ad24147-d115-497e-92ce-7001eacb97d7","ios":"levelo://app?vid=8ad24147-d115-497e-92ce-7001eacb97d7"},"vehicle_type_id":"4","last_reported":1751141490,"current_range_meters":14800,"station_id":"ce4bh9p2rcd13ifvqec0","pricing_plan_id":"cebpf4jnsgd1na2vs0mg"},{"bike_id":"d6b53119-eb86-4ea3-bff1-1ea6002fb0f7","system_id":"levelo_inurba_marseille","lat":43.26032,"lon":5.37547,"is_reserved":false,"is_disabled":false,"rental_uris":{"android":"levelo://app?vid=d6b53119-eb86-4ea3-bff1-1ea6002fb0f7","ios":"levelo://app?vid=d6b53119-eb86-4ea3-bff1-1ea6002fb0f7"},"vehicle_type_id":"4","last_reported":1751141490,"current_range_meters":14800,"station_id":"ce4bhgh2rcd13ifvqfa0","pricing_plan_id":"cebpf4jnsgd1na2vs0mg"},{"bike_id":"f810be2a-3c00-446f-9ba1-1f3840ce349d","system_id":"levelo_inurba_marseille","lat":43.321134,"lon":5.367763,"is_reserved":false,"is_disabled":false,"rental_uris":{"android":"levelo://app?vid=f810be2a-3c00-446f-9ba1-1f3840ce349d","ios":"levelo://app?vid=f810be2a-3c00-446f-9ba1-1f3840ce349d"},"vehicle_type_id":"4","last_reported":1751141490,"current_range_meters":14800,"station_id":"ce4bhrh2rcd13ifvqhug","pricing_plan_id":"cebpf4jnsgd1na2vs0mg"},{"bike_id":"e5e9e78b-4730-43b1-8651-5c571c638bbb","system_id":"levelo_inurba_marseille","lat":43.21182,"lon":5.35059,"is_reserved":false,"is_disabled":false,"rental_uris":{"android":"levelo://app?vid=e5e9e78b-4730-43b1-8651-5c571c638bbb","ios":"levelo://app?vid=e5e9e78b-4730-43b1-8651-5c571c638bbb"},"vehicle_type_id":"4","last_reported":1751141490,"current_range_meters":14800,"station_id":"st_cvj6sg6p6f1abm77japg","pricing_plan_id":"cebpf4jnsgd1na2vs0mg"},{"bike_id":"ee3303e0-f55e-4935-85a9-68b9b39024df","system_id":"levelo_inurba_marseille","lat":43.30307,"lon":5.39133,"is_reserved":false,"is_disabled":false,"rental_uris":{"android":"levelo://app?vid=ee3303e0-f55e-4935-85a9-68b9b39024df","ios":"levelo://app?vid=ee3303e0-f55e-4935-85a9-68b9b39024df"},"vehicle_type_id":"4","last_reported":1751141490,"current_range_meters":15200,"station_id":"ce4bgkh2rcd13ifvqbk0","pricing_plan_id":"cebpf4jnsgd1na2vs0mg"},{"bike_id":"9467cedf-24e6-4758-8e59-326480a556a8","system_id":"levelo_inurba_marseille","lat":43.25496,"lon":5.37648,"is_reserved":false,"is_disabled":false,"rental_uris":{"android":"levelo://app?vid=9467cedf-24e6-4758-8e59-326480a556a8","ios":"levelo://app?vid=9467cedf-24e6-4758-8e59-326480a556a8"},"vehicle_type_id":"4","last_reported":1751141490,"current_range_meters":15200,"station_id":"ce4bhh12rcd13ifvqff0","pricing_plan_id":"cebpf4jnsgd1na2vs0mg"},{"bike_id":"c9727364-02b0-4b88-8668-56db49153198","system_id":"levelo_inurba_marseille","lat":43.26789,"lon":5.39399,"is_reserved":false,"is_disabled":false,"rental_uris":{"android":"levelo://app?vid=c9727364-02b0-4b88-8668-56db49153198","ios":"levelo://app?vid=c9727364-02b0-4b88-8668-56db49153198"},"vehicle_type_id":"4","last_reported":1751141490,"current_range_meters":15200,"station_id":"ce4bhh12rcd13ifvqfg0","pricing_plan_id":"cebpf4jnsgd1na2vs0mg"},{"bike_id":"d7eec7f3-1a9b-4ae0-9227-3d3f8b6a93e2","system_id":"levelo_inurba_marseille","lat":43.27056,"lon":5.42268,"is_reserved":false,"is_disabled":false,"rental_uris":{"android":"levelo://app?vid=d7eec7f3-1a9b-4ae0-9227-3d3f8b6a93e2","ios":"levelo://app?vid=d7eec7f3-1a9b-4ae0-9227-3d3f8b6a93e2"},"vehicle_type_id":"4","last_reported":1751141490,"current_range_meters":15200,"station_id":"ce4bhk92rcd13ifvqgb0","pricing_plan_id":"cebpf4jnsgd1na2vs0mg"},{"bike_id":"4f7da216-f811-4c57-9e64-cdee7467bddd","system_id":"levelo_inurba_marseille","lat":43.22516,"lon":5.34784,"is_reserved":false,"is_disabled":false,"rental_uris":{"android":"levelo://app?vid=4f7da216-f811-4c57-9e64-cdee7467bddd","ios":"levelo://app?vid=4f7da216-f811-4c57-9e64-cdee7467bddd"},"vehicle_type_id":"4","last_reported":1751141490,"current_range_meters":15200,"station_id":"st_cvj5dfep6f1abm77gieg","pricing_plan_id":"cebpf4jnsgd1na2vs0mg"},{"bike_id":"735fb3ec-51d3-42a0-b0e0-35a6ef148211","system_id":"levelo_inurba_marseille","lat":43.312879,"lon":5.373051,"is_reserved":false,"is_disabled":false,"rental_uris":{"android":"levelo://app?vid=735fb3ec-51d3-42a0-b0e0-35a6ef148211","ios":"levelo://app?vid=735fb3ec-51d3-42a0-b0e0-35a6ef148211"},"vehicle_type_id":"4","last_reported":1751141490,"current_range_meters":16000,"station_id":"","pricing_plan_id":"cebpf4jnsgd1na2vs0mg"},{"bike_id":"e934a84d-46b6-4c35-8ff1-af1cfdbd5790","system_id":"levelo_inurba_marseille","lat":43.31698,"lon":5.40453,"is_reserved":false,"is_disabled":false,"rental_uris":{"android":"levelo://app?vid=e934a84d-46b6-4c35-8ff1-af1cfdbd5790","ios":"levelo://app?vid=e934a84d-46b6-4c35-8ff1-af1cfdbd5790"},"vehicle_type_id":"4","last_reported":1751141490,"current_range_meters":16000,"station_id":"ce4bh012rcd13ifvqd00","pricing_plan_id":"cebpf4jnsgd1na2vs0mg"},{"bike_id":"a3d243e2-7be2-45d4-8093-a0bae449cf6a","system_id":"levelo_inurba_marseille","lat":43.27417,"lon":5.39411,"is_reserved":false,"is_disabled":false,"rental_uris":{"android":"levelo://app?vid=a3d243e2-7be2-45d4-8093-a0bae449cf6a","ios":"levelo://app?vid=a3d243e2-7be2-45d4-8093-a0bae449cf6a"},"vehicle_type_id":"4","last_reported":1751141490,"current_range_meters":16000,"station_id":"ce4bhdp2rcd13ifvqf20","pricing_plan_id":"cebpf4jnsgd1na2vs0mg"},{"bike_id":"fefa174c-3439-453c-bc29-f58fdce41de6","system_id":"levelo_inurba_marseille","lat":43.27308,"lon":5.39075,"is_reserved":false,"is_disabled":false,"rental_uris":{"android":"levelo://app?vid=fefa174c-3439-453c-bc29-f58fdce41de6","ios":"levelo://app?vid=fefa174c-3439-453c-bc29-f58fdce41de6"},"vehicle_type_id":"4","last_reported":1751141490,"current_range_meters":16000,"station_id":"ce4bhgp2rcd13ifvqfe0","pricing_plan_id":"cebpf4jnsgd1na2vs0mg"},{"bike_id":"be373bda-5efc-4e35-b884-ff63e0fa26cf","system_id":"levelo_inurba_marseille","lat":43.25118,"lon":5.40319,"is_reserved":false,"is_disabled":false,"rental_uris":{"android":"levelo://app?vid=be373bda-5efc-4e35-b884-ff63e0fa26cf","ios":"levelo://app?vid=be373bda-5efc-4e35-b884-ff63e0fa26cf"},"vehicle_type_id":"4","last_reported":1751141490,"current_range_meters":16000,"station_id":"ce4bhlh2rcd13ifvqgig","pricing_plan_id":"cebpf4jnsgd1na2vs0mg"},{"bike_id":"064e1b75-6456-473b-9a83-8a42db06b827","system_id":"levelo_inurba_marseille","lat":43.26221,"lon":5.40467,"is_reserved":false,"is_disabled":false,"rental_uris":{"android":"levelo://app?vid=064e1b75-6456-473b-9a83-8a42db06b827","ios":"levelo://app?vid=064e1b75-6456-473b-9a83-8a42db06b827"},"vehicle_type_id":"4","last_reported":1751141490,"current_range_meters":16000,"station_id":"ce4bhmh2rcd13ifvqgmg","pricing_plan_id":"cebpf4jnsgd1na2vs0mg"},{"bike_id":"aff4423e-c2af-4b70-b9bd-2bdc17fafffc","system_id":"levelo_inurba_marseille","lat":43.24172,"lon":5.36388,"is_reserved":false,"is_disabled":false,"rental_uris":{"android":"levelo://app?vid=aff4423e-c2af-4b70-b9bd-2bdc17fafffc","ios":"levelo://app?vid=aff4423e-c2af-4b70-b9bd-2bdc17fafffc"},"vehicle_type_id":"4","last_reported":1751141490,"current_range_meters":16000,"station_id":"cpo36qri1sfpv3e86is0","pricing_plan_id":"cebpf4jnsgd1na2vs0mg"},{"bike_id":"b636965d-7db1-47cd-adbf-cfced905006a","system_id":"levelo_inurba_marseille","lat":43.21191,"lon":5.35066,"is_reserved":false,"is_disabled":false,"rental_uris":{"android":"levelo://app?vid=b636965d-7db1-47cd-adbf-cfced905006a","ios":"levelo://app?vid=b636965d-7db1-47cd-adbf-cfced905006a"},"vehicle_type_id":"4","last_reported":1751141490,"current_range_meters":16000,"station_id":"st_cvj6sg6p6f1abm77japg","pricing_plan_id":"cebpf4jnsgd1na2vs0mg"},{"bike_id":"5d5e13a4-10cc-485c-a362-06d02242e666","system_id":"levelo_inurba_marseille","lat":43.21187,"lon":5.3508,"is_reserved":false,"is_disabled":false,"rental_uris":{"android":"levelo://app?vid=5d5e13a4-10cc-485c-a362-06d02242e666","ios":"levelo://app?vid=5d5e13a4-10cc-485c-a362-06d02242e666"},"vehicle_type_id":"4","last_reported":1751141490,"current_range_meters":16000,"station_id":"st_cvj6sg6p6f1abm77japg","pricing_plan_id":"cebpf4jnsgd1na2vs0mg"},{"bike_id":"b13877a6-4825-4d82-b46b-67fa8ad66c5d","system_id":"levelo_inurba_marseille","lat":43.211954,"lon":5.350748,"is_reserved":false,"is_disabled":false,"rental_uris":{"android":"levelo://app?vid=b13877a6-4825-4d82-b46b-67fa8ad66c5d","ios":"levelo://app?vid=b13877a6-4825-4d82-b46b-67fa8ad66c5d"},"vehicle_type_id":"4","last_reported":1751141490,"current_range_meters":16000,"station_id":"st_cvj6sg6p6f1abm77japg","pricing_plan_id":"cebpf4jnsgd1na2vs0mg"},{"bike_id":"f45adeac-b783-4874-9ea0-e8518066ae4b","system_id":"levelo_inurba_marseille","lat":43.28124,"lon":5.35195,"is_reserved":false,"is_disabled":false,"rental_uris":{"android":"levelo://app?vid=f45adeac-b783-4874-9ea0-e8518066ae4b","ios":"levelo://app?vid=f45adeac-b783-4874-9ea0-e8518066ae4b"},"vehicle_type_id":"4","last_reported":1751141490,"current_range_meters":16400,"station_id":"","pricing_plan_id":"cebpf4jnsgd1na2vs0mg"},{"bike_id":"d308c658-b19c-49c0-8014-5506ff26f69a","system_id":"levelo_inurba_marseille","lat":43.23082,"lon":5.40494,"is_reserved":false,"is_disabled":false,"rental_uris":{"android":"levelo://app?vid=d308c658-b19c-49c0-8014-5506ff26f69a","ios":"levelo://app?vid=d308c658-b19c-49c0-8014-5506ff26f69a"},"vehicle_type_id":"4","last_reported":1751141490,"current_range_meters":16400,"station_id":"","pricing_plan_id":"cebpf4jnsgd1na2vs0mg"},{"bike_id":"0a759733-8df6-46fe-99a7-3b19b6d4c427","system_id":"levelo_inurba_marseille","lat":43.29713,"lon":5.36614,"is_reserved":false,"is_disabled":false,"rental_uris":{"android":"levelo://app?vid=0a759733-8df6-46fe-99a7-3b19b6d4c427","ios":"levelo://app?vid=0a759733-8df6-46fe-99a7-3b19b6d4c427"},"vehicle_type_id":"4","last_reported":1751141490,"current_range_meters":16400,"station_id":"ce4bgn12rcd13ifvqbt0","pricing_plan_id":"cebpf4jnsgd1na2vs0mg"},{"bike_id":"2a058a7f-607b-477e-a3a4-91dcf111c619","system_id":"levelo_inurba_marseille","lat":43.29437,"lon":5.38614,"is_reserved":false,"is_disabled":false,"rental_uris":{"android":"levelo://app?vid=2a058a7f-607b-477e-a3a4-91dcf111c619","ios":"levelo://app?vid=2a058a7f-607b-477e-a3a4-91dcf111c619"},"vehicle_type_id":"4","last_reported":1751141490,"current_range_meters":16400,"station_id":"ce4bh2h2rcd13ifvqdh0","pricing_plan_id":"cebpf4jnsgd1na2vs0mg"},{"bike_id":"26662e4a-515c-4bca-95b1-c669d30617a4","system_id":"levelo_inurba_marseille","lat":43.29019,"lon":5.38137,"is_reserved":false,"is_disabled":false,"rental_uris":{"android":"levelo://app?vid=26662e4a-515c-4bca-95b1-c669d30617a4","ios":"levelo://app?vid=26662e4a-515c-4bca-95b1-c669d30617a4"},"vehicle_type_id":"4","last_reported":1751141490,"current_range_meters":16400,"station_id":"ce4bh4p2rcd13ifvqe1g","pricing_plan_id":"cebpf4jnsgd1na2vs0mg"},{"bike_id":"45d8341e-7a78-4341-82fd-235705272e7e","system_id":"levelo_inurba_marseille","lat":43.29263,"lon":5.38448,"is_reserved":false,"is_disabled":false,"rental_uris":{"android":"levelo://app?vid=45d8341e-7a78-4341-82fd-235705272e7e","ios":"levelo://app?vid=45d8341e-7a78-4341-82fd-235705272e7e"},"vehicle_type_id":"4","last_reported":1751141490,"current_range_meters":16400,"station_id":"ce4bh692rcd13ifvqea0","pricing_plan_id":"cebpf4jnsgd1na2vs0mg"},{"bike_id":"dc52be52-60b5-448c-b8e7-30f1c07b993e","system_id":"levelo_inurba_marseille","lat":43.25109,"lon":5.40312,"is_reserved":false,"is_disabled":false,"rental_uris":{"android":"levelo://app?vid=dc52be52-60b5-448c-b8e7-30f1c07b993e","ios":"levelo://app?vid=dc52be52-60b5-448c-b8e7-30f1c07b993e"},"vehicle_type_id":"4","last_reported":1751141490,"current_range_meters":16400,"station_id":"ce4bhlh2rcd13ifvqgig","pricing_plan_id":"cebpf4jnsgd1na2vs0mg"},{"bike_id":"94d2b6e9-2efb-4344-a5f1-7eddcabe152b","system_id":"levelo_inurba_marseille","lat":43.28445,"lon":5.39197,"is_reserved":false,"is_disabled":false,"rental_uris":{"android":"levelo://app?vid=94d2b6e9-2efb-4344-a5f1-7eddcabe152b","ios":"levelo://app?vid=94d2b6e9-2efb-4344-a5f1-7eddcabe152b"},"vehicle_type_id":"4","last_reported":1751141490,"current_range_meters":16400,"station_id":"ce4bhoh2rcd13ifvqh5g","pricing_plan_id":"cebpf4jnsgd1na2vs0mg"},{"bike_id":"8d1e10f3-20fd-463c-a408-0a21083b0c6f","system_id":"levelo_inurba_marseille","lat":43.21183,"lon":5.35066,"is_reserved":false,"is_disabled":false,"rental_uris":{"android":"levelo://app?vid=8d1e10f3-20fd-463c-a408-0a21083b0c6f","ios":"levelo://app?vid=8d1e10f3-20fd-463c-a408-0a21083b0c6f"},"vehicle_type_id":"4","last_reported":1751141490,"current_range_meters":16400,"station_id":"st_cvj6sg6p6f1abm77japg","pricing_plan_id":"cebpf4jnsgd1na2vs0mg"},{"bike_id":"d83be15c-239d-410c-9374-2954b9783857","system_id":"levelo_inurba_marseille","lat":43.21206,"lon":5.35045,"is_reserved":false,"is_disabled":false,"rental_uris":{"android":"levelo://app?vid=d83be15c-239d-410c-9374-2954b9783857","ios":"levelo://app?vid=d83be15c-239d-410c-9374-2954b9783857"},"vehicle_type_id":"4","last_reported":1751141490,"current_range_meters":16400,"station_id":"st_cvj6sg6p6f1abm77japg","pricing_plan_id":"cebpf4jnsgd1na2vs0mg"},{"bike_id":"bca121d6-7dac-4f14-a296-ce2249d7aad2","system_id":"levelo_inurba_marseille","lat":43.281648,"lon":5.442391,"is_reserved":false,"is_disabled":false,"rental_uris":{"android":"levelo://app?vid=bca121d6-7dac-4f14-a296-ce2249d7aad2","ios":"levelo://app?vid=bca121d6-7dac-4f14-a296-ce2249d7aad2"},"vehicle_type_id":"4","last_reported":1751141490,"current_range_meters":16800,"station_id":"","pricing_plan_id":"cebpf4jnsgd1na2vs0mg"},{"bike_id":"66abb35b-0e37-4ddd-bf66-70dc62e8f63c","system_id":"levelo_inurba_marseille","lat":43.22845,"lon":5.35121,"is_reserved":false,"is_disabled":false,"rental_uris":{"android":"levelo://app?vid=66abb35b-0e37-4ddd-bf66-70dc62e8f63c","ios":"levelo://app?vid=66abb35b-0e37-4ddd-bf66-70dc62e8f63c"},"vehicle_type_id":"4","last_reported":1751141490,"current_range_meters":16800,"station_id":"","pricing_plan_id":"cebpf4jnsgd1na2vs0mg"},{"bike_id":"c595d0e1-c778-4abe-9c79-a9dd74f54e27","system_id":"levelo_inurba_marseille","lat":43.24472,"lon":5.37208,"is_reserved":false,"is_disabled":false,"rental_uris":{"android":"levelo://app?vid=c595d0e1-c778-4abe-9c79-a9dd74f54e27","ios":"levelo://app?vid=c595d0e1-c778-4abe-9c79-a9dd74f54e27"},"vehicle_type_id":"4","last_reported":1751141490,"current_range_meters":16800,"station_id":"","pricing_plan_id":"cebpf4jnsgd1na2vs0mg"},{"bike_id":"07ca4d32-f8d4-4205-8a35-c7ff63def9dc","system_id":"levelo_inurba_marseille","lat":43.225078,"lon":5.347877,"is_reserved":false,"is_disabled":false,"rental_uris":{"android":"levelo://app?vid=07ca4d32-f8d4-4205-8a35-c7ff63def9dc","ios":"levelo://app?vid=07ca4d32-f8d4-4205-8a35-c7ff63def9dc"},"vehicle_type_id":"4","last_reported":1751141490,"current_range_meters":16800,"station_id":"","pricing_plan_id":"cebpf4jnsgd1na2vs0mg"},{"bike_id":"6c501e77-84fb-4325-9f00-05268e4c597f","system_id":"levelo_inurba_marseille","lat":43.31117,"lon":5.37772,"is_reserved":false,"is_disabled":false,"rental_uris":{"android":"levelo://app?vid=6c501e77-84fb-4325-9f00-05268e4c597f","ios":"levelo://app?vid=6c501e77-84fb-4325-9f00-05268e4c597f"},"vehicle_type_id":"4","last_reported":1751141490,"current_range_meters":16800,"station_id":"ce4bgt92rcd13ifvqcg0","pricing_plan_id":"cebpf4jnsgd1na2vs0mg"},{"bike_id":"9348a4fc-cbd5-4a42-a17a-1b36111c8c16","system_id":"levelo_inurba_marseille","lat":43.30957,"lon":5.39036,"is_reserved":false,"is_disabled":false,"rental_uris":{"android":"levelo://app?vid=9348a4fc-cbd5-4a42-a17a-1b36111c8c16","ios":"levelo://app?vid=9348a4fc-cbd5-4a42-a17a-1b36111c8c16"},"vehicle_type_id":"4","last_reported":1751141490,"current_range_meters":16800,"station_id":"ce4bgup2rcd13ifvqco0","pricing_plan_id":"cebpf4jnsgd1na2vs0mg"},{"bike_id":"706791be-79ff-4961-85f9-10b00214ce8a","system_id":"levelo_inurba_marseille","lat":43.33037,"lon":5.39607,"is_reserved":false,"is_disabled":false,"rental_uris":{"android":"levelo://app?vid=706791be-79ff-4961-85f9-10b00214ce8a","ios":"levelo://app?vid=706791be-79ff-4961-85f9-10b00214ce8a"},"vehicle_type_id":"4","last_reported":1751141490,"current_range_meters":17200,"station_id":"","pricing_plan_id":"cebpf4jnsgd1na2vs0mg"},{"bike_id":"2255ee86-b529-451e-9171-de1690373f38","system_id":"levelo_inurba_marseille","lat":43.29911,"lon":5.3815,"is_reserved":false,"is_disabled":false,"rental_uris":{"android":"levelo://app?vid=2255ee86-b529-451e-9171-de1690373f38","ios":"levelo://app?vid=2255ee86-b529-451e-9171-de1690373f38"},"vehicle_type_id":"4","last_reported":1751141490,"current_range_meters":17200,"station_id":"ce4bgj12rcd13ifvqbc0","pricing_plan_id":"cebpf4jnsgd1na2vs0mg"},{"bike_id":"8d7b6e54-2a91-41fe-a088-2a08fd28e6e6","system_id":"levelo_inurba_marseille","lat":43.29931,"lon":5.36508,"is_reserved":false,"is_disabled":false,"rental_uris":{"android":"levelo://app?vid=8d7b6e54-2a91-41fe-a088-2a08fd28e6e6","ios":"levelo://app?vid=8d7b6e54-2a91-41fe-a088-2a08fd28e6e6"},"vehicle_type_id":"4","last_reported":1751141490,"current_range_meters":17200,"station_id":"ce4bgm92rcd13ifvqbr0","pricing_plan_id":"cebpf4jnsgd1na2vs0mg"},{"bike_id":"c3fbf0af-d440-4757-8aae-5618d9ed818f","system_id":"levelo_inurba_marseille","lat":43.30432,"lon":5.39746,"is_reserved":false,"is_disabled":false,"rental_uris":{"android":"levelo://app?vid=c3fbf0af-d440-4757-8aae-5618d9ed818f","ios":"levelo://app?vid=c3fbf0af-d440-4757-8aae-5618d9ed818f"},"vehicle_type_id":"4","last_reported":1751141490,"current_range_meters":17200,"station_id":"ce4bh092rcd13ifvqd20","pricing_plan_id":"cebpf4jnsgd1na2vs0mg"},{"bike_id":"af668f2b-b7e6-45d0-aa57-5f6b7d261a6a","system_id":"levelo_inurba_marseille","lat":43.29575,"lon":5.39965,"is_reserved":false,"is_disabled":false,"rental_uris":{"android":"levelo://app?vid=af668f2b-b7e6-45d0-aa57-5f6b7d261a6a","ios":"levelo://app?vid=af668f2b-b7e6-45d0-aa57-5f6b7d261a6a"},"vehicle_type_id":"4","last_reported":1751141490,"current_range_meters":17200,"station_id":"ce4bh312rcd13ifvqdj0","pricing_plan_id":"cebpf4jnsgd1na2vs0mg"},{"bike_id":"9ba5b97b-d6da-4f84-b888-5e2718e7cef6","system_id":"levelo_inurba_marseille","lat":43.29534,"lon":5.39039,"is_reserved":false,"is_disabled":false,"rental_uris":{"android":"levelo://app?vid=9ba5b97b-d6da-4f84-b888-5e2718e7cef6","ios":"levelo://app?vid=9ba5b97b-d6da-4f84-b888-5e2718e7cef6"},"vehicle_type_id":"4","last_reported":1751141490,"current_range_meters":17200,"station_id":"ce4bh3p2rcd13ifvqdp0","pricing_plan_id":"cebpf4jnsgd1na2vs0mg"},{"bike_id":"938083d5-372c-4d64-bf61-e2033c7d4462","system_id":"levelo_inurba_marseille","lat":43.28404,"lon":5.375075,"is_reserved":false,"is_disabled":false,"rental_uris":{"android":"levelo://app?vid=938083d5-372c-4d64-bf61-e2033c7d4462","ios":"levelo://app?vid=938083d5-372c-4d64-bf61-e2033c7d4462"},"vehicle_type_id":"4","last_reported":1751141490,"current_range_meters":17200,"station_id":"ce4bh412rcd13ifvqds0","pricing_plan_id":"cebpf4jnsgd1na2vs0mg"},{"bike_id":"9c91028a-ce01-44b0-9471-2a22b24113e2","system_id":"levelo_inurba_marseille","lat":43.26209,"lon":5.3744,"is_reserved":false,"is_disabled":false,"rental_uris":{"android":"levelo://app?vid=9c91028a-ce01-44b0-9471-2a22b24113e2","ios":"levelo://app?vid=9c91028a-ce01-44b0-9471-2a22b24113e2"},"vehicle_type_id":"4","last_reported":1751141490,"current_range_meters":17200,"station_id":"ce4bhgp2rcd13ifvqfc0","pricing_plan_id":"cebpf4jnsgd1na2vs0mg"},{"bike_id":"87c7181b-706f-4ecc-bcb3-6dddc0ba4ffe","system_id":"levelo_inurba_marseille","lat":43.27313,"lon":5.390846,"is_reserved":false,"is_disabled":false,"rental_uris":{"android":"levelo://app?vid=87c7181b-706f-4ecc-bcb3-6dddc0ba4ffe","ios":"levelo://app?vid=87c7181b-706f-4ecc-bcb3-6dddc0ba4ffe"},"vehicle_type_id":"4","last_reported":1751141490,"current_range_meters":17200,"station_id":"ce4bhgp2rcd13ifvqfe0","pricing_plan_id":"cebpf4jnsgd1na2vs0mg"},{"bike_id":"e40033f0-7be0-4fe6-99e0-3c3b5feba148","system_id":"levelo_inurba_marseille","lat":43.22934,"lon":5.35377,"is_reserved":false,"is_disabled":false,"rental_uris":{"android":"levelo://app?vid=e40033f0-7be0-4fe6-99e0-3c3b5feba148","ios":"levelo://app?vid=e40033f0-7be0-4fe6-99e0-3c3b5feba148"},"vehicle_type_id":"4","last_reported":1751141490,"current_range_meters":17200,"station_id":"cpo3532slgdg3j2ikp40","pricing_plan_id":"cebpf4jnsgd1na2vs0mg"},{"bike_id":"2183b5e4-83fc-48e6-88b5-14ec39b15c42","system_id":"levelo_inurba_marseille","lat":43.30951,"lon":5.39018,"is_reserved":false,"is_disabled":false,"rental_uris":{"android":"levelo://app?vid=2183b5e4-83fc-48e6-88b5-14ec39b15c42","ios":"levelo://app?vid=2183b5e4-83fc-48e6-88b5-14ec39b15c42"},"vehicle_type_id":"4","last_reported":1751141490,"current_range_meters":17600,"station_id":"ce4bgup2rcd13ifvqco0","pricing_plan_id":"cebpf4jnsgd1na2vs0mg"},{"bike_id":"b08fc34f-13e7-4b6b-a967-2614c997a74a","system_id":"levelo_inurba_marseille","lat":43.231875,"lon":5.399783,"is_reserved":false,"is_disabled":false,"rental_uris":{"android":"levelo://app?vid=b08fc34f-13e7-4b6b-a967-2614c997a74a","ios":"levelo://app?vid=b08fc34f-13e7-4b6b-a967-2614c997a74a"},"vehicle_type_id":"4","last_reported":1751141490,"current_range_meters":17600,"station_id":"ce4bhn12rcd13ifvqgqg","pricing_plan_id":"cebpf4jnsgd1na2vs0mg"},{"bike_id":"74c61e8f-7c4e-48ed-b485-190db880b33f","system_id":"levelo_inurba_marseille","lat":43.30956,"lon":5.39041,"is_reserved":false,"is_disabled":false,"rental_uris":{"android":"levelo://app?vid=74c61e8f-7c4e-48ed-b485-190db880b33f","ios":"levelo://app?vid=74c61e8f-7c4e-48ed-b485-190db880b33f"},"vehicle_type_id":"4","last_reported":1751141490,"current_range_meters":18000,"station_id":"ce4bgup2rcd13ifvqco0","pricing_plan_id":"cebpf4jnsgd1na2vs0mg"},{"bike_id":"503b1f31-6091-4cb6-a62a-6758954852bb","system_id":"levelo_inurba_marseille","lat":43.28716,"lon":5.37927,"is_reserved":false,"is_disabled":false,"rental_uris":{"android":"levelo://app?vid=503b1f31-6091-4cb6-a62a-6758954852bb","ios":"levelo://app?vid=503b1f31-6091-4cb6-a62a-6758954852bb"},"vehicle_type_id":"4","last_reported":1751141490,"current_range_meters":18000,"station_id":"ce4bh9p2rcd13ifvqec0","pricing_plan_id":"cebpf4jnsgd1na2vs0mg"},{"bike_id":"fede116f-fe8f-4996-bd86-bef08c43bb15","system_id":"levelo_inurba_marseille","lat":43.2842,"lon":5.34972,"is_reserved":false,"is_disabled":false,"rental_uris":{"android":"levelo://app?vid=fede116f-fe8f-4996-bd86-bef08c43bb15","ios":"levelo://app?vid=fede116f-fe8f-4996-bd86-bef08c43bb15"},"vehicle_type_id":"4","last_reported":1751141490,"current_range_meters":18000,"station_id":"ce4bhbh2rcd13ifvqepg","pricing_plan_id":"cebpf4jnsgd1na2vs0mg"},{"bike_id":"dd286df3-ae61-4e16-a235-4995a2299f7f","system_id":"levelo_inurba_marseille","lat":43.26557,"lon":5.372803,"is_reserved":false,"is_disabled":false,"rental_uris":{"android":"levelo://app?vid=dd286df3-ae61-4e16-a235-4995a2299f7f","ios":"levelo://app?vid=dd286df3-ae61-4e16-a235-4995a2299f7f"},"vehicle_type_id":"4","last_reported":1751141490,"current_range_meters":18000,"station_id":"ce4bhg12rcd13ifvqf70","pricing_plan_id":"cebpf4jnsgd1na2vs0mg"},{"bike_id":"99ca9887-e45c-4be7-8677-ce67700789ec","system_id":"levelo_inurba_marseille","lat":43.248123,"lon":5.374617,"is_reserved":false,"is_disabled":false,"rental_uris":{"android":"levelo://app?vid=99ca9887-e45c-4be7-8677-ce67700789ec","ios":"levelo://app?vid=99ca9887-e45c-4be7-8677-ce67700789ec"},"vehicle_type_id":"4","last_reported":1751141490,"current_range_meters":18000,"station_id":"ce4bhgh2rcd13ifvqfb0","pricing_plan_id":"cebpf4jnsgd1na2vs0mg"},{"bike_id":"6286aec4-7889-4e62-9c7f-a0f9de37fc58","system_id":"levelo_inurba_marseille","lat":43.2731,"lon":5.39065,"is_reserved":false,"is_disabled":false,"rental_uris":{"android":"levelo://app?vid=6286aec4-7889-4e62-9c7f-a0f9de37fc58","ios":"levelo://app?vid=6286aec4-7889-4e62-9c7f-a0f9de37fc58"},"vehicle_type_id":"4","last_reported":1751141490,"current_range_meters":18000,"station_id":"ce4bhgp2rcd13ifvqfe0","pricing_plan_id":"cebpf4jnsgd1na2vs0mg"},{"bike_id":"7cd73daf-6410-4b72-a872-e5224e9d29ff","system_id":"levelo_inurba_marseille","lat":43.27397,"lon":5.41157,"is_reserved":false,"is_disabled":false,"rental_uris":{"android":"levelo://app?vid=7cd73daf-6410-4b72-a872-e5224e9d29ff","ios":"levelo://app?vid=7cd73daf-6410-4b72-a872-e5224e9d29ff"},"vehicle_type_id":"4","last_reported":1751141490,"current_range_meters":18800,"station_id":"","pricing_plan_id":"cebpf4jnsgd1na2vs0mg"},{"bike_id":"6e53ad1f-d4f5-4de6-9418-67b290ec993f","system_id":"levelo_inurba_marseille","lat":43.30941,"lon":5.4103,"is_reserved":false,"is_disabled":false,"rental_uris":{"android":"levelo://app?vid=6e53ad1f-d4f5-4de6-9418-67b290ec993f","ios":"levelo://app?vid=6e53ad1f-d4f5-4de6-9418-67b290ec993f"},"vehicle_type_id":"4","last_reported":1751141490,"current_range_meters":18800,"station_id":"","pricing_plan_id":"cebpf4jnsgd1na2vs0mg"},{"bike_id":"f5f192c2-39a6-4605-b50f-12c7a3a2c727","system_id":"levelo_inurba_marseille","lat":43.30152,"lon":5.38769,"is_reserved":false,"is_disabled":false,"rental_uris":{"android":"levelo://app?vid=f5f192c2-39a6-4605-b50f-12c7a3a2c727","ios":"levelo://app?vid=f5f192c2-39a6-4605-b50f-12c7a3a2c727"},"vehicle_type_id":"4","last_reported":1751141490,"current_range_meters":18800,"station_id":"ce4bghh2rcd13ifvqb60","pricing_plan_id":"cebpf4jnsgd1na2vs0mg"},{"bike_id":"9dee4328-f5fd-4e61-a54e-558109a99176","system_id":"levelo_inurba_marseille","lat":43.30956,"lon":5.3903,"is_reserved":false,"is_disabled":false,"rental_uris":{"android":"levelo://app?vid=9dee4328-f5fd-4e61-a54e-558109a99176","ios":"levelo://app?vid=9dee4328-f5fd-4e61-a54e-558109a99176"},"vehicle_type_id":"4","last_reported":1751141490,"current_range_meters":18800,"station_id":"ce4bgup2rcd13ifvqco0","pricing_plan_id":"cebpf4jnsgd1na2vs0mg"},{"bike_id":"afd18360-ca3c-41ae-b00e-0fa236449e84","system_id":"levelo_inurba_marseille","lat":43.306804,"lon":5.392722,"is_reserved":false,"is_disabled":false,"rental_uris":{"android":"levelo://app?vid=afd18360-ca3c-41ae-b00e-0fa236449e84","ios":"levelo://app?vid=afd18360-ca3c-41ae-b00e-0fa236449e84"},"vehicle_type_id":"4","last_reported":1751141490,"current_range_meters":18800,"station_id":"ce4bh012rcd13ifvqcv0","pricing_plan_id":"cebpf4jnsgd1na2vs0mg"},{"bike_id":"8a73d86a-7065-40d5-98d3-35d606225561","system_id":"levelo_inurba_marseille","lat":43.262129,"lon":5.374428,"is_reserved":false,"is_disabled":false,"rental_uris":{"android":"levelo://app?vid=8a73d86a-7065-40d5-98d3-35d606225561","ios":"levelo://app?vid=8a73d86a-7065-40d5-98d3-35d606225561"},"vehicle_type_id":"4","last_reported":1751141490,"current_range_meters":18800,"station_id":"ce4bhgp2rcd13ifvqfc0","pricing_plan_id":"cebpf4jnsgd1na2vs0mg"},{"bike_id":"e3fa7338-f771-4406-b6bd-d8b48122afbe","system_id":"levelo_inurba_marseille","lat":43.31722,"lon":5.42395,"is_reserved":false,"is_disabled":false,"rental_uris":{"android":"levelo://app?vid=e3fa7338-f771-4406-b6bd-d8b48122afbe","ios":"levelo://app?vid=e3fa7338-f771-4406-b6bd-d8b48122afbe"},"vehicle_type_id":"4","last_reported":1751141490,"current_range_meters":18800,"station_id":"ce4bhp92rcd13ifvqhbg","pricing_plan_id":"cebpf4jnsgd1na2vs0mg"},{"bike_id":"7e199e01-3a7c-48b7-bde3-4d824036b923","system_id":"levelo_inurba_marseille","lat":43.317606,"lon":5.390186,"is_reserved":false,"is_disabled":false,"rental_uris":{"android":"levelo://app?vid=7e199e01-3a7c-48b7-bde3-4d824036b923","ios":"levelo://app?vid=7e199e01-3a7c-48b7-bde3-4d824036b923"},"vehicle_type_id":"4","last_reported":1751141490,"current_range_meters":18800,"station_id":"ce4bhqp2rcd13ifvqhng","pricing_plan_id":"cebpf4jnsgd1na2vs0mg"},{"bike_id":"3e82f598-9d1d-4257-8afa-a4dc7305de09","system_id":"levelo_inurba_marseille","lat":43.21211,"lon":5.3505,"is_reserved":false,"is_disabled":false,"rental_uris":{"android":"levelo://app?vid=3e82f598-9d1d-4257-8afa-a4dc7305de09","ios":"levelo://app?vid=3e82f598-9d1d-4257-8afa-a4dc7305de09"},"vehicle_type_id":"4","last_reported":1751141490,"current_range_meters":18800,"station_id":"st_cvj6sg6p6f1abm77japg","pricing_plan_id":"cebpf4jnsgd1na2vs0mg"},{"bike_id":"bf24b26e-7f51-4120-9a48-54c87edaa2f7","system_id":"levelo_inurba_marseille","lat":43.21192,"lon":5.35066,"is_reserved":false,"is_disabled":false,"rental_uris":{"android":"levelo://app?vid=bf24b26e-7f51-4120-9a48-54c87edaa2f7","ios":"levelo://app?vid=bf24b26e-7f51-4120-9a48-54c87edaa2f7"},"vehicle_type_id":"4","last_reported":1751141490,"current_range_meters":18800,"station_id":"st_cvj6sg6p6f1abm77japg","pricing_plan_id":"cebpf4jnsgd1na2vs0mg"},{"bike_id":"45ccb7a4-a3fb-4b57-bc48-8b56463b935b","system_id":"levelo_inurba_marseille","lat":43.31067,"lon":5.38347,"is_reserved":false,"is_disabled":false,"rental_uris":{"android":"levelo://app?vid=45ccb7a4-a3fb-4b57-bc48-8b56463b935b","ios":"levelo://app?vid=45ccb7a4-a3fb-4b57-bc48-8b56463b935b"},"vehicle_type_id":"4","last_reported":1751141490,"current_range_meters":19200,"station_id":"ce4bgv92rcd13ifvqcr0","pricing_plan_id":"cebpf4jnsgd1na2vs0mg"},{"bike_id":"ab7570a6-844b-4d75-a886-ed4d4e7b249c","system_id":"levelo_inurba_marseille","lat":43.32286,"lon":5.38271,"is_reserved":false,"is_disabled":false,"rental_uris":{"android":"levelo://app?vid=ab7570a6-844b-4d75-a886-ed4d4e7b249c","ios":"levelo://app?vid=ab7570a6-844b-4d75-a886-ed4d4e7b249c"},"vehicle_type_id":"4","last_reported":1751141490,"current_range_meters":19600,"station_id":"ce4bhr12rcd13ifvqhqg","pricing_plan_id":"cebpf4jnsgd1na2vs0mg"},{"bike_id":"e7641e58-176f-485d-9342-129003cdc52b","system_id":"levelo_inurba_marseille","lat":43.32115,"lon":5.36779,"is_reserved":false,"is_disabled":false,"rental_uris":{"android":"levelo://app?vid=e7641e58-176f-485d-9342-129003cdc52b","ios":"levelo://app?vid=e7641e58-176f-485d-9342-129003cdc52b"},"vehicle_type_id":"4","last_reported":1751141490,"current_range_meters":19600,"station_id":"ce4bhrh2rcd13ifvqhug","pricing_plan_id":"cebpf4jnsgd1na2vs0mg"},{"bike_id":"04c37485-6621-45a5-a47c-02a8d8fbec27","system_id":"levelo_inurba_marseille","lat":43.29307,"lon":5.37178,"is_reserved":false,"is_disabled":false,"rental_uris":{"android":"levelo://app?vid=04c37485-6621-45a5-a47c-02a8d8fbec27","ios":"levelo://app?vid=04c37485-6621-45a5-a47c-02a8d8fbec27"},"vehicle_type_id":"4","last_reported":1751141490,"current_range_meters":20000,"station_id":"ce4bgh92rcd13ifvqb40","pricing_plan_id":"cebpf4jnsgd1na2vs0mg"},{"bike_id":"4d27aa42-3bd6-43e5-90b4-a054c420ac93","system_id":"levelo_inurba_marseille","lat":43.296041,"lon":5.380799,"is_reserved":false,"is_disabled":false,"rental_uris":{"android":"levelo://app?vid=4d27aa42-3bd6-43e5-90b4-a054c420ac93","ios":"levelo://app?vid=4d27aa42-3bd6-43e5-90b4-a054c420ac93"},"vehicle_type_id":"4","last_reported":1751141490,"current_range_meters":20000,"station_id":"ce4bgl12rcd13ifvqbo0","pricing_plan_id":"cebpf4jnsgd1na2vs0mg"},{"bike_id":"b82a87e7-9d9c-4111-b87e-22654164efb0","system_id":"levelo_inurba_marseille","lat":43.24802,"lon":5.37455,"is_reserved":false,"is_disabled":false,"rental_uris":{"android":"levelo://app?vid=b82a87e7-9d9c-4111-b87e-22654164efb0","ios":"levelo://app?vid=b82a87e7-9d9c-4111-b87e-22654164efb0"},"vehicle_type_id":"4","last_reported":1751141490,"current_range_meters":20000,"station_id":"ce4bhgh2rcd13ifvqfb0","pricing_plan_id":"cebpf4jnsgd1na2vs0mg"},{"bike_id":"8e4ac816-56b9-4503-a9c9-c1c2571a02c1","system_id":"levelo_inurba_marseille","lat":43.27055,"lon":5.42293,"is_reserved":false,"is_disabled":false,"rental_uris":{"android":"levelo://app?vid=8e4ac816-56b9-4503-a9c9-c1c2571a02c1","ios":"levelo://app?vid=8e4ac816-56b9-4503-a9c9-c1c2571a02c1"},"vehicle_type_id":"4","last_reported":1751141490,"current_range_meters":20000,"station_id":"ce4bhk92rcd13ifvqgb0","pricing_plan_id":"cebpf4jnsgd1na2vs0mg"},{"bike_id":"9dc29fb8-e3fb-41f8-a3ad-c2c6c5e7fe8f","system_id":"levelo_inurba_marseille","lat":43.32668,"lon":5.40971,"is_reserved":false,"is_disabled":false,"rental_uris":{"android":"levelo://app?vid=9dc29fb8-e3fb-41f8-a3ad-c2c6c5e7fe8f","ios":"levelo://app?vid=9dc29fb8-e3fb-41f8-a3ad-c2c6c5e7fe8f"},"vehicle_type_id":"4","last_reported":1751141490,"current_range_meters":20000,"station_id":"ce4bhpp2rcd13ifvqhgg","pricing_plan_id":"cebpf4jnsgd1na2vs0mg"},{"bike_id":"7a9ed77c-f1cd-4001-9e41-61ecd996cfdf","system_id":"levelo_inurba_marseille","lat":43.21183,"lon":5.35069,"is_reserved":false,"is_disabled":false,"rental_uris":{"android":"levelo://app?vid=7a9ed77c-f1cd-4001-9e41-61ecd996cfdf","ios":"levelo://app?vid=7a9ed77c-f1cd-4001-9e41-61ecd996cfdf"},"vehicle_type_id":"4","last_reported":1751141490,"current_range_meters":20000,"station_id":"st_cvj6sg6p6f1abm77japg","pricing_plan_id":"cebpf4jnsgd1na2vs0mg"},{"bike_id":"9252dfa9-aecd-4141-a529-e61f991bad40","system_id":"levelo_inurba_marseille","lat":43.262126,"lon":5.374382,"is_reserved":false,"is_disabled":false,"rental_uris":{"android":"levelo://app?vid=9252dfa9-aecd-4141-a529-e61f991bad40","ios":"levelo://app?vid=9252dfa9-aecd-4141-a529-e61f991bad40"},"vehicle_type_id":"4","last_reported":1751141490,"current_range_meters":20400,"station_id":"ce4bhgp2rcd13ifvqfc0","pricing_plan_id":"cebpf4jnsgd1na2vs0mg"},{"bike_id":"b6d9493c-adff-4863-bbad-afb11cae4eac","system_id":"levelo_inurba_marseille","lat":43.25503,"lon":5.37639,"is_reserved":false,"is_disabled":false,"rental_uris":{"android":"levelo://app?vid=b6d9493c-adff-4863-bbad-afb11cae4eac","ios":"levelo://app?vid=b6d9493c-adff-4863-bbad-afb11cae4eac"},"vehicle_type_id":"4","last_reported":1751141490,"current_range_meters":20400,"station_id":"ce4bhh12rcd13ifvqff0","pricing_plan_id":"cebpf4jnsgd1na2vs0mg"},{"bike_id":"8e88d330-4796-4944-bdb3-da5564ba7e9f","system_id":"levelo_inurba_marseille","lat":43.27499,"lon":5.42443,"is_reserved":false,"is_disabled":false,"rental_uris":{"android":"levelo://app?vid=8e88d330-4796-4944-bdb3-da5564ba7e9f","ios":"levelo://app?vid=8e88d330-4796-4944-bdb3-da5564ba7e9f"},"vehicle_type_id":"4","last_reported":1751141490,"current_range_meters":20400,"station_id":"ce4bhn92rcd13ifvqgrg","pricing_plan_id":"cebpf4jnsgd1na2vs0mg"},{"bike_id":"54e6c144-89e2-4352-bee4-0bc5a4da8819","system_id":"levelo_inurba_marseille","lat":43.32653,"lon":5.40992,"is_reserved":false,"is_disabled":false,"rental_uris":{"android":"levelo://app?vid=54e6c144-89e2-4352-bee4-0bc5a4da8819","ios":"levelo://app?vid=54e6c144-89e2-4352-bee4-0bc5a4da8819"},"vehicle_type_id":"4","last_reported":1751141490,"current_range_meters":20400,"station_id":"ce4bhpp2rcd13ifvqhgg","pricing_plan_id":"cebpf4jnsgd1na2vs0mg"},{"bike_id":"bf110749-ba96-4098-96f7-bb72dc8e89a6","system_id":"levelo_inurba_marseille","lat":43.31533,"lon":5.38024,"is_reserved":false,"is_disabled":false,"rental_uris":{"android":"levelo://app?vid=bf110749-ba96-4098-96f7-bb72dc8e89a6","ios":"levelo://app?vid=bf110749-ba96-4098-96f7-bb72dc8e89a6"},"vehicle_type_id":"4","last_reported":1751141490,"current_range_meters":20400,"station_id":"ce4bhsp2rcd13ifvqi50","pricing_plan_id":"cebpf4jnsgd1na2vs0mg"},{"bike_id":"fab4b4c9-60aa-4370-8fbc-fd32ec527b16","system_id":"levelo_inurba_marseille","lat":43.31526,"lon":5.38035,"is_reserved":false,"is_disabled":false,"rental_uris":{"android":"levelo://app?vid=fab4b4c9-60aa-4370-8fbc-fd32ec527b16","ios":"levelo://app?vid=fab4b4c9-60aa-4370-8fbc-fd32ec527b16"},"vehicle_type_id":"4","last_reported":1751141490,"current_range_meters":20400,"station_id":"ce4bhsp2rcd13ifvqi50","pricing_plan_id":"cebpf4jnsgd1na2vs0mg"},{"bike_id":"2a7d4522-b0dd-48c1-8653-7a6d0e58cc43","system_id":"levelo_inurba_marseille","lat":43.32092,"lon":5.40102,"is_reserved":false,"is_disabled":false,"rental_uris":{"android":"levelo://app?vid=2a7d4522-b0dd-48c1-8653-7a6d0e58cc43","ios":"levelo://app?vid=2a7d4522-b0dd-48c1-8653-7a6d0e58cc43"},"vehicle_type_id":"4","last_reported":1751141490,"current_range_meters":20800,"station_id":"","pricing_plan_id":"cebpf4jnsgd1na2vs0mg"},{"bike_id":"cf50b881-537b-4fe5-bbbe-abf8a50a1cb1","system_id":"levelo_inurba_marseille","lat":43.2957,"lon":5.37519,"is_reserved":false,"is_disabled":false,"rental_uris":{"android":"levelo://app?vid=cf50b881-537b-4fe5-bbbe-abf8a50a1cb1","ios":"levelo://app?vid=cf50b881-537b-4fe5-bbbe-abf8a50a1cb1"},"vehicle_type_id":"4","last_reported":1751141490,"current_range_meters":20800,"station_id":"ce4bgh92rcd13ifvqb50","pricing_plan_id":"cebpf4jnsgd1na2vs0mg"},{"bike_id":"371968dc-5af9-4e66-94f9-959120a1a1b0","system_id":"levelo_inurba_marseille","lat":43.2762,"lon":5.36107,"is_reserved":false,"is_disabled":false,"rental_uris":{"android":"levelo://app?vid=371968dc-5af9-4e66-94f9-959120a1a1b0","ios":"levelo://app?vid=371968dc-5af9-4e66-94f9-959120a1a1b0"},"vehicle_type_id":"4","last_reported":1751141490,"current_range_meters":20800,"station_id":"ce4bgj92rcd13ifvqbe0","pricing_plan_id":"cebpf4jnsgd1na2vs0mg"},{"bike_id":"c370f775-1dd5-4a0f-9900-c97aa6ca464d","system_id":"levelo_inurba_marseille","lat":43.30945,"lon":5.39034,"is_reserved":false,"is_disabled":false,"rental_uris":{"android":"levelo://app?vid=c370f775-1dd5-4a0f-9900-c97aa6ca464d","ios":"levelo://app?vid=c370f775-1dd5-4a0f-9900-c97aa6ca464d"},"vehicle_type_id":"4","last_reported":1751141490,"current_range_meters":20800,"station_id":"ce4bgup2rcd13ifvqco0","pricing_plan_id":"cebpf4jnsgd1na2vs0mg"},{"bike_id":"540f832a-4456-4019-8b1f-b3f699dc8c31","system_id":"levelo_inurba_marseille","lat":43.29268,"lon":5.38431,"is_reserved":false,"is_disabled":false,"rental_uris":{"android":"levelo://app?vid=540f832a-4456-4019-8b1f-b3f699dc8c31","ios":"levelo://app?vid=540f832a-4456-4019-8b1f-b3f699dc8c31"},"vehicle_type_id":"4","last_reported":1751141490,"current_range_meters":20800,"station_id":"ce4bh692rcd13ifvqea0","pricing_plan_id":"cebpf4jnsgd1na2vs0mg"},{"bike_id":"941146f2-032e-40c2-a791-f959bdd02e9f","system_id":"levelo_inurba_marseille","lat":43.32652,"lon":5.4096,"is_reserved":false,"is_disabled":false,"rental_uris":{"android":"levelo://app?vid=941146f2-032e-40c2-a791-f959bdd02e9f","ios":"levelo://app?vid=941146f2-032e-40c2-a791-f959bdd02e9f"},"vehicle_type_id":"4","last_reported":1751141490,"current_range_meters":20800,"station_id":"ce4bhpp2rcd13ifvqhgg","pricing_plan_id":"cebpf4jnsgd1na2vs0mg"},{"bike_id":"3eabe1e2-f9f5-41cb-a4ed-73ca7f909c5c","system_id":"levelo_inurba_marseille","lat":43.21192,"lon":5.35051,"is_reserved":false,"is_disabled":false,"rental_uris":{"android":"levelo://app?vid=3eabe1e2-f9f5-41cb-a4ed-73ca7f909c5c","ios":"levelo://app?vid=3eabe1e2-f9f5-41cb-a4ed-73ca7f909c5c"},"vehicle_type_id":"4","last_reported":1751141490,"current_range_meters":20800,"station_id":"st_cvj6sg6p6f1abm77japg","pricing_plan_id":"cebpf4jnsgd1na2vs0mg"},{"bike_id":"ba926bfc-9632-4680-b0ed-32a040d6fb83","system_id":"levelo_inurba_marseille","lat":43.21189,"lon":5.3503,"is_reserved":false,"is_disabled":false,"rental_uris":{"android":"levelo://app?vid=ba926bfc-9632-4680-b0ed-32a040d6fb83","ios":"levelo://app?vid=ba926bfc-9632-4680-b0ed-32a040d6fb83"},"vehicle_type_id":"4","last_reported":1751141490,"current_range_meters":20800,"station_id":"st_cvj6sg6p6f1abm77japg","pricing_plan_id":"cebpf4jnsgd1na2vs0mg"},{"bike_id":"1ac664aa-f2a4-4b75-879f-dcb93272d133","system_id":"levelo_inurba_marseille","lat":43.320324,"lon":5.409488,"is_reserved":false,"is_disabled":false,"rental_uris":{"android":"levelo://app?vid=1ac664aa-f2a4-4b75-879f-dcb93272d133","ios":"levelo://app?vid=1ac664aa-f2a4-4b75-879f-dcb93272d133"},"vehicle_type_id":"4","last_reported":1751141490,"current_range_meters":21600,"station_id":"","pricing_plan_id":"cebpf4jnsgd1na2vs0mg"},{"bike_id":"4632270e-ba7e-494b-8f97-07a18e59fbad","system_id":"levelo_inurba_marseille","lat":43.29797,"lon":5.381,"is_reserved":false,"is_disabled":false,"rental_uris":{"android":"levelo://app?vid=4632270e-ba7e-494b-8f97-07a18e59fbad","ios":"levelo://app?vid=4632270e-ba7e-494b-8f97-07a18e59fbad"},"vehicle_type_id":"4","last_reported":1751141490,"current_range_meters":21600,"station_id":"ce4bgip2rcd13ifvqbb0","pricing_plan_id":"cebpf4jnsgd1na2vs0mg"},{"bike_id":"105ce096-a416-42b5-aa8d-134b2428c02c","system_id":"levelo_inurba_marseille","lat":43.302089,"lon":5.394734,"is_reserved":false,"is_disabled":false,"rental_uris":{"android":"levelo://app?vid=105ce096-a416-42b5-aa8d-134b2428c02c","ios":"levelo://app?vid=105ce096-a416-42b5-aa8d-134b2428c02c"},"vehicle_type_id":"4","last_reported":1751141490,"current_range_meters":21600,"station_id":"ce4bh0p2rcd13ifvqd70","pricing_plan_id":"cebpf4jnsgd1na2vs0mg"},{"bike_id":"a1c58918-c199-42a3-9fdd-8c4f0d81a70e","system_id":"levelo_inurba_marseille","lat":43.27321,"lon":5.3907,"is_reserved":false,"is_disabled":false,"rental_uris":{"android":"levelo://app?vid=a1c58918-c199-42a3-9fdd-8c4f0d81a70e","ios":"levelo://app?vid=a1c58918-c199-42a3-9fdd-8c4f0d81a70e"},"vehicle_type_id":"4","last_reported":1751141490,"current_range_meters":21600,"station_id":"ce4bhgp2rcd13ifvqfe0","pricing_plan_id":"cebpf4jnsgd1na2vs0mg"},{"bike_id":"09b8d8f7-8338-48dc-af45-1df2d712f7b5","system_id":"levelo_inurba_marseille","lat":43.27317,"lon":5.39101,"is_reserved":false,"is_disabled":false,"rental_uris":{"android":"levelo://app?vid=09b8d8f7-8338-48dc-af45-1df2d712f7b5","ios":"levelo://app?vid=09b8d8f7-8338-48dc-af45-1df2d712f7b5"},"vehicle_type_id":"4","last_reported":1751141490,"current_range_meters":21600,"station_id":"ce4bhgp2rcd13ifvqfe0","pricing_plan_id":"cebpf4jnsgd1na2vs0mg"},{"bike_id":"60489e12-89ca-4273-9703-32ddba339d90","system_id":"levelo_inurba_marseille","lat":43.25501,"lon":5.3765,"is_reserved":false,"is_disabled":false,"rental_uris":{"android":"levelo://app?vid=60489e12-89ca-4273-9703-32ddba339d90","ios":"levelo://app?vid=60489e12-89ca-4273-9703-32ddba339d90"},"vehicle_type_id":"4","last_reported":1751141490,"current_range_meters":21600,"station_id":"ce4bhh12rcd13ifvqff0","pricing_plan_id":"cebpf4jnsgd1na2vs0mg"},{"bike_id":"207cbecd-8dc5-4a96-a51d-4b2a2dbd330e","system_id":"levelo_inurba_marseille","lat":43.26805,"lon":5.40268,"is_reserved":false,"is_disabled":false,"rental_uris":{"android":"levelo://app?vid=207cbecd-8dc5-4a96-a51d-4b2a2dbd330e","ios":"levelo://app?vid=207cbecd-8dc5-4a96-a51d-4b2a2dbd330e"},"vehicle_type_id":"4","last_reported":1751141490,"current_range_meters":21600,"station_id":"ce501612rcd8frsf0b60","pricing_plan_id":"cebpf4jnsgd1na2vs0mg"},{"bike_id":"452e8211-4f44-45d0-814a-3e9e25b8c44e","system_id":"levelo_inurba_marseille","lat":43.21192,"lon":5.35066,"is_reserved":false,"is_disabled":false,"rental_uris":{"android":"levelo://app?vid=452e8211-4f44-45d0-814a-3e9e25b8c44e","ios":"levelo://app?vid=452e8211-4f44-45d0-814a-3e9e25b8c44e"},"vehicle_type_id":"4","last_reported":1751141490,"current_range_meters":21600,"station_id":"st_cvj6sg6p6f1abm77japg","pricing_plan_id":"cebpf4jnsgd1na2vs0mg"},{"bike_id":"d52c685e-a2cb-4d0b-91d9-77e4a6b0aa0b","system_id":"levelo_inurba_marseille","lat":43.30943,"lon":5.39031,"is_reserved":false,"is_disabled":false,"rental_uris":{"android":"levelo://app?vid=d52c685e-a2cb-4d0b-91d9-77e4a6b0aa0b","ios":"levelo://app?vid=d52c685e-a2cb-4d0b-91d9-77e4a6b0aa0b"},"vehicle_type_id":"4","last_reported":1751141490,"current_range_meters":22000,"station_id":"ce4bgup2rcd13ifvqco0","pricing_plan_id":"cebpf4jnsgd1na2vs0mg"},{"bike_id":"2dc4a12c-47cc-454a-9f81-e4ca929bcf73","system_id":"levelo_inurba_marseille","lat":43.30946,"lon":5.39029,"is_reserved":false,"is_disabled":false,"rental_uris":{"android":"levelo://app?vid=2dc4a12c-47cc-454a-9f81-e4ca929bcf73","ios":"levelo://app?vid=2dc4a12c-47cc-454a-9f81-e4ca929bcf73"},"vehicle_type_id":"4","last_reported":1751141490,"current_range_meters":22000,"station_id":"ce4bgup2rcd13ifvqco0","pricing_plan_id":"cebpf4jnsgd1na2vs0mg"},{"bike_id":"0b6ee0a2-7fdf-4e90-8423-8c66d09b2525","system_id":"levelo_inurba_marseille","lat":43.28569,"lon":5.39497,"is_reserved":false,"is_disabled":false,"rental_uris":{"android":"levelo://app?vid=0b6ee0a2-7fdf-4e90-8423-8c66d09b2525","ios":"levelo://app?vid=0b6ee0a2-7fdf-4e90-8423-8c66d09b2525"},"vehicle_type_id":"4","last_reported":1751141490,"current_range_meters":22000,"station_id":"ce4bh292rcd13ifvqdg0","pricing_plan_id":"cebpf4jnsgd1na2vs0mg"},{"bike_id":"89b1da29-98db-4795-af70-ac8d6ce71e4e","system_id":"levelo_inurba_marseille","lat":43.2926,"lon":5.38437,"is_reserved":false,"is_disabled":false,"rental_uris":{"android":"levelo://app?vid=89b1da29-98db-4795-af70-ac8d6ce71e4e","ios":"levelo://app?vid=89b1da29-98db-4795-af70-ac8d6ce71e4e"},"vehicle_type_id":"4","last_reported":1751141490,"current_range_meters":22000,"station_id":"ce4bh692rcd13ifvqea0","pricing_plan_id":"cebpf4jnsgd1na2vs0mg"},{"bike_id":"b8586b97-87ef-458c-add9-83acbb1634ca","system_id":"levelo_inurba_marseille","lat":43.28454,"lon":5.35878,"is_reserved":false,"is_disabled":false,"rental_uris":{"android":"levelo://app?vid=b8586b97-87ef-458c-add9-83acbb1634ca","ios":"levelo://app?vid=b8586b97-87ef-458c-add9-83acbb1634ca"},"vehicle_type_id":"4","last_reported":1751141490,"current_range_meters":22000,"station_id":"ce4bhah2rcd13ifvqei0","pricing_plan_id":"cebpf4jnsgd1na2vs0mg"},{"bike_id":"6c7acf8b-2671-4491-9c3c-fa99910f0446","system_id":"levelo_inurba_marseille","lat":43.32377,"lon":5.38866,"is_reserved":false,"is_disabled":false,"rental_uris":{"android":"levelo://app?vid=6c7acf8b-2671-4491-9c3c-fa99910f0446","ios":"levelo://app?vid=6c7acf8b-2671-4491-9c3c-fa99910f0446"},"vehicle_type_id":"4","last_reported":1751141490,"current_range_meters":22000,"station_id":"ce4bhqp2rcd13ifvqhog","pricing_plan_id":"cebpf4jnsgd1na2vs0mg"},