{"last_updated":1729656719,"ttl":60,"version":"2.2","data":{"bikes":[{"bike_id":"27cc9b75-cb7e-4967-8b8f-0b45c1553f40","system_id":"levelo_inurba_marseille","lat":43.265,"lon":5.39542,"is_reserved":false,"is_disabled":false,"rental_uris":{"android":"levelo://app?vid=27cc9b75-cb7e-4967-8b8f-0b45c1553f40","ios":"levelo://app?vid=27cc9b75-cb7e-4967-8b8f-0b45c1553f40"},"vehicle_type_id":"4","last_reported":1729656719,"current_range_meters":38000,"station_id":"ce4bhi12rcd13ifvqfq0","pricing_plan_id":"cebpf4jnsgd1na2vs0mg"},{"bike_id":"11ccf416-c1d9-4262-8dd3-89177c85c473","system_id":"levelo_inurba_marseille","lat":43.30254,"lon":5.40056,"is_reserved":false,"is_disabled":false,"rental_uris":{"android":"levelo://app?vid=11ccf416-c1d9-4262-8dd3-89177c85c473","ios":"levelo://app?vid=11ccf416-c1d9-4262-8dd3-89177c85c473"},"vehicle_type_id":"4","last_reported":1729656719,"current_range_meters":36400,"station_id":"ce4bgvh2rcd13ifvqcs0","pricing_plan_id":"cebpf4jnsgd1na2vs0mg"},{"bike_id":"94505a83-b206-4db0-aff0-8f5678e8c521","system_id":"levelo_inurba_marseille","lat":43.24078,"lon":5.37752,"is_reserved":false,"is_disabled":false,"rental_uris":{"android":"levelo://app?vid=94505a83-b206-4db0-aff0-8f5678e8c521","ios":"levelo://app?vid=94505a83-b206-4db0-aff0-8f5678e8c521"},"vehicle_type_id":"4","last_reported":1729656719,"current_range_meters":19200,"station_id":"ce4bhnp2rcd13ifvqgvg","pricing_plan_id":"cebpf4jnsgd1na2vs0mg"},{"bike_id":"b9ecac44-b147-4789-a436-4604efd23300","system_id":"levelo_inurba_marseille","lat":43.3095,"lon":5.39046,"is_reserved":false,"is_disabled":false,"rental_uris":{"android":"levelo://app?vid=b9ecac44-b147-4789-a436-4604efd23300","ios":"levelo://app?vid=b9ecac44-b147-4789-a436-4604efd23300"},"vehicle_type_id":"4","last_reported":1729656719,"current_range_meters":38800,"station_id":"ce4bgup2rcd13ifvqco0","pricing_plan_id":"cebpf4jnsgd1na2vs0mg"},{"bike_id":"5994a573-9be3-44fa-b34b-852648ccf703","system_id":"levelo_inurba_marseille","lat":43.30938,"lon":5.40142,"is_reserved":false,"is_disabled":false,"rental_uris":{"android":"levelo://app?vid=5994a573-9be3-44fa-b34b-852648ccf703","ios":"levelo://app?vid=5994a573-9be3-44fa-b34b-852648ccf703"},"vehicle_type_id":"4","last_reported":1729656719,"current_range_meters":36000,"station_id":"ce4bgvp2rcd13ifvqct0","pricing_plan_id":"cebpf4jnsgd1na2vs0mg"},{"bike_id":"1e912b40-cf78-4faf-8d8c-8c2a5afe1993","system_id":"levelo_inurba_marseille","lat":43.27068,"lon":5.40255,"is_reserved":false,"is_disabled":false,"rental_uris":{"android":"levelo://app?vid=1e912b40-cf78-4faf-8d8c-8c2a5afe1993","ios":"levelo://app?vid=1e912b40-cf78-4faf-8d8c-8c2a5afe1993"},"vehicle_type_id":"4","last_reported":1729656719,"current_range_meters":38800,"station_id":"ce4bhk92rcd13ifvqgc0","pricing_plan_id":"cebpf4jnsgd1na2vs0mg"},{"bike_id":"50f1ec05-4d59-4332-8aca-ecfd573a5bf5","system_id":"levelo_inurba_marseille","lat":43.27072,"lon":5.42278,"is_reserved":false,"is_disabled":false,"rental_uris":{"android":"levelo://app?vid=50f1ec05-4d59-4332-8aca-ecfd573a5bf5","ios":"levelo://app?vid=50f1ec05-4d59-4332-8aca-ecfd573a5bf5"},"vehicle_type_id":"4","last_reported":1729656719,"current_range_meters":38800,"station_id":"ce4bhk92rcd13ifvqgb0","pricing_plan_id":"cebpf4jnsgd1na2vs0mg"},{"bike_id":"9cc36ff7-36c3-4b6a-b7f4-32aadb585645","system_id":"levelo_inurba_marseille","lat":43.30536,"lon":5.38425,"is_reserved":false,"is_disabled":false,"rental_uris":{"android":"levelo://app?vid=9cc36ff7-36c3-4b6a-b7f4-32aadb585645","ios":"levelo://app?vid=9cc36ff7-36c3-4b6a-b7f4-32aadb585645"},"vehicle_type_id":"4","last_reported":1729656719,"current_range_meters":37600,"station_id":"ce4bgg92rcd13ifvqb30","pricing_plan_id":"cebpf4jnsgd1na2vs0mg"},{"bike_id":"da2545c0-1aa1-4252-83b4-6c3657ee2a36","system_id":"levelo_inurba_marseille","lat":43.2956,"lon":5.42287,"is_reserved":false,"is_disabled":false,"rental_uris":{"android":"levelo://app?vid=da2545c0-1aa1-4252-83b4-6c3657ee2a36","ios":"levelo://app?vid=da2545c0-1aa1-4252-83b4-6c3657ee2a36"},"vehicle_type_id":"4","last_reported":1729656719,"current_range_meters":26000,"station_id":"ce4bhph2rcd13ifvqhdg","pricing_plan_id":"cebpf4jnsgd1na2vs0mg"},{"bike_id":"b149ce4e-51e1-44d1-a677-e09dc3311ba7","system_id":"levelo_inurba_marseille","lat":43.24389,"lon":5.37052,"is_reserved":false,"is_disabled":false,"rental_uris":{"android":"levelo://app?vid=b149ce4e-51e1-44d1-a677-e09dc3311ba7","ios":"levelo://app?vid=b149ce4e-51e1-44d1-a677-e09dc3311ba7"},"vehicle_type_id":"4","last_reported":1729656719,"current_range_meters":38800,"station_id":"ce4bhhh2rcd13ifvqfk0","pricing_plan_id":"cebpf4jnsgd1na2vs0mg"},{"bike_id":"b4cc9679-1889-4d52-9d59-6fc564d9e1c9","system_id":"levelo_inurba_marseille","lat":43.243895,"lon":5.37059,"is_reserved":false,"is_disabled":false,"rental_uris":{"android":"levelo://app?vid=b4cc9679-1889-4d52-9d59-6fc564d9e1c9","ios":"levelo://app?vid=b4cc9679-1889-4d52-9d59-6fc564d9e1c9"},"vehicle_type_id":"4","last_reported":1729656719,"current_range_meters":30000,"station_id":"ce4bhhh2rcd13ifvqfk0","pricing_plan_id":"cebpf4jnsgd1na2vs0mg"},{"bike_id":"a581c9ee-de6c-4ca2-adce-d873a10f1b7c","system_id":"levelo_inurba_marseille","lat":43.24079,"lon":5.37747,"is_reserved":false,"is_disabled":false,"rental_uris":{"android":"levelo://app?vid=a581c9ee-de6c-4ca2-adce-d873a10f1b7c","ios":"levelo://app?vid=a581c9ee-de6c-4ca2-adce-d873a10f1b7c"},"vehicle_type_id":"4","last_reported":1729656719,"current_range_meters":12800,"station_id":"ce4bhnp2rcd13ifvqgvg","pricing_plan_id":"cebpf4jnsgd1na2vs0mg"},{"bike_id":"d0c683a0-3db7-48bb-b493-190a455e3a59","system_id":"levelo_inurba_marseille","lat":43.286969,"lon":5.373933,"is_reserved":false,"is_disabled":false,"rental_uris":{"android":"levelo://app?vid=d0c683a0-3db7-48bb-b493-190a455e3a59","ios":"levelo://app?vid=d0c683a0-3db7-48bb-b493-190a455e3a59"},"vehicle_type_id":"4","last_reported":1729656719,"current_range_meters":37600,"station_id":"ce4bh3p2rcd13ifvqdq0","pricing_plan_id":"cebpf4jnsgd1na2vs0mg"},{"bike_id":"29e33d02-f85a-4d17-be65-24241968e69c","system_id":"levelo_inurba_marseille","lat":43.23956,"lon":5.36633,"is_reserved":false,"is_disabled":false,"rental_uris":{"android":"levelo://app?vid=29e33d02-f85a-4d17-be65-24241968e69c","ios":"levelo://app?vid=29e33d02-f85a-4d17-be65-24241968e69c"},"vehicle_type_id":"4","last_reported":1729656719,"current_range_meters":38800,"station_id":"ce4bhi12rcd13ifvqfp0","pricing_plan_id":"cebpf4jnsgd1na2vs0mg"},{"bike_id":"e260026a-7158-4d78-8dca-cf1b5cf94aca","system_id":"levelo_inurba_marseille","lat":43.28479,"lon":5.38559,"is_reserved":false,"is_disabled":false,"rental_uris":{"android":"levelo://app?vid=e260026a-7158-4d78-8dca-cf1b5cf94aca","ios":"levelo://app?vid=e260026a-7158-4d78-8dca-cf1b5cf94aca"},"vehicle_type_id":"4","last_reported":1729656719,"current_range_meters":12000,"station_id":"ce4bh8p2rcd13ifvqeb0","pricing_plan_id":"cebpf4jnsgd1na2vs0mg"},{"bike_id":"f959c94a-3644-4ed9-b7ed-65e914e837b3","system_id":"levelo_inurba_marseille","lat":43.31326,"lon":5.39703,"is_reserved":false,"is_disabled":false,"rental_uris":{"android":"levelo://app?vid=f959c94a-3644-4ed9-b7ed-65e914e837b3","ios":"levelo://app?vid=f959c94a-3644-4ed9-b7ed-65e914e837b3"},"vehicle_type_id":"4","last_reported":1729656719,"current_range_meters":38800,"station_id":"ce4bgvp2rcd13ifvqcu0","pricing_plan_id":"cebpf4jnsgd1na2vs0mg"},{"bike_id":"1790e283-4ef5-4563-bd57-3b1158641bdb","system_id":"levelo_inurba_marseille","lat":43.31233,"lon":5.36858,"is_reserved":false,"is_disabled":false,"rental_uris":{"android":"levelo://app?vid=1790e283-4ef5-4563-bd57-3b1158641bdb","ios":"levelo://app?vid=1790e283-4ef5-4563-bd57-3b1158641bdb"},"vehicle_type_id":"4","last_reported":1729656719,"current_range_meters":38800,"station_id":"ce4bgl92rcd13ifvqbq0","pricing_plan_id":"cebpf4jnsgd1na2vs0mg"},{"bike_id":"6429c5ab-58df-44e3-81a8-3cef3c5f2436","system_id":"levelo_inurba_marseille","lat":43.31705,"lon":5.37759,"is_reserved":false,"is_disabled":false,"rental_uris":{"android":"levelo://app?vid=6429c5ab-58df-44e3-81a8-3cef3c5f2436","ios":"levelo://app?vid=6429c5ab-58df-44e3-81a8-3cef3c5f2436"},"vehicle_type_id":"4","last_reported":1729656719,"current_range_meters":38800,"station_id":"ce4bgth2rcd13ifvqch0","pricing_plan_id":"cebpf4jnsgd1na2vs0mg"},{"bike_id":"328140ce-d7f5-4c8b-8ba9-92595f400267","system_id":"levelo_inurba_marseille","lat":43.28662,"lon":5.36353,"is_reserved":false,"is_disabled":false,"rental_uris":{"android":"levelo://app?vid=328140ce-d7f5-4c8b-8ba9-92595f400267","ios":"levelo://app?vid=328140ce-d7f5-4c8b-8ba9-92595f400267"},"vehicle_type_id":"4","last_reported":1729656719,"current_range_meters":38000,"station_id":"ce4bhah2rcd13ifvqej0","pricing_plan_id":"cebpf4jnsgd1na2vs0mg"},{"bike_id":"02b1a1b0-58be-4c7a-9d6c-10343c353689","system_id":"levelo_inurba_marseille","lat":43.29444,"lon":5.39752,"is_reserved":false,"is_disabled":false,"rental_uris":{"android":"levelo://app?vid=02b1a1b0-58be-4c7a-9d6c-10343c353689","ios":"levelo://app?vid=02b1a1b0-58be-4c7a-9d6c-10343c353689"},"vehicle_type_id":"4","last_reported":1729656719,"current_range_meters":37600,"station_id":"ce4bh3h2rcd13ifvqdo0","pricing_plan_id":"cebpf4jnsgd1na2vs0mg"},{"bike_id":"bf3cdac8-1828-4c5b-88c1-7d178598dc6a","system_id":"levelo_inurba_marseille","lat":43.300385,"lon":5.37295,"is_reserved":false,"is_disabled":false,"rental_uris":{"android":"levelo://app?vid=bf3cdac8-1828-4c5b-88c1-7d178598dc6a","ios":"levelo://app?vid=bf3cdac8-1828-4c5b-88c1-7d178598dc6a"},"vehicle_type_id":"4","last_reported":1729656719,"current_range_meters":14400,"station_id":"","pricing_plan_id":"cebpf4jnsgd1na2vs0mg"},{"bike_id":"60b8bae4-0b0d-4e98-88fd-f5c5969866c8","system_id":"levelo_inurba_marseille","lat":43.28436,"lon":5.39183,"is_reserved":false,"is_disabled":false,"rental_uris":{"android":"levelo://app?vid=60b8bae4-0b0d-4e98-88fd-f5c5969866c8","ios":"levelo://app?vid=60b8bae4-0b0d-4e98-88fd-f5c5969866c8"},"vehicle_type_id":"4","last_reported":1729656719,"current_range_meters":20000,"station_id":"ce4bhoh2rcd13ifvqh5g","pricing_plan_id":"cebpf4jnsgd1na2vs0mg"},{"bike_id":"2fe7d70e-1f51-42bb-b430-e0a207f4fbd0","system_id":"levelo_inurba_marseille","lat":43.28734,"lon":5.36081,"is_reserved":false,"is_disabled":false,"rental_uris":{"android":"levelo://app?vid=2fe7d70e-1f51-42bb-b430-e0a207f4fbd0","ios":"levelo://app?vid=2fe7d70e-1f51-42bb-b430-e0a207f4fbd0"},"vehicle_type_id":"4","last_reported":1729656719,"current_range_meters":21600,"station_id":"cki0cbj6b192h4jlfktg","pricing_plan_id":"cebpf4jnsgd1na2vs0mg"},{"bike_id":"1f3c2773-b04a-4a14-99a1-613b6e81b189","system_id":"levelo_inurba_marseille","lat":43.29251,"lon":5.40911,"is_reserved":false,"is_disabled":false,"rental_uris":{"android":"levelo://app?vid=1f3c2773-b04a-4a14-99a1-613b6e81b189","ios":"levelo://app?vid=1f3c2773-b04a-4a14-99a1-613b6e81b189"},"vehicle_type_id":"4","last_reported":1729656719,"current_range_meters":38800,"station_id":"ce4bh192rcd13ifvqdc0","pricing_plan_id":"cebpf4jnsgd1na2vs0mg"},{"bike_id":"5c449356-4ac4-4d08-a405-c433fbe21a80","system_id":"levelo_inurba_marseille","lat":43.33737,"lon":5.37458,"is_reserved":false,"is_disabled":false,"rental_uris":{"android":"levelo://app?vid=5c449356-4ac4-4d08-a405-c433fbe21a80","ios":"levelo://app?vid=5c449356-4ac4-4d08-a405-c433fbe21a80"},"vehicle_type_id":"4","last_reported":1729656719,"current_range_meters":30800,"station_id":"","pricing_plan_id":"cebpf4jnsgd1na2vs0mg"},{"bike_id":"3a92d8ff-54ff-443e-9b0a-a2fcb028aa18","system_id":"levelo_inurba_marseille","lat":43.30543,"lon":5.36706,"is_reserved":false,"is_disabled":false,"rental_uris":{"android":"levelo://app?vid=3a92d8ff-54ff-443e-9b0a-a2fcb028aa18","ios":"levelo://app?vid=3a92d8ff-54ff-443e-9b0a-a2fcb028aa18"},"vehicle_type_id":"4","last_reported":1729656719,"current_range_meters":38400,"station_id":"ce4bgrp2rcd13ifvqc9g","pricing_plan_id":"cebpf4jnsgd1na2vs0mg"},{"bike_id":"a1a535ed-f351-417e-8fe5-da00f4778e3a","system_id":"levelo_inurba_marseille","lat":43.30424,"lon":5.41274,"is_reserved":false,"is_disabled":false,"rental_uris":{"android":"levelo://app?vid=a1a535ed-f351-417e-8fe5-da00f4778e3a","ios":"levelo://app?vid=a1a535ed-f351-417e-8fe5-da00f4778e3a"},"vehicle_type_id":"4","last_reported":1729656719,"current_range_meters":16800,"station_id":"ce4bhop2rcd13ifvqh8g","pricing_plan_id":"cebpf4jnsgd1na2vs0mg"},{"bike_id":"309dad60-bb72-4d2d-b50c-28e8483b55b4","system_id":"levelo_inurba_marseille","lat":43.295525,"lon":5.422815,"is_reserved":false,"is_disabled":false,"rental_uris":{"android":"levelo://app?vid=309dad60-bb72-4d2d-b50c-28e8483b55b4","ios":"levelo://app?vid=309dad60-bb72-4d2d-b50c-28e8483b55b4"},"vehicle_type_id":"4","last_reported":1729656719,"current_range_meters":28400,"station_id":"ce4bhph2rcd13ifvqhdg","pricing_plan_id":"cebpf4jnsgd1na2vs0mg"},{"bike_id":"0029ee21-649e-4d16-a642-8d64d97589e4","system_id":"levelo_inurba_marseille","lat":43.24071,"lon":5.37759,"is_reserved":false,"is_disabled":false,"rental_uris":{"android":"levelo://app?vid=0029ee21-649e-4d16-a642-8d64d97589e4","ios":"levelo://app?vid=0029ee21-649e-4d16-a642-8d64d97589e4"},"vehicle_type_id":"4","last_reported":1729656719,"current_range_meters":17200,"station_id":"ce4bhnp2rcd13ifvqgvg","pricing_plan_id":"cebpf4jnsgd1na2vs0mg"},{"bike_id":"2fa1dc90-f762-4e81-bce8-6d4dab68d2a0","system_id":"levelo_inurba_marseille","lat":43.2848,"lon":5.3854,"is_reserved":false,"is_disabled":false,"rental_uris":{"android":"levelo://app?vid=2fa1dc90-f762-4e81-bce8-6d4dab68d2a0","ios":"levelo://app?vid=2fa1dc90-f762-4e81-bce8-6d4dab68d2a0"},"vehicle_type_id":"4","last_reported":1729656719,"current_range_meters":36400,"station_id":"ce4bh8p2rcd13ifvqeb0","pricing_plan_id":"cebpf4jnsgd1na2vs0mg"},{"bike_id":"80f01561-4f78-4d59-98de-f130f22341eb","system_id":"levelo_inurba_marseille","lat":43.28153,"lon":5.42648,"is_reserved":false,"is_disabled":false,"rental_uris":{"android":"levelo://app?vid=80f01561-4f78-4d59-98de-f130f22341eb","ios":"levelo://app?vid=80f01561-4f78-4d59-98de-f130f22341eb"},"vehicle_type_id":"4","last_reported":1729656719,"current_range_meters":4400,"station_id":"ce4bhnh2rcd13ifvqgug","pricing_plan_id":"cebpf4jnsgd1na2vs0mg"},{"bike_id":"0c6b11eb-50a7-4dc0-bff2-d8026011ec1d","system_id":"levelo_inurba_marseille","lat":43.24389,"lon":5.37057,"is_reserved":false,"is_disabled":false,"rental_uris":{"android":"levelo://app?vid=0c6b11eb-50a7-4dc0-bff2-d8026011ec1d","ios":"levelo://app?vid=0c6b11eb-50a7-4dc0-bff2-d8026011ec1d"},"vehicle_type_id":"4","last_reported":1729656719,"current_range_meters":39200,"station_id":"ce4bhhh2rcd13ifvqfk0","pricing_plan_id":"cebpf4jnsgd1na2vs0mg"},{"bike_id":"6f30af56-4ead-46fe-94dc-e3c11d5a0ee0","system_id":"levelo_inurba_marseille","lat":43.2318,"lon":5.39984,"is_reserved":false,"is_disabled":false,"rental_uris":{"android":"levelo://app?vid=6f30af56-4ead-46fe-94dc-e3c11d5a0ee0","ios":"levelo://app?vid=6f30af56-4ead-46fe-94dc-e3c11d5a0ee0"},"vehicle_type_id":"4","last_reported":1729656719,"current_range_meters":31200,"station_id":"ce4bhn12rcd13ifvqgqg","pricing_plan_id":"cebpf4jnsgd1na2vs0mg"},{"bike_id":"fd91bb08-b205-4b6a-9da1-b7df06e65a8a","system_id":"levelo_inurba_marseille","lat":43.310676,"lon":5.383516,"is_reserved":false,"is_disabled":false,"rental_uris":{"android":"levelo://app?vid=fd91bb08-b205-4b6a-9da1-b7df06e65a8a","ios":"levelo://app?vid=fd91bb08-b205-4b6a-9da1-b7df06e65a8a"},"vehicle_type_id":"4","last_reported":1729656719,"current_range_meters":37600,"station_id":"ce4bgv92rcd13ifvqcr0","pricing_plan_id":"cebpf4jnsgd1na2vs0mg"},{"bike_id":"c769be1b-4262-45e1-ae17-91133a0a1d6c","system_id":"levelo_inurba_marseille","lat":43.3053,"lon":5.36659,"is_reserved":false,"is_disabled":false,"rental_uris":{"android":"levelo://app?vid=c769be1b-4262-45e1-ae17-91133a0a1d6c","ios":"levelo://app?vid=c769be1b-4262-45e1-ae17-91133a0a1d6c"},"vehicle_type_id":"4","last_reported":1729656719,"current_range_meters":13600,"station_id":"","pricing_plan_id":"cebpf4jnsgd1na2vs0mg"},{"bike_id":"4882a116-5452-4f97-bdbd-13df4cccb9d6","system_id":"levelo_inurba_marseille","lat":43.30599,"lon":5.37238,"is_reserved":false,"is_disabled":false,"rental_uris":{"android":"levelo://app?vid=4882a116-5452-4f97-bdbd-13df4cccb9d6","ios":"levelo://app?vid=4882a116-5452-4f97-bdbd-13df4cccb9d6"},"vehicle_type_id":"4","last_reported":1729656719,"current_range_meters":31200,"station_id":"ce4bgqh2rcd13ifvqc4g","pricing_plan_id":"cebpf4jnsgd1na2vs0mg"},{"bike_id":"51609f73-1be2-469a-93e3-45dd1403c91f","system_id":"levelo_inurba_marseille","lat":43.30607,"lon":5.37225,"is_reserved":false,"is_disabled":false,"rental_uris":{"android":"levelo://app?vid=51609f73-1be2-469a-93e3-45dd1403c91f","ios":"levelo://app?vid=51609f73-1be2-469a-93e3-45dd1403c91f"},"vehicle_type_id":"4","last_reported":1729656719,"current_range_meters":11600,"station_id":"ce4bgqh2rcd13ifvqc4g","pricing_plan_id":"cebpf4jnsgd1na2vs0mg"},{"bike_id":"1124aa99-a4cf-4abb-81d2-6a98e5a17338","system_id":"levelo_inurba_marseille","lat":43.27825,"lon":5.3921,"is_reserved":false,"is_disabled":false,"rental_uris":{"android":"levelo://app?vid=1124aa99-a4cf-4abb-81d2-6a98e5a17338","ios":"levelo://app?vid=1124aa99-a4cf-4abb-81d2-6a98e5a17338"},"vehicle_type_id":"4","last_reported":1729656719,"current_range_meters":39200,"station_id":"ce4bhjp2rcd13ifvqga0","pricing_plan_id":"cebpf4jnsgd1na2vs0mg"},{"bike_id":"c06309b0-c1de-457f-b658-f76ff5bddc2d","system_id":"levelo_inurba_marseille","lat":43.30147,"lon":5.38079,"is_reserved":false,"is_disabled":false,"rental_uris":{"android":"levelo://app?vid=c06309b0-c1de-457f-b658-f76ff5bddc2d","ios":"levelo://app?vid=c06309b0-c1de-457f-b658-f76ff5bddc2d"},"vehicle_type_id":"4","last_reported":1729656719,"current_range_meters":18800,"station_id":"ce4bgjp2rcd13ifvqbh0","pricing_plan_id":"cebpf4jnsgd1na2vs0mg"},{"bike_id":"57633249-3b48-4b3f-9fc9-74faaaf52100","system_id":"levelo_inurba_marseille","lat":43.284032,"lon":5.375193,"is_reserved":false,"is_disabled":false,"rental_uris":{"android":"levelo://app?vid=57633249-3b48-4b3f-9fc9-74faaaf52100","ios":"levelo://app?vid=57633249-3b48-4b3f-9fc9-74faaaf52100"},"vehicle_type_id":"4","last_reported":1729656719,"current_range_meters":39200,"station_id":"ce4bh412rcd13ifvqds0","pricing_plan_id":"cebpf4jnsgd1na2vs0mg"},{"bike_id":"30f229f6-1cd2-4873-8ba7-06fd5b338b9d","system_id":"levelo_inurba_marseille","lat":43.28853,"lon":5.39309,"is_reserved":false,"is_disabled":false,"rental_uris":{"android":"levelo://app?vid=30f229f6-1cd2-4873-8ba7-06fd5b338b9d","ios":"levelo://app?vid=30f229f6-1cd2-4873-8ba7-06fd5b338b9d"},"vehicle_type_id":"4","last_reported":1729656719,"current_range_meters":38800,"station_id":"ce4bh2p2rcd13ifvqdi0","pricing_plan_id":"cebpf4jnsgd1na2vs0mg"},{"bike_id":"42b34e18-affb-4aa0-b872-5fe3a8b7ec70","system_id":"levelo_inurba_marseille","lat":43.23196,"lon":5.35548,"is_reserved":false,"is_disabled":false,"rental_uris":{"android":"levelo://app?vid=42b34e18-affb-4aa0-b872-5fe3a8b7ec70","ios":"levelo://app?vid=42b34e18-affb-4aa0-b872-5fe3a8b7ec70"},"vehicle_type_id":"4","last_reported":1729656719,"current_range_meters":9200,"station_id":"ce4bhu92rcd13ifvqi70","pricing_plan_id":"cebpf4jnsgd1na2vs0mg"},{"bike_id":"f42b21e7-cbd4-432b-a865-7ed8d92ab2c5","system_id":"levelo_inurba_marseille","lat":43.30981,"lon":5.40056,"is_reserved":false,"is_disabled":false,"rental_uris":{"android":"levelo://app?vid=f42b21e7-cbd4-432b-a865-7ed8d92ab2c5","ios":"levelo://app?vid=f42b21e7-cbd4-432b-a865-7ed8d92ab2c5"},"vehicle_type_id":"4","last_reported":1729656719,"current_range_meters":38000,"station_id":"ce4bhq92rcd13ifvqhjg","pricing_plan_id":"cebpf4jnsgd1na2vs0mg"},{"bike_id":"7b481b07-b99d-41b6-a5a5-346f5027bece","system_id":"levelo_inurba_marseille","lat":43.31535,"lon":5.38034,"is_reserved":false,"is_disabled":false,"rental_uris":{"android":"levelo://app?vid=7b481b07-b99d-41b6-a5a5-346f5027bece","ios":"levelo://app?vid=7b481b07-b99d-41b6-a5a5-346f5027bece"},"vehicle_type_id":"4","last_reported":1729656719,"current_range_meters":36800,"station_id":"ce4bhsp2rcd13ifvqi50","pricing_plan_id":"cebpf4jnsgd1na2vs0mg"},{"bike_id":"ebeea3a0-5e71-4305-b861-0686ff11b7c4","system_id":"levelo_inurba_marseille","lat":43.29782,"lon":5.37097,"is_reserved":false,"is_disabled":false,"rental_uris":{"android":"levelo://app?vid=ebeea3a0-5e71-4305-b861-0686ff11b7c4","ios":"levelo://app?vid=ebeea3a0-5e71-4305-b861-0686ff11b7c4"},"vehicle_type_id":"4","last_reported":1729656719,"current_range_meters":32400,"station_id":"ce4bgop2rcd13ifvqc1g","pricing_plan_id":"cebpf4jnsgd1na2vs0mg"},{"bike_id":"329727be-41c5-4404-8a34-4faa7b5d0b3d","system_id":"levelo_inurba_marseille","lat":43.29222,"lon":5.36058,"is_reserved":false,"is_disabled":false,"rental_uris":{"android":"levelo://app?vid=329727be-41c5-4404-8a34-4faa7b5d0b3d","ios":"levelo://app?vid=329727be-41c5-4404-8a34-4faa7b5d0b3d"},"vehicle_type_id":"4","last_reported":1729656719,"current_range_meters":27600,"station_id":"ce4bhbh2rcd13ifvqeqg","pricing_plan_id":"cebpf4jnsgd1na2vs0mg"},{"bike_id":"03e455ca-db19-4914-ba3f-fe3463aa8ffe","system_id":"levelo_inurba_marseille","lat":43.27208,"lon":5.39177,"is_reserved":false,"is_disabled":false,"rental_uris":{"android":"levelo://app?vid=03e455ca-db19-4914-ba3f-fe3463aa8ffe","ios":"levelo://app?vid=03e455ca-db19-4914-ba3f-fe3463aa8ffe"},"vehicle_type_id":"4","last_reported":1729656719,"current_range_meters":13600,"station_id":"ce4bhhp2rcd13ifvqfm0","pricing_plan_id":"cebpf4jnsgd1na2vs0mg"},{"bike_id":"20e0b48a-077f-45c8-b5a5-1f4dcb4203d2","system_id":"levelo_inurba_marseille","lat":43.28159,"lon":5.42638,"is_reserved":false,"is_disabled":false,"rental_uris":{"android":"levelo://app?vid=20e0b48a-077f-45c8-b5a5-1f4dcb4203d2","ios":"levelo://app?vid=20e0b48a-077f-45c8-b5a5-1f4dcb4203d2"},"vehicle_type_id":"4","last_reported":1729656719,"current_range_meters":38800,"station_id":"ce4bhnh2rcd13ifvqgug","pricing_plan_id":"cebpf4jnsgd1na2vs0mg"},{"bike_id":"ec27f554-4b18-49a0-8d1d-a9948b1b2ca9","system_id":"levelo_inurba_marseille","lat":43.25582,"lon":5.3823,"is_reserved":false,"is_disabled":false,"rental_uris":{"android":"levelo://app?vid=ec27f554-4b18-49a0-8d1d-a9948b1b2ca9","ios":"levelo://app?vid=ec27f554-4b18-49a0-8d1d-a9948b1b2ca9"},"vehicle_type_id":"4","last_reported":1729656719,"current_range_meters":38800,"station_id":"ce4bhih2rcd13ifvqfs0","pricing_plan_id":"cebpf4jnsgd1na2vs0mg"},{"bike_id":"fe80d9c1-0832-4267-b5ca-a1ab1923bc8a","system_id":"levelo_inurba_marseille","lat":43.29047,"lon":5.35917,"is_reserved":false,"is_disabled":false,"rental_uris":{"android":"levelo://app?vid=fe80d9c1-0832-4267-b5ca-a1ab1923bc8a","ios":"levelo://app?vid=fe80d9c1-0832-4267-b5ca-a1ab1923bc8a"},"vehicle_type_id":"4","last_reported":1729656719,"current_range_meters":38000,"station_id":"ce4bha92rcd13ifvqeg0","pricing_plan_id":"cebpf4jnsgd1na2vs0mg"},{"bike_id":"94d30471-f54b-4aca-96dd-695f3b79bd29","system_id":"levelo_inurba_marseille","lat":43.311707,"lon":5.387198,"is_reserved":false,"is_disabled":false,"rental_uris":{"android":"levelo://app?vid=94d30471-f54b-4aca-96dd-695f3b79bd29","ios":"levelo://app?vid=94d30471-f54b-4aca-96dd-695f3b79bd29"},"vehicle_type_id":"4","last_reported":1729656719,"current_range_meters":35600,"station_id":"ce4bgv12rcd13ifvqcp0","pricing_plan_id":"cebpf4jnsgd1na2vs0mg"},{"bike_id":"a04ee60d-8e8d-435a-a7ee-19b23f6dbbb0","system_id":"levelo_inurba_marseille","lat":43.26213,"lon":5.37438,"is_reserved":false,"is_disabled":false,"rental_uris":{"android":"levelo://app?vid=a04ee60d-8e8d-435a-a7ee-19b23f6dbbb0","ios":"levelo://app?vid=a04ee60d-8e8d-435a-a7ee-19b23f6dbbb0"},"vehicle_type_id":"4","last_reported":1729656719,"current_range_meters":38800,"station_id":"ce4bhgp2rcd13ifvqfc0","pricing_plan_id":"cebpf4jnsgd1na2vs0mg"},{"bike_id":"474e8192-2c3d-4290-9dca-32a411415637","system_id":"levelo_inurba_marseille","lat":43.30448,"lon":5.37912,"is_reserved":false,"is_disabled":false,"rental_uris":{"android":"levelo://app?vid=474e8192-2c3d-4290-9dca-32a411415637","ios":"levelo://app?vid=474e8192-2c3d-4290-9dca-32a411415637"},"vehicle_type_id":"4","last_reported":1729656719,"current_range_meters":38800,"station_id":"ce4bgup2rcd13ifvqcn0","pricing_plan_id":"cebpf4jnsgd1na2vs0mg"},{"bike_id":"ddd281a6-7ca1-497c-8140-a57e2ac57392","system_id":"levelo_inurba_marseille","lat":43.2679,"lon":5.39426,"is_reserved":false,"is_disabled":false,"rental_uris":{"android":"levelo://app?vid=ddd281a6-7ca1-497c-8140-a57e2ac57392","ios":"levelo://app?vid=ddd281a6-7ca1-497c-8140-a57e2ac57392"},"vehicle_type_id":"4","last_reported":1729656719,"current_range_meters":38800,"station_id":"ce4bhh12rcd13ifvqfg0","pricing_plan_id":"cebpf4jnsgd1na2vs0mg"},{"bike_id":"bde5a3e1-2b27-4680-add5-25f6634f00df","system_id":"levelo_inurba_marseille","lat":43.27989,"lon":5.41661,"is_reserved":false,"is_disabled":false,"rental_uris":{"android":"levelo://app?vid=bde5a3e1-2b27-4680-add5-25f6634f00df","ios":"levelo://app?vid=bde5a3e1-2b27-4680-add5-25f6634f00df"},"vehicle_type_id":"4","last_reported":1729656719,"current_range_meters":8000,"station_id":"ce4bho12rcd13ifvqh1g","pricing_plan_id":"cebpf4jnsgd1na2vs0mg"},{"bike_id":"f0220362-e7c7-423a-a587-85c77fbcabb6","system_id":"levelo_inurba_marseille","lat":43.2707,"lon":5.42277,"is_reserved":false,"is_disabled":false,"rental_uris":{"android":"levelo://app?vid=f0220362-e7c7-423a-a587-85c77fbcabb6","ios":"levelo://app?vid=f0220362-e7c7-423a-a587-85c77fbcabb6"},"vehicle_type_id":"4","last_reported":1729656719,"current_range_meters":38800,"station_id":"ce4bhk92rcd13ifvqgb0","pricing_plan_id":"cebpf4jnsgd1na2vs0mg"},{"bike_id":"22675db0-28b2-4ef9-a53f-b0764f3ea9dc","system_id":"levelo_inurba_marseille","lat":43.31995,"lon":5.38149,"is_reserved":false,"is_disabled":false,"rental_uris":{"android":"levelo://app?vid=22675db0-28b2-4ef9-a53f-b0764f3ea9dc","ios":"levelo://app?vid=22675db0-28b2-4ef9-a53f-b0764f3ea9dc"},"vehicle_type_id":"4","last_reported":1729656719,"current_range_meters":38800,"station_id":"ce4bhr12rcd13ifvqhpg","pricing_plan_id":"cebpf4jnsgd1na2vs0mg"},{"bike_id":"5e0f5e79-e2c7-493b-bd68-20412804c77d","system_id":"levelo_inurba_marseille","lat":43.27174,"lon":5.40988,"is_reserved":false,"is_disabled":false,"rental_uris":{"android":"levelo://app?vid=5e0f5e79-e2c7-493b-bd68-20412804c77d","ios":"levelo://app?vid=5e0f5e79-e2c7-493b-bd68-20412804c77d"},"vehicle_type_id":"4","last_reported":1729656719,"current_range_meters":38800,"station_id":"ce4bhl12rcd13ifvqgf0","pricing_plan_id":"cebpf4jnsgd1na2vs0mg"},{"bike_id":"ab17151c-94ae-401a-8d44-abbdb15f9094","system_id":"levelo_inurba_marseille","lat":43.31533,"lon":5.38028,"is_reserved":false,"is_disabled":false,"rental_uris":{"android":"levelo://app?vid=ab17151c-94ae-401a-8d44-abbdb15f9094","ios":"levelo://app?vid=ab17151c-94ae-401a-8d44-abbdb15f9094"},"vehicle_type_id":"4","last_reported":1729656719,"current_range_meters":27200,"station_id":"ce4bhsp2rcd13ifvqi50","pricing_plan_id":"cebpf4jnsgd1na2vs0mg"},{"bike_id":"d08ac600-b85a-4a44-84b0-ee33725e24f7","system_id":"levelo_inurba_marseille","lat":43.32361,"lon":5.3888,"is_reserved":false,"is_disabled":false,"rental_uris":{"android":"levelo://app?vid=d08ac600-b85a-4a44-84b0-ee33725e24f7","ios":"levelo://app?vid=d08ac600-b85a-4a44-84b0-ee33725e24f7"},"vehicle_type_id":"4","last_reported":1729656719,"current_range_meters":32000,"station_id":"ce4bhqp2rcd13ifvqhog","pricing_plan_id":"cebpf4jnsgd1na2vs0mg"},{"bike_id":"6a3d026e-f423-4e19-905c-b73e2bbde2ea","system_id":"levelo_inurba_marseille","lat":43.27177,"lon":5.40988,"is_reserved":false,"is_disabled":false,"rental_uris":{"android":"levelo://app?vid=6a3d026e-f423-4e19-905c-b73e2bbde2ea","ios":"levelo://app?vid=6a3d026e-f423-4e19-905c-b73e2bbde2ea"},"vehicle_type_id":"4","last_reported":1729656719,"current_range_meters":38000,"station_id":"ce4bhl12rcd13ifvqgf0","pricing_plan_id":"cebpf4jnsgd1na2vs0mg"},{"bike_id":"48626366-6c4d-4e93-86eb-59d9c4e5dfba","system_id":"levelo_inurba_marseille","lat":43.28939,"lon":5.39635,"is_reserved":false,"is_disabled":false,"rental_uris":{"android":"levelo://app?vid=48626366-6c4d-4e93-86eb-59d9c4e5dfba","ios":"levelo://app?vid=48626366-6c4d-4e93-86eb-59d9c4e5dfba"},"vehicle_type_id":"4","last_reported":1729656719,"current_range_meters":38800,"station_id":"ce4bh3h2rcd13ifvqdn0","pricing_plan_id":"cebpf4jnsgd1na2vs0mg"},{"bike_id":"1f92305f-3ae4-4b19-945f-1102feb6f1dd","system_id":"levelo_inurba_marseille","lat":43.30885,"lon":5.39642,"is_reserved":false,"is_disabled":false,"rental_uris":{"android":"levelo://app?vid=1f92305f-3ae4-4b19-945f-1102feb6f1dd","ios":"levelo://app?vid=1f92305f-3ae4-4b19-945f-1102feb6f1dd"},"vehicle_type_id":"4","last_reported":1729656719,"current_range_meters":30800,"station_id":"ce4bh012rcd13ifvqcv0","pricing_plan_id":"cebpf4jnsgd1na2vs0mg"},{"bike_id":"3e874096-f707-4e4f-918f-d88b9ad69dbe","system_id":"levelo_inurba_marseille","lat":43.30887,"lon":5.39634,"is_reserved":false,"is_disabled":false,"rental_uris":{"android":"levelo://app?vid=3e874096-f707-4e4f-918f-d88b9ad69dbe","ios":"levelo://app?vid=3e874096-f707-4e4f-918f-d88b9ad69dbe"},"vehicle_type_id":"4","last_reported":1729656719,"current_range_meters":24800,"station_id":"ce4bh012rcd13ifvqcv0","pricing_plan_id":"cebpf4jnsgd1na2vs0mg"},{"bike_id":"5d9d0336-c118-4784-b5fb-1fb6fe21db2c","system_id":"levelo_inurba_marseille","lat":43.30605,"lon":5.37221,"is_reserved":false,"is_disabled":false,"rental_uris":{"android":"levelo://app?vid=5d9d0336-c118-4784-b5fb-1fb6fe21db2c","ios":"levelo://app?vid=5d9d0336-c118-4784-b5fb-1fb6fe21db2c"},"vehicle_type_id":"4","last_reported":1729656719,"current_range_meters":34800,"station_id":"ce4bgqh2rcd13ifvqc4g","pricing_plan_id":"cebpf4jnsgd1na2vs0mg"},{"bike_id":"a4757616-c902-495a-993c-e6522db7f0c2","system_id":"levelo_inurba_marseille","lat":43.26558,"lon":5.37284,"is_reserved":false,"is_disabled":false,"rental_uris":{"android":"levelo://app?vid=a4757616-c902-495a-993c-e6522db7f0c2","ios":"levelo://app?vid=a4757616-c902-495a-993c-e6522db7f0c2"},"vehicle_type_id":"4","last_reported":1729656719,"current_range_meters":30800,"station_id":"ce4bhg12rcd13ifvqf70","pricing_plan_id":"cebpf4jnsgd1na2vs0mg"},{"bike_id":"57094be6-93e8-42b3-adda-7d0acb3d1a22","system_id":"levelo_inurba_marseille","lat":43.28407,"lon":5.37514,"is_reserved":false,"is_disabled":false,"rental_uris":{"android":"levelo://app?vid=57094be6-93e8-42b3-adda-7d0acb3d1a22","ios":"levelo://app?vid=57094be6-93e8-42b3-adda-7d0acb3d1a22"},"vehicle_type_id":"4","last_reported":1729656719,"current_range_meters":38800,"station_id":"ce4bh412rcd13ifvqds0","pricing_plan_id":"cebpf4jnsgd1na2vs0mg"},{"bike_id":"38486ab0-efb0-4b05-bf58-d9ae2deab94d","system_id":"levelo_inurba_marseille","lat":43.25583,"lon":5.38238,"is_reserved":false,"is_disabled":false,"rental_uris":{"android":"levelo://app?vid=38486ab0-efb0-4b05-bf58-d9ae2deab94d","ios":"levelo://app?vid=38486ab0-efb0-4b05-bf58-d9ae2deab94d"},"vehicle_type_id":"4","last_reported":1729656719,"current_range_meters":39200,"station_id":"ce4bhih2rcd13ifvqfs0","pricing_plan_id":"cebpf4jnsgd1na2vs0mg"},{"bike_id":"96b2036a-e15e-4a55-9f16-23bee8f3ced7","system_id":"levelo_inurba_marseille","lat":43.30549,"lon":5.36718,"is_reserved":false,"is_disabled":false,"rental_uris":{"android":"levelo://app?vid=96b2036a-e15e-4a55-9f16-23bee8f3ced7","ios":"levelo://app?vid=96b2036a-e15e-4a55-9f16-23bee8f3ced7"},"vehicle_type_id":"4","last_reported":1729656719,"current_range_meters":3200,"station_id":"ce4bgrp2rcd13ifvqc9g","pricing_plan_id":"cebpf4jnsgd1na2vs0mg"},{"bike_id":"89728f51-7b51-4f13-acea-3ab0d67e58d7","system_id":"levelo_inurba_marseille","lat":43.28572,"lon":5.395,"is_reserved":false,"is_disabled":false,"rental_uris":{"android":"levelo://app?vid=89728f51-7b51-4f13-acea-3ab0d67e58d7","ios":"levelo://app?vid=89728f51-7b51-4f13-acea-3ab0d67e58d7"},"vehicle_type_id":"4","last_reported":1729656719,"current_range_meters":13600,"station_id":"ce4bh292rcd13ifvqdg0","pricing_plan_id":"cebpf4jnsgd1na2vs0mg"},{"bike_id":"94ee5323-408b-46f1-902d-2172d73d223d","system_id":"levelo_inurba_marseille","lat":43.26782,"lon":5.39413,"is_reserved":false,"is_disabled":false,"rental_uris":{"android":"levelo://app?vid=94ee5323-408b-46f1-902d-2172d73d223d","ios":"levelo://app?vid=94ee5323-408b-46f1-902d-2172d73d223d"},"vehicle_type_id":"4","last_reported":1729656719,"current_range_meters":37600,"station_id":"ce4bhh12rcd13ifvqfg0","pricing_plan_id":"cebpf4jnsgd1na2vs0mg"},{"bike_id":"20e7c36a-90bd-4572-8543-6491ffe2f43e","system_id":"levelo_inurba_marseille","lat":43.24087,"lon":5.37747,"is_reserved":false,"is_disabled":false,"rental_uris":{"android":"levelo://app?vid=20e7c36a-90bd-4572-8543-6491ffe2f43e","ios":"levelo://app?vid=20e7c36a-90bd-4572-8543-6491ffe2f43e"},"vehicle_type_id":"4","last_reported":1729656719,"current_range_meters":37600,"station_id":"ce4bhnp2rcd13ifvqgvg","pricing_plan_id":"cebpf4jnsgd1na2vs0mg"},{"bike_id":"9b87b773-e061-40be-b290-ce236cd5d49c","system_id":"levelo_inurba_marseille","lat":43.28405,"lon":5.37519,"is_reserved":false,"is_disabled":false,"rental_uris":{"android":"levelo://app?vid=9b87b773-e061-40be-b290-ce236cd5d49c","ios":"levelo://app?vid=9b87b773-e061-40be-b290-ce236cd5d49c"},"vehicle_type_id":"4","last_reported":1729656719,"current_range_meters":39200,"station_id":"ce4bh412rcd13ifvqds0","pricing_plan_id":"cebpf4jnsgd1na2vs0mg"},{"bike_id":"4a240f2c-362f-4573-a545-b783c72df925","system_id":"levelo_inurba_marseille","lat":43.26951,"lon":5.38634,"is_reserved":false,"is_disabled":false,"rental_uris":{"android":"levelo://app?vid=4a240f2c-362f-4573-a545-b783c72df925","ios":"levelo://app?vid=4a240f2c-362f-4573-a545-b783c72df925"},"vehicle_type_id":"4","last_reported":1729656719,"current_range_meters":30400,"station_id":"ce4bhh92rcd13ifvqfh0","pricing_plan_id":"cebpf4jnsgd1na2vs0mg"},{"bike_id":"09f43649-59af-4bd3-b982-5fe0c64b82fe","system_id":"levelo_inurba_marseille","lat":43.23181,"lon":5.39987,"is_reserved":false,"is_disabled":false,"rental_uris":{"android":"levelo://app?vid=09f43649-59af-4bd3-b982-5fe0c64b82fe","ios":"levelo://app?vid=09f43649-59af-4bd3-b982-5fe0c64b82fe"},"vehicle_type_id":"4","last_reported":1729656719,"current_range_meters":38800,"station_id":"ce4bhn12rcd13ifvqgqg","pricing_plan_id":"cebpf4jnsgd1na2vs0mg"},{"bike_id":"f4f4cedb-ee30-4d0e-addd-0835963f6da5","system_id":"levelo_inurba_marseille","lat":43.2948,"lon":5.44396,"is_reserved":false,"is_disabled":false,"rental_uris":{"android":"levelo://app?vid=f4f4cedb-ee30-4d0e-addd-0835963f6da5","ios":"levelo://app?vid=f4f4cedb-ee30-4d0e-addd-0835963f6da5"},"vehicle_type_id":"4","last_reported":1729656719,"current_range_meters":3600,"station_id":"","pricing_plan_id":"cebpf4jnsgd1na2vs0mg"},{"bike_id":"ec5b3ce7-15ab-4985-98f5-e42469ac7b7c","system_id":"levelo_inurba_marseille","lat":43.278262,"lon":5.392051,"is_reserved":false,"is_disabled":false,"rental_uris":{"android":"levelo://app?vid=ec5b3ce7-15ab-4985-98f5-e42469ac7b7c","ios":"levelo://app?vid=ec5b3ce7-15ab-4985-98f5-e42469ac7b7c"},"vehicle_type_id":"4","last_reported":1729656719,"current_range_meters":17200,"station_id":"ce4bhjp2rcd13ifvqga0","pricing_plan_id":"cebpf4jnsgd1na2vs0mg"},{"bike_id":"1e139366-703f-4668-bcf8-167aa5dae43a","system_id":"levelo_inurba_marseille","lat":43.287013,"lon":5.399735,"is_reserved":false,"is_disabled":false,"rental_uris":{"android":"levelo://app?vid=1e139366-703f-4668-bcf8-167aa5dae43a","ios":"levelo://app?vid=1e139366-703f-4668-bcf8-167aa5dae43a"},"vehicle_type_id":"4","last_reported":1729656719,"current_range_meters":30800,"station_id":"ce4bho92rcd13ifvqh3g","pricing_plan_id":"cebpf4jnsgd1na2vs0mg"},{"bike_id":"bc74935d-1660-44e5-bf16-e520e3b64275","system_id":"levelo_inurba_marseille","lat":43.292053,"lon":5.368915,"is_reserved":false,"is_disabled":false,"rental_uris":{"android":"levelo://app?vid=bc74935d-1660-44e5-bf16-e520e3b64275","ios":"levelo://app?vid=bc74935d-1660-44e5-bf16-e520e3b64275"},"vehicle_type_id":"4","last_reported":1729656719,"current_range_meters":14000,"station_id":"","pricing_plan_id":"cebpf4jnsgd1na2vs0mg"},{"bike_id":"744a3036-377a-4be3-af71-6f5c833e31f2","system_id":"levelo_inurba_marseille","lat":43.30638,"lon":5.40079,"is_reserved":false,"is_disabled":false,"rental_uris":{"android":"levelo://app?vid=744a3036-377a-4be3-af71-6f5c833e31f2","ios":"levelo://app?vid=744a3036-377a-4be3-af71-6f5c833e31f2"},"vehicle_type_id":"4","last_reported":1729656719,"current_range_meters":39200,"station_id":"ce4bh112rcd13ifvqda0","pricing_plan_id":"cebpf4jnsgd1na2vs0mg"},{"bike_id":"48976f99-a149-4381-b2cd-ff558b03e56b","system_id":"levelo_inurba_marseille","lat":43.32749,"lon":5.42393,"is_reserved":false,"is_disabled":false,"rental_uris":{"android":"levelo://app?vid=48976f99-a149-4381-b2cd-ff558b03e56b","ios":"levelo://app?vid=48976f99-a149-4381-b2cd-ff558b03e56b"},"vehicle_type_id":"4","last_reported":1729656719,"current_range_meters":31200,"station_id":"ce4bgv92rcd13ifvqcr0","pricing_plan_id":"cebpf4jnsgd1na2vs0mg"},{"bike_id":"142d9185-ecb9-4cfe-8417-2c2b8b8cff4f","system_id":"levelo_inurba_marseille","lat":43.26489,"lon":5.39551,"is_reserved":false,"is_disabled":false,"rental_uris":{"android":"levelo://app?vid=142d9185-ecb9-4cfe-8417-2c2b8b8cff4f","ios":"levelo://app?vid=142d9185-ecb9-4cfe-8417-2c2b8b8cff4f"},"vehicle_type_id":"4","last_reported":1729656719,"current_range_meters":33200,"station_id":"ce4bhi12rcd13ifvqfq0","pricing_plan_id":"cebpf4jnsgd1na2vs0mg"},{"bike_id":"f7a109c2-5515-4876-a841-90b86554125e","system_id":"levelo_inurba_marseille","lat":43.30888,"lon":5.3719,"is_reserved":false,"is_disabled":false,"rental_uris":{"android":"levelo://app?vid=f7a109c2-5515-4876-a841-90b86554125e","ios":"levelo://app?vid=f7a109c2-5515-4876-a841-90b86554125e"},"vehicle_type_id":"4","last_reported":1729656719,"current_range_meters":32000,"station_id":"ce4bguh2rcd13ifvqckg","pricing_plan_id":"cebpf4jnsgd1na2vs0mg"},{"bike_id":"fe9b4894-26a4-4c73-83b7-51b74834380d","system_id":"levelo_inurba_marseille","lat":43.30144,"lon":5.39866,"is_reserved":false,"is_disabled":false,"rental_uris":{"android":"levelo://app?vid=fe9b4894-26a4-4c73-83b7-51b74834380d","ios":"levelo://app?vid=fe9b4894-26a4-4c73-83b7-51b74834380d"},"vehicle_type_id":"4","last_reported":1729656719,"current_range_meters":37600,"station_id":"ce4bh0h2rcd13ifvqd40","pricing_plan_id":"cebpf4jnsgd1na2vs0mg"},{"bike_id":"1af82bba-b72e-44dc-8b54-ea7463ff1564","system_id":"levelo_inurba_marseille","lat":43.33606,"lon":5.41036,"is_reserved":false,"is_disabled":false,"rental_uris":{"android":"levelo://app?vid=1af82bba-b72e-44dc-8b54-ea7463ff1564","ios":"levelo://app?vid=1af82bba-b72e-44dc-8b54-ea7463ff1564"},"vehicle_type_id":"4","last_reported":1729656719,"current_range_meters":24400,"station_id":"ce4bhqh2rcd13ifvqhmg","pricing_plan_id":"cebpf4jnsgd1na2vs0mg"},{"bike_id":"6d68a6ed-05b5-4b7e-b709-0ce01188716b","system_id":"levelo_inurba_marseille","lat":43.28361,"lon":5.38631,"is_reserved":false,"is_disabled":false,"rental_uris":{"android":"levelo://app?vid=6d68a6ed-05b5-4b7e-b709-0ce01188716b","ios":"levelo://app?vid=6d68a6ed-05b5-4b7e-b709-0ce01188716b"},"vehicle_type_id":"4","last_reported":1729656719,"current_range_meters":38000,"station_id":"ce4bh492rcd13ifvqdvg","pricing_plan_id":"cebpf4jnsgd1na2vs0mg"},{"bike_id":"b8a46660-d0a7-4703-acd3-9cea556d4b68","system_id":"levelo_inurba_marseille","lat":43.30808,"lon":5.38155,"is_reserved":false,"is_disabled":false,"rental_uris":{"android":"levelo://app?vid=b8a46660-d0a7-4703-acd3-9cea556d4b68","ios":"levelo://app?vid=b8a46660-d0a7-4703-acd3-9cea556d4b68"},"vehicle_type_id":"4","last_reported":1729656719,"current_range_meters":39200,"station_id":"ce4bgt12rcd13ifvqce0","pricing_plan_id":"cebpf4jnsgd1na2vs0mg"},{"bike_id":"ff51567e-8a66-45f2-9fe1-12a8225c280d","system_id":"levelo_inurba_marseille","lat":43.30146,"lon":5.38058,"is_reserved":false,"is_disabled":false,"rental_uris":{"android":"levelo://app?vid=ff51567e-8a66-45f2-9fe1-12a8225c280d","ios":"levelo://app?vid=ff51567e-8a66-45f2-9fe1-12a8225c280d"},"vehicle_type_id":"4","last_reported":1729656719,"current_range_meters":25200,"station_id":"ce4bgjp2rcd13ifvqbh0","pricing_plan_id":"cebpf4jnsgd1na2vs0mg"},{"bike_id":"81db9c70-bce4-4764-86a6-8d25b1c25e6d","system_id":"levelo_inurba_marseille","lat":43.24645,"lon":5.38887,"is_reserved":false,"is_disabled":false,"rental_uris":{"android":"levelo://app?vid=81db9c70-bce4-4764-86a6-8d25b1c25e6d","ios":"levelo://app?vid=81db9c70-bce4-4764-86a6-8d25b1c25e6d"},"vehicle_type_id":"4","last_reported":1729656719,"current_range_meters":38400,"station_id":"ce4bhg12rcd13ifvqf60","pricing_plan_id":"cebpf4jnsgd1na2vs0mg"},{"bike_id":"36f29174-278d-4a36-8d64-2c490ae15868","system_id":"levelo_inurba_marseille","lat":43.27495,"lon":5.42453,"is_reserved":false,"is_disabled":false,"rental_uris":{"android":"levelo://app?vid=36f29174-278d-4a36-8d64-2c490ae15868","ios":"levelo://app?vid=36f29174-278d-4a36-8d64-2c490ae15868"},"vehicle_type_id":"4","last_reported":1729656719,"current_range_meters":32000,"station_id":"ce4bhn92rcd13ifvqgrg","pricing_plan_id":"cebpf4jnsgd1na2vs0mg"},{"bike_id":"e5bca669-5932-4b94-91cc-a61e3f5285a3","system_id":"levelo_inurba_marseille","lat":43.28439,"lon":5.391865,"is_reserved":false,"is_disabled":false,"rental_uris":{"android":"levelo://app?vid=e5bca669-5932-4b94-91cc-a61e3f5285a3","ios":"levelo://app?vid=e5bca669-5932-4b94-91cc-a61e3f5285a3"},"vehicle_type_id":"4","last_reported":1729656719,"current_range_meters":10000,"station_id":"ce4bhoh2rcd13ifvqh5g","pricing_plan_id":"cebpf4jnsgd1na2vs0mg"},{"bike_id":"2c8a5d15-87c1-4f9f-a495-a6208a1dd526","system_id":"levelo_inurba_marseille","lat":43.28709,"lon":5.3998,"is_reserved":false,"is_disabled":false,"rental_uris":{"android":"levelo://app?vid=2c8a5d15-87c1-4f9f-a495-a6208a1dd526","ios":"levelo://app?vid=2c8a5d15-87c1-4f9f-a495-a6208a1dd526"},"vehicle_type_id":"4","last_reported":1729656719,"current_range_meters":34800,"station_id":"ce4bho92rcd13ifvqh3g","pricing_plan_id":"cebpf4jnsgd1na2vs0mg"},{"bike_id":"e0f535c1-d741-4576-930f-7d9d344cf416","system_id":"levelo_inurba_marseille","lat":43.27559,"lon":5.38435,"is_reserved":false,"is_disabled":false,"rental_uris":{"android":"levelo://app?vid=e0f535c1-d741-4576-930f-7d9d344cf416","ios":"levelo://app?vid=e0f535c1-d741-4576-930f-7d9d344cf416"},"vehicle_type_id":"4","last_reported":1729656719,"current_range_meters":37600,"station_id":"ce4bhh92rcd13ifvqfi0","pricing_plan_id":"cebpf4jnsgd1na2vs0mg"},{"bike_id":"2f79e225-006c-421c-bea6-976fe78b8358","system_id":"levelo_inurba_marseille","lat":43.28156,"lon":5.42645,"is_reserved":false,"is_disabled":false,"rental_uris":{"android":"levelo://app?vid=2f79e225-006c-421c-bea6-976fe78b8358","ios":"levelo://app?vid=2f79e225-006c-421c-bea6-976fe78b8358"},"vehicle_type_id":"4","last_reported":1729656719,"current_range_meters":38800,"station_id":"ce4bhnh2rcd13ifvqgug","pricing_plan_id":"cebpf4jnsgd1na2vs0mg"},{"bike_id":"58bd31dc-894d-49ad-8ea8-599306c1b2f3","system_id":"levelo_inurba_marseille","lat":43.3117,"lon":5.38721,"is_reserved":false,"is_disabled":false,"rental_uris":{"android":"levelo://app?vid=58bd31dc-894d-49ad-8ea8-599306c1b2f3","ios":"levelo://app?vid=58bd31dc-894d-49ad-8ea8-599306c1b2f3"},"vehicle_type_id":"4","last_reported":1729656719,"current_range_meters":9600,"station_id":"ce4bgv12rcd13ifvqcp0","pricing_plan_id":"cebpf4jnsgd1na2vs0mg"},{"bike_id":"1837b47c-528c-48ec-864b-92c53b949d1e","system_id":"levelo_inurba_marseille","lat":43.26495,"lon":5.39551,"is_reserved":false,"is_disabled":false,"rental_uris":{"android":"levelo://app?vid=1837b47c-528c-48ec-864b-92c53b949d1e","ios":"levelo://app?vid=1837b47c-528c-48ec-864b-92c53b949d1e"},"vehicle_type_id":"4","last_reported":1729656719,"current_range_meters":38400,"station_id":"ce4bhi12rcd13ifvqfq0","pricing_plan_id":"cebpf4jnsgd1na2vs0mg"},{"bike_id":"a43686e3-0069-495e-bb66-f12ba02ee769","system_id":"levelo_inurba_marseille","lat":43.30355,"lon":5.41884,"is_reserved":false,"is_disabled":false,"rental_uris":{"android":"levelo://app?vid=a43686e3-0069-495e-bb66-f12ba02ee769","ios":"levelo://app?vid=a43686e3-0069-495e-bb66-f12ba02ee769"},"vehicle_type_id":"4","last_reported":1729656719,"current_range_meters":38800,"station_id":"ce4bhop2rcd13ifvqh7g","pricing_plan_id":"cebpf4jnsgd1na2vs0mg"},{"bike_id":"bc79c6a9-7639-4dd9-a1c0-719ceb101c5d","system_id":"levelo_inurba_marseille","lat":43.28697,"lon":5.39982,"is_reserved":false,"is_disabled":false,"rental_uris":{"android":"levelo://app?vid=bc79c6a9-7639-4dd9-a1c0-719ceb101c5d","ios":"levelo://app?vid=bc79c6a9-7639-4dd9-a1c0-719ceb101c5d"},"vehicle_type_id":"4","last_reported":1729656719,"current_range_meters":38800,"station_id":"ce4bho92rcd13ifvqh3g","pricing_plan_id":"cebpf4jnsgd1na2vs0mg"},{"bike_id":"28800c41-ced9-4364-ab62-ad7898513ed6","system_id":"levelo_inurba_marseille","lat":43.29024,"lon":5.3865,"is_reserved":false,"is_disabled":false,"rental_uris":{"android":"levelo://app?vid=28800c41-ced9-4364-ab62-ad7898513ed6","ios":"levelo://app?vid=28800c41-ced9-4364-ab62-ad7898513ed6"},"vehicle_type_id":"4","last_reported":1729656719,"current_range_meters":38800,"station_id":"ce4bh4p2rcd13ifvqe0g","pricing_plan_id":"cebpf4jnsgd1na2vs0mg"},{"bike_id":"a6bdef88-770e-4f37-8f5f-221f0cf85086","system_id":"levelo_inurba_marseille","lat":43.315341,"lon":5.380226,"is_reserved":false,"is_disabled":false,"rental_uris":{"android":"levelo://app?vid=a6bdef88-770e-4f37-8f5f-221f0cf85086","ios":"levelo://app?vid=a6bdef88-770e-4f37-8f5f-221f0cf85086"},"vehicle_type_id":"4","last_reported":1729656719,"current_range_meters":30800,"station_id":"ce4bhsp2rcd13ifvqi50","pricing_plan_id":"cebpf4jnsgd1na2vs0mg"},{"bike_id":"f9ff8621-7700-4553-abac-ad15b1938a2c","system_id":"levelo_inurba_marseille","lat":43.31174,"lon":5.38712,"is_reserved":false,"is_disabled":false,"rental_uris":{"android":"levelo://app?vid=f9ff8621-7700-4553-abac-ad15b1938a2c","ios":"levelo://app?vid=f9ff8621-7700-4553-abac-ad15b1938a2c"},"vehicle_type_id":"4","last_reported":1729656719,"current_range_meters":38800,"station_id":"ce4bgv12rcd13ifvqcp0","pricing_plan_id":"cebpf4jnsgd1na2vs0mg"},{"bike_id":"c2ce141d-6e76-44dc-931b-253d09157587","system_id":"levelo_inurba_marseille","lat":43.25002,"lon":5.38933,"is_reserved":false,"is_disabled":false,"rental_uris":{"android":"levelo://app?vid=c2ce141d-6e76-44dc-931b-253d09157587","ios":"levelo://app?vid=c2ce141d-6e76-44dc-931b-253d09157587"},"vehicle_type_id":"4","last_reported":1729656719,"current_range_meters":38800,"station_id":"ce4bhgp2rcd13ifvqfd0","pricing_plan_id":"cebpf4jnsgd1na2vs0mg"},{"bike_id":"11256fd2-b537-43fb-8f2f-2312433c9979","system_id":"levelo_inurba_marseille","lat":43.28105,"lon":5.37842,"is_reserved":false,"is_disabled":false,"rental_uris":{"android":"levelo://app?vid=11256fd2-b537-43fb-8f2f-2312433c9979","ios":"levelo://app?vid=11256fd2-b537-43fb-8f2f-2312433c9979"},"vehicle_type_id":"4","last_reported":1729656719,"current_range_meters":6800,"station_id":"ce4bha12rcd13ifvqee0","pricing_plan_id":"cebpf4jnsgd1na2vs0mg"},{"bike_id":"e4c50509-996c-46d6-92c8-605ffe165f9d","system_id":"levelo_inurba_marseille","lat":43.28461,"lon":5.35882,"is_reserved":false,"is_disabled":false,"rental_uris":{"android":"levelo://app?vid=e4c50509-996c-46d6-92c8-605ffe165f9d","ios":"levelo://app?vid=e4c50509-996c-46d6-92c8-605ffe165f9d"},"vehicle_type_id":"4","last_reported":1729656719,"current_range_meters":26000,"station_id":"ce4bhah2rcd13ifvqei0","pricing_plan_id":"cebpf4jnsgd1na2vs0mg"},{"bike_id":"408223fe-0604-4879-9b68-36acb12c66f7","system_id":"levelo_inurba_marseille","lat":43.28404,"lon":5.37512,"is_reserved":false,"is_disabled":false,"rental_uris":{"android":"levelo://app?vid=408223fe-0604-4879-9b68-36acb12c66f7","ios":"levelo://app?vid=408223fe-0604-4879-9b68-36acb12c66f7"},"vehicle_type_id":"4","last_reported":1729656719,"current_range_meters":38400,"station_id":"ce4bh412rcd13ifvqds0","pricing_plan_id":"cebpf4jnsgd1na2vs0mg"},{"bike_id":"59db3632-a21f-411c-9dc9-da014a036310","system_id":"levelo_inurba_marseille","lat":43.2873,"lon":5.36084,"is_reserved":false,"is_disabled":false,"rental_uris":{"android":"levelo://app?vid=59db3632-a21f-411c-9dc9-da014a036310","ios":"levelo://app?vid=59db3632-a21f-411c-9dc9-da014a036310"},"vehicle_type_id":"4","last_reported":1729656719,"current_range_meters":38800,"station_id":"cki0cbj6b192h4jlfktg","pricing_plan_id":"cebpf4jnsgd1na2vs0mg"},{"bike_id":"8cc9b489-a2de-4b20-aa93-f1879e7ab37b","system_id":"levelo_inurba_marseille","lat":43.306408,"lon":5.40075,"is_reserved":false,"is_disabled":false,"rental_uris":{"android":"levelo://app?vid=8cc9b489-a2de-4b20-aa93-f1879e7ab37b","ios":"levelo://app?vid=8cc9b489-a2de-4b20-aa93-f1879e7ab37b"},"vehicle_type_id":"4","last_reported":1729656719,"current_range_meters":36400,"station_id":"ce4bh112rcd13ifvqda0","pricing_plan_id":"cebpf4jnsgd1na2vs0mg"},{"bike_id":"843cada3-4e22-4cf8-a37c-666cd586c7d4","system_id":"levelo_inurba_marseille","lat":43.28661,"lon":5.36357,"is_reserved":false,"is_disabled":false,"rental_uris":{"android":"levelo://app?vid=843cada3-4e22-4cf8-a37c-666cd586c7d4","ios":"levelo://app?vid=843cada3-4e22-4cf8-a37c-666cd586c7d4"},"vehicle_type_id":"4","last_reported":1729656719,"current_range_meters":38800,"station_id":"ce4bhah2rcd13ifvqej0","pricing_plan_id":"cebpf4jnsgd1na2vs0mg"},{"bike_id":"758c8815-d6d1-4eb0-87f2-4abe41c5d6cf","system_id":"levelo_inurba_marseille","lat":43.29555,"lon":5.42282,"is_reserved":false,"is_disabled":false,"rental_uris":{"android":"levelo://app?vid=758c8815-d6d1-4eb0-87f2-4abe41c5d6cf","ios":"levelo://app?vid=758c8815-d6d1-4eb0-87f2-4abe41c5d6cf"},"vehicle_type_id":"4","last_reported":1729656719,"current_range_meters":26000,"station_id":"ce4bhph2rcd13ifvqhdg","pricing_plan_id":"cebpf4jnsgd1na2vs0mg"},{"bike_id":"69baeb1d-9ab1-42bd-974a-175680bd96e0","system_id":"levelo_inurba_marseille","lat":43.28655,"lon":5.36358,"is_reserved":false,"is_disabled":false,"rental_uris":{"android":"levelo://app?vid=69baeb1d-9ab1-42bd-974a-175680bd96e0","ios":"levelo://app?vid=69baeb1d-9ab1-42bd-974a-175680bd96e0"},"vehicle_type_id":"4","last_reported":1729656719,"current_range_meters":38800,"station_id":"ce4bhah2rcd13ifvqej0","pricing_plan_id":"cebpf4jnsgd1na2vs0mg"},{"bike_id":"864575c1-85b8-4008-92ba-391073d4ed51","system_id":"levelo_inurba_marseille","lat":43.23194,"lon":5.35545,"is_reserved":false,"is_disabled":false,"rental_uris":{"android":"levelo://app?vid=864575c1-85b8-4008-92ba-391073d4ed51","ios":"levelo://app?vid=864575c1-85b8-4008-92ba-391073d4ed51"},"vehicle_type_id":"4","last_reported":1729656719,"current_range_meters":20000,"station_id":"ce4bhu92rcd13ifvqi70","pricing_plan_id":"cebpf4jnsgd1na2vs0mg"},{"bike_id":"e7e57fa0-7714-4dcc-b64c-519c26d856a0","system_id":"levelo_inurba_marseille","lat":43.30644,"lon":5.40095,"is_reserved":false,"is_disabled":false,"rental_uris":{"android":"levelo://app?vid=e7e57fa0-7714-4dcc-b64c-519c26d856a0","ios":"levelo://app?vid=e7e57fa0-7714-4dcc-b64c-519c26d856a0"},"vehicle_type_id":"4","last_reported":1729656719,"current_range_meters":37600,"station_id":"ce4bh112rcd13ifvqda0","pricing_plan_id":"cebpf4jnsgd1na2vs0mg"},{"bike_id":"5cff7aa1-e216-42ff-a1e8-75ef4496329b","system_id":"levelo_inurba_marseille","lat":43.29013,"lon":5.35616,"is_reserved":false,"is_disabled":false,"rental_uris":{"android":"levelo://app?vid=5cff7aa1-e216-42ff-a1e8-75ef4496329b","ios":"levelo://app?vid=5cff7aa1-e216-42ff-a1e8-75ef4496329b"},"vehicle_type_id":"4","last_reported":1729656719,"current_range_meters":37600,"station_id":"ce4bhb92rcd13ifvqen0","pricing_plan_id":"cebpf4jnsgd1na2vs0mg"},{"bike_id":"41f75c63-5a1e-4adb-bcc3-29aa8accf432","system_id":"levelo_inurba_marseille","lat":43.27495,"lon":5.42451,"is_reserved":false,"is_disabled":false,"rental_uris":{"android":"levelo://app?vid=41f75c63-5a1e-4adb-bcc3-29aa8accf432","ios":"levelo://app?vid=41f75c63-5a1e-4adb-bcc3-29aa8accf432"},"vehicle_type_id":"4","last_reported":1729656719,"current_range_meters":34000,"station_id":"ce4bhn92rcd13ifvqgrg","pricing_plan_id":"cebpf4jnsgd1na2vs0mg"},{"bike_id":"2b6b36f0-918c-4869-bfa8-cd3d9c833656","system_id":"levelo_inurba_marseille","lat":43.24624,"lon":5.41948,"is_reserved":false,"is_disabled":false,"rental_uris":{"android":"levelo://app?vid=2b6b36f0-918c-4869-bfa8-cd3d9c833656","ios":"levelo://app?vid=2b6b36f0-918c-4869-bfa8-cd3d9c833656"},"vehicle_type_id":"4","last_reported":1729656719,"current_range_meters":31200,"station_id":"","pricing_plan_id":"cebpf4jnsgd1na2vs0mg"},{"bike_id":"f50406a4-c43e-4a8e-8d40-d2fe94382454","system_id":"levelo_inurba_marseille","lat":43.27995,"lon":5.40021,"is_reserved":false,"is_disabled":false,"rental_uris":{"android":"levelo://app?vid=f50406a4-c43e-4a8e-8d40-d2fe94382454","ios":"levelo://app?vid=f50406a4-c43e-4a8e-8d40-d2fe94382454"},"vehicle_type_id":"4","last_reported":1729656719,"current_range_meters":38800,"station_id":"ce4bho92rcd13ifvqh4g","pricing_plan_id":"cebpf4jnsgd1na2vs0mg"},{"bike_id":"3937e98d-a3f8-44f0-ac1e-7c6ef6358591","system_id":"levelo_inurba_marseille","lat":43.29251,"lon":5.40918,"is_reserved":false,"is_disabled":false,"rental_uris":{"android":"levelo://app?vid=3937e98d-a3f8-44f0-ac1e-7c6ef6358591","ios":"levelo://app?vid=3937e98d-a3f8-44f0-ac1e-7c6ef6358591"},"vehicle_type_id":"4","last_reported":1729656719,"current_range_meters":38800,"station_id":"ce4bh192rcd13ifvqdc0","pricing_plan_id":"cebpf4jnsgd1na2vs0mg"},{"bike_id":"5b58dcfb-5507-4a17-8cb8-8f66d7e06861","system_id":"levelo_inurba_marseille","lat":43.231846,"lon":5.39985,"is_reserved":false,"is_disabled":false,"rental_uris":{"android":"levelo://app?vid=5b58dcfb-5507-4a17-8cb8-8f66d7e06861","ios":"levelo://app?vid=5b58dcfb-5507-4a17-8cb8-8f66d7e06861"},"vehicle_type_id":"4","last_reported":1729656719,"current_range_meters":39200,"station_id":"ce4bhn12rcd13ifvqgqg","pricing_plan_id":"cebpf4jnsgd1na2vs0mg"},{"bike_id":"44e60a5f-30f6-4e2e-b454-0fb16fcb08fa","system_id":"levelo_inurba_marseille","lat":43.24074,"lon":5.37766,"is_reserved":false,"is_disabled":false,"rental_uris":{"android":"levelo://app?vid=44e60a5f-30f6-4e2e-b454-0fb16fcb08fa","ios":"levelo://app?vid=44e60a5f-30f6-4e2e-b454-0fb16fcb08fa"},"vehicle_type_id":"4","last_reported":1729656719,"current_range_meters":38800,"station_id":"ce4bhnp2rcd13ifvqgvg","pricing_plan_id":"cebpf4jnsgd1na2vs0mg"},{"bike_id":"b18fa4b6-f955-4010-adf6-58434c900536","system_id":"levelo_inurba_marseille","lat":43.31772,"lon":5.39009,"is_reserved":false,"is_disabled":false,"rental_uris":{"android":"levelo://app?vid=b18fa4b6-f955-4010-adf6-58434c900536","ios":"levelo://app?vid=b18fa4b6-f955-4010-adf6-58434c900536"},"vehicle_type_id":"4","last_reported":1729656719,"current_range_meters":24000,"station_id":"ce4bhqp2rcd13ifvqhng","pricing_plan_id":"cebpf4jnsgd1na2vs0mg"},{"bike_id":"b8e95859-8e18-4ff1-81a5-31750270a5ac","system_id":"levelo_inurba_marseille","lat":43.26209,"lon":5.37438,"is_reserved":false,"is_disabled":false,"rental_uris":{"android":"levelo://app?vid=b8e95859-8e18-4ff1-81a5-31750270a5ac","ios":"levelo://app?vid=b8e95859-8e18-4ff1-81a5-31750270a5ac"},"vehicle_type_id":"4","last_reported":1729656719,"current_range_meters":38800,"station_id":"ce4bhgp2rcd13ifvqfc0","pricing_plan_id":"cebpf4jnsgd1na2vs0mg"},{"bike_id":"2f850f50-ea4b-440e-a098-999c076e4a6f","system_id":"levelo_inurba_marseille","lat":43.30538,"lon":5.36551,"is_reserved":false,"is_disabled":false,"rental_uris":{"android":"levelo://app?vid=2f850f50-ea4b-440e-a098-999c076e4a6f","ios":"levelo://app?vid=2f850f50-ea4b-440e-a098-999c076e4a6f"},"vehicle_type_id":"4","last_reported":1729656719,"current_range_meters":38000,"station_id":"ce4bgs12rcd13ifvqcag","pricing_plan_id":"cebpf4jnsgd1na2vs0mg"},{"bike_id":"61e926f2-d1b9-41a3-9d2d-940a1d1b9897","system_id":"levelo_inurba_marseille","lat":43.28473,"lon":5.38559,"is_reserved":false,"is_disabled":false,"rental_uris":{"android":"levelo://app?vid=61e926f2-d1b9-41a3-9d2d-940a1d1b9897","ios":"levelo://app?vid=61e926f2-d1b9-41a3-9d2d-940a1d1b9897"},"vehicle_type_id":"4","last_reported":1729656719,"current_range_meters":19200,"station_id":"ce4bh8p2rcd13ifvqeb0","pricing_plan_id":"cebpf4jnsgd1na2vs0mg"},{"bike_id":"3fe96bb3-d27a-492d-825f-9bc77dafe8c4","system_id":"levelo_inurba_marseille","lat":43.280714,"lon":5.396464,"is_reserved":false,"is_disabled":false,"rental_uris":{"android":"levelo://app?vid=3fe96bb3-d27a-492d-825f-9bc77dafe8c4","ios":"levelo://app?vid=3fe96bb3-d27a-492d-825f-9bc77dafe8c4"},"vehicle_type_id":"4","last_reported":1729656719,"current_range_meters":29600,"station_id":"ce4bho12rcd13ifvqh2g","pricing_plan_id":"cebpf4jnsgd1na2vs0mg"},{"bike_id":"e64f917e-39a9-4324-8dd2-09ac776b9a36","system_id":"levelo_inurba_marseille","lat":43.27831,"lon":5.39214,"is_reserved":false,"is_disabled":false,"rental_uris":{"android":"levelo://app?vid=e64f917e-39a9-4324-8dd2-09ac776b9a36","ios":"levelo://app?vid=e64f917e-39a9-4324-8dd2-09ac776b9a36"},"vehicle_type_id":"4","last_reported":1729656719,"current_range_meters":34800,"station_id":"ce4bhjp2rcd13ifvqga0","pricing_plan_id":"cebpf4jnsgd1na2vs0mg"},{"bike_id":"4211a73c-1486-408f-80fe-8eb55e0e5fcf","system_id":"levelo_inurba_marseille","lat":43.28461,"lon":5.35901,"is_reserved":false,"is_disabled":false,"rental_uris":{"android":"levelo://app?vid=4211a73c-1486-408f-80fe-8eb55e0e5fcf","ios":"levelo://app?vid=4211a73c-1486-408f-80fe-8eb55e0e5fcf"},"vehicle_type_id":"4","last_reported":1729656719,"current_range_meters":38800,"station_id":"ce4bhah2rcd13ifvqei0","pricing_plan_id":"cebpf4jnsgd1na2vs0mg"},{"bike_id":"56272e14-bc8e-42a4-8def-aa6a5f12bbfa","system_id":"levelo_inurba_marseille","lat":43.29032,"lon":5.38139,"is_reserved":false,"is_disabled":false,"rental_uris":{"android":"levelo://app?vid=56272e14-bc8e-42a4-8def-aa6a5f12bbfa","ios":"levelo://app?vid=56272e14-bc8e-42a4-8def-aa6a5f12bbfa"},"vehicle_type_id":"4","last_reported":1729656719,"current_range_meters":38800,"station_id":"ce4bh4p2rcd13ifvqe1g","pricing_plan_id":"cebpf4jnsgd1na2vs0mg"},{"bike_id":"093f9fee-471e-49be-aaa6-c0a2b61bfd79","system_id":"levelo_inurba_marseille","lat":43.29717,"lon":5.36619,"is_reserved":false,"is_disabled":false,"rental_uris":{"android":"levelo://app?vid=093f9fee-471e-49be-aaa6-c0a2b61bfd79","ios":"levelo://app?vid=093f9fee-471e-49be-aaa6-c0a2b61bfd79"},"vehicle_type_id":"4","last_reported":1729656719,"current_range_meters":39200,"station_id":"ce4bgn12rcd13ifvqbt0","pricing_plan_id":"cebpf4jnsgd1na2vs0mg"},{"bike_id":"303e4402-c78b-4934-b704-884416136125","system_id":"levelo_inurba_marseille","lat":43.27372,"lon":5.36252,"is_reserved":false,"is_disabled":false,"rental_uris":{"android":"levelo://app?vid=303e4402-c78b-4934-b704-884416136125","ios":"levelo://app?vid=303e4402-c78b-4934-b704-884416136125"},"vehicle_type_id":"4","last_reported":1729656719,"current_range_meters":38800,"station_id":"ce4bhbh2rcd13ifvqeo0","pricing_plan_id":"cebpf4jnsgd1na2vs0mg"},{"bike_id":"79a1e020-318b-42a1-a8c0-a424b1daf69e","system_id":"levelo_inurba_marseille","lat":43.296,"lon":5.36142,"is_reserved":false,"is_disabled":false,"rental_uris":{"android":"levelo://app?vid=79a1e020-318b-42a1-a8c0-a424b1daf69e","ios":"levelo://app?vid=79a1e020-318b-42a1-a8c0-a424b1daf69e"},"vehicle_type_id":"4","last_reported":1729656719,"current_range_meters":3200,"station_id":"","pricing_plan_id":"cebpf4jnsgd1na2vs0mg"},{"bike_id":"135cebe9-ffee-4a96-8e19-ff8188d72ddd","system_id":"levelo_inurba_marseille","lat":43.24392,"lon":5.37059,"is_reserved":false,"is_disabled":false,"rental_uris":{"android":"levelo://app?vid=135cebe9-ffee-4a96-8e19-ff8188d72ddd","ios":"levelo://app?vid=135cebe9-ffee-4a96-8e19-ff8188d72ddd"},"vehicle_type_id":"4","last_reported":1729656719,"current_range_meters":38400,"station_id":"ce4bhhh2rcd13ifvqfk0","pricing_plan_id":"cebpf4jnsgd1na2vs0mg"},{"bike_id":"3fc0c2c4-dfb9-4675-9070-4840ea6aa57a","system_id":"levelo_inurba_marseille","lat":43.30775,"lon":5.37651,"is_reserved":false,"is_disabled":false,"rental_uris":{"android":"levelo://app?vid=3fc0c2c4-dfb9-4675-9070-4840ea6aa57a","ios":"levelo://app?vid=3fc0c2c4-dfb9-4675-9070-4840ea6aa57a"},"vehicle_type_id":"4","last_reported":1729656719,"current_range_meters":36800,"station_id":"ce4bgv92rcd13ifvqcq0","pricing_plan_id":"cebpf4jnsgd1na2vs0mg"},{"bike_id":"c8ceb32e-8b96-4816-90b0-73641ae5ef9c","system_id":"levelo_inurba_marseille","lat":43.29005,"lon":5.3562,"is_reserved":false,"is_disabled":false,"rental_uris":{"android":"levelo://app?vid=c8ceb32e-8b96-4816-90b0-73641ae5ef9c","ios":"levelo://app?vid=c8ceb32e-8b96-4816-90b0-73641ae5ef9c"},"vehicle_type_id":"4","last_reported":1729656719,"current_range_meters":38800,"station_id":"ce4bhb92rcd13ifvqen0","pricing_plan_id":"cebpf4jnsgd1na2vs0mg"},{"bike_id":"886e5468-77e3-44e0-b46f-e5786a0eddac","system_id":"levelo_inurba_marseille","lat":43.26213,"lon":5.37442,"is_reserved":false,"is_disabled":false,"rental_uris":{"android":"levelo://app?vid=886e5468-77e3-44e0-b46f-e5786a0eddac","ios":"levelo://app?vid=886e5468-77e3-44e0-b46f-e5786a0eddac"},"vehicle_type_id":"4","last_reported":1729656719,"current_range_meters":38800,"station_id":"ce4bhgp2rcd13ifvqfc0","pricing_plan_id":"cebpf4jnsgd1na2vs0mg"},{"bike_id":"a0174f08-8e79-4e73-8c54-0e7266d91858","system_id":"levelo_inurba_marseille","lat":43.31071,"lon":5.38354,"is_reserved":false,"is_disabled":false,"rental_uris":{"android":"levelo://app?vid=a0174f08-8e79-4e73-8c54-0e7266d91858","ios":"levelo://app?vid=a0174f08-8e79-4e73-8c54-0e7266d91858"},"vehicle_type_id":"4","last_reported":1729656719,"current_range_meters":8000,"station_id":"ce4bgv92rcd13ifvqcr0","pricing_plan_id":"cebpf4jnsgd1na2vs0mg"},{"bike_id":"e20eacab-28c4-4862-9c97-caa408edf48c","system_id":"levelo_inurba_marseille","lat":43.23191,"lon":5.39983,"is_reserved":false,"is_disabled":false,"rental_uris":{"android":"levelo://app?vid=e20eacab-28c4-4862-9c97-caa408edf48c","ios":"levelo://app?vid=e20eacab-28c4-4862-9c97-caa408edf48c"},"vehicle_type_id":"4","last_reported":1729656719,"current_range_meters":24800,"station_id":"ce4bhn12rcd13ifvqgqg","pricing_plan_id":"cebpf4jnsgd1na2vs0mg"},{"bike_id":"497cb450-7cdb-4472-9449-30928d2adcaa","system_id":"levelo_inurba_marseille","lat":43.30781,"lon":5.37654,"is_reserved":false,"is_disabled":false,"rental_uris":{"android":"levelo://app?vid=497cb450-7cdb-4472-9449-30928d2adcaa","ios":"levelo://app?vid=497cb450-7cdb-4472-9449-30928d2adcaa"},"vehicle_type_id":"4","last_reported":1729656719,"current_range_meters":28800,"station_id":"ce4bgv92rcd13ifvqcq0","pricing_plan_id":"cebpf4jnsgd1na2vs0mg"},{"bike_id":"26dd2d29-ae2b-42db-8ac6-529a5fde5f78","system_id":"levelo_inurba_marseille","lat":43.306,"lon":5.37215,"is_reserved":false,"is_disabled":false,"rental_uris":{"android":"levelo://app?vid=26dd2d29-ae2b-42db-8ac6-529a5fde5f78","ios":"levelo://app?vid=26dd2d29-ae2b-42db-8ac6-529a5fde5f78"},"vehicle_type_id":"4","last_reported":1729656719,"current_range_meters":35200,"station_id":"ce4bgqh2rcd13ifvqc4g","pricing_plan_id":"cebpf4jnsgd1na2vs0mg"},{"bike_id":"1cb83924-fa4e-469e-a9f1-5e7168b2f7d6","system_id":"levelo_inurba_marseille","lat":43.23193,"lon":5.35545,"is_reserved":false,"is_disabled":false,"rental_uris":{"android":"levelo://app?vid=1cb83924-fa4e-469e-a9f1-5e7168b2f7d6","ios":"levelo://app?vid=1cb83924-fa4e-469e-a9f1-5e7168b2f7d6"},"vehicle_type_id":"4","last_reported":1729656719,"current_range_meters":6000,"station_id":"ce4bhu92rcd13ifvqi70","pricing_plan_id":"cebpf4jnsgd1na2vs0mg"},{"bike_id":"d9118632-c9a0-41b3-ad39-341e2e25d6e7","system_id":"levelo_inurba_marseille","lat":43.30241,"lon":5.4007,"is_reserved":false,"is_disabled":false,"rental_uris":{"android":"levelo://app?vid=d9118632-c9a0-41b3-ad39-341e2e25d6e7","ios":"levelo://app?vid=d9118632-c9a0-41b3-ad39-341e2e25d6e7"},"vehicle_type_id":"4","last_reported":1729656719,"current_range_meters":33200,"station_id":"ce4bgvh2rcd13ifvqcs0","pricing_plan_id":"cebpf4jnsgd1na2vs0mg"},{"bike_id":"14cfd534-16e4-42fd-9ce8-3a01bdefbe4c","system_id":"levelo_inurba_marseille","lat":43.30635,"lon":5.40085,"is_reserved":false,"is_disabled":false,"rental_uris":{"android":"levelo://app?vid=14cfd534-16e4-42fd-9ce8-3a01bdefbe4c","ios":"levelo://app?vid=14cfd534-16e4-42fd-9ce8-3a01bdefbe4c"},"vehicle_type_id":"4","last_reported":1729656719,"current_range_meters":31200,"station_id":"ce4bh112rcd13ifvqda0","pricing_plan_id":"cebpf4jnsgd1na2vs0mg"},{"bike_id":"c1cc743b-71fb-49ef-b849-6b508af8e1b3","system_id":"levelo_inurba_marseille","lat":43.29571,"lon":5.399837,"is_reserved":false,"is_disabled":false,"rental_uris":{"android":"levelo://app?vid=c1cc743b-71fb-49ef-b849-6b508af8e1b3","ios":"levelo://app?vid=c1cc743b-71fb-49ef-b849-6b508af8e1b3"},"vehicle_type_id":"4","last_reported":1729656719,"current_range_meters":38800,"station_id":"ce4bh312rcd13ifvqdj0","pricing_plan_id":"cebpf4jnsgd1na2vs0mg"},{"bike_id":"24422d45-7a1b-4c1d-a839-96bb4e231956","system_id":"levelo_inurba_marseille","lat":43.308817,"lon":5.396486,"is_reserved":false,"is_disabled":false,"rental_uris":{"android":"levelo://app?vid=24422d45-7a1b-4c1d-a839-96bb4e231956","ios":"levelo://app?vid=24422d45-7a1b-4c1d-a839-96bb4e231956"},"vehicle_type_id":"4","last_reported":1729656719,"current_range_meters":22800,"station_id":"ce4bh012rcd13ifvqcv0","pricing_plan_id":"cebpf4jnsgd1na2vs0mg"},{"bike_id":"96cd95b9-9c73-40f2-923c-e2202384412e","system_id":"levelo_inurba_marseille","lat":43.29033,"lon":5.39973,"is_reserved":false,"is_disabled":false,"rental_uris":{"android":"levelo://app?vid=96cd95b9-9c73-40f2-923c-e2202384412e","ios":"levelo://app?vid=96cd95b9-9c73-40f2-923c-e2202384412e"},"vehicle_type_id":"4","last_reported":1729656719,"current_range_meters":38800,"station_id":"ce4bh392rcd13ifvqdm0","pricing_plan_id":"cebpf4jnsgd1na2vs0mg"},{"bike_id":"54fe60dd-2a40-4a45-b210-2a0973cbe7cb","system_id":"levelo_inurba_marseille","lat":43.26565,"lon":5.39008,"is_reserved":false,"is_disabled":false,"rental_uris":{"android":"levelo://app?vid=54fe60dd-2a40-4a45-b210-2a0973cbe7cb","ios":"levelo://app?vid=54fe60dd-2a40-4a45-b210-2a0973cbe7cb"},"vehicle_type_id":"4","last_reported":1729656719,"current_range_meters":38800,"station_id":"ce4bhe12rcd13ifvqf30","pricing_plan_id":"cebpf4jnsgd1na2vs0mg"},{"bike_id":"8cd0a224-e706-44c5-b294-36c46e41c14a","system_id":"levelo_inurba_marseille","lat":43.28702,"lon":5.39991,"is_reserved":false,"is_disabled":false,"rental_uris":{"android":"levelo://app?vid=8cd0a224-e706-44c5-b294-36c46e41c14a","ios":"levelo://app?vid=8cd0a224-e706-44c5-b294-36c46e41c14a"},"vehicle_type_id":"4","last_reported":1729656719,"current_range_meters":38800,"station_id":"ce4bho92rcd13ifvqh3g","pricing_plan_id":"cebpf4jnsgd1na2vs0mg"},{"bike_id":"303058a0-13bc-44e6-b6c1-852a80be8e65","system_id":"levelo_inurba_marseille","lat":43.318859,"lon":5.407307,"is_reserved":false,"is_disabled":false,"rental_uris":{"android":"levelo://app?vid=303058a0-13bc-44e6-b6c1-852a80be8e65","ios":"levelo://app?vid=303058a0-13bc-44e6-b6c1-852a80be8e65"},"vehicle_type_id":"4","last_reported":1729656719,"current_range_meters":22000,"station_id":"ce4bhq12rcd13ifvqhig","pricing_plan_id":"cebpf4jnsgd1na2vs0mg"},{"bike_id":"34be8e3a-eefe-496b-810d-162ce65754e0","system_id":"levelo_inurba_marseille","lat":43.23193,"lon":5.35552,"is_reserved":false,"is_disabled":false,"rental_uris":{"android":"levelo://app?vid=34be8e3a-eefe-496b-810d-162ce65754e0","ios":"levelo://app?vid=34be8e3a-eefe-496b-810d-162ce65754e0"},"vehicle_type_id":"4","last_reported":1729656719,"current_range_meters":38800,"station_id":"ce4bhu92rcd13ifvqi70","pricing_plan_id":"cebpf4jnsgd1na2vs0mg"},{"bike_id":"6f41eea1-82b9-4f57-9729-6d5b1a182422","system_id":"levelo_inurba_marseille","lat":43.313659,"lon":5.384959,"is_reserved":false,"is_disabled":false,"rental_uris":{"android":"levelo://app?vid=6f41eea1-82b9-4f57-9729-6d5b1a182422","ios":"levelo://app?vid=6f41eea1-82b9-4f57-9729-6d5b1a182422"},"vehicle_type_id":"4","last_reported":1729656719,"current_range_meters":16000,"station_id":"ce4bgt92rcd13ifvqcf0","pricing_plan_id":"cebpf4jnsgd1na2vs0mg"},{"bike_id":"90defe12-9ad0-4ed8-9049-013b77458a1d","system_id":"levelo_inurba_marseille","lat":43.29624,"lon":5.40603,"is_reserved":false,"is_disabled":false,"rental_uris":{"android":"levelo://app?vid=90defe12-9ad0-4ed8-9049-013b77458a1d","ios":"levelo://app?vid=90defe12-9ad0-4ed8-9049-013b77458a1d"},"vehicle_type_id":"4","last_reported":1729656719,"current_range_meters":39200,"station_id":"ce4bh0h2rcd13ifvqd60","pricing_plan_id":"cebpf4jnsgd1na2vs0mg"},{"bike_id":"d4e65218-845f-4ecc-abc8-8cd2469ecc49","system_id":"levelo_inurba_marseille","lat":43.26195,"lon":5.37445,"is_reserved":false,"is_disabled":false,"rental_uris":{"android":"levelo://app?vid=d4e65218-845f-4ecc-abc8-8cd2469ecc49","ios":"levelo://app?vid=d4e65218-845f-4ecc-abc8-8cd2469ecc49"},"vehicle_type_id":"4","last_reported":1729656719,"current_range_meters":38800,"station_id":"ce4bhgp2rcd13ifvqfc0","pricing_plan_id":"cebpf4jnsgd1na2vs0mg"},{"bike_id":"970609af-4437-476a-8d28-851b001bb6b7","system_id":"levelo_inurba_marseille","lat":43.308018,"lon":5.381535,"is_reserved":false,"is_disabled":false,"rental_uris":{"android":"levelo://app?vid=970609af-4437-476a-8d28-851b001bb6b7","ios":"levelo://app?vid=970609af-4437-476a-8d28-851b001bb6b7"},"vehicle_type_id":"4","last_reported":1729656719,"current_range_meters":38400,"station_id":"ce4bgt12rcd13ifvqce0","pricing_plan_id":"cebpf4jnsgd1na2vs0mg"},{"bike_id":"8e40ff46-40ee-4202-a615-be27d36b4e1d","system_id":"levelo_inurba_marseille","lat":43.33723,"lon":5.39185,"is_reserved":false,"is_disabled":false,"rental_uris":{"android":"levelo://app?vid=8e40ff46-40ee-4202-a615-be27d36b4e1d","ios":"levelo://app?vid=8e40ff46-40ee-4202-a615-be27d36b4e1d"},"vehicle_type_id":"4","last_reported":1729656719,"current_range_meters":38000,"station_id":"ce4bhr92rcd13ifvqhsg","pricing_plan_id":"cebpf4jnsgd1na2vs0mg"},{"bike_id":"1cc0d4f8-3038-420c-9265-92004ed5a552","system_id":"levelo_inurba_marseille","lat":43.2792,"lon":5.3959,"is_reserved":false,"is_disabled":false,"rental_uris":{"android":"levelo://app?vid=1cc0d4f8-3038-420c-9265-92004ed5a552","ios":"levelo://app?vid=1cc0d4f8-3038-420c-9265-92004ed5a552"},"vehicle_type_id":"4","last_reported":1729656719,"current_range_meters":38400,"station_id":"ce4bhf92rcd13ifvqf40","pricing_plan_id":"cebpf4jnsgd1na2vs0mg"},{"bike_id":"cc2bf40a-c3a9-4fb3-8f4c-0570e51bda77","system_id":"levelo_inurba_marseille","lat":43.28414,"lon":5.37506,"is_reserved":false,"is_disabled":false,"rental_uris":{"android":"levelo://app?vid=cc2bf40a-c3a9-4fb3-8f4c-0570e51bda77","ios":"levelo://app?vid=cc2bf40a-c3a9-4fb3-8f4c-0570e51bda77"},"vehicle_type_id":"4","last_reported":1729656719,"current_range_meters":9200,"station_id":"ce4bh412rcd13ifvqds0","pricing_plan_id":"cebpf4jnsgd1na2vs0mg"},{"bike_id":"a8fd90e1-0f06-42a3-906b-c91cb727d214","system_id":"levelo_inurba_marseille","lat":43.26821,"lon":5.41111,"is_reserved":false,"is_disabled":false,"rental_uris":{"android":"levelo://app?vid=a8fd90e1-0f06-42a3-906b-c91cb727d214","ios":"levelo://app?vid=a8fd90e1-0f06-42a3-906b-c91cb727d214"},"vehicle_type_id":"4","last_reported":1729656719,"current_range_meters":10000,"station_id":"","pricing_plan_id":"cebpf4jnsgd1na2vs0mg"},{"bike_id":"b2d676a5-de76-49c7-9e76-aeca117b8755","system_id":"levelo_inurba_marseille","lat":43.27898,"lon":5.3801,"is_reserved":false,"is_disabled":false,"rental_uris":{"android":"levelo://app?vid=b2d676a5-de76-49c7-9e76-aeca117b8755","ios":"levelo://app?vid=b2d676a5-de76-49c7-9e76-aeca117b8755"},"vehicle_type_id":"4","last_reported":1729656719,"current_range_meters":26000,"station_id":"ce4bhf92rcd13ifvqf50","pricing_plan_id":"cebpf4jnsgd1na2vs0mg"},{"bike_id":"1e4f408a-7823-4f21-aceb-d6709974f1c5","system_id":"levelo_inurba_marseille","lat":43.23199,"lon":5.35555,"is_reserved":false,"is_disabled":false,"rental_uris":{"android":"levelo://app?vid=1e4f408a-7823-4f21-aceb-d6709974f1c5","ios":"levelo://app?vid=1e4f408a-7823-4f21-aceb-d6709974f1c5"},"vehicle_type_id":"4","last_reported":1729656719,"current_range_meters":23200,"station_id":"ce4bhu92rcd13ifvqi70","pricing_plan_id":"cebpf4jnsgd1na2vs0mg"},{"bike_id":"a0749339-d409-4445-aa58-75b4673a0721","system_id":"levelo_inurba_marseille","lat":43.25577,"lon":5.38243,"is_reserved":false,"is_disabled":false,"rental_uris":{"android":"levelo://app?vid=a0749339-d409-4445-aa58-75b4673a0721","ios":"levelo://app?vid=a0749339-d409-4445-aa58-75b4673a0721"},"vehicle_type_id":"4","last_reported":1729656719,"current_range_meters":25200,"station_id":"ce4bhih2rcd13ifvqfs0","pricing_plan_id":"cebpf4jnsgd1na2vs0mg"},{"bike_id":"24c18e86-322d-4859-8f16-045cb881c275","system_id":"levelo_inurba_marseille","lat":43.30924,"lon":5.40145,"is_reserved":false,"is_disabled":false,"rental_uris":{"android":"levelo://app?vid=24c18e86-322d-4859-8f16-045cb881c275","ios":"levelo://app?vid=24c18e86-322d-4859-8f16-045cb881c275"},"vehicle_type_id":"4","last_reported":1729656719,"current_range_meters":34000,"station_id":"ce4bgvp2rcd13ifvqct0","pricing_plan_id":"cebpf4jnsgd1na2vs0mg"},{"bike_id":"fffc7f22-100f-4747-acb5-5146d2359cf5","system_id":"levelo_inurba_marseille","lat":43.302456,"lon":5.400664,"is_reserved":false,"is_disabled":false,"rental_uris":{"android":"levelo://app?vid=fffc7f22-100f-4747-acb5-5146d2359cf5","ios":"levelo://app?vid=fffc7f22-100f-4747-acb5-5146d2359cf5"},"vehicle_type_id":"4","last_reported":1729656719,"current_range_meters":27600,"station_id":"ce4bgvh2rcd13ifvqcs0","pricing_plan_id":"cebpf4jnsgd1na2vs0mg"},{"bike_id":"e3fddba7-8db6-417a-9d14-bf70d08420d4","system_id":"levelo_inurba_marseille","lat":43.306454,"lon":5.400768,"is_reserved":false,"is_disabled":false,"rental_uris":{"android":"levelo://app?vid=e3fddba7-8db6-417a-9d14-bf70d08420d4","ios":"levelo://app?vid=e3fddba7-8db6-417a-9d14-bf70d08420d4"},"vehicle_type_id":"4","last_reported":1729656719,"current_range_meters":26800,"station_id":"ce4bh112rcd13ifvqda0","pricing_plan_id":"cebpf4jnsgd1na2vs0mg"},{"bike_id":"29665abb-bb05-4470-bec8-a92af688bd5f","system_id":"levelo_inurba_marseille","lat":43.29555,"lon":5.42286,"is_reserved":false,"is_disabled":false,"rental_uris":{"android":"levelo://app?vid=29665abb-bb05-4470-bec8-a92af688bd5f","ios":"levelo://app?vid=29665abb-bb05-4470-bec8-a92af688bd5f"},"vehicle_type_id":"4","last_reported":1729656719,"current_range_meters":30800,"station_id":"ce4bhph2rcd13ifvqhdg","pricing_plan_id":"cebpf4jnsgd1na2vs0mg"},{"bike_id":"9180b34f-b344-4ae4-9902-f5bdccfec281","system_id":"levelo_inurba_marseille","lat":43.28462,"lon":5.35888,"is_reserved":false,"is_disabled":false,"rental_uris":{"android":"levelo://app?vid=9180b34f-b344-4ae4-9902-f5bdccfec281","ios":"levelo://app?vid=9180b34f-b344-4ae4-9902-f5bdccfec281"},"vehicle_type_id":"4","last_reported":1729656719,"current_range_meters":38400,"station_id":"ce4bhah2rcd13ifvqei0","pricing_plan_id":"cebpf4jnsgd1na2vs0mg"},{"bike_id":"49ae987b-d2a9-45c9-bd31-73d3df4e3e5f","system_id":"levelo_inurba_marseille","lat":43.30639,"lon":5.40098,"is_reserved":false,"is_disabled":false,"rental_uris":{"android":"levelo://app?vid=49ae987b-d2a9-45c9-bd31-73d3df4e3e5f","ios":"levelo://app?vid=49ae987b-d2a9-45c9-bd31-73d3df4e3e5f"},"vehicle_type_id":"4","last_reported":1729656719,"current_range_meters":29600,"station_id":"ce4bh112rcd13ifvqda0","pricing_plan_id":"cebpf4jnsgd1na2vs0mg"},{"bike_id":"c3945b60-e38d-4106-8f18-92c7f436cc4f","system_id":"levelo_inurba_marseille","lat":43.33757,"lon":5.37448,"is_reserved":false,"is_disabled":false,"rental_uris":{"android":"levelo://app?vid=c3945b60-e38d-4106-8f18-92c7f436cc4f","ios":"levelo://app?vid=c3945b60-e38d-4106-8f18-92c7f436cc4f"},"vehicle_type_id":"4","last_reported":1729656719,"current_range_meters":28800,"station_id":"","pricing_plan_id":"cebpf4jnsgd1na2vs0mg"},{"bike_id":"28281844-b5e2-4474-abac-8fadc08d4ed6","system_id":"levelo_inurba_marseille","lat":43.31271,"lon":5.40174,"is_reserved":false,"is_disabled":false,"rental_uris":{"android":"levelo://app?vid=28281844-b5e2-4474-abac-8fadc08d4ed6","ios":"levelo://app?vid=28281844-b5e2-4474-abac-8fadc08d4ed6"},"vehicle_type_id":"4","last_reported":1729656719,"current_range_meters":38000,"station_id":"ce4bh092rcd13ifvqd30","pricing_plan_id":"cebpf4jnsgd1na2vs0mg"},{"bike_id":"362dd47a-a0a2-4fcc-86ce-5b0a1c4cac31","system_id":"levelo_inurba_marseille","lat":43.27367,"lon":5.36256,"is_reserved":false,"is_disabled":false,"rental_uris":{"android":"levelo://app?vid=362dd47a-a0a2-4fcc-86ce-5b0a1c4cac31","ios":"levelo://app?vid=362dd47a-a0a2-4fcc-86ce-5b0a1c4cac31"},"vehicle_type_id":"4","last_reported":1729656719,"current_range_meters":38800,"station_id":"ce4bhbh2rcd13ifvqeo0","pricing_plan_id":"cebpf4jnsgd1na2vs0mg"},{"bike_id":"054f98d4-2683-4ee1-9d6b-9b0b8ce093a8","system_id":"levelo_inurba_marseille","lat":43.24545,"lon":5.39518,"is_reserved":false,"is_disabled":false,"rental_uris":{"android":"levelo://app?vid=054f98d4-2683-4ee1-9d6b-9b0b8ce093a8","ios":"levelo://app?vid=054f98d4-2683-4ee1-9d6b-9b0b8ce093a8"},"vehicle_type_id":"4","last_reported":1729656719,"current_range_meters":38800,"station_id":"ce4bhlp2rcd13ifvqgjg","pricing_plan_id":"cebpf4jnsgd1na2vs0mg"},{"bike_id":"be3dda55-bc41-4f41-91f3-f753406854f7","system_id":"levelo_inurba_marseille","lat":43.27817,"lon":5.40715,"is_reserved":false,"is_disabled":false,"rental_uris":{"android":"levelo://app?vid=be3dda55-bc41-4f41-91f3-f753406854f7","ios":"levelo://app?vid=be3dda55-bc41-4f41-91f3-f753406854f7"},"vehicle_type_id":"4","last_reported":1729656719,"current_range_meters":38800,"station_id":"ce4bhnh2rcd13ifvqgtg","pricing_plan_id":"cebpf4jnsgd1na2vs0mg"},{"bike_id":"1aa61073-a9c6-4036-b8d8-b5f32ec1c844","system_id":"levelo_inurba_marseille","lat":43.231924,"lon":5.399858,"is_reserved":false,"is_disabled":false,"rental_uris":{"android":"levelo://app?vid=1aa61073-a9c6-4036-b8d8-b5f32ec1c844","ios":"levelo://app?vid=1aa61073-a9c6-4036-b8d8-b5f32ec1c844"},"vehicle_type_id":"4","last_reported":1729656719,"current_range_meters":34000,"station_id":"ce4bhn12rcd13ifvqgqg","pricing_plan_id":"cebpf4jnsgd1na2vs0mg"},{"bike_id":"5304e6d2-a025-4504-9ff2-0054277e008d","system_id":"levelo_inurba_marseille","lat":43.27369,"lon":5.3626,"is_reserved":false,"is_disabled":false,"rental_uris":{"android":"levelo://app?vid=5304e6d2-a025-4504-9ff2-0054277e008d","ios":"levelo://app?vid=5304e6d2-a025-4504-9ff2-0054277e008d"},"vehicle_type_id":"4","last_reported":1729656719,"current_range_meters":37600,"station_id":"ce4bhbh2rcd13ifvqeo0","pricing_plan_id":"cebpf4jnsgd1na2vs0mg"},{"bike_id":"056d4fe2-0ff2-4690-9efc-6ac5f13cc30f","system_id":"levelo_inurba_marseille","lat":43.28107,"lon":5.37837,"is_reserved":false,"is_disabled":false,"rental_uris":{"android":"levelo://app?vid=056d4fe2-0ff2-4690-9efc-6ac5f13cc30f","ios":"levelo://app?vid=056d4fe2-0ff2-4690-9efc-6ac5f13cc30f"},"vehicle_type_id":"4","last_reported":1729656719,"current_range_meters":38800,"station_id":"ce4bha12rcd13ifvqee0","pricing_plan_id":"cebpf4jnsgd1na2vs0mg"},{"bike_id":"0ee38f66-ee8f-4341-8b97-438d0d625d0c","system_id":"levelo_inurba_marseille","lat":43.30283,"lon":5.3772,"is_reserved":false,"is_disabled":false,"rental_uris":{"android":"levelo://app?vid=0ee38f66-ee8f-4341-8b97-438d0d625d0c","ios":"levelo://app?vid=0ee38f66-ee8f-4341-8b97-438d0d625d0c"},"vehicle_type_id":"4","last_reported":1729656719,"current_range_meters":38800,"station_id":"ce4bguh2rcd13ifvqcj0","pricing_plan_id":"cebpf4jnsgd1na2vs0mg"},{"bike_id":"b970f848-ffd2-4907-bec4-9c1f054033d4","system_id":"levelo_inurba_marseille","lat":43.32339,"lon":5.40615,"is_reserved":false,"is_disabled":false,"rental_uris":{"android":"levelo://app?vid=b970f848-ffd2-4907-bec4-9c1f054033d4","ios":"levelo://app?vid=b970f848-ffd2-4907-bec4-9c1f054033d4"},"vehicle_type_id":"4","last_reported":1729656719,"current_range_meters":29600,"station_id":"ce4bhq92rcd13ifvqhjg","pricing_plan_id":"cebpf4jnsgd1na2vs0mg"},{"bike_id":"1135af4d-b7d7-4190-b0cb-6113c69ae2ea","system_id":"levelo_inurba_marseille","lat":43.273701,"lon":5.362499,"is_reserved":false,"is_disabled":false,"rental_uris":{"android":"levelo://app?vid=1135af4d-b7d7-4190-b0cb-6113c69ae2ea","ios":"levelo://app?vid=1135af4d-b7d7-4190-b0cb-6113c69ae2ea"},"vehicle_type_id":"4","last_reported":1729656719,"current_range_meters":38800,"station_id":"ce4bhbh2rcd13ifvqeo0","pricing_plan_id":"cebpf4jnsgd1na2vs0mg"},{"bike_id":"3af337b1-4096-493c-9221-0107a2ba6d39","system_id":"levelo_inurba_marseille","lat":43.31167,"lon":5.38715,"is_reserved":false,"is_disabled":false,"rental_uris":{"android":"levelo://app?vid=3af337b1-4096-493c-9221-0107a2ba6d39","ios":"levelo://app?vid=3af337b1-4096-493c-9221-0107a2ba6d39"},"vehicle_type_id":"4","last_reported":1729656719,"current_range_meters":30000,"station_id":"ce4bgv12rcd13ifvqcp0","pricing_plan_id":"cebpf4jnsgd1na2vs0mg"},{"bike_id":"c763553b-c83c-450c-a8f1-7806bafe14a6","system_id":"levelo_inurba_marseille","lat":43.32493,"lon":5.36583,"is_reserved":false,"is_disabled":false,"rental_uris":{"android":"levelo://app?vid=c763553b-c83c-450c-a8f1-7806bafe14a6","ios":"levelo://app?vid=c763553b-c83c-450c-a8f1-7806bafe14a6"},"vehicle_type_id":"4","last_reported":1729656719,"current_range_meters":22800,"station_id":"ce4bhs12rcd13ifvqhvg","pricing_plan_id":"cebpf4jnsgd1na2vs0mg"},{"bike_id":"81d97d25-6b95-4a79-9a7f-f6f9ad475c13","system_id":"levelo_inurba_marseille","lat":43.28453,"lon":5.35886,"is_reserved":false,"is_disabled":false,"rental_uris":{"android":"levelo://app?vid=81d97d25-6b95-4a79-9a7f-f6f9ad475c13","ios":"levelo://app?vid=81d97d25-6b95-4a79-9a7f-f6f9ad475c13"},"vehicle_type_id":"4","last_reported":1729656719,"current_range_meters":37600,"station_id":"ce4bhah2rcd13ifvqei0","pricing_plan_id":"cebpf4jnsgd1na2vs0mg"},{"bike_id":"06133ffa-30bf-4295-8e86-a7666d88ed19","system_id":"levelo_inurba_marseille","lat":43.30145,"lon":5.39859,"is_reserved":false,"is_disabled":false,"rental_uris":{"android":"levelo://app?vid=06133ffa-30bf-4295-8e86-a7666d88ed19","ios":"levelo://app?vid=06133ffa-30bf-4295-8e86-a7666d88ed19"},"vehicle_type_id":"4","last_reported":1729656719,"current_range_meters":38800,"station_id":"ce4bh0h2rcd13ifvqd40","pricing_plan_id":"cebpf4jnsgd1na2vs0mg"},{"bike_id":"8f34dca2-e523-475a-85e5-be2164d16e3c","system_id":"levelo_inurba_marseille","lat":43.281066,"lon":5.378407,"is_reserved":false,"is_disabled":false,"rental_uris":{"android":"levelo://app?vid=8f34dca2-e523-475a-85e5-be2164d16e3c","ios":"levelo://app?vid=8f34dca2-e523-475a-85e5-be2164d16e3c"},"vehicle_type_id":"4","last_reported":1729656719,"current_range_meters":38400,"station_id":"ce4bha12rcd13ifvqee0","pricing_plan_id":"cebpf4jnsgd1na2vs0mg"},{"bike_id":"929c91b4-321d-4830-be4b-17e0e65046ac","system_id":"levelo_inurba_marseille","lat":43.23186,"lon":5.39983,"is_reserved":false,"is_disabled":false,"rental_uris":{"android":"levelo://app?vid=929c91b4-321d-4830-be4b-17e0e65046ac","ios":"levelo://app?vid=929c91b4-321d-4830-be4b-17e0e65046ac"},"vehicle_type_id":"4","last_reported":1729656719,"current_range_meters":7200,"station_id":"ce4bhn12rcd13ifvqgqg","pricing_plan_id":"cebpf4jnsgd1na2vs0mg"},{"bike_id":"db5ace12-daf6-423f-ae42-c8b56153cf6d","system_id":"levelo_inurba_marseille","lat":43.309305,"lon":5.401376,"is_reserved":false,"is_disabled":false,"rental_uris":{"android":"levelo://app?vid=db5ace12-daf6-423f-ae42-c8b56153cf6d","ios":"levelo://app?vid=db5ace12-daf6-423f-ae42-c8b56153cf6d"},"vehicle_type_id":"4","last_reported":1729656719,"current_range_meters":38800,"station_id":"ce4bgvp2rcd13ifvqct0","pricing_plan_id":"cebpf4jnsgd1na2vs0mg"},{"bike_id":"946611bd-808f-42aa-8d8e-3a209538d209","system_id":"levelo_inurba_marseille","lat":43.24081,"lon":5.37747,"is_reserved":false,"is_disabled":false,"rental_uris":{"android":"levelo://app?vid=946611bd-808f-42aa-8d8e-3a209538d209","ios":"levelo://app?vid=946611bd-808f-42aa-8d8e-3a209538d209"},"vehicle_type_id":"4","last_reported":1729656719,"current_range_meters":10800,"station_id":"ce4bhnp2rcd13ifvqgvg","pricing_plan_id":"cebpf4jnsgd1na2vs0mg"},{"bike_id":"228c4c46-b812-4754-8528-e0309c434b70","system_id":"levelo_inurba_marseille","lat":43.284313,"lon":5.39192,"is_reserved":false,"is_disabled":false,"rental_uris":{"android":"levelo://app?vid=228c4c46-b812-4754-8528-e0309c434b70","ios":"levelo://app?vid=228c4c46-b812-4754-8528-e0309c434b70"},"vehicle_type_id":"4","last_reported":1729656719,"current_range_meters":38800,"station_id":"ce4bhoh2rcd13ifvqh5g","pricing_plan_id":"cebpf4jnsgd1na2vs0mg"},{"bike_id":"e13e1994-64c0-4a33-890e-5154997bb10a","system_id":"levelo_inurba_marseille","lat":43.27063,"lon":5.42276,"is_reserved":false,"is_disabled":false,"rental_uris":{"android":"levelo://app?vid=e13e1994-64c0-4a33-890e-5154997bb10a","ios":"levelo://app?vid=e13e1994-64c0-4a33-890e-5154997bb10a"},"vehicle_type_id":"4","last_reported":1729656719,"current_range_meters":38800,"station_id":"ce4bhk92rcd13ifvqgb0","pricing_plan_id":"cebpf4jnsgd1na2vs0mg"},{"bike_id":"78118cc0-b013-4f91-a854-b7081797eb11","system_id":"levelo_inurba_marseille","lat":43.2963,"lon":5.40606,"is_reserved":false,"is_disabled":false,"rental_uris":{"android":"levelo://app?vid=78118cc0-b013-4f91-a854-b7081797eb11","ios":"levelo://app?vid=78118cc0-b013-4f91-a854-b7081797eb11"},"vehicle_type_id":"4","last_reported":1729656719,"current_range_meters":10000,"station_id":"ce4bh0h2rcd13ifvqd60","pricing_plan_id":"cebpf4jnsgd1na2vs0mg"},{"bike_id":"78dd845c-fc34-4928-9892-3ff12866b800","system_id":"levelo_inurba_marseille","lat":43.31688,"lon":5.40464,"is_reserved":false,"is_disabled":false,"rental_uris":{"android":"levelo://app?vid=78dd845c-fc34-4928-9892-3ff12866b800","ios":"levelo://app?vid=78dd845c-fc34-4928-9892-3ff12866b800"},"vehicle_type_id":"4","last_reported":1729656719,"current_range_meters":28000,"station_id":"ce4bh012rcd13ifvqd00","pricing_plan_id":"cebpf4jnsgd1na2vs0mg"},{"bike_id":"5f1556bb-7ce9-47ab-b5fa-fa2119e042b8","system_id":"levelo_inurba_marseille","lat":43.29038,"lon":5.39983,"is_reserved":false,"is_disabled":false,"rental_uris":{"android":"levelo://app?vid=5f1556bb-7ce9-47ab-b5fa-fa2119e042b8","ios":"levelo://app?vid=5f1556bb-7ce9-47ab-b5fa-fa2119e042b8"},"vehicle_type_id":"4","last_reported":1729656719,"current_range_meters":38800,"station_id":"ce4bh392rcd13ifvqdm0","pricing_plan_id":"cebpf4jnsgd1na2vs0mg"},{"bike_id":"fd12d8f6-c758-432e-bec7-df84c856f1a2","system_id":"levelo_inurba_marseille","lat":43.28467,"lon":5.35877,"is_reserved":false,"is_disabled":false,"rental_uris":{"android":"levelo://app?vid=fd12d8f6-c758-432e-bec7-df84c856f1a2","ios":"levelo://app?vid=fd12d8f6-c758-432e-bec7-df84c856f1a2"},"vehicle_type_id":"4","last_reported":1729656719,"current_range_meters":38800,"station_id":"ce4bhah2rcd13ifvqei0","pricing_plan_id":"cebpf4jnsgd1na2vs0mg"},{"bike_id":"4a7abcc4-a1fa-417b-8ffa-a28e55985c43","system_id":"levelo_inurba_marseille","lat":43.24079,"lon":5.37746,"is_reserved":false,"is_disabled":false,"rental_uris":{"android":"levelo://app?vid=4a7abcc4-a1fa-417b-8ffa-a28e55985c43","ios":"levelo://app?vid=4a7abcc4-a1fa-417b-8ffa-a28e55985c43"},"vehicle_type_id":"4","last_reported":1729656719,"current_range_meters":38000,"station_id":"ce4bhnp2rcd13ifvqgvg","pricing_plan_id":"cebpf4jnsgd1na2vs0mg"},{"bike_id":"cdba8dd9-10d6-4358-97ce-fe5c3999d55d","system_id":"levelo_inurba_marseille","lat":43.30352,"lon":5.41875,"is_reserved":false,"is_disabled":false,"rental_uris":{"android":"levelo://app?vid=cdba8dd9-10d6-4358-97ce-fe5c3999d55d","ios":"levelo://app?vid=cdba8dd9-10d6-4358-97ce-fe5c3999d55d"},"vehicle_type_id":"4","last_reported":1729656719,"current_range_meters":39200,"station_id":"ce4bhop2rcd13ifvqh7g","pricing_plan_id":"cebpf4jnsgd1na2vs0mg"},{"bike_id":"fd57e210-0cdc-4006-846d-96114f8f6035","system_id":"levelo_inurba_marseille","lat":43.265631,"lon":5.390123,"is_reserved":false,"is_disabled":false,"rental_uris":{"android":"levelo://app?vid=fd57e210-0cdc-4006-846d-96114f8f6035","ios":"levelo://app?vid=fd57e210-0cdc-4006-846d-96114f8f6035"},"vehicle_type_id":"4","last_reported":1729656719,"current_range_meters":15200,"station_id":"ce4bhe12rcd13ifvqf30","pricing_plan_id":"cebpf4jnsgd1na2vs0mg"},{"bike_id":"70b63f5a-0b57-488d-a520-164feb1eb8de","system_id":"levelo_inurba_marseille","lat":43.29796,"lon":5.40398,"is_reserved":false,"is_disabled":false,"rental_uris":{"android":"levelo://app?vid=70b63f5a-0b57-488d-a520-164feb1eb8de","ios":"levelo://app?vid=70b63f5a-0b57-488d-a520-164feb1eb8de"},"vehicle_type_id":"4","last_reported":1729656719,"current_range_meters":38400,"station_id":"ce4bh112rcd13ifvqd90","pricing_plan_id":"cebpf4jnsgd1na2vs0mg"},{"bike_id":"af39c80e-bebc-45d4-b1ab-aa2ef6cf1545","system_id":"levelo_inurba_marseille","lat":43.30891,"lon":5.39634,"is_reserved":false,"is_disabled":false,"rental_uris":{"android":"levelo://app?vid=af39c80e-bebc-45d4-b1ab-aa2ef6cf1545","ios":"levelo://app?vid=af39c80e-bebc-45d4-b1ab-aa2ef6cf1545"},"vehicle_type_id":"4","last_reported":1729656719,"current_range_meters":24000,"station_id":"ce4bh012rcd13ifvqcv0","pricing_plan_id":"cebpf4jnsgd1na2vs0mg"},{"bike_id":"0c8f5239-515f-446b-bbb1-16b6bc17d341","system_id":"levelo_inurba_marseille","lat":43.29797,"lon":5.40399,"is_reserved":false,"is_disabled":false,"rental_uris":{"android":"levelo://app?vid=0c8f5239-515f-446b-bbb1-16b6bc17d341","ios":"levelo://app?vid=0c8f5239-515f-446b-bbb1-16b6bc17d341"},"vehicle_type_id":"4","last_reported":1729656719,"current_range_meters":38000,"station_id":"ce4bh112rcd13ifvqd90","pricing_plan_id":"cebpf4jnsgd1na2vs0mg"},{"bike_id":"fed29e3d-ded9-4536-b5e9-762e6c2a1343","system_id":"levelo_inurba_marseille","lat":43.29961,"lon":5.39197,"is_reserved":false,"is_disabled":false,"rental_uris":{"android":"levelo://app?vid=fed29e3d-ded9-4536-b5e9-762e6c2a1343","ios":"levelo://app?vid=fed29e3d-ded9-4536-b5e9-762e6c2a1343"},"vehicle_type_id":"4","last_reported":1729656719,"current_range_meters":14800,"station_id":"ce4bghh2rcd13ifvqb60","pricing_plan_id":"cebpf4jnsgd1na2vs0mg"},{"bike_id":"3f3a3ebf-fa05-44bb-b950-628029747f28","system_id":"levelo_inurba_marseille","lat":43.27065,"lon":5.42271,"is_reserved":false,"is_disabled":false,"rental_uris":{"android":"levelo://app?vid=3f3a3ebf-fa05-44bb-b950-628029747f28","ios":"levelo://app?vid=3f3a3ebf-fa05-44bb-b950-628029747f28"},"vehicle_type_id":"4","last_reported":1729656719,"current_range_meters":38000,"station_id":"ce4bhk92rcd13ifvqgb0","pricing_plan_id":"cebpf4jnsgd1na2vs0mg"},{"bike_id":"6f3c99f6-25c2-4dd4-ba80-ca7e8e0ba65e","system_id":"levelo_inurba_marseille","lat":43.28148,"lon":5.42646,"is_reserved":false,"is_disabled":false,"rental_uris":{"android":"levelo://app?vid=6f3c99f6-25c2-4dd4-ba80-ca7e8e0ba65e","ios":"levelo://app?vid=6f3c99f6-25c2-4dd4-ba80-ca7e8e0ba65e"},"vehicle_type_id":"4","last_reported":1729656719,"current_range_meters":8400,"station_id":"ce4bhnh2rcd13ifvqgug","pricing_plan_id":"cebpf4jnsgd1na2vs0mg"},{"bike_id":"ad760254-cc3c-4e2c-9420-2ef8e0d6528d","system_id":"levelo_inurba_marseille","lat":43.32651,"lon":5.4099,"is_reserved":false,"is_disabled":false,"rental_uris":{"android":"levelo://app?vid=ad760254-cc3c-4e2c-9420-2ef8e0d6528d","ios":"levelo://app?vid=ad760254-cc3c-4e2c-9420-2ef8e0d6528d"},"vehicle_type_id":"4","last_reported":1729656719,"current_range_meters":16000,"station_id":"ce4bhpp2rcd13ifvqhgg","pricing_plan_id":"cebpf4jnsgd1na2vs0mg"},{"bike_id":"993e42e3-100d-4f8a-9cfa-31f61648f6b8","system_id":"levelo_inurba_marseille","lat":43.28933,"lon":5.36639,"is_reserved":false,"is_disabled":false,"rental_uris":{"android":"levelo://app?vid=993e42e3-100d-4f8a-9cfa-31f61648f6b8","ios":"levelo://app?vid=993e42e3-100d-4f8a-9cfa-31f61648f6b8"},"vehicle_type_id":"4","last_reported":1729656719,"current_range_meters":38800,"station_id":"ce4bhap2rcd13ifvqek0","pricing_plan_id":"cebpf4jnsgd1na2vs0mg"},{"bike_id":"fc1f2207-b274-41d6-84e8-a4801003d752","system_id":"levelo_inurba_marseille","lat":43.30426,"lon":5.38889,"is_reserved":false,"is_disabled":false,"rental_uris":{"android":"levelo://app?vid=fc1f2207-b274-41d6-84e8-a4801003d752","ios":"levelo://app?vid=fc1f2207-b274-41d6-84e8-a4801003d752"},"vehicle_type_id":"4","last_reported":1729656719,"current_range_meters":25600,"station_id":"ce4bgk12rcd13ifvqbi0","pricing_plan_id":"cebpf4jnsgd1na2vs0mg"},{"bike_id":"01678755-0ad9-4bb7-8723-5a8d7c4420fc","system_id":"levelo_inurba_marseille","lat":43.280639,"lon":5.409827,"is_reserved":false,"is_disabled":false,"rental_uris":{"android":"levelo://app?vid=01678755-0ad9-4bb7-8723-5a8d7c4420fc","ios":"levelo://app?vid=01678755-0ad9-4bb7-8723-5a8d7c4420fc"},"vehicle_type_id":"4","last_reported":1729656719,"current_range_meters":17200,"station_id":"","pricing_plan_id":"cebpf4jnsgd1na2vs0mg"},{"bike_id":"2fb9d5ac-a82c-4393-9767-245086c7d1cd","system_id":"levelo_inurba_marseille","lat":43.308851,"lon":5.396355,"is_reserved":false,"is_disabled":false,"rental_uris":{"android":"levelo://app?vid=2fb9d5ac-a82c-4393-9767-245086c7d1cd","ios":"levelo://app?vid=2fb9d5ac-a82c-4393-9767-245086c7d1cd"},"vehicle_type_id":"4","last_reported":1729656719,"current_range_meters":38800,"station_id":"ce4bh012rcd13ifvqcv0","pricing_plan_id":"cebpf4jnsgd1na2vs0mg"},{"bike_id":"4a17de49-0eb0-4f62-b4f3-5313bdc17ba8","system_id":"levelo_inurba_marseille","lat":43.30633,"lon":5.40077,"is_reserved":false,"is_disabled":false,"rental_uris":{"android":"levelo://app?vid=4a17de49-0eb0-4f62-b4f3-5313bdc17ba8","ios":"levelo://app?vid=4a17de49-0eb0-4f62-b4f3-5313bdc17ba8"},"vehicle_type_id":"4","last_reported":1729656719,"current_range_meters":36800,"station_id":"ce4bh112rcd13ifvqda0","pricing_plan_id":"cebpf4jnsgd1na2vs0mg"},{"bike_id":"1529ced3-b5d9-4288-acb5-1688489669a6","system_id":"levelo_inurba_marseille","lat":43.290801,"lon":5.371645,"is_reserved":false,"is_disabled":false,"rental_uris":{"android":"levelo://app?vid=1529ced3-b5d9-4288-acb5-1688489669a6","ios":"levelo://app?vid=1529ced3-b5d9-4288-acb5-1688489669a6"},"vehicle_type_id":"4","last_reported":1729656719,"current_range_meters":38800,"station_id":"ce4bh5p2rcd13ifvqe4g","pricing_plan_id":"cebpf4jnsgd1na2vs0mg"},{"bike_id":"3dee495a-7a37-40c3-9d5a-0edc49499f73","system_id":"levelo_inurba_marseille","lat":43.27901,"lon":5.38003,"is_reserved":false,"is_disabled":false,"rental_uris":{"android":"levelo://app?vid=3dee495a-7a37-40c3-9d5a-0edc49499f73","ios":"levelo://app?vid=3dee495a-7a37-40c3-9d5a-0edc49499f73"},"vehicle_type_id":"4","last_reported":1729656719,"current_range_meters":27200,"station_id":"ce4bhf92rcd13ifvqf50","pricing_plan_id":"cebpf4jnsgd1na2vs0mg"},{"bike_id":"0d66885d-85c4-4297-beb3-a0057b8663cf","system_id":"levelo_inurba_marseille","lat":43.2439,"lon":5.37053,"is_reserved":false,"is_disabled":false,"rental_uris":{"android":"levelo://app?vid=0d66885d-85c4-4297-beb3-a0057b8663cf","ios":"levelo://app?vid=0d66885d-85c4-4297-beb3-a0057b8663cf"},"vehicle_type_id":"4","last_reported":1729656719,"current_range_meters":28800,"station_id":"ce4bhhh2rcd13ifvqfk0","pricing_plan_id":"cebpf4jnsgd1na2vs0mg"},{"bike_id":"5f52a294-35cb-4877-800b-f047f9b80446","system_id":"levelo_inurba_marseille","lat":43.29435,"lon":5.39754,"is_reserved":false,"is_disabled":false,"rental_uris":{"android":"levelo://app?vid=5f52a294-35cb-4877-800b-f047f9b80446","ios":"levelo://app?vid=5f52a294-35cb-4877-800b-f047f9b80446"},"vehicle_type_id":"4","last_reported":1729656719,"current_range_meters":38000,"station_id":"ce4bh3h2rcd13ifvqdo0","pricing_plan_id":"cebpf4jnsgd1na2vs0mg"},{"bike_id":"e68074ff-f5e2-424b-ac9b-aa2b95174368","system_id":"levelo_inurba_marseille","lat":43.28151,"lon":5.42646,"is_reserved":false,"is_disabled":false,"rental_uris":{"android":"levelo://app?vid=e68074ff-f5e2-424b-ac9b-aa2b95174368","ios":"levelo://app?vid=e68074ff-f5e2-424b-ac9b-aa2b95174368"},"vehicle_type_id":"4","last_reported":1729656719,"current_range_meters":27600,"station_id":"ce4bhnh2rcd13ifvqgug","pricing_plan_id":"cebpf4jnsgd1na2vs0mg"},{"bike_id":"735a2476-fda6-486b-84ef-88a4c55ff9ea","system_id":"levelo_inurba_marseille","lat":43.2866,"lon":5.3636,"is_reserved":false,"is_disabled":false,"rental_uris":{"android":"levelo://app?vid=735a2476-fda6-486b-84ef-88a4c55ff9ea","ios":"levelo://app?vid=735a2476-fda6-486b-84ef-88a4c55ff9ea"},"vehicle_type_id":"4","last_reported":1729656719,"current_range_meters":18800,"station_id":"ce4bhah2rcd13ifvqej0","pricing_plan_id":"cebpf4jnsgd1na2vs0mg"},{"bike_id":"815dd284-1bd2-4bb9-992a-b2116e2485bc","system_id":"levelo_inurba_marseille","lat":43.32894,"lon":5.3642,"is_reserved":false,"is_disabled":false,"rental_uris":{"android":"levelo://app?vid=815dd284-1bd2-4bb9-992a-b2116e2485bc","ios":"levelo://app?vid=815dd284-1bd2-4bb9-992a-b2116e2485bc"},"vehicle_type_id":"4","last_reported":1729656719,"current_range_meters":30800,"station_id":"","pricing_plan_id":"cebpf4jnsgd1na2vs0mg"},{"bike_id":"3c161d3a-ed17-4363-b7c5-867698fc78e2","system_id":"levelo_inurba_marseille","lat":43.31176,"lon":5.38715,"is_reserved":false,"is_disabled":false,"rental_uris":{"android":"levelo://app?vid=3c161d3a-ed17-4363-b7c5-867698fc78e2","ios":"levelo://app?vid=3c161d3a-ed17-4363-b7c5-867698fc78e2"},"vehicle_type_id":"4","last_reported":1729656719,"current_range_meters":20800,"station_id":"ce4bgv12rcd13ifvqcp0","pricing_plan_id":"cebpf4jnsgd1na2vs0mg"},{"bike_id":"18dd70fc-d51a-4bcf-95bb-093e4188314c","system_id":"levelo_inurba_marseille","lat":43.28859,"lon":5.39319,"is_reserved":false,"is_disabled":false,"rental_uris":{"android":"levelo://app?vid=18dd70fc-d51a-4bcf-95bb-093e4188314c","ios":"levelo://app?vid=18dd70fc-d51a-4bcf-95bb-093e4188314c"},"vehicle_type_id":"4","last_reported":1729656719,"current_range_meters":38800,"station_id":"ce4bh2p2rcd13ifvqdi0","pricing_plan_id":"cebpf4jnsgd1na2vs0mg"},{"bike_id":"df0d0efc-106b-4ede-ad0b-7aaab3691094","system_id":"levelo_inurba_marseille","lat":43.2973,"lon":5.37683,"is_reserved":false,"is_disabled":false,"rental_uris":{"android":"levelo://app?vid=df0d0efc-106b-4ede-ad0b-7aaab3691094","ios":"levelo://app?vid=df0d0efc-106b-4ede-ad0b-7aaab3691094"},"vehicle_type_id":"4","last_reported":1729656719,"current_range_meters":38000,"station_id":"ce4bgkh2rcd13ifvqbl0","pricing_plan_id":"cebpf4jnsgd1na2vs0mg"},{"bike_id":"9ff64a80-fbeb-434b-b02d-660129a509df","system_id":"levelo_inurba_marseille","lat":43.28403,"lon":5.37513,"is_reserved":false,"is_disabled":false,"rental_uris":{"android":"levelo://app?vid=9ff64a80-fbeb-434b-b02d-660129a509df","ios":"levelo://app?vid=9ff64a80-fbeb-434b-b02d-660129a509df"},"vehicle_type_id":"4","last_reported":1729656719,"current_range_meters":19600,"station_id":"ce4bh412rcd13ifvqds0","pricing_plan_id":"cebpf4jnsgd1na2vs0mg"},{"bike_id":"b3b3aa1c-cd4d-4c72-b22c-122608d374e3","system_id":"levelo_inurba_marseille","lat":43.25103,"lon":5.40328,"is_reserved":false,"is_disabled":false,"rental_uris":{"android":"levelo://app?vid=b3b3aa1c-cd4d-4c72-b22c-122608d374e3","ios":"levelo://app?vid=b3b3aa1c-cd4d-4c72-b22c-122608d374e3"},"vehicle_type_id":"4","last_reported":1729656719,"current_range_meters":38000,"station_id":"ce4bhlh2rcd13ifvqgig","pricing_plan_id":"cebpf4jnsgd1na2vs0mg"},{"bike_id":"b12e2982-94d6-4ac5-9dd3-65ee3dd50d75","system_id":"levelo_inurba_marseille","lat":43.30537,"lon":5.38427,"is_reserved":false,"is_disabled":false,"rental_uris":{"android":"levelo://app?vid=b12e2982-94d6-4ac5-9dd3-65ee3dd50d75","ios":"levelo://app?vid=b12e2982-94d6-4ac5-9dd3-65ee3dd50d75"},"vehicle_type_id":"4","last_reported":1729656719,"current_range_meters":37600,"station_id":"ce4bgg92rcd13ifvqb30","pricing_plan_id":"cebpf4jnsgd1na2vs0mg"},{"bike_id":"627811a9-4978-496f-972a-e45837dda420","system_id":"levelo_inurba_marseille","lat":43.274963,"lon":5.424503,"is_reserved":false,"is_disabled":false,"rental_uris":{"android":"levelo://app?vid=627811a9-4978-496f-972a-e45837dda420","ios":"levelo://app?vid=627811a9-4978-496f-972a-e45837dda420"},"vehicle_type_id":"4","last_reported":1729656719,"current_range_meters":12800,"station_id":"ce4bhn92rcd13ifvqgrg","pricing_plan_id":"cebpf4jnsgd1na2vs0mg"},