{"last_updated":1727795356,"ttl":60,"version":"2.2","data":{"bikes":[{"bike_id":"ac0d4ee1-e335-48f5-ac4d-8e18275f6c72","system_id":"levelo_inurba_marseille","lat":43.29696,"lon":5.37292,"is_reserved":false,"is_disabled":false,"rental_uris":{"android":"levelo://app?vid=ac0d4ee1-e335-48f5-ac4d-8e18275f6c72","ios":"levelo://app?vid=ac0d4ee1-e335-48f5-ac4d-8e18275f6c72"},"vehicle_type_id":"4","last_reported":1727795357,"current_range_meters":16400,"station_id":"ce4bgk12rcd13ifvqbj0","pricing_plan_id":"cebpf4jnsgd1na2vs0mg"},{"bike_id":"217a0d9e-af06-4afa-90d2-ae088fdc4081","system_id":"levelo_inurba_marseille","lat":43.33026,"lon":5.39045,"is_reserved":false,"is_disabled":false,"rental_uris":{"android":"levelo://app?vid=217a0d9e-af06-4afa-90d2-ae088fdc4081","ios":"levelo://app?vid=217a0d9e-af06-4afa-90d2-ae088fdc4081"},"vehicle_type_id":"4","last_reported":1727795357,"current_range_meters":8800,"station_id":"ce4bhr92rcd13ifvqhrg","pricing_plan_id":"cebpf4jnsgd1na2vs0mg"},{"bike_id":"29e7621a-9400-40b6-ae1b-a2b0109ffc94","system_id":"levelo_inurba_marseille","lat":43.33726,"lon":5.39186,"is_reserved":false,"is_disabled":false,"rental_uris":{"android":"levelo://app?vid=29e7621a-9400-40b6-ae1b-a2b0109ffc94","ios":"levelo://app?vid=29e7621a-9400-40b6-ae1b-a2b0109ffc94"},"vehicle_type_id":"4","last_reported":1727795357,"current_range_meters":38800,"station_id":"ce4bhr92rcd13ifvqhsg","pricing_plan_id":"cebpf4jnsgd1na2vs0mg"},{"bike_id":"a62d1422-7d4f-4b8d-a84d-15f2956a3eaf","system_id":"levelo_inurba_marseille","lat":43.28696,"lon":5.39987,"is_reserved":false,"is_disabled":false,"rental_uris":{"android":"levelo://app?vid=a62d1422-7d4f-4b8d-a84d-15f2956a3eaf","ios":"levelo://app?vid=a62d1422-7d4f-4b8d-a84d-15f2956a3eaf"},"vehicle_type_id":"4","last_reported":1727795357,"current_range_meters":37600,"station_id":"ce4bho92rcd13ifvqh3g","pricing_plan_id":"cebpf4jnsgd1na2vs0mg"},{"bike_id":"dad62afc-f55e-4d7d-8a4c-c944cff61821","system_id":"levelo_inurba_marseille","lat":43.24382,"lon":5.37054,"is_reserved":false,"is_disabled":false,"rental_uris":{"android":"levelo://app?vid=dad62afc-f55e-4d7d-8a4c-c944cff61821","ios":"levelo://app?vid=dad62afc-f55e-4d7d-8a4c-c944cff61821"},"vehicle_type_id":"4","last_reported":1727795357,"current_range_meters":32000,"station_id":"ce4bhhh2rcd13ifvqfk0","pricing_plan_id":"cebpf4jnsgd1na2vs0mg"},{"bike_id":"100a6eb3-d864-4715-8031-7729c74975fb","system_id":"levelo_inurba_marseille","lat":43.27999,"lon":5.40012,"is_reserved":false,"is_disabled":false,"rental_uris":{"android":"levelo://app?vid=100a6eb3-d864-4715-8031-7729c74975fb","ios":"levelo://app?vid=100a6eb3-d864-4715-8031-7729c74975fb"},"vehicle_type_id":"4","last_reported":1727795357,"current_range_meters":32400,"station_id":"ce4bho92rcd13ifvqh4g","pricing_plan_id":"cebpf4jnsgd1na2vs0mg"},{"bike_id":"513c5bd8-bf1f-4410-a827-c1858341840c","system_id":"levelo_inurba_marseille","lat":43.24391,"lon":5.37046,"is_reserved":false,"is_disabled":false,"rental_uris":{"android":"levelo://app?vid=513c5bd8-bf1f-4410-a827-c1858341840c","ios":"levelo://app?vid=513c5bd8-bf1f-4410-a827-c1858341840c"},"vehicle_type_id":"4","last_reported":1727795357,"current_range_meters":28000,"station_id":"ce4bhhh2rcd13ifvqfk0","pricing_plan_id":"cebpf4jnsgd1na2vs0mg"},{"bike_id":"f7ab1ff5-e3c9-48ef-bb52-3f7e8d2513a3","system_id":"levelo_inurba_marseille","lat":43.30551,"lon":5.36703,"is_reserved":false,"is_disabled":false,"rental_uris":{"android":"levelo://app?vid=f7ab1ff5-e3c9-48ef-bb52-3f7e8d2513a3","ios":"levelo://app?vid=f7ab1ff5-e3c9-48ef-bb52-3f7e8d2513a3"},"vehicle_type_id":"4","last_reported":1727795357,"current_range_meters":6400,"station_id":"ce4bgrp2rcd13ifvqc9g","pricing_plan_id":"cebpf4jnsgd1na2vs0mg"},{"bike_id":"31a03783-deb2-4e77-8d8e-b53f2f410eb5","system_id":"levelo_inurba_marseille","lat":43.30806,"lon":5.43519,"is_reserved":false,"is_disabled":false,"rental_uris":{"android":"levelo://app?vid=31a03783-deb2-4e77-8d8e-b53f2f410eb5","ios":"levelo://app?vid=31a03783-deb2-4e77-8d8e-b53f2f410eb5"},"vehicle_type_id":"4","last_reported":1727795357,"current_range_meters":3200,"station_id":"ce4bhph2rcd13ifvqheg","pricing_plan_id":"cebpf4jnsgd1na2vs0mg"},{"bike_id":"cb5d8567-ce09-40d3-9b2c-8a65b0057e6b","system_id":"levelo_inurba_marseille","lat":43.31323,"lon":5.39697,"is_reserved":false,"is_disabled":false,"rental_uris":{"android":"levelo://app?vid=cb5d8567-ce09-40d3-9b2c-8a65b0057e6b","ios":"levelo://app?vid=cb5d8567-ce09-40d3-9b2c-8a65b0057e6b"},"vehicle_type_id":"4","last_reported":1727795357,"current_range_meters":16800,"station_id":"ce4bgvp2rcd13ifvqcu0","pricing_plan_id":"cebpf4jnsgd1na2vs0mg"},{"bike_id":"acd8f74e-1179-4f12-8f5f-daa9cf0c1331","system_id":"levelo_inurba_marseille","lat":43.31223,"lon":5.36849,"is_reserved":false,"is_disabled":false,"rental_uris":{"android":"levelo://app?vid=acd8f74e-1179-4f12-8f5f-daa9cf0c1331","ios":"levelo://app?vid=acd8f74e-1179-4f12-8f5f-daa9cf0c1331"},"vehicle_type_id":"4","last_reported":1727795357,"current_range_meters":16400,"station_id":"ce4bgl92rcd13ifvqbq0","pricing_plan_id":"cebpf4jnsgd1na2vs0mg"},{"bike_id":"a82a17ae-9571-42cb-8419-10e89282c6b0","system_id":"levelo_inurba_marseille","lat":43.30143,"lon":5.38063,"is_reserved":false,"is_disabled":false,"rental_uris":{"android":"levelo://app?vid=a82a17ae-9571-42cb-8419-10e89282c6b0","ios":"levelo://app?vid=a82a17ae-9571-42cb-8419-10e89282c6b0"},"vehicle_type_id":"4","last_reported":1727795357,"current_range_meters":26000,"station_id":"ce4bgjp2rcd13ifvqbh0","pricing_plan_id":"cebpf4jnsgd1na2vs0mg"},{"bike_id":"9d5cb72e-46ea-4db9-9640-1ef8ef6de092","system_id":"levelo_inurba_marseille","lat":43.23968,"lon":5.36628,"is_reserved":false,"is_disabled":false,"rental_uris":{"android":"levelo://app?vid=9d5cb72e-46ea-4db9-9640-1ef8ef6de092","ios":"levelo://app?vid=9d5cb72e-46ea-4db9-9640-1ef8ef6de092"},"vehicle_type_id":"4","last_reported":1727795357,"current_range_meters":31200,"station_id":"ce4bhi12rcd13ifvqfp0","pricing_plan_id":"cebpf4jnsgd1na2vs0mg"},{"bike_id":"df6c3633-bc05-4cc6-9fc7-c8831364a947","system_id":"levelo_inurba_marseille","lat":43.27812,"lon":5.40713,"is_reserved":false,"is_disabled":false,"rental_uris":{"android":"levelo://app?vid=df6c3633-bc05-4cc6-9fc7-c8831364a947","ios":"levelo://app?vid=df6c3633-bc05-4cc6-9fc7-c8831364a947"},"vehicle_type_id":"4","last_reported":1727795357,"current_range_meters":38800,"station_id":"ce4bhnh2rcd13ifvqgtg","pricing_plan_id":"cebpf4jnsgd1na2vs0mg"},{"bike_id":"1b908b5d-ceba-4e99-b882-bd2c2d396794","system_id":"levelo_inurba_marseille","lat":43.23965,"lon":5.36632,"is_reserved":false,"is_disabled":false,"rental_uris":{"android":"levelo://app?vid=1b908b5d-ceba-4e99-b882-bd2c2d396794","ios":"levelo://app?vid=1b908b5d-ceba-4e99-b882-bd2c2d396794"},"vehicle_type_id":"4","last_reported":1727795357,"current_range_meters":28000,"station_id":"ce4bhi12rcd13ifvqfp0","pricing_plan_id":"cebpf4jnsgd1na2vs0mg"},{"bike_id":"e2744da0-2794-44dc-81e7-d9e2c1acc534","system_id":"levelo_inurba_marseille","lat":43.23968,"lon":5.36631,"is_reserved":false,"is_disabled":false,"rental_uris":{"android":"levelo://app?vid=e2744da0-2794-44dc-81e7-d9e2c1acc534","ios":"levelo://app?vid=e2744da0-2794-44dc-81e7-d9e2c1acc534"},"vehicle_type_id":"4","last_reported":1727795357,"current_range_meters":32400,"station_id":"ce4bhi12rcd13ifvqfp0","pricing_plan_id":"cebpf4jnsgd1na2vs0mg"},{"bike_id":"85050dec-b135-41a8-b16b-176f2138e256","system_id":"levelo_inurba_marseille","lat":43.27679,"lon":5.38873,"is_reserved":false,"is_disabled":false,"rental_uris":{"android":"levelo://app?vid=85050dec-b135-41a8-b16b-176f2138e256","ios":"levelo://app?vid=85050dec-b135-41a8-b16b-176f2138e256"},"vehicle_type_id":"4","last_reported":1727795357,"current_range_meters":22800,"station_id":"ce4bhi12rcd13ifvqfo0","pricing_plan_id":"cebpf4jnsgd1na2vs0mg"},{"bike_id":"831fbbad-3d6d-4368-80fa-d31dc8930ee3","system_id":"levelo_inurba_marseille","lat":43.30357,"lon":5.41882,"is_reserved":false,"is_disabled":false,"rental_uris":{"android":"levelo://app?vid=831fbbad-3d6d-4368-80fa-d31dc8930ee3","ios":"levelo://app?vid=831fbbad-3d6d-4368-80fa-d31dc8930ee3"},"vehicle_type_id":"4","last_reported":1727795357,"current_range_meters":14800,"station_id":"ce4bhop2rcd13ifvqh7g","pricing_plan_id":"cebpf4jnsgd1na2vs0mg"},{"bike_id":"4e16237d-1d38-4b7d-8fbe-c8eb5d1165b4","system_id":"levelo_inurba_marseille","lat":43.28267,"lon":5.35061,"is_reserved":false,"is_disabled":false,"rental_uris":{"android":"levelo://app?vid=4e16237d-1d38-4b7d-8fbe-c8eb5d1165b4","ios":"levelo://app?vid=4e16237d-1d38-4b7d-8fbe-c8eb5d1165b4"},"vehicle_type_id":"4","last_reported":1727795357,"current_range_meters":8400,"station_id":"ce4bhbp2rcd13ifvqerg","pricing_plan_id":"cebpf4jnsgd1na2vs0mg"},{"bike_id":"d58cabb3-ab2f-4ccf-910e-3eb35b569853","system_id":"levelo_inurba_marseille","lat":43.29097,"lon":5.38152,"is_reserved":false,"is_disabled":false,"rental_uris":{"android":"levelo://app?vid=d58cabb3-ab2f-4ccf-910e-3eb35b569853","ios":"levelo://app?vid=d58cabb3-ab2f-4ccf-910e-3eb35b569853"},"vehicle_type_id":"4","last_reported":1727795357,"current_range_meters":4800,"station_id":"ce4bh512rcd13ifvqe2g","pricing_plan_id":"cebpf4jnsgd1na2vs0mg"},{"bike_id":"78f47e7f-dc6f-44fe-ba14-4939f54161ca","system_id":"levelo_inurba_marseille","lat":43.29602,"lon":5.38092,"is_reserved":false,"is_disabled":false,"rental_uris":{"android":"levelo://app?vid=78f47e7f-dc6f-44fe-ba14-4939f54161ca","ios":"levelo://app?vid=78f47e7f-dc6f-44fe-ba14-4939f54161ca"},"vehicle_type_id":"4","last_reported":1727795357,"current_range_meters":24400,"station_id":"ce4bgl12rcd13ifvqbo0","pricing_plan_id":"cebpf4jnsgd1na2vs0mg"},{"bike_id":"469022a3-83f8-4a45-b9c2-99e3c7c84b91","system_id":"levelo_inurba_marseille","lat":43.25086,"lon":5.39517,"is_reserved":false,"is_disabled":false,"rental_uris":{"android":"levelo://app?vid=469022a3-83f8-4a45-b9c2-99e3c7c84b91","ios":"levelo://app?vid=469022a3-83f8-4a45-b9c2-99e3c7c84b91"},"vehicle_type_id":"4","last_reported":1727795357,"current_range_meters":4400,"station_id":"ce4bhm12rcd13ifvqgkg","pricing_plan_id":"cebpf4jnsgd1na2vs0mg"},{"bike_id":"cda7da42-3b1a-4306-ac4b-c0997b8af557","system_id":"levelo_inurba_marseille","lat":43.33024,"lon":5.39034,"is_reserved":false,"is_disabled":false,"rental_uris":{"android":"levelo://app?vid=cda7da42-3b1a-4306-ac4b-c0997b8af557","ios":"levelo://app?vid=cda7da42-3b1a-4306-ac4b-c0997b8af557"},"vehicle_type_id":"4","last_reported":1727795357,"current_range_meters":27200,"station_id":"ce4bhr92rcd13ifvqhrg","pricing_plan_id":"cebpf4jnsgd1na2vs0mg"},{"bike_id":"21c645fe-79cc-4cb9-ae1f-0cf29dd9c45f","system_id":"levelo_inurba_marseille","lat":43.30645,"lon":5.40095,"is_reserved":false,"is_disabled":false,"rental_uris":{"android":"levelo://app?vid=21c645fe-79cc-4cb9-ae1f-0cf29dd9c45f","ios":"levelo://app?vid=21c645fe-79cc-4cb9-ae1f-0cf29dd9c45f"},"vehicle_type_id":"4","last_reported":1727795357,"current_range_meters":26000,"station_id":"ce4bh112rcd13ifvqda0","pricing_plan_id":"cebpf4jnsgd1na2vs0mg"},{"bike_id":"9c73a4e7-6325-476d-9a9b-b77d77cfe6a7","system_id":"levelo_inurba_marseille","lat":43.31075,"lon":5.38348,"is_reserved":false,"is_disabled":false,"rental_uris":{"android":"levelo://app?vid=9c73a4e7-6325-476d-9a9b-b77d77cfe6a7","ios":"levelo://app?vid=9c73a4e7-6325-476d-9a9b-b77d77cfe6a7"},"vehicle_type_id":"4","last_reported":1727795357,"current_range_meters":36000,"station_id":"ce4bgv92rcd13ifvqcr0","pricing_plan_id":"cebpf4jnsgd1na2vs0mg"},{"bike_id":"375983fc-47d6-4783-9140-395d58ae45d0","system_id":"levelo_inurba_marseille","lat":43.288215,"lon":5.36399,"is_reserved":false,"is_disabled":false,"rental_uris":{"android":"levelo://app?vid=375983fc-47d6-4783-9140-395d58ae45d0","ios":"levelo://app?vid=375983fc-47d6-4783-9140-395d58ae45d0"},"vehicle_type_id":"4","last_reported":1727795357,"current_range_meters":4800,"station_id":"","pricing_plan_id":"cebpf4jnsgd1na2vs0mg"},{"bike_id":"1905fe18-e5d0-44e3-8fcd-0a4a58d04d15","system_id":"levelo_inurba_marseille","lat":43.30546,"lon":5.36531,"is_reserved":false,"is_disabled":false,"rental_uris":{"android":"levelo://app?vid=1905fe18-e5d0-44e3-8fcd-0a4a58d04d15","ios":"levelo://app?vid=1905fe18-e5d0-44e3-8fcd-0a4a58d04d15"},"vehicle_type_id":"4","last_reported":1727795357,"current_range_meters":34000,"station_id":"ce4bgs12rcd13ifvqcag","pricing_plan_id":"cebpf4jnsgd1na2vs0mg"},{"bike_id":"db0b98ed-fdde-428c-acbb-1c2eb3885cc5","system_id":"levelo_inurba_marseille","lat":43.25862,"lon":5.39891,"is_reserved":false,"is_disabled":false,"rental_uris":{"android":"levelo://app?vid=db0b98ed-fdde-428c-acbb-1c2eb3885cc5","ios":"levelo://app?vid=db0b98ed-fdde-428c-acbb-1c2eb3885cc5"},"vehicle_type_id":"4","last_reported":1727795357,"current_range_meters":18800,"station_id":"ce4bhl92rcd13ifvqghg","pricing_plan_id":"cebpf4jnsgd1na2vs0mg"},{"bike_id":"03f5dbd3-a28e-4e35-a42d-3d38771abf9c","system_id":"levelo_inurba_marseille","lat":43.24656,"lon":5.38894,"is_reserved":false,"is_disabled":false,"rental_uris":{"android":"levelo://app?vid=03f5dbd3-a28e-4e35-a42d-3d38771abf9c","ios":"levelo://app?vid=03f5dbd3-a28e-4e35-a42d-3d38771abf9c"},"vehicle_type_id":"4","last_reported":1727795357,"current_range_meters":16800,"station_id":"ce4bhg12rcd13ifvqf60","pricing_plan_id":"cebpf4jnsgd1na2vs0mg"},{"bike_id":"9f0e22b3-7ec7-4f79-89e5-a6b2a62dbb97","system_id":"levelo_inurba_marseille","lat":43.29779,"lon":5.37109,"is_reserved":false,"is_disabled":false,"rental_uris":{"android":"levelo://app?vid=9f0e22b3-7ec7-4f79-89e5-a6b2a62dbb97","ios":"levelo://app?vid=9f0e22b3-7ec7-4f79-89e5-a6b2a62dbb97"},"vehicle_type_id":"4","last_reported":1727795357,"current_range_meters":38000,"station_id":"ce4bgop2rcd13ifvqc1g","pricing_plan_id":"cebpf4jnsgd1na2vs0mg"},{"bike_id":"e67c635c-7001-4d24-9975-b0fa6e2b0901","system_id":"levelo_inurba_marseille","lat":43.30206,"lon":5.39804,"is_reserved":false,"is_disabled":false,"rental_uris":{"android":"levelo://app?vid=e67c635c-7001-4d24-9975-b0fa6e2b0901","ios":"levelo://app?vid=e67c635c-7001-4d24-9975-b0fa6e2b0901"},"vehicle_type_id":"4","last_reported":1727795357,"current_range_meters":9200,"station_id":"ce4bgr92rcd13ifvqc7g","pricing_plan_id":"cebpf4jnsgd1na2vs0mg"},{"bike_id":"b4444bec-fcfb-4e6f-938c-5e01ccb0fe2b","system_id":"levelo_inurba_marseille","lat":43.26775,"lon":5.3942,"is_reserved":false,"is_disabled":false,"rental_uris":{"android":"levelo://app?vid=b4444bec-fcfb-4e6f-938c-5e01ccb0fe2b","ios":"levelo://app?vid=b4444bec-fcfb-4e6f-938c-5e01ccb0fe2b"},"vehicle_type_id":"4","last_reported":1727795357,"current_range_meters":13600,"station_id":"ce4bhh12rcd13ifvqfg0","pricing_plan_id":"cebpf4jnsgd1na2vs0mg"},{"bike_id":"c94cb601-e636-4b15-b79f-a560e9be6258","system_id":"levelo_inurba_marseille","lat":43.30789,"lon":5.37646,"is_reserved":false,"is_disabled":false,"rental_uris":{"android":"levelo://app?vid=c94cb601-e636-4b15-b79f-a560e9be6258","ios":"levelo://app?vid=c94cb601-e636-4b15-b79f-a560e9be6258"},"vehicle_type_id":"4","last_reported":1727795357,"current_range_meters":38400,"station_id":"ce4bgv92rcd13ifvqcq0","pricing_plan_id":"cebpf4jnsgd1na2vs0mg"},{"bike_id":"d616de3c-fdcc-449b-aaab-950f4c46fdd3","system_id":"levelo_inurba_marseille","lat":43.32111,"lon":5.36768,"is_reserved":false,"is_disabled":false,"rental_uris":{"android":"levelo://app?vid=d616de3c-fdcc-449b-aaab-950f4c46fdd3","ios":"levelo://app?vid=d616de3c-fdcc-449b-aaab-950f4c46fdd3"},"vehicle_type_id":"4","last_reported":1727795357,"current_range_meters":12000,"station_id":"ce4bhrh2rcd13ifvqhug","pricing_plan_id":"cebpf4jnsgd1na2vs0mg"},{"bike_id":"339388e8-ee6b-4b29-9911-0612c4420461","system_id":"levelo_inurba_marseille","lat":43.337444,"lon":5.374475,"is_reserved":false,"is_disabled":false,"rental_uris":{"android":"levelo://app?vid=339388e8-ee6b-4b29-9911-0612c4420461","ios":"levelo://app?vid=339388e8-ee6b-4b29-9911-0612c4420461"},"vehicle_type_id":"4","last_reported":1727795357,"current_range_meters":36000,"station_id":"","pricing_plan_id":"cebpf4jnsgd1na2vs0mg"},{"bike_id":"10a3bbfb-1748-4608-a0c8-76b3a3a019c2","system_id":"levelo_inurba_marseille","lat":43.31691,"lon":5.40474,"is_reserved":false,"is_disabled":false,"rental_uris":{"android":"levelo://app?vid=10a3bbfb-1748-4608-a0c8-76b3a3a019c2","ios":"levelo://app?vid=10a3bbfb-1748-4608-a0c8-76b3a3a019c2"},"vehicle_type_id":"4","last_reported":1727795357,"current_range_meters":4800,"station_id":"ce4bh012rcd13ifvqd00","pricing_plan_id":"cebpf4jnsgd1na2vs0mg"},{"bike_id":"7fb5d065-2ef8-4492-8b6f-c63a16373982","system_id":"levelo_inurba_marseille","lat":43.30536,"lon":5.36538,"is_reserved":false,"is_disabled":false,"rental_uris":{"android":"levelo://app?vid=7fb5d065-2ef8-4492-8b6f-c63a16373982","ios":"levelo://app?vid=7fb5d065-2ef8-4492-8b6f-c63a16373982"},"vehicle_type_id":"4","last_reported":1727795357,"current_range_meters":38800,"station_id":"ce4bgs12rcd13ifvqcag","pricing_plan_id":"cebpf4jnsgd1na2vs0mg"},{"bike_id":"c2b371ef-f5cc-4da1-98f8-2f78eeb251d9","system_id":"levelo_inurba_marseille","lat":43.24656,"lon":5.38891,"is_reserved":false,"is_disabled":false,"rental_uris":{"android":"levelo://app?vid=c2b371ef-f5cc-4da1-98f8-2f78eeb251d9","ios":"levelo://app?vid=c2b371ef-f5cc-4da1-98f8-2f78eeb251d9"},"vehicle_type_id":"4","last_reported":1727795357,"current_range_meters":14000,"station_id":"ce4bhg12rcd13ifvqf60","pricing_plan_id":"cebpf4jnsgd1na2vs0mg"},{"bike_id":"5bdc1fa4-140d-433c-819d-10b9de658c4f","system_id":"levelo_inurba_marseille","lat":43.26036,"lon":5.37549,"is_reserved":false,"is_disabled":false,"rental_uris":{"android":"levelo://app?vid=5bdc1fa4-140d-433c-819d-10b9de658c4f","ios":"levelo://app?vid=5bdc1fa4-140d-433c-819d-10b9de658c4f"},"vehicle_type_id":"4","last_reported":1727795357,"current_range_meters":24400,"station_id":"ce4bhgh2rcd13ifvqfa0","pricing_plan_id":"cebpf4jnsgd1na2vs0mg"},{"bike_id":"040bd78b-fa30-4801-953b-c0e86d5a27eb","system_id":"levelo_inurba_marseille","lat":43.28267,"lon":5.35066,"is_reserved":false,"is_disabled":false,"rental_uris":{"android":"levelo://app?vid=040bd78b-fa30-4801-953b-c0e86d5a27eb","ios":"levelo://app?vid=040bd78b-fa30-4801-953b-c0e86d5a27eb"},"vehicle_type_id":"4","last_reported":1727795357,"current_range_meters":35200,"station_id":"ce4bhbp2rcd13ifvqerg","pricing_plan_id":"cebpf4jnsgd1na2vs0mg"},{"bike_id":"40edcb91-fe16-4b8a-8f89-0a80104cfb26","system_id":"levelo_inurba_marseille","lat":43.32656,"lon":5.40995,"is_reserved":false,"is_disabled":false,"rental_uris":{"android":"levelo://app?vid=40edcb91-fe16-4b8a-8f89-0a80104cfb26","ios":"levelo://app?vid=40edcb91-fe16-4b8a-8f89-0a80104cfb26"},"vehicle_type_id":"4","last_reported":1727795357,"current_range_meters":19600,"station_id":"ce4bhpp2rcd13ifvqhgg","pricing_plan_id":"cebpf4jnsgd1na2vs0mg"},{"bike_id":"ce631518-8e30-4484-a103-32c5e09bf7d4","system_id":"levelo_inurba_marseille","lat":43.32663,"lon":5.40991,"is_reserved":false,"is_disabled":false,"rental_uris":{"android":"levelo://app?vid=ce631518-8e30-4484-a103-32c5e09bf7d4","ios":"levelo://app?vid=ce631518-8e30-4484-a103-32c5e09bf7d4"},"vehicle_type_id":"4","last_reported":1727795357,"current_range_meters":37600,"station_id":"ce4bhpp2rcd13ifvqhgg","pricing_plan_id":"cebpf4jnsgd1na2vs0mg"},{"bike_id":"0ab1fbf1-ca3f-4716-bb1c-6397ab5f3e1a","system_id":"levelo_inurba_marseille","lat":43.29023,"lon":5.38132,"is_reserved":false,"is_disabled":false,"rental_uris":{"android":"levelo://app?vid=0ab1fbf1-ca3f-4716-bb1c-6397ab5f3e1a","ios":"levelo://app?vid=0ab1fbf1-ca3f-4716-bb1c-6397ab5f3e1a"},"vehicle_type_id":"4","last_reported":1727795357,"current_range_meters":16400,"station_id":"ce4bh4p2rcd13ifvqe1g","pricing_plan_id":"cebpf4jnsgd1na2vs0mg"},{"bike_id":"5d34d44a-5657-4046-9997-746fa7323ea5","system_id":"levelo_inurba_marseille","lat":43.32556,"lon":5.41412,"is_reserved":false,"is_disabled":false,"rental_uris":{"android":"levelo://app?vid=5d34d44a-5657-4046-9997-746fa7323ea5","ios":"levelo://app?vid=5d34d44a-5657-4046-9997-746fa7323ea5"},"vehicle_type_id":"4","last_reported":1727795357,"current_range_meters":36800,"station_id":"ce4bhq12rcd13ifvqhhg","pricing_plan_id":"cebpf4jnsgd1na2vs0mg"},{"bike_id":"948faad4-eee9-44e8-9fcc-310d8f721071","system_id":"levelo_inurba_marseille","lat":43.29839,"lon":5.40383,"is_reserved":false,"is_disabled":false,"rental_uris":{"android":"levelo://app?vid=948faad4-eee9-44e8-9fcc-310d8f721071","ios":"levelo://app?vid=948faad4-eee9-44e8-9fcc-310d8f721071"},"vehicle_type_id":"4","last_reported":1727795357,"current_range_meters":6400,"station_id":"ce4bh112rcd13ifvqd90","pricing_plan_id":"cebpf4jnsgd1na2vs0mg"},{"bike_id":"3bc1ec42-0e43-46f5-aba3-4c7861e3a21d","system_id":"levelo_inurba_marseille","lat":43.30356,"lon":5.41879,"is_reserved":false,"is_disabled":false,"rental_uris":{"android":"levelo://app?vid=3bc1ec42-0e43-46f5-aba3-4c7861e3a21d","ios":"levelo://app?vid=3bc1ec42-0e43-46f5-aba3-4c7861e3a21d"},"vehicle_type_id":"4","last_reported":1727795357,"current_range_meters":21600,"station_id":"ce4bhop2rcd13ifvqh7g","pricing_plan_id":"cebpf4jnsgd1na2vs0mg"},{"bike_id":"04ce1d16-1e9f-4d9c-a81d-799f67649884","system_id":"levelo_inurba_marseille","lat":43.29911,"lon":5.38146,"is_reserved":false,"is_disabled":false,"rental_uris":{"android":"levelo://app?vid=04ce1d16-1e9f-4d9c-a81d-799f67649884","ios":"levelo://app?vid=04ce1d16-1e9f-4d9c-a81d-799f67649884"},"vehicle_type_id":"4","last_reported":1727795357,"current_range_meters":8000,"station_id":"ce4bgj12rcd13ifvqbc0","pricing_plan_id":"cebpf4jnsgd1na2vs0mg"},{"bike_id":"f191da60-b386-4180-8dc4-64dee8d53cf4","system_id":"levelo_inurba_marseille","lat":43.258636,"lon":5.394376,"is_reserved":false,"is_disabled":false,"rental_uris":{"android":"levelo://app?vid=f191da60-b386-4180-8dc4-64dee8d53cf4","ios":"levelo://app?vid=f191da60-b386-4180-8dc4-64dee8d53cf4"},"vehicle_type_id":"4","last_reported":1727795357,"current_range_meters":4000,"station_id":"ce4bhip2rcd13ifvqft0","pricing_plan_id":"cebpf4jnsgd1na2vs0mg"},{"bike_id":"c5de0c6e-3950-403f-bdf2-710227295af7","system_id":"levelo_inurba_marseille","lat":43.29053,"lon":5.35904,"is_reserved":false,"is_disabled":false,"rental_uris":{"android":"levelo://app?vid=c5de0c6e-3950-403f-bdf2-710227295af7","ios":"levelo://app?vid=c5de0c6e-3950-403f-bdf2-710227295af7"},"vehicle_type_id":"4","last_reported":1727795357,"current_range_meters":37600,"station_id":"ce4bha92rcd13ifvqeg0","pricing_plan_id":"cebpf4jnsgd1na2vs0mg"},{"bike_id":"2efe889c-d7f9-441d-afae-d38011cb4d35","system_id":"levelo_inurba_marseille","lat":43.28456,"lon":5.35888,"is_reserved":false,"is_disabled":false,"rental_uris":{"android":"levelo://app?vid=2efe889c-d7f9-441d-afae-d38011cb4d35","ios":"levelo://app?vid=2efe889c-d7f9-441d-afae-d38011cb4d35"},"vehicle_type_id":"4","last_reported":1727795357,"current_range_meters":38800,"station_id":"ce4bhah2rcd13ifvqei0","pricing_plan_id":"cebpf4jnsgd1na2vs0mg"},{"bike_id":"0957ac56-3a38-409c-8c9d-91b787973be1","system_id":"levelo_inurba_marseille","lat":43.26146,"lon":5.37997,"is_reserved":false,"is_disabled":false,"rental_uris":{"android":"levelo://app?vid=0957ac56-3a38-409c-8c9d-91b787973be1","ios":"levelo://app?vid=0957ac56-3a38-409c-8c9d-91b787973be1"},"vehicle_type_id":"4","last_reported":1727795357,"current_range_meters":3200,"station_id":"","pricing_plan_id":"cebpf4jnsgd1na2vs0mg"},{"bike_id":"c40d6421-21cf-45d5-b9b1-13a8caf55dcd","system_id":"levelo_inurba_marseille","lat":43.29529,"lon":5.38552,"is_reserved":false,"is_disabled":false,"rental_uris":{"android":"levelo://app?vid=c40d6421-21cf-45d5-b9b1-13a8caf55dcd","ios":"levelo://app?vid=c40d6421-21cf-45d5-b9b1-13a8caf55dcd"},"vehicle_type_id":"4","last_reported":1727795357,"current_range_meters":27600,"station_id":"ce4bgih2rcd13ifvqba0","pricing_plan_id":"cebpf4jnsgd1na2vs0mg"},{"bike_id":"6b278b46-488d-47f6-8634-c38c24f89490","system_id":"levelo_inurba_marseille","lat":43.28943,"lon":5.36637,"is_reserved":false,"is_disabled":false,"rental_uris":{"android":"levelo://app?vid=6b278b46-488d-47f6-8634-c38c24f89490","ios":"levelo://app?vid=6b278b46-488d-47f6-8634-c38c24f89490"},"vehicle_type_id":"4","last_reported":1727795357,"current_range_meters":7200,"station_id":"ce4bhap2rcd13ifvqek0","pricing_plan_id":"cebpf4jnsgd1na2vs0mg"},{"bike_id":"68a275ca-e417-4665-a64e-885b3d80f51d","system_id":"levelo_inurba_marseille","lat":43.29986,"lon":5.37186,"is_reserved":false,"is_disabled":false,"rental_uris":{"android":"levelo://app?vid=68a275ca-e417-4665-a64e-885b3d80f51d","ios":"levelo://app?vid=68a275ca-e417-4665-a64e-885b3d80f51d"},"vehicle_type_id":"4","last_reported":1727795357,"current_range_meters":8400,"station_id":"ce4bgr92rcd13ifvqc7g","pricing_plan_id":"cebpf4jnsgd1na2vs0mg"},{"bike_id":"65cd5cde-b749-4b1c-afda-db643986848d","system_id":"levelo_inurba_marseille","lat":43.28612,"lon":5.37061,"is_reserved":false,"is_disabled":false,"rental_uris":{"android":"levelo://app?vid=65cd5cde-b749-4b1c-afda-db643986848d","ios":"levelo://app?vid=65cd5cde-b749-4b1c-afda-db643986848d"},"vehicle_type_id":"4","last_reported":1727795357,"current_range_meters":23200,"station_id":"ce4bht12rcd13ifvqi60","pricing_plan_id":"cebpf4jnsgd1na2vs0mg"},{"bike_id":"7e4eb5b3-4625-400f-845f-3c623b656855","system_id":"levelo_inurba_marseille","lat":43.26039,"lon":5.37551,"is_reserved":false,"is_disabled":false,"rental_uris":{"android":"levelo://app?vid=7e4eb5b3-4625-400f-845f-3c623b656855","ios":"levelo://app?vid=7e4eb5b3-4625-400f-845f-3c623b656855"},"vehicle_type_id":"4","last_reported":1727795357,"current_range_meters":33600,"station_id":"ce4bhgh2rcd13ifvqfa0","pricing_plan_id":"cebpf4jnsgd1na2vs0mg"},{"bike_id":"cfdb47d3-1507-413a-a1c8-ccda97b2d99f","system_id":"levelo_inurba_marseille","lat":43.31494,"lon":5.37297,"is_reserved":false,"is_disabled":false,"rental_uris":{"android":"levelo://app?vid=cfdb47d3-1507-413a-a1c8-ccda97b2d99f","ios":"levelo://app?vid=cfdb47d3-1507-413a-a1c8-ccda97b2d99f"},"vehicle_type_id":"4","last_reported":1727795357,"current_range_meters":39200,"station_id":"ce4bgt12rcd13ifvqcd0","pricing_plan_id":"cebpf4jnsgd1na2vs0mg"},{"bike_id":"5c3956ca-7223-40a7-a50f-3e68e5342201","system_id":"levelo_inurba_marseille","lat":43.255873,"lon":5.382382,"is_reserved":false,"is_disabled":false,"rental_uris":{"android":"levelo://app?vid=5c3956ca-7223-40a7-a50f-3e68e5342201","ios":"levelo://app?vid=5c3956ca-7223-40a7-a50f-3e68e5342201"},"vehicle_type_id":"4","last_reported":1727795357,"current_range_meters":6800,"station_id":"ce4bhih2rcd13ifvqfs0","pricing_plan_id":"cebpf4jnsgd1na2vs0mg"},{"bike_id":"1e349418-e962-41e0-836f-f799374a727b","system_id":"levelo_inurba_marseille","lat":43.31074,"lon":5.38353,"is_reserved":false,"is_disabled":false,"rental_uris":{"android":"levelo://app?vid=1e349418-e962-41e0-836f-f799374a727b","ios":"levelo://app?vid=1e349418-e962-41e0-836f-f799374a727b"},"vehicle_type_id":"4","last_reported":1727795357,"current_range_meters":9600,"station_id":"ce4bgv92rcd13ifvqcr0","pricing_plan_id":"cebpf4jnsgd1na2vs0mg"},{"bike_id":"5469c3d7-ba48-4891-8a2f-bb2dae2eddee","system_id":"levelo_inurba_marseille","lat":43.31075,"lon":5.38352,"is_reserved":false,"is_disabled":false,"rental_uris":{"android":"levelo://app?vid=5469c3d7-ba48-4891-8a2f-bb2dae2eddee","ios":"levelo://app?vid=5469c3d7-ba48-4891-8a2f-bb2dae2eddee"},"vehicle_type_id":"4","last_reported":1727795357,"current_range_meters":5600,"station_id":"ce4bgv92rcd13ifvqcr0","pricing_plan_id":"cebpf4jnsgd1na2vs0mg"},{"bike_id":"719a9246-11dd-475b-bc1d-756c4388b514","system_id":"levelo_inurba_marseille","lat":43.29573,"lon":5.39974,"is_reserved":false,"is_disabled":false,"rental_uris":{"android":"levelo://app?vid=719a9246-11dd-475b-bc1d-756c4388b514","ios":"levelo://app?vid=719a9246-11dd-475b-bc1d-756c4388b514"},"vehicle_type_id":"4","last_reported":1727795357,"current_range_meters":6800,"station_id":"ce4bh312rcd13ifvqdj0","pricing_plan_id":"cebpf4jnsgd1na2vs0mg"},{"bike_id":"28809a6e-4096-48c0-bea1-aa2773ce8289","system_id":"levelo_inurba_marseille","lat":43.31116,"lon":5.37775,"is_reserved":false,"is_disabled":false,"rental_uris":{"android":"levelo://app?vid=28809a6e-4096-48c0-bea1-aa2773ce8289","ios":"levelo://app?vid=28809a6e-4096-48c0-bea1-aa2773ce8289"},"vehicle_type_id":"4","last_reported":1727795357,"current_range_meters":23200,"station_id":"ce4bgt92rcd13ifvqcg0","pricing_plan_id":"cebpf4jnsgd1na2vs0mg"},{"bike_id":"8d981272-6513-4f08-b590-1edca1d05d63","system_id":"levelo_inurba_marseille","lat":43.27767,"lon":5.38826,"is_reserved":false,"is_disabled":false,"rental_uris":{"android":"levelo://app?vid=8d981272-6513-4f08-b590-1edca1d05d63","ios":"levelo://app?vid=8d981272-6513-4f08-b590-1edca1d05d63"},"vehicle_type_id":"4","last_reported":1727795357,"current_range_meters":12000,"station_id":"ce4bhi12rcd13ifvqfo0","pricing_plan_id":"cebpf4jnsgd1na2vs0mg"},{"bike_id":"8f88394a-eef4-4885-b5bd-8c38a1dc13f5","system_id":"levelo_inurba_marseille","lat":43.31079,"lon":5.38369,"is_reserved":false,"is_disabled":false,"rental_uris":{"android":"levelo://app?vid=8f88394a-eef4-4885-b5bd-8c38a1dc13f5","ios":"levelo://app?vid=8f88394a-eef4-4885-b5bd-8c38a1dc13f5"},"vehicle_type_id":"4","last_reported":1727795357,"current_range_meters":16000,"station_id":"ce4bgv92rcd13ifvqcr0","pricing_plan_id":"cebpf4jnsgd1na2vs0mg"},{"bike_id":"a7382c38-586b-4b5c-8530-e1282870af04","system_id":"levelo_inurba_marseille","lat":43.22848,"lon":5.40115,"is_reserved":false,"is_disabled":false,"rental_uris":{"android":"levelo://app?vid=a7382c38-586b-4b5c-8530-e1282870af04","ios":"levelo://app?vid=a7382c38-586b-4b5c-8530-e1282870af04"},"vehicle_type_id":"4","last_reported":1727795357,"current_range_meters":32000,"station_id":"ce4bhn12rcd13ifvqgqg","pricing_plan_id":"cebpf4jnsgd1na2vs0mg"},{"bike_id":"f8f518e3-bd48-40f5-801a-4ead88758ee2","system_id":"levelo_inurba_marseille","lat":43.32116,"lon":5.36769,"is_reserved":false,"is_disabled":false,"rental_uris":{"android":"levelo://app?vid=f8f518e3-bd48-40f5-801a-4ead88758ee2","ios":"levelo://app?vid=f8f518e3-bd48-40f5-801a-4ead88758ee2"},"vehicle_type_id":"4","last_reported":1727795357,"current_range_meters":15200,"station_id":"ce4bhrh2rcd13ifvqhug","pricing_plan_id":"cebpf4jnsgd1na2vs0mg"},{"bike_id":"70ae9720-f92c-484c-9948-9ac04a2d04b3","system_id":"levelo_inurba_marseille","lat":43.27176,"lon":5.40996,"is_reserved":false,"is_disabled":false,"rental_uris":{"android":"levelo://app?vid=70ae9720-f92c-484c-9948-9ac04a2d04b3","ios":"levelo://app?vid=70ae9720-f92c-484c-9948-9ac04a2d04b3"},"vehicle_type_id":"4","last_reported":1727795357,"current_range_meters":16000,"station_id":"ce4bhl12rcd13ifvqgf0","pricing_plan_id":"cebpf4jnsgd1na2vs0mg"},{"bike_id":"774c49d5-a927-4f88-9af6-b31228b03f2d","system_id":"levelo_inurba_marseille","lat":43.28849,"lon":5.39319,"is_reserved":false,"is_disabled":false,"rental_uris":{"android":"levelo://app?vid=774c49d5-a927-4f88-9af6-b31228b03f2d","ios":"levelo://app?vid=774c49d5-a927-4f88-9af6-b31228b03f2d"},"vehicle_type_id":"4","last_reported":1727795357,"current_range_meters":26000,"station_id":"ce4bh2p2rcd13ifvqdi0","pricing_plan_id":"cebpf4jnsgd1na2vs0mg"},{"bike_id":"d997a8a4-a9b5-42f3-9ebe-b0d80c616193","system_id":"levelo_inurba_marseille","lat":43.28456,"lon":5.35883,"is_reserved":false,"is_disabled":false,"rental_uris":{"android":"levelo://app?vid=d997a8a4-a9b5-42f3-9ebe-b0d80c616193","ios":"levelo://app?vid=d997a8a4-a9b5-42f3-9ebe-b0d80c616193"},"vehicle_type_id":"4","last_reported":1727795357,"current_range_meters":38800,"station_id":"ce4bhah2rcd13ifvqei0","pricing_plan_id":"cebpf4jnsgd1na2vs0mg"},{"bike_id":"410644d8-520b-4b38-8e29-0e0374c810a9","system_id":"levelo_inurba_marseille","lat":43.31358,"lon":5.36707,"is_reserved":false,"is_disabled":false,"rental_uris":{"android":"levelo://app?vid=410644d8-520b-4b38-8e29-0e0374c810a9","ios":"levelo://app?vid=410644d8-520b-4b38-8e29-0e0374c810a9"},"vehicle_type_id":"4","last_reported":1727795357,"current_range_meters":36000,"station_id":"ce4bgr92rcd13ifvqc6g","pricing_plan_id":"cebpf4jnsgd1na2vs0mg"},{"bike_id":"b460353a-7650-46f1-b2e1-267d6a72915b","system_id":"levelo_inurba_marseille","lat":43.29779,"lon":5.37124,"is_reserved":false,"is_disabled":false,"rental_uris":{"android":"levelo://app?vid=b460353a-7650-46f1-b2e1-267d6a72915b","ios":"levelo://app?vid=b460353a-7650-46f1-b2e1-267d6a72915b"},"vehicle_type_id":"4","last_reported":1727795357,"current_range_meters":19600,"station_id":"ce4bgop2rcd13ifvqc1g","pricing_plan_id":"cebpf4jnsgd1na2vs0mg"},{"bike_id":"c12284a0-8f47-4e70-953a-e15ecd1cc9a7","system_id":"levelo_inurba_marseille","lat":43.29845,"lon":5.36271,"is_reserved":false,"is_disabled":false,"rental_uris":{"android":"levelo://app?vid=c12284a0-8f47-4e70-953a-e15ecd1cc9a7","ios":"levelo://app?vid=c12284a0-8f47-4e70-953a-e15ecd1cc9a7"},"vehicle_type_id":"4","last_reported":1727795357,"current_range_meters":23200,"station_id":"ce4bgpp2rcd13ifvqc3g","pricing_plan_id":"cebpf4jnsgd1na2vs0mg"},{"bike_id":"e3f793ca-0908-4daa-a14c-05f739648869","system_id":"levelo_inurba_marseille","lat":43.3013,"lon":5.39865,"is_reserved":false,"is_disabled":false,"rental_uris":{"android":"levelo://app?vid=e3f793ca-0908-4daa-a14c-05f739648869","ios":"levelo://app?vid=e3f793ca-0908-4daa-a14c-05f739648869"},"vehicle_type_id":"4","last_reported":1727795357,"current_range_meters":9600,"station_id":"ce4bh0h2rcd13ifvqd40","pricing_plan_id":"cebpf4jnsgd1na2vs0mg"},{"bike_id":"3091fe24-8504-4a68-8bed-29c9141f12d9","system_id":"levelo_inurba_marseille","lat":43.23183,"lon":5.39991,"is_reserved":false,"is_disabled":false,"rental_uris":{"android":"levelo://app?vid=3091fe24-8504-4a68-8bed-29c9141f12d9","ios":"levelo://app?vid=3091fe24-8504-4a68-8bed-29c9141f12d9"},"vehicle_type_id":"4","last_reported":1727795357,"current_range_meters":17200,"station_id":"ce4bhn12rcd13ifvqgqg","pricing_plan_id":"cebpf4jnsgd1na2vs0mg"},{"bike_id":"d995d233-d2fe-4db9-b69b-baa1337469bf","system_id":"levelo_inurba_marseille","lat":43.267193,"lon":5.40134,"is_reserved":false,"is_disabled":false,"rental_uris":{"android":"levelo://app?vid=d995d233-d2fe-4db9-b69b-baa1337469bf","ios":"levelo://app?vid=d995d233-d2fe-4db9-b69b-baa1337469bf"},"vehicle_type_id":"4","last_reported":1727795357,"current_range_meters":12800,"station_id":"ce4bhm92rcd13ifvqglg","pricing_plan_id":"cebpf4jnsgd1na2vs0mg"},{"bike_id":"578909e4-6a59-4172-b406-c9f29880a640","system_id":"levelo_inurba_marseille","lat":43.30429,"lon":5.38891,"is_reserved":false,"is_disabled":false,"rental_uris":{"android":"levelo://app?vid=578909e4-6a59-4172-b406-c9f29880a640","ios":"levelo://app?vid=578909e4-6a59-4172-b406-c9f29880a640"},"vehicle_type_id":"4","last_reported":1727795357,"current_range_meters":19200,"station_id":"ce4bgk12rcd13ifvqbi0","pricing_plan_id":"cebpf4jnsgd1na2vs0mg"},{"bike_id":"d473a807-4e52-4890-b601-5304dd9b37c8","system_id":"levelo_inurba_marseille","lat":43.269578,"lon":5.386278,"is_reserved":false,"is_disabled":false,"rental_uris":{"android":"levelo://app?vid=d473a807-4e52-4890-b601-5304dd9b37c8","ios":"levelo://app?vid=d473a807-4e52-4890-b601-5304dd9b37c8"},"vehicle_type_id":"4","last_reported":1727795357,"current_range_meters":38000,"station_id":"ce4bhh92rcd13ifvqfh0","pricing_plan_id":"cebpf4jnsgd1na2vs0mg"},{"bike_id":"bfb89491-a14b-4099-955e-5c289d27bd6a","system_id":"levelo_inurba_marseille","lat":43.24646,"lon":5.3889,"is_reserved":false,"is_disabled":false,"rental_uris":{"android":"levelo://app?vid=bfb89491-a14b-4099-955e-5c289d27bd6a","ios":"levelo://app?vid=bfb89491-a14b-4099-955e-5c289d27bd6a"},"vehicle_type_id":"4","last_reported":1727795357,"current_range_meters":24000,"station_id":"ce4bhg12rcd13ifvqf60","pricing_plan_id":"cebpf4jnsgd1na2vs0mg"},{"bike_id":"a0b07b7c-5757-458f-a27a-60cb7b5aaa42","system_id":"levelo_inurba_marseille","lat":43.30309,"lon":5.36904,"is_reserved":false,"is_disabled":false,"rental_uris":{"android":"levelo://app?vid=a0b07b7c-5757-458f-a27a-60cb7b5aaa42","ios":"levelo://app?vid=a0b07b7c-5757-458f-a27a-60cb7b5aaa42"},"vehicle_type_id":"4","last_reported":1727795357,"current_range_meters":38800,"station_id":"ce4bgqh2rcd13ifvqc5g","pricing_plan_id":"cebpf4jnsgd1na2vs0mg"},{"bike_id":"eed2ff29-0686-4e8d-8959-4ed55c834a6a","system_id":"levelo_inurba_marseille","lat":43.23962,"lon":5.36638,"is_reserved":false,"is_disabled":false,"rental_uris":{"android":"levelo://app?vid=eed2ff29-0686-4e8d-8959-4ed55c834a6a","ios":"levelo://app?vid=eed2ff29-0686-4e8d-8959-4ed55c834a6a"},"vehicle_type_id":"4","last_reported":1727795357,"current_range_meters":18800,"station_id":"ce4bhi12rcd13ifvqfp0","pricing_plan_id":"cebpf4jnsgd1na2vs0mg"},{"bike_id":"d609dda2-9e88-492a-9ec1-1ee759ae8664","system_id":"levelo_inurba_marseille","lat":43.33025,"lon":5.39039,"is_reserved":false,"is_disabled":false,"rental_uris":{"android":"levelo://app?vid=d609dda2-9e88-492a-9ec1-1ee759ae8664","ios":"levelo://app?vid=d609dda2-9e88-492a-9ec1-1ee759ae8664"},"vehicle_type_id":"4","last_reported":1727795357,"current_range_meters":16800,"station_id":"ce4bhr92rcd13ifvqhrg","pricing_plan_id":"cebpf4jnsgd1na2vs0mg"},{"bike_id":"f4f2bee5-a614-4eba-902f-4461c57a166a","system_id":"levelo_inurba_marseille","lat":43.28463,"lon":5.35888,"is_reserved":false,"is_disabled":false,"rental_uris":{"android":"levelo://app?vid=f4f2bee5-a614-4eba-902f-4461c57a166a","ios":"levelo://app?vid=f4f2bee5-a614-4eba-902f-4461c57a166a"},"vehicle_type_id":"4","last_reported":1727795357,"current_range_meters":35600,"station_id":"ce4bhah2rcd13ifvqei0","pricing_plan_id":"cebpf4jnsgd1na2vs0mg"},{"bike_id":"b652f429-09b8-4697-9c1b-3b9adc3c55d8","system_id":"levelo_inurba_marseille","lat":43.26871,"lon":5.39135,"is_reserved":false,"is_disabled":false,"rental_uris":{"android":"levelo://app?vid=b652f429-09b8-4697-9c1b-3b9adc3c55d8","ios":"levelo://app?vid=b652f429-09b8-4697-9c1b-3b9adc3c55d8"},"vehicle_type_id":"4","last_reported":1727795357,"current_range_meters":7200,"station_id":"","pricing_plan_id":"cebpf4jnsgd1na2vs0mg"},{"bike_id":"985bac8d-1f76-43f4-825f-01fe1f917aae","system_id":"levelo_inurba_marseille","lat":43.32046,"lon":5.41562,"is_reserved":false,"is_disabled":false,"rental_uris":{"android":"levelo://app?vid=985bac8d-1f76-43f4-825f-01fe1f917aae","ios":"levelo://app?vid=985bac8d-1f76-43f4-825f-01fe1f917aae"},"vehicle_type_id":"4","last_reported":1727795357,"current_range_meters":38800,"station_id":"ce4bhq92rcd13ifvqhkg","pricing_plan_id":"cebpf4jnsgd1na2vs0mg"},{"bike_id":"63948fa4-ae6d-4866-abff-02440e87cd47","system_id":"levelo_inurba_marseille","lat":43.24394,"lon":5.37054,"is_reserved":false,"is_disabled":false,"rental_uris":{"android":"levelo://app?vid=63948fa4-ae6d-4866-abff-02440e87cd47","ios":"levelo://app?vid=63948fa4-ae6d-4866-abff-02440e87cd47"},"vehicle_type_id":"4","last_reported":1727795357,"current_range_meters":36400,"station_id":"ce4bhhh2rcd13ifvqfk0","pricing_plan_id":"cebpf4jnsgd1na2vs0mg"},{"bike_id":"a9ad4a0b-58d4-4c26-b7a5-c30c9270256f","system_id":"levelo_inurba_marseille","lat":43.295302,"lon":5.385498,"is_reserved":false,"is_disabled":false,"rental_uris":{"android":"levelo://app?vid=a9ad4a0b-58d4-4c26-b7a5-c30c9270256f","ios":"levelo://app?vid=a9ad4a0b-58d4-4c26-b7a5-c30c9270256f"},"vehicle_type_id":"4","last_reported":1727795357,"current_range_meters":5600,"station_id":"ce4bgih2rcd13ifvqba0","pricing_plan_id":"cebpf4jnsgd1na2vs0mg"},{"bike_id":"fb9be45f-63c7-47cd-b2da-4ca1e0927bd9","system_id":"levelo_inurba_marseille","lat":43.30151,"lon":5.37215,"is_reserved":false,"is_disabled":false,"rental_uris":{"android":"levelo://app?vid=fb9be45f-63c7-47cd-b2da-4ca1e0927bd9","ios":"levelo://app?vid=fb9be45f-63c7-47cd-b2da-4ca1e0927bd9"},"vehicle_type_id":"4","last_reported":1727795357,"current_range_meters":24400,"station_id":"","pricing_plan_id":"cebpf4jnsgd1na2vs0mg"},{"bike_id":"7a8b241f-57ad-4336-b3e1-9209d3fac587","system_id":"levelo_inurba_marseille","lat":43.31362,"lon":5.36704,"is_reserved":false,"is_disabled":false,"rental_uris":{"android":"levelo://app?vid=7a8b241f-57ad-4336-b3e1-9209d3fac587","ios":"levelo://app?vid=7a8b241f-57ad-4336-b3e1-9209d3fac587"},"vehicle_type_id":"4","last_reported":1727795357,"current_range_meters":38800,"station_id":"ce4bgr92rcd13ifvqc6g","pricing_plan_id":"cebpf4jnsgd1na2vs0mg"},{"bike_id":"4bee9dbb-54ee-42eb-82e9-21670ffbeb38","system_id":"levelo_inurba_marseille","lat":43.28273,"lon":5.35064,"is_reserved":false,"is_disabled":false,"rental_uris":{"android":"levelo://app?vid=4bee9dbb-54ee-42eb-82e9-21670ffbeb38","ios":"levelo://app?vid=4bee9dbb-54ee-42eb-82e9-21670ffbeb38"},"vehicle_type_id":"4","last_reported":1727795357,"current_range_meters":38800,"station_id":"ce4bhbp2rcd13ifvqerg","pricing_plan_id":"cebpf4jnsgd1na2vs0mg"},{"bike_id":"dbe7ec0d-3b5f-4d67-b97d-6e69abf2caf2","system_id":"levelo_inurba_marseille","lat":43.30884,"lon":5.39655,"is_reserved":false,"is_disabled":false,"rental_uris":{"android":"levelo://app?vid=dbe7ec0d-3b5f-4d67-b97d-6e69abf2caf2","ios":"levelo://app?vid=dbe7ec0d-3b5f-4d67-b97d-6e69abf2caf2"},"vehicle_type_id":"4","last_reported":1727795357,"current_range_meters":16400,"station_id":"ce4bh012rcd13ifvqcv0","pricing_plan_id":"cebpf4jnsgd1na2vs0mg"},{"bike_id":"5fa9c215-424f-4618-b2bb-cd292ed69762","system_id":"levelo_inurba_marseille","lat":43.31491,"lon":5.37305,"is_reserved":false,"is_disabled":false,"rental_uris":{"android":"levelo://app?vid=5fa9c215-424f-4618-b2bb-cd292ed69762","ios":"levelo://app?vid=5fa9c215-424f-4618-b2bb-cd292ed69762"},"vehicle_type_id":"4","last_reported":1727795357,"current_range_meters":20000,"station_id":"ce4bgt12rcd13ifvqcd0","pricing_plan_id":"cebpf4jnsgd1na2vs0mg"},{"bike_id":"44a93707-b65d-4c32-89ff-0da412159668","system_id":"levelo_inurba_marseille","lat":43.30356,"lon":5.41878,"is_reserved":false,"is_disabled":false,"rental_uris":{"android":"levelo://app?vid=44a93707-b65d-4c32-89ff-0da412159668","ios":"levelo://app?vid=44a93707-b65d-4c32-89ff-0da412159668"},"vehicle_type_id":"4","last_reported":1727795357,"current_range_meters":22000,"station_id":"ce4bhop2rcd13ifvqh7g","pricing_plan_id":"cebpf4jnsgd1na2vs0mg"},{"bike_id":"2a289f96-5117-462c-af43-17c64d0bb5db","system_id":"levelo_inurba_marseille","lat":43.26554,"lon":5.37285,"is_reserved":false,"is_disabled":false,"rental_uris":{"android":"levelo://app?vid=2a289f96-5117-462c-af43-17c64d0bb5db","ios":"levelo://app?vid=2a289f96-5117-462c-af43-17c64d0bb5db"},"vehicle_type_id":"4","last_reported":1727795357,"current_range_meters":20000,"station_id":"ce4bhg12rcd13ifvqf70","pricing_plan_id":"cebpf4jnsgd1na2vs0mg"},{"bike_id":"37c45047-cced-450c-aec8-c35bfcec891b","system_id":"levelo_inurba_marseille","lat":43.30183,"lon":5.36622,"is_reserved":false,"is_disabled":false,"rental_uris":{"android":"levelo://app?vid=37c45047-cced-450c-aec8-c35bfcec891b","ios":"levelo://app?vid=37c45047-cced-450c-aec8-c35bfcec891b"},"vehicle_type_id":"4","last_reported":1727795357,"current_range_meters":31200,"station_id":"ce4bgrh2rcd13ifvqc8g","pricing_plan_id":"cebpf4jnsgd1na2vs0mg"},{"bike_id":"36199184-0723-4c1a-a64f-c0f6b2a92f46","system_id":"levelo_inurba_marseille","lat":43.23963,"lon":5.36642,"is_reserved":false,"is_disabled":false,"rental_uris":{"android":"levelo://app?vid=36199184-0723-4c1a-a64f-c0f6b2a92f46","ios":"levelo://app?vid=36199184-0723-4c1a-a64f-c0f6b2a92f46"},"vehicle_type_id":"4","last_reported":1727795357,"current_range_meters":28000,"station_id":"ce4bhi12rcd13ifvqfp0","pricing_plan_id":"cebpf4jnsgd1na2vs0mg"},{"bike_id":"d263b1ca-44c0-4a5d-bcb5-f5e28ad9f530","system_id":"levelo_inurba_marseille","lat":43.23961,"lon":5.36639,"is_reserved":false,"is_disabled":false,"rental_uris":{"android":"levelo://app?vid=d263b1ca-44c0-4a5d-bcb5-f5e28ad9f530","ios":"levelo://app?vid=d263b1ca-44c0-4a5d-bcb5-f5e28ad9f530"},"vehicle_type_id":"4","last_reported":1727795357,"current_range_meters":26800,"station_id":"ce4bhi12rcd13ifvqfp0","pricing_plan_id":"cebpf4jnsgd1na2vs0mg"},{"bike_id":"89ebe2e5-a816-488b-a8eb-b25125320b93","system_id":"levelo_inurba_marseille","lat":43.29526,"lon":5.38551,"is_reserved":false,"is_disabled":false,"rental_uris":{"android":"levelo://app?vid=89ebe2e5-a816-488b-a8eb-b25125320b93","ios":"levelo://app?vid=89ebe2e5-a816-488b-a8eb-b25125320b93"},"vehicle_type_id":"4","last_reported":1727795357,"current_range_meters":12800,"station_id":"ce4bgih2rcd13ifvqba0","pricing_plan_id":"cebpf4jnsgd1na2vs0mg"},{"bike_id":"13b71d2f-3cb6-47ed-a1e4-e23f09f8eb07","system_id":"levelo_inurba_marseille","lat":43.2656,"lon":5.37284,"is_reserved":false,"is_disabled":false,"rental_uris":{"android":"levelo://app?vid=13b71d2f-3cb6-47ed-a1e4-e23f09f8eb07","ios":"levelo://app?vid=13b71d2f-3cb6-47ed-a1e4-e23f09f8eb07"},"vehicle_type_id":"4","last_reported":1727795357,"current_range_meters":22000,"station_id":"ce4bhg12rcd13ifvqf70","pricing_plan_id":"cebpf4jnsgd1na2vs0mg"},{"bike_id":"4f04f60f-e66b-49d6-89b0-44a4e9adf7ff","system_id":"levelo_inurba_marseille","lat":43.27807,"lon":5.40706,"is_reserved":false,"is_disabled":false,"rental_uris":{"android":"levelo://app?vid=4f04f60f-e66b-49d6-89b0-44a4e9adf7ff","ios":"levelo://app?vid=4f04f60f-e66b-49d6-89b0-44a4e9adf7ff"},"vehicle_type_id":"4","last_reported":1727795357,"current_range_meters":27600,"station_id":"ce4bhnh2rcd13ifvqgtg","pricing_plan_id":"cebpf4jnsgd1na2vs0mg"},{"bike_id":"1fa5247a-6936-40fa-90ac-bff1cb2e50ec","system_id":"levelo_inurba_marseille","lat":43.32027,"lon":5.41488,"is_reserved":false,"is_disabled":false,"rental_uris":{"android":"levelo://app?vid=1fa5247a-6936-40fa-90ac-bff1cb2e50ec","ios":"levelo://app?vid=1fa5247a-6936-40fa-90ac-bff1cb2e50ec"},"vehicle_type_id":"4","last_reported":1727795357,"current_range_meters":24800,"station_id":"","pricing_plan_id":"cebpf4jnsgd1na2vs0mg"},{"bike_id":"4158dfa0-734d-4050-bbb4-c1d838b33c7b","system_id":"levelo_inurba_marseille","lat":43.25582,"lon":5.3823,"is_reserved":false,"is_disabled":false,"rental_uris":{"android":"levelo://app?vid=4158dfa0-734d-4050-bbb4-c1d838b33c7b","ios":"levelo://app?vid=4158dfa0-734d-4050-bbb4-c1d838b33c7b"},"vehicle_type_id":"4","last_reported":1727795357,"current_range_meters":8400,"station_id":"ce4bhih2rcd13ifvqfs0","pricing_plan_id":"cebpf4jnsgd1na2vs0mg"},{"bike_id":"e47d8b5f-6f7d-401a-8617-51b7d9b65561","system_id":"levelo_inurba_marseille","lat":43.32181,"lon":5.38688,"is_reserved":false,"is_disabled":false,"rental_uris":{"android":"levelo://app?vid=e47d8b5f-6f7d-401a-8617-51b7d9b65561","ios":"levelo://app?vid=e47d8b5f-6f7d-401a-8617-51b7d9b65561"},"vehicle_type_id":"4","last_reported":1727795357,"current_range_meters":16000,"station_id":"","pricing_plan_id":"cebpf4jnsgd1na2vs0mg"},{"bike_id":"8285e12c-f1c8-48e3-95f3-24c0916dff26","system_id":"levelo_inurba_marseille","lat":43.31887,"lon":5.40739,"is_reserved":false,"is_disabled":false,"rental_uris":{"android":"levelo://app?vid=8285e12c-f1c8-48e3-95f3-24c0916dff26","ios":"levelo://app?vid=8285e12c-f1c8-48e3-95f3-24c0916dff26"},"vehicle_type_id":"4","last_reported":1727795357,"current_range_meters":22000,"station_id":"ce4bhq12rcd13ifvqhig","pricing_plan_id":"cebpf4jnsgd1na2vs0mg"},{"bike_id":"38acf3db-3d60-41d3-8ff0-d208eac66c2b","system_id":"levelo_inurba_marseille","lat":43.29937,"lon":5.36533,"is_reserved":false,"is_disabled":false,"rental_uris":{"android":"levelo://app?vid=38acf3db-3d60-41d3-8ff0-d208eac66c2b","ios":"levelo://app?vid=38acf3db-3d60-41d3-8ff0-d208eac66c2b"},"vehicle_type_id":"4","last_reported":1727795357,"current_range_meters":32800,"station_id":"ce4bgm92rcd13ifvqbr0","pricing_plan_id":"cebpf4jnsgd1na2vs0mg"},{"bike_id":"2c301888-1b61-4a0d-a4e3-d1b876c157be","system_id":"levelo_inurba_marseille","lat":43.3107,"lon":5.38349,"is_reserved":false,"is_disabled":false,"rental_uris":{"android":"levelo://app?vid=2c301888-1b61-4a0d-a4e3-d1b876c157be","ios":"levelo://app?vid=2c301888-1b61-4a0d-a4e3-d1b876c157be"},"vehicle_type_id":"4","last_reported":1727795357,"current_range_meters":36800,"station_id":"ce4bgv92rcd13ifvqcr0","pricing_plan_id":"cebpf4jnsgd1na2vs0mg"},{"bike_id":"0cafb3c3-099c-4d3a-b87e-07ed5d9911b3","system_id":"levelo_inurba_marseille","lat":43.26575,"lon":5.38997,"is_reserved":false,"is_disabled":false,"rental_uris":{"android":"levelo://app?vid=0cafb3c3-099c-4d3a-b87e-07ed5d9911b3","ios":"levelo://app?vid=0cafb3c3-099c-4d3a-b87e-07ed5d9911b3"},"vehicle_type_id":"4","last_reported":1727795357,"current_range_meters":34800,"station_id":"ce4bhe12rcd13ifvqf30","pricing_plan_id":"cebpf4jnsgd1na2vs0mg"},{"bike_id":"30c031af-50c9-46a7-b595-f934f2b6f0a1","system_id":"levelo_inurba_marseille","lat":43.29618,"lon":5.37725,"is_reserved":false,"is_disabled":false,"rental_uris":{"android":"levelo://app?vid=30c031af-50c9-46a7-b595-f934f2b6f0a1","ios":"levelo://app?vid=30c031af-50c9-46a7-b595-f934f2b6f0a1"},"vehicle_type_id":"4","last_reported":1727795357,"current_range_meters":10000,"station_id":"ce4bgi92rcd13ifvqb90","pricing_plan_id":"cebpf4jnsgd1na2vs0mg"},{"bike_id":"9a21a4c9-180f-4f47-bcf0-49773d54b090","system_id":"levelo_inurba_marseille","lat":43.31226,"lon":5.3686,"is_reserved":false,"is_disabled":false,"rental_uris":{"android":"levelo://app?vid=9a21a4c9-180f-4f47-bcf0-49773d54b090","ios":"levelo://app?vid=9a21a4c9-180f-4f47-bcf0-49773d54b090"},"vehicle_type_id":"4","last_reported":1727795357,"current_range_meters":38800,"station_id":"ce4bgl92rcd13ifvqbq0","pricing_plan_id":"cebpf4jnsgd1na2vs0mg"},{"bike_id":"f482b811-60c5-4cb4-be69-55c1c230887b","system_id":"levelo_inurba_marseille","lat":43.28459,"lon":5.35889,"is_reserved":false,"is_disabled":false,"rental_uris":{"android":"levelo://app?vid=f482b811-60c5-4cb4-be69-55c1c230887b","ios":"levelo://app?vid=f482b811-60c5-4cb4-be69-55c1c230887b"},"vehicle_type_id":"4","last_reported":1727795357,"current_range_meters":33200,"station_id":"ce4bhah2rcd13ifvqei0","pricing_plan_id":"cebpf4jnsgd1na2vs0mg"},{"bike_id":"984b91a1-fe3e-4016-b94a-068fe2eb3242","system_id":"levelo_inurba_marseille","lat":43.32658,"lon":5.40995,"is_reserved":false,"is_disabled":false,"rental_uris":{"android":"levelo://app?vid=984b91a1-fe3e-4016-b94a-068fe2eb3242","ios":"levelo://app?vid=984b91a1-fe3e-4016-b94a-068fe2eb3242"},"vehicle_type_id":"4","last_reported":1727795357,"current_range_meters":12000,"station_id":"ce4bhpp2rcd13ifvqhgg","pricing_plan_id":"cebpf4jnsgd1na2vs0mg"},{"bike_id":"54ca0136-db60-4f3e-b5fd-56086188d800","system_id":"levelo_inurba_marseille","lat":43.2953,"lon":5.38543,"is_reserved":false,"is_disabled":false,"rental_uris":{"android":"levelo://app?vid=54ca0136-db60-4f3e-b5fd-56086188d800","ios":"levelo://app?vid=54ca0136-db60-4f3e-b5fd-56086188d800"},"vehicle_type_id":"4","last_reported":1727795357,"current_range_meters":33600,"station_id":"ce4bgih2rcd13ifvqba0","pricing_plan_id":"cebpf4jnsgd1na2vs0mg"},{"bike_id":"07b3d0f2-2c96-4b5b-b2db-a4f9571b531d","system_id":"levelo_inurba_marseille","lat":43.28939,"lon":5.39629,"is_reserved":false,"is_disabled":false,"rental_uris":{"android":"levelo://app?vid=07b3d0f2-2c96-4b5b-b2db-a4f9571b531d","ios":"levelo://app?vid=07b3d0f2-2c96-4b5b-b2db-a4f9571b531d"},"vehicle_type_id":"4","last_reported":1727795357,"current_range_meters":9600,"station_id":"ce4bh3h2rcd13ifvqdn0","pricing_plan_id":"cebpf4jnsgd1na2vs0mg"},{"bike_id":"3a5dc3fd-5531-4af9-ae8b-0ede616a22b3","system_id":"levelo_inurba_marseille","lat":43.23187,"lon":5.39976,"is_reserved":false,"is_disabled":false,"rental_uris":{"android":"levelo://app?vid=3a5dc3fd-5531-4af9-ae8b-0ede616a22b3","ios":"levelo://app?vid=3a5dc3fd-5531-4af9-ae8b-0ede616a22b3"},"vehicle_type_id":"4","last_reported":1727795357,"current_range_meters":29600,"station_id":"ce4bhn12rcd13ifvqgqg","pricing_plan_id":"cebpf4jnsgd1na2vs0mg"},{"bike_id":"7a47fa6f-417a-461b-ab0b-1bd2088214f2","system_id":"levelo_inurba_marseille","lat":43.30547,"lon":5.36552,"is_reserved":false,"is_disabled":false,"rental_uris":{"android":"levelo://app?vid=7a47fa6f-417a-461b-ab0b-1bd2088214f2","ios":"levelo://app?vid=7a47fa6f-417a-461b-ab0b-1bd2088214f2"},"vehicle_type_id":"4","last_reported":1727795357,"current_range_meters":12000,"station_id":"ce4bgs12rcd13ifvqcag","pricing_plan_id":"cebpf4jnsgd1na2vs0mg"},{"bike_id":"22c3d6fc-4ed7-4f29-97da-fc7ffd9cb31e","system_id":"levelo_inurba_marseille","lat":43.28435,"lon":5.34994,"is_reserved":false,"is_disabled":false,"rental_uris":{"android":"levelo://app?vid=22c3d6fc-4ed7-4f29-97da-fc7ffd9cb31e","ios":"levelo://app?vid=22c3d6fc-4ed7-4f29-97da-fc7ffd9cb31e"},"vehicle_type_id":"4","last_reported":1727795357,"current_range_meters":38800,"station_id":"ce4bhbh2rcd13ifvqepg","pricing_plan_id":"cebpf4jnsgd1na2vs0mg"},{"bike_id":"c32266f2-bad4-4c47-a60f-930a8dbe82fc","system_id":"levelo_inurba_marseille","lat":43.30524,"lon":5.36679,"is_reserved":false,"is_disabled":false,"rental_uris":{"android":"levelo://app?vid=c32266f2-bad4-4c47-a60f-930a8dbe82fc","ios":"levelo://app?vid=c32266f2-bad4-4c47-a60f-930a8dbe82fc"},"vehicle_type_id":"4","last_reported":1727795357,"current_range_meters":36400,"station_id":"ce4bgkp2rcd13ifvqbmg","pricing_plan_id":"cebpf4jnsgd1na2vs0mg"},{"bike_id":"c606790c-5e3b-47c6-8d08-3375d74dbb6b","system_id":"levelo_inurba_marseille","lat":43.29635,"lon":5.40602,"is_reserved":false,"is_disabled":false,"rental_uris":{"android":"levelo://app?vid=c606790c-5e3b-47c6-8d08-3375d74dbb6b","ios":"levelo://app?vid=c606790c-5e3b-47c6-8d08-3375d74dbb6b"},"vehicle_type_id":"4","last_reported":1727795357,"current_range_meters":9600,"station_id":"ce4bh0h2rcd13ifvqd60","pricing_plan_id":"cebpf4jnsgd1na2vs0mg"},{"bike_id":"240c19b7-3ea3-4f77-8441-28e62cad59c1","system_id":"levelo_inurba_marseille","lat":43.301443,"lon":5.38083,"is_reserved":false,"is_disabled":false,"rental_uris":{"android":"levelo://app?vid=240c19b7-3ea3-4f77-8441-28e62cad59c1","ios":"levelo://app?vid=240c19b7-3ea3-4f77-8441-28e62cad59c1"},"vehicle_type_id":"4","last_reported":1727795357,"current_range_meters":0,"station_id":"ce4bgjp2rcd13ifvqbh0","pricing_plan_id":"cebpf4jnsgd1na2vs0mg"},{"bike_id":"0b0b2a76-da15-4499-b7ff-06c754649c44","system_id":"levelo_inurba_marseille","lat":43.325903,"lon":5.413764,"is_reserved":false,"is_disabled":false,"rental_uris":{"android":"levelo://app?vid=0b0b2a76-da15-4499-b7ff-06c754649c44","ios":"levelo://app?vid=0b0b2a76-da15-4499-b7ff-06c754649c44"},"vehicle_type_id":"4","last_reported":1727795357,"current_range_meters":28000,"station_id":"ce4bhq12rcd13ifvqhhg","pricing_plan_id":"cebpf4jnsgd1na2vs0mg"},{"bike_id":"a78406e5-02c8-460a-a86a-1d928b40b2ce","system_id":"levelo_inurba_marseille","lat":43.29024,"lon":5.38137,"is_reserved":false,"is_disabled":false,"rental_uris":{"android":"levelo://app?vid=a78406e5-02c8-460a-a86a-1d928b40b2ce","ios":"levelo://app?vid=a78406e5-02c8-460a-a86a-1d928b40b2ce"},"vehicle_type_id":"4","last_reported":1727795357,"current_range_meters":31200,"station_id":"ce4bh4p2rcd13ifvqe1g","pricing_plan_id":"cebpf4jnsgd1na2vs0mg"},{"bike_id":"a1569235-c7df-4ef7-aa71-055b7257316e","system_id":"levelo_inurba_marseille","lat":43.29528,"lon":5.38536,"is_reserved":false,"is_disabled":false,"rental_uris":{"android":"levelo://app?vid=a1569235-c7df-4ef7-aa71-055b7257316e","ios":"levelo://app?vid=a1569235-c7df-4ef7-aa71-055b7257316e"},"vehicle_type_id":"4","last_reported":1727795357,"current_range_meters":16000,"station_id":"ce4bgih2rcd13ifvqba0","pricing_plan_id":"cebpf4jnsgd1na2vs0mg"},{"bike_id":"ced8c7e7-1a8f-4ef8-b171-d04143fd8c63","system_id":"levelo_inurba_marseille","lat":43.29574,"lon":5.37522,"is_reserved":false,"is_disabled":false,"rental_uris":{"android":"levelo://app?vid=ced8c7e7-1a8f-4ef8-b171-d04143fd8c63","ios":"levelo://app?vid=ced8c7e7-1a8f-4ef8-b171-d04143fd8c63"},"vehicle_type_id":"4","last_reported":1727795357,"current_range_meters":16000,"station_id":"ce4bgh92rcd13ifvqb50","pricing_plan_id":"cebpf4jnsgd1na2vs0mg"},{"bike_id":"8f64f2d6-2fb9-4030-8e61-47c767c8f9e0","system_id":"levelo_inurba_marseille","lat":43.25583,"lon":5.38231,"is_reserved":false,"is_disabled":false,"rental_uris":{"android":"levelo://app?vid=8f64f2d6-2fb9-4030-8e61-47c767c8f9e0","ios":"levelo://app?vid=8f64f2d6-2fb9-4030-8e61-47c767c8f9e0"},"vehicle_type_id":"4","last_reported":1727795357,"current_range_meters":24800,"station_id":"ce4bhih2rcd13ifvqfs0","pricing_plan_id":"cebpf4jnsgd1na2vs0mg"},{"bike_id":"50e564b2-3988-4fc2-b626-446b14b0e66e","system_id":"levelo_inurba_marseille","lat":43.30788,"lon":5.37653,"is_reserved":false,"is_disabled":false,"rental_uris":{"android":"levelo://app?vid=50e564b2-3988-4fc2-b626-446b14b0e66e","ios":"levelo://app?vid=50e564b2-3988-4fc2-b626-446b14b0e66e"},"vehicle_type_id":"4","last_reported":1727795357,"current_range_meters":38000,"station_id":"ce4bgv92rcd13ifvqcq0","pricing_plan_id":"cebpf4jnsgd1na2vs0mg"},{"bike_id":"6f2ae92f-23a2-4f11-8edb-90c2c8fd879f","system_id":"levelo_inurba_marseille","lat":43.35138,"lon":5.43855,"is_reserved":false,"is_disabled":false,"rental_uris":{"android":"levelo://app?vid=6f2ae92f-23a2-4f11-8edb-90c2c8fd879f","ios":"levelo://app?vid=6f2ae92f-23a2-4f11-8edb-90c2c8fd879f"},"vehicle_type_id":"4","last_reported":1727795357,"current_range_meters":26000,"station_id":"","pricing_plan_id":"cebpf4jnsgd1na2vs0mg"},{"bike_id":"b337bd20-f5ab-4d71-a842-ea60a4480d01","system_id":"levelo_inurba_marseille","lat":43.337444,"lon":5.374475,"is_reserved":false,"is_disabled":false,"rental_uris":{"android":"levelo://app?vid=b337bd20-f5ab-4d71-a842-ea60a4480d01","ios":"levelo://app?vid=b337bd20-f5ab-4d71-a842-ea60a4480d01"},"vehicle_type_id":"4","last_reported":1727795357,"current_range_meters":36800,"station_id":"","pricing_plan_id":"cebpf4jnsgd1na2vs0mg"},{"bike_id":"2d1e394b-c65c-48dd-8f6c-7fbd688f784e","system_id":"levelo_inurba_marseille","lat":43.31639,"lon":5.38788,"is_reserved":false,"is_disabled":false,"rental_uris":{"android":"levelo://app?vid=2d1e394b-c65c-48dd-8f6c-7fbd688f784e","ios":"levelo://app?vid=2d1e394b-c65c-48dd-8f6c-7fbd688f784e"},"vehicle_type_id":"4","last_reported":1727795357,"current_range_meters":12800,"station_id":"ce4bhqp2rcd13ifvqhng","pricing_plan_id":"cebpf4jnsgd1na2vs0mg"},{"bike_id":"25a2b6b5-b169-4d46-88bd-fd513cd5de33","system_id":"levelo_inurba_marseille","lat":43.3266,"lon":5.40995,"is_reserved":false,"is_disabled":false,"rental_uris":{"android":"levelo://app?vid=25a2b6b5-b169-4d46-88bd-fd513cd5de33","ios":"levelo://app?vid=25a2b6b5-b169-4d46-88bd-fd513cd5de33"},"vehicle_type_id":"4","last_reported":1727795357,"current_range_meters":8400,"station_id":"ce4bhpp2rcd13ifvqhgg","pricing_plan_id":"cebpf4jnsgd1na2vs0mg"},{"bike_id":"a839f8c2-1f19-41c9-b661-130324e30c0f","system_id":"levelo_inurba_marseille","lat":43.32292,"lon":5.38256,"is_reserved":false,"is_disabled":false,"rental_uris":{"android":"levelo://app?vid=a839f8c2-1f19-41c9-b661-130324e30c0f","ios":"levelo://app?vid=a839f8c2-1f19-41c9-b661-130324e30c0f"},"vehicle_type_id":"4","last_reported":1727795357,"current_range_meters":38800,"station_id":"ce4bhr12rcd13ifvqhqg","pricing_plan_id":"cebpf4jnsgd1na2vs0mg"},{"bike_id":"254db89d-53fd-4e78-8040-42d263e01702","system_id":"levelo_inurba_marseille","lat":43.25001,"lon":5.38924,"is_reserved":false,"is_disabled":false,"rental_uris":{"android":"levelo://app?vid=254db89d-53fd-4e78-8040-42d263e01702","ios":"levelo://app?vid=254db89d-53fd-4e78-8040-42d263e01702"},"vehicle_type_id":"4","last_reported":1727795357,"current_range_meters":30400,"station_id":"ce4bhgp2rcd13ifvqfd0","pricing_plan_id":"cebpf4jnsgd1na2vs0mg"},{"bike_id":"52f542ed-5291-48ae-934d-428664416734","system_id":"levelo_inurba_marseille","lat":43.27058,"lon":5.40259,"is_reserved":false,"is_disabled":false,"rental_uris":{"android":"levelo://app?vid=52f542ed-5291-48ae-934d-428664416734","ios":"levelo://app?vid=52f542ed-5291-48ae-934d-428664416734"},"vehicle_type_id":"4","last_reported":1727795357,"current_range_meters":25200,"station_id":"ce4bhk92rcd13ifvqgc0","pricing_plan_id":"cebpf4jnsgd1na2vs0mg"},{"bike_id":"92a03d4f-88f7-4da0-9aac-516a7f28bbd5","system_id":"levelo_inurba_marseille","lat":43.2509,"lon":5.39519,"is_reserved":false,"is_disabled":false,"rental_uris":{"android":"levelo://app?vid=92a03d4f-88f7-4da0-9aac-516a7f28bbd5","ios":"levelo://app?vid=92a03d4f-88f7-4da0-9aac-516a7f28bbd5"},"vehicle_type_id":"4","last_reported":1727795357,"current_range_meters":31200,"station_id":"ce4bhm12rcd13ifvqgkg","pricing_plan_id":"cebpf4jnsgd1na2vs0mg"},{"bike_id":"f493192b-13c6-47a1-9573-739dd32e633f","system_id":"levelo_inurba_marseille","lat":43.337444,"lon":5.374475,"is_reserved":false,"is_disabled":false,"rental_uris":{"android":"levelo://app?vid=f493192b-13c6-47a1-9573-739dd32e633f","ios":"levelo://app?vid=f493192b-13c6-47a1-9573-739dd32e633f"},"vehicle_type_id":"4","last_reported":1727795357,"current_range_meters":16800,"station_id":"","pricing_plan_id":"cebpf4jnsgd1na2vs0mg"},{"bike_id":"5c9c41fa-3ef0-4aa2-83a2-df155517d818","system_id":"levelo_inurba_marseille","lat":43.29709,"lon":5.36604,"is_reserved":false,"is_disabled":false,"rental_uris":{"android":"levelo://app?vid=5c9c41fa-3ef0-4aa2-83a2-df155517d818","ios":"levelo://app?vid=5c9c41fa-3ef0-4aa2-83a2-df155517d818"},"vehicle_type_id":"4","last_reported":1727795357,"current_range_meters":12800,"station_id":"ce4bgn12rcd13ifvqbt0","pricing_plan_id":"cebpf4jnsgd1na2vs0mg"},{"bike_id":"8703bcf1-8807-48a1-9dff-1bc4fd084e21","system_id":"levelo_inurba_marseille","lat":43.30781,"lon":5.3765,"is_reserved":false,"is_disabled":false,"rental_uris":{"android":"levelo://app?vid=8703bcf1-8807-48a1-9dff-1bc4fd084e21","ios":"levelo://app?vid=8703bcf1-8807-48a1-9dff-1bc4fd084e21"},"vehicle_type_id":"4","last_reported":1727795357,"current_range_meters":9600,"station_id":"ce4bgv92rcd13ifvqcq0","pricing_plan_id":"cebpf4jnsgd1na2vs0mg"},{"bike_id":"9f58af45-1d11-4376-9039-11e3c877d78f","system_id":"levelo_inurba_marseille","lat":43.29534,"lon":5.38544,"is_reserved":false,"is_disabled":false,"rental_uris":{"android":"levelo://app?vid=9f58af45-1d11-4376-9039-11e3c877d78f","ios":"levelo://app?vid=9f58af45-1d11-4376-9039-11e3c877d78f"},"vehicle_type_id":"4","last_reported":1727795357,"current_range_meters":10800,"station_id":"ce4bgih2rcd13ifvqba0","pricing_plan_id":"cebpf4jnsgd1na2vs0mg"},{"bike_id":"d0f3ba74-2db6-4276-a970-d6d9e934005a","system_id":"levelo_inurba_marseille","lat":43.33716,"lon":5.39175,"is_reserved":false,"is_disabled":false,"rental_uris":{"android":"levelo://app?vid=d0f3ba74-2db6-4276-a970-d6d9e934005a","ios":"levelo://app?vid=d0f3ba74-2db6-4276-a970-d6d9e934005a"},"vehicle_type_id":"4","last_reported":1727795357,"current_range_meters":26000,"station_id":"ce4bhr92rcd13ifvqhsg","pricing_plan_id":"cebpf4jnsgd1na2vs0mg"},{"bike_id":"05ba2dd3-ae40-45a3-907c-dff927403055","system_id":"levelo_inurba_marseille","lat":43.29536,"lon":5.39398,"is_reserved":false,"is_disabled":false,"rental_uris":{"android":"levelo://app?vid=05ba2dd3-ae40-45a3-907c-dff927403055","ios":"levelo://app?vid=05ba2dd3-ae40-45a3-907c-dff927403055"},"vehicle_type_id":"4","last_reported":1727795357,"current_range_meters":34800,"station_id":"ce4bh292rcd13ifvqdf0","pricing_plan_id":"cebpf4jnsgd1na2vs0mg"},{"bike_id":"d2b8ace4-6fc8-425e-b583-4a0b4b3bc90b","system_id":"levelo_inurba_marseille","lat":43.31709,"lon":5.37748,"is_reserved":false,"is_disabled":false,"rental_uris":{"android":"levelo://app?vid=d2b8ace4-6fc8-425e-b583-4a0b4b3bc90b","ios":"levelo://app?vid=d2b8ace4-6fc8-425e-b583-4a0b4b3bc90b"},"vehicle_type_id":"4","last_reported":1727795357,"current_range_meters":38000,"station_id":"ce4bgth2rcd13ifvqch0","pricing_plan_id":"cebpf4jnsgd1na2vs0mg"},{"bike_id":"c0fddd99-ad8b-4012-9d8f-a244fae7aa9d","system_id":"levelo_inurba_marseille","lat":43.28988,"lon":5.37834,"is_reserved":false,"is_disabled":false,"rental_uris":{"android":"levelo://app?vid=c0fddd99-ad8b-4012-9d8f-a244fae7aa9d","ios":"levelo://app?vid=c0fddd99-ad8b-4012-9d8f-a244fae7aa9d"},"vehicle_type_id":"4","last_reported":1727795357,"current_range_meters":9600,"station_id":"ce4bh9p2rcd13ifvqed0","pricing_plan_id":"cebpf4jnsgd1na2vs0mg"},{"bike_id":"bf6a4d42-bf87-4ed8-9e88-b9e50db7700c","system_id":"levelo_inurba_marseille","lat":43.27934,"lon":5.41042,"is_reserved":false,"is_disabled":false,"rental_uris":{"android":"levelo://app?vid=bf6a4d42-bf87-4ed8-9e88-b9e50db7700c","ios":"levelo://app?vid=bf6a4d42-bf87-4ed8-9e88-b9e50db7700c"},"vehicle_type_id":"4","last_reported":1727795357,"current_range_meters":20800,"station_id":"ce4bhnp2rcd13ifvqh0g","pricing_plan_id":"cebpf4jnsgd1na2vs0mg"},{"bike_id":"292cc5da-84f8-44ed-8f63-0a045a962c8e","system_id":"levelo_inurba_marseille","lat":43.27998,"lon":5.40009,"is_reserved":false,"is_disabled":false,"rental_uris":{"android":"levelo://app?vid=292cc5da-84f8-44ed-8f63-0a045a962c8e","ios":"levelo://app?vid=292cc5da-84f8-44ed-8f63-0a045a962c8e"},"vehicle_type_id":"4","last_reported":1727795357,"current_range_meters":13600,"station_id":"ce4bho92rcd13ifvqh4g","pricing_plan_id":"cebpf4jnsgd1na2vs0mg"},{"bike_id":"550d44af-7b89-4375-a8c8-ac7b78b914dc","system_id":"levelo_inurba_marseille","lat":43.28456,"lon":5.35887,"is_reserved":false,"is_disabled":false,"rental_uris":{"android":"levelo://app?vid=550d44af-7b89-4375-a8c8-ac7b78b914dc","ios":"levelo://app?vid=550d44af-7b89-4375-a8c8-ac7b78b914dc"},"vehicle_type_id":"4","last_reported":1727795357,"current_range_meters":36000,"station_id":"ce4bhah2rcd13ifvqei0","pricing_plan_id":"cebpf4jnsgd1na2vs0mg"},{"bike_id":"5b3b1504-d354-4d2d-9351-769904fc55f5","system_id":"levelo_inurba_marseille","lat":43.28937,"lon":5.39629,"is_reserved":false,"is_disabled":false,"rental_uris":{"android":"levelo://app?vid=5b3b1504-d354-4d2d-9351-769904fc55f5","ios":"levelo://app?vid=5b3b1504-d354-4d2d-9351-769904fc55f5"},"vehicle_type_id":"4","last_reported":1727795357,"current_range_meters":38400,"station_id":"ce4bh3h2rcd13ifvqdn0","pricing_plan_id":"cebpf4jnsgd1na2vs0mg"},{"bike_id":"576c5d39-7cc5-49ed-940a-49efe1fb582e","system_id":"levelo_inurba_marseille","lat":43.28432,"lon":5.34986,"is_reserved":false,"is_disabled":false,"rental_uris":{"android":"levelo://app?vid=576c5d39-7cc5-49ed-940a-49efe1fb582e","ios":"levelo://app?vid=576c5d39-7cc5-49ed-940a-49efe1fb582e"},"vehicle_type_id":"4","last_reported":1727795357,"current_range_meters":32000,"station_id":"ce4bhbh2rcd13ifvqepg","pricing_plan_id":"cebpf4jnsgd1na2vs0mg"},{"bike_id":"9783fdde-a3c1-4c9f-b8b3-08d8eb67e91e","system_id":"levelo_inurba_marseille","lat":43.28418,"lon":5.37506,"is_reserved":false,"is_disabled":false,"rental_uris":{"android":"levelo://app?vid=9783fdde-a3c1-4c9f-b8b3-08d8eb67e91e","ios":"levelo://app?vid=9783fdde-a3c1-4c9f-b8b3-08d8eb67e91e"},"vehicle_type_id":"4","last_reported":1727795357,"current_range_meters":36000,"station_id":"ce4bh412rcd13ifvqds0","pricing_plan_id":"cebpf4jnsgd1na2vs0mg"},{"bike_id":"d5462c4f-27d0-4050-9adb-ac87f8709501","system_id":"levelo_inurba_marseille","lat":43.32481,"lon":5.36546,"is_reserved":false,"is_disabled":false,"rental_uris":{"android":"levelo://app?vid=d5462c4f-27d0-4050-9adb-ac87f8709501","ios":"levelo://app?vid=d5462c4f-27d0-4050-9adb-ac87f8709501"},"vehicle_type_id":"4","last_reported":1727795357,"current_range_meters":27200,"station_id":"ce4bhs12rcd13ifvqhvg","pricing_plan_id":"cebpf4jnsgd1na2vs0mg"},{"bike_id":"53965b8c-c2cf-4c8b-b0e2-060905504a79","system_id":"levelo_inurba_marseille","lat":43.27527,"lon":5.39505,"is_reserved":false,"is_disabled":false,"rental_uris":{"android":"levelo://app?vid=53965b8c-c2cf-4c8b-b0e2-060905504a79","ios":"levelo://app?vid=53965b8c-c2cf-4c8b-b0e2-060905504a79"},"vehicle_type_id":"4","last_reported":1727795357,"current_range_meters":10800,"station_id":"","pricing_plan_id":"cebpf4jnsgd1na2vs0mg"},{"bike_id":"30979ffb-9c93-4c6d-a4f1-285841e6b16a","system_id":"levelo_inurba_marseille","lat":43.27996,"lon":5.40023,"is_reserved":false,"is_disabled":false,"rental_uris":{"android":"levelo://app?vid=30979ffb-9c93-4c6d-a4f1-285841e6b16a","ios":"levelo://app?vid=30979ffb-9c93-4c6d-a4f1-285841e6b16a"},"vehicle_type_id":"4","last_reported":1727795357,"current_range_meters":25600,"station_id":"ce4bho92rcd13ifvqh4g","pricing_plan_id":"cebpf4jnsgd1na2vs0mg"},{"bike_id":"dfe8c879-7070-41e9-aefb-1a5d1042bdf2","system_id":"levelo_inurba_marseille","lat":43.29193,"lon":5.35803,"is_reserved":false,"is_disabled":false,"rental_uris":{"android":"levelo://app?vid=dfe8c879-7070-41e9-aefb-1a5d1042bdf2","ios":"levelo://app?vid=dfe8c879-7070-41e9-aefb-1a5d1042bdf2"},"vehicle_type_id":"4","last_reported":1727795357,"current_range_meters":26800,"station_id":"ce4bhb12rcd13ifvqel0","pricing_plan_id":"cebpf4jnsgd1na2vs0mg"},{"bike_id":"4a810bcb-16f6-4461-a01a-ad69bd65fa67","system_id":"levelo_inurba_marseille","lat":43.26493,"lon":5.39547,"is_reserved":false,"is_disabled":false,"rental_uris":{"android":"levelo://app?vid=4a810bcb-16f6-4461-a01a-ad69bd65fa67","ios":"levelo://app?vid=4a810bcb-16f6-4461-a01a-ad69bd65fa67"},"vehicle_type_id":"4","last_reported":1727795357,"current_range_meters":24000,"station_id":"ce4bhi12rcd13ifvqfq0","pricing_plan_id":"cebpf4jnsgd1na2vs0mg"},{"bike_id":"dd5506c6-9e8a-4b7b-a0a9-1d34c148d7ee","system_id":"levelo_inurba_marseille","lat":43.30792,"lon":5.37645,"is_reserved":false,"is_disabled":false,"rental_uris":{"android":"levelo://app?vid=dd5506c6-9e8a-4b7b-a0a9-1d34c148d7ee","ios":"levelo://app?vid=dd5506c6-9e8a-4b7b-a0a9-1d34c148d7ee"},"vehicle_type_id":"4","last_reported":1727795357,"current_range_meters":27200,"station_id":"ce4bgv92rcd13ifvqcq0","pricing_plan_id":"cebpf4jnsgd1na2vs0mg"},{"bike_id":"2d7439c9-83ec-4fba-a8cc-813889000f94","system_id":"levelo_inurba_marseille","lat":43.23189,"lon":5.35555,"is_reserved":false,"is_disabled":false,"rental_uris":{"android":"levelo://app?vid=2d7439c9-83ec-4fba-a8cc-813889000f94","ios":"levelo://app?vid=2d7439c9-83ec-4fba-a8cc-813889000f94"},"vehicle_type_id":"4","last_reported":1727795357,"current_range_meters":36800,"station_id":"ce4bhu92rcd13ifvqi70","pricing_plan_id":"cebpf4jnsgd1na2vs0mg"},{"bike_id":"553f878d-720c-474f-91b0-f912281bf8a4","system_id":"levelo_inurba_marseille","lat":43.2694,"lon":5.40245,"is_reserved":false,"is_disabled":false,"rental_uris":{"android":"levelo://app?vid=553f878d-720c-474f-91b0-f912281bf8a4","ios":"levelo://app?vid=553f878d-720c-474f-91b0-f912281bf8a4"},"vehicle_type_id":"4","last_reported":1727795357,"current_range_meters":30800,"station_id":"cjm6bp8fraef2m0cb0m0","pricing_plan_id":"cebpf4jnsgd1na2vs0mg"},{"bike_id":"bfc3764f-df82-44e7-9ca9-f1cc6a9029ff","system_id":"levelo_inurba_marseille","lat":43.296,"lon":5.38105,"is_reserved":false,"is_disabled":false,"rental_uris":{"android":"levelo://app?vid=bfc3764f-df82-44e7-9ca9-f1cc6a9029ff","ios":"levelo://app?vid=bfc3764f-df82-44e7-9ca9-f1cc6a9029ff"},"vehicle_type_id":"4","last_reported":1727795357,"current_range_meters":36800,"station_id":"ce4bgl12rcd13ifvqbo0","pricing_plan_id":"cebpf4jnsgd1na2vs0mg"},{"bike_id":"b24c5e01-c56f-4e77-8471-c089ded50c3a","system_id":"levelo_inurba_marseille","lat":43.31495,"lon":5.37306,"is_reserved":false,"is_disabled":false,"rental_uris":{"android":"levelo://app?vid=b24c5e01-c56f-4e77-8471-c089ded50c3a","ios":"levelo://app?vid=b24c5e01-c56f-4e77-8471-c089ded50c3a"},"vehicle_type_id":"4","last_reported":1727795357,"current_range_meters":37600,"station_id":"ce4bgt12rcd13ifvqcd0","pricing_plan_id":"cebpf4jnsgd1na2vs0mg"},{"bike_id":"4f41996e-6ec0-4b6b-b5d9-eb3985e19f50","system_id":"levelo_inurba_marseille","lat":43.29601,"lon":5.38103,"is_reserved":false,"is_disabled":false,"rental_uris":{"android":"levelo://app?vid=4f41996e-6ec0-4b6b-b5d9-eb3985e19f50","ios":"levelo://app?vid=4f41996e-6ec0-4b6b-b5d9-eb3985e19f50"},"vehicle_type_id":"4","last_reported":1727795357,"current_range_meters":5600,"station_id":"ce4bgl12rcd13ifvqbo0","pricing_plan_id":"cebpf4jnsgd1na2vs0mg"},{"bike_id":"7a316fac-c189-4729-8ef9-0d38e354ee8d","system_id":"levelo_inurba_marseille","lat":43.29389,"lon":5.37826,"is_reserved":false,"is_disabled":false,"rental_uris":{"android":"levelo://app?vid=7a316fac-c189-4729-8ef9-0d38e354ee8d","ios":"levelo://app?vid=7a316fac-c189-4729-8ef9-0d38e354ee8d"},"vehicle_type_id":"4","last_reported":1727795357,"current_range_meters":32800,"station_id":"ce4bgjh2rcd13ifvqbf0","pricing_plan_id":"cebpf4jnsgd1na2vs0mg"},{"bike_id":"9f0079fa-d286-47cf-b1c2-0fba1b9d48a3","system_id":"levelo_inurba_marseille","lat":43.30543,"lon":5.36525,"is_reserved":false,"is_disabled":false,"rental_uris":{"android":"levelo://app?vid=9f0079fa-d286-47cf-b1c2-0fba1b9d48a3","ios":"levelo://app?vid=9f0079fa-d286-47cf-b1c2-0fba1b9d48a3"},"vehicle_type_id":"4","last_reported":1727795357,"current_range_meters":30800,"station_id":"ce4bgs12rcd13ifvqcag","pricing_plan_id":"cebpf4jnsgd1na2vs0mg"},{"bike_id":"195dbe61-5807-4b39-9d1b-9a8a307780f1","system_id":"levelo_inurba_marseille","lat":43.294551,"lon":5.385651,"is_reserved":false,"is_disabled":false,"rental_uris":{"android":"levelo://app?vid=195dbe61-5807-4b39-9d1b-9a8a307780f1","ios":"levelo://app?vid=195dbe61-5807-4b39-9d1b-9a8a307780f1"},"vehicle_type_id":"4","last_reported":1727795357,"current_range_meters":9600,"station_id":"ce4bh612rcd13ifvqe6g","pricing_plan_id":"cebpf4jnsgd1na2vs0mg"},{"bike_id":"a694633e-8bdb-434d-9f1c-66cacad8ae4f","system_id":"levelo_inurba_marseille","lat":43.29278,"lon":5.36846,"is_reserved":false,"is_disabled":false,"rental_uris":{"android":"levelo://app?vid=a694633e-8bdb-434d-9f1c-66cacad8ae4f","ios":"levelo://app?vid=a694633e-8bdb-434d-9f1c-66cacad8ae4f"},"vehicle_type_id":"4","last_reported":1727795357,"current_range_meters":29600,"station_id":"ce4bhbp2rcd13ifvqesg","pricing_plan_id":"cebpf4jnsgd1na2vs0mg"},{"bike_id":"4c7b6061-1c71-4f64-bfd6-c76970bb0669","system_id":"levelo_inurba_marseille","lat":43.292734,"lon":5.368497,"is_reserved":false,"is_disabled":false,"rental_uris":{"android":"levelo://app?vid=4c7b6061-1c71-4f64-bfd6-c76970bb0669","ios":"levelo://app?vid=4c7b6061-1c71-4f64-bfd6-c76970bb0669"},"vehicle_type_id":"4","last_reported":1727795357,"current_range_meters":7200,"station_id":"ce4bhbp2rcd13ifvqesg","pricing_plan_id":"cebpf4jnsgd1na2vs0mg"},{"bike_id":"74b81c54-02fb-420f-a29f-9c978ea1567d","system_id":"levelo_inurba_marseille","lat":43.30356,"lon":5.41878,"is_reserved":false,"is_disabled":false,"rental_uris":{"android":"levelo://app?vid=74b81c54-02fb-420f-a29f-9c978ea1567d","ios":"levelo://app?vid=74b81c54-02fb-420f-a29f-9c978ea1567d"},"vehicle_type_id":"4","last_reported":1727795357,"current_range_meters":23200,"station_id":"ce4bhop2rcd13ifvqh7g","pricing_plan_id":"cebpf4jnsgd1na2vs0mg"},{"bike_id":"1666e3c2-9c4a-4e34-b6a7-3adfae6d792d","system_id":"levelo_inurba_marseille","lat":43.265553,"lon":5.372808,"is_reserved":false,"is_disabled":false,"rental_uris":{"android":"levelo://app?vid=1666e3c2-9c4a-4e34-b6a7-3adfae6d792d","ios":"levelo://app?vid=1666e3c2-9c4a-4e34-b6a7-3adfae6d792d"},"vehicle_type_id":"4","last_reported":1727795357,"current_range_meters":2000,"station_id":"ce4bhg12rcd13ifvqf70","pricing_plan_id":"cebpf4jnsgd1na2vs0mg"},{"bike_id":"112e66e7-1c98-4492-817e-3d9da61aa25f","system_id":"levelo_inurba_marseille","lat":43.3378,"lon":5.3743,"is_reserved":false,"is_disabled":false,"rental_uris":{"android":"levelo://app?vid=112e66e7-1c98-4492-817e-3d9da61aa25f","ios":"levelo://app?vid=112e66e7-1c98-4492-817e-3d9da61aa25f"},"vehicle_type_id":"4","last_reported":1727795357,"current_range_meters":38800,"station_id":"","pricing_plan_id":"cebpf4jnsgd1na2vs0mg"},{"bike_id":"c72428c2-366f-432f-8d96-42c8b185a95d","system_id":"levelo_inurba_marseille","lat":43.28414,"lon":5.37507,"is_reserved":false,"is_disabled":false,"rental_uris":{"android":"levelo://app?vid=c72428c2-366f-432f-8d96-42c8b185a95d","ios":"levelo://app?vid=c72428c2-366f-432f-8d96-42c8b185a95d"},"vehicle_type_id":"4","last_reported":1727795357,"current_range_meters":25600,"station_id":"ce4bh412rcd13ifvqds0","pricing_plan_id":"cebpf4jnsgd1na2vs0mg"},{"bike_id":"c4432127-0b97-48c8-b745-bef6023d020a","system_id":"levelo_inurba_marseille","lat":43.33719,"lon":5.39178,"is_reserved":false,"is_disabled":false,"rental_uris":{"android":"levelo://app?vid=c4432127-0b97-48c8-b745-bef6023d020a","ios":"levelo://app?vid=c4432127-0b97-48c8-b745-bef6023d020a"},"vehicle_type_id":"4","last_reported":1727795357,"current_range_meters":32000,"station_id":"ce4bhr92rcd13ifvqhsg","pricing_plan_id":"cebpf4jnsgd1na2vs0mg"},{"bike_id":"d1bb1d6e-67d4-46b9-be16-e2b146a8847e","system_id":"levelo_inurba_marseille","lat":43.2721,"lon":5.39178,"is_reserved":false,"is_disabled":false,"rental_uris":{"android":"levelo://app?vid=d1bb1d6e-67d4-46b9-be16-e2b146a8847e","ios":"levelo://app?vid=d1bb1d6e-67d4-46b9-be16-e2b146a8847e"},"vehicle_type_id":"4","last_reported":1727795357,"current_range_meters":4000,"station_id":"ce4bhhp2rcd13ifvqfm0","pricing_plan_id":"cebpf4jnsgd1na2vs0mg"},{"bike_id":"e47deb18-3529-4042-8b3f-9474ce4a8442","system_id":"levelo_inurba_marseille","lat":43.29613,"lon":5.37731,"is_reserved":false,"is_disabled":false,"rental_uris":{"android":"levelo://app?vid=e47deb18-3529-4042-8b3f-9474ce4a8442","ios":"levelo://app?vid=e47deb18-3529-4042-8b3f-9474ce4a8442"},"vehicle_type_id":"4","last_reported":1727795357,"current_range_meters":2800,"station_id":"ce4bgi92rcd13ifvqb90","pricing_plan_id":"cebpf4jnsgd1na2vs0mg"},{"bike_id":"a97ec931-f655-425a-8095-f4b79facc435","system_id":"levelo_inurba_marseille","lat":43.28454,"lon":5.35887,"is_reserved":false,"is_disabled":false,"rental_uris":{"android":"levelo://app?vid=a97ec931-f655-425a-8095-f4b79facc435","ios":"levelo://app?vid=a97ec931-f655-425a-8095-f4b79facc435"},"vehicle_type_id":"4","last_reported":1727795357,"current_range_meters":16400,"station_id":"ce4bhah2rcd13ifvqei0","pricing_plan_id":"cebpf4jnsgd1na2vs0mg"},{"bike_id":"d29dc684-5977-4857-9fdb-728775ead93e","system_id":"levelo_inurba_marseille","lat":43.33721,"lon":5.39187,"is_reserved":false,"is_disabled":false,"rental_uris":{"android":"levelo://app?vid=d29dc684-5977-4857-9fdb-728775ead93e","ios":"levelo://app?vid=d29dc684-5977-4857-9fdb-728775ead93e"},"vehicle_type_id":"4","last_reported":1727795357,"current_range_meters":20400,"station_id":"ce4bhr92rcd13ifvqhsg","pricing_plan_id":"cebpf4jnsgd1na2vs0mg"},{"bike_id":"cae3e53d-fd28-4de2-b781-0479164e52f2","system_id":"levelo_inurba_marseille","lat":43.23967,"lon":5.36628,"is_reserved":false,"is_disabled":false,"rental_uris":{"android":"levelo://app?vid=cae3e53d-fd28-4de2-b781-0479164e52f2","ios":"levelo://app?vid=cae3e53d-fd28-4de2-b781-0479164e52f2"},"vehicle_type_id":"4","last_reported":1727795357,"current_range_meters":29600,"station_id":"ce4bhi12rcd13ifvqfp0","pricing_plan_id":"cebpf4jnsgd1na2vs0mg"},{"bike_id":"019ed7d7-8e08-4879-a021-bfdd710f0f96","system_id":"levelo_inurba_marseille","lat":43.29421,"lon":5.38629,"is_reserved":false,"is_disabled":false,"rental_uris":{"android":"levelo://app?vid=019ed7d7-8e08-4879-a021-bfdd710f0f96","ios":"levelo://app?vid=019ed7d7-8e08-4879-a021-bfdd710f0f96"},"vehicle_type_id":"4","last_reported":1727795357,"current_range_meters":22400,"station_id":"ce4bh2h2rcd13ifvqdh0","pricing_plan_id":"cebpf4jnsgd1na2vs0mg"},{"bike_id":"7060494a-4fdd-4ae7-8903-022b868e3391","system_id":"levelo_inurba_marseille","lat":43.29609,"lon":5.37726,"is_reserved":false,"is_disabled":false,"rental_uris":{"android":"levelo://app?vid=7060494a-4fdd-4ae7-8903-022b868e3391","ios":"levelo://app?vid=7060494a-4fdd-4ae7-8903-022b868e3391"},"vehicle_type_id":"4","last_reported":1727795357,"current_range_meters":20400,"station_id":"ce4bgi92rcd13ifvqb90","pricing_plan_id":"cebpf4jnsgd1na2vs0mg"},{"bike_id":"bef3c30e-b95a-440a-8737-f9f272d8b568","system_id":"levelo_inurba_marseille","lat":43.24389,"lon":5.3706,"is_reserved":false,"is_disabled":false,"rental_uris":{"android":"levelo://app?vid=bef3c30e-b95a-440a-8737-f9f272d8b568","ios":"levelo://app?vid=bef3c30e-b95a-440a-8737-f9f272d8b568"},"vehicle_type_id":"4","last_reported":1727795357,"current_range_meters":38800,"station_id":"ce4bhhh2rcd13ifvqfk0","pricing_plan_id":"cebpf4jnsgd1na2vs0mg"},{"bike_id":"408d588c-d6e0-4b7f-805a-63e3f004b896","system_id":"levelo_inurba_marseille","lat":43.31084,"lon":5.42429,"is_reserved":false,"is_disabled":false,"rental_uris":{"android":"levelo://app?vid=408d588c-d6e0-4b7f-805a-63e3f004b896","ios":"levelo://app?vid=408d588c-d6e0-4b7f-805a-63e3f004b896"},"vehicle_type_id":"4","last_reported":1727795357,"current_range_meters":20400,"station_id":"ce4bhp92rcd13ifvqhag","pricing_plan_id":"cebpf4jnsgd1na2vs0mg"},{"bike_id":"22a5bbf8-57d1-4beb-b037-0ba05314f639","system_id":"levelo_inurba_marseille","lat":43.28456,"lon":5.3589,"is_reserved":false,"is_disabled":false,"rental_uris":{"android":"levelo://app?vid=22a5bbf8-57d1-4beb-b037-0ba05314f639","ios":"levelo://app?vid=22a5bbf8-57d1-4beb-b037-0ba05314f639"},"vehicle_type_id":"4","last_reported":1727795357,"current_range_meters":30800,"station_id":"ce4bhah2rcd13ifvqei0","pricing_plan_id":"cebpf4jnsgd1na2vs0mg"},{"bike_id":"d02732f0-a413-4720-a3bc-e52746670bfb","system_id":"levelo_inurba_marseille","lat":43.32289,"lon":5.38266,"is_reserved":false,"is_disabled":false,"rental_uris":{"android":"levelo://app?vid=d02732f0-a413-4720-a3bc-e52746670bfb","ios":"levelo://app?vid=d02732f0-a413-4720-a3bc-e52746670bfb"},"vehicle_type_id":"4","last_reported":1727795357,"current_range_meters":27200,"station_id":"ce4bhr12rcd13ifvqhqg","pricing_plan_id":"cebpf4jnsgd1na2vs0mg"},{"bike_id":"cdac4ca0-1e45-4a1c-841c-43683e48f255","system_id":"levelo_inurba_marseille","lat":43.305553,"lon":5.365473,"is_reserved":false,"is_disabled":false,"rental_uris":{"android":"levelo://app?vid=cdac4ca0-1e45-4a1c-841c-43683e48f255","ios":"levelo://app?vid=cdac4ca0-1e45-4a1c-841c-43683e48f255"},"vehicle_type_id":"4","last_reported":1727795357,"current_range_meters":38800,"station_id":"ce4bgs12rcd13ifvqcag","pricing_plan_id":"cebpf4jnsgd1na2vs0mg"},{"bike_id":"35c47eed-06da-4de2-b8b0-159458feea6a","system_id":"levelo_inurba_marseille","lat":43.31496,"lon":5.37308,"is_reserved":false,"is_disabled":false,"rental_uris":{"android":"levelo://app?vid=35c47eed-06da-4de2-b8b0-159458feea6a","ios":"levelo://app?vid=35c47eed-06da-4de2-b8b0-159458feea6a"},"vehicle_type_id":"4","last_reported":1727795357,"current_range_meters":12400,"station_id":"ce4bgt12rcd13ifvqcd0","pricing_plan_id":"cebpf4jnsgd1na2vs0mg"},{"bike_id":"7a58c2c8-50c0-4818-855c-4b86297baff1","system_id":"levelo_inurba_marseille","lat":43.337444,"lon":5.374475,"is_reserved":false,"is_disabled":false,"rental_uris":{"android":"levelo://app?vid=7a58c2c8-50c0-4818-855c-4b86297baff1","ios":"levelo://app?vid=7a58c2c8-50c0-4818-855c-4b86297baff1"},"vehicle_type_id":"4","last_reported":1727795357,"current_range_meters":32000,"station_id":"","pricing_plan_id":"cebpf4jnsgd1na2vs0mg"},{"bike_id":"12e0e433-c4d9-4d00-abca-7ff9b4fd5be7","system_id":"levelo_inurba_marseille","lat":43.2572,"lon":5.41114,"is_reserved":false,"is_disabled":false,"rental_uris":{"android":"levelo://app?vid=12e0e433-c4d9-4d00-abca-7ff9b4fd5be7","ios":"levelo://app?vid=12e0e433-c4d9-4d00-abca-7ff9b4fd5be7"},"vehicle_type_id":"4","last_reported":1727795357,"current_range_meters":38400,"station_id":"ce4bhkp2rcd13ifvqgd0","pricing_plan_id":"cebpf4jnsgd1na2vs0mg"},{"bike_id":"263be8cc-67e1-4e4b-9818-683f5018a339","system_id":"levelo_inurba_marseille","lat":43.32107,"lon":5.36773,"is_reserved":false,"is_disabled":false,"rental_uris":{"android":"levelo://app?vid=263be8cc-67e1-4e4b-9818-683f5018a339","ios":"levelo://app?vid=263be8cc-67e1-4e4b-9818-683f5018a339"},"vehicle_type_id":"4","last_reported":1727795357,"current_range_meters":30400,"station_id":"ce4bhrh2rcd13ifvqhug","pricing_plan_id":"cebpf4jnsgd1na2vs0mg"},{"bike_id":"6bf562eb-0301-4c71-9369-79d81c40be4c","system_id":"levelo_inurba_marseille","lat":43.29041,"lon":5.39961,"is_reserved":false,"is_disabled":false,"rental_uris":{"android":"levelo://app?vid=6bf562eb-0301-4c71-9369-79d81c40be4c","ios":"levelo://app?vid=6bf562eb-0301-4c71-9369-79d81c40be4c"},"vehicle_type_id":"4","last_reported":1727795357,"current_range_meters":28400,"station_id":"ce4bh392rcd13ifvqdm0","pricing_plan_id":"cebpf4jnsgd1na2vs0mg"},{"bike_id":"33ff300a-cf61-451e-9896-1d7b98b846a9","system_id":"levelo_inurba_marseille","lat":43.3053,"lon":5.36532,"is_reserved":false,"is_disabled":false,"rental_uris":{"android":"levelo://app?vid=33ff300a-cf61-451e-9896-1d7b98b846a9","ios":"levelo://app?vid=33ff300a-cf61-451e-9896-1d7b98b846a9"},"vehicle_type_id":"4","last_reported":1727795357,"current_range_meters":33600,"station_id":"ce4bgs12rcd13ifvqcag","pricing_plan_id":"cebpf4jnsgd1na2vs0mg"},{"bike_id":"03859983-573e-4a35-a116-f03223d83de7","system_id":"levelo_inurba_marseille","lat":43.279144,"lon":5.395703,"is_reserved":false,"is_disabled":false,"rental_uris":{"android":"levelo://app?vid=03859983-573e-4a35-a116-f03223d83de7","ios":"levelo://app?vid=03859983-573e-4a35-a116-f03223d83de7"},"vehicle_type_id":"4","last_reported":1727795357,"current_range_meters":20000,"station_id":"ce4bhf92rcd13ifvqf40","pricing_plan_id":"cebpf4jnsgd1na2vs0mg"},{"bike_id":"d8a637b6-68f2-460a-b2c9-c86b526b691c","system_id":"levelo_inurba_marseille","lat":43.305115,"lon":5.365385,"is_reserved":false,"is_disabled":false,"rental_uris":{"android":"levelo://app?vid=d8a637b6-68f2-460a-b2c9-c86b526b691c","ios":"levelo://app?vid=d8a637b6-68f2-460a-b2c9-c86b526b691c"},"vehicle_type_id":"4","last_reported":1727795357,"current_range_meters":6800,"station_id":"","pricing_plan_id":"cebpf4jnsgd1na2vs0mg"},{"bike_id":"501bffc8-3e38-44ba-b2e7-3e34a6aa3b00","system_id":"levelo_inurba_marseille","lat":43.29628,"lon":5.37147,"is_reserved":false,"is_disabled":false,"rental_uris":{"android":"levelo://app?vid=501bffc8-3e38-44ba-b2e7-3e34a6aa3b00","ios":"levelo://app?vid=501bffc8-3e38-44ba-b2e7-3e34a6aa3b00"},"vehicle_type_id":"4","last_reported":1727795357,"current_range_meters":28000,"station_id":"ce4bgnh2rcd13ifvqc0g","pricing_plan_id":"cebpf4jnsgd1na2vs0mg"},{"bike_id":"03437311-ba60-483d-a4f6-887c0c4d2a0a","system_id":"levelo_inurba_marseille","lat":43.27494,"lon":5.42448,"is_reserved":false,"is_disabled":false,"rental_uris":{"android":"levelo://app?vid=03437311-ba60-483d-a4f6-887c0c4d2a0a","ios":"levelo://app?vid=03437311-ba60-483d-a4f6-887c0c4d2a0a"},"vehicle_type_id":"4","last_reported":1727795357,"current_range_meters":31200,"station_id":"ce4bhn92rcd13ifvqgrg","pricing_plan_id":"cebpf4jnsgd1na2vs0mg"},{"bike_id":"25aa29b7-b593-4981-aa84-efd28f755882","system_id":"levelo_inurba_marseille","lat":43.2293,"lon":5.35373,"is_reserved":false,"is_disabled":false,"rental_uris":{"android":"levelo://app?vid=25aa29b7-b593-4981-aa84-efd28f755882","ios":"levelo://app?vid=25aa29b7-b593-4981-aa84-efd28f755882"},"vehicle_type_id":"4","last_reported":1727795357,"current_range_meters":30000,"station_id":"cpo3532slgdg3j2ikp40","pricing_plan_id":"cebpf4jnsgd1na2vs0mg"},{"bike_id":"b7a75d39-7de2-45b7-9a7f-76b26f7a01b8","system_id":"levelo_inurba_marseille","lat":43.32621,"lon":5.37503,"is_reserved":false,"is_disabled":false,"rental_uris":{"android":"levelo://app?vid=b7a75d39-7de2-45b7-9a7f-76b26f7a01b8","ios":"levelo://app?vid=b7a75d39-7de2-45b7-9a7f-76b26f7a01b8"},"vehicle_type_id":"4","last_reported":1727795357,"current_range_meters":36400,"station_id":"ce4bguh2rcd13ifvqckg","pricing_plan_id":"cebpf4jnsgd1na2vs0mg"},{"bike_id":"8686069e-81c3-4735-aad0-2bfab84d37c7","system_id":"levelo_inurba_marseille","lat":43.288452,"lon":5.393,"is_reserved":false,"is_disabled":false,"rental_uris":{"android":"levelo://app?vid=8686069e-81c3-4735-aad0-2bfab84d37c7","ios":"levelo://app?vid=8686069e-81c3-4735-aad0-2bfab84d37c7"},"vehicle_type_id":"4","last_reported":1727795357,"current_range_meters":12000,"station_id":"ce4bh2p2rcd13ifvqdi0","pricing_plan_id":"cebpf4jnsgd1na2vs0mg"},{"bike_id":"98789e31-882f-4cbe-8d22-2917f9813c78","system_id":"levelo_inurba_marseille","lat":43.27997,"lon":5.41663,"is_reserved":false,"is_disabled":false,"rental_uris":{"android":"levelo://app?vid=98789e31-882f-4cbe-8d22-2917f9813c78","ios":"levelo://app?vid=98789e31-882f-4cbe-8d22-2917f9813c78"},"vehicle_type_id":"4","last_reported":1727795357,"current_range_meters":22800,"station_id":"ce4bho12rcd13ifvqh1g","pricing_plan_id":"cebpf4jnsgd1na2vs0mg"},{"bike_id":"d52d927a-3016-4861-a27b-c1bd9e657d0a","system_id":"levelo_inurba_marseille","lat":43.32059,"lon":5.41566,"is_reserved":false,"is_disabled":false,"rental_uris":{"android":"levelo://app?vid=d52d927a-3016-4861-a27b-c1bd9e657d0a","ios":"levelo://app?vid=d52d927a-3016-4861-a27b-c1bd9e657d0a"},"vehicle_type_id":"4","last_reported":1727795357,"current_range_meters":39200,"station_id":"ce4bhq92rcd13ifvqhkg","pricing_plan_id":"cebpf4jnsgd1na2vs0mg"},{"bike_id":"ef150c85-0ff5-4091-8cb4-619adcafac75","system_id":"levelo_inurba_marseille","lat":43.30604,"lon":5.37233,"is_reserved":false,"is_disabled":false,"rental_uris":{"android":"levelo://app?vid=ef150c85-0ff5-4091-8cb4-619adcafac75","ios":"levelo://app?vid=ef150c85-0ff5-4091-8cb4-619adcafac75"},"vehicle_type_id":"4","last_reported":1727795357,"current_range_meters":38800,"station_id":"ce4bgqh2rcd13ifvqc4g","pricing_plan_id":"cebpf4jnsgd1na2vs0mg"},{"bike_id":"c0a6c131-15c1-4bac-86f7-6a9227dc5bd6","system_id":"levelo_inurba_marseille","lat":43.33026,"lon":5.39039,"is_reserved":false,"is_disabled":false,"rental_uris":{"android":"levelo://app?vid=c0a6c131-15c1-4bac-86f7-6a9227dc5bd6","ios":"levelo://app?vid=c0a6c131-15c1-4bac-86f7-6a9227dc5bd6"},"vehicle_type_id":"4","last_reported":1727795357,"current_range_meters":31200,"station_id":"ce4bhr92rcd13ifvqhrg","pricing_plan_id":"cebpf4jnsgd1na2vs0mg"},{"bike_id":"b51872bb-ac27-4786-ace2-e14ec09d6235","system_id":"levelo_inurba_marseille","lat":43.2782,"lon":5.40712,"is_reserved":false,"is_disabled":false,"rental_uris":{"android":"levelo://app?vid=b51872bb-ac27-4786-ace2-e14ec09d6235","ios":"levelo://app?vid=b51872bb-ac27-4786-ace2-e14ec09d6235"},"vehicle_type_id":"4","last_reported":1727795357,"current_range_meters":38000,"station_id":"ce4bhnh2rcd13ifvqgtg","pricing_plan_id":"cebpf4jnsgd1na2vs0mg"},{"bike_id":"141c2656-99a9-4dd9-b728-b800696b3d9a","system_id":"levelo_inurba_marseille","lat":43.29521,"lon":5.39404,"is_reserved":false,"is_disabled":false,"rental_uris":{"android":"levelo://app?vid=141c2656-99a9-4dd9-b728-b800696b3d9a","ios":"levelo://app?vid=141c2656-99a9-4dd9-b728-b800696b3d9a"},"vehicle_type_id":"4","last_reported":1727795357,"current_range_meters":6800,"station_id":"ce4bh292rcd13ifvqdf0","pricing_plan_id":"cebpf4jnsgd1na2vs0mg"},{"bike_id":"34dd7f5c-83e7-422a-99c0-9d8d912dfe68","system_id":"levelo_inurba_marseille","lat":43.24167,"lon":5.3639,"is_reserved":false,"is_disabled":false,"rental_uris":{"android":"levelo://app?vid=34dd7f5c-83e7-422a-99c0-9d8d912dfe68","ios":"levelo://app?vid=34dd7f5c-83e7-422a-99c0-9d8d912dfe68"},"vehicle_type_id":"4","last_reported":1727795357,"current_range_meters":16000,"station_id":"cpo36qri1sfpv3e86is0","pricing_plan_id":"cebpf4jnsgd1na2vs0mg"},{"bike_id":"3d9f7d9e-a9cb-4d62-8f43-2fe3a38cb229","system_id":"levelo_inurba_marseille","lat":43.29417,"lon":5.38624,"is_reserved":false,"is_disabled":false,"rental_uris":{"android":"levelo://app?vid=3d9f7d9e-a9cb-4d62-8f43-2fe3a38cb229","ios":"levelo://app?vid=3d9f7d9e-a9cb-4d62-8f43-2fe3a38cb229"},"vehicle_type_id":"4","last_reported":1727795357,"current_range_meters":12000,"station_id":"ce4bh2h2rcd13ifvqdh0","pricing_plan_id":"cebpf4jnsgd1na2vs0mg"},{"bike_id":"bd6538d9-555c-4279-ac08-c5285ea3c6d1","system_id":"levelo_inurba_marseille","lat":43.30812,"lon":5.38147,"is_reserved":false,"is_disabled":false,"rental_uris":{"android":"levelo://app?vid=bd6538d9-555c-4279-ac08-c5285ea3c6d1","ios":"levelo://app?vid=bd6538d9-555c-4279-ac08-c5285ea3c6d1"},"vehicle_type_id":"4","last_reported":1727795357,"current_range_meters":1600,"station_id":"ce4bgt12rcd13ifvqce0","pricing_plan_id":"cebpf4jnsgd1na2vs0mg"},{"bike_id":"f9dbc8cc-b890-4518-8c4e-442f1c665a9e","system_id":"levelo_inurba_marseille","lat":43.296,"lon":5.38104,"is_reserved":false,"is_disabled":false,"rental_uris":{"android":"levelo://app?vid=f9dbc8cc-b890-4518-8c4e-442f1c665a9e","ios":"levelo://app?vid=f9dbc8cc-b890-4518-8c4e-442f1c665a9e"},"vehicle_type_id":"4","last_reported":1727795357,"current_range_meters":32800,"station_id":"ce4bgl12rcd13ifvqbo0","pricing_plan_id":"cebpf4jnsgd1na2vs0mg"},{"bike_id":"73fedb69-1081-4009-ab18-9f270ed00e4b","system_id":"levelo_inurba_marseille","lat":43.273788,"lon":5.362573,"is_reserved":false,"is_disabled":false,"rental_uris":{"android":"levelo://app?vid=73fedb69-1081-4009-ab18-9f270ed00e4b","ios":"levelo://app?vid=73fedb69-1081-4009-ab18-9f270ed00e4b"},"vehicle_type_id":"4","last_reported":1727795357,"current_range_meters":7200,"station_id":"ce4bhbh2rcd13ifvqeo0","pricing_plan_id":"cebpf4jnsgd1na2vs0mg"},{"bike_id":"8fc40169-021d-4e67-bd05-5a507f526dd1","system_id":"levelo_inurba_marseille","lat":43.23184,"lon":5.39994,"is_reserved":false,"is_disabled":false,"rental_uris":{"android":"levelo://app?vid=8fc40169-021d-4e67-bd05-5a507f526dd1","ios":"levelo://app?vid=8fc40169-021d-4e67-bd05-5a507f526dd1"},"vehicle_type_id":"4","last_reported":1727795357,"current_range_meters":27200,"station_id":"ce4bhn12rcd13ifvqgqg","pricing_plan_id":"cebpf4jnsgd1na2vs0mg"},{"bike_id":"06e8b2b2-13f3-48d4-b237-a7949d86f1ce","system_id":"levelo_inurba_marseille","lat":43.301884,"lon":5.366273,"is_reserved":false,"is_disabled":false,"rental_uris":{"android":"levelo://app?vid=06e8b2b2-13f3-48d4-b237-a7949d86f1ce","ios":"levelo://app?vid=06e8b2b2-13f3-48d4-b237-a7949d86f1ce"},"vehicle_type_id":"4","last_reported":1727795357,"current_range_meters":6400,"station_id":"ce4bgrh2rcd13ifvqc8g","pricing_plan_id":"cebpf4jnsgd1na2vs0mg"},{"bike_id":"8c7fd87d-57d6-40ee-99b1-d4c6be3b34bd","system_id":"levelo_inurba_marseille","lat":43.26554,"lon":5.37285,"is_reserved":false,"is_disabled":false,"rental_uris":{"android":"levelo://app?vid=8c7fd87d-57d6-40ee-99b1-d4c6be3b34bd","ios":"levelo://app?vid=8c7fd87d-57d6-40ee-99b1-d4c6be3b34bd"},"vehicle_type_id":"4","last_reported":1727795357,"current_range_meters":25200,"station_id":"ce4bhg12rcd13ifvqf70","pricing_plan_id":"cebpf4jnsgd1na2vs0mg"},{"bike_id":"ba97feca-53b5-4bde-aa66-6b334d86beea","system_id":"levelo_inurba_marseille","lat":43.29577,"lon":5.37515,"is_reserved":false,"is_disabled":false,"rental_uris":{"android":"levelo://app?vid=ba97feca-53b5-4bde-aa66-6b334d86beea","ios":"levelo://app?vid=ba97feca-53b5-4bde-aa66-6b334d86beea"},"vehicle_type_id":"4","last_reported":1727795357,"current_range_meters":24800,"station_id":"ce4bgh92rcd13ifvqb50","pricing_plan_id":"cebpf4jnsgd1na2vs0mg"},{"bike_id":"3a1842bf-b52d-4835-97b1-9c30914f4aed","system_id":"levelo_inurba_marseille","lat":43.31082,"lon":5.42429,"is_reserved":false,"is_disabled":false,"rental_uris":{"android":"levelo://app?vid=3a1842bf-b52d-4835-97b1-9c30914f4aed","ios":"levelo://app?vid=3a1842bf-b52d-4835-97b1-9c30914f4aed"},"vehicle_type_id":"4","last_reported":1727795357,"current_range_meters":24800,"station_id":"ce4bhp92rcd13ifvqhag","pricing_plan_id":"cebpf4jnsgd1na2vs0mg"},{"bike_id":"7a058c96-1725-4658-a1ee-a4f1c73d26f7","system_id":"levelo_inurba_marseille","lat":43.290955,"lon":5.381265,"is_reserved":false,"is_disabled":false,"rental_uris":{"android":"levelo://app?vid=7a058c96-1725-4658-a1ee-a4f1c73d26f7","ios":"levelo://app?vid=7a058c96-1725-4658-a1ee-a4f1c73d26f7"},"vehicle_type_id":"4","last_reported":1727795357,"current_range_meters":37600,"station_id":"ce4bh512rcd13ifvqe2g","pricing_plan_id":"cebpf4jnsgd1na2vs0mg"},{"bike_id":"11d7c878-b28a-424d-bb16-4c514123bca7","system_id":"levelo_inurba_marseille","lat":43.27975,"lon":5.38739,"is_reserved":false,"is_disabled":false,"rental_uris":{"android":"levelo://app?vid=11d7c878-b28a-424d-bb16-4c514123bca7","ios":"levelo://app?vid=11d7c878-b28a-424d-bb16-4c514123bca7"},"vehicle_type_id":"4","last_reported":1727795357,"current_range_meters":3200,"station_id":"ce4bhg12rcd13ifvqf80","pricing_plan_id":"cebpf4jnsgd1na2vs0mg"},{"bike_id":"30f88b59-ec72-40b3-96fb-55c5cda6b150","system_id":"levelo_inurba_marseille","lat":43.32478,"lon":5.36558,"is_reserved":false,"is_disabled":false,"rental_uris":{"android":"levelo://app?vid=30f88b59-ec72-40b3-96fb-55c5cda6b150","ios":"levelo://app?vid=30f88b59-ec72-40b3-96fb-55c5cda6b150"},"vehicle_type_id":"4","last_reported":1727795357,"current_range_meters":39200,"station_id":"ce4bhs12rcd13ifvqhvg","pricing_plan_id":"cebpf4jnsgd1na2vs0mg"},{"bike_id":"a3bb5cfe-0a37-4de6-ab68-cdfeaabac780","system_id":"levelo_inurba_marseille","lat":43.32481,"lon":5.36565,"is_reserved":false,"is_disabled":false,"rental_uris":{"android":"levelo://app?vid=a3bb5cfe-0a37-4de6-ab68-cdfeaabac780","ios":"levelo://app?vid=a3bb5cfe-0a37-4de6-ab68-cdfeaabac780"},"vehicle_type_id":"4","last_reported":1727795357,"current_range_meters":38000,"station_id":"ce4bhs12rcd13ifvqhvg","pricing_plan_id":"cebpf4jnsgd1na2vs0mg"},{"bike_id":"ced34804-c6fb-4164-ada9-5accf18662ac","system_id":"levelo_inurba_marseille","lat":43.3055,"lon":5.36695,"is_reserved":false,"is_disabled":false,"rental_uris":{"android":"levelo://app?vid=ced34804-c6fb-4164-ada9-5accf18662ac","ios":"levelo://app?vid=ced34804-c6fb-4164-ada9-5accf18662ac"},"vehicle_type_id":"4","last_reported":1727795357,"current_range_meters":32800,"station_id":"ce4bgrp2rcd13ifvqc9g","pricing_plan_id":"cebpf4jnsgd1na2vs0mg"},{"bike_id":"4c52ae61-4d55-4879-9a90-246e25fed59e","system_id":"levelo_inurba_marseille","lat":43.26028,"lon":5.37545,"is_reserved":false,"is_disabled":false,"rental_uris":{"android":"levelo://app?vid=4c52ae61-4d55-4879-9a90-246e25fed59e","ios":"levelo://app?vid=4c52ae61-4d55-4879-9a90-246e25fed59e"},"vehicle_type_id":"4","last_reported":1727795357,"current_range_meters":38800,"station_id":"ce4bhgh2rcd13ifvqfa0","pricing_plan_id":"cebpf4jnsgd1na2vs0mg"},{"bike_id":"d4de7b52-7a60-4273-9daf-daf853db57d2","system_id":"levelo_inurba_marseille","lat":43.28076,"lon":5.39661,"is_reserved":false,"is_disabled":false,"rental_uris":{"android":"levelo://app?vid=d4de7b52-7a60-4273-9daf-daf853db57d2","ios":"levelo://app?vid=d4de7b52-7a60-4273-9daf-daf853db57d2"},"vehicle_type_id":"4","last_reported":1727795357,"current_range_meters":38800,"station_id":"ce4bho12rcd13ifvqh2g","pricing_plan_id":"cebpf4jnsgd1na2vs0mg"},{"bike_id":"abec48ac-1cf5-4448-813d-585ee87cd0f3","system_id":"levelo_inurba_marseille","lat":43.31496,"lon":5.373,"is_reserved":false,"is_disabled":false,"rental_uris":{"android":"levelo://app?vid=abec48ac-1cf5-4448-813d-585ee87cd0f3","ios":"levelo://app?vid=abec48ac-1cf5-4448-813d-585ee87cd0f3"},"vehicle_type_id":"4","last_reported":1727795357,"current_range_meters":38800,"station_id":"ce4bgt12rcd13ifvqcd0","pricing_plan_id":"cebpf4jnsgd1na2vs0mg"},{"bike_id":"9918253f-174a-4067-b95b-15155bf25848","system_id":"levelo_inurba_marseille","lat":43.2439,"lon":5.3706,"is_reserved":false,"is_disabled":false,"rental_uris":{"android":"levelo://app?vid=9918253f-174a-4067-b95b-15155bf25848","ios":"levelo://app?vid=9918253f-174a-4067-b95b-15155bf25848"},"vehicle_type_id":"4","last_reported":1727795357,"current_range_meters":30800,"station_id":"ce4bhhh2rcd13ifvqfk0","pricing_plan_id":"cebpf4jnsgd1na2vs0mg"},{"bike_id":"e2f35df7-6476-4b40-b26c-0a19ea49d5a3","system_id":"levelo_inurba_marseille","lat":43.2992,"lon":5.37492,"is_reserved":false,"is_disabled":false,"rental_uris":{"android":"levelo://app?vid=e2f35df7-6476-4b40-b26c-0a19ea49d5a3","ios":"levelo://app?vid=e2f35df7-6476-4b40-b26c-0a19ea49d5a3"},"vehicle_type_id":"4","last_reported":1727795357,"current_range_meters":32400,"station_id":"ce4bgjh2rcd13ifvqbg0","pricing_plan_id":"cebpf4jnsgd1na2vs0mg"},{"bike_id":"9603dff9-4db1-484d-b1e8-8242d14c19b4","system_id":"levelo_inurba_marseille","lat":43.24391,"lon":5.37063,"is_reserved":false,"is_disabled":false,"rental_uris":{"android":"levelo://app?vid=9603dff9-4db1-484d-b1e8-8242d14c19b4","ios":"levelo://app?vid=9603dff9-4db1-484d-b1e8-8242d14c19b4"},"vehicle_type_id":"4","last_reported":1727795357,"current_range_meters":9600,"station_id":"ce4bhhh2rcd13ifvqfk0","pricing_plan_id":"cebpf4jnsgd1na2vs0mg"},