{"last_updated":1716311221,"ttl":30,"version":"2.2","data":{"bikes":[{"bike_id":"66948f33-6329-4b8e-be0e-f9470bb3cb2f","system_id":"levelo_inurba_marseille","lat":43.312239,"lon":5.368562,"is_reserved":false,"is_disabled":false,"rental_uris":{"android":"levelo://app?vid=66948f33-6329-4b8e-be0e-f9470bb3cb2f","ios":"levelo://app?vid=66948f33-6329-4b8e-be0e-f9470bb3cb2f"},"vehicle_type_id":"4","last_reported":1716311221,"current_range_meters":3600,"station_id":"ce4bgl92rcd13ifvqbq0","pricing_plan_id":"cebpf4jnsgd1na2vs0mg"},{"bike_id":"05ef1c68-f747-4e54-bf82-c20961d808fb","system_id":"levelo_inurba_marseille","lat":43.314811,"lon":5.373103,"is_reserved":false,"is_disabled":false,"rental_uris":{"android":"levelo://app?vid=05ef1c68-f747-4e54-bf82-c20961d808fb","ios":"levelo://app?vid=05ef1c68-f747-4e54-bf82-c20961d808fb"},"vehicle_type_id":"4","last_reported":1716311221,"current_range_meters":24800,"station_id":"ce4bgt12rcd13ifvqcd0","pricing_plan_id":"cebpf4jnsgd1na2vs0mg"},{"bike_id":"0fdb7475-5fa7-4fc0-bda6-761f811d63f9","system_id":"levelo_inurba_marseille","lat":43.314811,"lon":5.373103,"is_reserved":false,"is_disabled":false,"rental_uris":{"android":"levelo://app?vid=0fdb7475-5fa7-4fc0-bda6-761f811d63f9","ios":"levelo://app?vid=0fdb7475-5fa7-4fc0-bda6-761f811d63f9"},"vehicle_type_id":"4","last_reported":1716311221,"current_range_meters":20800,"station_id":"ce4bgt12rcd13ifvqcd0","pricing_plan_id":"cebpf4jnsgd1na2vs0mg"},{"bike_id":"5f174f4a-f9c5-40e8-9027-cb2e27b1a6ef","system_id":"levelo_inurba_marseille","lat":43.31502,"lon":5.37306,"is_reserved":false,"is_disabled":false,"rental_uris":{"android":"levelo://app?vid=5f174f4a-f9c5-40e8-9027-cb2e27b1a6ef","ios":"levelo://app?vid=5f174f4a-f9c5-40e8-9027-cb2e27b1a6ef"},"vehicle_type_id":"4","last_reported":1716311221,"current_range_meters":1600,"station_id":"ce4bgt12rcd13ifvqcd0","pricing_plan_id":"cebpf4jnsgd1na2vs0mg"},{"bike_id":"17430776-3674-4527-975a-a00528e2b280","system_id":"levelo_inurba_marseille","lat":43.309034,"lon":5.371783,"is_reserved":false,"is_disabled":false,"rental_uris":{"android":"levelo://app?vid=17430776-3674-4527-975a-a00528e2b280","ios":"levelo://app?vid=17430776-3674-4527-975a-a00528e2b280"},"vehicle_type_id":"4","last_reported":1716311221,"current_range_meters":0,"station_id":"ce4bguh2rcd13ifvqckg","pricing_plan_id":"cebpf4jnsgd1na2vs0mg"},{"bike_id":"01d7e4b9-0184-4983-9638-9c787967f64b","system_id":"levelo_inurba_marseille","lat":43.30878,"lon":5.37197,"is_reserved":false,"is_disabled":false,"rental_uris":{"android":"levelo://app?vid=01d7e4b9-0184-4983-9638-9c787967f64b","ios":"levelo://app?vid=01d7e4b9-0184-4983-9638-9c787967f64b"},"vehicle_type_id":"4","last_reported":1716311221,"current_range_meters":0,"station_id":"ce4bguh2rcd13ifvqckg","pricing_plan_id":"cebpf4jnsgd1na2vs0mg"},{"bike_id":"e4632e7a-2deb-48a7-808d-6c5307f12802","system_id":"levelo_inurba_marseille","lat":43.31672,"lon":5.3722,"is_reserved":false,"is_disabled":false,"rental_uris":{"android":"levelo://app?vid=e4632e7a-2deb-48a7-808d-6c5307f12802","ios":"levelo://app?vid=e4632e7a-2deb-48a7-808d-6c5307f12802"},"vehicle_type_id":"4","last_reported":1716311221,"current_range_meters":14000,"station_id":"","pricing_plan_id":"cebpf4jnsgd1na2vs0mg"},{"bike_id":"d2adbb70-1e99-403a-a9a2-e37d096edd1f","system_id":"levelo_inurba_marseille","lat":43.30581,"lon":5.366553,"is_reserved":false,"is_disabled":false,"rental_uris":{"android":"levelo://app?vid=d2adbb70-1e99-403a-a9a2-e37d096edd1f","ios":"levelo://app?vid=d2adbb70-1e99-403a-a9a2-e37d096edd1f"},"vehicle_type_id":"4","last_reported":1716311221,"current_range_meters":26400,"station_id":"","pricing_plan_id":"cebpf4jnsgd1na2vs0mg"},{"bike_id":"0eb80428-0bd2-49f6-8261-bf71e946c9fc","system_id":"levelo_inurba_marseille","lat":43.31053,"lon":5.37614,"is_reserved":false,"is_disabled":false,"rental_uris":{"android":"levelo://app?vid=0eb80428-0bd2-49f6-8261-bf71e946c9fc","ios":"levelo://app?vid=0eb80428-0bd2-49f6-8261-bf71e946c9fc"},"vehicle_type_id":"4","last_reported":1716311221,"current_range_meters":2000,"station_id":"ce4bgph2rcd13ifvqc2g","pricing_plan_id":"cebpf4jnsgd1na2vs0mg"},{"bike_id":"b29738a8-c77f-4bbc-9087-5a5eeed9b3de","system_id":"levelo_inurba_marseille","lat":43.305524,"lon":5.367088,"is_reserved":false,"is_disabled":false,"rental_uris":{"android":"levelo://app?vid=b29738a8-c77f-4bbc-9087-5a5eeed9b3de","ios":"levelo://app?vid=b29738a8-c77f-4bbc-9087-5a5eeed9b3de"},"vehicle_type_id":"4","last_reported":1716311221,"current_range_meters":0,"station_id":"ce4bgrp2rcd13ifvqc9g","pricing_plan_id":"cebpf4jnsgd1na2vs0mg"},{"bike_id":"de7cee29-8f1f-4b2a-8cef-bc98ad44ec0d","system_id":"levelo_inurba_marseille","lat":43.30537,"lon":5.367345,"is_reserved":false,"is_disabled":false,"rental_uris":{"android":"levelo://app?vid=de7cee29-8f1f-4b2a-8cef-bc98ad44ec0d","ios":"levelo://app?vid=de7cee29-8f1f-4b2a-8cef-bc98ad44ec0d"},"vehicle_type_id":"4","last_reported":1716311221,"current_range_meters":7600,"station_id":"ce4bgrp2rcd13ifvqc9g","pricing_plan_id":"cebpf4jnsgd1na2vs0mg"},{"bike_id":"28f5efd3-5f41-43a8-97c5-912918f95901","system_id":"levelo_inurba_marseille","lat":43.30611,"lon":5.37238,"is_reserved":false,"is_disabled":false,"rental_uris":{"android":"levelo://app?vid=28f5efd3-5f41-43a8-97c5-912918f95901","ios":"levelo://app?vid=28f5efd3-5f41-43a8-97c5-912918f95901"},"vehicle_type_id":"4","last_reported":1716311221,"current_range_meters":0,"station_id":"ce4bgqh2rcd13ifvqc4g","pricing_plan_id":"cebpf4jnsgd1na2vs0mg"},{"bike_id":"ac736efb-ffb0-4814-99c0-5471e9b1fdb2","system_id":"levelo_inurba_marseille","lat":43.30605,"lon":5.37227,"is_reserved":false,"is_disabled":false,"rental_uris":{"android":"levelo://app?vid=ac736efb-ffb0-4814-99c0-5471e9b1fdb2","ios":"levelo://app?vid=ac736efb-ffb0-4814-99c0-5471e9b1fdb2"},"vehicle_type_id":"4","last_reported":1716311221,"current_range_meters":0,"station_id":"ce4bgqh2rcd13ifvqc4g","pricing_plan_id":"cebpf4jnsgd1na2vs0mg"},{"bike_id":"085f8808-1d82-4a31-a42a-8e58df7e3717","system_id":"levelo_inurba_marseille","lat":43.305989,"lon":5.37225,"is_reserved":false,"is_disabled":false,"rental_uris":{"android":"levelo://app?vid=085f8808-1d82-4a31-a42a-8e58df7e3717","ios":"levelo://app?vid=085f8808-1d82-4a31-a42a-8e58df7e3717"},"vehicle_type_id":"4","last_reported":1716311221,"current_range_meters":19600,"station_id":"ce4bgqh2rcd13ifvqc4g","pricing_plan_id":"cebpf4jnsgd1na2vs0mg"},{"bike_id":"6a938b94-796f-48e9-b3fc-a1409f3cc1a4","system_id":"levelo_inurba_marseille","lat":43.305989,"lon":5.37225,"is_reserved":false,"is_disabled":false,"rental_uris":{"android":"levelo://app?vid=6a938b94-796f-48e9-b3fc-a1409f3cc1a4","ios":"levelo://app?vid=6a938b94-796f-48e9-b3fc-a1409f3cc1a4"},"vehicle_type_id":"4","last_reported":1716311221,"current_range_meters":4400,"station_id":"ce4bgqh2rcd13ifvqc4g","pricing_plan_id":"cebpf4jnsgd1na2vs0mg"},{"bike_id":"c389845a-6a6b-4f59-b483-2d9379eb21d7","system_id":"levelo_inurba_marseille","lat":43.305989,"lon":5.37225,"is_reserved":false,"is_disabled":false,"rental_uris":{"android":"levelo://app?vid=c389845a-6a6b-4f59-b483-2d9379eb21d7","ios":"levelo://app?vid=c389845a-6a6b-4f59-b483-2d9379eb21d7"},"vehicle_type_id":"4","last_reported":1716311221,"current_range_meters":19600,"station_id":"ce4bgqh2rcd13ifvqc4g","pricing_plan_id":"cebpf4jnsgd1na2vs0mg"},{"bike_id":"8db2245a-9174-4fb7-80c2-48fd9e3758c0","system_id":"levelo_inurba_marseille","lat":43.311195,"lon":5.377769,"is_reserved":false,"is_disabled":false,"rental_uris":{"android":"levelo://app?vid=8db2245a-9174-4fb7-80c2-48fd9e3758c0","ios":"levelo://app?vid=8db2245a-9174-4fb7-80c2-48fd9e3758c0"},"vehicle_type_id":"4","last_reported":1716311221,"current_range_meters":29600,"station_id":"ce4bgt92rcd13ifvqcg0","pricing_plan_id":"cebpf4jnsgd1na2vs0mg"},{"bike_id":"aba4be68-12cf-4acc-ad0b-5d2f060d0193","system_id":"levelo_inurba_marseille","lat":43.311131,"lon":5.377651,"is_reserved":false,"is_disabled":false,"rental_uris":{"android":"levelo://app?vid=aba4be68-12cf-4acc-ad0b-5d2f060d0193","ios":"levelo://app?vid=aba4be68-12cf-4acc-ad0b-5d2f060d0193"},"vehicle_type_id":"4","last_reported":1716311221,"current_range_meters":9200,"station_id":"ce4bgt92rcd13ifvqcg0","pricing_plan_id":"cebpf4jnsgd1na2vs0mg"},{"bike_id":"68a05120-ce93-4b9a-8824-720752af7d65","system_id":"levelo_inurba_marseille","lat":43.311195,"lon":5.377795,"is_reserved":false,"is_disabled":false,"rental_uris":{"android":"levelo://app?vid=68a05120-ce93-4b9a-8824-720752af7d65","ios":"levelo://app?vid=68a05120-ce93-4b9a-8824-720752af7d65"},"vehicle_type_id":"4","last_reported":1716311221,"current_range_meters":7200,"station_id":"","pricing_plan_id":"cebpf4jnsgd1na2vs0mg"},{"bike_id":"ffce6560-0313-466f-a280-830d465ade8d","system_id":"levelo_inurba_marseille","lat":43.307945,"lon":5.376487,"is_reserved":false,"is_disabled":false,"rental_uris":{"android":"levelo://app?vid=ffce6560-0313-466f-a280-830d465ade8d","ios":"levelo://app?vid=ffce6560-0313-466f-a280-830d465ade8d"},"vehicle_type_id":"4","last_reported":1716311221,"current_range_meters":17600,"station_id":"ce4bgv92rcd13ifvqcq0","pricing_plan_id":"cebpf4jnsgd1na2vs0mg"},{"bike_id":"aac37838-28b8-41bb-8692-66e2e5d0da2b","system_id":"levelo_inurba_marseille","lat":43.307945,"lon":5.376487,"is_reserved":false,"is_disabled":false,"rental_uris":{"android":"levelo://app?vid=aac37838-28b8-41bb-8692-66e2e5d0da2b","ios":"levelo://app?vid=aac37838-28b8-41bb-8692-66e2e5d0da2b"},"vehicle_type_id":"4","last_reported":1716311221,"current_range_meters":24400,"station_id":"ce4bgv92rcd13ifvqcq0","pricing_plan_id":"cebpf4jnsgd1na2vs0mg"},{"bike_id":"342a71d7-a293-4fe0-8bb2-78ed707f820d","system_id":"levelo_inurba_marseille","lat":43.307945,"lon":5.376487,"is_reserved":false,"is_disabled":false,"rental_uris":{"android":"levelo://app?vid=342a71d7-a293-4fe0-8bb2-78ed707f820d","ios":"levelo://app?vid=342a71d7-a293-4fe0-8bb2-78ed707f820d"},"vehicle_type_id":"4","last_reported":1716311221,"current_range_meters":1200,"station_id":"ce4bgv92rcd13ifvqcq0","pricing_plan_id":"cebpf4jnsgd1na2vs0mg"},{"bike_id":"6eba2aa3-3969-40c5-90ca-4f15803411a2","system_id":"levelo_inurba_marseille","lat":43.317075,"lon":5.377367,"is_reserved":false,"is_disabled":false,"rental_uris":{"android":"levelo://app?vid=6eba2aa3-3969-40c5-90ca-4f15803411a2","ios":"levelo://app?vid=6eba2aa3-3969-40c5-90ca-4f15803411a2"},"vehicle_type_id":"4","last_reported":1716311221,"current_range_meters":6400,"station_id":"ce4bgth2rcd13ifvqch0","pricing_plan_id":"cebpf4jnsgd1na2vs0mg"},{"bike_id":"82d08035-4341-41a1-8f61-20d4a80957c9","system_id":"levelo_inurba_marseille","lat":43.317033,"lon":5.377411,"is_reserved":false,"is_disabled":false,"rental_uris":{"android":"levelo://app?vid=82d08035-4341-41a1-8f61-20d4a80957c9","ios":"levelo://app?vid=82d08035-4341-41a1-8f61-20d4a80957c9"},"vehicle_type_id":"4","last_reported":1716311221,"current_range_meters":14000,"station_id":"ce4bgth2rcd13ifvqch0","pricing_plan_id":"cebpf4jnsgd1na2vs0mg"},{"bike_id":"680cc37e-8ca7-4b3a-981b-9e9a7de11f94","system_id":"levelo_inurba_marseille","lat":43.317111,"lon":5.377566,"is_reserved":false,"is_disabled":false,"rental_uris":{"android":"levelo://app?vid=680cc37e-8ca7-4b3a-981b-9e9a7de11f94","ios":"levelo://app?vid=680cc37e-8ca7-4b3a-981b-9e9a7de11f94"},"vehicle_type_id":"4","last_reported":1716311221,"current_range_meters":2400,"station_id":"ce4bgth2rcd13ifvqch0","pricing_plan_id":"cebpf4jnsgd1na2vs0mg"},{"bike_id":"e8c77232-a49d-45b1-811d-b55b9ec41d43","system_id":"levelo_inurba_marseille","lat":43.317075,"lon":5.377627,"is_reserved":false,"is_disabled":false,"rental_uris":{"android":"levelo://app?vid=e8c77232-a49d-45b1-811d-b55b9ec41d43","ios":"levelo://app?vid=e8c77232-a49d-45b1-811d-b55b9ec41d43"},"vehicle_type_id":"4","last_reported":1716311221,"current_range_meters":6400,"station_id":"ce4bgth2rcd13ifvqch0","pricing_plan_id":"cebpf4jnsgd1na2vs0mg"},{"bike_id":"384082e4-e2cb-4cc6-8792-62f92dd421af","system_id":"levelo_inurba_marseille","lat":43.317075,"lon":5.377367,"is_reserved":false,"is_disabled":false,"rental_uris":{"android":"levelo://app?vid=384082e4-e2cb-4cc6-8792-62f92dd421af","ios":"levelo://app?vid=384082e4-e2cb-4cc6-8792-62f92dd421af"},"vehicle_type_id":"4","last_reported":1716311221,"current_range_meters":11600,"station_id":"ce4bgth2rcd13ifvqch0","pricing_plan_id":"cebpf4jnsgd1na2vs0mg"},{"bike_id":"6be75061-e0ab-4ba4-b5ce-9cba27ae2d03","system_id":"levelo_inurba_marseille","lat":43.304214,"lon":5.371847,"is_reserved":false,"is_disabled":false,"rental_uris":{"android":"levelo://app?vid=6be75061-e0ab-4ba4-b5ce-9cba27ae2d03","ios":"levelo://app?vid=6be75061-e0ab-4ba4-b5ce-9cba27ae2d03"},"vehicle_type_id":"4","last_reported":1716311221,"current_range_meters":6800,"station_id":"","pricing_plan_id":"cebpf4jnsgd1na2vs0mg"},{"bike_id":"05926321-c343-4616-bc57-2827771bf31a","system_id":"levelo_inurba_marseille","lat":43.302353,"lon":5.370117,"is_reserved":false,"is_disabled":false,"rental_uris":{"android":"levelo://app?vid=05926321-c343-4616-bc57-2827771bf31a","ios":"levelo://app?vid=05926321-c343-4616-bc57-2827771bf31a"},"vehicle_type_id":"4","last_reported":1716311221,"current_range_meters":0,"station_id":"","pricing_plan_id":"cebpf4jnsgd1na2vs0mg"},{"bike_id":"6d4e0581-9470-4b48-9645-8c285720ac56","system_id":"levelo_inurba_marseille","lat":43.301939,"lon":5.366286,"is_reserved":false,"is_disabled":false,"rental_uris":{"android":"levelo://app?vid=6d4e0581-9470-4b48-9645-8c285720ac56","ios":"levelo://app?vid=6d4e0581-9470-4b48-9645-8c285720ac56"},"vehicle_type_id":"4","last_reported":1716311221,"current_range_meters":15600,"station_id":"ce4bgrh2rcd13ifvqc8g","pricing_plan_id":"cebpf4jnsgd1na2vs0mg"},{"bike_id":"7f8f97b2-bfc2-462e-923f-aa12df6c1ec3","system_id":"levelo_inurba_marseille","lat":43.301939,"lon":5.366286,"is_reserved":false,"is_disabled":false,"rental_uris":{"android":"levelo://app?vid=7f8f97b2-bfc2-462e-923f-aa12df6c1ec3","ios":"levelo://app?vid=7f8f97b2-bfc2-462e-923f-aa12df6c1ec3"},"vehicle_type_id":"4","last_reported":1716311221,"current_range_meters":800,"station_id":"ce4bgrh2rcd13ifvqc8g","pricing_plan_id":"cebpf4jnsgd1na2vs0mg"},{"bike_id":"47bef925-617b-43a1-a1ff-2e93a7b9ed53","system_id":"levelo_inurba_marseille","lat":43.301939,"lon":5.366286,"is_reserved":false,"is_disabled":false,"rental_uris":{"android":"levelo://app?vid=47bef925-617b-43a1-a1ff-2e93a7b9ed53","ios":"levelo://app?vid=47bef925-617b-43a1-a1ff-2e93a7b9ed53"},"vehicle_type_id":"4","last_reported":1716311221,"current_range_meters":20800,"station_id":"ce4bgrh2rcd13ifvqc8g","pricing_plan_id":"cebpf4jnsgd1na2vs0mg"},{"bike_id":"d2da83b7-050b-4db5-a75b-d8aea4c6f12c","system_id":"levelo_inurba_marseille","lat":43.308012,"lon":5.381511,"is_reserved":false,"is_disabled":false,"rental_uris":{"android":"levelo://app?vid=d2da83b7-050b-4db5-a75b-d8aea4c6f12c","ios":"levelo://app?vid=d2da83b7-050b-4db5-a75b-d8aea4c6f12c"},"vehicle_type_id":"4","last_reported":1716311221,"current_range_meters":8000,"station_id":"ce4bgt12rcd13ifvqce0","pricing_plan_id":"cebpf4jnsgd1na2vs0mg"},{"bike_id":"d699807e-8228-4524-90a8-a32b70610eaa","system_id":"levelo_inurba_marseille","lat":43.308012,"lon":5.381511,"is_reserved":false,"is_disabled":false,"rental_uris":{"android":"levelo://app?vid=d699807e-8228-4524-90a8-a32b70610eaa","ios":"levelo://app?vid=d699807e-8228-4524-90a8-a32b70610eaa"},"vehicle_type_id":"4","last_reported":1716311221,"current_range_meters":24000,"station_id":"ce4bgt12rcd13ifvqce0","pricing_plan_id":"cebpf4jnsgd1na2vs0mg"},{"bike_id":"222ee443-1ff3-4542-bcac-ca4fe78cfc70","system_id":"levelo_inurba_marseille","lat":43.308012,"lon":5.381511,"is_reserved":false,"is_disabled":false,"rental_uris":{"android":"levelo://app?vid=222ee443-1ff3-4542-bcac-ca4fe78cfc70","ios":"levelo://app?vid=222ee443-1ff3-4542-bcac-ca4fe78cfc70"},"vehicle_type_id":"4","last_reported":1716311221,"current_range_meters":1600,"station_id":"ce4bgt12rcd13ifvqce0","pricing_plan_id":"cebpf4jnsgd1na2vs0mg"},{"bike_id":"8b42542c-a793-451e-a27c-0bbae6ae9788","system_id":"levelo_inurba_marseille","lat":43.308012,"lon":5.381511,"is_reserved":false,"is_disabled":false,"rental_uris":{"android":"levelo://app?vid=8b42542c-a793-451e-a27c-0bbae6ae9788","ios":"levelo://app?vid=8b42542c-a793-451e-a27c-0bbae6ae9788"},"vehicle_type_id":"4","last_reported":1716311221,"current_range_meters":5600,"station_id":"ce4bgt12rcd13ifvqce0","pricing_plan_id":"cebpf4jnsgd1na2vs0mg"},{"bike_id":"03b2d0ac-4855-463a-a2f0-be21041dc802","system_id":"levelo_inurba_marseille","lat":43.304606,"lon":5.379026,"is_reserved":false,"is_disabled":false,"rental_uris":{"android":"levelo://app?vid=03b2d0ac-4855-463a-a2f0-be21041dc802","ios":"levelo://app?vid=03b2d0ac-4855-463a-a2f0-be21041dc802"},"vehicle_type_id":"4","last_reported":1716311221,"current_range_meters":31200,"station_id":"ce4bgup2rcd13ifvqcn0","pricing_plan_id":"cebpf4jnsgd1na2vs0mg"},{"bike_id":"decb13b7-c66c-4850-9b7c-d4e63e7f2717","system_id":"levelo_inurba_marseille","lat":43.304606,"lon":5.379026,"is_reserved":false,"is_disabled":false,"rental_uris":{"android":"levelo://app?vid=decb13b7-c66c-4850-9b7c-d4e63e7f2717","ios":"levelo://app?vid=decb13b7-c66c-4850-9b7c-d4e63e7f2717"},"vehicle_type_id":"4","last_reported":1716311221,"current_range_meters":0,"station_id":"ce4bgup2rcd13ifvqcn0","pricing_plan_id":"cebpf4jnsgd1na2vs0mg"},{"bike_id":"6f4e3111-ae4c-49a7-b39e-68fcfacb4769","system_id":"levelo_inurba_marseille","lat":43.304606,"lon":5.379026,"is_reserved":false,"is_disabled":false,"rental_uris":{"android":"levelo://app?vid=6f4e3111-ae4c-49a7-b39e-68fcfacb4769","ios":"levelo://app?vid=6f4e3111-ae4c-49a7-b39e-68fcfacb4769"},"vehicle_type_id":"4","last_reported":1716311221,"current_range_meters":0,"station_id":"ce4bgup2rcd13ifvqcn0","pricing_plan_id":"cebpf4jnsgd1na2vs0mg"},{"bike_id":"15762c6f-ef55-4641-8afd-9822bf0831b4","system_id":"levelo_inurba_marseille","lat":43.304606,"lon":5.379026,"is_reserved":false,"is_disabled":false,"rental_uris":{"android":"levelo://app?vid=15762c6f-ef55-4641-8afd-9822bf0831b4","ios":"levelo://app?vid=15762c6f-ef55-4641-8afd-9822bf0831b4"},"vehicle_type_id":"4","last_reported":1716311221,"current_range_meters":25200,"station_id":"ce4bgup2rcd13ifvqcn0","pricing_plan_id":"cebpf4jnsgd1na2vs0mg"},{"bike_id":"b81c3f84-6dfc-4692-84ad-b2a74cf1498e","system_id":"levelo_inurba_marseille","lat":43.324771,"lon":5.36557,"is_reserved":false,"is_disabled":false,"rental_uris":{"android":"levelo://app?vid=b81c3f84-6dfc-4692-84ad-b2a74cf1498e","ios":"levelo://app?vid=b81c3f84-6dfc-4692-84ad-b2a74cf1498e"},"vehicle_type_id":"4","last_reported":1716311221,"current_range_meters":1200,"station_id":"ce4bhs12rcd13ifvqhvg","pricing_plan_id":"cebpf4jnsgd1na2vs0mg"},{"bike_id":"4e136a23-f137-4ccd-bc98-1f147987264b","system_id":"levelo_inurba_marseille","lat":43.324771,"lon":5.36557,"is_reserved":false,"is_disabled":false,"rental_uris":{"android":"levelo://app?vid=4e136a23-f137-4ccd-bc98-1f147987264b","ios":"levelo://app?vid=4e136a23-f137-4ccd-bc98-1f147987264b"},"vehicle_type_id":"4","last_reported":1716311221,"current_range_meters":7600,"station_id":"ce4bhs12rcd13ifvqhvg","pricing_plan_id":"cebpf4jnsgd1na2vs0mg"},{"bike_id":"70d3e2a5-0afd-4b1b-bcae-991f8ddd8b98","system_id":"levelo_inurba_marseille","lat":43.324771,"lon":5.36557,"is_reserved":false,"is_disabled":false,"rental_uris":{"android":"levelo://app?vid=70d3e2a5-0afd-4b1b-bcae-991f8ddd8b98","ios":"levelo://app?vid=70d3e2a5-0afd-4b1b-bcae-991f8ddd8b98"},"vehicle_type_id":"4","last_reported":1716311221,"current_range_meters":2000,"station_id":"ce4bhs12rcd13ifvqhvg","pricing_plan_id":"cebpf4jnsgd1na2vs0mg"},{"bike_id":"ec4d44e4-358c-4e07-ba36-d9c75097cf0e","system_id":"levelo_inurba_marseille","lat":43.324771,"lon":5.36557,"is_reserved":false,"is_disabled":false,"rental_uris":{"android":"levelo://app?vid=ec4d44e4-358c-4e07-ba36-d9c75097cf0e","ios":"levelo://app?vid=ec4d44e4-358c-4e07-ba36-d9c75097cf0e"},"vehicle_type_id":"4","last_reported":1716311221,"current_range_meters":0,"station_id":"ce4bhs12rcd13ifvqhvg","pricing_plan_id":"cebpf4jnsgd1na2vs0mg"},{"bike_id":"933e262c-55d4-4c05-87f8-c6642b649317","system_id":"levelo_inurba_marseille","lat":43.307445,"lon":5.382013,"is_reserved":false,"is_disabled":false,"rental_uris":{"android":"levelo://app?vid=933e262c-55d4-4c05-87f8-c6642b649317","ios":"levelo://app?vid=933e262c-55d4-4c05-87f8-c6642b649317"},"vehicle_type_id":"4","last_reported":1716311221,"current_range_meters":400,"station_id":"ce4bgt12rcd13ifvqce0","pricing_plan_id":"cebpf4jnsgd1na2vs0mg"},{"bike_id":"f9bf7ca3-c894-4ffa-b465-e78cc322ef1d","system_id":"levelo_inurba_marseille","lat":43.310724,"lon":5.383586,"is_reserved":false,"is_disabled":false,"rental_uris":{"android":"levelo://app?vid=f9bf7ca3-c894-4ffa-b465-e78cc322ef1d","ios":"levelo://app?vid=f9bf7ca3-c894-4ffa-b465-e78cc322ef1d"},"vehicle_type_id":"4","last_reported":1716311221,"current_range_meters":0,"station_id":"ce4bgv92rcd13ifvqcr0","pricing_plan_id":"cebpf4jnsgd1na2vs0mg"},{"bike_id":"76303082-de83-436f-ab12-fc8f16e7e2e2","system_id":"levelo_inurba_marseille","lat":43.30143,"lon":5.37413,"is_reserved":false,"is_disabled":false,"rental_uris":{"android":"levelo://app?vid=76303082-de83-436f-ab12-fc8f16e7e2e2","ios":"levelo://app?vid=76303082-de83-436f-ab12-fc8f16e7e2e2"},"vehicle_type_id":"4","last_reported":1716311221,"current_range_meters":18400,"station_id":"ce4bgs92rcd13ifvqcc0","pricing_plan_id":"cebpf4jnsgd1na2vs0mg"},{"bike_id":"8cf3c6e8-7234-4004-9e3e-43bf02c8f996","system_id":"levelo_inurba_marseille","lat":43.30143,"lon":5.37413,"is_reserved":false,"is_disabled":false,"rental_uris":{"android":"levelo://app?vid=8cf3c6e8-7234-4004-9e3e-43bf02c8f996","ios":"levelo://app?vid=8cf3c6e8-7234-4004-9e3e-43bf02c8f996"},"vehicle_type_id":"4","last_reported":1716311221,"current_range_meters":3200,"station_id":"ce4bgs92rcd13ifvqcc0","pricing_plan_id":"cebpf4jnsgd1na2vs0mg"},{"bike_id":"8ff78866-f235-44da-9595-d57f54b097e7","system_id":"levelo_inurba_marseille","lat":43.319935,"lon":5.381699,"is_reserved":false,"is_disabled":false,"rental_uris":{"android":"levelo://app?vid=8ff78866-f235-44da-9595-d57f54b097e7","ios":"levelo://app?vid=8ff78866-f235-44da-9595-d57f54b097e7"},"vehicle_type_id":"4","last_reported":1716311221,"current_range_meters":26800,"station_id":"ce4bhr12rcd13ifvqhpg","pricing_plan_id":"cebpf4jnsgd1na2vs0mg"},{"bike_id":"fc0951c3-4321-44b0-8471-caabbabbb420","system_id":"levelo_inurba_marseille","lat":43.313571,"lon":5.384829,"is_reserved":false,"is_disabled":false,"rental_uris":{"android":"levelo://app?vid=fc0951c3-4321-44b0-8471-caabbabbb420","ios":"levelo://app?vid=fc0951c3-4321-44b0-8471-caabbabbb420"},"vehicle_type_id":"4","last_reported":1716311221,"current_range_meters":0,"station_id":"ce4bgt92rcd13ifvqcf0","pricing_plan_id":"cebpf4jnsgd1na2vs0mg"},{"bike_id":"ab35245f-ad4d-4eee-8716-bcf1ad8cf8bc","system_id":"levelo_inurba_marseille","lat":43.313571,"lon":5.384829,"is_reserved":false,"is_disabled":false,"rental_uris":{"android":"levelo://app?vid=ab35245f-ad4d-4eee-8716-bcf1ad8cf8bc","ios":"levelo://app?vid=ab35245f-ad4d-4eee-8716-bcf1ad8cf8bc"},"vehicle_type_id":"4","last_reported":1716311221,"current_range_meters":9200,"station_id":"ce4bgt92rcd13ifvqcf0","pricing_plan_id":"cebpf4jnsgd1na2vs0mg"},{"bike_id":"31988abf-2133-4bf7-8da0-c2cc243653f2","system_id":"levelo_inurba_marseille","lat":43.313571,"lon":5.384829,"is_reserved":false,"is_disabled":false,"rental_uris":{"android":"levelo://app?vid=31988abf-2133-4bf7-8da0-c2cc243653f2","ios":"levelo://app?vid=31988abf-2133-4bf7-8da0-c2cc243653f2"},"vehicle_type_id":"4","last_reported":1716311221,"current_range_meters":400,"station_id":"ce4bgt92rcd13ifvqcf0","pricing_plan_id":"cebpf4jnsgd1na2vs0mg"},{"bike_id":"27704e4b-3bbf-46f2-aa1a-26f06c9b394b","system_id":"levelo_inurba_marseille","lat":43.313571,"lon":5.384829,"is_reserved":false,"is_disabled":false,"rental_uris":{"android":"levelo://app?vid=27704e4b-3bbf-46f2-aa1a-26f06c9b394b","ios":"levelo://app?vid=27704e4b-3bbf-46f2-aa1a-26f06c9b394b"},"vehicle_type_id":"4","last_reported":1716311221,"current_range_meters":12000,"station_id":"ce4bgt92rcd13ifvqcf0","pricing_plan_id":"cebpf4jnsgd1na2vs0mg"},{"bike_id":"13ead80b-fc6b-4136-b449-4bd0f3d193b9","system_id":"levelo_inurba_marseille","lat":43.308012,"lon":5.381511,"is_reserved":false,"is_disabled":false,"rental_uris":{"android":"levelo://app?vid=13ead80b-fc6b-4136-b449-4bd0f3d193b9","ios":"levelo://app?vid=13ead80b-fc6b-4136-b449-4bd0f3d193b9"},"vehicle_type_id":"4","last_reported":1716311221,"current_range_meters":6000,"station_id":"ce4bgt12rcd13ifvqce0","pricing_plan_id":"cebpf4jnsgd1na2vs0mg"},{"bike_id":"0b14a9a9-d683-47f8-95bf-137fa0f7f406","system_id":"levelo_inurba_marseille","lat":43.313571,"lon":5.384829,"is_reserved":false,"is_disabled":false,"rental_uris":{"android":"levelo://app?vid=0b14a9a9-d683-47f8-95bf-137fa0f7f406","ios":"levelo://app?vid=0b14a9a9-d683-47f8-95bf-137fa0f7f406"},"vehicle_type_id":"4","last_reported":1716311221,"current_range_meters":3200,"station_id":"ce4bgt92rcd13ifvqcf0","pricing_plan_id":"cebpf4jnsgd1na2vs0mg"},{"bike_id":"bb031d51-576e-4710-99a4-dd9c8d7e0ce2","system_id":"levelo_inurba_marseille","lat":43.313571,"lon":5.384829,"is_reserved":false,"is_disabled":false,"rental_uris":{"android":"levelo://app?vid=bb031d51-576e-4710-99a4-dd9c8d7e0ce2","ios":"levelo://app?vid=bb031d51-576e-4710-99a4-dd9c8d7e0ce2"},"vehicle_type_id":"4","last_reported":1716311221,"current_range_meters":31600,"station_id":"ce4bgt92rcd13ifvqcf0","pricing_plan_id":"cebpf4jnsgd1na2vs0mg"},{"bike_id":"fbaf0798-3906-4d37-a1b1-3ff2880867ef","system_id":"levelo_inurba_marseille","lat":43.313571,"lon":5.384829,"is_reserved":false,"is_disabled":false,"rental_uris":{"android":"levelo://app?vid=fbaf0798-3906-4d37-a1b1-3ff2880867ef","ios":"levelo://app?vid=fbaf0798-3906-4d37-a1b1-3ff2880867ef"},"vehicle_type_id":"4","last_reported":1716311221,"current_range_meters":19600,"station_id":"ce4bgt92rcd13ifvqcf0","pricing_plan_id":"cebpf4jnsgd1na2vs0mg"},{"bike_id":"8db972f7-d7f4-47ec-9b70-30a954f94df2","system_id":"levelo_inurba_marseille","lat":43.304606,"lon":5.379026,"is_reserved":false,"is_disabled":false,"rental_uris":{"android":"levelo://app?vid=8db972f7-d7f4-47ec-9b70-30a954f94df2","ios":"levelo://app?vid=8db972f7-d7f4-47ec-9b70-30a954f94df2"},"vehicle_type_id":"4","last_reported":1716311221,"current_range_meters":0,"station_id":"ce4bgup2rcd13ifvqcn0","pricing_plan_id":"cebpf4jnsgd1na2vs0mg"},{"bike_id":"68117fa3-ca3e-4e8c-b5af-5985f7be6248","system_id":"levelo_inurba_marseille","lat":43.305681,"lon":5.383744,"is_reserved":false,"is_disabled":false,"rental_uris":{"android":"levelo://app?vid=68117fa3-ca3e-4e8c-b5af-5985f7be6248","ios":"levelo://app?vid=68117fa3-ca3e-4e8c-b5af-5985f7be6248"},"vehicle_type_id":"4","last_reported":1716311221,"current_range_meters":9600,"station_id":"","pricing_plan_id":"cebpf4jnsgd1na2vs0mg"},{"bike_id":"a4886986-7743-4616-80e0-99c01c1f0663","system_id":"levelo_inurba_marseille","lat":43.29858,"lon":5.3629,"is_reserved":false,"is_disabled":false,"rental_uris":{"android":"levelo://app?vid=a4886986-7743-4616-80e0-99c01c1f0663","ios":"levelo://app?vid=a4886986-7743-4616-80e0-99c01c1f0663"},"vehicle_type_id":"4","last_reported":1716311221,"current_range_meters":11600,"station_id":"ce4bgpp2rcd13ifvqc3g","pricing_plan_id":"cebpf4jnsgd1na2vs0mg"},{"bike_id":"529c91e6-e946-4fc5-a033-115b52cf45a3","system_id":"levelo_inurba_marseille","lat":43.298433,"lon":5.362774,"is_reserved":false,"is_disabled":false,"rental_uris":{"android":"levelo://app?vid=529c91e6-e946-4fc5-a033-115b52cf45a3","ios":"levelo://app?vid=529c91e6-e946-4fc5-a033-115b52cf45a3"},"vehicle_type_id":"4","last_reported":1716311221,"current_range_meters":5600,"station_id":"ce4bgpp2rcd13ifvqc3g","pricing_plan_id":"cebpf4jnsgd1na2vs0mg"},{"bike_id":"5cca480c-371f-4f54-8e29-3ef2449aa06c","system_id":"levelo_inurba_marseille","lat":43.311722,"lon":5.387247,"is_reserved":false,"is_disabled":false,"rental_uris":{"android":"levelo://app?vid=5cca480c-371f-4f54-8e29-3ef2449aa06c","ios":"levelo://app?vid=5cca480c-371f-4f54-8e29-3ef2449aa06c"},"vehicle_type_id":"4","last_reported":1716311221,"current_range_meters":4000,"station_id":"ce4bgv12rcd13ifvqcp0","pricing_plan_id":"cebpf4jnsgd1na2vs0mg"},{"bike_id":"401a6bf5-b92e-49c0-861d-951921f455f5","system_id":"levelo_inurba_marseille","lat":43.30256,"lon":5.3816,"is_reserved":false,"is_disabled":false,"rental_uris":{"android":"levelo://app?vid=401a6bf5-b92e-49c0-861d-951921f455f5","ios":"levelo://app?vid=401a6bf5-b92e-49c0-861d-951921f455f5"},"vehicle_type_id":"4","last_reported":1716311221,"current_range_meters":2000,"station_id":"","pricing_plan_id":"cebpf4jnsgd1na2vs0mg"},{"bike_id":"48a53b8e-f27c-4f53-87e4-e65370492780","system_id":"levelo_inurba_marseille","lat":43.311722,"lon":5.387247,"is_reserved":false,"is_disabled":false,"rental_uris":{"android":"levelo://app?vid=48a53b8e-f27c-4f53-87e4-e65370492780","ios":"levelo://app?vid=48a53b8e-f27c-4f53-87e4-e65370492780"},"vehicle_type_id":"4","last_reported":1716311221,"current_range_meters":7600,"station_id":"ce4bgv12rcd13ifvqcp0","pricing_plan_id":"cebpf4jnsgd1na2vs0mg"},{"bike_id":"9562c9a6-23ed-402a-9702-17fbd0196a6f","system_id":"levelo_inurba_marseille","lat":43.322872,"lon":5.382756,"is_reserved":false,"is_disabled":false,"rental_uris":{"android":"levelo://app?vid=9562c9a6-23ed-402a-9702-17fbd0196a6f","ios":"levelo://app?vid=9562c9a6-23ed-402a-9702-17fbd0196a6f"},"vehicle_type_id":"4","last_reported":1716311221,"current_range_meters":13600,"station_id":"ce4bhr12rcd13ifvqhqg","pricing_plan_id":"cebpf4jnsgd1na2vs0mg"},{"bike_id":"8b670296-6bed-42b2-9b50-b1ed6ffa0236","system_id":"levelo_inurba_marseille","lat":43.322922,"lon":5.382091,"is_reserved":false,"is_disabled":false,"rental_uris":{"android":"levelo://app?vid=8b670296-6bed-42b2-9b50-b1ed6ffa0236","ios":"levelo://app?vid=8b670296-6bed-42b2-9b50-b1ed6ffa0236"},"vehicle_type_id":"4","last_reported":1716311221,"current_range_meters":12800,"station_id":"ce4bhr12rcd13ifvqhqg","pricing_plan_id":"cebpf4jnsgd1na2vs0mg"},{"bike_id":"ed492a4e-944e-43b3-bd26-4581a8e6f7a8","system_id":"levelo_inurba_marseille","lat":43.297794,"lon":5.370888,"is_reserved":false,"is_disabled":false,"rental_uris":{"android":"levelo://app?vid=ed492a4e-944e-43b3-bd26-4581a8e6f7a8","ios":"levelo://app?vid=ed492a4e-944e-43b3-bd26-4581a8e6f7a8"},"vehicle_type_id":"4","last_reported":1716311221,"current_range_meters":30400,"station_id":"ce4bgop2rcd13ifvqc1g","pricing_plan_id":"cebpf4jnsgd1na2vs0mg"},{"bike_id":"4db12bb2-047c-428a-addf-22fa2d72f822","system_id":"levelo_inurba_marseille","lat":43.297953,"lon":5.371029,"is_reserved":false,"is_disabled":false,"rental_uris":{"android":"levelo://app?vid=4db12bb2-047c-428a-addf-22fa2d72f822","ios":"levelo://app?vid=4db12bb2-047c-428a-addf-22fa2d72f822"},"vehicle_type_id":"4","last_reported":1716311221,"current_range_meters":29600,"station_id":"ce4bgop2rcd13ifvqc1g","pricing_plan_id":"cebpf4jnsgd1na2vs0mg"},{"bike_id":"c1a5bb86-ce9c-4083-8afe-83e0cce2ded7","system_id":"levelo_inurba_marseille","lat":43.297823,"lon":5.37108,"is_reserved":false,"is_disabled":false,"rental_uris":{"android":"levelo://app?vid=c1a5bb86-ce9c-4083-8afe-83e0cce2ded7","ios":"levelo://app?vid=c1a5bb86-ce9c-4083-8afe-83e0cce2ded7"},"vehicle_type_id":"4","last_reported":1716311221,"current_range_meters":5200,"station_id":"ce4bgop2rcd13ifvqc1g","pricing_plan_id":"cebpf4jnsgd1na2vs0mg"},{"bike_id":"b9d45281-4dbf-4eca-900b-9d571208cdd9","system_id":"levelo_inurba_marseille","lat":43.322872,"lon":5.382756,"is_reserved":false,"is_disabled":false,"rental_uris":{"android":"levelo://app?vid=b9d45281-4dbf-4eca-900b-9d571208cdd9","ios":"levelo://app?vid=b9d45281-4dbf-4eca-900b-9d571208cdd9"},"vehicle_type_id":"4","last_reported":1716311221,"current_range_meters":6000,"station_id":"ce4bhr12rcd13ifvqhqg","pricing_plan_id":"cebpf4jnsgd1na2vs0mg"},{"bike_id":"79f33001-a651-4b0f-b82e-f19ee71b8d0f","system_id":"levelo_inurba_marseille","lat":43.32292,"lon":5.38265,"is_reserved":false,"is_disabled":false,"rental_uris":{"android":"levelo://app?vid=79f33001-a651-4b0f-b82e-f19ee71b8d0f","ios":"levelo://app?vid=79f33001-a651-4b0f-b82e-f19ee71b8d0f"},"vehicle_type_id":"4","last_reported":1716311221,"current_range_meters":19200,"station_id":"ce4bhr12rcd13ifvqhqg","pricing_plan_id":"cebpf4jnsgd1na2vs0mg"},{"bike_id":"e48849cc-89d2-4a3a-a53a-472af5884dde","system_id":"levelo_inurba_marseille","lat":43.297774,"lon":5.370875,"is_reserved":false,"is_disabled":false,"rental_uris":{"android":"levelo://app?vid=e48849cc-89d2-4a3a-a53a-472af5884dde","ios":"levelo://app?vid=e48849cc-89d2-4a3a-a53a-472af5884dde"},"vehicle_type_id":"4","last_reported":1716311221,"current_range_meters":3600,"station_id":"ce4bgop2rcd13ifvqc1g","pricing_plan_id":"cebpf4jnsgd1na2vs0mg"},{"bike_id":"9802529c-c17a-4fcf-a2ca-7b08c5040aaf","system_id":"levelo_inurba_marseille","lat":43.322904,"lon":5.382769,"is_reserved":false,"is_disabled":false,"rental_uris":{"android":"levelo://app?vid=9802529c-c17a-4fcf-a2ca-7b08c5040aaf","ios":"levelo://app?vid=9802529c-c17a-4fcf-a2ca-7b08c5040aaf"},"vehicle_type_id":"4","last_reported":1716311221,"current_range_meters":26000,"station_id":"ce4bhr12rcd13ifvqhqg","pricing_plan_id":"cebpf4jnsgd1na2vs0mg"},{"bike_id":"72624599-772e-4712-a286-cf64a90d14e2","system_id":"levelo_inurba_marseille","lat":43.3229,"lon":5.38279,"is_reserved":false,"is_disabled":false,"rental_uris":{"android":"levelo://app?vid=72624599-772e-4712-a286-cf64a90d14e2","ios":"levelo://app?vid=72624599-772e-4712-a286-cf64a90d14e2"},"vehicle_type_id":"4","last_reported":1716311221,"current_range_meters":29200,"station_id":"ce4bhr12rcd13ifvqhqg","pricing_plan_id":"cebpf4jnsgd1na2vs0mg"},{"bike_id":"546f5b9a-f895-4693-a03f-4dc859ef0505","system_id":"levelo_inurba_marseille","lat":43.297163,"lon":5.365866,"is_reserved":false,"is_disabled":false,"rental_uris":{"android":"levelo://app?vid=546f5b9a-f895-4693-a03f-4dc859ef0505","ios":"levelo://app?vid=546f5b9a-f895-4693-a03f-4dc859ef0505"},"vehicle_type_id":"4","last_reported":1716311221,"current_range_meters":1200,"station_id":"ce4bgn12rcd13ifvqbt0","pricing_plan_id":"cebpf4jnsgd1na2vs0mg"},{"bike_id":"0f524af3-94e1-4613-9bc4-4a01ebcc1fcf","system_id":"levelo_inurba_marseille","lat":43.29703,"lon":5.36611,"is_reserved":false,"is_disabled":false,"rental_uris":{"android":"levelo://app?vid=0f524af3-94e1-4613-9bc4-4a01ebcc1fcf","ios":"levelo://app?vid=0f524af3-94e1-4613-9bc4-4a01ebcc1fcf"},"vehicle_type_id":"4","last_reported":1716311221,"current_range_meters":10400,"station_id":"ce4bgn12rcd13ifvqbt0","pricing_plan_id":"cebpf4jnsgd1na2vs0mg"},{"bike_id":"0b171be4-06aa-40b9-b49a-fcfb70ce711b","system_id":"levelo_inurba_marseille","lat":43.297163,"lon":5.365866,"is_reserved":false,"is_disabled":false,"rental_uris":{"android":"levelo://app?vid=0b171be4-06aa-40b9-b49a-fcfb70ce711b","ios":"levelo://app?vid=0b171be4-06aa-40b9-b49a-fcfb70ce711b"},"vehicle_type_id":"4","last_reported":1716311221,"current_range_meters":4000,"station_id":"ce4bgn12rcd13ifvqbt0","pricing_plan_id":"cebpf4jnsgd1na2vs0mg"},{"bike_id":"86e58ad2-2f18-442b-8cd3-f45b588edfda","system_id":"levelo_inurba_marseille","lat":43.317557,"lon":5.390173,"is_reserved":false,"is_disabled":false,"rental_uris":{"android":"levelo://app?vid=86e58ad2-2f18-442b-8cd3-f45b588edfda","ios":"levelo://app?vid=86e58ad2-2f18-442b-8cd3-f45b588edfda"},"vehicle_type_id":"4","last_reported":1716311221,"current_range_meters":14800,"station_id":"ce4bhqp2rcd13ifvqhng","pricing_plan_id":"cebpf4jnsgd1na2vs0mg"},{"bike_id":"b0181dbd-d16d-4347-9382-b450da867146","system_id":"levelo_inurba_marseille","lat":43.29657,"lon":5.36162,"is_reserved":false,"is_disabled":false,"rental_uris":{"android":"levelo://app?vid=b0181dbd-d16d-4347-9382-b450da867146","ios":"levelo://app?vid=b0181dbd-d16d-4347-9382-b450da867146"},"vehicle_type_id":"4","last_reported":1716311221,"current_range_meters":23200,"station_id":"","pricing_plan_id":"cebpf4jnsgd1na2vs0mg"},{"bike_id":"da665342-a8ee-4ef0-b598-f70bf0b11476","system_id":"levelo_inurba_marseille","lat":43.29573,"lon":5.367355,"is_reserved":false,"is_disabled":false,"rental_uris":{"android":"levelo://app?vid=da665342-a8ee-4ef0-b598-f70bf0b11476","ios":"levelo://app?vid=da665342-a8ee-4ef0-b598-f70bf0b11476"},"vehicle_type_id":"4","last_reported":1716311221,"current_range_meters":28800,"station_id":"ce4bgph2rcd13ifvqc2g","pricing_plan_id":"cebpf4jnsgd1na2vs0mg"},{"bike_id":"2997141c-dc24-4160-8393-a9f3a90e8bb3","system_id":"levelo_inurba_marseille","lat":43.29584,"lon":5.36751,"is_reserved":false,"is_disabled":false,"rental_uris":{"android":"levelo://app?vid=2997141c-dc24-4160-8393-a9f3a90e8bb3","ios":"levelo://app?vid=2997141c-dc24-4160-8393-a9f3a90e8bb3"},"vehicle_type_id":"4","last_reported":1716311221,"current_range_meters":0,"station_id":"ce4bgph2rcd13ifvqc2g","pricing_plan_id":"cebpf4jnsgd1na2vs0mg"},{"bike_id":"884a7b65-1d03-4dd6-b55d-b4c165c21136","system_id":"levelo_inurba_marseille","lat":43.29583,"lon":5.36749,"is_reserved":false,"is_disabled":false,"rental_uris":{"android":"levelo://app?vid=884a7b65-1d03-4dd6-b55d-b4c165c21136","ios":"levelo://app?vid=884a7b65-1d03-4dd6-b55d-b4c165c21136"},"vehicle_type_id":"4","last_reported":1716311221,"current_range_meters":0,"station_id":"ce4bgph2rcd13ifvqc2g","pricing_plan_id":"cebpf4jnsgd1na2vs0mg"},{"bike_id":"55e2e55f-bac7-4879-8587-cb0ccfc41288","system_id":"levelo_inurba_marseille","lat":43.29573,"lon":5.367355,"is_reserved":false,"is_disabled":false,"rental_uris":{"android":"levelo://app?vid=55e2e55f-bac7-4879-8587-cb0ccfc41288","ios":"levelo://app?vid=55e2e55f-bac7-4879-8587-cb0ccfc41288"},"vehicle_type_id":"4","last_reported":1716311221,"current_range_meters":18000,"station_id":"ce4bgph2rcd13ifvqc2g","pricing_plan_id":"cebpf4jnsgd1na2vs0mg"},{"bike_id":"10f5315c-7d9f-4ee4-9611-0c5f25d07b96","system_id":"levelo_inurba_marseille","lat":43.29573,"lon":5.367355,"is_reserved":false,"is_disabled":false,"rental_uris":{"android":"levelo://app?vid=10f5315c-7d9f-4ee4-9611-0c5f25d07b96","ios":"levelo://app?vid=10f5315c-7d9f-4ee4-9611-0c5f25d07b96"},"vehicle_type_id":"4","last_reported":1716311221,"current_range_meters":14800,"station_id":"ce4bgph2rcd13ifvqc2g","pricing_plan_id":"cebpf4jnsgd1na2vs0mg"},{"bike_id":"3d0cf772-4725-458e-8773-fb36dfc8fac9","system_id":"levelo_inurba_marseille","lat":43.317557,"lon":5.390173,"is_reserved":false,"is_disabled":false,"rental_uris":{"android":"levelo://app?vid=3d0cf772-4725-458e-8773-fb36dfc8fac9","ios":"levelo://app?vid=3d0cf772-4725-458e-8773-fb36dfc8fac9"},"vehicle_type_id":"4","last_reported":1716311221,"current_range_meters":24400,"station_id":"ce4bhqp2rcd13ifvqhng","pricing_plan_id":"cebpf4jnsgd1na2vs0mg"},{"bike_id":"693c9afb-a9fe-435f-8bd9-4158761b32b6","system_id":"levelo_inurba_marseille","lat":43.317557,"lon":5.390173,"is_reserved":false,"is_disabled":false,"rental_uris":{"android":"levelo://app?vid=693c9afb-a9fe-435f-8bd9-4158761b32b6","ios":"levelo://app?vid=693c9afb-a9fe-435f-8bd9-4158761b32b6"},"vehicle_type_id":"4","last_reported":1716311221,"current_range_meters":6400,"station_id":"ce4bhqp2rcd13ifvqhng","pricing_plan_id":"cebpf4jnsgd1na2vs0mg"},{"bike_id":"f0a0e34c-c762-4ff7-b4f4-fe73ca36b9aa","system_id":"levelo_inurba_marseille","lat":43.317557,"lon":5.390173,"is_reserved":false,"is_disabled":false,"rental_uris":{"android":"levelo://app?vid=f0a0e34c-c762-4ff7-b4f4-fe73ca36b9aa","ios":"levelo://app?vid=f0a0e34c-c762-4ff7-b4f4-fe73ca36b9aa"},"vehicle_type_id":"4","last_reported":1716311221,"current_range_meters":28400,"station_id":"ce4bhqp2rcd13ifvqhng","pricing_plan_id":"cebpf4jnsgd1na2vs0mg"},{"bike_id":"52cc3edc-8e65-4b6e-bb76-89ed0ed1328e","system_id":"levelo_inurba_marseille","lat":43.317557,"lon":5.390173,"is_reserved":false,"is_disabled":false,"rental_uris":{"android":"levelo://app?vid=52cc3edc-8e65-4b6e-bb76-89ed0ed1328e","ios":"levelo://app?vid=52cc3edc-8e65-4b6e-bb76-89ed0ed1328e"},"vehicle_type_id":"4","last_reported":1716311221,"current_range_meters":13600,"station_id":"ce4bhqp2rcd13ifvqhng","pricing_plan_id":"cebpf4jnsgd1na2vs0mg"},{"bike_id":"11f97201-8851-43e7-8bd2-4139d5ed9893","system_id":"levelo_inurba_marseille","lat":43.317557,"lon":5.390173,"is_reserved":false,"is_disabled":false,"rental_uris":{"android":"levelo://app?vid=11f97201-8851-43e7-8bd2-4139d5ed9893","ios":"levelo://app?vid=11f97201-8851-43e7-8bd2-4139d5ed9893"},"vehicle_type_id":"4","last_reported":1716311221,"current_range_meters":23200,"station_id":"ce4bhqp2rcd13ifvqhng","pricing_plan_id":"cebpf4jnsgd1na2vs0mg"},{"bike_id":"256a7b57-d298-4f76-9cf2-39c1d1d01f31","system_id":"levelo_inurba_marseille","lat":43.298037,"lon":5.381066,"is_reserved":false,"is_disabled":false,"rental_uris":{"android":"levelo://app?vid=256a7b57-d298-4f76-9cf2-39c1d1d01f31","ios":"levelo://app?vid=256a7b57-d298-4f76-9cf2-39c1d1d01f31"},"vehicle_type_id":"4","last_reported":1716311221,"current_range_meters":8400,"station_id":"ce4bgip2rcd13ifvqbb0","pricing_plan_id":"cebpf4jnsgd1na2vs0mg"},{"bike_id":"786d8395-e45d-4c00-a2b3-8ade947bac9a","system_id":"levelo_inurba_marseille","lat":43.295748,"lon":5.37522,"is_reserved":false,"is_disabled":false,"rental_uris":{"android":"levelo://app?vid=786d8395-e45d-4c00-a2b3-8ade947bac9a","ios":"levelo://app?vid=786d8395-e45d-4c00-a2b3-8ade947bac9a"},"vehicle_type_id":"4","last_reported":1716311221,"current_range_meters":0,"station_id":"ce4bgh92rcd13ifvqb50","pricing_plan_id":"cebpf4jnsgd1na2vs0mg"},{"bike_id":"edfa3fc3-ecda-452b-aa4d-9056590e14bc","system_id":"levelo_inurba_marseille","lat":43.304278,"lon":5.388868,"is_reserved":false,"is_disabled":false,"rental_uris":{"android":"levelo://app?vid=edfa3fc3-ecda-452b-aa4d-9056590e14bc","ios":"levelo://app?vid=edfa3fc3-ecda-452b-aa4d-9056590e14bc"},"vehicle_type_id":"4","last_reported":1716311221,"current_range_meters":0,"station_id":"ce4bgk12rcd13ifvqbi0","pricing_plan_id":"cebpf4jnsgd1na2vs0mg"},{"bike_id":"841ee0f3-a100-438c-acfd-b68b137f2008","system_id":"levelo_inurba_marseille","lat":43.298037,"lon":5.381066,"is_reserved":false,"is_disabled":false,"rental_uris":{"android":"levelo://app?vid=841ee0f3-a100-438c-acfd-b68b137f2008","ios":"levelo://app?vid=841ee0f3-a100-438c-acfd-b68b137f2008"},"vehicle_type_id":"4","last_reported":1716311221,"current_range_meters":31200,"station_id":"ce4bgip2rcd13ifvqbb0","pricing_plan_id":"cebpf4jnsgd1na2vs0mg"},{"bike_id":"e40ed070-b0c0-42d4-8443-232605e5446b","system_id":"levelo_inurba_marseille","lat":43.298037,"lon":5.381066,"is_reserved":false,"is_disabled":false,"rental_uris":{"android":"levelo://app?vid=e40ed070-b0c0-42d4-8443-232605e5446b","ios":"levelo://app?vid=e40ed070-b0c0-42d4-8443-232605e5446b"},"vehicle_type_id":"4","last_reported":1716311221,"current_range_meters":29200,"station_id":"ce4bgip2rcd13ifvqbb0","pricing_plan_id":"cebpf4jnsgd1na2vs0mg"},{"bike_id":"42bdda46-89f0-49e4-8e1c-45953622b394","system_id":"levelo_inurba_marseille","lat":43.304406,"lon":5.388838,"is_reserved":false,"is_disabled":false,"rental_uris":{"android":"levelo://app?vid=42bdda46-89f0-49e4-8e1c-45953622b394","ios":"levelo://app?vid=42bdda46-89f0-49e4-8e1c-45953622b394"},"vehicle_type_id":"4","last_reported":1716311221,"current_range_meters":4800,"station_id":"ce4bgk12rcd13ifvqbi0","pricing_plan_id":"cebpf4jnsgd1na2vs0mg"},{"bike_id":"1049b0d1-4feb-4b8f-984c-00f6c59b9d76","system_id":"levelo_inurba_marseille","lat":43.296484,"lon":5.377596,"is_reserved":false,"is_disabled":false,"rental_uris":{"android":"levelo://app?vid=1049b0d1-4feb-4b8f-984c-00f6c59b9d76","ios":"levelo://app?vid=1049b0d1-4feb-4b8f-984c-00f6c59b9d76"},"vehicle_type_id":"4","last_reported":1716311221,"current_range_meters":0,"station_id":"ce4bgi92rcd13ifvqb90","pricing_plan_id":"cebpf4jnsgd1na2vs0mg"},{"bike_id":"4585d943-65f1-4c32-9f9b-060bdc6b594e","system_id":"levelo_inurba_marseille","lat":43.304332,"lon":5.38887,"is_reserved":false,"is_disabled":false,"rental_uris":{"android":"levelo://app?vid=4585d943-65f1-4c32-9f9b-060bdc6b594e","ios":"levelo://app?vid=4585d943-65f1-4c32-9f9b-060bdc6b594e"},"vehicle_type_id":"4","last_reported":1716311221,"current_range_meters":0,"station_id":"ce4bgk12rcd13ifvqbi0","pricing_plan_id":"cebpf4jnsgd1na2vs0mg"},{"bike_id":"bff3f699-2af9-4bc3-872b-f2075dd68362","system_id":"levelo_inurba_marseille","lat":43.304278,"lon":5.388868,"is_reserved":false,"is_disabled":false,"rental_uris":{"android":"levelo://app?vid=bff3f699-2af9-4bc3-872b-f2075dd68362","ios":"levelo://app?vid=bff3f699-2af9-4bc3-872b-f2075dd68362"},"vehicle_type_id":"4","last_reported":1716311221,"current_range_meters":12400,"station_id":"ce4bgk12rcd13ifvqbi0","pricing_plan_id":"cebpf4jnsgd1na2vs0mg"},{"bike_id":"a94ee41f-dfab-447b-898a-5c24d274fb06","system_id":"levelo_inurba_marseille","lat":43.296277,"lon":5.377108,"is_reserved":false,"is_disabled":false,"rental_uris":{"android":"levelo://app?vid=a94ee41f-dfab-447b-898a-5c24d274fb06","ios":"levelo://app?vid=a94ee41f-dfab-447b-898a-5c24d274fb06"},"vehicle_type_id":"4","last_reported":1716311221,"current_range_meters":14800,"station_id":"ce4bgi92rcd13ifvqb90","pricing_plan_id":"cebpf4jnsgd1na2vs0mg"},{"bike_id":"7e49d995-be5e-44c2-9984-c624dfe0bfc3","system_id":"levelo_inurba_marseille","lat":43.30415,"lon":5.38898,"is_reserved":false,"is_disabled":false,"rental_uris":{"android":"levelo://app?vid=7e49d995-be5e-44c2-9984-c624dfe0bfc3","ios":"levelo://app?vid=7e49d995-be5e-44c2-9984-c624dfe0bfc3"},"vehicle_type_id":"4","last_reported":1716311221,"current_range_meters":1200,"station_id":"ce4bgk12rcd13ifvqbi0","pricing_plan_id":"cebpf4jnsgd1na2vs0mg"},{"bike_id":"90d8e10a-bada-4fea-9172-917cb1e79c4e","system_id":"levelo_inurba_marseille","lat":43.295279,"lon":5.375048,"is_reserved":false,"is_disabled":false,"rental_uris":{"android":"levelo://app?vid=90d8e10a-bada-4fea-9172-917cb1e79c4e","ios":"levelo://app?vid=90d8e10a-bada-4fea-9172-917cb1e79c4e"},"vehicle_type_id":"4","last_reported":1716311221,"current_range_meters":28000,"station_id":"ce4bgkp2rcd13ifvqbmg","pricing_plan_id":"cebpf4jnsgd1na2vs0mg"},{"bike_id":"0d4e87f6-551f-4258-ac0b-ab3a46c0fce4","system_id":"levelo_inurba_marseille","lat":43.29523,"lon":5.3749,"is_reserved":false,"is_disabled":false,"rental_uris":{"android":"levelo://app?vid=0d4e87f6-551f-4258-ac0b-ab3a46c0fce4","ios":"levelo://app?vid=0d4e87f6-551f-4258-ac0b-ab3a46c0fce4"},"vehicle_type_id":"4","last_reported":1716311221,"current_range_meters":0,"station_id":"ce4bgkp2rcd13ifvqbmg","pricing_plan_id":"cebpf4jnsgd1na2vs0mg"},{"bike_id":"ab76ce0d-7db8-4fb6-8c49-d9721d727cd9","system_id":"levelo_inurba_marseille","lat":43.29972,"lon":5.38489,"is_reserved":false,"is_disabled":false,"rental_uris":{"android":"levelo://app?vid=ab76ce0d-7db8-4fb6-8c49-d9721d727cd9","ios":"levelo://app?vid=ab76ce0d-7db8-4fb6-8c49-d9721d727cd9"},"vehicle_type_id":"4","last_reported":1716311221,"current_range_meters":0,"station_id":"ce4bgj92rcd13ifvqbd0","pricing_plan_id":"cebpf4jnsgd1na2vs0mg"},{"bike_id":"0bb47504-6129-4d04-89fb-99b7f0765858","system_id":"levelo_inurba_marseille","lat":43.29976,"lon":5.38497,"is_reserved":false,"is_disabled":false,"rental_uris":{"android":"levelo://app?vid=0bb47504-6129-4d04-89fb-99b7f0765858","ios":"levelo://app?vid=0bb47504-6129-4d04-89fb-99b7f0765858"},"vehicle_type_id":"4","last_reported":1716311221,"current_range_meters":14000,"station_id":"ce4bgj92rcd13ifvqbd0","pricing_plan_id":"cebpf4jnsgd1na2vs0mg"},{"bike_id":"6b7d3609-6285-4b33-b847-058fc1d1f4ee","system_id":"levelo_inurba_marseille","lat":43.295279,"lon":5.375048,"is_reserved":false,"is_disabled":false,"rental_uris":{"android":"levelo://app?vid=6b7d3609-6285-4b33-b847-058fc1d1f4ee","ios":"levelo://app?vid=6b7d3609-6285-4b33-b847-058fc1d1f4ee"},"vehicle_type_id":"4","last_reported":1716311221,"current_range_meters":0,"station_id":"ce4bgkp2rcd13ifvqbmg","pricing_plan_id":"cebpf4jnsgd1na2vs0mg"},{"bike_id":"d014cf3e-048b-41f0-8f75-4b7171a47831","system_id":"levelo_inurba_marseille","lat":43.299724,"lon":5.384848,"is_reserved":false,"is_disabled":false,"rental_uris":{"android":"levelo://app?vid=d014cf3e-048b-41f0-8f75-4b7171a47831","ios":"levelo://app?vid=d014cf3e-048b-41f0-8f75-4b7171a47831"},"vehicle_type_id":"4","last_reported":1716311221,"current_range_meters":31600,"station_id":"ce4bgj92rcd13ifvqbd0","pricing_plan_id":"cebpf4jnsgd1na2vs0mg"},{"bike_id":"494a61bb-1901-4cce-851b-d6e0c75dbcd4","system_id":"levelo_inurba_marseille","lat":43.311722,"lon":5.387247,"is_reserved":false,"is_disabled":false,"rental_uris":{"android":"levelo://app?vid=494a61bb-1901-4cce-851b-d6e0c75dbcd4","ios":"levelo://app?vid=494a61bb-1901-4cce-851b-d6e0c75dbcd4"},"vehicle_type_id":"4","last_reported":1716311221,"current_range_meters":12800,"station_id":"ce4bgv12rcd13ifvqcp0","pricing_plan_id":"cebpf4jnsgd1na2vs0mg"},{"bike_id":"78252e3e-8eff-4ccb-a142-6526e4cc39f4","system_id":"levelo_inurba_marseille","lat":43.30089,"lon":5.38729,"is_reserved":false,"is_disabled":false,"rental_uris":{"android":"levelo://app?vid=78252e3e-8eff-4ccb-a142-6526e4cc39f4","ios":"levelo://app?vid=78252e3e-8eff-4ccb-a142-6526e4cc39f4"},"vehicle_type_id":"4","last_reported":1716311221,"current_range_meters":15200,"station_id":"","pricing_plan_id":"cebpf4jnsgd1na2vs0mg"},{"bike_id":"ed85dd34-e532-4190-941e-32de609f4f2e","system_id":"levelo_inurba_marseille","lat":43.30116,"lon":5.38783,"is_reserved":false,"is_disabled":false,"rental_uris":{"android":"levelo://app?vid=ed85dd34-e532-4190-941e-32de609f4f2e","ios":"levelo://app?vid=ed85dd34-e532-4190-941e-32de609f4f2e"},"vehicle_type_id":"4","last_reported":1716311221,"current_range_meters":31200,"station_id":"ce4bh2h2rcd13ifvqdh0","pricing_plan_id":"cebpf4jnsgd1na2vs0mg"},{"bike_id":"624507ee-d106-430b-b493-060aeadb26b1","system_id":"levelo_inurba_marseille","lat":43.32367,"lon":5.388836,"is_reserved":false,"is_disabled":false,"rental_uris":{"android":"levelo://app?vid=624507ee-d106-430b-b493-060aeadb26b1","ios":"levelo://app?vid=624507ee-d106-430b-b493-060aeadb26b1"},"vehicle_type_id":"4","last_reported":1716311221,"current_range_meters":19600,"station_id":"ce4bhqp2rcd13ifvqhog","pricing_plan_id":"cebpf4jnsgd1na2vs0mg"},{"bike_id":"b6f57808-6e70-41b9-9327-88cf553d17aa","system_id":"levelo_inurba_marseille","lat":43.32367,"lon":5.388836,"is_reserved":false,"is_disabled":false,"rental_uris":{"android":"levelo://app?vid=b6f57808-6e70-41b9-9327-88cf553d17aa","ios":"levelo://app?vid=b6f57808-6e70-41b9-9327-88cf553d17aa"},"vehicle_type_id":"4","last_reported":1716311221,"current_range_meters":0,"station_id":"ce4bhqp2rcd13ifvqhog","pricing_plan_id":"cebpf4jnsgd1na2vs0mg"},{"bike_id":"29a09258-06ce-4a41-8858-70dad949dc5d","system_id":"levelo_inurba_marseille","lat":43.32367,"lon":5.388836,"is_reserved":false,"is_disabled":false,"rental_uris":{"android":"levelo://app?vid=29a09258-06ce-4a41-8858-70dad949dc5d","ios":"levelo://app?vid=29a09258-06ce-4a41-8858-70dad949dc5d"},"vehicle_type_id":"4","last_reported":1716311221,"current_range_meters":7200,"station_id":"ce4bhqp2rcd13ifvqhog","pricing_plan_id":"cebpf4jnsgd1na2vs0mg"},{"bike_id":"0ff977bf-4b5b-4758-a433-69824b76e718","system_id":"levelo_inurba_marseille","lat":43.32365,"lon":5.38883,"is_reserved":false,"is_disabled":false,"rental_uris":{"android":"levelo://app?vid=0ff977bf-4b5b-4758-a433-69824b76e718","ios":"levelo://app?vid=0ff977bf-4b5b-4758-a433-69824b76e718"},"vehicle_type_id":"4","last_reported":1716311221,"current_range_meters":0,"station_id":"ce4bhqp2rcd13ifvqhog","pricing_plan_id":"cebpf4jnsgd1na2vs0mg"},{"bike_id":"0eb3a264-caba-4117-b6fe-060ce24e507b","system_id":"levelo_inurba_marseille","lat":43.32367,"lon":5.388836,"is_reserved":false,"is_disabled":false,"rental_uris":{"android":"levelo://app?vid=0eb3a264-caba-4117-b6fe-060ce24e507b","ios":"levelo://app?vid=0eb3a264-caba-4117-b6fe-060ce24e507b"},"vehicle_type_id":"4","last_reported":1716311221,"current_range_meters":24400,"station_id":"ce4bhqp2rcd13ifvqhog","pricing_plan_id":"cebpf4jnsgd1na2vs0mg"},{"bike_id":"3f5a473d-2f87-41c3-a959-69d8d265d2ca","system_id":"levelo_inurba_marseille","lat":43.32367,"lon":5.388836,"is_reserved":false,"is_disabled":false,"rental_uris":{"android":"levelo://app?vid=3f5a473d-2f87-41c3-a959-69d8d265d2ca","ios":"levelo://app?vid=3f5a473d-2f87-41c3-a959-69d8d265d2ca"},"vehicle_type_id":"4","last_reported":1716311221,"current_range_meters":20400,"station_id":"ce4bhqp2rcd13ifvqhog","pricing_plan_id":"cebpf4jnsgd1na2vs0mg"},{"bike_id":"a8f6e03d-4566-4170-babd-fe798330ef94","system_id":"levelo_inurba_marseille","lat":43.32367,"lon":5.388836,"is_reserved":false,"is_disabled":false,"rental_uris":{"android":"levelo://app?vid=a8f6e03d-4566-4170-babd-fe798330ef94","ios":"levelo://app?vid=a8f6e03d-4566-4170-babd-fe798330ef94"},"vehicle_type_id":"4","last_reported":1716311221,"current_range_meters":30400,"station_id":"ce4bhqp2rcd13ifvqhog","pricing_plan_id":"cebpf4jnsgd1na2vs0mg"},{"bike_id":"e3f6f416-26ec-4d4b-838e-640ecf7e7f0f","system_id":"levelo_inurba_marseille","lat":43.32367,"lon":5.388836,"is_reserved":false,"is_disabled":false,"rental_uris":{"android":"levelo://app?vid=e3f6f416-26ec-4d4b-838e-640ecf7e7f0f","ios":"levelo://app?vid=e3f6f416-26ec-4d4b-838e-640ecf7e7f0f"},"vehicle_type_id":"4","last_reported":1716311221,"current_range_meters":0,"station_id":"ce4bhqp2rcd13ifvqhog","pricing_plan_id":"cebpf4jnsgd1na2vs0mg"},{"bike_id":"dc75d24b-cfd8-4c37-b26c-37ccfe0162b7","system_id":"levelo_inurba_marseille","lat":43.32367,"lon":5.388836,"is_reserved":false,"is_disabled":false,"rental_uris":{"android":"levelo://app?vid=dc75d24b-cfd8-4c37-b26c-37ccfe0162b7","ios":"levelo://app?vid=dc75d24b-cfd8-4c37-b26c-37ccfe0162b7"},"vehicle_type_id":"4","last_reported":1716311221,"current_range_meters":9200,"station_id":"ce4bhqp2rcd13ifvqhog","pricing_plan_id":"cebpf4jnsgd1na2vs0mg"},{"bike_id":"5b1167ec-7018-4948-9926-17b615875a63","system_id":"levelo_inurba_marseille","lat":43.32367,"lon":5.388836,"is_reserved":false,"is_disabled":false,"rental_uris":{"android":"levelo://app?vid=5b1167ec-7018-4948-9926-17b615875a63","ios":"levelo://app?vid=5b1167ec-7018-4948-9926-17b615875a63"},"vehicle_type_id":"4","last_reported":1716311221,"current_range_meters":4400,"station_id":"ce4bhqp2rcd13ifvqhog","pricing_plan_id":"cebpf4jnsgd1na2vs0mg"},{"bike_id":"2be50bad-79e5-4e9d-b46e-e7a8f6a2871a","system_id":"levelo_inurba_marseille","lat":43.29602,"lon":5.381084,"is_reserved":false,"is_disabled":false,"rental_uris":{"android":"levelo://app?vid=2be50bad-79e5-4e9d-b46e-e7a8f6a2871a","ios":"levelo://app?vid=2be50bad-79e5-4e9d-b46e-e7a8f6a2871a"},"vehicle_type_id":"4","last_reported":1716311221,"current_range_meters":5600,"station_id":"ce4bgl12rcd13ifvqbo0","pricing_plan_id":"cebpf4jnsgd1na2vs0mg"},{"bike_id":"6396f7ed-a34c-495f-b187-fb059d22b27d","system_id":"levelo_inurba_marseille","lat":43.29602,"lon":5.381084,"is_reserved":false,"is_disabled":false,"rental_uris":{"android":"levelo://app?vid=6396f7ed-a34c-495f-b187-fb059d22b27d","ios":"levelo://app?vid=6396f7ed-a34c-495f-b187-fb059d22b27d"},"vehicle_type_id":"4","last_reported":1716311221,"current_range_meters":0,"station_id":"ce4bgl12rcd13ifvqbo0","pricing_plan_id":"cebpf4jnsgd1na2vs0mg"},{"bike_id":"86001eed-104e-442b-844e-b79940d1352b","system_id":"levelo_inurba_marseille","lat":43.29601,"lon":5.38102,"is_reserved":false,"is_disabled":false,"rental_uris":{"android":"levelo://app?vid=86001eed-104e-442b-844e-b79940d1352b","ios":"levelo://app?vid=86001eed-104e-442b-844e-b79940d1352b"},"vehicle_type_id":"4","last_reported":1716311221,"current_range_meters":0,"station_id":"ce4bgl12rcd13ifvqbo0","pricing_plan_id":"cebpf4jnsgd1na2vs0mg"},{"bike_id":"f2d73fec-f716-426e-8603-eacc63599d0c","system_id":"levelo_inurba_marseille","lat":43.29602,"lon":5.381084,"is_reserved":false,"is_disabled":false,"rental_uris":{"android":"levelo://app?vid=f2d73fec-f716-426e-8603-eacc63599d0c","ios":"levelo://app?vid=f2d73fec-f716-426e-8603-eacc63599d0c"},"vehicle_type_id":"4","last_reported":1716311221,"current_range_meters":4000,"station_id":"ce4bgl12rcd13ifvqbo0","pricing_plan_id":"cebpf4jnsgd1na2vs0mg"},{"bike_id":"040e9486-d443-4ca1-96a7-3d86cded5b36","system_id":"levelo_inurba_marseille","lat":43.29602,"lon":5.381084,"is_reserved":false,"is_disabled":false,"rental_uris":{"android":"levelo://app?vid=040e9486-d443-4ca1-96a7-3d86cded5b36","ios":"levelo://app?vid=040e9486-d443-4ca1-96a7-3d86cded5b36"},"vehicle_type_id":"4","last_reported":1716311221,"current_range_meters":5600,"station_id":"ce4bgl12rcd13ifvqbo0","pricing_plan_id":"cebpf4jnsgd1na2vs0mg"},{"bike_id":"fb4ceab5-599a-4b2b-a932-71effb3f4cfb","system_id":"levelo_inurba_marseille","lat":43.29599,"lon":5.38107,"is_reserved":false,"is_disabled":false,"rental_uris":{"android":"levelo://app?vid=fb4ceab5-599a-4b2b-a932-71effb3f4cfb","ios":"levelo://app?vid=fb4ceab5-599a-4b2b-a932-71effb3f4cfb"},"vehicle_type_id":"4","last_reported":1716311221,"current_range_meters":14000,"station_id":"","pricing_plan_id":"cebpf4jnsgd1na2vs0mg"},{"bike_id":"b22cd419-dcae-4bbd-b3ca-d6cf65260570","system_id":"levelo_inurba_marseille","lat":43.295805,"lon":5.380695,"is_reserved":false,"is_disabled":false,"rental_uris":{"android":"levelo://app?vid=b22cd419-dcae-4bbd-b3ca-d6cf65260570","ios":"levelo://app?vid=b22cd419-dcae-4bbd-b3ca-d6cf65260570"},"vehicle_type_id":"4","last_reported":1716311221,"current_range_meters":13200,"station_id":"ce4bgl12rcd13ifvqbo0","pricing_plan_id":"cebpf4jnsgd1na2vs0mg"},{"bike_id":"13955e3a-c5b6-4a5e-8bac-0c10d17916bc","system_id":"levelo_inurba_marseille","lat":43.29602,"lon":5.381084,"is_reserved":false,"is_disabled":false,"rental_uris":{"android":"levelo://app?vid=13955e3a-c5b6-4a5e-8bac-0c10d17916bc","ios":"levelo://app?vid=13955e3a-c5b6-4a5e-8bac-0c10d17916bc"},"vehicle_type_id":"4","last_reported":1716311221,"current_range_meters":0,"station_id":"ce4bgl12rcd13ifvqbo0","pricing_plan_id":"cebpf4jnsgd1na2vs0mg"},{"bike_id":"1bf9928f-62f3-4ed0-937d-889754c669b4","system_id":"levelo_inurba_marseille","lat":43.29602,"lon":5.381084,"is_reserved":false,"is_disabled":false,"rental_uris":{"android":"levelo://app?vid=1bf9928f-62f3-4ed0-937d-889754c669b4","ios":"levelo://app?vid=1bf9928f-62f3-4ed0-937d-889754c669b4"},"vehicle_type_id":"4","last_reported":1716311221,"current_range_meters":8000,"station_id":"ce4bgl12rcd13ifvqbo0","pricing_plan_id":"cebpf4jnsgd1na2vs0mg"},{"bike_id":"e61171bc-a1dc-4dc2-91f6-cfe800e77aec","system_id":"levelo_inurba_marseille","lat":43.293259,"lon":5.371586,"is_reserved":false,"is_disabled":false,"rental_uris":{"android":"levelo://app?vid=e61171bc-a1dc-4dc2-91f6-cfe800e77aec","ios":"levelo://app?vid=e61171bc-a1dc-4dc2-91f6-cfe800e77aec"},"vehicle_type_id":"4","last_reported":1716311221,"current_range_meters":15600,"station_id":"ce4bgh92rcd13ifvqb40","pricing_plan_id":"cebpf4jnsgd1na2vs0mg"},{"bike_id":"b6975c6c-946b-46c6-b39e-f180291e349b","system_id":"levelo_inurba_marseille","lat":43.29267,"lon":5.36852,"is_reserved":false,"is_disabled":false,"rental_uris":{"android":"levelo://app?vid=b6975c6c-946b-46c6-b39e-f180291e349b","ios":"levelo://app?vid=b6975c6c-946b-46c6-b39e-f180291e349b"},"vehicle_type_id":"4","last_reported":1716311221,"current_range_meters":17200,"station_id":"ce4bhbp2rcd13ifvqesg","pricing_plan_id":"cebpf4jnsgd1na2vs0mg"},{"bike_id":"59cece5b-b158-40ff-a746-12723e3855e0","system_id":"levelo_inurba_marseille","lat":43.300003,"lon":5.38867,"is_reserved":false,"is_disabled":false,"rental_uris":{"android":"levelo://app?vid=59cece5b-b158-40ff-a746-12723e3855e0","ios":"levelo://app?vid=59cece5b-b158-40ff-a746-12723e3855e0"},"vehicle_type_id":"4","last_reported":1716311221,"current_range_meters":2000,"station_id":"","pricing_plan_id":"cebpf4jnsgd1na2vs0mg"},{"bike_id":"e4ae035b-7ad3-4949-86f1-cf56c063cb6f","system_id":"levelo_inurba_marseille","lat":43.302987,"lon":5.391729,"is_reserved":false,"is_disabled":false,"rental_uris":{"android":"levelo://app?vid=e4ae035b-7ad3-4949-86f1-cf56c063cb6f","ios":"levelo://app?vid=e4ae035b-7ad3-4949-86f1-cf56c063cb6f"},"vehicle_type_id":"4","last_reported":1716311221,"current_range_meters":0,"station_id":"","pricing_plan_id":"cebpf4jnsgd1na2vs0mg"},{"bike_id":"10c6ad0b-a664-47f3-9fc3-6562d153c153","system_id":"levelo_inurba_marseille","lat":43.29227,"lon":5.36452,"is_reserved":false,"is_disabled":false,"rental_uris":{"android":"levelo://app?vid=10c6ad0b-a664-47f3-9fc3-6562d153c153","ios":"levelo://app?vid=10c6ad0b-a664-47f3-9fc3-6562d153c153"},"vehicle_type_id":"4","last_reported":1716311221,"current_range_meters":0,"station_id":"","pricing_plan_id":"cebpf4jnsgd1na2vs0mg"},{"bike_id":"3b5e7e7f-5dbf-4317-9576-4fed9828ac9e","system_id":"levelo_inurba_marseille","lat":43.293009,"lon":5.374584,"is_reserved":false,"is_disabled":false,"rental_uris":{"android":"levelo://app?vid=3b5e7e7f-5dbf-4317-9576-4fed9828ac9e","ios":"levelo://app?vid=3b5e7e7f-5dbf-4317-9576-4fed9828ac9e"},"vehicle_type_id":"4","last_reported":1716311221,"current_range_meters":22800,"station_id":"ce4bgi12rcd13ifvqb70","pricing_plan_id":"cebpf4jnsgd1na2vs0mg"},{"bike_id":"6e1b4d40-a009-4ac8-8575-809a1b10d614","system_id":"levelo_inurba_marseille","lat":43.305994,"lon":5.393687,"is_reserved":false,"is_disabled":false,"rental_uris":{"android":"levelo://app?vid=6e1b4d40-a009-4ac8-8575-809a1b10d614","ios":"levelo://app?vid=6e1b4d40-a009-4ac8-8575-809a1b10d614"},"vehicle_type_id":"4","last_reported":1716311221,"current_range_meters":11200,"station_id":"ce4bh0p2rcd13ifvqd80","pricing_plan_id":"cebpf4jnsgd1na2vs0mg"},{"bike_id":"0f41a401-8f1a-4720-9d2a-e0c0d9deb5af","system_id":"levelo_inurba_marseille","lat":43.30085,"lon":5.390856,"is_reserved":false,"is_disabled":false,"rental_uris":{"android":"levelo://app?vid=0f41a401-8f1a-4720-9d2a-e0c0d9deb5af","ios":"levelo://app?vid=0f41a401-8f1a-4720-9d2a-e0c0d9deb5af"},"vehicle_type_id":"4","last_reported":1716311221,"current_range_meters":22800,"station_id":"ce4bh192rcd13ifvqdb0","pricing_plan_id":"cebpf4jnsgd1na2vs0mg"},{"bike_id":"bbda6ce7-af9e-4c28-bb94-f6744a5339d3","system_id":"levelo_inurba_marseille","lat":43.303002,"lon":5.392142,"is_reserved":false,"is_disabled":false,"rental_uris":{"android":"levelo://app?vid=bbda6ce7-af9e-4c28-bb94-f6744a5339d3","ios":"levelo://app?vid=bbda6ce7-af9e-4c28-bb94-f6744a5339d3"},"vehicle_type_id":"4","last_reported":1716311221,"current_range_meters":4400,"station_id":"ce4bgkh2rcd13ifvqbk0","pricing_plan_id":"cebpf4jnsgd1na2vs0mg"},{"bike_id":"c73ab6d7-a5c8-4945-8a5b-d7bac32317cd","system_id":"levelo_inurba_marseille","lat":43.292311,"lon":5.360731,"is_reserved":false,"is_disabled":false,"rental_uris":{"android":"levelo://app?vid=c73ab6d7-a5c8-4945-8a5b-d7bac32317cd","ios":"levelo://app?vid=c73ab6d7-a5c8-4945-8a5b-d7bac32317cd"},"vehicle_type_id":"4","last_reported":1716311221,"current_range_meters":2000,"station_id":"ce4bhbh2rcd13ifvqeqg","pricing_plan_id":"cebpf4jnsgd1na2vs0mg"},{"bike_id":"7ecbf93e-cd14-4fe9-8802-3cd3510d21b0","system_id":"levelo_inurba_marseille","lat":43.300932,"lon":5.390704,"is_reserved":false,"is_disabled":false,"rental_uris":{"android":"levelo://app?vid=7ecbf93e-cd14-4fe9-8802-3cd3510d21b0","ios":"levelo://app?vid=7ecbf93e-cd14-4fe9-8802-3cd3510d21b0"},"vehicle_type_id":"4","last_reported":1716311221,"current_range_meters":0,"station_id":"ce4bh192rcd13ifvqdb0","pricing_plan_id":"cebpf4jnsgd1na2vs0mg"},{"bike_id":"ffeedcf3-6a4b-4490-8779-30f5544f2793","system_id":"levelo_inurba_marseille","lat":43.29227,"lon":5.36061,"is_reserved":false,"is_disabled":false,"rental_uris":{"android":"levelo://app?vid=ffeedcf3-6a4b-4490-8779-30f5544f2793","ios":"levelo://app?vid=ffeedcf3-6a4b-4490-8779-30f5544f2793"},"vehicle_type_id":"4","last_reported":1716311221,"current_range_meters":0,"station_id":"ce4bhbh2rcd13ifvqeqg","pricing_plan_id":"cebpf4jnsgd1na2vs0mg"},{"bike_id":"e0a2d028-40e9-4913-8df6-b28b161c1148","system_id":"levelo_inurba_marseille","lat":43.300998,"lon":5.39085,"is_reserved":false,"is_disabled":false,"rental_uris":{"android":"levelo://app?vid=e0a2d028-40e9-4913-8df6-b28b161c1148","ios":"levelo://app?vid=e0a2d028-40e9-4913-8df6-b28b161c1148"},"vehicle_type_id":"4","last_reported":1716311221,"current_range_meters":12000,"station_id":"ce4bh192rcd13ifvqdb0","pricing_plan_id":"cebpf4jnsgd1na2vs0mg"},{"bike_id":"aa8b2d40-e1b7-4745-bf93-c889c8e9c3f7","system_id":"levelo_inurba_marseille","lat":43.3008,"lon":5.39097,"is_reserved":false,"is_disabled":false,"rental_uris":{"android":"levelo://app?vid=aa8b2d40-e1b7-4745-bf93-c889c8e9c3f7","ios":"levelo://app?vid=aa8b2d40-e1b7-4745-bf93-c889c8e9c3f7"},"vehicle_type_id":"4","last_reported":1716311221,"current_range_meters":29600,"station_id":"ce4bh192rcd13ifvqdb0","pricing_plan_id":"cebpf4jnsgd1na2vs0mg"},{"bike_id":"0404686e-32c4-4506-9884-a4d71517dfbf","system_id":"levelo_inurba_marseille","lat":43.29529,"lon":5.385581,"is_reserved":false,"is_disabled":false,"rental_uris":{"android":"levelo://app?vid=0404686e-32c4-4506-9884-a4d71517dfbf","ios":"levelo://app?vid=0404686e-32c4-4506-9884-a4d71517dfbf"},"vehicle_type_id":"4","last_reported":1716311221,"current_range_meters":10800,"station_id":"ce4bgih2rcd13ifvqba0","pricing_plan_id":"cebpf4jnsgd1na2vs0mg"},{"bike_id":"fc6f886d-5388-4c83-9bf1-3fc78a9cc361","system_id":"levelo_inurba_marseille","lat":43.298777,"lon":5.388988,"is_reserved":false,"is_disabled":false,"rental_uris":{"android":"levelo://app?vid=fc6f886d-5388-4c83-9bf1-3fc78a9cc361","ios":"levelo://app?vid=fc6f886d-5388-4c83-9bf1-3fc78a9cc361"},"vehicle_type_id":"4","last_reported":1716311221,"current_range_meters":22400,"station_id":"ce4bh392rcd13ifvqdl0","pricing_plan_id":"cebpf4jnsgd1na2vs0mg"},{"bike_id":"c7fd8ea1-eb98-44ef-beee-91ef7713ba78","system_id":"levelo_inurba_marseille","lat":43.298764,"lon":5.388973,"is_reserved":false,"is_disabled":false,"rental_uris":{"android":"levelo://app?vid=c7fd8ea1-eb98-44ef-beee-91ef7713ba78","ios":"levelo://app?vid=c7fd8ea1-eb98-44ef-beee-91ef7713ba78"},"vehicle_type_id":"4","last_reported":1716311221,"current_range_meters":2000,"station_id":"ce4bh392rcd13ifvqdl0","pricing_plan_id":"cebpf4jnsgd1na2vs0mg"},{"bike_id":"48f10497-a84d-45e3-9abb-ef5d2cd7f43f","system_id":"levelo_inurba_marseille","lat":43.291675,"lon":5.371583,"is_reserved":false,"is_disabled":false,"rental_uris":{"android":"levelo://app?vid=48f10497-a84d-45e3-9abb-ef5d2cd7f43f","ios":"levelo://app?vid=48f10497-a84d-45e3-9abb-ef5d2cd7f43f"},"vehicle_type_id":"4","last_reported":1716311221,"current_range_meters":4800,"station_id":"ce4bha92rcd13ifvqeh0","pricing_plan_id":"cebpf4jnsgd1na2vs0mg"},{"bike_id":"759f5ac5-eb4d-40e5-b055-20d4197da634","system_id":"levelo_inurba_marseille","lat":43.313291,"lon":5.396838,"is_reserved":false,"is_disabled":false,"rental_uris":{"android":"levelo://app?vid=759f5ac5-eb4d-40e5-b055-20d4197da634","ios":"levelo://app?vid=759f5ac5-eb4d-40e5-b055-20d4197da634"},"vehicle_type_id":"4","last_reported":1716311221,"current_range_meters":0,"station_id":"ce4bgvp2rcd13ifvqcu0","pricing_plan_id":"cebpf4jnsgd1na2vs0mg"},{"bike_id":"15b09c2d-0045-41c8-8f65-7d1125dfb4d3","system_id":"levelo_inurba_marseille","lat":43.291671,"lon":5.371575,"is_reserved":false,"is_disabled":false,"rental_uris":{"android":"levelo://app?vid=15b09c2d-0045-41c8-8f65-7d1125dfb4d3","ios":"levelo://app?vid=15b09c2d-0045-41c8-8f65-7d1125dfb4d3"},"vehicle_type_id":"4","last_reported":1716311221,"current_range_meters":10000,"station_id":"ce4bha92rcd13ifvqeh0","pricing_plan_id":"cebpf4jnsgd1na2vs0mg"},{"bike_id":"91db5980-f7fd-4315-af0f-4f4fd988cb12","system_id":"levelo_inurba_marseille","lat":43.291662,"lon":5.371571,"is_reserved":false,"is_disabled":false,"rental_uris":{"android":"levelo://app?vid=91db5980-f7fd-4315-af0f-4f4fd988cb12","ios":"levelo://app?vid=91db5980-f7fd-4315-af0f-4f4fd988cb12"},"vehicle_type_id":"4","last_reported":1716311221,"current_range_meters":0,"station_id":"ce4bha92rcd13ifvqeh0","pricing_plan_id":"cebpf4jnsgd1na2vs0mg"},{"bike_id":"606a9d53-4c27-4670-bf54-b921a2ff9737","system_id":"levelo_inurba_marseille","lat":43.313291,"lon":5.396838,"is_reserved":false,"is_disabled":false,"rental_uris":{"android":"levelo://app?vid=606a9d53-4c27-4670-bf54-b921a2ff9737","ios":"levelo://app?vid=606a9d53-4c27-4670-bf54-b921a2ff9737"},"vehicle_type_id":"4","last_reported":1716311221,"current_range_meters":14400,"station_id":"ce4bgvp2rcd13ifvqcu0","pricing_plan_id":"cebpf4jnsgd1na2vs0mg"},{"bike_id":"8f9f30f2-45c0-4f83-b9b8-832265af762b","system_id":"levelo_inurba_marseille","lat":43.298764,"lon":5.388973,"is_reserved":false,"is_disabled":false,"rental_uris":{"android":"levelo://app?vid=8f9f30f2-45c0-4f83-b9b8-832265af762b","ios":"levelo://app?vid=8f9f30f2-45c0-4f83-b9b8-832265af762b"},"vehicle_type_id":"4","last_reported":1716311221,"current_range_meters":14000,"station_id":"ce4bh392rcd13ifvqdl0","pricing_plan_id":"cebpf4jnsgd1na2vs0mg"},{"bike_id":"631ee026-f07a-4363-a88f-fb0cb4ba6e2b","system_id":"levelo_inurba_marseille","lat":43.291994,"lon":5.357886,"is_reserved":false,"is_disabled":false,"rental_uris":{"android":"levelo://app?vid=631ee026-f07a-4363-a88f-fb0cb4ba6e2b","ios":"levelo://app?vid=631ee026-f07a-4363-a88f-fb0cb4ba6e2b"},"vehicle_type_id":"4","last_reported":1716311221,"current_range_meters":2800,"station_id":"ce4bhb12rcd13ifvqel0","pricing_plan_id":"cebpf4jnsgd1na2vs0mg"},{"bike_id":"aec1196e-712c-47e1-8a80-327b8ab0169f","system_id":"levelo_inurba_marseille","lat":43.292005,"lon":5.357875,"is_reserved":false,"is_disabled":false,"rental_uris":{"android":"levelo://app?vid=aec1196e-712c-47e1-8a80-327b8ab0169f","ios":"levelo://app?vid=aec1196e-712c-47e1-8a80-327b8ab0169f"},"vehicle_type_id":"4","last_reported":1716311221,"current_range_meters":22400,"station_id":"ce4bhb12rcd13ifvqel0","pricing_plan_id":"cebpf4jnsgd1na2vs0mg"},{"bike_id":"a6402e59-e9d7-41bc-a074-9ae8955aaf30","system_id":"levelo_inurba_marseille","lat":43.309038,"lon":5.396546,"is_reserved":false,"is_disabled":false,"rental_uris":{"android":"levelo://app?vid=a6402e59-e9d7-41bc-a074-9ae8955aaf30","ios":"levelo://app?vid=a6402e59-e9d7-41bc-a074-9ae8955aaf30"},"vehicle_type_id":"4","last_reported":1716311221,"current_range_meters":20000,"station_id":"ce4bh012rcd13ifvqcv0","pricing_plan_id":"cebpf4jnsgd1na2vs0mg"},{"bike_id":"3c1403d2-ae18-455b-8fb3-20602230b878","system_id":"levelo_inurba_marseille","lat":43.313291,"lon":5.396838,"is_reserved":false,"is_disabled":false,"rental_uris":{"android":"levelo://app?vid=3c1403d2-ae18-455b-8fb3-20602230b878","ios":"levelo://app?vid=3c1403d2-ae18-455b-8fb3-20602230b878"},"vehicle_type_id":"4","last_reported":1716311221,"current_range_meters":24000,"station_id":"ce4bgvp2rcd13ifvqcu0","pricing_plan_id":"cebpf4jnsgd1na2vs0mg"},{"bike_id":"4489884f-526c-4b9f-b771-780fe88a6a08","system_id":"levelo_inurba_marseille","lat":43.313291,"lon":5.396838,"is_reserved":false,"is_disabled":false,"rental_uris":{"android":"levelo://app?vid=4489884f-526c-4b9f-b771-780fe88a6a08","ios":"levelo://app?vid=4489884f-526c-4b9f-b771-780fe88a6a08"},"vehicle_type_id":"4","last_reported":1716311221,"current_range_meters":19600,"station_id":"ce4bgvp2rcd13ifvqcu0","pricing_plan_id":"cebpf4jnsgd1na2vs0mg"},{"bike_id":"4622e8f7-00f7-4e4e-820c-395a884cf366","system_id":"levelo_inurba_marseille","lat":43.309047,"lon":5.396551,"is_reserved":false,"is_disabled":false,"rental_uris":{"android":"levelo://app?vid=4622e8f7-00f7-4e4e-820c-395a884cf366","ios":"levelo://app?vid=4622e8f7-00f7-4e4e-820c-395a884cf366"},"vehicle_type_id":"4","last_reported":1716311221,"current_range_meters":7200,"station_id":"ce4bh012rcd13ifvqcv0","pricing_plan_id":"cebpf4jnsgd1na2vs0mg"},{"bike_id":"d00732a1-db17-4395-94ff-e2154880c25d","system_id":"levelo_inurba_marseille","lat":43.295417,"lon":5.385352,"is_reserved":false,"is_disabled":false,"rental_uris":{"android":"levelo://app?vid=d00732a1-db17-4395-94ff-e2154880c25d","ios":"levelo://app?vid=d00732a1-db17-4395-94ff-e2154880c25d"},"vehicle_type_id":"4","last_reported":1716311221,"current_range_meters":12800,"station_id":"ce4bgih2rcd13ifvqba0","pricing_plan_id":"cebpf4jnsgd1na2vs0mg"},{"bike_id":"32e31c33-45a1-47e9-a6b7-693405f7c4d2","system_id":"levelo_inurba_marseille","lat":43.309047,"lon":5.396551,"is_reserved":false,"is_disabled":false,"rental_uris":{"android":"levelo://app?vid=32e31c33-45a1-47e9-a6b7-693405f7c4d2","ios":"levelo://app?vid=32e31c33-45a1-47e9-a6b7-693405f7c4d2"},"vehicle_type_id":"4","last_reported":1716311221,"current_range_meters":0,"station_id":"ce4bh012rcd13ifvqcv0","pricing_plan_id":"cebpf4jnsgd1na2vs0mg"},{"bike_id":"573dda21-1018-4dc6-9d9d-d212e5e2629a","system_id":"levelo_inurba_marseille","lat":43.29539,"lon":5.3854,"is_reserved":false,"is_disabled":false,"rental_uris":{"android":"levelo://app?vid=573dda21-1018-4dc6-9d9d-d212e5e2629a","ios":"levelo://app?vid=573dda21-1018-4dc6-9d9d-d212e5e2629a"},"vehicle_type_id":"4","last_reported":1716311221,"current_range_meters":8000,"station_id":"ce4bgih2rcd13ifvqba0","pricing_plan_id":"cebpf4jnsgd1na2vs0mg"},{"bike_id":"dfd0aa3b-731d-469f-b28c-b5d1cb2a8e98","system_id":"levelo_inurba_marseille","lat":43.309038,"lon":5.396546,"is_reserved":false,"is_disabled":false,"rental_uris":{"android":"levelo://app?vid=dfd0aa3b-731d-469f-b28c-b5d1cb2a8e98","ios":"levelo://app?vid=dfd0aa3b-731d-469f-b28c-b5d1cb2a8e98"},"vehicle_type_id":"4","last_reported":1716311221,"current_range_meters":16400,"station_id":"ce4bh012rcd13ifvqcv0","pricing_plan_id":"cebpf4jnsgd1na2vs0mg"},{"bike_id":"a581f2d8-5b8a-4527-b912-852961e473c8","system_id":"levelo_inurba_marseille","lat":43.309038,"lon":5.396546,"is_reserved":false,"is_disabled":false,"rental_uris":{"android":"levelo://app?vid=a581f2d8-5b8a-4527-b912-852961e473c8","ios":"levelo://app?vid=a581f2d8-5b8a-4527-b912-852961e473c8"},"vehicle_type_id":"4","last_reported":1716311221,"current_range_meters":3600,"station_id":"ce4bh012rcd13ifvqcv0","pricing_plan_id":"cebpf4jnsgd1na2vs0mg"},{"bike_id":"c4b86281-0415-4d95-86ce-d17ef8578ff1","system_id":"levelo_inurba_marseille","lat":43.309047,"lon":5.396551,"is_reserved":false,"is_disabled":false,"rental_uris":{"android":"levelo://app?vid=c4b86281-0415-4d95-86ce-d17ef8578ff1","ios":"levelo://app?vid=c4b86281-0415-4d95-86ce-d17ef8578ff1"},"vehicle_type_id":"4","last_reported":1716311221,"current_range_meters":15200,"station_id":"ce4bh012rcd13ifvqcv0","pricing_plan_id":"cebpf4jnsgd1na2vs0mg"},{"bike_id":"07cdfd24-a734-404c-9f5b-8c163e502f62","system_id":"levelo_inurba_marseille","lat":43.295403,"lon":5.38547,"is_reserved":false,"is_disabled":false,"rental_uris":{"android":"levelo://app?vid=07cdfd24-a734-404c-9f5b-8c163e502f62","ios":"levelo://app?vid=07cdfd24-a734-404c-9f5b-8c163e502f62"},"vehicle_type_id":"4","last_reported":1716311221,"current_range_meters":10800,"station_id":"ce4bgih2rcd13ifvqba0","pricing_plan_id":"cebpf4jnsgd1na2vs0mg"},{"bike_id":"6bff4cb4-8bfd-420f-a908-c171d2b4c74c","system_id":"levelo_inurba_marseille","lat":43.29533,"lon":5.38535,"is_reserved":false,"is_disabled":false,"rental_uris":{"android":"levelo://app?vid=6bff4cb4-8bfd-420f-a908-c171d2b4c74c","ios":"levelo://app?vid=6bff4cb4-8bfd-420f-a908-c171d2b4c74c"},"vehicle_type_id":"4","last_reported":1716311221,"current_range_meters":30000,"station_id":"ce4bgih2rcd13ifvqba0","pricing_plan_id":"cebpf4jnsgd1na2vs0mg"},{"bike_id":"7cc1348a-b202-4d8e-87c0-c3ad263f09f9","system_id":"levelo_inurba_marseille","lat":43.29529,"lon":5.385581,"is_reserved":false,"is_disabled":false,"rental_uris":{"android":"levelo://app?vid=7cc1348a-b202-4d8e-87c0-c3ad263f09f9","ios":"levelo://app?vid=7cc1348a-b202-4d8e-87c0-c3ad263f09f9"},"vehicle_type_id":"4","last_reported":1716311221,"current_range_meters":16000,"station_id":"ce4bgih2rcd13ifvqba0","pricing_plan_id":"cebpf4jnsgd1na2vs0mg"},{"bike_id":"93e584da-4506-4f2e-9582-c356bfbc2c6e","system_id":"levelo_inurba_marseille","lat":43.29531,"lon":5.385346,"is_reserved":false,"is_disabled":false,"rental_uris":{"android":"levelo://app?vid=93e584da-4506-4f2e-9582-c356bfbc2c6e","ios":"levelo://app?vid=93e584da-4506-4f2e-9582-c356bfbc2c6e"},"vehicle_type_id":"4","last_reported":1716311221,"current_range_meters":12400,"station_id":"ce4bgih2rcd13ifvqba0","pricing_plan_id":"cebpf4jnsgd1na2vs0mg"},{"bike_id":"a3b5d3ce-97ec-49be-9cbe-bade3eab3752","system_id":"levelo_inurba_marseille","lat":43.29536,"lon":5.38546,"is_reserved":false,"is_disabled":false,"rental_uris":{"android":"levelo://app?vid=a3b5d3ce-97ec-49be-9cbe-bade3eab3752","ios":"levelo://app?vid=a3b5d3ce-97ec-49be-9cbe-bade3eab3752"},"vehicle_type_id":"4","last_reported":1716311221,"current_range_meters":0,"station_id":"ce4bgih2rcd13ifvqba0","pricing_plan_id":"cebpf4jnsgd1na2vs0mg"},{"bike_id":"620b5abd-6dfb-41f8-80c1-88d5fffb5987","system_id":"levelo_inurba_marseille","lat":43.29535,"lon":5.38545,"is_reserved":false,"is_disabled":false,"rental_uris":{"android":"levelo://app?vid=620b5abd-6dfb-41f8-80c1-88d5fffb5987","ios":"levelo://app?vid=620b5abd-6dfb-41f8-80c1-88d5fffb5987"},"vehicle_type_id":"4","last_reported":1716311221,"current_range_meters":10000,"station_id":"ce4bgih2rcd13ifvqba0","pricing_plan_id":"cebpf4jnsgd1na2vs0mg"},{"bike_id":"912371b6-6f26-4159-98c0-7b060877aeaf","system_id":"levelo_inurba_marseille","lat":43.309047,"lon":5.396551,"is_reserved":false,"is_disabled":false,"rental_uris":{"android":"levelo://app?vid=912371b6-6f26-4159-98c0-7b060877aeaf","ios":"levelo://app?vid=912371b6-6f26-4159-98c0-7b060877aeaf"},"vehicle_type_id":"4","last_reported":1716311221,"current_range_meters":27600,"station_id":"ce4bh012rcd13ifvqcv0","pricing_plan_id":"cebpf4jnsgd1na2vs0mg"},{"bike_id":"6b0a0588-e2d9-401b-8970-2ec1e222898c","system_id":"levelo_inurba_marseille","lat":43.29529,"lon":5.385581,"is_reserved":false,"is_disabled":false,"rental_uris":{"android":"levelo://app?vid=6b0a0588-e2d9-401b-8970-2ec1e222898c","ios":"levelo://app?vid=6b0a0588-e2d9-401b-8970-2ec1e222898c"},"vehicle_type_id":"4","last_reported":1716311221,"current_range_meters":2800,"station_id":"ce4bgih2rcd13ifvqba0","pricing_plan_id":"cebpf4jnsgd1na2vs0mg"},{"bike_id":"ae6241a1-e76e-4c50-9b94-fdb3fe4ddd9d","system_id":"levelo_inurba_marseille","lat":43.29529,"lon":5.385581,"is_reserved":false,"is_disabled":false,"rental_uris":{"android":"levelo://app?vid=ae6241a1-e76e-4c50-9b94-fdb3fe4ddd9d","ios":"levelo://app?vid=ae6241a1-e76e-4c50-9b94-fdb3fe4ddd9d"},"vehicle_type_id":"4","last_reported":1716311221,"current_range_meters":0,"station_id":"ce4bgih2rcd13ifvqba0","pricing_plan_id":"cebpf4jnsgd1na2vs0mg"},{"bike_id":"2952f786-26b8-4c7e-847a-d820083f063b","system_id":"levelo_inurba_marseille","lat":43.317557,"lon":5.390173,"is_reserved":false,"is_disabled":false,"rental_uris":{"android":"levelo://app?vid=2952f786-26b8-4c7e-847a-d820083f063b","ios":"levelo://app?vid=2952f786-26b8-4c7e-847a-d820083f063b"},"vehicle_type_id":"4","last_reported":1716311221,"current_range_meters":12800,"station_id":"ce4bhqp2rcd13ifvqhng","pricing_plan_id":"cebpf4jnsgd1na2vs0mg"},{"bike_id":"0f770555-6f84-4275-9860-50319ee8c000","system_id":"levelo_inurba_marseille","lat":43.291836,"lon":5.379498,"is_reserved":false,"is_disabled":false,"rental_uris":{"android":"levelo://app?vid=0f770555-6f84-4275-9860-50319ee8c000","ios":"levelo://app?vid=0f770555-6f84-4275-9860-50319ee8c000"},"vehicle_type_id":"4","last_reported":1716311221,"current_range_meters":0,"station_id":"","pricing_plan_id":"cebpf4jnsgd1na2vs0mg"},{"bike_id":"4af906aa-5c22-45a1-8369-f17baf3f10fc","system_id":"levelo_inurba_marseille","lat":43.290599,"lon":5.359143,"is_reserved":false,"is_disabled":false,"rental_uris":{"android":"levelo://app?vid=4af906aa-5c22-45a1-8369-f17baf3f10fc","ios":"levelo://app?vid=4af906aa-5c22-45a1-8369-f17baf3f10fc"},"vehicle_type_id":"4","last_reported":1716311221,"current_range_meters":0,"station_id":"ce4bha92rcd13ifvqeg0","pricing_plan_id":"cebpf4jnsgd1na2vs0mg"},{"bike_id":"1d9acd25-ea82-49c3-a387-ad690a20944d","system_id":"levelo_inurba_marseille","lat":43.290624,"lon":5.359245,"is_reserved":false,"is_disabled":false,"rental_uris":{"android":"levelo://app?vid=1d9acd25-ea82-49c3-a387-ad690a20944d","ios":"levelo://app?vid=1d9acd25-ea82-49c3-a387-ad690a20944d"},"vehicle_type_id":"4","last_reported":1716311221,"current_range_meters":28000,"station_id":"ce4bha92rcd13ifvqeg0","pricing_plan_id":"cebpf4jnsgd1na2vs0mg"},{"bike_id":"34f376e6-e0d9-4eab-83d1-fac11d8c4382","system_id":"levelo_inurba_marseille","lat":43.290624,"lon":5.359245,"is_reserved":false,"is_disabled":false,"rental_uris":{"android":"levelo://app?vid=34f376e6-e0d9-4eab-83d1-fac11d8c4382","ios":"levelo://app?vid=34f376e6-e0d9-4eab-83d1-fac11d8c4382"},"vehicle_type_id":"4","last_reported":1716311221,"current_range_meters":29600,"station_id":"ce4bha92rcd13ifvqeg0","pricing_plan_id":"cebpf4jnsgd1na2vs0mg"},{"bike_id":"4bcae33d-ec0d-4884-bd1b-3eda7c894682","system_id":"levelo_inurba_marseille","lat":43.2904,"lon":5.359128,"is_reserved":false,"is_disabled":false,"rental_uris":{"android":"levelo://app?vid=4bcae33d-ec0d-4884-bd1b-3eda7c894682","ios":"levelo://app?vid=4bcae33d-ec0d-4884-bd1b-3eda7c894682"},"vehicle_type_id":"4","last_reported":1716311221,"current_range_meters":0,"station_id":"ce4bha92rcd13ifvqeg0","pricing_plan_id":"cebpf4jnsgd1na2vs0mg"},{"bike_id":"d734fb21-768f-4707-9070-07369a71e46d","system_id":"levelo_inurba_marseille","lat":43.29428,"lon":5.38625,"is_reserved":false,"is_disabled":false,"rental_uris":{"android":"levelo://app?vid=d734fb21-768f-4707-9070-07369a71e46d","ios":"levelo://app?vid=d734fb21-768f-4707-9070-07369a71e46d"},"vehicle_type_id":"4","last_reported":1716311221,"current_range_meters":7600,"station_id":"ce4bh2h2rcd13ifvqdh0","pricing_plan_id":"cebpf4jnsgd1na2vs0mg"},{"bike_id":"2687e742-254c-472a-824e-1d4fafbab44f","system_id":"levelo_inurba_marseille","lat":43.29428,"lon":5.38629,"is_reserved":false,"is_disabled":false,"rental_uris":{"android":"levelo://app?vid=2687e742-254c-472a-824e-1d4fafbab44f","ios":"levelo://app?vid=2687e742-254c-472a-824e-1d4fafbab44f"},"vehicle_type_id":"4","last_reported":1716311221,"current_range_meters":3200,"station_id":"ce4bh2h2rcd13ifvqdh0","pricing_plan_id":"cebpf4jnsgd1na2vs0mg"},{"bike_id":"e5603d89-194e-46e4-b64e-476288a06f64","system_id":"levelo_inurba_marseille","lat":43.29423,"lon":5.38623,"is_reserved":false,"is_disabled":false,"rental_uris":{"android":"levelo://app?vid=e5603d89-194e-46e4-b64e-476288a06f64","ios":"levelo://app?vid=e5603d89-194e-46e4-b64e-476288a06f64"},"vehicle_type_id":"4","last_reported":1716311221,"current_range_meters":15600,"station_id":"ce4bh2h2rcd13ifvqdh0","pricing_plan_id":"cebpf4jnsgd1na2vs0mg"},{"bike_id":"9ba55dd3-9e7d-4f09-8a03-ed07237777ce","system_id":"levelo_inurba_marseille","lat":43.294196,"lon":5.386193,"is_reserved":false,"is_disabled":false,"rental_uris":{"android":"levelo://app?vid=9ba55dd3-9e7d-4f09-8a03-ed07237777ce","ios":"levelo://app?vid=9ba55dd3-9e7d-4f09-8a03-ed07237777ce"},"vehicle_type_id":"4","last_reported":1716311221,"current_range_meters":31200,"station_id":"ce4bh2h2rcd13ifvqdh0","pricing_plan_id":"cebpf4jnsgd1na2vs0mg"},{"bike_id":"4958bff3-c16c-4479-8bf1-90117617193d","system_id":"levelo_inurba_marseille","lat":43.294153,"lon":5.386305,"is_reserved":false,"is_disabled":false,"rental_uris":{"android":"levelo://app?vid=4958bff3-c16c-4479-8bf1-90117617193d","ios":"levelo://app?vid=4958bff3-c16c-4479-8bf1-90117617193d"},"vehicle_type_id":"4","last_reported":1716311221,"current_range_meters":14800,"station_id":"ce4bh2h2rcd13ifvqdh0","pricing_plan_id":"cebpf4jnsgd1na2vs0mg"},{"bike_id":"bc4ee024-4bb3-4666-b523-82ac89582568","system_id":"levelo_inurba_marseille","lat":43.29416,"lon":5.38622,"is_reserved":false,"is_disabled":false,"rental_uris":{"android":"levelo://app?vid=bc4ee024-4bb3-4666-b523-82ac89582568","ios":"levelo://app?vid=bc4ee024-4bb3-4666-b523-82ac89582568"},"vehicle_type_id":"4","last_reported":1716311221,"current_range_meters":13600,"station_id":"ce4bh2h2rcd13ifvqdh0","pricing_plan_id":"cebpf4jnsgd1na2vs0mg"},{"bike_id":"a319fec2-9ad9-4069-921d-bc1c5200c34d","system_id":"levelo_inurba_marseille","lat":43.294161,"lon":5.386221,"is_reserved":false,"is_disabled":false,"rental_uris":{"android":"levelo://app?vid=a319fec2-9ad9-4069-921d-bc1c5200c34d","ios":"levelo://app?vid=a319fec2-9ad9-4069-921d-bc1c5200c34d"},"vehicle_type_id":"4","last_reported":1716311221,"current_range_meters":25600,"station_id":"ce4bh2h2rcd13ifvqdh0","pricing_plan_id":"cebpf4jnsgd1na2vs0mg"},{"bike_id":"02575462-7954-4216-8965-294dacba832f","system_id":"levelo_inurba_marseille","lat":43.29417,"lon":5.38624,"is_reserved":false,"is_disabled":false,"rental_uris":{"android":"levelo://app?vid=02575462-7954-4216-8965-294dacba832f","ios":"levelo://app?vid=02575462-7954-4216-8965-294dacba832f"},"vehicle_type_id":"4","last_reported":1716311221,"current_range_meters":17200,"station_id":"ce4bh2h2rcd13ifvqdh0","pricing_plan_id":"cebpf4jnsgd1na2vs0mg"},{"bike_id":"9dc8aa7c-351e-4d41-9b4e-9a3e4fffacc7","system_id":"levelo_inurba_marseille","lat":43.294162,"lon":5.386292,"is_reserved":false,"is_disabled":false,"rental_uris":{"android":"levelo://app?vid=9dc8aa7c-351e-4d41-9b4e-9a3e4fffacc7","ios":"levelo://app?vid=9dc8aa7c-351e-4d41-9b4e-9a3e4fffacc7"},"vehicle_type_id":"4","last_reported":1716311221,"current_range_meters":5200,"station_id":"ce4bh2h2rcd13ifvqdh0","pricing_plan_id":"cebpf4jnsgd1na2vs0mg"},{"bike_id":"0a515ab5-0320-4047-bafd-e5d69d6e79e8","system_id":"levelo_inurba_marseille","lat":43.294162,"lon":5.386292,"is_reserved":false,"is_disabled":false,"rental_uris":{"android":"levelo://app?vid=0a515ab5-0320-4047-bafd-e5d69d6e79e8","ios":"levelo://app?vid=0a515ab5-0320-4047-bafd-e5d69d6e79e8"},"vehicle_type_id":"4","last_reported":1716311221,"current_range_meters":16800,"station_id":"ce4bh2h2rcd13ifvqdh0","pricing_plan_id":"cebpf4jnsgd1na2vs0mg"},{"bike_id":"33363538-6a62-4d32-a805-ffdd6d8e975c","system_id":"levelo_inurba_marseille","lat":43.294153,"lon":5.386305,"is_reserved":false,"is_disabled":false,"rental_uris":{"android":"levelo://app?vid=33363538-6a62-4d32-a805-ffdd6d8e975c","ios":"levelo://app?vid=33363538-6a62-4d32-a805-ffdd6d8e975c"},"vehicle_type_id":"4","last_reported":1716311221,"current_range_meters":12000,"station_id":"ce4bh2h2rcd13ifvqdh0","pricing_plan_id":"cebpf4jnsgd1na2vs0mg"},{"bike_id":"ee2840d6-0ea7-43bc-b7b8-24fda6e93939","system_id":"levelo_inurba_marseille","lat":43.29415,"lon":5.38632,"is_reserved":false,"is_disabled":false,"rental_uris":{"android":"levelo://app?vid=ee2840d6-0ea7-43bc-b7b8-24fda6e93939","ios":"levelo://app?vid=ee2840d6-0ea7-43bc-b7b8-24fda6e93939"},"vehicle_type_id":"4","last_reported":1716311221,"current_range_meters":8000,"station_id":"ce4bh2h2rcd13ifvqdh0","pricing_plan_id":"cebpf4jnsgd1na2vs0mg"},{"bike_id":"cf37ebaf-33e1-4ba1-9aa7-95139b626b85","system_id":"levelo_inurba_marseille","lat":43.295169,"lon":5.390426,"is_reserved":false,"is_disabled":false,"rental_uris":{"android":"levelo://app?vid=cf37ebaf-33e1-4ba1-9aa7-95139b626b85","ios":"levelo://app?vid=cf37ebaf-33e1-4ba1-9aa7-95139b626b85"},"vehicle_type_id":"4","last_reported":1716311221,"current_range_meters":8800,"station_id":"ce4bh3p2rcd13ifvqdp0","pricing_plan_id":"cebpf4jnsgd1na2vs0mg"},{"bike_id":"cd7c86dc-36d2-4dd0-beb2-6066997b2739","system_id":"levelo_inurba_marseille","lat":43.289468,"lon":5.363719,"is_reserved":false,"is_disabled":false,"rental_uris":{"android":"levelo://app?vid=cd7c86dc-36d2-4dd0-beb2-6066997b2739","ios":"levelo://app?vid=cd7c86dc-36d2-4dd0-beb2-6066997b2739"},"vehicle_type_id":"4","last_reported":1716311221,"current_range_meters":26800,"station_id":"ce4bhc92rcd13ifvqetg","pricing_plan_id":"cebpf4jnsgd1na2vs0mg"},{"bike_id":"00752652-933a-48f6-808b-c3a65d18152d","system_id":"levelo_inurba_marseille","lat":43.289468,"lon":5.363719,"is_reserved":false,"is_disabled":false,"rental_uris":{"android":"levelo://app?vid=00752652-933a-48f6-808b-c3a65d18152d","ios":"levelo://app?vid=00752652-933a-48f6-808b-c3a65d18152d"},"vehicle_type_id":"4","last_reported":1716311221,"current_range_meters":24800,"station_id":"ce4bhc92rcd13ifvqetg","pricing_plan_id":"cebpf4jnsgd1na2vs0mg"},{"bike_id":"6d18f3d4-1a44-4095-a101-9c54f2bd565f","system_id":"levelo_inurba_marseille","lat":43.289468,"lon":5.363719,"is_reserved":false,"is_disabled":false,"rental_uris":{"android":"levelo://app?vid=6d18f3d4-1a44-4095-a101-9c54f2bd565f","ios":"levelo://app?vid=6d18f3d4-1a44-4095-a101-9c54f2bd565f"},"vehicle_type_id":"4","last_reported":1716311221,"current_range_meters":22000,"station_id":"ce4bhc92rcd13ifvqetg","pricing_plan_id":"cebpf4jnsgd1na2vs0mg"},{"bike_id":"c4d37115-b1d0-4550-94cb-35c08c07537f","system_id":"levelo_inurba_marseille","lat":43.327498,"lon":5.391955,"is_reserved":false,"is_disabled":false,"rental_uris":{"android":"levelo://app?vid=c4d37115-b1d0-4550-94cb-35c08c07537f","ios":"levelo://app?vid=c4d37115-b1d0-4550-94cb-35c08c07537f"},"vehicle_type_id":"4","last_reported":1716311221,"current_range_meters":12800,"station_id":"","pricing_plan_id":"cebpf4jnsgd1na2vs0mg"},{"bike_id":"e169489b-9fc6-4641-aa64-bc741ae8cca4","system_id":"levelo_inurba_marseille","lat":43.294153,"lon":5.386305,"is_reserved":false,"is_disabled":false,"rental_uris":{"android":"levelo://app?vid=e169489b-9fc6-4641-aa64-bc741ae8cca4","ios":"levelo://app?vid=e169489b-9fc6-4641-aa64-bc741ae8cca4"},"vehicle_type_id":"4","last_reported":1716311221,"current_range_meters":7200,"station_id":"ce4bh2h2rcd13ifvqdh0","pricing_plan_id":"cebpf4jnsgd1na2vs0mg"},{"bike_id":"36172386-02be-4456-8214-fbb3eb21dfed","system_id":"levelo_inurba_marseille","lat":43.289468,"lon":5.363719,"is_reserved":false,"is_disabled":false,"rental_uris":{"android":"levelo://app?vid=36172386-02be-4456-8214-fbb3eb21dfed","ios":"levelo://app?vid=36172386-02be-4456-8214-fbb3eb21dfed"},"vehicle_type_id":"4","last_reported":1716311221,"current_range_meters":800,"station_id":"ce4bhc92rcd13ifvqetg","pricing_plan_id":"cebpf4jnsgd1na2vs0mg"},{"bike_id":"6ae9a7d9-78fe-4cc6-bc5d-3dc96e17276c","system_id":"levelo_inurba_marseille","lat":43.289468,"lon":5.363719,"is_reserved":false,"is_disabled":false,"rental_uris":{"android":"levelo://app?vid=6ae9a7d9-78fe-4cc6-bc5d-3dc96e17276c","ios":"levelo://app?vid=6ae9a7d9-78fe-4cc6-bc5d-3dc96e17276c"},"vehicle_type_id":"4","last_reported":1716311221,"current_range_meters":18000,"station_id":"ce4bhc92rcd13ifvqetg","pricing_plan_id":"cebpf4jnsgd1na2vs0mg"},{"bike_id":"eefca17e-7b45-491f-8010-07c14eaa7fd9","system_id":"levelo_inurba_marseille","lat":43.295169,"lon":5.390426,"is_reserved":false,"is_disabled":false,"rental_uris":{"android":"levelo://app?vid=eefca17e-7b45-491f-8010-07c14eaa7fd9","ios":"levelo://app?vid=eefca17e-7b45-491f-8010-07c14eaa7fd9"},"vehicle_type_id":"4","last_reported":1716311221,"current_range_meters":800,"station_id":"ce4bh3p2rcd13ifvqdp0","pricing_plan_id":"cebpf4jnsgd1na2vs0mg"},{"bike_id":"27647fd2-397c-41aa-b77e-1f4f960d066a","system_id":"levelo_inurba_marseille","lat":43.293866,"lon":5.386239,"is_reserved":false,"is_disabled":false,"rental_uris":{"android":"levelo://app?vid=27647fd2-397c-41aa-b77e-1f4f960d066a","ios":"levelo://app?vid=27647fd2-397c-41aa-b77e-1f4f960d066a"},"vehicle_type_id":"4","last_reported":1716311221,"current_range_meters":2800,"station_id":"ce4bh2h2rcd13ifvqdh0","pricing_plan_id":"cebpf4jnsgd1na2vs0mg"},{"bike_id":"91d1c703-9f1f-4829-8c14-0840c44c2cee","system_id":"levelo_inurba_marseille","lat":43.294153,"lon":5.386305,"is_reserved":false,"is_disabled":false,"rental_uris":{"android":"levelo://app?vid=91d1c703-9f1f-4829-8c14-0840c44c2cee","ios":"levelo://app?vid=91d1c703-9f1f-4829-8c14-0840c44c2cee"},"vehicle_type_id":"4","last_reported":1716311221,"current_range_meters":14000,"station_id":"ce4bh2h2rcd13ifvqdh0","pricing_plan_id":"cebpf4jnsgd1na2vs0mg"},{"bike_id":"83cce6ef-3a21-48ce-b1e9-4c625d8e2c6b","system_id":"levelo_inurba_marseille","lat":43.293725,"lon":5.386265,"is_reserved":false,"is_disabled":false,"rental_uris":{"android":"levelo://app?vid=83cce6ef-3a21-48ce-b1e9-4c625d8e2c6b","ios":"levelo://app?vid=83cce6ef-3a21-48ce-b1e9-4c625d8e2c6b"},"vehicle_type_id":"4","last_reported":1716311221,"current_range_meters":400,"station_id":"ce4bh2h2rcd13ifvqdh0","pricing_plan_id":"cebpf4jnsgd1na2vs0mg"},{"bike_id":"81f7848f-0a15-4bb7-bdd6-77a191e34f9a","system_id":"levelo_inurba_marseille","lat":43.291284,"lon":5.380798,"is_reserved":false,"is_disabled":false,"rental_uris":{"android":"levelo://app?vid=81f7848f-0a15-4bb7-bdd6-77a191e34f9a","ios":"levelo://app?vid=81f7848f-0a15-4bb7-bdd6-77a191e34f9a"},"vehicle_type_id":"4","last_reported":1716311221,"current_range_meters":0,"station_id":"","pricing_plan_id":"cebpf4jnsgd1na2vs0mg"},{"bike_id":"1213e181-8638-4407-8962-7aa032ef9fe6","system_id":"levelo_inurba_marseille","lat":43.29265,"lon":5.38441,"is_reserved":false,"is_disabled":false,"rental_uris":{"android":"levelo://app?vid=1213e181-8638-4407-8962-7aa032ef9fe6","ios":"levelo://app?vid=1213e181-8638-4407-8962-7aa032ef9fe6"},"vehicle_type_id":"4","last_reported":1716311221,"current_range_meters":1600,"station_id":"ce4bh692rcd13ifvqea0","pricing_plan_id":"cebpf4jnsgd1na2vs0mg"},{"bike_id":"89e8b03d-0e5e-459e-bc8d-0efd221b873a","system_id":"levelo_inurba_marseille","lat":43.292644,"lon":5.384257,"is_reserved":false,"is_disabled":false,"rental_uris":{"android":"levelo://app?vid=89e8b03d-0e5e-459e-bc8d-0efd221b873a","ios":"levelo://app?vid=89e8b03d-0e5e-459e-bc8d-0efd221b873a"},"vehicle_type_id":"4","last_reported":1716311221,"current_range_meters":17200,"station_id":"ce4bh692rcd13ifvqea0","pricing_plan_id":"cebpf4jnsgd1na2vs0mg"},{"bike_id":"3f504055-5d7a-439c-838e-05cd11a2463e","system_id":"levelo_inurba_marseille","lat":43.290104,"lon":5.356111,"is_reserved":false,"is_disabled":false,"rental_uris":{"android":"levelo://app?vid=3f504055-5d7a-439c-838e-05cd11a2463e","ios":"levelo://app?vid=3f504055-5d7a-439c-838e-05cd11a2463e"},"vehicle_type_id":"4","last_reported":1716311221,"current_range_meters":16000,"station_id":"ce4bhb92rcd13ifvqen0","pricing_plan_id":"cebpf4jnsgd1na2vs0mg"},{"bike_id":"1caea83a-4395-423c-9780-f6a275a5e78b","system_id":"levelo_inurba_marseille","lat":43.290104,"lon":5.356111,"is_reserved":false,"is_disabled":false,"rental_uris":{"android":"levelo://app?vid=1caea83a-4395-423c-9780-f6a275a5e78b","ios":"levelo://app?vid=1caea83a-4395-423c-9780-f6a275a5e78b"},"vehicle_type_id":"4","last_reported":1716311221,"current_range_meters":24800,"station_id":"ce4bhb92rcd13ifvqen0","pricing_plan_id":"cebpf4jnsgd1na2vs0mg"},{"bike_id":"ba660304-4b2a-4e94-a5d7-33babcea105f","system_id":"levelo_inurba_marseille","lat":43.29008,"lon":5.35614,"is_reserved":false,"is_disabled":false,"rental_uris":{"android":"levelo://app?vid=ba660304-4b2a-4e94-a5d7-33babcea105f","ios":"levelo://app?vid=ba660304-4b2a-4e94-a5d7-33babcea105f"},"vehicle_type_id":"4","last_reported":1716311221,"current_range_meters":0,"station_id":"ce4bhb92rcd13ifvqen0","pricing_plan_id":"cebpf4jnsgd1na2vs0mg"},{"bike_id":"6affd54c-9847-4c45-9100-1ecaa1acedf8","system_id":"levelo_inurba_marseille","lat":43.290103,"lon":5.356114,"is_reserved":false,"is_disabled":false,"rental_uris":{"android":"levelo://app?vid=6affd54c-9847-4c45-9100-1ecaa1acedf8","ios":"levelo://app?vid=6affd54c-9847-4c45-9100-1ecaa1acedf8"},"vehicle_type_id":"4","last_reported":1716311221,"current_range_meters":0,"station_id":"ce4bhb92rcd13ifvqen0","pricing_plan_id":"cebpf4jnsgd1na2vs0mg"},{"bike_id":"ff1e065b-5cb6-4678-97fa-86bcaafd8f8a","system_id":"levelo_inurba_marseille","lat":43.290104,"lon":5.356111,"is_reserved":false,"is_disabled":false,"rental_uris":{"android":"levelo://app?vid=ff1e065b-5cb6-4678-97fa-86bcaafd8f8a","ios":"levelo://app?vid=ff1e065b-5cb6-4678-97fa-86bcaafd8f8a"},"vehicle_type_id":"4","last_reported":1716311221,"current_range_meters":800,"station_id":"ce4bhb92rcd13ifvqen0","pricing_plan_id":"cebpf4jnsgd1na2vs0mg"},{"bike_id":"69e5124b-9c58-492a-927c-f8befca41dba","system_id":"levelo_inurba_marseille","lat":43.290104,"lon":5.356111,"is_reserved":false,"is_disabled":false,"rental_uris":{"android":"levelo://app?vid=69e5124b-9c58-492a-927c-f8befca41dba","ios":"levelo://app?vid=69e5124b-9c58-492a-927c-f8befca41dba"},"vehicle_type_id":"4","last_reported":1716311221,"current_range_meters":1200,"station_id":"ce4bhb92rcd13ifvqen0","pricing_plan_id":"cebpf4jnsgd1na2vs0mg"},{"bike_id":"bb7c407b-8989-4b83-8027-632d2b34a614","system_id":"levelo_inurba_marseille","lat":43.290076,"lon":5.356053,"is_reserved":false,"is_disabled":false,"rental_uris":{"android":"levelo://app?vid=bb7c407b-8989-4b83-8027-632d2b34a614","ios":"levelo://app?vid=bb7c407b-8989-4b83-8027-632d2b34a614"},"vehicle_type_id":"4","last_reported":1716311221,"current_range_meters":800,"station_id":"ce4bhb92rcd13ifvqen0","pricing_plan_id":"cebpf4jnsgd1na2vs0mg"},{"bike_id":"c2ccc2f6-7023-4c02-8d6c-505f748da71d","system_id":"levelo_inurba_marseille","lat":43.290104,"lon":5.356111,"is_reserved":false,"is_disabled":false,"rental_uris":{"android":"levelo://app?vid=c2ccc2f6-7023-4c02-8d6c-505f748da71d","ios":"levelo://app?vid=c2ccc2f6-7023-4c02-8d6c-505f748da71d"},"vehicle_type_id":"4","last_reported":1716311221,"current_range_meters":20000,"station_id":"ce4bhb92rcd13ifvqen0","pricing_plan_id":"cebpf4jnsgd1na2vs0mg"},{"bike_id":"839918cd-8046-4776-b118-eaed4089c99e","system_id":"levelo_inurba_marseille","lat":43.290104,"lon":5.356111,"is_reserved":false,"is_disabled":false,"rental_uris":{"android":"levelo://app?vid=839918cd-8046-4776-b118-eaed4089c99e","ios":"levelo://app?vid=839918cd-8046-4776-b118-eaed4089c99e"},"vehicle_type_id":"4","last_reported":1716311221,"current_range_meters":8000,"station_id":"ce4bhb92rcd13ifvqen0","pricing_plan_id":"cebpf4jnsgd1na2vs0mg"},{"bike_id":"c5120272-9d67-4334-8626-f130da5df5da","system_id":"levelo_inurba_marseille","lat":43.29,"lon":5.35625,"is_reserved":false,"is_disabled":false,"rental_uris":{"android":"levelo://app?vid=c5120272-9d67-4334-8626-f130da5df5da","ios":"levelo://app?vid=c5120272-9d67-4334-8626-f130da5df5da"},"vehicle_type_id":"4","last_reported":1716311221,"current_range_meters":13600,"station_id":"","pricing_plan_id":"cebpf4jnsgd1na2vs0mg"},{"bike_id":"60c0da99-8bd1-4c46-a194-ee9682f81af9","system_id":"levelo_inurba_marseille","lat":43.290104,"lon":5.356111,"is_reserved":false,"is_disabled":false,"rental_uris":{"android":"levelo://app?vid=60c0da99-8bd1-4c46-a194-ee9682f81af9","ios":"levelo://app?vid=60c0da99-8bd1-4c46-a194-ee9682f81af9"},"vehicle_type_id":"4","last_reported":1716311221,"current_range_meters":2400,"station_id":"ce4bhb92rcd13ifvqen0","pricing_plan_id":"cebpf4jnsgd1na2vs0mg"},{"bike_id":"aaca1bab-15f3-476b-900d-09226d0a653a","system_id":"levelo_inurba_marseille","lat":43.295169,"lon":5.390426,"is_reserved":false,"is_disabled":false,"rental_uris":{"android":"levelo://app?vid=aaca1bab-15f3-476b-900d-09226d0a653a","ios":"levelo://app?vid=aaca1bab-15f3-476b-900d-09226d0a653a"},"vehicle_type_id":"4","last_reported":1716311221,"current_range_meters":14000,"station_id":"ce4bh3p2rcd13ifvqdp0","pricing_plan_id":"cebpf4jnsgd1na2vs0mg"},{"bike_id":"bc49e81e-29d7-4e39-ab55-73c25a72a0a1","system_id":"levelo_inurba_marseille","lat":43.295169,"lon":5.390426,"is_reserved":false,"is_disabled":false,"rental_uris":{"android":"levelo://app?vid=bc49e81e-29d7-4e39-ab55-73c25a72a0a1","ios":"levelo://app?vid=bc49e81e-29d7-4e39-ab55-73c25a72a0a1"},"vehicle_type_id":"4","last_reported":1716311221,"current_range_meters":17200,"station_id":"ce4bh3p2rcd13ifvqdp0","pricing_plan_id":"cebpf4jnsgd1na2vs0mg"},{"bike_id":"b51bb29b-44cc-4fb9-95dd-33801b9e61b9","system_id":"levelo_inurba_marseille","lat":43.297945,"lon":5.39354,"is_reserved":false,"is_disabled":false,"rental_uris":{"android":"levelo://app?vid=b51bb29b-44cc-4fb9-95dd-33801b9e61b9","ios":"levelo://app?vid=b51bb29b-44cc-4fb9-95dd-33801b9e61b9"},"vehicle_type_id":"4","last_reported":1716311221,"current_range_meters":0,"station_id":"chh1huq6cuj3fo74tm60","pricing_plan_id":"cebpf4jnsgd1na2vs0mg"},