{"last_updated":1731488961,"ttl":60,"version":"2.2","data":{"bikes":[{"bike_id":"b1e6edba-5efe-429c-b5ea-dce0aeff73b2","system_id":"levelo_inurba_marseille","lat":43.24081,"lon":5.3775,"is_reserved":false,"is_disabled":false,"rental_uris":{"android":"levelo://app?vid=b1e6edba-5efe-429c-b5ea-dce0aeff73b2","ios":"levelo://app?vid=b1e6edba-5efe-429c-b5ea-dce0aeff73b2"},"vehicle_type_id":"4","last_reported":1731488961,"current_range_meters":40000,"station_id":"ce4bhnp2rcd13ifvqgvg","pricing_plan_id":"cebpf4jnsgd1na2vs0mg"},{"bike_id":"49b11540-bb5e-4dfe-9b04-c17cffae324c","system_id":"levelo_inurba_marseille","lat":43.27501,"lon":5.42454,"is_reserved":false,"is_disabled":false,"rental_uris":{"android":"levelo://app?vid=49b11540-bb5e-4dfe-9b04-c17cffae324c","ios":"levelo://app?vid=49b11540-bb5e-4dfe-9b04-c17cffae324c"},"vehicle_type_id":"4","last_reported":1731488961,"current_range_meters":38800,"station_id":"ce4bhn92rcd13ifvqgrg","pricing_plan_id":"cebpf4jnsgd1na2vs0mg"},{"bike_id":"52c3b47c-4ac8-4b12-96e0-93b36678801c","system_id":"levelo_inurba_marseille","lat":43.30555,"lon":5.36534,"is_reserved":false,"is_disabled":false,"rental_uris":{"android":"levelo://app?vid=52c3b47c-4ac8-4b12-96e0-93b36678801c","ios":"levelo://app?vid=52c3b47c-4ac8-4b12-96e0-93b36678801c"},"vehicle_type_id":"4","last_reported":1731488961,"current_range_meters":17200,"station_id":"ce4bgs12rcd13ifvqcag","pricing_plan_id":"cebpf4jnsgd1na2vs0mg"},{"bike_id":"e2d5e94e-71e7-4846-be63-bbde0a3a14b4","system_id":"levelo_inurba_marseille","lat":43.28153,"lon":5.42642,"is_reserved":false,"is_disabled":false,"rental_uris":{"android":"levelo://app?vid=e2d5e94e-71e7-4846-be63-bbde0a3a14b4","ios":"levelo://app?vid=e2d5e94e-71e7-4846-be63-bbde0a3a14b4"},"vehicle_type_id":"4","last_reported":1731488961,"current_range_meters":32400,"station_id":"ce4bhnh2rcd13ifvqgug","pricing_plan_id":"cebpf4jnsgd1na2vs0mg"},{"bike_id":"8b18e3ae-59f6-4867-bf94-53429dab0900","system_id":"levelo_inurba_marseille","lat":43.25934,"lon":5.4091,"is_reserved":false,"is_disabled":false,"rental_uris":{"android":"levelo://app?vid=8b18e3ae-59f6-4867-bf94-53429dab0900","ios":"levelo://app?vid=8b18e3ae-59f6-4867-bf94-53429dab0900"},"vehicle_type_id":"4","last_reported":1731488961,"current_range_meters":38800,"station_id":"ce4bhm92rcd13ifvqglg","pricing_plan_id":"cebpf4jnsgd1na2vs0mg"},{"bike_id":"898868e3-8df4-4bfe-a842-31bcd7623ce9","system_id":"levelo_inurba_marseille","lat":43.23186,"lon":5.39978,"is_reserved":false,"is_disabled":false,"rental_uris":{"android":"levelo://app?vid=898868e3-8df4-4bfe-a842-31bcd7623ce9","ios":"levelo://app?vid=898868e3-8df4-4bfe-a842-31bcd7623ce9"},"vehicle_type_id":"4","last_reported":1731488961,"current_range_meters":27200,"station_id":"ce4bhn12rcd13ifvqgqg","pricing_plan_id":"cebpf4jnsgd1na2vs0mg"},{"bike_id":"f94ac261-5d4a-4569-858c-e4fe371867c4","system_id":"levelo_inurba_marseille","lat":43.29628,"lon":5.37167,"is_reserved":false,"is_disabled":false,"rental_uris":{"android":"levelo://app?vid=f94ac261-5d4a-4569-858c-e4fe371867c4","ios":"levelo://app?vid=f94ac261-5d4a-4569-858c-e4fe371867c4"},"vehicle_type_id":"4","last_reported":1731488961,"current_range_meters":24800,"station_id":"ce4bgnh2rcd13ifvqc0g","pricing_plan_id":"cebpf4jnsgd1na2vs0mg"},{"bike_id":"38d58a32-817a-4e4a-8590-4b2de948fff1","system_id":"levelo_inurba_marseille","lat":43.258276,"lon":5.394407,"is_reserved":false,"is_disabled":false,"rental_uris":{"android":"levelo://app?vid=38d58a32-817a-4e4a-8590-4b2de948fff1","ios":"levelo://app?vid=38d58a32-817a-4e4a-8590-4b2de948fff1"},"vehicle_type_id":"4","last_reported":1731488961,"current_range_meters":38800,"station_id":"ce4bhip2rcd13ifvqft0","pricing_plan_id":"cebpf4jnsgd1na2vs0mg"},{"bike_id":"093b143a-ecec-424e-b05a-301513aef236","system_id":"levelo_inurba_marseille","lat":43.25933,"lon":5.40912,"is_reserved":false,"is_disabled":false,"rental_uris":{"android":"levelo://app?vid=093b143a-ecec-424e-b05a-301513aef236","ios":"levelo://app?vid=093b143a-ecec-424e-b05a-301513aef236"},"vehicle_type_id":"4","last_reported":1731488961,"current_range_meters":32800,"station_id":"ce4bhm92rcd13ifvqglg","pricing_plan_id":"cebpf4jnsgd1na2vs0mg"},{"bike_id":"4626e9cc-5d09-4e6b-bb5c-0fe5bf1a9564","system_id":"levelo_inurba_marseille","lat":43.30118,"lon":5.37432,"is_reserved":false,"is_disabled":false,"rental_uris":{"android":"levelo://app?vid=4626e9cc-5d09-4e6b-bb5c-0fe5bf1a9564","ios":"levelo://app?vid=4626e9cc-5d09-4e6b-bb5c-0fe5bf1a9564"},"vehicle_type_id":"4","last_reported":1731488961,"current_range_meters":19200,"station_id":"ce4bgs92rcd13ifvqcc0","pricing_plan_id":"cebpf4jnsgd1na2vs0mg"},{"bike_id":"afe44c09-4a07-416e-be95-3d235cec367e","system_id":"levelo_inurba_marseille","lat":43.28155,"lon":5.42644,"is_reserved":false,"is_disabled":false,"rental_uris":{"android":"levelo://app?vid=afe44c09-4a07-416e-be95-3d235cec367e","ios":"levelo://app?vid=afe44c09-4a07-416e-be95-3d235cec367e"},"vehicle_type_id":"4","last_reported":1731488961,"current_range_meters":38800,"station_id":"ce4bhnh2rcd13ifvqgug","pricing_plan_id":"cebpf4jnsgd1na2vs0mg"},{"bike_id":"f79d312e-6ea4-40b1-9965-b4d2ee2b8165","system_id":"levelo_inurba_marseille","lat":43.29042,"lon":5.39967,"is_reserved":false,"is_disabled":false,"rental_uris":{"android":"levelo://app?vid=f79d312e-6ea4-40b1-9965-b4d2ee2b8165","ios":"levelo://app?vid=f79d312e-6ea4-40b1-9965-b4d2ee2b8165"},"vehicle_type_id":"4","last_reported":1731488961,"current_range_meters":26000,"station_id":"ce4bh392rcd13ifvqdm0","pricing_plan_id":"cebpf4jnsgd1na2vs0mg"},{"bike_id":"d899472b-09bd-42e2-8cfc-69a114bffa2b","system_id":"levelo_inurba_marseille","lat":43.27946,"lon":5.41049,"is_reserved":false,"is_disabled":false,"rental_uris":{"android":"levelo://app?vid=d899472b-09bd-42e2-8cfc-69a114bffa2b","ios":"levelo://app?vid=d899472b-09bd-42e2-8cfc-69a114bffa2b"},"vehicle_type_id":"4","last_reported":1731488961,"current_range_meters":2800,"station_id":"ce4bhnp2rcd13ifvqh0g","pricing_plan_id":"cebpf4jnsgd1na2vs0mg"},{"bike_id":"76ed9af1-ca3a-4f28-ae0a-904b7ae282c8","system_id":"levelo_inurba_marseille","lat":43.28154,"lon":5.42648,"is_reserved":false,"is_disabled":false,"rental_uris":{"android":"levelo://app?vid=76ed9af1-ca3a-4f28-ae0a-904b7ae282c8","ios":"levelo://app?vid=76ed9af1-ca3a-4f28-ae0a-904b7ae282c8"},"vehicle_type_id":"4","last_reported":1731488961,"current_range_meters":38800,"station_id":"ce4bhnh2rcd13ifvqgug","pricing_plan_id":"cebpf4jnsgd1na2vs0mg"},{"bike_id":"85458871-ebbe-48ac-adb8-f78b4d1f4aa8","system_id":"levelo_inurba_marseille","lat":43.28149,"lon":5.42643,"is_reserved":false,"is_disabled":false,"rental_uris":{"android":"levelo://app?vid=85458871-ebbe-48ac-adb8-f78b4d1f4aa8","ios":"levelo://app?vid=85458871-ebbe-48ac-adb8-f78b4d1f4aa8"},"vehicle_type_id":"4","last_reported":1731488961,"current_range_meters":38800,"station_id":"ce4bhnh2rcd13ifvqgug","pricing_plan_id":"cebpf4jnsgd1na2vs0mg"},{"bike_id":"42572a44-77c6-42c4-9de9-23d0487d767b","system_id":"levelo_inurba_marseille","lat":43.30539,"lon":5.36544,"is_reserved":false,"is_disabled":false,"rental_uris":{"android":"levelo://app?vid=42572a44-77c6-42c4-9de9-23d0487d767b","ios":"levelo://app?vid=42572a44-77c6-42c4-9de9-23d0487d767b"},"vehicle_type_id":"4","last_reported":1731488961,"current_range_meters":38800,"station_id":"ce4bgs12rcd13ifvqcag","pricing_plan_id":"cebpf4jnsgd1na2vs0mg"},{"bike_id":"b739e764-f9b2-416b-ac90-b10eed820048","system_id":"levelo_inurba_marseille","lat":43.27494,"lon":5.42448,"is_reserved":false,"is_disabled":false,"rental_uris":{"android":"levelo://app?vid=b739e764-f9b2-416b-ac90-b10eed820048","ios":"levelo://app?vid=b739e764-f9b2-416b-ac90-b10eed820048"},"vehicle_type_id":"4","last_reported":1731488961,"current_range_meters":38800,"station_id":"ce4bhn92rcd13ifvqgrg","pricing_plan_id":"cebpf4jnsgd1na2vs0mg"},{"bike_id":"5101dc7e-dd78-41b9-9a08-2f16150e1b94","system_id":"levelo_inurba_marseille","lat":43.28958,"lon":5.36367,"is_reserved":false,"is_disabled":false,"rental_uris":{"android":"levelo://app?vid=5101dc7e-dd78-41b9-9a08-2f16150e1b94","ios":"levelo://app?vid=5101dc7e-dd78-41b9-9a08-2f16150e1b94"},"vehicle_type_id":"4","last_reported":1731488961,"current_range_meters":8800,"station_id":"ce4bhc92rcd13ifvqetg","pricing_plan_id":"cebpf4jnsgd1na2vs0mg"},{"bike_id":"bf84b230-e22e-4490-9999-1c1f6972af9a","system_id":"levelo_inurba_marseille","lat":43.31343,"lon":5.36704,"is_reserved":false,"is_disabled":false,"rental_uris":{"android":"levelo://app?vid=bf84b230-e22e-4490-9999-1c1f6972af9a","ios":"levelo://app?vid=bf84b230-e22e-4490-9999-1c1f6972af9a"},"vehicle_type_id":"4","last_reported":1731488961,"current_range_meters":32400,"station_id":"ce4bgr92rcd13ifvqc6g","pricing_plan_id":"cebpf4jnsgd1na2vs0mg"},{"bike_id":"f1fef96a-ca51-4d1c-9a03-0dcf1ccd90b1","system_id":"levelo_inurba_marseille","lat":43.2408,"lon":5.37752,"is_reserved":false,"is_disabled":false,"rental_uris":{"android":"levelo://app?vid=f1fef96a-ca51-4d1c-9a03-0dcf1ccd90b1","ios":"levelo://app?vid=f1fef96a-ca51-4d1c-9a03-0dcf1ccd90b1"},"vehicle_type_id":"4","last_reported":1731488961,"current_range_meters":8800,"station_id":"ce4bhnp2rcd13ifvqgvg","pricing_plan_id":"cebpf4jnsgd1na2vs0mg"},{"bike_id":"a0519f75-9e8d-41a7-bee6-ecbb87a3c32a","system_id":"levelo_inurba_marseille","lat":43.24081,"lon":5.37749,"is_reserved":false,"is_disabled":false,"rental_uris":{"android":"levelo://app?vid=a0519f75-9e8d-41a7-bee6-ecbb87a3c32a","ios":"levelo://app?vid=a0519f75-9e8d-41a7-bee6-ecbb87a3c32a"},"vehicle_type_id":"4","last_reported":1731488961,"current_range_meters":10000,"station_id":"ce4bhnp2rcd13ifvqgvg","pricing_plan_id":"cebpf4jnsgd1na2vs0mg"},{"bike_id":"2d00d74b-9844-45c2-a327-414873aabe21","system_id":"levelo_inurba_marseille","lat":43.33616,"lon":5.4104,"is_reserved":false,"is_disabled":false,"rental_uris":{"android":"levelo://app?vid=2d00d74b-9844-45c2-a327-414873aabe21","ios":"levelo://app?vid=2d00d74b-9844-45c2-a327-414873aabe21"},"vehicle_type_id":"4","last_reported":1731488961,"current_range_meters":9600,"station_id":"ce4bhqh2rcd13ifvqhmg","pricing_plan_id":"cebpf4jnsgd1na2vs0mg"},{"bike_id":"993a2407-dea1-4de6-b3ec-4b72998a4778","system_id":"levelo_inurba_marseille","lat":43.30138,"lon":5.37417,"is_reserved":false,"is_disabled":false,"rental_uris":{"android":"levelo://app?vid=993a2407-dea1-4de6-b3ec-4b72998a4778","ios":"levelo://app?vid=993a2407-dea1-4de6-b3ec-4b72998a4778"},"vehicle_type_id":"4","last_reported":1731488961,"current_range_meters":8800,"station_id":"ce4bgs92rcd13ifvqcc0","pricing_plan_id":"cebpf4jnsgd1na2vs0mg"},{"bike_id":"7feadc2c-8e73-4931-934f-fbac622b389d","system_id":"levelo_inurba_marseille","lat":43.31234,"lon":5.36853,"is_reserved":false,"is_disabled":false,"rental_uris":{"android":"levelo://app?vid=7feadc2c-8e73-4931-934f-fbac622b389d","ios":"levelo://app?vid=7feadc2c-8e73-4931-934f-fbac622b389d"},"vehicle_type_id":"4","last_reported":1731488961,"current_range_meters":30000,"station_id":"ce4bgl92rcd13ifvqbq0","pricing_plan_id":"cebpf4jnsgd1na2vs0mg"},{"bike_id":"55d2d8b2-0246-4eea-b604-9e80591018f2","system_id":"levelo_inurba_marseille","lat":43.23186,"lon":5.39993,"is_reserved":false,"is_disabled":false,"rental_uris":{"android":"levelo://app?vid=55d2d8b2-0246-4eea-b604-9e80591018f2","ios":"levelo://app?vid=55d2d8b2-0246-4eea-b604-9e80591018f2"},"vehicle_type_id":"4","last_reported":1731488961,"current_range_meters":22400,"station_id":"ce4bhn12rcd13ifvqgqg","pricing_plan_id":"cebpf4jnsgd1na2vs0mg"},{"bike_id":"6bba6287-cbda-40e6-b9cf-24ee1907cdf1","system_id":"levelo_inurba_marseille","lat":43.26499,"lon":5.39537,"is_reserved":false,"is_disabled":false,"rental_uris":{"android":"levelo://app?vid=6bba6287-cbda-40e6-b9cf-24ee1907cdf1","ios":"levelo://app?vid=6bba6287-cbda-40e6-b9cf-24ee1907cdf1"},"vehicle_type_id":"4","last_reported":1731488961,"current_range_meters":18000,"station_id":"ce4bhi12rcd13ifvqfq0","pricing_plan_id":"cebpf4jnsgd1na2vs0mg"},{"bike_id":"47f64b9b-a9da-45fa-a0ac-50e17b6af1d3","system_id":"levelo_inurba_marseille","lat":43.24181,"lon":5.39722,"is_reserved":false,"is_disabled":false,"rental_uris":{"android":"levelo://app?vid=47f64b9b-a9da-45fa-a0ac-50e17b6af1d3","ios":"levelo://app?vid=47f64b9b-a9da-45fa-a0ac-50e17b6af1d3"},"vehicle_type_id":"4","last_reported":1731488961,"current_range_meters":28400,"station_id":"ce4bhn12rcd13ifvqgpg","pricing_plan_id":"cebpf4jnsgd1na2vs0mg"},{"bike_id":"adcc79fe-f4ff-43ea-baab-74afa3384a77","system_id":"levelo_inurba_marseille","lat":43.30192,"lon":5.36609,"is_reserved":false,"is_disabled":false,"rental_uris":{"android":"levelo://app?vid=adcc79fe-f4ff-43ea-baab-74afa3384a77","ios":"levelo://app?vid=adcc79fe-f4ff-43ea-baab-74afa3384a77"},"vehicle_type_id":"4","last_reported":1731488961,"current_range_meters":39200,"station_id":"ce4bgrh2rcd13ifvqc8g","pricing_plan_id":"cebpf4jnsgd1na2vs0mg"},{"bike_id":"be02b7a9-5fc1-4245-9ccb-3a5aad8539dd","system_id":"levelo_inurba_marseille","lat":43.24079,"lon":5.37757,"is_reserved":false,"is_disabled":false,"rental_uris":{"android":"levelo://app?vid=be02b7a9-5fc1-4245-9ccb-3a5aad8539dd","ios":"levelo://app?vid=be02b7a9-5fc1-4245-9ccb-3a5aad8539dd"},"vehicle_type_id":"4","last_reported":1731488961,"current_range_meters":28000,"station_id":"ce4bhnp2rcd13ifvqgvg","pricing_plan_id":"cebpf4jnsgd1na2vs0mg"},{"bike_id":"c40070b7-bb99-494d-be4f-0b86775f9124","system_id":"levelo_inurba_marseille","lat":43.29627,"lon":5.37166,"is_reserved":false,"is_disabled":false,"rental_uris":{"android":"levelo://app?vid=c40070b7-bb99-494d-be4f-0b86775f9124","ios":"levelo://app?vid=c40070b7-bb99-494d-be4f-0b86775f9124"},"vehicle_type_id":"4","last_reported":1731488961,"current_range_meters":38800,"station_id":"ce4bgnh2rcd13ifvqc0g","pricing_plan_id":"cebpf4jnsgd1na2vs0mg"},{"bike_id":"b59a3fca-f496-4ca4-9d76-d0f4b2c8fc3f","system_id":"levelo_inurba_marseille","lat":43.30143,"lon":5.37415,"is_reserved":false,"is_disabled":false,"rental_uris":{"android":"levelo://app?vid=b59a3fca-f496-4ca4-9d76-d0f4b2c8fc3f","ios":"levelo://app?vid=b59a3fca-f496-4ca4-9d76-d0f4b2c8fc3f"},"vehicle_type_id":"4","last_reported":1731488961,"current_range_meters":39200,"station_id":"ce4bgs92rcd13ifvqcc0","pricing_plan_id":"cebpf4jnsgd1na2vs0mg"},{"bike_id":"84b8d1c8-a971-478e-a611-06f69db9d1cc","system_id":"levelo_inurba_marseille","lat":43.337444,"lon":5.374475,"is_reserved":false,"is_disabled":false,"rental_uris":{"android":"levelo://app?vid=84b8d1c8-a971-478e-a611-06f69db9d1cc","ios":"levelo://app?vid=84b8d1c8-a971-478e-a611-06f69db9d1cc"},"vehicle_type_id":"4","last_reported":1731488961,"current_range_meters":38000,"station_id":"","pricing_plan_id":"cebpf4jnsgd1na2vs0mg"},{"bike_id":"886b9c8a-216d-4b9a-8f37-982faedb272f","system_id":"levelo_inurba_marseille","lat":43.24076,"lon":5.37761,"is_reserved":false,"is_disabled":false,"rental_uris":{"android":"levelo://app?vid=886b9c8a-216d-4b9a-8f37-982faedb272f","ios":"levelo://app?vid=886b9c8a-216d-4b9a-8f37-982faedb272f"},"vehicle_type_id":"4","last_reported":1731488961,"current_range_meters":17600,"station_id":"ce4bhnp2rcd13ifvqgvg","pricing_plan_id":"cebpf4jnsgd1na2vs0mg"},{"bike_id":"df4618ff-5fbb-41bb-a259-0d080b0b7b04","system_id":"levelo_inurba_marseille","lat":43.24072,"lon":5.3776,"is_reserved":false,"is_disabled":false,"rental_uris":{"android":"levelo://app?vid=df4618ff-5fbb-41bb-a259-0d080b0b7b04","ios":"levelo://app?vid=df4618ff-5fbb-41bb-a259-0d080b0b7b04"},"vehicle_type_id":"4","last_reported":1731488961,"current_range_meters":11600,"station_id":"ce4bhnp2rcd13ifvqgvg","pricing_plan_id":"cebpf4jnsgd1na2vs0mg"},{"bike_id":"ac3529de-35ab-444f-b4bb-8ce52caf8990","system_id":"levelo_inurba_marseille","lat":43.29609,"lon":5.37727,"is_reserved":false,"is_disabled":false,"rental_uris":{"android":"levelo://app?vid=ac3529de-35ab-444f-b4bb-8ce52caf8990","ios":"levelo://app?vid=ac3529de-35ab-444f-b4bb-8ce52caf8990"},"vehicle_type_id":"4","last_reported":1731488961,"current_range_meters":27200,"station_id":"ce4bgi92rcd13ifvqb90","pricing_plan_id":"cebpf4jnsgd1na2vs0mg"},{"bike_id":"01a4acac-247c-4d3b-815d-8428c33fc22e","system_id":"levelo_inurba_marseille","lat":43.32663,"lon":5.40982,"is_reserved":false,"is_disabled":false,"rental_uris":{"android":"levelo://app?vid=01a4acac-247c-4d3b-815d-8428c33fc22e","ios":"levelo://app?vid=01a4acac-247c-4d3b-815d-8428c33fc22e"},"vehicle_type_id":"4","last_reported":1731488961,"current_range_meters":38000,"station_id":"ce4bhpp2rcd13ifvqhgg","pricing_plan_id":"cebpf4jnsgd1na2vs0mg"},{"bike_id":"a05252be-63a4-41f8-b5a4-1a81d89d0c3c","system_id":"levelo_inurba_marseille","lat":43.23202,"lon":5.39983,"is_reserved":false,"is_disabled":false,"rental_uris":{"android":"levelo://app?vid=a05252be-63a4-41f8-b5a4-1a81d89d0c3c","ios":"levelo://app?vid=a05252be-63a4-41f8-b5a4-1a81d89d0c3c"},"vehicle_type_id":"4","last_reported":1731488961,"current_range_meters":8800,"station_id":"ce4bhn12rcd13ifvqgqg","pricing_plan_id":"cebpf4jnsgd1na2vs0mg"},{"bike_id":"a1083a16-c8ce-4cd3-8629-3c14e837ced7","system_id":"levelo_inurba_marseille","lat":43.30891,"lon":5.37198,"is_reserved":false,"is_disabled":false,"rental_uris":{"android":"levelo://app?vid=a1083a16-c8ce-4cd3-8629-3c14e837ced7","ios":"levelo://app?vid=a1083a16-c8ce-4cd3-8629-3c14e837ced7"},"vehicle_type_id":"4","last_reported":1731488961,"current_range_meters":34000,"station_id":"ce4bguh2rcd13ifvqckg","pricing_plan_id":"cebpf4jnsgd1na2vs0mg"},{"bike_id":"baed5d6a-8bb4-4d67-90a7-5b20bec68b1f","system_id":"levelo_inurba_marseille","lat":43.27494,"lon":5.4245,"is_reserved":false,"is_disabled":false,"rental_uris":{"android":"levelo://app?vid=baed5d6a-8bb4-4d67-90a7-5b20bec68b1f","ios":"levelo://app?vid=baed5d6a-8bb4-4d67-90a7-5b20bec68b1f"},"vehicle_type_id":"4","last_reported":1731488961,"current_range_meters":38800,"station_id":"ce4bhn92rcd13ifvqgrg","pricing_plan_id":"cebpf4jnsgd1na2vs0mg"},{"bike_id":"11691f2e-4c87-4ac6-b41c-10ef92518e9a","system_id":"levelo_inurba_marseille","lat":43.302082,"lon":5.379475,"is_reserved":false,"is_disabled":false,"rental_uris":{"android":"levelo://app?vid=11691f2e-4c87-4ac6-b41c-10ef92518e9a","ios":"levelo://app?vid=11691f2e-4c87-4ac6-b41c-10ef92518e9a"},"vehicle_type_id":"4","last_reported":1731488961,"current_range_meters":37600,"station_id":"ce4bgjp2rcd13ifvqbh0","pricing_plan_id":"cebpf4jnsgd1na2vs0mg"},{"bike_id":"41ff89e3-1e18-495b-b5e1-08b420470989","system_id":"levelo_inurba_marseille","lat":43.22928,"lon":5.35377,"is_reserved":false,"is_disabled":false,"rental_uris":{"android":"levelo://app?vid=41ff89e3-1e18-495b-b5e1-08b420470989","ios":"levelo://app?vid=41ff89e3-1e18-495b-b5e1-08b420470989"},"vehicle_type_id":"4","last_reported":1731488961,"current_range_meters":19200,"station_id":"cpo3532slgdg3j2ikp40","pricing_plan_id":"cebpf4jnsgd1na2vs0mg"},{"bike_id":"940ea22a-d93a-4089-ac74-b9d3f591014f","system_id":"levelo_inurba_marseille","lat":43.29306,"lon":5.37172,"is_reserved":false,"is_disabled":false,"rental_uris":{"android":"levelo://app?vid=940ea22a-d93a-4089-ac74-b9d3f591014f","ios":"levelo://app?vid=940ea22a-d93a-4089-ac74-b9d3f591014f"},"vehicle_type_id":"4","last_reported":1731488961,"current_range_meters":24000,"station_id":"","pricing_plan_id":"cebpf4jnsgd1na2vs0mg"},{"bike_id":"25db0cb1-3cbb-4b04-94b0-696266aa7cea","system_id":"levelo_inurba_marseille","lat":43.29622,"lon":5.37152,"is_reserved":false,"is_disabled":false,"rental_uris":{"android":"levelo://app?vid=25db0cb1-3cbb-4b04-94b0-696266aa7cea","ios":"levelo://app?vid=25db0cb1-3cbb-4b04-94b0-696266aa7cea"},"vehicle_type_id":"4","last_reported":1731488961,"current_range_meters":27200,"station_id":"ce4bgnh2rcd13ifvqc0g","pricing_plan_id":"cebpf4jnsgd1na2vs0mg"},{"bike_id":"195e6598-1223-4d2a-b1c0-fb88713fc3a1","system_id":"levelo_inurba_marseille","lat":43.29622,"lon":5.3717,"is_reserved":false,"is_disabled":false,"rental_uris":{"android":"levelo://app?vid=195e6598-1223-4d2a-b1c0-fb88713fc3a1","ios":"levelo://app?vid=195e6598-1223-4d2a-b1c0-fb88713fc3a1"},"vehicle_type_id":"4","last_reported":1731488961,"current_range_meters":20400,"station_id":"ce4bgnh2rcd13ifvqc0g","pricing_plan_id":"cebpf4jnsgd1na2vs0mg"},{"bike_id":"e1aa310a-8632-4474-bc41-f4f361321968","system_id":"levelo_inurba_marseille","lat":43.30285,"lon":5.37699,"is_reserved":false,"is_disabled":false,"rental_uris":{"android":"levelo://app?vid=e1aa310a-8632-4474-bc41-f4f361321968","ios":"levelo://app?vid=e1aa310a-8632-4474-bc41-f4f361321968"},"vehicle_type_id":"4","last_reported":1731488961,"current_range_meters":24400,"station_id":"ce4bguh2rcd13ifvqcj0","pricing_plan_id":"cebpf4jnsgd1na2vs0mg"},{"bike_id":"a757128a-bdc6-49ce-9bf1-9cc66e38a016","system_id":"levelo_inurba_marseille","lat":43.24807,"lon":5.37456,"is_reserved":false,"is_disabled":false,"rental_uris":{"android":"levelo://app?vid=a757128a-bdc6-49ce-9bf1-9cc66e38a016","ios":"levelo://app?vid=a757128a-bdc6-49ce-9bf1-9cc66e38a016"},"vehicle_type_id":"4","last_reported":1731488961,"current_range_meters":28000,"station_id":"ce4bhgh2rcd13ifvqfb0","pricing_plan_id":"cebpf4jnsgd1na2vs0mg"},{"bike_id":"07593388-1396-48b8-b53d-f99ad9d41363","system_id":"levelo_inurba_marseille","lat":43.30154,"lon":5.38084,"is_reserved":false,"is_disabled":false,"rental_uris":{"android":"levelo://app?vid=07593388-1396-48b8-b53d-f99ad9d41363","ios":"levelo://app?vid=07593388-1396-48b8-b53d-f99ad9d41363"},"vehicle_type_id":"4","last_reported":1731488961,"current_range_meters":36000,"station_id":"ce4bgjp2rcd13ifvqbh0","pricing_plan_id":"cebpf4jnsgd1na2vs0mg"},{"bike_id":"08a02527-d1a7-4489-927e-a7d3249c847c","system_id":"levelo_inurba_marseille","lat":43.28486,"lon":5.38414,"is_reserved":false,"is_disabled":false,"rental_uris":{"android":"levelo://app?vid=08a02527-d1a7-4489-927e-a7d3249c847c","ios":"levelo://app?vid=08a02527-d1a7-4489-927e-a7d3249c847c"},"vehicle_type_id":"4","last_reported":1731488961,"current_range_meters":36400,"station_id":"ce4bh512rcd13ifvqe3g","pricing_plan_id":"cebpf4jnsgd1na2vs0mg"},{"bike_id":"19da92a2-24c5-4e0e-b389-c235e641b76f","system_id":"levelo_inurba_marseille","lat":43.29693,"lon":5.37283,"is_reserved":false,"is_disabled":false,"rental_uris":{"android":"levelo://app?vid=19da92a2-24c5-4e0e-b389-c235e641b76f","ios":"levelo://app?vid=19da92a2-24c5-4e0e-b389-c235e641b76f"},"vehicle_type_id":"4","last_reported":1731488961,"current_range_meters":24800,"station_id":"ce4bgk12rcd13ifvqbj0","pricing_plan_id":"cebpf4jnsgd1na2vs0mg"},{"bike_id":"c9d775eb-d779-4c1c-9171-f895e63b4a3c","system_id":"levelo_inurba_marseille","lat":43.30148,"lon":5.37416,"is_reserved":false,"is_disabled":false,"rental_uris":{"android":"levelo://app?vid=c9d775eb-d779-4c1c-9171-f895e63b4a3c","ios":"levelo://app?vid=c9d775eb-d779-4c1c-9171-f895e63b4a3c"},"vehicle_type_id":"4","last_reported":1731488961,"current_range_meters":33600,"station_id":"ce4bgs92rcd13ifvqcc0","pricing_plan_id":"cebpf4jnsgd1na2vs0mg"},{"bike_id":"3b528ae2-0c2d-432e-ba2c-3ca1610da963","system_id":"levelo_inurba_marseille","lat":43.30154,"lon":5.3808,"is_reserved":false,"is_disabled":false,"rental_uris":{"android":"levelo://app?vid=3b528ae2-0c2d-432e-ba2c-3ca1610da963","ios":"levelo://app?vid=3b528ae2-0c2d-432e-ba2c-3ca1610da963"},"vehicle_type_id":"4","last_reported":1731488961,"current_range_meters":7200,"station_id":"ce4bgjp2rcd13ifvqbh0","pricing_plan_id":"cebpf4jnsgd1na2vs0mg"},{"bike_id":"6fe05206-fb07-4154-a289-8b7473b9715b","system_id":"levelo_inurba_marseille","lat":43.24076,"lon":5.37755,"is_reserved":false,"is_disabled":false,"rental_uris":{"android":"levelo://app?vid=6fe05206-fb07-4154-a289-8b7473b9715b","ios":"levelo://app?vid=6fe05206-fb07-4154-a289-8b7473b9715b"},"vehicle_type_id":"4","last_reported":1731488961,"current_range_meters":19600,"station_id":"ce4bhnp2rcd13ifvqgvg","pricing_plan_id":"cebpf4jnsgd1na2vs0mg"},{"bike_id":"306047db-7a93-4af8-bc49-483c6235a920","system_id":"levelo_inurba_marseille","lat":43.30912,"lon":5.36852,"is_reserved":false,"is_disabled":false,"rental_uris":{"android":"levelo://app?vid=306047db-7a93-4af8-bc49-483c6235a920","ios":"levelo://app?vid=306047db-7a93-4af8-bc49-483c6235a920"},"vehicle_type_id":"4","last_reported":1731488961,"current_range_meters":33200,"station_id":"ce4bgn92rcd13ifvqbvg","pricing_plan_id":"cebpf4jnsgd1na2vs0mg"},{"bike_id":"a43ce929-d285-49d3-ad1c-83088c4207a8","system_id":"levelo_inurba_marseille","lat":43.27998,"lon":5.40004,"is_reserved":false,"is_disabled":false,"rental_uris":{"android":"levelo://app?vid=a43ce929-d285-49d3-ad1c-83088c4207a8","ios":"levelo://app?vid=a43ce929-d285-49d3-ad1c-83088c4207a8"},"vehicle_type_id":"4","last_reported":1731488961,"current_range_meters":2800,"station_id":"ce4bho92rcd13ifvqh4g","pricing_plan_id":"cebpf4jnsgd1na2vs0mg"},{"bike_id":"ad8ac9aa-aaf2-42d8-816e-14739a51908e","system_id":"levelo_inurba_marseille","lat":43.30545,"lon":5.36713,"is_reserved":false,"is_disabled":false,"rental_uris":{"android":"levelo://app?vid=ad8ac9aa-aaf2-42d8-816e-14739a51908e","ios":"levelo://app?vid=ad8ac9aa-aaf2-42d8-816e-14739a51908e"},"vehicle_type_id":"4","last_reported":1731488961,"current_range_meters":19200,"station_id":"ce4bgrp2rcd13ifvqc9g","pricing_plan_id":"cebpf4jnsgd1na2vs0mg"},{"bike_id":"fa77b12d-7a2d-4ce3-a305-c9d3151cb772","system_id":"levelo_inurba_marseille","lat":43.34142,"lon":5.40899,"is_reserved":false,"is_disabled":false,"rental_uris":{"android":"levelo://app?vid=fa77b12d-7a2d-4ce3-a305-c9d3151cb772","ios":"levelo://app?vid=fa77b12d-7a2d-4ce3-a305-c9d3151cb772"},"vehicle_type_id":"4","last_reported":1731488961,"current_range_meters":28800,"station_id":"ce4bhqh2rcd13ifvqhlg","pricing_plan_id":"cebpf4jnsgd1na2vs0mg"},{"bike_id":"2eedc177-66d3-43ad-8e2d-78e60ce845e8","system_id":"levelo_inurba_marseille","lat":43.22936,"lon":5.35376,"is_reserved":false,"is_disabled":false,"rental_uris":{"android":"levelo://app?vid=2eedc177-66d3-43ad-8e2d-78e60ce845e8","ios":"levelo://app?vid=2eedc177-66d3-43ad-8e2d-78e60ce845e8"},"vehicle_type_id":"4","last_reported":1731488961,"current_range_meters":6800,"station_id":"cpo3532slgdg3j2ikp40","pricing_plan_id":"cebpf4jnsgd1na2vs0mg"},{"bike_id":"a4f3a1ed-857a-4dd8-ae44-e33a879f1f5b","system_id":"levelo_inurba_marseille","lat":43.3122,"lon":5.36858,"is_reserved":false,"is_disabled":false,"rental_uris":{"android":"levelo://app?vid=a4f3a1ed-857a-4dd8-ae44-e33a879f1f5b","ios":"levelo://app?vid=a4f3a1ed-857a-4dd8-ae44-e33a879f1f5b"},"vehicle_type_id":"4","last_reported":1731488961,"current_range_meters":25200,"station_id":"ce4bgl92rcd13ifvqbq0","pricing_plan_id":"cebpf4jnsgd1na2vs0mg"},{"bike_id":"45efedb4-e2b4-4448-8cdf-c1b0a6456c89","system_id":"levelo_inurba_marseille","lat":43.30181,"lon":5.36606,"is_reserved":false,"is_disabled":false,"rental_uris":{"android":"levelo://app?vid=45efedb4-e2b4-4448-8cdf-c1b0a6456c89","ios":"levelo://app?vid=45efedb4-e2b4-4448-8cdf-c1b0a6456c89"},"vehicle_type_id":"4","last_reported":1731488961,"current_range_meters":11600,"station_id":"ce4bgrh2rcd13ifvqc8g","pricing_plan_id":"cebpf4jnsgd1na2vs0mg"},{"bike_id":"1fd446ee-6b70-43d7-bed9-29dd3423fe8e","system_id":"levelo_inurba_marseille","lat":43.29365,"lon":5.37853,"is_reserved":false,"is_disabled":false,"rental_uris":{"android":"levelo://app?vid=1fd446ee-6b70-43d7-bed9-29dd3423fe8e","ios":"levelo://app?vid=1fd446ee-6b70-43d7-bed9-29dd3423fe8e"},"vehicle_type_id":"4","last_reported":1731488961,"current_range_meters":27600,"station_id":"ce4bgjh2rcd13ifvqbf0","pricing_plan_id":"cebpf4jnsgd1na2vs0mg"},{"bike_id":"cdbb696b-ea8f-41fc-ae4b-22b9f059b700","system_id":"levelo_inurba_marseille","lat":43.27993,"lon":5.41658,"is_reserved":false,"is_disabled":false,"rental_uris":{"android":"levelo://app?vid=cdbb696b-ea8f-41fc-ae4b-22b9f059b700","ios":"levelo://app?vid=cdbb696b-ea8f-41fc-ae4b-22b9f059b700"},"vehicle_type_id":"4","last_reported":1731488961,"current_range_meters":38800,"station_id":"ce4bho12rcd13ifvqh1g","pricing_plan_id":"cebpf4jnsgd1na2vs0mg"},{"bike_id":"b07b2b17-fbc4-4be0-9832-e1a26e536499","system_id":"levelo_inurba_marseille","lat":43.29935,"lon":5.36556,"is_reserved":false,"is_disabled":false,"rental_uris":{"android":"levelo://app?vid=b07b2b17-fbc4-4be0-9832-e1a26e536499","ios":"levelo://app?vid=b07b2b17-fbc4-4be0-9832-e1a26e536499"},"vehicle_type_id":"4","last_reported":1731488961,"current_range_meters":38000,"station_id":"ce4bgm92rcd13ifvqbr0","pricing_plan_id":"cebpf4jnsgd1na2vs0mg"},{"bike_id":"76759dac-69b6-4cf7-92a9-6eb2b8660389","system_id":"levelo_inurba_marseille","lat":43.24079,"lon":5.37757,"is_reserved":false,"is_disabled":false,"rental_uris":{"android":"levelo://app?vid=76759dac-69b6-4cf7-92a9-6eb2b8660389","ios":"levelo://app?vid=76759dac-69b6-4cf7-92a9-6eb2b8660389"},"vehicle_type_id":"4","last_reported":1731488961,"current_range_meters":22800,"station_id":"ce4bhnp2rcd13ifvqgvg","pricing_plan_id":"cebpf4jnsgd1na2vs0mg"},{"bike_id":"f3d531b0-fa40-4090-8486-a7d148b67087","system_id":"levelo_inurba_marseille","lat":43.27496,"lon":5.4246,"is_reserved":false,"is_disabled":false,"rental_uris":{"android":"levelo://app?vid=f3d531b0-fa40-4090-8486-a7d148b67087","ios":"levelo://app?vid=f3d531b0-fa40-4090-8486-a7d148b67087"},"vehicle_type_id":"4","last_reported":1731488961,"current_range_meters":39200,"station_id":"ce4bhn92rcd13ifvqgrg","pricing_plan_id":"cebpf4jnsgd1na2vs0mg"},{"bike_id":"85b728ef-7c62-4a7f-a060-7f65da2ca2d6","system_id":"levelo_inurba_marseille","lat":43.33611,"lon":5.41033,"is_reserved":false,"is_disabled":false,"rental_uris":{"android":"levelo://app?vid=85b728ef-7c62-4a7f-a060-7f65da2ca2d6","ios":"levelo://app?vid=85b728ef-7c62-4a7f-a060-7f65da2ca2d6"},"vehicle_type_id":"4","last_reported":1731488961,"current_range_meters":24000,"station_id":"ce4bhqh2rcd13ifvqhmg","pricing_plan_id":"cebpf4jnsgd1na2vs0mg"},{"bike_id":"70a34784-fa9b-4168-b28b-b4d69e3d02af","system_id":"levelo_inurba_marseille","lat":43.25944,"lon":5.40903,"is_reserved":false,"is_disabled":false,"rental_uris":{"android":"levelo://app?vid=70a34784-fa9b-4168-b28b-b4d69e3d02af","ios":"levelo://app?vid=70a34784-fa9b-4168-b28b-b4d69e3d02af"},"vehicle_type_id":"4","last_reported":1731488961,"current_range_meters":16400,"station_id":"ce4bhm92rcd13ifvqglg","pricing_plan_id":"cebpf4jnsgd1na2vs0mg"},{"bike_id":"cc55c9b3-6e2d-4568-ae2f-d5a9d53f31ff","system_id":"levelo_inurba_marseille","lat":43.30912,"lon":5.36847,"is_reserved":false,"is_disabled":false,"rental_uris":{"android":"levelo://app?vid=cc55c9b3-6e2d-4568-ae2f-d5a9d53f31ff","ios":"levelo://app?vid=cc55c9b3-6e2d-4568-ae2f-d5a9d53f31ff"},"vehicle_type_id":"4","last_reported":1731488961,"current_range_meters":26000,"station_id":"ce4bgn92rcd13ifvqbvg","pricing_plan_id":"cebpf4jnsgd1na2vs0mg"},{"bike_id":"cd370679-6fe6-4d03-a5a3-61d53603b349","system_id":"levelo_inurba_marseille","lat":43.31882,"lon":5.40732,"is_reserved":false,"is_disabled":false,"rental_uris":{"android":"levelo://app?vid=cd370679-6fe6-4d03-a5a3-61d53603b349","ios":"levelo://app?vid=cd370679-6fe6-4d03-a5a3-61d53603b349"},"vehicle_type_id":"4","last_reported":1731488961,"current_range_meters":20400,"station_id":"ce4bhq12rcd13ifvqhig","pricing_plan_id":"cebpf4jnsgd1na2vs0mg"},{"bike_id":"68406bbe-7d8a-4eb6-ba2a-80220a0d4f6d","system_id":"levelo_inurba_marseille","lat":43.25943,"lon":5.40902,"is_reserved":false,"is_disabled":false,"rental_uris":{"android":"levelo://app?vid=68406bbe-7d8a-4eb6-ba2a-80220a0d4f6d","ios":"levelo://app?vid=68406bbe-7d8a-4eb6-ba2a-80220a0d4f6d"},"vehicle_type_id":"4","last_reported":1731488961,"current_range_meters":38800,"station_id":"ce4bhm92rcd13ifvqglg","pricing_plan_id":"cebpf4jnsgd1na2vs0mg"},{"bike_id":"1c53b899-7ad3-4d52-8636-ea4a31313297","system_id":"levelo_inurba_marseille","lat":43.30537,"lon":5.36533,"is_reserved":false,"is_disabled":false,"rental_uris":{"android":"levelo://app?vid=1c53b899-7ad3-4d52-8636-ea4a31313297","ios":"levelo://app?vid=1c53b899-7ad3-4d52-8636-ea4a31313297"},"vehicle_type_id":"4","last_reported":1731488961,"current_range_meters":33600,"station_id":"ce4bgs12rcd13ifvqcag","pricing_plan_id":"cebpf4jnsgd1na2vs0mg"},{"bike_id":"dd03fdf3-120f-4eb9-8b86-8f10891e2dfe","system_id":"levelo_inurba_marseille","lat":43.29375,"lon":5.37847,"is_reserved":false,"is_disabled":false,"rental_uris":{"android":"levelo://app?vid=dd03fdf3-120f-4eb9-8b86-8f10891e2dfe","ios":"levelo://app?vid=dd03fdf3-120f-4eb9-8b86-8f10891e2dfe"},"vehicle_type_id":"4","last_reported":1731488961,"current_range_meters":30800,"station_id":"ce4bgjh2rcd13ifvqbf0","pricing_plan_id":"cebpf4jnsgd1na2vs0mg"},{"bike_id":"f404cba7-c418-4359-9444-a6b65f73894e","system_id":"levelo_inurba_marseille","lat":43.29513,"lon":5.37514,"is_reserved":false,"is_disabled":false,"rental_uris":{"android":"levelo://app?vid=f404cba7-c418-4359-9444-a6b65f73894e","ios":"levelo://app?vid=f404cba7-c418-4359-9444-a6b65f73894e"},"vehicle_type_id":"4","last_reported":1731488961,"current_range_meters":26800,"station_id":"ce4bgkp2rcd13ifvqbmg","pricing_plan_id":"cebpf4jnsgd1na2vs0mg"},{"bike_id":"d939a8d3-7886-485f-80ff-eaccf3fd8656","system_id":"levelo_inurba_marseille","lat":43.23156,"lon":5.43706,"is_reserved":false,"is_disabled":false,"rental_uris":{"android":"levelo://app?vid=d939a8d3-7886-485f-80ff-eaccf3fd8656","ios":"levelo://app?vid=d939a8d3-7886-485f-80ff-eaccf3fd8656"},"vehicle_type_id":"4","last_reported":1731488961,"current_range_meters":14400,"station_id":"ce4bhmp2rcd13ifvqgog","pricing_plan_id":"cebpf4jnsgd1na2vs0mg"},{"bike_id":"9d269769-bd0e-453d-a521-fb2a302f7b44","system_id":"levelo_inurba_marseille","lat":43.26684,"lon":5.38259,"is_reserved":false,"is_disabled":false,"rental_uris":{"android":"levelo://app?vid=9d269769-bd0e-453d-a521-fb2a302f7b44","ios":"levelo://app?vid=9d269769-bd0e-453d-a521-fb2a302f7b44"},"vehicle_type_id":"4","last_reported":1731488961,"current_range_meters":20800,"station_id":"ce4bhg92rcd13ifvqf90","pricing_plan_id":"cebpf4jnsgd1na2vs0mg"},{"bike_id":"b01f14ad-1c18-4774-a114-f5ad20e62224","system_id":"levelo_inurba_marseille","lat":43.32363,"lon":5.38865,"is_reserved":false,"is_disabled":false,"rental_uris":{"android":"levelo://app?vid=b01f14ad-1c18-4774-a114-f5ad20e62224","ios":"levelo://app?vid=b01f14ad-1c18-4774-a114-f5ad20e62224"},"vehicle_type_id":"4","last_reported":1731488961,"current_range_meters":32800,"station_id":"ce4bhqp2rcd13ifvqhog","pricing_plan_id":"cebpf4jnsgd1na2vs0mg"},{"bike_id":"7b3c27eb-f609-4995-afd3-a1ce7a9845fc","system_id":"levelo_inurba_marseille","lat":43.28154,"lon":5.42636,"is_reserved":false,"is_disabled":false,"rental_uris":{"android":"levelo://app?vid=7b3c27eb-f609-4995-afd3-a1ce7a9845fc","ios":"levelo://app?vid=7b3c27eb-f609-4995-afd3-a1ce7a9845fc"},"vehicle_type_id":"4","last_reported":1731488961,"current_range_meters":34800,"station_id":"ce4bhnh2rcd13ifvqgug","pricing_plan_id":"cebpf4jnsgd1na2vs0mg"},{"bike_id":"47fa2115-a012-42de-8bc1-d009b04a84f8","system_id":"levelo_inurba_marseille","lat":43.32554,"lon":5.41435,"is_reserved":false,"is_disabled":false,"rental_uris":{"android":"levelo://app?vid=47fa2115-a012-42de-8bc1-d009b04a84f8","ios":"levelo://app?vid=47fa2115-a012-42de-8bc1-d009b04a84f8"},"vehicle_type_id":"4","last_reported":1731488961,"current_range_meters":38800,"station_id":"ce4bhq12rcd13ifvqhhg","pricing_plan_id":"cebpf4jnsgd1na2vs0mg"},{"bike_id":"1b32835d-d790-4d05-9266-c8f334c89fb5","system_id":"levelo_inurba_marseille","lat":43.30164,"lon":5.38085,"is_reserved":false,"is_disabled":false,"rental_uris":{"android":"levelo://app?vid=1b32835d-d790-4d05-9266-c8f334c89fb5","ios":"levelo://app?vid=1b32835d-d790-4d05-9266-c8f334c89fb5"},"vehicle_type_id":"4","last_reported":1731488961,"current_range_meters":32800,"station_id":"ce4bgjp2rcd13ifvqbh0","pricing_plan_id":"cebpf4jnsgd1na2vs0mg"},{"bike_id":"32896d7f-68a8-4fca-bc22-6f7c962389f1","system_id":"levelo_inurba_marseille","lat":43.31343,"lon":5.3673,"is_reserved":false,"is_disabled":false,"rental_uris":{"android":"levelo://app?vid=32896d7f-68a8-4fca-bc22-6f7c962389f1","ios":"levelo://app?vid=32896d7f-68a8-4fca-bc22-6f7c962389f1"},"vehicle_type_id":"4","last_reported":1731488961,"current_range_meters":38000,"station_id":"ce4bgr92rcd13ifvqc6g","pricing_plan_id":"cebpf4jnsgd1na2vs0mg"},{"bike_id":"50af776a-c506-4314-81d0-02946bbbea60","system_id":"levelo_inurba_marseille","lat":43.293,"lon":5.37468,"is_reserved":false,"is_disabled":false,"rental_uris":{"android":"levelo://app?vid=50af776a-c506-4314-81d0-02946bbbea60","ios":"levelo://app?vid=50af776a-c506-4314-81d0-02946bbbea60"},"vehicle_type_id":"4","last_reported":1731488961,"current_range_meters":18000,"station_id":"ce4bgi12rcd13ifvqb70","pricing_plan_id":"cebpf4jnsgd1na2vs0mg"},{"bike_id":"5a72a360-fb16-471f-8487-fbe39856e127","system_id":"levelo_inurba_marseille","lat":43.32548,"lon":5.41441,"is_reserved":false,"is_disabled":false,"rental_uris":{"android":"levelo://app?vid=5a72a360-fb16-471f-8487-fbe39856e127","ios":"levelo://app?vid=5a72a360-fb16-471f-8487-fbe39856e127"},"vehicle_type_id":"4","last_reported":1731488961,"current_range_meters":10800,"station_id":"ce4bhq12rcd13ifvqhhg","pricing_plan_id":"cebpf4jnsgd1na2vs0mg"},{"bike_id":"6c45470a-6c9d-4e11-b596-402a6f783962","system_id":"levelo_inurba_marseille","lat":43.31176,"lon":5.38715,"is_reserved":false,"is_disabled":false,"rental_uris":{"android":"levelo://app?vid=6c45470a-6c9d-4e11-b596-402a6f783962","ios":"levelo://app?vid=6c45470a-6c9d-4e11-b596-402a6f783962"},"vehicle_type_id":"4","last_reported":1731488961,"current_range_meters":35600,"station_id":"ce4bgv12rcd13ifvqcp0","pricing_plan_id":"cebpf4jnsgd1na2vs0mg"},{"bike_id":"f051316a-ff9f-49fb-b75a-d5e84443bc16","system_id":"levelo_inurba_marseille","lat":43.30901,"lon":5.3684,"is_reserved":false,"is_disabled":false,"rental_uris":{"android":"levelo://app?vid=f051316a-ff9f-49fb-b75a-d5e84443bc16","ios":"levelo://app?vid=f051316a-ff9f-49fb-b75a-d5e84443bc16"},"vehicle_type_id":"4","last_reported":1731488961,"current_range_meters":28000,"station_id":"ce4bgn92rcd13ifvqbvg","pricing_plan_id":"cebpf4jnsgd1na2vs0mg"},{"bike_id":"8963f262-bdcb-43f5-9e37-237198779ba8","system_id":"levelo_inurba_marseille","lat":43.33773,"lon":5.37442,"is_reserved":false,"is_disabled":false,"rental_uris":{"android":"levelo://app?vid=8963f262-bdcb-43f5-9e37-237198779ba8","ios":"levelo://app?vid=8963f262-bdcb-43f5-9e37-237198779ba8"},"vehicle_type_id":"4","last_reported":1731488961,"current_range_meters":38800,"station_id":"","pricing_plan_id":"cebpf4jnsgd1na2vs0mg"},{"bike_id":"9e206ec4-3bc2-4292-bb12-90ccf987d885","system_id":"levelo_inurba_marseille","lat":43.337444,"lon":5.374475,"is_reserved":false,"is_disabled":false,"rental_uris":{"android":"levelo://app?vid=9e206ec4-3bc2-4292-bb12-90ccf987d885","ios":"levelo://app?vid=9e206ec4-3bc2-4292-bb12-90ccf987d885"},"vehicle_type_id":"4","last_reported":1731488961,"current_range_meters":33200,"station_id":"","pricing_plan_id":"cebpf4jnsgd1na2vs0mg"},{"bike_id":"398b47b3-a042-4cec-b1dd-254773a78263","system_id":"levelo_inurba_marseille","lat":43.27409,"lon":5.38949,"is_reserved":false,"is_disabled":false,"rental_uris":{"android":"levelo://app?vid=398b47b3-a042-4cec-b1dd-254773a78263","ios":"levelo://app?vid=398b47b3-a042-4cec-b1dd-254773a78263"},"vehicle_type_id":"4","last_reported":1731488961,"current_range_meters":9600,"station_id":"","pricing_plan_id":"cebpf4jnsgd1na2vs0mg"},{"bike_id":"a356e06f-7579-40a0-8367-1e61b7961e07","system_id":"levelo_inurba_marseille","lat":43.23961,"lon":5.36638,"is_reserved":false,"is_disabled":false,"rental_uris":{"android":"levelo://app?vid=a356e06f-7579-40a0-8367-1e61b7961e07","ios":"levelo://app?vid=a356e06f-7579-40a0-8367-1e61b7961e07"},"vehicle_type_id":"4","last_reported":1731488961,"current_range_meters":40000,"station_id":"ce4bhi12rcd13ifvqfp0","pricing_plan_id":"cebpf4jnsgd1na2vs0mg"},{"bike_id":"4fb9fb42-7013-4787-b11f-5dced0c2c358","system_id":"levelo_inurba_marseille","lat":43.30599,"lon":5.37222,"is_reserved":false,"is_disabled":false,"rental_uris":{"android":"levelo://app?vid=4fb9fb42-7013-4787-b11f-5dced0c2c358","ios":"levelo://app?vid=4fb9fb42-7013-4787-b11f-5dced0c2c358"},"vehicle_type_id":"4","last_reported":1731488961,"current_range_meters":16800,"station_id":"ce4bgqh2rcd13ifvqc4g","pricing_plan_id":"cebpf4jnsgd1na2vs0mg"},{"bike_id":"92e3ad17-17c9-4714-a148-ef9436ad6113","system_id":"levelo_inurba_marseille","lat":43.2294,"lon":5.35379,"is_reserved":false,"is_disabled":false,"rental_uris":{"android":"levelo://app?vid=92e3ad17-17c9-4714-a148-ef9436ad6113","ios":"levelo://app?vid=92e3ad17-17c9-4714-a148-ef9436ad6113"},"vehicle_type_id":"4","last_reported":1731488961,"current_range_meters":38000,"station_id":"cpo3532slgdg3j2ikp40","pricing_plan_id":"cebpf4jnsgd1na2vs0mg"},{"bike_id":"b82d4b5d-3873-4b38-a9da-7bcda2794ed1","system_id":"levelo_inurba_marseille","lat":43.30535,"lon":5.36545,"is_reserved":false,"is_disabled":false,"rental_uris":{"android":"levelo://app?vid=b82d4b5d-3873-4b38-a9da-7bcda2794ed1","ios":"levelo://app?vid=b82d4b5d-3873-4b38-a9da-7bcda2794ed1"},"vehicle_type_id":"4","last_reported":1731488961,"current_range_meters":16800,"station_id":"ce4bgs12rcd13ifvqcag","pricing_plan_id":"cebpf4jnsgd1na2vs0mg"},{"bike_id":"8dcae715-4163-49aa-9546-48a2af47622f","system_id":"levelo_inurba_marseille","lat":43.29616,"lon":5.37712,"is_reserved":false,"is_disabled":false,"rental_uris":{"android":"levelo://app?vid=8dcae715-4163-49aa-9546-48a2af47622f","ios":"levelo://app?vid=8dcae715-4163-49aa-9546-48a2af47622f"},"vehicle_type_id":"4","last_reported":1731488961,"current_range_meters":3600,"station_id":"ce4bgi92rcd13ifvqb90","pricing_plan_id":"cebpf4jnsgd1na2vs0mg"},{"bike_id":"9b318ec0-f4cc-4e60-af95-e2dced4e1b2d","system_id":"levelo_inurba_marseille","lat":43.25001,"lon":5.38925,"is_reserved":false,"is_disabled":false,"rental_uris":{"android":"levelo://app?vid=9b318ec0-f4cc-4e60-af95-e2dced4e1b2d","ios":"levelo://app?vid=9b318ec0-f4cc-4e60-af95-e2dced4e1b2d"},"vehicle_type_id":"4","last_reported":1731488961,"current_range_meters":40000,"station_id":"ce4bhgp2rcd13ifvqfd0","pricing_plan_id":"cebpf4jnsgd1na2vs0mg"},{"bike_id":"a0bffd38-f529-4b37-9227-fb3819a7a32a","system_id":"levelo_inurba_marseille","lat":43.29552,"lon":5.42281,"is_reserved":false,"is_disabled":false,"rental_uris":{"android":"levelo://app?vid=a0bffd38-f529-4b37-9227-fb3819a7a32a","ios":"levelo://app?vid=a0bffd38-f529-4b37-9227-fb3819a7a32a"},"vehicle_type_id":"4","last_reported":1731488961,"current_range_meters":35600,"station_id":"ce4bhph2rcd13ifvqhdg","pricing_plan_id":"cebpf4jnsgd1na2vs0mg"},{"bike_id":"beb7b9bd-a544-4d0c-b0ee-a6204f3f5108","system_id":"levelo_inurba_marseille","lat":43.291962,"lon":5.385193,"is_reserved":false,"is_disabled":false,"rental_uris":{"android":"levelo://app?vid=beb7b9bd-a544-4d0c-b0ee-a6204f3f5108","ios":"levelo://app?vid=beb7b9bd-a544-4d0c-b0ee-a6204f3f5108"},"vehicle_type_id":"4","last_reported":1731488961,"current_range_meters":29600,"station_id":"","pricing_plan_id":"cebpf4jnsgd1na2vs0mg"},{"bike_id":"e8cc31e8-880f-4b8d-8ec4-492eb181f840","system_id":"levelo_inurba_marseille","lat":43.23153,"lon":5.43711,"is_reserved":false,"is_disabled":false,"rental_uris":{"android":"levelo://app?vid=e8cc31e8-880f-4b8d-8ec4-492eb181f840","ios":"levelo://app?vid=e8cc31e8-880f-4b8d-8ec4-492eb181f840"},"vehicle_type_id":"4","last_reported":1731488961,"current_range_meters":16000,"station_id":"ce4bhmp2rcd13ifvqgog","pricing_plan_id":"cebpf4jnsgd1na2vs0mg"},{"bike_id":"71cdf89e-b161-4da7-b7b9-9b4999ce54a2","system_id":"levelo_inurba_marseille","lat":43.30543,"lon":5.36555,"is_reserved":false,"is_disabled":false,"rental_uris":{"android":"levelo://app?vid=71cdf89e-b161-4da7-b7b9-9b4999ce54a2","ios":"levelo://app?vid=71cdf89e-b161-4da7-b7b9-9b4999ce54a2"},"vehicle_type_id":"4","last_reported":1731488961,"current_range_meters":28800,"station_id":"ce4bgs12rcd13ifvqcag","pricing_plan_id":"cebpf4jnsgd1na2vs0mg"},{"bike_id":"d8be8c43-4032-4850-a41f-1fe76ea6be1a","system_id":"levelo_inurba_marseille","lat":43.31081,"lon":5.42435,"is_reserved":false,"is_disabled":false,"rental_uris":{"android":"levelo://app?vid=d8be8c43-4032-4850-a41f-1fe76ea6be1a","ios":"levelo://app?vid=d8be8c43-4032-4850-a41f-1fe76ea6be1a"},"vehicle_type_id":"4","last_reported":1731488961,"current_range_meters":22400,"station_id":"ce4bhp92rcd13ifvqhag","pricing_plan_id":"cebpf4jnsgd1na2vs0mg"},{"bike_id":"b1f50a4e-bf80-417b-be95-adf7b4bc4b3b","system_id":"levelo_inurba_marseille","lat":43.30545,"lon":5.36697,"is_reserved":false,"is_disabled":false,"rental_uris":{"android":"levelo://app?vid=b1f50a4e-bf80-417b-be95-adf7b4bc4b3b","ios":"levelo://app?vid=b1f50a4e-bf80-417b-be95-adf7b4bc4b3b"},"vehicle_type_id":"4","last_reported":1731488961,"current_range_meters":32000,"station_id":"ce4bgrp2rcd13ifvqc9g","pricing_plan_id":"cebpf4jnsgd1na2vs0mg"},{"bike_id":"29bced14-888e-4562-8607-efe682bc7002","system_id":"levelo_inurba_marseille","lat":43.31488,"lon":5.37299,"is_reserved":false,"is_disabled":false,"rental_uris":{"android":"levelo://app?vid=29bced14-888e-4562-8607-efe682bc7002","ios":"levelo://app?vid=29bced14-888e-4562-8607-efe682bc7002"},"vehicle_type_id":"4","last_reported":1731488961,"current_range_meters":17200,"station_id":"ce4bgt12rcd13ifvqcd0","pricing_plan_id":"cebpf4jnsgd1na2vs0mg"},{"bike_id":"a66d115b-99f4-4e21-9e1f-d6e44f49bd5e","system_id":"levelo_inurba_marseille","lat":43.32489,"lon":5.36549,"is_reserved":false,"is_disabled":false,"rental_uris":{"android":"levelo://app?vid=a66d115b-99f4-4e21-9e1f-d6e44f49bd5e","ios":"levelo://app?vid=a66d115b-99f4-4e21-9e1f-d6e44f49bd5e"},"vehicle_type_id":"4","last_reported":1731488961,"current_range_meters":2800,"station_id":"ce4bhs12rcd13ifvqhvg","pricing_plan_id":"cebpf4jnsgd1na2vs0mg"},{"bike_id":"96136f58-f5d0-438f-ba55-17c131c9008a","system_id":"levelo_inurba_marseille","lat":43.25937,"lon":5.409,"is_reserved":false,"is_disabled":false,"rental_uris":{"android":"levelo://app?vid=96136f58-f5d0-438f-ba55-17c131c9008a","ios":"levelo://app?vid=96136f58-f5d0-438f-ba55-17c131c9008a"},"vehicle_type_id":"4","last_reported":1731488961,"current_range_meters":38800,"station_id":"ce4bhm92rcd13ifvqglg","pricing_plan_id":"cebpf4jnsgd1na2vs0mg"},{"bike_id":"85718261-3746-4a85-9f1e-84adac851f6a","system_id":"levelo_inurba_marseille","lat":43.2603,"lon":5.37546,"is_reserved":false,"is_disabled":false,"rental_uris":{"android":"levelo://app?vid=85718261-3746-4a85-9f1e-84adac851f6a","ios":"levelo://app?vid=85718261-3746-4a85-9f1e-84adac851f6a"},"vehicle_type_id":"4","last_reported":1731488961,"current_range_meters":24000,"station_id":"ce4bhgh2rcd13ifvqfa0","pricing_plan_id":"cebpf4jnsgd1na2vs0mg"},{"bike_id":"bd3a2ce1-48ec-4e74-a1a7-9bd3007cb483","system_id":"levelo_inurba_marseille","lat":43.2594,"lon":5.40903,"is_reserved":false,"is_disabled":false,"rental_uris":{"android":"levelo://app?vid=bd3a2ce1-48ec-4e74-a1a7-9bd3007cb483","ios":"levelo://app?vid=bd3a2ce1-48ec-4e74-a1a7-9bd3007cb483"},"vehicle_type_id":"4","last_reported":1731488961,"current_range_meters":32400,"station_id":"ce4bhm92rcd13ifvqglg","pricing_plan_id":"cebpf4jnsgd1na2vs0mg"},{"bike_id":"182df24d-f1d0-4db9-bb78-26bd47de22ee","system_id":"levelo_inurba_marseille","lat":43.30143,"lon":5.38781,"is_reserved":false,"is_disabled":false,"rental_uris":{"android":"levelo://app?vid=182df24d-f1d0-4db9-bb78-26bd47de22ee","ios":"levelo://app?vid=182df24d-f1d0-4db9-bb78-26bd47de22ee"},"vehicle_type_id":"4","last_reported":1731488961,"current_range_meters":24000,"station_id":"ce4bghh2rcd13ifvqb60","pricing_plan_id":"cebpf4jnsgd1na2vs0mg"},{"bike_id":"c16aad60-bed9-4b48-81c0-51e917c7cb08","system_id":"levelo_inurba_marseille","lat":43.30185,"lon":5.36607,"is_reserved":false,"is_disabled":false,"rental_uris":{"android":"levelo://app?vid=c16aad60-bed9-4b48-81c0-51e917c7cb08","ios":"levelo://app?vid=c16aad60-bed9-4b48-81c0-51e917c7cb08"},"vehicle_type_id":"4","last_reported":1731488961,"current_range_meters":38000,"station_id":"ce4bgrh2rcd13ifvqc8g","pricing_plan_id":"cebpf4jnsgd1na2vs0mg"},{"bike_id":"158757d0-f89c-452d-9746-6ab2aad19887","system_id":"levelo_inurba_marseille","lat":43.312403,"lon":5.368603,"is_reserved":false,"is_disabled":false,"rental_uris":{"android":"levelo://app?vid=158757d0-f89c-452d-9746-6ab2aad19887","ios":"levelo://app?vid=158757d0-f89c-452d-9746-6ab2aad19887"},"vehicle_type_id":"4","last_reported":1731488961,"current_range_meters":36400,"station_id":"ce4bgl92rcd13ifvqbq0","pricing_plan_id":"cebpf4jnsgd1na2vs0mg"},{"bike_id":"9111b3c4-7ddd-4e5e-9f57-7a2241ab6dea","system_id":"levelo_inurba_marseille","lat":43.33023,"lon":5.39036,"is_reserved":false,"is_disabled":false,"rental_uris":{"android":"levelo://app?vid=9111b3c4-7ddd-4e5e-9f57-7a2241ab6dea","ios":"levelo://app?vid=9111b3c4-7ddd-4e5e-9f57-7a2241ab6dea"},"vehicle_type_id":"4","last_reported":1731488961,"current_range_meters":24800,"station_id":"ce4bhr92rcd13ifvqhrg","pricing_plan_id":"cebpf4jnsgd1na2vs0mg"},{"bike_id":"ebad3fe3-45c6-49ab-a9a7-bd5380241ddd","system_id":"levelo_inurba_marseille","lat":43.2707,"lon":5.42278,"is_reserved":false,"is_disabled":false,"rental_uris":{"android":"levelo://app?vid=ebad3fe3-45c6-49ab-a9a7-bd5380241ddd","ios":"levelo://app?vid=ebad3fe3-45c6-49ab-a9a7-bd5380241ddd"},"vehicle_type_id":"4","last_reported":1731488961,"current_range_meters":27600,"station_id":"ce4bhk92rcd13ifvqgb0","pricing_plan_id":"cebpf4jnsgd1na2vs0mg"},{"bike_id":"437a1b74-da51-4fbb-9aa2-12371fc1eab2","system_id":"levelo_inurba_marseille","lat":43.2681,"lon":5.40266,"is_reserved":false,"is_disabled":false,"rental_uris":{"android":"levelo://app?vid=437a1b74-da51-4fbb-9aa2-12371fc1eab2","ios":"levelo://app?vid=437a1b74-da51-4fbb-9aa2-12371fc1eab2"},"vehicle_type_id":"4","last_reported":1731488961,"current_range_meters":38000,"station_id":"ce501612rcd8frsf0b60","pricing_plan_id":"cebpf4jnsgd1na2vs0mg"},{"bike_id":"a7ae197b-10d3-4ba6-b2fa-ccbf57d403bc","system_id":"levelo_inurba_marseille","lat":43.34146,"lon":5.40905,"is_reserved":false,"is_disabled":false,"rental_uris":{"android":"levelo://app?vid=a7ae197b-10d3-4ba6-b2fa-ccbf57d403bc","ios":"levelo://app?vid=a7ae197b-10d3-4ba6-b2fa-ccbf57d403bc"},"vehicle_type_id":"4","last_reported":1731488961,"current_range_meters":28800,"station_id":"ce4bhqh2rcd13ifvqhlg","pricing_plan_id":"cebpf4jnsgd1na2vs0mg"},{"bike_id":"3d8cceee-e8ae-48df-9d20-ed8626b0c570","system_id":"levelo_inurba_marseille","lat":43.33016,"lon":5.39029,"is_reserved":false,"is_disabled":false,"rental_uris":{"android":"levelo://app?vid=3d8cceee-e8ae-48df-9d20-ed8626b0c570","ios":"levelo://app?vid=3d8cceee-e8ae-48df-9d20-ed8626b0c570"},"vehicle_type_id":"4","last_reported":1731488961,"current_range_meters":34800,"station_id":"ce4bhr92rcd13ifvqhrg","pricing_plan_id":"cebpf4jnsgd1na2vs0mg"},{"bike_id":"92a7a4b8-71a2-4d89-a912-8ce23346a0d1","system_id":"levelo_inurba_marseille","lat":43.28258,"lon":5.44406,"is_reserved":false,"is_disabled":false,"rental_uris":{"android":"levelo://app?vid=92a7a4b8-71a2-4d89-a912-8ce23346a0d1","ios":"levelo://app?vid=92a7a4b8-71a2-4d89-a912-8ce23346a0d1"},"vehicle_type_id":"4","last_reported":1731488961,"current_range_meters":17200,"station_id":"","pricing_plan_id":"cebpf4jnsgd1na2vs0mg"},{"bike_id":"c881ecce-1bab-4b81-8f63-1104b2e209ce","system_id":"levelo_inurba_marseille","lat":43.24069,"lon":5.37762,"is_reserved":false,"is_disabled":false,"rental_uris":{"android":"levelo://app?vid=c881ecce-1bab-4b81-8f63-1104b2e209ce","ios":"levelo://app?vid=c881ecce-1bab-4b81-8f63-1104b2e209ce"},"vehicle_type_id":"4","last_reported":1731488961,"current_range_meters":35600,"station_id":"ce4bhnp2rcd13ifvqgvg","pricing_plan_id":"cebpf4jnsgd1na2vs0mg"},{"bike_id":"32805eea-8126-4d65-a5ca-136350f63fef","system_id":"levelo_inurba_marseille","lat":43.29067,"lon":5.3715,"is_reserved":false,"is_disabled":false,"rental_uris":{"android":"levelo://app?vid=32805eea-8126-4d65-a5ca-136350f63fef","ios":"levelo://app?vid=32805eea-8126-4d65-a5ca-136350f63fef"},"vehicle_type_id":"4","last_reported":1731488961,"current_range_meters":38000,"station_id":"ce4bh5p2rcd13ifvqe4g","pricing_plan_id":"cebpf4jnsgd1na2vs0mg"},{"bike_id":"cae97af9-19fa-49d3-b33e-9e40f8802609","system_id":"levelo_inurba_marseille","lat":43.23144,"lon":5.43712,"is_reserved":false,"is_disabled":false,"rental_uris":{"android":"levelo://app?vid=cae97af9-19fa-49d3-b33e-9e40f8802609","ios":"levelo://app?vid=cae97af9-19fa-49d3-b33e-9e40f8802609"},"vehicle_type_id":"4","last_reported":1731488961,"current_range_meters":2800,"station_id":"ce4bhmp2rcd13ifvqgog","pricing_plan_id":"cebpf4jnsgd1na2vs0mg"},{"bike_id":"698f9470-ad94-493b-8dbd-d4831d7a0078","system_id":"levelo_inurba_marseille","lat":43.30534,"lon":5.367,"is_reserved":false,"is_disabled":false,"rental_uris":{"android":"levelo://app?vid=698f9470-ad94-493b-8dbd-d4831d7a0078","ios":"levelo://app?vid=698f9470-ad94-493b-8dbd-d4831d7a0078"},"vehicle_type_id":"4","last_reported":1731488961,"current_range_meters":27600,"station_id":"ce4bgrp2rcd13ifvqc9g","pricing_plan_id":"cebpf4jnsgd1na2vs0mg"},{"bike_id":"bbea784e-1c9f-406b-bd3e-4c384a0798ac","system_id":"levelo_inurba_marseille","lat":43.3096,"lon":5.39038,"is_reserved":false,"is_disabled":false,"rental_uris":{"android":"levelo://app?vid=bbea784e-1c9f-406b-bd3e-4c384a0798ac","ios":"levelo://app?vid=bbea784e-1c9f-406b-bd3e-4c384a0798ac"},"vehicle_type_id":"4","last_reported":1731488961,"current_range_meters":35200,"station_id":"ce4bgup2rcd13ifvqco0","pricing_plan_id":"cebpf4jnsgd1na2vs0mg"},{"bike_id":"77ab44b7-4460-4a96-b6d3-a90ea09f2ced","system_id":"levelo_inurba_marseille","lat":43.239584,"lon":5.366258,"is_reserved":false,"is_disabled":false,"rental_uris":{"android":"levelo://app?vid=77ab44b7-4460-4a96-b6d3-a90ea09f2ced","ios":"levelo://app?vid=77ab44b7-4460-4a96-b6d3-a90ea09f2ced"},"vehicle_type_id":"4","last_reported":1731488961,"current_range_meters":33600,"station_id":"ce4bhi12rcd13ifvqfp0","pricing_plan_id":"cebpf4jnsgd1na2vs0mg"},{"bike_id":"6e5206ee-1bc7-4f52-868b-ece5f488936f","system_id":"levelo_inurba_marseille","lat":43.283661,"lon":5.392524,"is_reserved":false,"is_disabled":false,"rental_uris":{"android":"levelo://app?vid=6e5206ee-1bc7-4f52-868b-ece5f488936f","ios":"levelo://app?vid=6e5206ee-1bc7-4f52-868b-ece5f488936f"},"vehicle_type_id":"4","last_reported":1731488961,"current_range_meters":27200,"station_id":"ce4bgup2rcd13ifvqcn0","pricing_plan_id":"cebpf4jnsgd1na2vs0mg"},{"bike_id":"d4d6d2f9-3bd4-43f3-94d2-383228c98991","system_id":"levelo_inurba_marseille","lat":43.29265,"lon":5.38432,"is_reserved":false,"is_disabled":false,"rental_uris":{"android":"levelo://app?vid=d4d6d2f9-3bd4-43f3-94d2-383228c98991","ios":"levelo://app?vid=d4d6d2f9-3bd4-43f3-94d2-383228c98991"},"vehicle_type_id":"4","last_reported":1731488961,"current_range_meters":29600,"station_id":"ce4bgkh2rcd13ifvqbl0","pricing_plan_id":"cebpf4jnsgd1na2vs0mg"},{"bike_id":"9757b8ea-acf7-4f9f-9fcc-b3cc10389510","system_id":"levelo_inurba_marseille","lat":43.29316,"lon":5.37183,"is_reserved":false,"is_disabled":false,"rental_uris":{"android":"levelo://app?vid=9757b8ea-acf7-4f9f-9fcc-b3cc10389510","ios":"levelo://app?vid=9757b8ea-acf7-4f9f-9fcc-b3cc10389510"},"vehicle_type_id":"4","last_reported":1731488961,"current_range_meters":29600,"station_id":"ce4bgh92rcd13ifvqb40","pricing_plan_id":"cebpf4jnsgd1na2vs0mg"},{"bike_id":"55c5cd9e-25df-4b46-b96b-bea4aff5179a","system_id":"levelo_inurba_marseille","lat":43.34143,"lon":5.40909,"is_reserved":false,"is_disabled":false,"rental_uris":{"android":"levelo://app?vid=55c5cd9e-25df-4b46-b96b-bea4aff5179a","ios":"levelo://app?vid=55c5cd9e-25df-4b46-b96b-bea4aff5179a"},"vehicle_type_id":"4","last_reported":1731488961,"current_range_meters":12000,"station_id":"ce4bhqh2rcd13ifvqhlg","pricing_plan_id":"cebpf4jnsgd1na2vs0mg"},{"bike_id":"06380225-2059-4a1b-ab66-74996d31bff2","system_id":"levelo_inurba_marseille","lat":43.31354,"lon":5.36704,"is_reserved":false,"is_disabled":false,"rental_uris":{"android":"levelo://app?vid=06380225-2059-4a1b-ab66-74996d31bff2","ios":"levelo://app?vid=06380225-2059-4a1b-ab66-74996d31bff2"},"vehicle_type_id":"4","last_reported":1731488961,"current_range_meters":14800,"station_id":"ce4bgr92rcd13ifvqc6g","pricing_plan_id":"cebpf4jnsgd1na2vs0mg"},{"bike_id":"264aabb7-f57f-4f15-9cf2-84673cb2e2f3","system_id":"levelo_inurba_marseille","lat":43.24085,"lon":5.37753,"is_reserved":false,"is_disabled":false,"rental_uris":{"android":"levelo://app?vid=264aabb7-f57f-4f15-9cf2-84673cb2e2f3","ios":"levelo://app?vid=264aabb7-f57f-4f15-9cf2-84673cb2e2f3"},"vehicle_type_id":"4","last_reported":1731488961,"current_range_meters":16000,"station_id":"ce4bhnp2rcd13ifvqgvg","pricing_plan_id":"cebpf4jnsgd1na2vs0mg"},{"bike_id":"b8e24c24-00de-4fd7-9d77-bd50ba0f09ae","system_id":"levelo_inurba_marseille","lat":43.30307,"lon":5.36906,"is_reserved":false,"is_disabled":false,"rental_uris":{"android":"levelo://app?vid=b8e24c24-00de-4fd7-9d77-bd50ba0f09ae","ios":"levelo://app?vid=b8e24c24-00de-4fd7-9d77-bd50ba0f09ae"},"vehicle_type_id":"4","last_reported":1731488961,"current_range_meters":32000,"station_id":"ce4bgqh2rcd13ifvqc5g","pricing_plan_id":"cebpf4jnsgd1na2vs0mg"},{"bike_id":"5e96f609-2d16-41e9-86d3-411db3ae9987","system_id":"levelo_inurba_marseille","lat":43.33605,"lon":5.41036,"is_reserved":false,"is_disabled":false,"rental_uris":{"android":"levelo://app?vid=5e96f609-2d16-41e9-86d3-411db3ae9987","ios":"levelo://app?vid=5e96f609-2d16-41e9-86d3-411db3ae9987"},"vehicle_type_id":"4","last_reported":1731488961,"current_range_meters":8000,"station_id":"ce4bhqh2rcd13ifvqhmg","pricing_plan_id":"cebpf4jnsgd1na2vs0mg"},{"bike_id":"fbae999e-6c1b-4047-8542-4b57cbc41517","system_id":"levelo_inurba_marseille","lat":43.24092,"lon":5.37756,"is_reserved":false,"is_disabled":false,"rental_uris":{"android":"levelo://app?vid=fbae999e-6c1b-4047-8542-4b57cbc41517","ios":"levelo://app?vid=fbae999e-6c1b-4047-8542-4b57cbc41517"},"vehicle_type_id":"4","last_reported":1731488961,"current_range_meters":23200,"station_id":"ce4bhnp2rcd13ifvqgvg","pricing_plan_id":"cebpf4jnsgd1na2vs0mg"},{"bike_id":"1db710b5-a1f7-4498-b1d5-a9a354df934e","system_id":"levelo_inurba_marseille","lat":43.24077,"lon":5.37751,"is_reserved":false,"is_disabled":false,"rental_uris":{"android":"levelo://app?vid=1db710b5-a1f7-4498-b1d5-a9a354df934e","ios":"levelo://app?vid=1db710b5-a1f7-4498-b1d5-a9a354df934e"},"vehicle_type_id":"4","last_reported":1731488961,"current_range_meters":32400,"station_id":"ce4bhnp2rcd13ifvqgvg","pricing_plan_id":"cebpf4jnsgd1na2vs0mg"},{"bike_id":"9cd4ab93-2f70-4411-91b2-66122de72ac9","system_id":"levelo_inurba_marseille","lat":43.30134,"lon":5.37413,"is_reserved":false,"is_disabled":false,"rental_uris":{"android":"levelo://app?vid=9cd4ab93-2f70-4411-91b2-66122de72ac9","ios":"levelo://app?vid=9cd4ab93-2f70-4411-91b2-66122de72ac9"},"vehicle_type_id":"4","last_reported":1731488961,"current_range_meters":32800,"station_id":"ce4bgs92rcd13ifvqcc0","pricing_plan_id":"cebpf4jnsgd1na2vs0mg"},{"bike_id":"b4c6b791-b543-4846-9022-5f0ef405f24a","system_id":"levelo_inurba_marseille","lat":43.31167,"lon":5.38717,"is_reserved":false,"is_disabled":false,"rental_uris":{"android":"levelo://app?vid=b4c6b791-b543-4846-9022-5f0ef405f24a","ios":"levelo://app?vid=b4c6b791-b543-4846-9022-5f0ef405f24a"},"vehicle_type_id":"4","last_reported":1731488961,"current_range_meters":8800,"station_id":"ce4bgv12rcd13ifvqcp0","pricing_plan_id":"cebpf4jnsgd1na2vs0mg"},{"bike_id":"70e78c93-084e-4ab7-a814-465f1ec8a7f0","system_id":"levelo_inurba_marseille","lat":43.24184,"lon":5.37934,"is_reserved":false,"is_disabled":false,"rental_uris":{"android":"levelo://app?vid=70e78c93-084e-4ab7-a814-465f1ec8a7f0","ios":"levelo://app?vid=70e78c93-084e-4ab7-a814-465f1ec8a7f0"},"vehicle_type_id":"4","last_reported":1731488961,"current_range_meters":28400,"station_id":"ce4bhmp2rcd13ifvqgog","pricing_plan_id":"cebpf4jnsgd1na2vs0mg"},{"bike_id":"f2ff6cb7-9c75-4268-983c-1e09bc9ab498","system_id":"levelo_inurba_marseille","lat":43.337444,"lon":5.374475,"is_reserved":false,"is_disabled":false,"rental_uris":{"android":"levelo://app?vid=f2ff6cb7-9c75-4268-983c-1e09bc9ab498","ios":"levelo://app?vid=f2ff6cb7-9c75-4268-983c-1e09bc9ab498"},"vehicle_type_id":"4","last_reported":1731488961,"current_range_meters":38000,"station_id":"","pricing_plan_id":"cebpf4jnsgd1na2vs0mg"},{"bike_id":"5945b09f-8735-4358-ad3e-01166b87c0b9","system_id":"levelo_inurba_marseille","lat":43.30598,"lon":5.37221,"is_reserved":false,"is_disabled":false,"rental_uris":{"android":"levelo://app?vid=5945b09f-8735-4358-ad3e-01166b87c0b9","ios":"levelo://app?vid=5945b09f-8735-4358-ad3e-01166b87c0b9"},"vehicle_type_id":"4","last_reported":1731488961,"current_range_meters":30800,"station_id":"ce4bgqh2rcd13ifvqc4g","pricing_plan_id":"cebpf4jnsgd1na2vs0mg"},{"bike_id":"61e08f5d-03e3-49a3-8cc1-22b61066cd06","system_id":"levelo_inurba_marseille","lat":43.29914,"lon":5.37476,"is_reserved":false,"is_disabled":false,"rental_uris":{"android":"levelo://app?vid=61e08f5d-03e3-49a3-8cc1-22b61066cd06","ios":"levelo://app?vid=61e08f5d-03e3-49a3-8cc1-22b61066cd06"},"vehicle_type_id":"4","last_reported":1731488961,"current_range_meters":39200,"station_id":"ce4bgjh2rcd13ifvqbg0","pricing_plan_id":"cebpf4jnsgd1na2vs0mg"},{"bike_id":"a1dcc4f6-dce8-4425-b084-7b55073d3773","system_id":"levelo_inurba_marseille","lat":43.27994,"lon":5.40014,"is_reserved":false,"is_disabled":false,"rental_uris":{"android":"levelo://app?vid=a1dcc4f6-dce8-4425-b084-7b55073d3773","ios":"levelo://app?vid=a1dcc4f6-dce8-4425-b084-7b55073d3773"},"vehicle_type_id":"4","last_reported":1731488961,"current_range_meters":32000,"station_id":"ce4bho92rcd13ifvqh4g","pricing_plan_id":"cebpf4jnsgd1na2vs0mg"},{"bike_id":"58e12413-d879-4dff-a084-333be006c499","system_id":"levelo_inurba_marseille","lat":43.29561,"lon":5.4229,"is_reserved":false,"is_disabled":false,"rental_uris":{"android":"levelo://app?vid=58e12413-d879-4dff-a084-333be006c499","ios":"levelo://app?vid=58e12413-d879-4dff-a084-333be006c499"},"vehicle_type_id":"4","last_reported":1731488961,"current_range_meters":30800,"station_id":"ce4bhph2rcd13ifvqhdg","pricing_plan_id":"cebpf4jnsgd1na2vs0mg"},{"bike_id":"1feb5fff-6dbe-466b-acb0-7f0ee48aff12","system_id":"levelo_inurba_marseille","lat":43.30253,"lon":5.40086,"is_reserved":false,"is_disabled":false,"rental_uris":{"android":"levelo://app?vid=1feb5fff-6dbe-466b-acb0-7f0ee48aff12","ios":"levelo://app?vid=1feb5fff-6dbe-466b-acb0-7f0ee48aff12"},"vehicle_type_id":"4","last_reported":1731488961,"current_range_meters":38000,"station_id":"ce4bgvh2rcd13ifvqcs0","pricing_plan_id":"cebpf4jnsgd1na2vs0mg"},{"bike_id":"f1bbdc17-5b02-4493-a9aa-74503dc6fc94","system_id":"levelo_inurba_marseille","lat":43.27947,"lon":5.41038,"is_reserved":false,"is_disabled":false,"rental_uris":{"android":"levelo://app?vid=f1bbdc17-5b02-4493-a9aa-74503dc6fc94","ios":"levelo://app?vid=f1bbdc17-5b02-4493-a9aa-74503dc6fc94"},"vehicle_type_id":"4","last_reported":1731488961,"current_range_meters":22400,"station_id":"ce4bhnp2rcd13ifvqh0g","pricing_plan_id":"cebpf4jnsgd1na2vs0mg"},{"bike_id":"3b686e15-48ea-494a-8ff9-d95dc99ce440","system_id":"levelo_inurba_marseille","lat":43.30313,"lon":5.3689,"is_reserved":false,"is_disabled":false,"rental_uris":{"android":"levelo://app?vid=3b686e15-48ea-494a-8ff9-d95dc99ce440","ios":"levelo://app?vid=3b686e15-48ea-494a-8ff9-d95dc99ce440"},"vehicle_type_id":"4","last_reported":1731488961,"current_range_meters":38800,"station_id":"ce4bgqh2rcd13ifvqc5g","pricing_plan_id":"cebpf4jnsgd1na2vs0mg"},{"bike_id":"1d53b08f-03fc-4409-905c-9b32b02dae5b","system_id":"levelo_inurba_marseille","lat":43.24072,"lon":5.3776,"is_reserved":false,"is_disabled":false,"rental_uris":{"android":"levelo://app?vid=1d53b08f-03fc-4409-905c-9b32b02dae5b","ios":"levelo://app?vid=1d53b08f-03fc-4409-905c-9b32b02dae5b"},"vehicle_type_id":"4","last_reported":1731488961,"current_range_meters":26800,"station_id":"ce4bhnp2rcd13ifvqgvg","pricing_plan_id":"cebpf4jnsgd1na2vs0mg"},{"bike_id":"e0a67f7d-55a2-4077-8e38-2b77ae2818ab","system_id":"levelo_inurba_marseille","lat":43.29168,"lon":5.37158,"is_reserved":false,"is_disabled":false,"rental_uris":{"android":"levelo://app?vid=e0a67f7d-55a2-4077-8e38-2b77ae2818ab","ios":"levelo://app?vid=e0a67f7d-55a2-4077-8e38-2b77ae2818ab"},"vehicle_type_id":"4","last_reported":1731488961,"current_range_meters":20400,"station_id":"ce4bha92rcd13ifvqeh0","pricing_plan_id":"cebpf4jnsgd1na2vs0mg"},{"bike_id":"be70f28d-93f0-416d-82e0-c2cd2f1ffa5c","system_id":"levelo_inurba_marseille","lat":43.30914,"lon":5.36849,"is_reserved":false,"is_disabled":false,"rental_uris":{"android":"levelo://app?vid=be70f28d-93f0-416d-82e0-c2cd2f1ffa5c","ios":"levelo://app?vid=be70f28d-93f0-416d-82e0-c2cd2f1ffa5c"},"vehicle_type_id":"4","last_reported":1731488961,"current_range_meters":36800,"station_id":"ce4bgn92rcd13ifvqbvg","pricing_plan_id":"cebpf4jnsgd1na2vs0mg"},{"bike_id":"6a74bd13-2f0d-4293-a500-24db67983d5b","system_id":"levelo_inurba_marseille","lat":43.23067,"lon":5.35493,"is_reserved":false,"is_disabled":false,"rental_uris":{"android":"levelo://app?vid=6a74bd13-2f0d-4293-a500-24db67983d5b","ios":"levelo://app?vid=6a74bd13-2f0d-4293-a500-24db67983d5b"},"vehicle_type_id":"4","last_reported":1731488961,"current_range_meters":36800,"station_id":"cpo3342slgdg3j2ifvpg","pricing_plan_id":"cebpf4jnsgd1na2vs0mg"},{"bike_id":"7d849743-1c56-4562-8c6c-0b03b23b1c09","system_id":"levelo_inurba_marseille","lat":43.26565,"lon":5.3901,"is_reserved":false,"is_disabled":false,"rental_uris":{"android":"levelo://app?vid=7d849743-1c56-4562-8c6c-0b03b23b1c09","ios":"levelo://app?vid=7d849743-1c56-4562-8c6c-0b03b23b1c09"},"vehicle_type_id":"4","last_reported":1731488961,"current_range_meters":6000,"station_id":"ce4bhe12rcd13ifvqf30","pricing_plan_id":"cebpf4jnsgd1na2vs0mg"},{"bike_id":"ddf51a43-0fff-4948-ad10-6f7a6747dc95","system_id":"levelo_inurba_marseille","lat":43.26948,"lon":5.4025,"is_reserved":false,"is_disabled":false,"rental_uris":{"android":"levelo://app?vid=ddf51a43-0fff-4948-ad10-6f7a6747dc95","ios":"levelo://app?vid=ddf51a43-0fff-4948-ad10-6f7a6747dc95"},"vehicle_type_id":"4","last_reported":1731488961,"current_range_meters":10000,"station_id":"cjm6bp8fraef2m0cb0m0","pricing_plan_id":"cebpf4jnsgd1na2vs0mg"},{"bike_id":"79cc0ee5-3b1f-4d64-b1df-1f1f4e6729e2","system_id":"levelo_inurba_marseille","lat":43.29786,"lon":5.38116,"is_reserved":false,"is_disabled":false,"rental_uris":{"android":"levelo://app?vid=79cc0ee5-3b1f-4d64-b1df-1f1f4e6729e2","ios":"levelo://app?vid=79cc0ee5-3b1f-4d64-b1df-1f1f4e6729e2"},"vehicle_type_id":"4","last_reported":1731488961,"current_range_meters":18800,"station_id":"ce4bgip2rcd13ifvqbb0","pricing_plan_id":"cebpf4jnsgd1na2vs0mg"},{"bike_id":"36d53520-c7e3-464c-b836-eecedd4879f9","system_id":"levelo_inurba_marseille","lat":43.29552,"lon":5.42286,"is_reserved":false,"is_disabled":false,"rental_uris":{"android":"levelo://app?vid=36d53520-c7e3-464c-b836-eecedd4879f9","ios":"levelo://app?vid=36d53520-c7e3-464c-b836-eecedd4879f9"},"vehicle_type_id":"4","last_reported":1731488961,"current_range_meters":24000,"station_id":"ce4bhph2rcd13ifvqhdg","pricing_plan_id":"cebpf4jnsgd1na2vs0mg"},{"bike_id":"591523be-2f12-4a7f-b680-93790f1e72f3","system_id":"levelo_inurba_marseille","lat":43.25006,"lon":5.38937,"is_reserved":false,"is_disabled":false,"rental_uris":{"android":"levelo://app?vid=591523be-2f12-4a7f-b680-93790f1e72f3","ios":"levelo://app?vid=591523be-2f12-4a7f-b680-93790f1e72f3"},"vehicle_type_id":"4","last_reported":1731488961,"current_range_meters":17600,"station_id":"ce4bhgp2rcd13ifvqfd0","pricing_plan_id":"cebpf4jnsgd1na2vs0mg"},{"bike_id":"a2a546f0-e8f6-4604-a35c-bdf7b4d3ebe5","system_id":"levelo_inurba_marseille","lat":43.3235,"lon":5.38876,"is_reserved":false,"is_disabled":false,"rental_uris":{"android":"levelo://app?vid=a2a546f0-e8f6-4604-a35c-bdf7b4d3ebe5","ios":"levelo://app?vid=a2a546f0-e8f6-4604-a35c-bdf7b4d3ebe5"},"vehicle_type_id":"4","last_reported":1731488961,"current_range_meters":6400,"station_id":"ce4bhqp2rcd13ifvqhog","pricing_plan_id":"cebpf4jnsgd1na2vs0mg"},{"bike_id":"f02d1394-a66f-4ada-8ad0-0aff37d8317b","system_id":"levelo_inurba_marseille","lat":43.3096,"lon":5.39043,"is_reserved":false,"is_disabled":false,"rental_uris":{"android":"levelo://app?vid=f02d1394-a66f-4ada-8ad0-0aff37d8317b","ios":"levelo://app?vid=f02d1394-a66f-4ada-8ad0-0aff37d8317b"},"vehicle_type_id":"4","last_reported":1731488961,"current_range_meters":11200,"station_id":"ce4bgup2rcd13ifvqco0","pricing_plan_id":"cebpf4jnsgd1na2vs0mg"},{"bike_id":"d1ae991b-86f1-4d97-9cfc-4697b2592f93","system_id":"levelo_inurba_marseille","lat":43.29573,"lon":5.39964,"is_reserved":false,"is_disabled":false,"rental_uris":{"android":"levelo://app?vid=d1ae991b-86f1-4d97-9cfc-4697b2592f93","ios":"levelo://app?vid=d1ae991b-86f1-4d97-9cfc-4697b2592f93"},"vehicle_type_id":"4","last_reported":1731488961,"current_range_meters":16000,"station_id":"ce4bh312rcd13ifvqdj0","pricing_plan_id":"cebpf4jnsgd1na2vs0mg"},{"bike_id":"9d21ff4a-d516-4d71-a226-ead22ace12fd","system_id":"levelo_inurba_marseille","lat":43.25934,"lon":5.4091,"is_reserved":false,"is_disabled":false,"rental_uris":{"android":"levelo://app?vid=9d21ff4a-d516-4d71-a226-ead22ace12fd","ios":"levelo://app?vid=9d21ff4a-d516-4d71-a226-ead22ace12fd"},"vehicle_type_id":"4","last_reported":1731488961,"current_range_meters":19200,"station_id":"ce4bhm92rcd13ifvqglg","pricing_plan_id":"cebpf4jnsgd1na2vs0mg"},{"bike_id":"c616ab5c-1a4a-4305-969d-018947353a15","system_id":"levelo_inurba_marseille","lat":43.29687,"lon":5.37283,"is_reserved":false,"is_disabled":false,"rental_uris":{"android":"levelo://app?vid=c616ab5c-1a4a-4305-969d-018947353a15","ios":"levelo://app?vid=c616ab5c-1a4a-4305-969d-018947353a15"},"vehicle_type_id":"4","last_reported":1731488961,"current_range_meters":28400,"station_id":"ce4bgk12rcd13ifvqbj0","pricing_plan_id":"cebpf4jnsgd1na2vs0mg"},{"bike_id":"5317eaed-b203-48df-afa3-b64746111827","system_id":"levelo_inurba_marseille","lat":43.28356,"lon":5.38104,"is_reserved":false,"is_disabled":false,"rental_uris":{"android":"levelo://app?vid=5317eaed-b203-48df-afa3-b64746111827","ios":"levelo://app?vid=5317eaed-b203-48df-afa3-b64746111827"},"vehicle_type_id":"4","last_reported":1731488961,"current_range_meters":3600,"station_id":"ce4bh412rcd13ifvqdr0","pricing_plan_id":"cebpf4jnsgd1na2vs0mg"},{"bike_id":"5a8db13b-8780-420e-9213-be4f1e0ce476","system_id":"levelo_inurba_marseille","lat":43.30209,"lon":5.39461,"is_reserved":false,"is_disabled":false,"rental_uris":{"android":"levelo://app?vid=5a8db13b-8780-420e-9213-be4f1e0ce476","ios":"levelo://app?vid=5a8db13b-8780-420e-9213-be4f1e0ce476"},"vehicle_type_id":"4","last_reported":1731488961,"current_range_meters":21600,"station_id":"ce4bh0p2rcd13ifvqd70","pricing_plan_id":"cebpf4jnsgd1na2vs0mg"},{"bike_id":"ecb7c274-90d0-4e95-92a1-62c481d46dcf","system_id":"levelo_inurba_marseille","lat":43.30535,"lon":5.3654,"is_reserved":false,"is_disabled":false,"rental_uris":{"android":"levelo://app?vid=ecb7c274-90d0-4e95-92a1-62c481d46dcf","ios":"levelo://app?vid=ecb7c274-90d0-4e95-92a1-62c481d46dcf"},"vehicle_type_id":"4","last_reported":1731488961,"current_range_meters":22800,"station_id":"ce4bgs12rcd13ifvqcag","pricing_plan_id":"cebpf4jnsgd1na2vs0mg"},{"bike_id":"640ae65e-92b4-44d5-b4f2-7e200c24aeaa","system_id":"levelo_inurba_marseille","lat":43.34148,"lon":5.40904,"is_reserved":false,"is_disabled":false,"rental_uris":{"android":"levelo://app?vid=640ae65e-92b4-44d5-b4f2-7e200c24aeaa","ios":"levelo://app?vid=640ae65e-92b4-44d5-b4f2-7e200c24aeaa"},"vehicle_type_id":"4","last_reported":1731488961,"current_range_meters":19600,"station_id":"ce4bhqh2rcd13ifvqhlg","pricing_plan_id":"cebpf4jnsgd1na2vs0mg"},{"bike_id":"b11d2bf2-d6f6-4253-8661-299dccf28d40","system_id":"levelo_inurba_marseille","lat":43.3361,"lon":5.41026,"is_reserved":false,"is_disabled":false,"rental_uris":{"android":"levelo://app?vid=b11d2bf2-d6f6-4253-8661-299dccf28d40","ios":"levelo://app?vid=b11d2bf2-d6f6-4253-8661-299dccf28d40"},"vehicle_type_id":"4","last_reported":1731488961,"current_range_meters":9200,"station_id":"ce4bhqh2rcd13ifvqhmg","pricing_plan_id":"cebpf4jnsgd1na2vs0mg"},{"bike_id":"1c76e35a-5f50-4014-b83e-d81b37391e2e","system_id":"levelo_inurba_marseille","lat":43.32288,"lon":5.38271,"is_reserved":false,"is_disabled":false,"rental_uris":{"android":"levelo://app?vid=1c76e35a-5f50-4014-b83e-d81b37391e2e","ios":"levelo://app?vid=1c76e35a-5f50-4014-b83e-d81b37391e2e"},"vehicle_type_id":"4","last_reported":1731488961,"current_range_meters":37600,"station_id":"ce4bhr12rcd13ifvqhqg","pricing_plan_id":"cebpf4jnsgd1na2vs0mg"},{"bike_id":"151f9e6e-f9d5-40f4-8bbf-706fc2119638","system_id":"levelo_inurba_marseille","lat":43.30556,"lon":5.36542,"is_reserved":false,"is_disabled":false,"rental_uris":{"android":"levelo://app?vid=151f9e6e-f9d5-40f4-8bbf-706fc2119638","ios":"levelo://app?vid=151f9e6e-f9d5-40f4-8bbf-706fc2119638"},"vehicle_type_id":"4","last_reported":1731488961,"current_range_meters":28400,"station_id":"ce4bgs12rcd13ifvqcag","pricing_plan_id":"cebpf4jnsgd1na2vs0mg"},{"bike_id":"8cf4a93e-f938-4a5d-ac5b-8d91399ff9ff","system_id":"levelo_inurba_marseille","lat":43.28699,"lon":5.37388,"is_reserved":false,"is_disabled":false,"rental_uris":{"android":"levelo://app?vid=8cf4a93e-f938-4a5d-ac5b-8d91399ff9ff","ios":"levelo://app?vid=8cf4a93e-f938-4a5d-ac5b-8d91399ff9ff"},"vehicle_type_id":"4","last_reported":1731488961,"current_range_meters":34800,"station_id":"ce4bh3p2rcd13ifvqdq0","pricing_plan_id":"cebpf4jnsgd1na2vs0mg"},{"bike_id":"f4d1dbca-a6cc-4f7c-aece-2982ddb41149","system_id":"levelo_inurba_marseille","lat":43.29038,"lon":5.39968,"is_reserved":false,"is_disabled":false,"rental_uris":{"android":"levelo://app?vid=f4d1dbca-a6cc-4f7c-aece-2982ddb41149","ios":"levelo://app?vid=f4d1dbca-a6cc-4f7c-aece-2982ddb41149"},"vehicle_type_id":"4","last_reported":1731488961,"current_range_meters":19600,"station_id":"ce4bh392rcd13ifvqdm0","pricing_plan_id":"cebpf4jnsgd1na2vs0mg"},{"bike_id":"88bda773-8a20-4b04-9a4d-d765138497c4","system_id":"levelo_inurba_marseille","lat":43.30136,"lon":5.3741,"is_reserved":false,"is_disabled":false,"rental_uris":{"android":"levelo://app?vid=88bda773-8a20-4b04-9a4d-d765138497c4","ios":"levelo://app?vid=88bda773-8a20-4b04-9a4d-d765138497c4"},"vehicle_type_id":"4","last_reported":1731488961,"current_range_meters":27600,"station_id":"ce4bgs92rcd13ifvqcc0","pricing_plan_id":"cebpf4jnsgd1na2vs0mg"},{"bike_id":"42ca7792-2925-42d4-a779-724a29fe96b8","system_id":"levelo_inurba_marseille","lat":43.2408,"lon":5.37741,"is_reserved":false,"is_disabled":false,"rental_uris":{"android":"levelo://app?vid=42ca7792-2925-42d4-a779-724a29fe96b8","ios":"levelo://app?vid=42ca7792-2925-42d4-a779-724a29fe96b8"},"vehicle_type_id":"4","last_reported":1731488961,"current_range_meters":8800,"station_id":"ce4bhnp2rcd13ifvqgvg","pricing_plan_id":"cebpf4jnsgd1na2vs0mg"},{"bike_id":"7668f886-0fd0-47cd-951e-1b1f646fc483","system_id":"levelo_inurba_marseille","lat":43.28002,"lon":5.40016,"is_reserved":false,"is_disabled":false,"rental_uris":{"android":"levelo://app?vid=7668f886-0fd0-47cd-951e-1b1f646fc483","ios":"levelo://app?vid=7668f886-0fd0-47cd-951e-1b1f646fc483"},"vehicle_type_id":"4","last_reported":1731488961,"current_range_meters":37600,"station_id":"ce4bho92rcd13ifvqh4g","pricing_plan_id":"cebpf4jnsgd1na2vs0mg"},{"bike_id":"09cf7c2c-54ab-45ad-93e3-cb812bbce942","system_id":"levelo_inurba_marseille","lat":43.30306,"lon":5.36888,"is_reserved":false,"is_disabled":false,"rental_uris":{"android":"levelo://app?vid=09cf7c2c-54ab-45ad-93e3-cb812bbce942","ios":"levelo://app?vid=09cf7c2c-54ab-45ad-93e3-cb812bbce942"},"vehicle_type_id":"4","last_reported":1731488961,"current_range_meters":9600,"station_id":"ce4bgqh2rcd13ifvqc5g","pricing_plan_id":"cebpf4jnsgd1na2vs0mg"},{"bike_id":"afe30839-fc49-4bd4-9fcd-96fb31fa1164","system_id":"levelo_inurba_marseille","lat":43.30272,"lon":5.37718,"is_reserved":false,"is_disabled":false,"rental_uris":{"android":"levelo://app?vid=afe30839-fc49-4bd4-9fcd-96fb31fa1164","ios":"levelo://app?vid=afe30839-fc49-4bd4-9fcd-96fb31fa1164"},"vehicle_type_id":"4","last_reported":1731488961,"current_range_meters":18000,"station_id":"ce4bguh2rcd13ifvqcj0","pricing_plan_id":"cebpf4jnsgd1na2vs0mg"},{"bike_id":"9408db83-4b31-423c-957c-85b94f412efa","system_id":"levelo_inurba_marseille","lat":43.27501,"lon":5.42448,"is_reserved":false,"is_disabled":false,"rental_uris":{"android":"levelo://app?vid=9408db83-4b31-423c-957c-85b94f412efa","ios":"levelo://app?vid=9408db83-4b31-423c-957c-85b94f412efa"},"vehicle_type_id":"4","last_reported":1731488961,"current_range_meters":40000,"station_id":"ce4bhn92rcd13ifvqgrg","pricing_plan_id":"cebpf4jnsgd1na2vs0mg"},{"bike_id":"a6bbcb03-4306-47b1-a034-6214825afd1f","system_id":"levelo_inurba_marseille","lat":43.30554,"lon":5.36698,"is_reserved":false,"is_disabled":false,"rental_uris":{"android":"levelo://app?vid=a6bbcb03-4306-47b1-a034-6214825afd1f","ios":"levelo://app?vid=a6bbcb03-4306-47b1-a034-6214825afd1f"},"vehicle_type_id":"4","last_reported":1731488961,"current_range_meters":36000,"station_id":"ce4bgrp2rcd13ifvqc9g","pricing_plan_id":"cebpf4jnsgd1na2vs0mg"},{"bike_id":"7e67afd6-6a4f-4229-a8f4-a382b0b7cdb1","system_id":"levelo_inurba_marseille","lat":43.30957,"lon":5.39032,"is_reserved":false,"is_disabled":false,"rental_uris":{"android":"levelo://app?vid=7e67afd6-6a4f-4229-a8f4-a382b0b7cdb1","ios":"levelo://app?vid=7e67afd6-6a4f-4229-a8f4-a382b0b7cdb1"},"vehicle_type_id":"4","last_reported":1731488961,"current_range_meters":10800,"station_id":"ce4bgup2rcd13ifvqco0","pricing_plan_id":"cebpf4jnsgd1na2vs0mg"},{"bike_id":"ef64163f-5bc1-4988-9c95-855e4b6b89df","system_id":"levelo_inurba_marseille","lat":43.29583,"lon":5.37492,"is_reserved":false,"is_disabled":false,"rental_uris":{"android":"levelo://app?vid=ef64163f-5bc1-4988-9c95-855e4b6b89df","ios":"levelo://app?vid=ef64163f-5bc1-4988-9c95-855e4b6b89df"},"vehicle_type_id":"4","last_reported":1731488961,"current_range_meters":29600,"station_id":"ce4bgh92rcd13ifvqb50","pricing_plan_id":"cebpf4jnsgd1na2vs0mg"},{"bike_id":"d944b9cc-f4b7-43b0-90b9-d6547e39c362","system_id":"levelo_inurba_marseille","lat":43.23149,"lon":5.43721,"is_reserved":false,"is_disabled":false,"rental_uris":{"android":"levelo://app?vid=d944b9cc-f4b7-43b0-90b9-d6547e39c362","ios":"levelo://app?vid=d944b9cc-f4b7-43b0-90b9-d6547e39c362"},"vehicle_type_id":"4","last_reported":1731488961,"current_range_meters":31200,"station_id":"ce4bhmp2rcd13ifvqgog","pricing_plan_id":"cebpf4jnsgd1na2vs0mg"},{"bike_id":"2c3259f6-ceef-45be-96b5-228e6aa038d6","system_id":"levelo_inurba_marseille","lat":43.27814,"lon":5.40712,"is_reserved":false,"is_disabled":false,"rental_uris":{"android":"levelo://app?vid=2c3259f6-ceef-45be-96b5-228e6aa038d6","ios":"levelo://app?vid=2c3259f6-ceef-45be-96b5-228e6aa038d6"},"vehicle_type_id":"4","last_reported":1731488961,"current_range_meters":35200,"station_id":"ce4bhnh2rcd13ifvqgtg","pricing_plan_id":"cebpf4jnsgd1na2vs0mg"},{"bike_id":"888d78ec-114f-4c17-9c14-c82bca33a261","system_id":"levelo_inurba_marseille","lat":43.30608,"lon":5.3724,"is_reserved":false,"is_disabled":false,"rental_uris":{"android":"levelo://app?vid=888d78ec-114f-4c17-9c14-c82bca33a261","ios":"levelo://app?vid=888d78ec-114f-4c17-9c14-c82bca33a261"},"vehicle_type_id":"4","last_reported":1731488961,"current_range_meters":39200,"station_id":"ce4bgqh2rcd13ifvqc4g","pricing_plan_id":"cebpf4jnsgd1na2vs0mg"},{"bike_id":"f6fd65a2-7641-46a9-bf44-a1f1cd152375","system_id":"levelo_inurba_marseille","lat":43.23154,"lon":5.43721,"is_reserved":false,"is_disabled":false,"rental_uris":{"android":"levelo://app?vid=f6fd65a2-7641-46a9-bf44-a1f1cd152375","ios":"levelo://app?vid=f6fd65a2-7641-46a9-bf44-a1f1cd152375"},"vehicle_type_id":"4","last_reported":1731488961,"current_range_meters":33600,"station_id":"ce4bhmp2rcd13ifvqgog","pricing_plan_id":"cebpf4jnsgd1na2vs0mg"},{"bike_id":"5427ec44-65b5-4156-9be1-ec87130aec0f","system_id":"levelo_inurba_marseille","lat":43.33768,"lon":5.37447,"is_reserved":false,"is_disabled":false,"rental_uris":{"android":"levelo://app?vid=5427ec44-65b5-4156-9be1-ec87130aec0f","ios":"levelo://app?vid=5427ec44-65b5-4156-9be1-ec87130aec0f"},"vehicle_type_id":"4","last_reported":1731488961,"current_range_meters":25200,"station_id":"","pricing_plan_id":"cebpf4jnsgd1na2vs0mg"},{"bike_id":"c0334e7b-18df-4c0c-b5a9-c85ddfd78152","system_id":"levelo_inurba_marseille","lat":43.30912,"lon":5.36856,"is_reserved":false,"is_disabled":false,"rental_uris":{"android":"levelo://app?vid=c0334e7b-18df-4c0c-b5a9-c85ddfd78152","ios":"levelo://app?vid=c0334e7b-18df-4c0c-b5a9-c85ddfd78152"},"vehicle_type_id":"4","last_reported":1731488961,"current_range_meters":36400,"station_id":"ce4bgn92rcd13ifvqbvg","pricing_plan_id":"cebpf4jnsgd1na2vs0mg"},{"bike_id":"082e9e38-ed1e-4cc1-a3df-a88469374fe0","system_id":"levelo_inurba_marseille","lat":43.31236,"lon":5.36852,"is_reserved":false,"is_disabled":false,"rental_uris":{"android":"levelo://app?vid=082e9e38-ed1e-4cc1-a3df-a88469374fe0","ios":"levelo://app?vid=082e9e38-ed1e-4cc1-a3df-a88469374fe0"},"vehicle_type_id":"4","last_reported":1731488961,"current_range_meters":24400,"station_id":"ce4bgl92rcd13ifvqbq0","pricing_plan_id":"cebpf4jnsgd1na2vs0mg"},{"bike_id":"bf5aaa73-f7c4-4dec-b371-6b64c740a432","system_id":"levelo_inurba_marseille","lat":43.30283,"lon":5.3771,"is_reserved":false,"is_disabled":false,"rental_uris":{"android":"levelo://app?vid=bf5aaa73-f7c4-4dec-b371-6b64c740a432","ios":"levelo://app?vid=bf5aaa73-f7c4-4dec-b371-6b64c740a432"},"vehicle_type_id":"4","last_reported":1731488961,"current_range_meters":16000,"station_id":"ce4bguh2rcd13ifvqcj0","pricing_plan_id":"cebpf4jnsgd1na2vs0mg"},{"bike_id":"7c705f1c-ff65-4114-a279-65a36a25ead3","system_id":"levelo_inurba_marseille","lat":43.32661,"lon":5.40986,"is_reserved":false,"is_disabled":false,"rental_uris":{"android":"levelo://app?vid=7c705f1c-ff65-4114-a279-65a36a25ead3","ios":"levelo://app?vid=7c705f1c-ff65-4114-a279-65a36a25ead3"},"vehicle_type_id":"4","last_reported":1731488961,"current_range_meters":31200,"station_id":"ce4bhpp2rcd13ifvqhgg","pricing_plan_id":"cebpf4jnsgd1na2vs0mg"},{"bike_id":"966bd862-6994-44b8-9074-9b4619311beb","system_id":"levelo_inurba_marseille","lat":43.30555,"lon":5.36549,"is_reserved":false,"is_disabled":false,"rental_uris":{"android":"levelo://app?vid=966bd862-6994-44b8-9074-9b4619311beb","ios":"levelo://app?vid=966bd862-6994-44b8-9074-9b4619311beb"},"vehicle_type_id":"4","last_reported":1731488961,"current_range_meters":36800,"station_id":"ce4bgs12rcd13ifvqcag","pricing_plan_id":"cebpf4jnsgd1na2vs0mg"},{"bike_id":"f21f2ec8-1191-425e-bd45-2a5bc0dad75e","system_id":"levelo_inurba_marseille","lat":43.3016,"lon":5.38083,"is_reserved":false,"is_disabled":false,"rental_uris":{"android":"levelo://app?vid=f21f2ec8-1191-425e-bd45-2a5bc0dad75e","ios":"levelo://app?vid=f21f2ec8-1191-425e-bd45-2a5bc0dad75e"},"vehicle_type_id":"4","last_reported":1731488961,"current_range_meters":34000,"station_id":"ce4bgj12rcd13ifvqbc0","pricing_plan_id":"cebpf4jnsgd1na2vs0mg"},{"bike_id":"3468d502-f180-4006-925a-8b9216f02db8","system_id":"levelo_inurba_marseille","lat":43.25941,"lon":5.40905,"is_reserved":false,"is_disabled":false,"rental_uris":{"android":"levelo://app?vid=3468d502-f180-4006-925a-8b9216f02db8","ios":"levelo://app?vid=3468d502-f180-4006-925a-8b9216f02db8"},"vehicle_type_id":"4","last_reported":1731488961,"current_range_meters":29600,"station_id":"ce4bhm92rcd13ifvqglg","pricing_plan_id":"cebpf4jnsgd1na2vs0mg"},{"bike_id":"d177b05d-4d98-41d9-afc1-f7474fca66ea","system_id":"levelo_inurba_marseille","lat":43.32104,"lon":5.36773,"is_reserved":false,"is_disabled":false,"rental_uris":{"android":"levelo://app?vid=d177b05d-4d98-41d9-afc1-f7474fca66ea","ios":"levelo://app?vid=d177b05d-4d98-41d9-afc1-f7474fca66ea"},"vehicle_type_id":"4","last_reported":1731488961,"current_range_meters":17600,"station_id":"ce4bhrh2rcd13ifvqhug","pricing_plan_id":"cebpf4jnsgd1na2vs0mg"},{"bike_id":"a249744d-84d4-4fa8-a6cb-4941aaf23288","system_id":"levelo_inurba_marseille","lat":43.245998,"lon":5.39488,"is_reserved":false,"is_disabled":false,"rental_uris":{"android":"levelo://app?vid=a249744d-84d4-4fa8-a6cb-4941aaf23288","ios":"levelo://app?vid=a249744d-84d4-4fa8-a6cb-4941aaf23288"},"vehicle_type_id":"4","last_reported":1731488961,"current_range_meters":26000,"station_id":"ce4bhlp2rcd13ifvqgjg","pricing_plan_id":"cebpf4jnsgd1na2vs0mg"},{"bike_id":"f56ff641-dcdc-4be0-8bb0-c2e77410c782","system_id":"levelo_inurba_marseille","lat":43.33609,"lon":5.41034,"is_reserved":false,"is_disabled":false,"rental_uris":{"android":"levelo://app?vid=f56ff641-dcdc-4be0-8bb0-c2e77410c782","ios":"levelo://app?vid=f56ff641-dcdc-4be0-8bb0-c2e77410c782"},"vehicle_type_id":"4","last_reported":1731488961,"current_range_meters":40000,"station_id":"ce4bhqh2rcd13ifvqhmg","pricing_plan_id":"cebpf4jnsgd1na2vs0mg"},{"bike_id":"c3c14c12-7734-406b-803f-dbe7a7fb811d","system_id":"levelo_inurba_marseille","lat":43.33607,"lon":5.41026,"is_reserved":false,"is_disabled":false,"rental_uris":{"android":"levelo://app?vid=c3c14c12-7734-406b-803f-dbe7a7fb811d","ios":"levelo://app?vid=c3c14c12-7734-406b-803f-dbe7a7fb811d"},"vehicle_type_id":"4","last_reported":1731488961,"current_range_meters":37600,"station_id":"ce4bhqh2rcd13ifvqhmg","pricing_plan_id":"cebpf4jnsgd1na2vs0mg"},{"bike_id":"9b452118-9baf-4509-918d-f235cbada501","system_id":"levelo_inurba_marseille","lat":43.30272,"lon":5.37689,"is_reserved":false,"is_disabled":false,"rental_uris":{"android":"levelo://app?vid=9b452118-9baf-4509-918d-f235cbada501","ios":"levelo://app?vid=9b452118-9baf-4509-918d-f235cbada501"},"vehicle_type_id":"4","last_reported":1731488961,"current_range_meters":27600,"station_id":"ce4bguh2rcd13ifvqcj0","pricing_plan_id":"cebpf4jnsgd1na2vs0mg"},{"bike_id":"a756576d-533a-4a1b-bd7b-7449938a3907","system_id":"levelo_inurba_marseille","lat":43.31344,"lon":5.36721,"is_reserved":false,"is_disabled":false,"rental_uris":{"android":"levelo://app?vid=a756576d-533a-4a1b-bd7b-7449938a3907","ios":"levelo://app?vid=a756576d-533a-4a1b-bd7b-7449938a3907"},"vehicle_type_id":"4","last_reported":1731488961,"current_range_meters":13600,"station_id":"ce4bgr92rcd13ifvqc6g","pricing_plan_id":"cebpf4jnsgd1na2vs0mg"},{"bike_id":"c041a2d9-6de7-4f01-a9ca-65bf10f90146","system_id":"levelo_inurba_marseille","lat":43.27931,"lon":5.41047,"is_reserved":false,"is_disabled":false,"rental_uris":{"android":"levelo://app?vid=c041a2d9-6de7-4f01-a9ca-65bf10f90146","ios":"levelo://app?vid=c041a2d9-6de7-4f01-a9ca-65bf10f90146"},"vehicle_type_id":"4","last_reported":1731488961,"current_range_meters":30400,"station_id":"ce4bhnp2rcd13ifvqh0g","pricing_plan_id":"cebpf4jnsgd1na2vs0mg"},{"bike_id":"32bff4c9-9e24-4055-bdf4-09829843cde3","system_id":"levelo_inurba_marseille","lat":43.2842,"lon":5.3499,"is_reserved":false,"is_disabled":false,"rental_uris":{"android":"levelo://app?vid=32bff4c9-9e24-4055-bdf4-09829843cde3","ios":"levelo://app?vid=32bff4c9-9e24-4055-bdf4-09829843cde3"},"vehicle_type_id":"4","last_reported":1731488961,"current_range_meters":37600,"station_id":"ce4bhbh2rcd13ifvqepg","pricing_plan_id":"cebpf4jnsgd1na2vs0mg"},{"bike_id":"b9b9ca99-abc1-4d74-b34d-2422c7c3d10f","system_id":"levelo_inurba_marseille","lat":43.32363,"lon":5.36762,"is_reserved":false,"is_disabled":false,"rental_uris":{"android":"levelo://app?vid=b9b9ca99-abc1-4d74-b34d-2422c7c3d10f","ios":"levelo://app?vid=b9b9ca99-abc1-4d74-b34d-2422c7c3d10f"},"vehicle_type_id":"4","last_reported":1731488961,"current_range_meters":32800,"station_id":"ce4bhsh2rcd13ifvqi2g","pricing_plan_id":"cebpf4jnsgd1na2vs0mg"},{"bike_id":"17f71d8c-8c07-499e-92b8-e7249f77026e","system_id":"levelo_inurba_marseille","lat":43.29275,"lon":5.3684,"is_reserved":false,"is_disabled":false,"rental_uris":{"android":"levelo://app?vid=17f71d8c-8c07-499e-92b8-e7249f77026e","ios":"levelo://app?vid=17f71d8c-8c07-499e-92b8-e7249f77026e"},"vehicle_type_id":"4","last_reported":1731488961,"current_range_meters":36800,"station_id":"ce4bhbp2rcd13ifvqesg","pricing_plan_id":"cebpf4jnsgd1na2vs0mg"},{"bike_id":"a7e2f924-4d68-4380-95c4-2ac9d12fffa0","system_id":"levelo_inurba_marseille","lat":43.283119,"lon":5.381067,"is_reserved":false,"is_disabled":false,"rental_uris":{"android":"levelo://app?vid=a7e2f924-4d68-4380-95c4-2ac9d12fffa0","ios":"levelo://app?vid=a7e2f924-4d68-4380-95c4-2ac9d12fffa0"},"vehicle_type_id":"4","last_reported":1731488961,"current_range_meters":33600,"station_id":"ce4bhh92rcd13ifvqfj0","pricing_plan_id":"cebpf4jnsgd1na2vs0mg"},{"bike_id":"1b6aedf9-aa79-4e62-b4b6-0d4304a12219","system_id":"levelo_inurba_marseille","lat":43.31232,"lon":5.36852,"is_reserved":false,"is_disabled":false,"rental_uris":{"android":"levelo://app?vid=1b6aedf9-aa79-4e62-b4b6-0d4304a12219","ios":"levelo://app?vid=1b6aedf9-aa79-4e62-b4b6-0d4304a12219"},"vehicle_type_id":"4","last_reported":1731488961,"current_range_meters":17600,"station_id":"ce4bgl92rcd13ifvqbq0","pricing_plan_id":"cebpf4jnsgd1na2vs0mg"},{"bike_id":"3a607f35-6d4a-48da-89e5-3cc33ca013bb","system_id":"levelo_inurba_marseille","lat":43.24081,"lon":5.37739,"is_reserved":false,"is_disabled":false,"rental_uris":{"android":"levelo://app?vid=3a607f35-6d4a-48da-89e5-3cc33ca013bb","ios":"levelo://app?vid=3a607f35-6d4a-48da-89e5-3cc33ca013bb"},"vehicle_type_id":"4","last_reported":1731488961,"current_range_meters":37600,"station_id":"ce4bhnp2rcd13ifvqgvg","pricing_plan_id":"cebpf4jnsgd1na2vs0mg"},{"bike_id":"0abc7890-6052-4899-9333-58f0b9531924","system_id":"levelo_inurba_marseille","lat":43.28156,"lon":5.42646,"is_reserved":false,"is_disabled":false,"rental_uris":{"android":"levelo://app?vid=0abc7890-6052-4899-9333-58f0b9531924","ios":"levelo://app?vid=0abc7890-6052-4899-9333-58f0b9531924"},"vehicle_type_id":"4","last_reported":1731488961,"current_range_meters":15200,"station_id":"ce4bhnh2rcd13ifvqgug","pricing_plan_id":"cebpf4jnsgd1na2vs0mg"},{"bike_id":"ed45035b-d463-40e7-bd2f-cc34e7ee88b0","system_id":"levelo_inurba_marseille","lat":43.27939,"lon":5.41051,"is_reserved":false,"is_disabled":false,"rental_uris":{"android":"levelo://app?vid=ed45035b-d463-40e7-bd2f-cc34e7ee88b0","ios":"levelo://app?vid=ed45035b-d463-40e7-bd2f-cc34e7ee88b0"},"vehicle_type_id":"4","last_reported":1731488961,"current_range_meters":10800,"station_id":"ce4bhnp2rcd13ifvqh0g","pricing_plan_id":"cebpf4jnsgd1na2vs0mg"},{"bike_id":"f831b306-17b6-4b94-9078-203b7a3d86b4","system_id":"levelo_inurba_marseille","lat":43.2904,"lon":5.37561,"is_reserved":false,"is_disabled":false,"rental_uris":{"android":"levelo://app?vid=f831b306-17b6-4b94-9078-203b7a3d86b4","ios":"levelo://app?vid=f831b306-17b6-4b94-9078-203b7a3d86b4"},"vehicle_type_id":"4","last_reported":1731488961,"current_range_meters":38000,"station_id":"ce4bh692rcd13ifvqe90","pricing_plan_id":"cebpf4jnsgd1na2vs0mg"},{"bike_id":"857cf3b8-a499-4f71-a4af-951511031286","system_id":"levelo_inurba_marseille","lat":43.32485,"lon":5.36572,"is_reserved":false,"is_disabled":false,"rental_uris":{"android":"levelo://app?vid=857cf3b8-a499-4f71-a4af-951511031286","ios":"levelo://app?vid=857cf3b8-a499-4f71-a4af-951511031286"},"vehicle_type_id":"4","last_reported":1731488961,"current_range_meters":38400,"station_id":"ce4bhs12rcd13ifvqhvg","pricing_plan_id":"cebpf4jnsgd1na2vs0mg"},{"bike_id":"2baa5d60-52b4-47b5-9521-77790ea643fc","system_id":"levelo_inurba_marseille","lat":43.28607,"lon":5.37068,"is_reserved":false,"is_disabled":false,"rental_uris":{"android":"levelo://app?vid=2baa5d60-52b4-47b5-9521-77790ea643fc","ios":"levelo://app?vid=2baa5d60-52b4-47b5-9521-77790ea643fc"},"vehicle_type_id":"4","last_reported":1731488961,"current_range_meters":38400,"station_id":"ce4bht12rcd13ifvqi60","pricing_plan_id":"cebpf4jnsgd1na2vs0mg"},{"bike_id":"4aed7d47-090b-464a-a186-6ccb8eb001ad","system_id":"levelo_inurba_marseille","lat":43.25588,"lon":5.38218,"is_reserved":false,"is_disabled":false,"rental_uris":{"android":"levelo://app?vid=4aed7d47-090b-464a-a186-6ccb8eb001ad","ios":"levelo://app?vid=4aed7d47-090b-464a-a186-6ccb8eb001ad"},"vehicle_type_id":"4","last_reported":1731488961,"current_range_meters":8400,"station_id":"ce4bhih2rcd13ifvqfs0","pricing_plan_id":"cebpf4jnsgd1na2vs0mg"},{"bike_id":"d7796417-a864-41b8-a5d6-3cd8d3869a9c","system_id":"levelo_inurba_marseille","lat":43.26198,"lon":5.37444,"is_reserved":false,"is_disabled":false,"rental_uris":{"android":"levelo://app?vid=d7796417-a864-41b8-a5d6-3cd8d3869a9c","ios":"levelo://app?vid=d7796417-a864-41b8-a5d6-3cd8d3869a9c"},"vehicle_type_id":"4","last_reported":1731488961,"current_range_meters":38400,"station_id":"ce4bhgp2rcd13ifvqfc0","pricing_plan_id":"cebpf4jnsgd1na2vs0mg"},{"bike_id":"e437cae9-b2c8-41da-b2a1-d989071addc7","system_id":"levelo_inurba_marseille","lat":43.29702,"lon":5.377,"is_reserved":false,"is_disabled":false,"rental_uris":{"android":"levelo://app?vid=e437cae9-b2c8-41da-b2a1-d989071addc7","ios":"levelo://app?vid=e437cae9-b2c8-41da-b2a1-d989071addc7"},"vehicle_type_id":"4","last_reported":1731488961,"current_range_meters":9600,"station_id":"ce4bgkh2rcd13ifvqbl0","pricing_plan_id":"cebpf4jnsgd1na2vs0mg"},{"bike_id":"899d03ea-53ea-4f88-b80d-280daec6431e","system_id":"levelo_inurba_marseille","lat":43.25009,"lon":5.38931,"is_reserved":false,"is_disabled":false,"rental_uris":{"android":"levelo://app?vid=899d03ea-53ea-4f88-b80d-280daec6431e","ios":"levelo://app?vid=899d03ea-53ea-4f88-b80d-280daec6431e"},"vehicle_type_id":"4","last_reported":1731488961,"current_range_meters":12400,"station_id":"ce4bhgp2rcd13ifvqfd0","pricing_plan_id":"cebpf4jnsgd1na2vs0mg"},{"bike_id":"ab57ed92-6779-4ff1-ae53-2b4c894439be","system_id":"levelo_inurba_marseille","lat":43.29027,"lon":5.38132,"is_reserved":false,"is_disabled":false,"rental_uris":{"android":"levelo://app?vid=ab57ed92-6779-4ff1-ae53-2b4c894439be","ios":"levelo://app?vid=ab57ed92-6779-4ff1-ae53-2b4c894439be"},"vehicle_type_id":"4","last_reported":1731488961,"current_range_meters":2000,"station_id":"ce4bh4p2rcd13ifvqe1g","pricing_plan_id":"cebpf4jnsgd1na2vs0mg"},{"bike_id":"ac6cf911-e0a0-4e3e-9f38-c5126ef93711","system_id":"levelo_inurba_marseille","lat":43.25828,"lon":5.39435,"is_reserved":false,"is_disabled":false,"rental_uris":{"android":"levelo://app?vid=ac6cf911-e0a0-4e3e-9f38-c5126ef93711","ios":"levelo://app?vid=ac6cf911-e0a0-4e3e-9f38-c5126ef93711"},"vehicle_type_id":"4","last_reported":1731488961,"current_range_meters":38000,"station_id":"ce4bhip2rcd13ifvqft0","pricing_plan_id":"cebpf4jnsgd1na2vs0mg"},{"bike_id":"5d1f4316-b04e-4ffe-949b-df676969a7da","system_id":"levelo_inurba_marseille","lat":43.27378,"lon":5.3626,"is_reserved":false,"is_disabled":false,"rental_uris":{"android":"levelo://app?vid=5d1f4316-b04e-4ffe-949b-df676969a7da","ios":"levelo://app?vid=5d1f4316-b04e-4ffe-949b-df676969a7da"},"vehicle_type_id":"4","last_reported":1731488961,"current_range_meters":37600,"station_id":"ce4bhbh2rcd13ifvqeo0","pricing_plan_id":"cebpf4jnsgd1na2vs0mg"},{"bike_id":"0e313544-e805-48d9-bdbf-3a91a91ababc","system_id":"levelo_inurba_marseille","lat":43.33752,"lon":5.3744,"is_reserved":false,"is_disabled":false,"rental_uris":{"android":"levelo://app?vid=0e313544-e805-48d9-bdbf-3a91a91ababc","ios":"levelo://app?vid=0e313544-e805-48d9-bdbf-3a91a91ababc"},"vehicle_type_id":"4","last_reported":1731488961,"current_range_meters":37600,"station_id":"","pricing_plan_id":"cebpf4jnsgd1na2vs0mg"},{"bike_id":"9613dd1a-bd7a-4888-bb49-4b8b286b96bb","system_id":"levelo_inurba_marseille","lat":43.2861,"lon":5.37062,"is_reserved":false,"is_disabled":false,"rental_uris":{"android":"levelo://app?vid=9613dd1a-bd7a-4888-bb49-4b8b286b96bb","ios":"levelo://app?vid=9613dd1a-bd7a-4888-bb49-4b8b286b96bb"},"vehicle_type_id":"4","last_reported":1731488961,"current_range_meters":39200,"station_id":"ce4bht12rcd13ifvqi60","pricing_plan_id":"cebpf4jnsgd1na2vs0mg"},{"bike_id":"f6edf606-16d2-423e-bed1-ba33d150bbe6","system_id":"levelo_inurba_marseille","lat":43.32287,"lon":5.38266,"is_reserved":false,"is_disabled":false,"rental_uris":{"android":"levelo://app?vid=f6edf606-16d2-423e-bed1-ba33d150bbe6","ios":"levelo://app?vid=f6edf606-16d2-423e-bed1-ba33d150bbe6"},"vehicle_type_id":"4","last_reported":1731488961,"current_range_meters":24400,"station_id":"ce4bhr12rcd13ifvqhqg","pricing_plan_id":"cebpf4jnsgd1na2vs0mg"},{"bike_id":"64c24dce-9880-4080-9ced-fb18081d5156","system_id":"levelo_inurba_marseille","lat":43.30802,"lon":5.43518,"is_reserved":false,"is_disabled":false,"rental_uris":{"android":"levelo://app?vid=64c24dce-9880-4080-9ced-fb18081d5156","ios":"levelo://app?vid=64c24dce-9880-4080-9ced-fb18081d5156"},"vehicle_type_id":"4","last_reported":1731488961,"current_range_meters":3200,"station_id":"ce4bhph2rcd13ifvqheg","pricing_plan_id":"cebpf4jnsgd1na2vs0mg"},{"bike_id":"37383ee0-13a4-482d-b641-8aab3ea097cb","system_id":"levelo_inurba_marseille","lat":43.3127,"lon":5.40165,"is_reserved":false,"is_disabled":false,"rental_uris":{"android":"levelo://app?vid=37383ee0-13a4-482d-b641-8aab3ea097cb","ios":"levelo://app?vid=37383ee0-13a4-482d-b641-8aab3ea097cb"},"vehicle_type_id":"4","last_reported":1731488961,"current_range_meters":27200,"station_id":"ce4bh092rcd13ifvqd30","pricing_plan_id":"cebpf4jnsgd1na2vs0mg"},{"bike_id":"4eda264a-c30d-4a08-980f-e8e91ab8af96","system_id":"levelo_inurba_marseille","lat":43.262,"lon":5.37933,"is_reserved":false,"is_disabled":false,"rental_uris":{"android":"levelo://app?vid=4eda264a-c30d-4a08-980f-e8e91ab8af96","ios":"levelo://app?vid=4eda264a-c30d-4a08-980f-e8e91ab8af96"},"vehicle_type_id":"4","last_reported":1731488961,"current_range_meters":10800,"station_id":"ce4bhjp2rcd13ifvqg90","pricing_plan_id":"cebpf4jnsgd1na2vs0mg"},{"bike_id":"311f6e33-4563-4653-a2c2-83cd371818e3","system_id":"levelo_inurba_marseille","lat":43.33724,"lon":5.39187,"is_reserved":false,"is_disabled":false,"rental_uris":{"android":"levelo://app?vid=311f6e33-4563-4653-a2c2-83cd371818e3","ios":"levelo://app?vid=311f6e33-4563-4653-a2c2-83cd371818e3"},"vehicle_type_id":"4","last_reported":1731488961,"current_range_meters":37600,"station_id":"ce4bhr92rcd13ifvqhsg","pricing_plan_id":"cebpf4jnsgd1na2vs0mg"},{"bike_id":"31b94b93-dd2c-4506-8440-82d10d6bb2ed","system_id":"levelo_inurba_marseille","lat":43.33006,"lon":5.39039,"is_reserved":false,"is_disabled":false,"rental_uris":{"android":"levelo://app?vid=31b94b93-dd2c-4506-8440-82d10d6bb2ed","ios":"levelo://app?vid=31b94b93-dd2c-4506-8440-82d10d6bb2ed"},"vehicle_type_id":"4","last_reported":1731488961,"current_range_meters":37600,"station_id":"ce4bhr92rcd13ifvqhrg","pricing_plan_id":"cebpf4jnsgd1na2vs0mg"},{"bike_id":"6dd3ef3a-7b7b-4d09-ba67-d70c01d05634","system_id":"levelo_inurba_marseille","lat":43.341877,"lon":5.38601,"is_reserved":false,"is_disabled":false,"rental_uris":{"android":"levelo://app?vid=6dd3ef3a-7b7b-4d09-ba67-d70c01d05634","ios":"levelo://app?vid=6dd3ef3a-7b7b-4d09-ba67-d70c01d05634"},"vehicle_type_id":"4","last_reported":1731488961,"current_range_meters":4800,"station_id":"","pricing_plan_id":"cebpf4jnsgd1na2vs0mg"},{"bike_id":"6616d280-3bfb-4a9a-b235-97340e4ef268","system_id":"levelo_inurba_marseille","lat":43.24081,"lon":5.37757,"is_reserved":false,"is_disabled":false,"rental_uris":{"android":"levelo://app?vid=6616d280-3bfb-4a9a-b235-97340e4ef268","ios":"levelo://app?vid=6616d280-3bfb-4a9a-b235-97340e4ef268"},"vehicle_type_id":"4","last_reported":1731488961,"current_range_meters":27600,"station_id":"ce4bhnp2rcd13ifvqgvg","pricing_plan_id":"cebpf4jnsgd1na2vs0mg"},{"bike_id":"1e554354-663d-49f2-b63b-cb4ffc847ae3","system_id":"levelo_inurba_marseille","lat":43.258294,"lon":5.394397,"is_reserved":false,"is_disabled":false,"rental_uris":{"android":"levelo://app?vid=1e554354-663d-49f2-b63b-cb4ffc847ae3","ios":"levelo://app?vid=1e554354-663d-49f2-b63b-cb4ffc847ae3"},"vehicle_type_id":"4","last_reported":1731488961,"current_range_meters":39200,"station_id":"ce4bhip2rcd13ifvqft0","pricing_plan_id":"cebpf4jnsgd1na2vs0mg"},