{"last_updated":1747189682,"ttl":60,"version":"2.2","data":{"bikes":[{"bike_id":"e2d041cb-aea3-459c-9597-774dc8a981b5","system_id":"levelo_inurba_marseille","lat":43.265602,"lon":5.372857,"is_reserved":false,"is_disabled":false,"rental_uris":{"android":"levelo://app?vid=e2d041cb-aea3-459c-9597-774dc8a981b5","ios":"levelo://app?vid=e2d041cb-aea3-459c-9597-774dc8a981b5"},"vehicle_type_id":"4","last_reported":1747189682,"current_range_meters":2800,"station_id":"ce4bhg12rcd13ifvqf70","pricing_plan_id":"cebpf4jnsgd1na2vs0mg"},{"bike_id":"23cd9e42-8b40-4ee5-b565-9fe81eb64db7","system_id":"levelo_inurba_marseille","lat":43.25332,"lon":5.37646,"is_reserved":false,"is_disabled":false,"rental_uris":{"android":"levelo://app?vid=23cd9e42-8b40-4ee5-b565-9fe81eb64db7","ios":"levelo://app?vid=23cd9e42-8b40-4ee5-b565-9fe81eb64db7"},"vehicle_type_id":"4","last_reported":1747189682,"current_range_meters":2800,"station_id":"","pricing_plan_id":"cebpf4jnsgd1na2vs0mg"},{"bike_id":"679a1652-9834-4e25-8720-e5f793f672e7","system_id":"levelo_inurba_marseille","lat":43.25069,"lon":5.39528,"is_reserved":false,"is_disabled":false,"rental_uris":{"android":"levelo://app?vid=679a1652-9834-4e25-8720-e5f793f672e7","ios":"levelo://app?vid=679a1652-9834-4e25-8720-e5f793f672e7"},"vehicle_type_id":"4","last_reported":1747189682,"current_range_meters":3200,"station_id":"ce4bhm12rcd13ifvqgkg","pricing_plan_id":"cebpf4jnsgd1na2vs0mg"},{"bike_id":"6861c2ae-b8dd-4ed0-86d9-03af359f7503","system_id":"levelo_inurba_marseille","lat":43.24059,"lon":5.3777,"is_reserved":false,"is_disabled":false,"rental_uris":{"android":"levelo://app?vid=6861c2ae-b8dd-4ed0-86d9-03af359f7503","ios":"levelo://app?vid=6861c2ae-b8dd-4ed0-86d9-03af359f7503"},"vehicle_type_id":"4","last_reported":1747189682,"current_range_meters":3200,"station_id":"ce4bhnp2rcd13ifvqgvg","pricing_plan_id":"cebpf4jnsgd1na2vs0mg"},{"bike_id":"3071c56b-ce80-4fb6-b5b1-b157555fc3f4","system_id":"levelo_inurba_marseille","lat":43.24545,"lon":5.3952,"is_reserved":false,"is_disabled":false,"rental_uris":{"android":"levelo://app?vid=3071c56b-ce80-4fb6-b5b1-b157555fc3f4","ios":"levelo://app?vid=3071c56b-ce80-4fb6-b5b1-b157555fc3f4"},"vehicle_type_id":"4","last_reported":1747189682,"current_range_meters":3200,"station_id":"ce4bhlp2rcd13ifvqgjg","pricing_plan_id":"cebpf4jnsgd1na2vs0mg"},{"bike_id":"9a55e5e6-457b-4535-b7b7-fd36234274f4","system_id":"levelo_inurba_marseille","lat":43.30791,"lon":5.38166,"is_reserved":false,"is_disabled":true,"rental_uris":{"android":"levelo://app?vid=9a55e5e6-457b-4535-b7b7-fd36234274f4","ios":"levelo://app?vid=9a55e5e6-457b-4535-b7b7-fd36234274f4"},"vehicle_type_id":"4","last_reported":1747189682,"current_range_meters":3600,"station_id":"ce4bgt12rcd13ifvqce0","pricing_plan_id":"cebpf4jnsgd1na2vs0mg"},{"bike_id":"20e364b9-9bca-4365-866b-4ccf9399ec0a","system_id":"levelo_inurba_marseille","lat":43.2794,"lon":5.4104,"is_reserved":false,"is_disabled":false,"rental_uris":{"android":"levelo://app?vid=20e364b9-9bca-4365-866b-4ccf9399ec0a","ios":"levelo://app?vid=20e364b9-9bca-4365-866b-4ccf9399ec0a"},"vehicle_type_id":"4","last_reported":1747189682,"current_range_meters":3600,"station_id":"ce4bhnp2rcd13ifvqh0g","pricing_plan_id":"cebpf4jnsgd1na2vs0mg"},{"bike_id":"764a7013-3fc3-4d32-b171-097f58534232","system_id":"levelo_inurba_marseille","lat":43.28069,"lon":5.39656,"is_reserved":false,"is_disabled":false,"rental_uris":{"android":"levelo://app?vid=764a7013-3fc3-4d32-b171-097f58534232","ios":"levelo://app?vid=764a7013-3fc3-4d32-b171-097f58534232"},"vehicle_type_id":"4","last_reported":1747189682,"current_range_meters":4000,"station_id":"ce4bho12rcd13ifvqh2g","pricing_plan_id":"cebpf4jnsgd1na2vs0mg"},{"bike_id":"324038b2-dc71-420d-8274-5f30ae59c210","system_id":"levelo_inurba_marseille","lat":43.25105,"lon":5.40329,"is_reserved":false,"is_disabled":false,"rental_uris":{"android":"levelo://app?vid=324038b2-dc71-420d-8274-5f30ae59c210","ios":"levelo://app?vid=324038b2-dc71-420d-8274-5f30ae59c210"},"vehicle_type_id":"4","last_reported":1747189682,"current_range_meters":4800,"station_id":"ce4bhlh2rcd13ifvqgig","pricing_plan_id":"cebpf4jnsgd1na2vs0mg"},{"bike_id":"abe19c7b-dd48-4f23-ad5b-10c07cbeffa6","system_id":"levelo_inurba_marseille","lat":43.29597,"lon":5.37847,"is_reserved":false,"is_disabled":false,"rental_uris":{"android":"levelo://app?vid=abe19c7b-dd48-4f23-ad5b-10c07cbeffa6","ios":"levelo://app?vid=abe19c7b-dd48-4f23-ad5b-10c07cbeffa6"},"vehicle_type_id":"4","last_reported":1747189682,"current_range_meters":6000,"station_id":"","pricing_plan_id":"cebpf4jnsgd1na2vs0mg"},{"bike_id":"d991382c-9312-4a59-b021-052b5426210e","system_id":"levelo_inurba_marseille","lat":43.26041,"lon":5.39409,"is_reserved":false,"is_disabled":false,"rental_uris":{"android":"levelo://app?vid=d991382c-9312-4a59-b021-052b5426210e","ios":"levelo://app?vid=d991382c-9312-4a59-b021-052b5426210e"},"vehicle_type_id":"4","last_reported":1747189682,"current_range_meters":6400,"station_id":"ce4bhh92rcd13ifvqfj0","pricing_plan_id":"cebpf4jnsgd1na2vs0mg"},{"bike_id":"4a7a989c-172d-4f21-a17f-a1e0e81980c4","system_id":"levelo_inurba_marseille","lat":43.25863,"lon":5.39926,"is_reserved":false,"is_disabled":false,"rental_uris":{"android":"levelo://app?vid=4a7a989c-172d-4f21-a17f-a1e0e81980c4","ios":"levelo://app?vid=4a7a989c-172d-4f21-a17f-a1e0e81980c4"},"vehicle_type_id":"4","last_reported":1747189682,"current_range_meters":6400,"station_id":"ce4bhl92rcd13ifvqghg","pricing_plan_id":"cebpf4jnsgd1na2vs0mg"},{"bike_id":"74ce7741-5813-4b25-8268-d773ddb37d17","system_id":"levelo_inurba_marseille","lat":43.30205,"lon":5.4539,"is_reserved":false,"is_disabled":false,"rental_uris":{"android":"levelo://app?vid=74ce7741-5813-4b25-8268-d773ddb37d17","ios":"levelo://app?vid=74ce7741-5813-4b25-8268-d773ddb37d17"},"vehicle_type_id":"4","last_reported":1747189682,"current_range_meters":6400,"station_id":"","pricing_plan_id":"cebpf4jnsgd1na2vs0mg"},{"bike_id":"e42e17e5-d574-40b9-811b-e914acd6632f","system_id":"levelo_inurba_marseille","lat":43.230503,"lon":5.354949,"is_reserved":false,"is_disabled":false,"rental_uris":{"android":"levelo://app?vid=e42e17e5-d574-40b9-811b-e914acd6632f","ios":"levelo://app?vid=e42e17e5-d574-40b9-811b-e914acd6632f"},"vehicle_type_id":"4","last_reported":1747189682,"current_range_meters":6800,"station_id":"cpo3342slgdg3j2ifvpg","pricing_plan_id":"cebpf4jnsgd1na2vs0mg"},{"bike_id":"bd790923-84de-4063-9c5a-d40660043ea8","system_id":"levelo_inurba_marseille","lat":43.24534,"lon":5.39519,"is_reserved":false,"is_disabled":false,"rental_uris":{"android":"levelo://app?vid=bd790923-84de-4063-9c5a-d40660043ea8","ios":"levelo://app?vid=bd790923-84de-4063-9c5a-d40660043ea8"},"vehicle_type_id":"4","last_reported":1747189682,"current_range_meters":6800,"station_id":"ce4bhlp2rcd13ifvqgjg","pricing_plan_id":"cebpf4jnsgd1na2vs0mg"},{"bike_id":"597e7865-b942-4532-81ea-d2c26c4cbf33","system_id":"levelo_inurba_marseille","lat":43.2407,"lon":5.37762,"is_reserved":false,"is_disabled":false,"rental_uris":{"android":"levelo://app?vid=597e7865-b942-4532-81ea-d2c26c4cbf33","ios":"levelo://app?vid=597e7865-b942-4532-81ea-d2c26c4cbf33"},"vehicle_type_id":"4","last_reported":1747189682,"current_range_meters":7200,"station_id":"ce4bhnp2rcd13ifvqgvg","pricing_plan_id":"cebpf4jnsgd1na2vs0mg"},{"bike_id":"581fa52b-d332-45e3-9d7f-f18fbfd08e95","system_id":"levelo_inurba_marseille","lat":43.34128,"lon":5.40925,"is_reserved":false,"is_disabled":true,"rental_uris":{"android":"levelo://app?vid=581fa52b-d332-45e3-9d7f-f18fbfd08e95","ios":"levelo://app?vid=581fa52b-d332-45e3-9d7f-f18fbfd08e95"},"vehicle_type_id":"4","last_reported":1747189682,"current_range_meters":7200,"station_id":"ce4bhqh2rcd13ifvqhlg","pricing_plan_id":"cebpf4jnsgd1na2vs0mg"},{"bike_id":"7100f54c-b0ff-47c7-bfce-e9e46a62d28d","system_id":"levelo_inurba_marseille","lat":43.30211,"lon":5.39464,"is_reserved":false,"is_disabled":false,"rental_uris":{"android":"levelo://app?vid=7100f54c-b0ff-47c7-bfce-e9e46a62d28d","ios":"levelo://app?vid=7100f54c-b0ff-47c7-bfce-e9e46a62d28d"},"vehicle_type_id":"4","last_reported":1747189682,"current_range_meters":7200,"station_id":"ce4bh0p2rcd13ifvqd70","pricing_plan_id":"cebpf4jnsgd1na2vs0mg"},{"bike_id":"a4788589-db0c-43f6-9ae1-d181d3cfcd08","system_id":"levelo_inurba_marseille","lat":43.26989,"lon":5.36638,"is_reserved":false,"is_disabled":false,"rental_uris":{"android":"levelo://app?vid=a4788589-db0c-43f6-9ae1-d181d3cfcd08","ios":"levelo://app?vid=a4788589-db0c-43f6-9ae1-d181d3cfcd08"},"vehicle_type_id":"4","last_reported":1747189682,"current_range_meters":7200,"station_id":"","pricing_plan_id":"cebpf4jnsgd1na2vs0mg"},{"bike_id":"23bfae5d-adbc-487a-a024-c8962e33e86d","system_id":"levelo_inurba_marseille","lat":43.24641,"lon":5.38912,"is_reserved":false,"is_disabled":false,"rental_uris":{"android":"levelo://app?vid=23bfae5d-adbc-487a-a024-c8962e33e86d","ios":"levelo://app?vid=23bfae5d-adbc-487a-a024-c8962e33e86d"},"vehicle_type_id":"4","last_reported":1747189682,"current_range_meters":8000,"station_id":"ce4bhg12rcd13ifvqf60","pricing_plan_id":"cebpf4jnsgd1na2vs0mg"},{"bike_id":"9aba25c8-ec36-4940-ad29-07cd209e024f","system_id":"levelo_inurba_marseille","lat":43.239656,"lon":5.366337,"is_reserved":false,"is_disabled":false,"rental_uris":{"android":"levelo://app?vid=9aba25c8-ec36-4940-ad29-07cd209e024f","ios":"levelo://app?vid=9aba25c8-ec36-4940-ad29-07cd209e024f"},"vehicle_type_id":"4","last_reported":1747189682,"current_range_meters":8000,"station_id":"ce4bhi12rcd13ifvqfp0","pricing_plan_id":"cebpf4jnsgd1na2vs0mg"},{"bike_id":"ce4325af-2448-4172-bdec-81d552ee0b62","system_id":"levelo_inurba_marseille","lat":43.26158,"lon":5.42029,"is_reserved":false,"is_disabled":false,"rental_uris":{"android":"levelo://app?vid=ce4325af-2448-4172-bdec-81d552ee0b62","ios":"levelo://app?vid=ce4325af-2448-4172-bdec-81d552ee0b62"},"vehicle_type_id":"4","last_reported":1747189682,"current_range_meters":8000,"station_id":"","pricing_plan_id":"cebpf4jnsgd1na2vs0mg"},{"bike_id":"a252ee44-b8c3-4556-a12c-5f4f5dc85b27","system_id":"levelo_inurba_marseille","lat":43.3062,"lon":5.40089,"is_reserved":false,"is_disabled":false,"rental_uris":{"android":"levelo://app?vid=a252ee44-b8c3-4556-a12c-5f4f5dc85b27","ios":"levelo://app?vid=a252ee44-b8c3-4556-a12c-5f4f5dc85b27"},"vehicle_type_id":"4","last_reported":1747189682,"current_range_meters":8400,"station_id":"ce4bh112rcd13ifvqda0","pricing_plan_id":"cebpf4jnsgd1na2vs0mg"},{"bike_id":"7f7cd8c7-120d-4ea6-957a-e8facbf3a71d","system_id":"levelo_inurba_marseille","lat":43.31489,"lon":5.37307,"is_reserved":false,"is_disabled":false,"rental_uris":{"android":"levelo://app?vid=7f7cd8c7-120d-4ea6-957a-e8facbf3a71d","ios":"levelo://app?vid=7f7cd8c7-120d-4ea6-957a-e8facbf3a71d"},"vehicle_type_id":"4","last_reported":1747189682,"current_range_meters":8400,"station_id":"ce4bgt12rcd13ifvqcd0","pricing_plan_id":"cebpf4jnsgd1na2vs0mg"},{"bike_id":"a2ae26c9-3a89-4142-a096-4b0533460118","system_id":"levelo_inurba_marseille","lat":43.27034,"lon":5.40261,"is_reserved":false,"is_disabled":false,"rental_uris":{"android":"levelo://app?vid=a2ae26c9-3a89-4142-a096-4b0533460118","ios":"levelo://app?vid=a2ae26c9-3a89-4142-a096-4b0533460118"},"vehicle_type_id":"4","last_reported":1747189682,"current_range_meters":8400,"station_id":"ce4bhk92rcd13ifvqgc0","pricing_plan_id":"cebpf4jnsgd1na2vs0mg"},{"bike_id":"96ffb000-4e10-4fec-a53d-e6fef8bb424d","system_id":"levelo_inurba_marseille","lat":43.25865,"lon":5.39919,"is_reserved":false,"is_disabled":false,"rental_uris":{"android":"levelo://app?vid=96ffb000-4e10-4fec-a53d-e6fef8bb424d","ios":"levelo://app?vid=96ffb000-4e10-4fec-a53d-e6fef8bb424d"},"vehicle_type_id":"4","last_reported":1747189682,"current_range_meters":8400,"station_id":"ce4bhl92rcd13ifvqghg","pricing_plan_id":"cebpf4jnsgd1na2vs0mg"},{"bike_id":"3e298fff-a6c8-4c84-a257-9c58614d0496","system_id":"levelo_inurba_marseille","lat":43.32088,"lon":5.44091,"is_reserved":false,"is_disabled":false,"rental_uris":{"android":"levelo://app?vid=3e298fff-a6c8-4c84-a257-9c58614d0496","ios":"levelo://app?vid=3e298fff-a6c8-4c84-a257-9c58614d0496"},"vehicle_type_id":"4","last_reported":1747189682,"current_range_meters":8400,"station_id":"","pricing_plan_id":"cebpf4jnsgd1na2vs0mg"},{"bike_id":"a8c7bae6-d983-4f91-a2a9-b8d3f74003b5","system_id":"levelo_inurba_marseille","lat":43.30233,"lon":5.40049,"is_reserved":false,"is_disabled":false,"rental_uris":{"android":"levelo://app?vid=a8c7bae6-d983-4f91-a2a9-b8d3f74003b5","ios":"levelo://app?vid=a8c7bae6-d983-4f91-a2a9-b8d3f74003b5"},"vehicle_type_id":"4","last_reported":1747189682,"current_range_meters":8400,"station_id":"","pricing_plan_id":"cebpf4jnsgd1na2vs0mg"},{"bike_id":"eb050f5c-8fe4-4b4d-ba6e-ec9a1bb9c4cd","system_id":"levelo_inurba_marseille","lat":43.31714,"lon":5.40447,"is_reserved":false,"is_disabled":false,"rental_uris":{"android":"levelo://app?vid=eb050f5c-8fe4-4b4d-ba6e-ec9a1bb9c4cd","ios":"levelo://app?vid=eb050f5c-8fe4-4b4d-ba6e-ec9a1bb9c4cd"},"vehicle_type_id":"4","last_reported":1747189682,"current_range_meters":8400,"station_id":"ce4bh012rcd13ifvqd00","pricing_plan_id":"cebpf4jnsgd1na2vs0mg"},{"bike_id":"c78709f5-2894-4d12-aff9-20e6f85f4ee8","system_id":"levelo_inurba_marseille","lat":43.3091,"lon":5.3959,"is_reserved":false,"is_disabled":false,"rental_uris":{"android":"levelo://app?vid=c78709f5-2894-4d12-aff9-20e6f85f4ee8","ios":"levelo://app?vid=c78709f5-2894-4d12-aff9-20e6f85f4ee8"},"vehicle_type_id":"4","last_reported":1747189682,"current_range_meters":8400,"station_id":"","pricing_plan_id":"cebpf4jnsgd1na2vs0mg"},{"bike_id":"5de1e8df-cec1-47cf-b554-41f6e726d337","system_id":"levelo_inurba_marseille","lat":43.27431,"lon":5.40635,"is_reserved":false,"is_disabled":false,"rental_uris":{"android":"levelo://app?vid=5de1e8df-cec1-47cf-b554-41f6e726d337","ios":"levelo://app?vid=5de1e8df-cec1-47cf-b554-41f6e726d337"},"vehicle_type_id":"4","last_reported":1747189682,"current_range_meters":8400,"station_id":"","pricing_plan_id":"cebpf4jnsgd1na2vs0mg"},{"bike_id":"1466ea0a-656f-485b-939a-7c9e9c76ce64","system_id":"levelo_inurba_marseille","lat":43.318953,"lon":5.407191,"is_reserved":false,"is_disabled":false,"rental_uris":{"android":"levelo://app?vid=1466ea0a-656f-485b-939a-7c9e9c76ce64","ios":"levelo://app?vid=1466ea0a-656f-485b-939a-7c9e9c76ce64"},"vehicle_type_id":"4","last_reported":1747189682,"current_range_meters":8800,"station_id":"ce4bhq12rcd13ifvqhig","pricing_plan_id":"cebpf4jnsgd1na2vs0mg"},{"bike_id":"6e09efd0-ae69-455b-a95f-47dfe1e3828d","system_id":"levelo_inurba_marseille","lat":43.308,"lon":5.4352,"is_reserved":false,"is_disabled":false,"rental_uris":{"android":"levelo://app?vid=6e09efd0-ae69-455b-a95f-47dfe1e3828d","ios":"levelo://app?vid=6e09efd0-ae69-455b-a95f-47dfe1e3828d"},"vehicle_type_id":"4","last_reported":1747189682,"current_range_meters":8800,"station_id":"ce4bhph2rcd13ifvqheg","pricing_plan_id":"cebpf4jnsgd1na2vs0mg"},{"bike_id":"cf338769-a8de-47e3-99f7-f44d43d6f821","system_id":"levelo_inurba_marseille","lat":43.29638,"lon":5.36657,"is_reserved":false,"is_disabled":true,"rental_uris":{"android":"levelo://app?vid=cf338769-a8de-47e3-99f7-f44d43d6f821","ios":"levelo://app?vid=cf338769-a8de-47e3-99f7-f44d43d6f821"},"vehicle_type_id":"4","last_reported":1747189682,"current_range_meters":9200,"station_id":"ce4bgph2rcd13ifvqc2g","pricing_plan_id":"cebpf4jnsgd1na2vs0mg"},{"bike_id":"f4f44ecb-d1f2-458e-9c20-4902d78902fa","system_id":"levelo_inurba_marseille","lat":43.30605,"lon":5.39353,"is_reserved":false,"is_disabled":false,"rental_uris":{"android":"levelo://app?vid=f4f44ecb-d1f2-458e-9c20-4902d78902fa","ios":"levelo://app?vid=f4f44ecb-d1f2-458e-9c20-4902d78902fa"},"vehicle_type_id":"4","last_reported":1747189682,"current_range_meters":9200,"station_id":"ce4bh0p2rcd13ifvqd80","pricing_plan_id":"cebpf4jnsgd1na2vs0mg"},{"bike_id":"f37b7848-b34f-4203-8cd6-ee4ac88ff930","system_id":"levelo_inurba_marseille","lat":43.23959,"lon":5.36628,"is_reserved":false,"is_disabled":false,"rental_uris":{"android":"levelo://app?vid=f37b7848-b34f-4203-8cd6-ee4ac88ff930","ios":"levelo://app?vid=f37b7848-b34f-4203-8cd6-ee4ac88ff930"},"vehicle_type_id":"4","last_reported":1747189682,"current_range_meters":9200,"station_id":"ce4bhi12rcd13ifvqfp0","pricing_plan_id":"cebpf4jnsgd1na2vs0mg"},{"bike_id":"910f9f39-856a-4a58-baa8-3e2e791f2766","system_id":"levelo_inurba_marseille","lat":43.28861,"lon":5.39328,"is_reserved":false,"is_disabled":true,"rental_uris":{"android":"levelo://app?vid=910f9f39-856a-4a58-baa8-3e2e791f2766","ios":"levelo://app?vid=910f9f39-856a-4a58-baa8-3e2e791f2766"},"vehicle_type_id":"4","last_reported":1747189682,"current_range_meters":9200,"station_id":"ce4bh2p2rcd13ifvqdi0","pricing_plan_id":"cebpf4jnsgd1na2vs0mg"},{"bike_id":"0d826070-2b6a-4e0e-9fd5-7d4b62a6ea2e","system_id":"levelo_inurba_marseille","lat":43.31277,"lon":5.40153,"is_reserved":false,"is_disabled":false,"rental_uris":{"android":"levelo://app?vid=0d826070-2b6a-4e0e-9fd5-7d4b62a6ea2e","ios":"levelo://app?vid=0d826070-2b6a-4e0e-9fd5-7d4b62a6ea2e"},"vehicle_type_id":"4","last_reported":1747189682,"current_range_meters":9200,"station_id":"ce4bh092rcd13ifvqd30","pricing_plan_id":"cebpf4jnsgd1na2vs0mg"},{"bike_id":"eda320a9-c748-41fe-8957-3c5ad95195ad","system_id":"levelo_inurba_marseille","lat":43.310881,"lon":5.383667,"is_reserved":false,"is_disabled":false,"rental_uris":{"android":"levelo://app?vid=eda320a9-c748-41fe-8957-3c5ad95195ad","ios":"levelo://app?vid=eda320a9-c748-41fe-8957-3c5ad95195ad"},"vehicle_type_id":"4","last_reported":1747189682,"current_range_meters":9200,"station_id":"ce4bgv92rcd13ifvqcr0","pricing_plan_id":"cebpf4jnsgd1na2vs0mg"},{"bike_id":"31bbd2a3-3187-4cf6-ac4f-ef100a38b191","system_id":"levelo_inurba_marseille","lat":43.31478,"lon":5.37319,"is_reserved":false,"is_disabled":false,"rental_uris":{"android":"levelo://app?vid=31bbd2a3-3187-4cf6-ac4f-ef100a38b191","ios":"levelo://app?vid=31bbd2a3-3187-4cf6-ac4f-ef100a38b191"},"vehicle_type_id":"4","last_reported":1747189682,"current_range_meters":9600,"station_id":"ce4bgt12rcd13ifvqcd0","pricing_plan_id":"cebpf4jnsgd1na2vs0mg"},{"bike_id":"544aa33b-6d85-46e4-8e4f-d0a805535fd2","system_id":"levelo_inurba_marseille","lat":43.28702,"lon":5.39987,"is_reserved":false,"is_disabled":false,"rental_uris":{"android":"levelo://app?vid=544aa33b-6d85-46e4-8e4f-d0a805535fd2","ios":"levelo://app?vid=544aa33b-6d85-46e4-8e4f-d0a805535fd2"},"vehicle_type_id":"4","last_reported":1747189682,"current_range_meters":9600,"station_id":"ce4bho92rcd13ifvqh3g","pricing_plan_id":"cebpf4jnsgd1na2vs0mg"},{"bike_id":"a5d260ad-5fd1-499d-89d7-66b6d0e446f2","system_id":"levelo_inurba_marseille","lat":43.25106,"lon":5.40332,"is_reserved":false,"is_disabled":false,"rental_uris":{"android":"levelo://app?vid=a5d260ad-5fd1-499d-89d7-66b6d0e446f2","ios":"levelo://app?vid=a5d260ad-5fd1-499d-89d7-66b6d0e446f2"},"vehicle_type_id":"4","last_reported":1747189682,"current_range_meters":9600,"station_id":"ce4bhlh2rcd13ifvqgig","pricing_plan_id":"cebpf4jnsgd1na2vs0mg"},{"bike_id":"bae0709b-c933-441a-ab47-3aad58f66d78","system_id":"levelo_inurba_marseille","lat":43.21745,"lon":5.34612,"is_reserved":false,"is_disabled":false,"rental_uris":{"android":"levelo://app?vid=bae0709b-c933-441a-ab47-3aad58f66d78","ios":"levelo://app?vid=bae0709b-c933-441a-ab47-3aad58f66d78"},"vehicle_type_id":"4","last_reported":1747189682,"current_range_meters":9600,"station_id":"st_cvj6r9ubvosntc0bgbag","pricing_plan_id":"cebpf4jnsgd1na2vs0mg"},{"bike_id":"e698e52b-b35d-4538-9d26-dea1a6ab3275","system_id":"levelo_inurba_marseille","lat":43.30802,"lon":5.38165,"is_reserved":false,"is_disabled":false,"rental_uris":{"android":"levelo://app?vid=e698e52b-b35d-4538-9d26-dea1a6ab3275","ios":"levelo://app?vid=e698e52b-b35d-4538-9d26-dea1a6ab3275"},"vehicle_type_id":"4","last_reported":1747189682,"current_range_meters":9600,"station_id":"ce4bgt12rcd13ifvqce0","pricing_plan_id":"cebpf4jnsgd1na2vs0mg"},{"bike_id":"a8d52740-981a-4603-b6fa-4d8a60cc4ff3","system_id":"levelo_inurba_marseille","lat":43.279962,"lon":5.400086,"is_reserved":false,"is_disabled":true,"rental_uris":{"android":"levelo://app?vid=a8d52740-981a-4603-b6fa-4d8a60cc4ff3","ios":"levelo://app?vid=a8d52740-981a-4603-b6fa-4d8a60cc4ff3"},"vehicle_type_id":"4","last_reported":1747189682,"current_range_meters":9600,"station_id":"ce4bho92rcd13ifvqh4g","pricing_plan_id":"cebpf4jnsgd1na2vs0mg"},{"bike_id":"0f4abef2-b0df-4803-98c6-01c55c5d115b","system_id":"levelo_inurba_marseille","lat":43.28561,"lon":5.39504,"is_reserved":false,"is_disabled":false,"rental_uris":{"android":"levelo://app?vid=0f4abef2-b0df-4803-98c6-01c55c5d115b","ios":"levelo://app?vid=0f4abef2-b0df-4803-98c6-01c55c5d115b"},"vehicle_type_id":"4","last_reported":1747189682,"current_range_meters":9600,"station_id":"ce4bh292rcd13ifvqdg0","pricing_plan_id":"cebpf4jnsgd1na2vs0mg"},{"bike_id":"127f6762-1f70-43ae-8938-79f5184b1ee2","system_id":"levelo_inurba_marseille","lat":43.2407,"lon":5.37765,"is_reserved":false,"is_disabled":false,"rental_uris":{"android":"levelo://app?vid=127f6762-1f70-43ae-8938-79f5184b1ee2","ios":"levelo://app?vid=127f6762-1f70-43ae-8938-79f5184b1ee2"},"vehicle_type_id":"4","last_reported":1747189682,"current_range_meters":9600,"station_id":"ce4bhnp2rcd13ifvqgvg","pricing_plan_id":"cebpf4jnsgd1na2vs0mg"},{"bike_id":"0505a949-06c3-482d-9bba-8aec985a08c5","system_id":"levelo_inurba_marseille","lat":43.308834,"lon":5.372,"is_reserved":false,"is_disabled":true,"rental_uris":{"android":"levelo://app?vid=0505a949-06c3-482d-9bba-8aec985a08c5","ios":"levelo://app?vid=0505a949-06c3-482d-9bba-8aec985a08c5"},"vehicle_type_id":"4","last_reported":1747189682,"current_range_meters":9600,"station_id":"ce4bguh2rcd13ifvqckg","pricing_plan_id":"cebpf4jnsgd1na2vs0mg"},{"bike_id":"71bca86a-f6ab-4e3c-929a-d88ccefdb327","system_id":"levelo_inurba_marseille","lat":43.32346,"lon":5.40611,"is_reserved":false,"is_disabled":false,"rental_uris":{"android":"levelo://app?vid=71bca86a-f6ab-4e3c-929a-d88ccefdb327","ios":"levelo://app?vid=71bca86a-f6ab-4e3c-929a-d88ccefdb327"},"vehicle_type_id":"4","last_reported":1747189682,"current_range_meters":10000,"station_id":"ce4bhq92rcd13ifvqhjg","pricing_plan_id":"cebpf4jnsgd1na2vs0mg"},{"bike_id":"ba458a5d-d478-4103-836d-59da615565d8","system_id":"levelo_inurba_marseille","lat":43.270645,"lon":5.422778,"is_reserved":false,"is_disabled":false,"rental_uris":{"android":"levelo://app?vid=ba458a5d-d478-4103-836d-59da615565d8","ios":"levelo://app?vid=ba458a5d-d478-4103-836d-59da615565d8"},"vehicle_type_id":"4","last_reported":1747189682,"current_range_meters":10000,"station_id":"ce4bhk92rcd13ifvqgb0","pricing_plan_id":"cebpf4jnsgd1na2vs0mg"},{"bike_id":"828f3d72-4b62-4490-a898-df9e30d9cf9b","system_id":"levelo_inurba_marseille","lat":43.30761,"lon":5.41346,"is_reserved":false,"is_disabled":false,"rental_uris":{"android":"levelo://app?vid=828f3d72-4b62-4490-a898-df9e30d9cf9b","ios":"levelo://app?vid=828f3d72-4b62-4490-a898-df9e30d9cf9b"},"vehicle_type_id":"4","last_reported":1747189682,"current_range_meters":10000,"station_id":"","pricing_plan_id":"cebpf4jnsgd1na2vs0mg"},{"bike_id":"38e9e65c-4b87-4784-9bde-542e3f5b04b3","system_id":"levelo_inurba_marseille","lat":43.32352,"lon":5.38888,"is_reserved":false,"is_disabled":false,"rental_uris":{"android":"levelo://app?vid=38e9e65c-4b87-4784-9bde-542e3f5b04b3","ios":"levelo://app?vid=38e9e65c-4b87-4784-9bde-542e3f5b04b3"},"vehicle_type_id":"4","last_reported":1747189682,"current_range_meters":10000,"station_id":"ce4bhqp2rcd13ifvqhog","pricing_plan_id":"cebpf4jnsgd1na2vs0mg"},{"bike_id":"060d34f9-d5e7-4c03-bb96-9e6501866e6d","system_id":"levelo_inurba_marseille","lat":43.24019,"lon":5.37728,"is_reserved":false,"is_disabled":false,"rental_uris":{"android":"levelo://app?vid=060d34f9-d5e7-4c03-bb96-9e6501866e6d","ios":"levelo://app?vid=060d34f9-d5e7-4c03-bb96-9e6501866e6d"},"vehicle_type_id":"4","last_reported":1747189682,"current_range_meters":10000,"station_id":"ce4bhnp2rcd13ifvqgvg","pricing_plan_id":"cebpf4jnsgd1na2vs0mg"},{"bike_id":"35e54327-9a6c-4eab-83d7-f4b66990d100","system_id":"levelo_inurba_marseille","lat":43.28999,"lon":5.35614,"is_reserved":false,"is_disabled":true,"rental_uris":{"android":"levelo://app?vid=35e54327-9a6c-4eab-83d7-f4b66990d100","ios":"levelo://app?vid=35e54327-9a6c-4eab-83d7-f4b66990d100"},"vehicle_type_id":"4","last_reported":1747189682,"current_range_meters":10000,"station_id":"ce4bhb92rcd13ifvqen0","pricing_plan_id":"cebpf4jnsgd1na2vs0mg"},{"bike_id":"9c7224b1-1bf5-4174-843d-f9bc5d28275e","system_id":"levelo_inurba_marseille","lat":43.28717,"lon":5.39997,"is_reserved":false,"is_disabled":false,"rental_uris":{"android":"levelo://app?vid=9c7224b1-1bf5-4174-843d-f9bc5d28275e","ios":"levelo://app?vid=9c7224b1-1bf5-4174-843d-f9bc5d28275e"},"vehicle_type_id":"4","last_reported":1747189682,"current_range_meters":10800,"station_id":"ce4bho92rcd13ifvqh3g","pricing_plan_id":"cebpf4jnsgd1na2vs0mg"},{"bike_id":"80bee8ac-b124-4980-a798-213773e52355","system_id":"levelo_inurba_marseille","lat":43.30327,"lon":5.40435,"is_reserved":false,"is_disabled":false,"rental_uris":{"android":"levelo://app?vid=80bee8ac-b124-4980-a798-213773e52355","ios":"levelo://app?vid=80bee8ac-b124-4980-a798-213773e52355"},"vehicle_type_id":"4","last_reported":1747189682,"current_range_meters":10800,"station_id":"ce4bh012rcd13ifvqd10","pricing_plan_id":"cebpf4jnsgd1na2vs0mg"},{"bike_id":"d559a899-b1bd-4a71-a12e-4458bcd0cdbf","system_id":"levelo_inurba_marseille","lat":43.23045,"lon":5.35491,"is_reserved":false,"is_disabled":false,"rental_uris":{"android":"levelo://app?vid=d559a899-b1bd-4a71-a12e-4458bcd0cdbf","ios":"levelo://app?vid=d559a899-b1bd-4a71-a12e-4458bcd0cdbf"},"vehicle_type_id":"4","last_reported":1747189682,"current_range_meters":10800,"station_id":"cpo3342slgdg3j2ifvpg","pricing_plan_id":"cebpf4jnsgd1na2vs0mg"},{"bike_id":"ff497a71-e333-4974-b3e4-ae998313ad63","system_id":"levelo_inurba_marseille","lat":43.30126,"lon":5.39854,"is_reserved":false,"is_disabled":false,"rental_uris":{"android":"levelo://app?vid=ff497a71-e333-4974-b3e4-ae998313ad63","ios":"levelo://app?vid=ff497a71-e333-4974-b3e4-ae998313ad63"},"vehicle_type_id":"4","last_reported":1747189682,"current_range_meters":10800,"station_id":"ce4bh0h2rcd13ifvqd40","pricing_plan_id":"cebpf4jnsgd1na2vs0mg"},{"bike_id":"11e495cb-e2b0-4615-bc23-02982335ed54","system_id":"levelo_inurba_marseille","lat":43.2507,"lon":5.39527,"is_reserved":false,"is_disabled":false,"rental_uris":{"android":"levelo://app?vid=11e495cb-e2b0-4615-bc23-02982335ed54","ios":"levelo://app?vid=11e495cb-e2b0-4615-bc23-02982335ed54"},"vehicle_type_id":"4","last_reported":1747189682,"current_range_meters":10800,"station_id":"ce4bhm12rcd13ifvqgkg","pricing_plan_id":"cebpf4jnsgd1na2vs0mg"},{"bike_id":"83119d09-9efb-429c-b5b9-f2163d6f4389","system_id":"levelo_inurba_marseille","lat":43.31075,"lon":5.383511,"is_reserved":false,"is_disabled":false,"rental_uris":{"android":"levelo://app?vid=83119d09-9efb-429c-b5b9-f2163d6f4389","ios":"levelo://app?vid=83119d09-9efb-429c-b5b9-f2163d6f4389"},"vehicle_type_id":"4","last_reported":1747189682,"current_range_meters":10800,"station_id":"ce4bgv92rcd13ifvqcr0","pricing_plan_id":"cebpf4jnsgd1na2vs0mg"},{"bike_id":"fa247c8a-d839-4800-910d-7cc95e9b745b","system_id":"levelo_inurba_marseille","lat":43.30593,"lon":5.37223,"is_reserved":false,"is_disabled":false,"rental_uris":{"android":"levelo://app?vid=fa247c8a-d839-4800-910d-7cc95e9b745b","ios":"levelo://app?vid=fa247c8a-d839-4800-910d-7cc95e9b745b"},"vehicle_type_id":"4","last_reported":1747189682,"current_range_meters":11200,"station_id":"ce4bgqh2rcd13ifvqc4g","pricing_plan_id":"cebpf4jnsgd1na2vs0mg"},{"bike_id":"29ca8818-f2ee-47ec-a332-2860bcc2fb2a","system_id":"levelo_inurba_marseille","lat":43.2319,"lon":5.35563,"is_reserved":false,"is_disabled":false,"rental_uris":{"android":"levelo://app?vid=29ca8818-f2ee-47ec-a332-2860bcc2fb2a","ios":"levelo://app?vid=29ca8818-f2ee-47ec-a332-2860bcc2fb2a"},"vehicle_type_id":"4","last_reported":1747189682,"current_range_meters":11200,"station_id":"ce4bhu92rcd13ifvqi70","pricing_plan_id":"cebpf4jnsgd1na2vs0mg"},{"bike_id":"a681fd8a-af7e-409a-938a-dc3de79aa287","system_id":"levelo_inurba_marseille","lat":43.31271,"lon":5.40178,"is_reserved":false,"is_disabled":false,"rental_uris":{"android":"levelo://app?vid=a681fd8a-af7e-409a-938a-dc3de79aa287","ios":"levelo://app?vid=a681fd8a-af7e-409a-938a-dc3de79aa287"},"vehicle_type_id":"4","last_reported":1747189682,"current_range_meters":11600,"station_id":"ce4bh092rcd13ifvqd30","pricing_plan_id":"cebpf4jnsgd1na2vs0mg"},{"bike_id":"932e2eea-2ef5-46ab-b128-64df19c5d658","system_id":"levelo_inurba_marseille","lat":43.30448,"lon":5.39274,"is_reserved":false,"is_disabled":false,"rental_uris":{"android":"levelo://app?vid=932e2eea-2ef5-46ab-b128-64df19c5d658","ios":"levelo://app?vid=932e2eea-2ef5-46ab-b128-64df19c5d658"},"vehicle_type_id":"4","last_reported":1747189682,"current_range_meters":11600,"station_id":"","pricing_plan_id":"cebpf4jnsgd1na2vs0mg"},{"bike_id":"96f9cd6d-139a-4df1-8c76-938b1749cd56","system_id":"levelo_inurba_marseille","lat":43.27903,"lon":5.39607,"is_reserved":false,"is_disabled":false,"rental_uris":{"android":"levelo://app?vid=96f9cd6d-139a-4df1-8c76-938b1749cd56","ios":"levelo://app?vid=96f9cd6d-139a-4df1-8c76-938b1749cd56"},"vehicle_type_id":"4","last_reported":1747189682,"current_range_meters":11600,"station_id":"ce4bhf92rcd13ifvqf40","pricing_plan_id":"cebpf4jnsgd1na2vs0mg"},{"bike_id":"f992a421-1974-43d2-890b-13f18604b31c","system_id":"levelo_inurba_marseille","lat":43.24647,"lon":5.38882,"is_reserved":false,"is_disabled":false,"rental_uris":{"android":"levelo://app?vid=f992a421-1974-43d2-890b-13f18604b31c","ios":"levelo://app?vid=f992a421-1974-43d2-890b-13f18604b31c"},"vehicle_type_id":"4","last_reported":1747189682,"current_range_meters":11600,"station_id":"ce4bhg12rcd13ifvqf60","pricing_plan_id":"cebpf4jnsgd1na2vs0mg"},{"bike_id":"2095f8bc-1727-4f15-b184-732581ddd9e6","system_id":"levelo_inurba_marseille","lat":43.29926,"lon":5.37567,"is_reserved":false,"is_disabled":false,"rental_uris":{"android":"levelo://app?vid=2095f8bc-1727-4f15-b184-732581ddd9e6","ios":"levelo://app?vid=2095f8bc-1727-4f15-b184-732581ddd9e6"},"vehicle_type_id":"4","last_reported":1747189682,"current_range_meters":11600,"station_id":"","pricing_plan_id":"cebpf4jnsgd1na2vs0mg"},{"bike_id":"f6f851f2-f97b-46bd-8825-a1535387dd49","system_id":"levelo_inurba_marseille","lat":43.28407,"lon":5.37511,"is_reserved":false,"is_disabled":false,"rental_uris":{"android":"levelo://app?vid=f6f851f2-f97b-46bd-8825-a1535387dd49","ios":"levelo://app?vid=f6f851f2-f97b-46bd-8825-a1535387dd49"},"vehicle_type_id":"4","last_reported":1747189682,"current_range_meters":11600,"station_id":"ce4bh412rcd13ifvqds0","pricing_plan_id":"cebpf4jnsgd1na2vs0mg"},{"bike_id":"d77ef514-e6ff-49e5-bb3c-5ab228826f28","system_id":"levelo_inurba_marseille","lat":43.308835,"lon":5.372015,"is_reserved":false,"is_disabled":false,"rental_uris":{"android":"levelo://app?vid=d77ef514-e6ff-49e5-bb3c-5ab228826f28","ios":"levelo://app?vid=d77ef514-e6ff-49e5-bb3c-5ab228826f28"},"vehicle_type_id":"4","last_reported":1747189682,"current_range_meters":11600,"station_id":"ce4bguh2rcd13ifvqckg","pricing_plan_id":"cebpf4jnsgd1na2vs0mg"},{"bike_id":"bdfb75ca-fefb-4fb9-becc-bd378613ab46","system_id":"levelo_inurba_marseille","lat":43.29451,"lon":5.3976,"is_reserved":false,"is_disabled":false,"rental_uris":{"android":"levelo://app?vid=bdfb75ca-fefb-4fb9-becc-bd378613ab46","ios":"levelo://app?vid=bdfb75ca-fefb-4fb9-becc-bd378613ab46"},"vehicle_type_id":"4","last_reported":1747189682,"current_range_meters":11600,"station_id":"ce4bh3h2rcd13ifvqdo0","pricing_plan_id":"cebpf4jnsgd1na2vs0mg"},{"bike_id":"3097c71f-29aa-4cf9-98d9-b76dabee7dc9","system_id":"levelo_inurba_marseille","lat":43.281068,"lon":5.378357,"is_reserved":false,"is_disabled":false,"rental_uris":{"android":"levelo://app?vid=3097c71f-29aa-4cf9-98d9-b76dabee7dc9","ios":"levelo://app?vid=3097c71f-29aa-4cf9-98d9-b76dabee7dc9"},"vehicle_type_id":"4","last_reported":1747189682,"current_range_meters":12000,"station_id":"ce4bha12rcd13ifvqee0","pricing_plan_id":"cebpf4jnsgd1na2vs0mg"},{"bike_id":"63582912-f314-437d-bdb9-8991ea5c92a6","system_id":"levelo_inurba_marseille","lat":43.24649,"lon":5.38904,"is_reserved":false,"is_disabled":false,"rental_uris":{"android":"levelo://app?vid=63582912-f314-437d-bdb9-8991ea5c92a6","ios":"levelo://app?vid=63582912-f314-437d-bdb9-8991ea5c92a6"},"vehicle_type_id":"4","last_reported":1747189682,"current_range_meters":12000,"station_id":"ce4bhg12rcd13ifvqf60","pricing_plan_id":"cebpf4jnsgd1na2vs0mg"},{"bike_id":"da5ac1fa-2e65-4f9c-a773-5ab48cea463c","system_id":"levelo_inurba_marseille","lat":43.240731,"lon":5.377506,"is_reserved":false,"is_disabled":false,"rental_uris":{"android":"levelo://app?vid=da5ac1fa-2e65-4f9c-a773-5ab48cea463c","ios":"levelo://app?vid=da5ac1fa-2e65-4f9c-a773-5ab48cea463c"},"vehicle_type_id":"4","last_reported":1747189682,"current_range_meters":12000,"station_id":"ce4bhnp2rcd13ifvqgvg","pricing_plan_id":"cebpf4jnsgd1na2vs0mg"},{"bike_id":"e15dd958-cc90-41eb-8c8a-6663f7bccd99","system_id":"levelo_inurba_marseille","lat":43.31109,"lon":5.3779,"is_reserved":false,"is_disabled":false,"rental_uris":{"android":"levelo://app?vid=e15dd958-cc90-41eb-8c8a-6663f7bccd99","ios":"levelo://app?vid=e15dd958-cc90-41eb-8c8a-6663f7bccd99"},"vehicle_type_id":"4","last_reported":1747189682,"current_range_meters":12000,"station_id":"ce4bgt92rcd13ifvqcg0","pricing_plan_id":"cebpf4jnsgd1na2vs0mg"},{"bike_id":"b0242bf4-b83b-4d62-aa3e-64266801fbe9","system_id":"levelo_inurba_marseille","lat":43.31079,"lon":5.4243,"is_reserved":false,"is_disabled":false,"rental_uris":{"android":"levelo://app?vid=b0242bf4-b83b-4d62-aa3e-64266801fbe9","ios":"levelo://app?vid=b0242bf4-b83b-4d62-aa3e-64266801fbe9"},"vehicle_type_id":"4","last_reported":1747189682,"current_range_meters":12000,"station_id":"ce4bhp92rcd13ifvqhag","pricing_plan_id":"cebpf4jnsgd1na2vs0mg"},{"bike_id":"7d8a940b-fa41-48ed-bc64-d4da3160240b","system_id":"levelo_inurba_marseille","lat":43.30822,"lon":5.37902,"is_reserved":false,"is_disabled":false,"rental_uris":{"android":"levelo://app?vid=7d8a940b-fa41-48ed-bc64-d4da3160240b","ios":"levelo://app?vid=7d8a940b-fa41-48ed-bc64-d4da3160240b"},"vehicle_type_id":"4","last_reported":1747189682,"current_range_meters":12000,"station_id":"","pricing_plan_id":"cebpf4jnsgd1na2vs0mg"},{"bike_id":"4d1dec91-681c-43ec-bef1-6f9ae59b99c1","system_id":"levelo_inurba_marseille","lat":43.308027,"lon":5.38161,"is_reserved":false,"is_disabled":false,"rental_uris":{"android":"levelo://app?vid=4d1dec91-681c-43ec-bef1-6f9ae59b99c1","ios":"levelo://app?vid=4d1dec91-681c-43ec-bef1-6f9ae59b99c1"},"vehicle_type_id":"4","last_reported":1747189682,"current_range_meters":12000,"station_id":"ce4bgt12rcd13ifvqce0","pricing_plan_id":"cebpf4jnsgd1na2vs0mg"},{"bike_id":"4821750a-72fd-4a71-957e-987850a371e2","system_id":"levelo_inurba_marseille","lat":43.30118,"lon":5.47646,"is_reserved":false,"is_disabled":false,"rental_uris":{"android":"levelo://app?vid=4821750a-72fd-4a71-957e-987850a371e2","ios":"levelo://app?vid=4821750a-72fd-4a71-957e-987850a371e2"},"vehicle_type_id":"4","last_reported":1747189682,"current_range_meters":12400,"station_id":"","pricing_plan_id":"cebpf4jnsgd1na2vs0mg"},{"bike_id":"ee95d7b1-23aa-4ba2-8604-c3c7e16b2172","system_id":"levelo_inurba_marseille","lat":43.28883,"lon":5.36726,"is_reserved":false,"is_disabled":false,"rental_uris":{"android":"levelo://app?vid=ee95d7b1-23aa-4ba2-8604-c3c7e16b2172","ios":"levelo://app?vid=ee95d7b1-23aa-4ba2-8604-c3c7e16b2172"},"vehicle_type_id":"4","last_reported":1747189682,"current_range_meters":12400,"station_id":"","pricing_plan_id":"cebpf4jnsgd1na2vs0mg"},{"bike_id":"305747f4-7223-472c-b524-a278ac4e8ef1","system_id":"levelo_inurba_marseille","lat":43.295647,"lon":5.375122,"is_reserved":false,"is_disabled":true,"rental_uris":{"android":"levelo://app?vid=305747f4-7223-472c-b524-a278ac4e8ef1","ios":"levelo://app?vid=305747f4-7223-472c-b524-a278ac4e8ef1"},"vehicle_type_id":"4","last_reported":1747189682,"current_range_meters":12400,"station_id":"ce4bgh92rcd13ifvqb50","pricing_plan_id":"cebpf4jnsgd1na2vs0mg"},{"bike_id":"5c8b9c5b-5c2a-483e-865d-ae36047d40b5","system_id":"levelo_inurba_marseille","lat":43.30005,"lon":5.47624,"is_reserved":false,"is_disabled":false,"rental_uris":{"android":"levelo://app?vid=5c8b9c5b-5c2a-483e-865d-ae36047d40b5","ios":"levelo://app?vid=5c8b9c5b-5c2a-483e-865d-ae36047d40b5"},"vehicle_type_id":"4","last_reported":1747189682,"current_range_meters":12800,"station_id":"","pricing_plan_id":"cebpf4jnsgd1na2vs0mg"},{"bike_id":"3c019cfc-cf98-4ed3-817c-ad25fb02ed9c","system_id":"levelo_inurba_marseille","lat":43.28478,"lon":5.38461,"is_reserved":false,"is_disabled":true,"rental_uris":{"android":"levelo://app?vid=3c019cfc-cf98-4ed3-817c-ad25fb02ed9c","ios":"levelo://app?vid=3c019cfc-cf98-4ed3-817c-ad25fb02ed9c"},"vehicle_type_id":"4","last_reported":1747189682,"current_range_meters":12800,"station_id":"ce4bh512rcd13ifvqe3g","pricing_plan_id":"cebpf4jnsgd1na2vs0mg"},{"bike_id":"382da604-28cd-407b-adb2-1bed2bb48c46","system_id":"levelo_inurba_marseille","lat":43.31891,"lon":5.3675,"is_reserved":false,"is_disabled":false,"rental_uris":{"android":"levelo://app?vid=382da604-28cd-407b-adb2-1bed2bb48c46","ios":"levelo://app?vid=382da604-28cd-407b-adb2-1bed2bb48c46"},"vehicle_type_id":"4","last_reported":1747189682,"current_range_meters":12800,"station_id":"","pricing_plan_id":"cebpf4jnsgd1na2vs0mg"},{"bike_id":"47b426d0-f6dd-4e48-87c1-a053a74ef8e3","system_id":"levelo_inurba_marseille","lat":43.30231,"lon":5.40044,"is_reserved":false,"is_disabled":false,"rental_uris":{"android":"levelo://app?vid=47b426d0-f6dd-4e48-87c1-a053a74ef8e3","ios":"levelo://app?vid=47b426d0-f6dd-4e48-87c1-a053a74ef8e3"},"vehicle_type_id":"4","last_reported":1747189682,"current_range_meters":12800,"station_id":"","pricing_plan_id":"cebpf4jnsgd1na2vs0mg"},{"bike_id":"ddede2fb-2f81-465d-98bb-e95d89460d99","system_id":"levelo_inurba_marseille","lat":43.287,"lon":5.40028,"is_reserved":false,"is_disabled":false,"rental_uris":{"android":"levelo://app?vid=ddede2fb-2f81-465d-98bb-e95d89460d99","ios":"levelo://app?vid=ddede2fb-2f81-465d-98bb-e95d89460d99"},"vehicle_type_id":"4","last_reported":1747189682,"current_range_meters":13600,"station_id":"ce4bho92rcd13ifvqh3g","pricing_plan_id":"cebpf4jnsgd1na2vs0mg"},{"bike_id":"6507c08a-14ca-4394-a7ca-a83fa84e36c6","system_id":"levelo_inurba_marseille","lat":43.26923,"lon":5.40266,"is_reserved":false,"is_disabled":false,"rental_uris":{"android":"levelo://app?vid=6507c08a-14ca-4394-a7ca-a83fa84e36c6","ios":"levelo://app?vid=6507c08a-14ca-4394-a7ca-a83fa84e36c6"},"vehicle_type_id":"4","last_reported":1747189682,"current_range_meters":13600,"station_id":"cjm6bp8fraef2m0cb0m0","pricing_plan_id":"cebpf4jnsgd1na2vs0mg"},{"bike_id":"301a3a6f-3f8e-4707-9290-d6655e615c25","system_id":"levelo_inurba_marseille","lat":43.31727,"lon":5.42407,"is_reserved":false,"is_disabled":false,"rental_uris":{"android":"levelo://app?vid=301a3a6f-3f8e-4707-9290-d6655e615c25","ios":"levelo://app?vid=301a3a6f-3f8e-4707-9290-d6655e615c25"},"vehicle_type_id":"4","last_reported":1747189682,"current_range_meters":13600,"station_id":"ce4bhp92rcd13ifvqhbg","pricing_plan_id":"cebpf4jnsgd1na2vs0mg"},{"bike_id":"92a623d9-2bde-4d60-81e2-fdf54bb18ca6","system_id":"levelo_inurba_marseille","lat":43.22931,"lon":5.35388,"is_reserved":false,"is_disabled":false,"rental_uris":{"android":"levelo://app?vid=92a623d9-2bde-4d60-81e2-fdf54bb18ca6","ios":"levelo://app?vid=92a623d9-2bde-4d60-81e2-fdf54bb18ca6"},"vehicle_type_id":"4","last_reported":1747189682,"current_range_meters":13600,"station_id":"cpo3532slgdg3j2ikp40","pricing_plan_id":"cebpf4jnsgd1na2vs0mg"},{"bike_id":"8864a029-a941-4ce6-b475-5550eed18723","system_id":"levelo_inurba_marseille","lat":43.299306,"lon":5.365323,"is_reserved":false,"is_disabled":false,"rental_uris":{"android":"levelo://app?vid=8864a029-a941-4ce6-b475-5550eed18723","ios":"levelo://app?vid=8864a029-a941-4ce6-b475-5550eed18723"},"vehicle_type_id":"4","last_reported":1747189682,"current_range_meters":13600,"station_id":"ce4bgm92rcd13ifvqbr0","pricing_plan_id":"cebpf4jnsgd1na2vs0mg"},{"bike_id":"3e9889e7-cbb1-4e8a-8cbd-cde0b4fae7e2","system_id":"levelo_inurba_marseille","lat":43.27948,"lon":5.41041,"is_reserved":false,"is_disabled":false,"rental_uris":{"android":"levelo://app?vid=3e9889e7-cbb1-4e8a-8cbd-cde0b4fae7e2","ios":"levelo://app?vid=3e9889e7-cbb1-4e8a-8cbd-cde0b4fae7e2"},"vehicle_type_id":"4","last_reported":1747189682,"current_range_meters":13600,"station_id":"ce4bhnp2rcd13ifvqh0g","pricing_plan_id":"cebpf4jnsgd1na2vs0mg"},{"bike_id":"7395c0f9-eb26-4cbc-9f9b-9c1edf7364f4","system_id":"levelo_inurba_marseille","lat":43.32959,"lon":5.40562,"is_reserved":false,"is_disabled":false,"rental_uris":{"android":"levelo://app?vid=7395c0f9-eb26-4cbc-9f9b-9c1edf7364f4","ios":"levelo://app?vid=7395c0f9-eb26-4cbc-9f9b-9c1edf7364f4"},"vehicle_type_id":"4","last_reported":1747189682,"current_range_meters":14000,"station_id":"","pricing_plan_id":"cebpf4jnsgd1na2vs0mg"},{"bike_id":"55a82d97-745b-41fd-8dda-f8ea9e4d2f06","system_id":"levelo_inurba_marseille","lat":43.33576,"lon":5.42832,"is_reserved":false,"is_disabled":false,"rental_uris":{"android":"levelo://app?vid=55a82d97-745b-41fd-8dda-f8ea9e4d2f06","ios":"levelo://app?vid=55a82d97-745b-41fd-8dda-f8ea9e4d2f06"},"vehicle_type_id":"4","last_reported":1747189682,"current_range_meters":14000,"station_id":"","pricing_plan_id":"cebpf4jnsgd1na2vs0mg"},{"bike_id":"6b7c26be-9a4f-428c-8f3a-237ecf9240f7","system_id":"levelo_inurba_marseille","lat":43.31629,"lon":5.39609,"is_reserved":false,"is_disabled":false,"rental_uris":{"android":"levelo://app?vid=6b7c26be-9a4f-428c-8f3a-237ecf9240f7","ios":"levelo://app?vid=6b7c26be-9a4f-428c-8f3a-237ecf9240f7"},"vehicle_type_id":"4","last_reported":1747189682,"current_range_meters":14000,"station_id":"","pricing_plan_id":"cebpf4jnsgd1na2vs0mg"},{"bike_id":"5b83d4c8-c0b4-47f3-b1d8-051959d6423b","system_id":"levelo_inurba_marseille","lat":43.26153,"lon":5.40432,"is_reserved":false,"is_disabled":false,"rental_uris":{"android":"levelo://app?vid=5b83d4c8-c0b4-47f3-b1d8-051959d6423b","ios":"levelo://app?vid=5b83d4c8-c0b4-47f3-b1d8-051959d6423b"},"vehicle_type_id":"4","last_reported":1747189682,"current_range_meters":14000,"station_id":"ce4bhmh2rcd13ifvqgmg","pricing_plan_id":"cebpf4jnsgd1na2vs0mg"},{"bike_id":"a0c836bd-3175-4f52-b689-ec99736589ef","system_id":"levelo_inurba_marseille","lat":43.24544,"lon":5.39532,"is_reserved":false,"is_disabled":false,"rental_uris":{"android":"levelo://app?vid=a0c836bd-3175-4f52-b689-ec99736589ef","ios":"levelo://app?vid=a0c836bd-3175-4f52-b689-ec99736589ef"},"vehicle_type_id":"4","last_reported":1747189682,"current_range_meters":14000,"station_id":"ce4bhlp2rcd13ifvqgjg","pricing_plan_id":"cebpf4jnsgd1na2vs0mg"},{"bike_id":"f57e6f12-c038-4a7e-8f40-23ed2bed5616","system_id":"levelo_inurba_marseille","lat":43.29995,"lon":5.47582,"is_reserved":false,"is_disabled":false,"rental_uris":{"android":"levelo://app?vid=f57e6f12-c038-4a7e-8f40-23ed2bed5616","ios":"levelo://app?vid=f57e6f12-c038-4a7e-8f40-23ed2bed5616"},"vehicle_type_id":"4","last_reported":1747189682,"current_range_meters":14000,"station_id":"","pricing_plan_id":"cebpf4jnsgd1na2vs0mg"},{"bike_id":"42cfaabc-d4d4-405c-ab84-52ce3ce3032a","system_id":"levelo_inurba_marseille","lat":43.31721,"lon":5.43621,"is_reserved":false,"is_disabled":false,"rental_uris":{"android":"levelo://app?vid=42cfaabc-d4d4-405c-ab84-52ce3ce3032a","ios":"levelo://app?vid=42cfaabc-d4d4-405c-ab84-52ce3ce3032a"},"vehicle_type_id":"4","last_reported":1747189682,"current_range_meters":14000,"station_id":"","pricing_plan_id":"cebpf4jnsgd1na2vs0mg"},{"bike_id":"9dce5f8a-8308-405a-84ed-0cff7b0e3802","system_id":"levelo_inurba_marseille","lat":43.28703,"lon":5.4001,"is_reserved":false,"is_disabled":false,"rental_uris":{"android":"levelo://app?vid=9dce5f8a-8308-405a-84ed-0cff7b0e3802","ios":"levelo://app?vid=9dce5f8a-8308-405a-84ed-0cff7b0e3802"},"vehicle_type_id":"4","last_reported":1747189682,"current_range_meters":14400,"station_id":"ce4bho92rcd13ifvqh3g","pricing_plan_id":"cebpf4jnsgd1na2vs0mg"},{"bike_id":"290413f8-4b92-42b0-99af-0cb4e023060f","system_id":"levelo_inurba_marseille","lat":43.312526,"lon":5.368587,"is_reserved":false,"is_disabled":true,"rental_uris":{"android":"levelo://app?vid=290413f8-4b92-42b0-99af-0cb4e023060f","ios":"levelo://app?vid=290413f8-4b92-42b0-99af-0cb4e023060f"},"vehicle_type_id":"4","last_reported":1747189682,"current_range_meters":14400,"station_id":"ce4bgl92rcd13ifvqbq0","pricing_plan_id":"cebpf4jnsgd1na2vs0mg"},{"bike_id":"f91a9f20-e278-49f9-bff0-9af4e1bfdc72","system_id":"levelo_inurba_marseille","lat":43.28685,"lon":5.39993,"is_reserved":false,"is_disabled":false,"rental_uris":{"android":"levelo://app?vid=f91a9f20-e278-49f9-bff0-9af4e1bfdc72","ios":"levelo://app?vid=f91a9f20-e278-49f9-bff0-9af4e1bfdc72"},"vehicle_type_id":"4","last_reported":1747189682,"current_range_meters":14800,"station_id":"ce4bho92rcd13ifvqh3g","pricing_plan_id":"cebpf4jnsgd1na2vs0mg"},{"bike_id":"4d067a69-b9a9-4647-83ac-611755a10a2d","system_id":"levelo_inurba_marseille","lat":43.26014,"lon":5.41745,"is_reserved":false,"is_disabled":false,"rental_uris":{"android":"levelo://app?vid=4d067a69-b9a9-4647-83ac-611755a10a2d","ios":"levelo://app?vid=4d067a69-b9a9-4647-83ac-611755a10a2d"},"vehicle_type_id":"4","last_reported":1747189682,"current_range_meters":14800,"station_id":"","pricing_plan_id":"cebpf4jnsgd1na2vs0mg"},{"bike_id":"37166b1b-e63b-43e4-8df4-47faf64ec965","system_id":"levelo_inurba_marseille","lat":43.308012,"lon":5.38147,"is_reserved":false,"is_disabled":false,"rental_uris":{"android":"levelo://app?vid=37166b1b-e63b-43e4-8df4-47faf64ec965","ios":"levelo://app?vid=37166b1b-e63b-43e4-8df4-47faf64ec965"},"vehicle_type_id":"4","last_reported":1747189682,"current_range_meters":14800,"station_id":"ce4bgt12rcd13ifvqce0","pricing_plan_id":"cebpf4jnsgd1na2vs0mg"},{"bike_id":"ebbb3db5-66b4-4907-9a7b-ed749cb4c62b","system_id":"levelo_inurba_marseille","lat":43.31756,"lon":5.3904,"is_reserved":false,"is_disabled":false,"rental_uris":{"android":"levelo://app?vid=ebbb3db5-66b4-4907-9a7b-ed749cb4c62b","ios":"levelo://app?vid=ebbb3db5-66b4-4907-9a7b-ed749cb4c62b"},"vehicle_type_id":"4","last_reported":1747189682,"current_range_meters":14800,"station_id":"ce4bhqp2rcd13ifvqhng","pricing_plan_id":"cebpf4jnsgd1na2vs0mg"},{"bike_id":"0c893fb7-8626-4706-85bf-f404b871dea5","system_id":"levelo_inurba_marseille","lat":43.28125,"lon":5.446,"is_reserved":false,"is_disabled":false,"rental_uris":{"android":"levelo://app?vid=0c893fb7-8626-4706-85bf-f404b871dea5","ios":"levelo://app?vid=0c893fb7-8626-4706-85bf-f404b871dea5"},"vehicle_type_id":"4","last_reported":1747189682,"current_range_meters":15200,"station_id":"","pricing_plan_id":"cebpf4jnsgd1na2vs0mg"},{"bike_id":"356eb65b-4211-494a-b4a2-fba28f60c55b","system_id":"levelo_inurba_marseille","lat":43.31252,"lon":5.40175,"is_reserved":false,"is_disabled":false,"rental_uris":{"android":"levelo://app?vid=356eb65b-4211-494a-b4a2-fba28f60c55b","ios":"levelo://app?vid=356eb65b-4211-494a-b4a2-fba28f60c55b"},"vehicle_type_id":"4","last_reported":1747189682,"current_range_meters":15200,"station_id":"ce4bh092rcd13ifvqd30","pricing_plan_id":"cebpf4jnsgd1na2vs0mg"},{"bike_id":"6c320e07-d645-40f2-af93-68425ed6e226","system_id":"levelo_inurba_marseille","lat":43.31073,"lon":5.38353,"is_reserved":false,"is_disabled":false,"rental_uris":{"android":"levelo://app?vid=6c320e07-d645-40f2-af93-68425ed6e226","ios":"levelo://app?vid=6c320e07-d645-40f2-af93-68425ed6e226"},"vehicle_type_id":"4","last_reported":1747189682,"current_range_meters":15200,"station_id":"ce4bgv92rcd13ifvqcr0","pricing_plan_id":"cebpf4jnsgd1na2vs0mg"},{"bike_id":"1e297e0e-a907-489c-9a22-1dfb89bfb64f","system_id":"levelo_inurba_marseille","lat":43.29258,"lon":5.36429,"is_reserved":false,"is_disabled":false,"rental_uris":{"android":"levelo://app?vid=1e297e0e-a907-489c-9a22-1dfb89bfb64f","ios":"levelo://app?vid=1e297e0e-a907-489c-9a22-1dfb89bfb64f"},"vehicle_type_id":"4","last_reported":1747189682,"current_range_meters":16000,"station_id":"","pricing_plan_id":"cebpf4jnsgd1na2vs0mg"},{"bike_id":"e0b72e53-6f43-40a6-a62f-fa80124a77b6","system_id":"levelo_inurba_marseille","lat":43.269455,"lon":5.386263,"is_reserved":false,"is_disabled":true,"rental_uris":{"android":"levelo://app?vid=e0b72e53-6f43-40a6-a62f-fa80124a77b6","ios":"levelo://app?vid=e0b72e53-6f43-40a6-a62f-fa80124a77b6"},"vehicle_type_id":"4","last_reported":1747189682,"current_range_meters":16000,"station_id":"ce4bhh92rcd13ifvqfh0","pricing_plan_id":"cebpf4jnsgd1na2vs0mg"},{"bike_id":"46763bb3-efa8-4792-b73a-0ee884b4c63a","system_id":"levelo_inurba_marseille","lat":43.304181,"lon":5.412841,"is_reserved":false,"is_disabled":false,"rental_uris":{"android":"levelo://app?vid=46763bb3-efa8-4792-b73a-0ee884b4c63a","ios":"levelo://app?vid=46763bb3-efa8-4792-b73a-0ee884b4c63a"},"vehicle_type_id":"4","last_reported":1747189682,"current_range_meters":16000,"station_id":"ce4bhop2rcd13ifvqh8g","pricing_plan_id":"cebpf4jnsgd1na2vs0mg"},{"bike_id":"e1b7877d-b413-4fd3-b7e0-fbf47c737189","system_id":"levelo_inurba_marseille","lat":43.28438,"lon":5.39183,"is_reserved":false,"is_disabled":false,"rental_uris":{"android":"levelo://app?vid=e1b7877d-b413-4fd3-b7e0-fbf47c737189","ios":"levelo://app?vid=e1b7877d-b413-4fd3-b7e0-fbf47c737189"},"vehicle_type_id":"4","last_reported":1747189682,"current_range_meters":16000,"station_id":"ce4bhoh2rcd13ifvqh5g","pricing_plan_id":"cebpf4jnsgd1na2vs0mg"},{"bike_id":"977d0951-40d5-4b1e-8806-1af2c81bb348","system_id":"levelo_inurba_marseille","lat":43.22938,"lon":5.35407,"is_reserved":false,"is_disabled":false,"rental_uris":{"android":"levelo://app?vid=977d0951-40d5-4b1e-8806-1af2c81bb348","ios":"levelo://app?vid=977d0951-40d5-4b1e-8806-1af2c81bb348"},"vehicle_type_id":"4","last_reported":1747189682,"current_range_meters":16400,"station_id":"cpo3532slgdg3j2ikp40","pricing_plan_id":"cebpf4jnsgd1na2vs0mg"},{"bike_id":"6c2c2fbb-d63b-479a-8565-a08a4d80173e","system_id":"levelo_inurba_marseille","lat":43.29282,"lon":5.40154,"is_reserved":false,"is_disabled":false,"rental_uris":{"android":"levelo://app?vid=6c2c2fbb-d63b-479a-8565-a08a4d80173e","ios":"levelo://app?vid=6c2c2fbb-d63b-479a-8565-a08a4d80173e"},"vehicle_type_id":"4","last_reported":1747189682,"current_range_meters":16400,"station_id":"ce4bh312rcd13ifvqdk0","pricing_plan_id":"cebpf4jnsgd1na2vs0mg"},{"bike_id":"ffe53d02-a538-4c1a-9a5c-588c2097d334","system_id":"levelo_inurba_marseille","lat":43.22927,"lon":5.3539,"is_reserved":false,"is_disabled":false,"rental_uris":{"android":"levelo://app?vid=ffe53d02-a538-4c1a-9a5c-588c2097d334","ios":"levelo://app?vid=ffe53d02-a538-4c1a-9a5c-588c2097d334"},"vehicle_type_id":"4","last_reported":1747189682,"current_range_meters":16400,"station_id":"cpo3532slgdg3j2ikp40","pricing_plan_id":"cebpf4jnsgd1na2vs0mg"},{"bike_id":"bd2b5a4c-e937-4cff-a5f6-59cf103d5392","system_id":"levelo_inurba_marseille","lat":43.302596,"lon":5.400577,"is_reserved":false,"is_disabled":false,"rental_uris":{"android":"levelo://app?vid=bd2b5a4c-e937-4cff-a5f6-59cf103d5392","ios":"levelo://app?vid=bd2b5a4c-e937-4cff-a5f6-59cf103d5392"},"vehicle_type_id":"4","last_reported":1747189682,"current_range_meters":16800,"station_id":"ce4bgvh2rcd13ifvqcs0","pricing_plan_id":"cebpf4jnsgd1na2vs0mg"},{"bike_id":"8d563e64-e76f-43b4-934f-0ef8b1e94d35","system_id":"levelo_inurba_marseille","lat":43.31873,"lon":5.37379,"is_reserved":false,"is_disabled":false,"rental_uris":{"android":"levelo://app?vid=8d563e64-e76f-43b4-934f-0ef8b1e94d35","ios":"levelo://app?vid=8d563e64-e76f-43b4-934f-0ef8b1e94d35"},"vehicle_type_id":"4","last_reported":1747189682,"current_range_meters":16800,"station_id":"","pricing_plan_id":"cebpf4jnsgd1na2vs0mg"},{"bike_id":"0ee57cd3-b290-46af-a35a-6f306772e452","system_id":"levelo_inurba_marseille","lat":43.30662,"lon":5.40273,"is_reserved":false,"is_disabled":false,"rental_uris":{"android":"levelo://app?vid=0ee57cd3-b290-46af-a35a-6f306772e452","ios":"levelo://app?vid=0ee57cd3-b290-46af-a35a-6f306772e452"},"vehicle_type_id":"4","last_reported":1747189682,"current_range_meters":16800,"station_id":"","pricing_plan_id":"cebpf4jnsgd1na2vs0mg"},{"bike_id":"6ab8ce51-7577-4ccb-ac2f-bc6cb35c2974","system_id":"levelo_inurba_marseille","lat":43.21193,"lon":5.350763,"is_reserved":false,"is_disabled":false,"rental_uris":{"android":"levelo://app?vid=6ab8ce51-7577-4ccb-ac2f-bc6cb35c2974","ios":"levelo://app?vid=6ab8ce51-7577-4ccb-ac2f-bc6cb35c2974"},"vehicle_type_id":"4","last_reported":1747189682,"current_range_meters":16800,"station_id":"st_cvj6sg6p6f1abm77japg","pricing_plan_id":"cebpf4jnsgd1na2vs0mg"},{"bike_id":"c5a6038e-e242-4c42-a6da-186787771b16","system_id":"levelo_inurba_marseille","lat":43.21761,"lon":5.3462,"is_reserved":false,"is_disabled":false,"rental_uris":{"android":"levelo://app?vid=c5a6038e-e242-4c42-a6da-186787771b16","ios":"levelo://app?vid=c5a6038e-e242-4c42-a6da-186787771b16"},"vehicle_type_id":"4","last_reported":1747189682,"current_range_meters":17200,"station_id":"st_cvj6r9ubvosntc0bgbag","pricing_plan_id":"cebpf4jnsgd1na2vs0mg"},{"bike_id":"10f98a35-89c5-4475-9c01-49b1c98311db","system_id":"levelo_inurba_marseille","lat":43.27562,"lon":5.38425,"is_reserved":false,"is_disabled":false,"rental_uris":{"android":"levelo://app?vid=10f98a35-89c5-4475-9c01-49b1c98311db","ios":"levelo://app?vid=10f98a35-89c5-4475-9c01-49b1c98311db"},"vehicle_type_id":"4","last_reported":1747189682,"current_range_meters":17200,"station_id":"ce4bhh92rcd13ifvqfi0","pricing_plan_id":"cebpf4jnsgd1na2vs0mg"},{"bike_id":"deac4db0-9b8e-4a2f-baf8-2108ac02cff5","system_id":"levelo_inurba_marseille","lat":43.22502,"lon":5.3478,"is_reserved":false,"is_disabled":false,"rental_uris":{"android":"levelo://app?vid=deac4db0-9b8e-4a2f-baf8-2108ac02cff5","ios":"levelo://app?vid=deac4db0-9b8e-4a2f-baf8-2108ac02cff5"},"vehicle_type_id":"4","last_reported":1747189682,"current_range_meters":17200,"station_id":"st_cvj5dfep6f1abm77gieg","pricing_plan_id":"cebpf4jnsgd1na2vs0mg"},{"bike_id":"5d370f72-1749-4f0b-9815-d32525a7fd58","system_id":"levelo_inurba_marseille","lat":43.323338,"lon":5.406222,"is_reserved":false,"is_disabled":false,"rental_uris":{"android":"levelo://app?vid=5d370f72-1749-4f0b-9815-d32525a7fd58","ios":"levelo://app?vid=5d370f72-1749-4f0b-9815-d32525a7fd58"},"vehicle_type_id":"4","last_reported":1747189682,"current_range_meters":17200,"station_id":"ce4bhq92rcd13ifvqhjg","pricing_plan_id":"cebpf4jnsgd1na2vs0mg"},{"bike_id":"140a4313-931b-4531-86c2-56a878302554","system_id":"levelo_inurba_marseille","lat":43.309329,"lon":5.401479,"is_reserved":false,"is_disabled":false,"rental_uris":{"android":"levelo://app?vid=140a4313-931b-4531-86c2-56a878302554","ios":"levelo://app?vid=140a4313-931b-4531-86c2-56a878302554"},"vehicle_type_id":"4","last_reported":1747189682,"current_range_meters":17200,"station_id":"ce4bgvp2rcd13ifvqct0","pricing_plan_id":"cebpf4jnsgd1na2vs0mg"},{"bike_id":"ecdc5eb1-7184-4fb1-b390-8b3d2977affa","system_id":"levelo_inurba_marseille","lat":43.311048,"lon":5.375974,"is_reserved":false,"is_disabled":false,"rental_uris":{"android":"levelo://app?vid=ecdc5eb1-7184-4fb1-b390-8b3d2977affa","ios":"levelo://app?vid=ecdc5eb1-7184-4fb1-b390-8b3d2977affa"},"vehicle_type_id":"4","last_reported":1747189682,"current_range_meters":17200,"station_id":"","pricing_plan_id":"cebpf4jnsgd1na2vs0mg"},{"bike_id":"f82feab9-232b-41ba-b7d0-66c9931f5d8b","system_id":"levelo_inurba_marseille","lat":43.28691,"lon":5.40023,"is_reserved":false,"is_disabled":false,"rental_uris":{"android":"levelo://app?vid=f82feab9-232b-41ba-b7d0-66c9931f5d8b","ios":"levelo://app?vid=f82feab9-232b-41ba-b7d0-66c9931f5d8b"},"vehicle_type_id":"4","last_reported":1747189682,"current_range_meters":17200,"station_id":"ce4bho92rcd13ifvqh3g","pricing_plan_id":"cebpf4jnsgd1na2vs0mg"},{"bike_id":"c1221f98-1a10-4585-801b-8900ec2f00eb","system_id":"levelo_inurba_marseille","lat":43.29696,"lon":5.36625,"is_reserved":false,"is_disabled":false,"rental_uris":{"android":"levelo://app?vid=c1221f98-1a10-4585-801b-8900ec2f00eb","ios":"levelo://app?vid=c1221f98-1a10-4585-801b-8900ec2f00eb"},"vehicle_type_id":"4","last_reported":1747189682,"current_range_meters":17600,"station_id":"ce4bgn12rcd13ifvqbt0","pricing_plan_id":"cebpf4jnsgd1na2vs0mg"},{"bike_id":"b4777d59-fc56-46ae-8a48-c6f6a5536c77","system_id":"levelo_inurba_marseille","lat":43.30326,"lon":5.40434,"is_reserved":false,"is_disabled":false,"rental_uris":{"android":"levelo://app?vid=b4777d59-fc56-46ae-8a48-c6f6a5536c77","ios":"levelo://app?vid=b4777d59-fc56-46ae-8a48-c6f6a5536c77"},"vehicle_type_id":"4","last_reported":1747189682,"current_range_meters":17600,"station_id":"ce4bh012rcd13ifvqd10","pricing_plan_id":"cebpf4jnsgd1na2vs0mg"},{"bike_id":"3b8bd03d-b03b-41de-9406-6372dd33a0ed","system_id":"levelo_inurba_marseille","lat":43.287059,"lon":5.399785,"is_reserved":false,"is_disabled":false,"rental_uris":{"android":"levelo://app?vid=3b8bd03d-b03b-41de-9406-6372dd33a0ed","ios":"levelo://app?vid=3b8bd03d-b03b-41de-9406-6372dd33a0ed"},"vehicle_type_id":"4","last_reported":1747189682,"current_range_meters":17600,"station_id":"ce4bho92rcd13ifvqh3g","pricing_plan_id":"cebpf4jnsgd1na2vs0mg"},{"bike_id":"8ff86fea-1791-450c-a5aa-8bebc912c03b","system_id":"levelo_inurba_marseille","lat":43.32104,"lon":5.36794,"is_reserved":false,"is_disabled":false,"rental_uris":{"android":"levelo://app?vid=8ff86fea-1791-450c-a5aa-8bebc912c03b","ios":"levelo://app?vid=8ff86fea-1791-450c-a5aa-8bebc912c03b"},"vehicle_type_id":"4","last_reported":1747189682,"current_range_meters":17600,"station_id":"ce4bhrh2rcd13ifvqhug","pricing_plan_id":"cebpf4jnsgd1na2vs0mg"},{"bike_id":"29ce2bff-29c9-4638-a93d-53611c79a41e","system_id":"levelo_inurba_marseille","lat":43.32366,"lon":5.38897,"is_reserved":false,"is_disabled":false,"rental_uris":{"android":"levelo://app?vid=29ce2bff-29c9-4638-a93d-53611c79a41e","ios":"levelo://app?vid=29ce2bff-29c9-4638-a93d-53611c79a41e"},"vehicle_type_id":"4","last_reported":1747189682,"current_range_meters":17600,"station_id":"ce4bhqp2rcd13ifvqhog","pricing_plan_id":"cebpf4jnsgd1na2vs0mg"},{"bike_id":"51436966-3bae-4f05-bd39-e136a6553cbf","system_id":"levelo_inurba_marseille","lat":43.28415,"lon":5.39209,"is_reserved":false,"is_disabled":false,"rental_uris":{"android":"levelo://app?vid=51436966-3bae-4f05-bd39-e136a6553cbf","ios":"levelo://app?vid=51436966-3bae-4f05-bd39-e136a6553cbf"},"vehicle_type_id":"4","last_reported":1747189682,"current_range_meters":17600,"station_id":"ce4bhoh2rcd13ifvqh5g","pricing_plan_id":"cebpf4jnsgd1na2vs0mg"},{"bike_id":"f1451609-d035-47a8-8036-0b5324cee08c","system_id":"levelo_inurba_marseille","lat":43.30574,"lon":5.37299,"is_reserved":false,"is_disabled":false,"rental_uris":{"android":"levelo://app?vid=f1451609-d035-47a8-8036-0b5324cee08c","ios":"levelo://app?vid=f1451609-d035-47a8-8036-0b5324cee08c"},"vehicle_type_id":"4","last_reported":1747189682,"current_range_meters":17600,"station_id":"ce4bgqh2rcd13ifvqc4g","pricing_plan_id":"cebpf4jnsgd1na2vs0mg"},{"bike_id":"8446de64-ef8c-4cdc-a02f-ac80f8460e67","system_id":"levelo_inurba_marseille","lat":43.31356,"lon":5.38498,"is_reserved":false,"is_disabled":true,"rental_uris":{"android":"levelo://app?vid=8446de64-ef8c-4cdc-a02f-ac80f8460e67","ios":"levelo://app?vid=8446de64-ef8c-4cdc-a02f-ac80f8460e67"},"vehicle_type_id":"4","last_reported":1747189682,"current_range_meters":17600,"station_id":"ce4bgt92rcd13ifvqcf0","pricing_plan_id":"cebpf4jnsgd1na2vs0mg"},{"bike_id":"1cfb5e24-e097-429b-8c97-a76aaf9b3f49","system_id":"levelo_inurba_marseille","lat":43.2466,"lon":5.38164,"is_reserved":false,"is_disabled":false,"rental_uris":{"android":"levelo://app?vid=1cfb5e24-e097-429b-8c97-a76aaf9b3f49","ios":"levelo://app?vid=1cfb5e24-e097-429b-8c97-a76aaf9b3f49"},"vehicle_type_id":"4","last_reported":1747189682,"current_range_meters":18000,"station_id":"ce4bhih2rcd13ifvqfr0","pricing_plan_id":"cebpf4jnsgd1na2vs0mg"},{"bike_id":"4fc49f79-fa67-4460-a03b-8373ee1b7092","system_id":"levelo_inurba_marseille","lat":43.268052,"lon":5.402649,"is_reserved":false,"is_disabled":false,"rental_uris":{"android":"levelo://app?vid=4fc49f79-fa67-4460-a03b-8373ee1b7092","ios":"levelo://app?vid=4fc49f79-fa67-4460-a03b-8373ee1b7092"},"vehicle_type_id":"4","last_reported":1747189682,"current_range_meters":18000,"station_id":"ce501612rcd8frsf0b60","pricing_plan_id":"cebpf4jnsgd1na2vs0mg"},{"bike_id":"1f4658bd-b04a-47f1-8fa8-8ae9eb2b41b6","system_id":"levelo_inurba_marseille","lat":43.28696,"lon":5.40008,"is_reserved":false,"is_disabled":false,"rental_uris":{"android":"levelo://app?vid=1f4658bd-b04a-47f1-8fa8-8ae9eb2b41b6","ios":"levelo://app?vid=1f4658bd-b04a-47f1-8fa8-8ae9eb2b41b6"},"vehicle_type_id":"4","last_reported":1747189682,"current_range_meters":18000,"station_id":"ce4bho92rcd13ifvqh3g","pricing_plan_id":"cebpf4jnsgd1na2vs0mg"},{"bike_id":"e3ebb892-4873-4499-953b-e4921a77194a","system_id":"levelo_inurba_marseille","lat":43.27251,"lon":5.3921,"is_reserved":false,"is_disabled":true,"rental_uris":{"android":"levelo://app?vid=e3ebb892-4873-4499-953b-e4921a77194a","ios":"levelo://app?vid=e3ebb892-4873-4499-953b-e4921a77194a"},"vehicle_type_id":"4","last_reported":1747189682,"current_range_meters":18000,"station_id":"","pricing_plan_id":"cebpf4jnsgd1na2vs0mg"},{"bike_id":"8494d181-9ae5-4c66-9c18-2effdb88bdb3","system_id":"levelo_inurba_marseille","lat":43.30735,"lon":5.37683,"is_reserved":false,"is_disabled":false,"rental_uris":{"android":"levelo://app?vid=8494d181-9ae5-4c66-9c18-2effdb88bdb3","ios":"levelo://app?vid=8494d181-9ae5-4c66-9c18-2effdb88bdb3"},"vehicle_type_id":"4","last_reported":1747189682,"current_range_meters":18000,"station_id":"","pricing_plan_id":"cebpf4jnsgd1na2vs0mg"},{"bike_id":"fd75db0b-8fe0-4d21-834a-948fc2981351","system_id":"levelo_inurba_marseille","lat":43.28423,"lon":5.39205,"is_reserved":false,"is_disabled":false,"rental_uris":{"android":"levelo://app?vid=fd75db0b-8fe0-4d21-834a-948fc2981351","ios":"levelo://app?vid=fd75db0b-8fe0-4d21-834a-948fc2981351"},"vehicle_type_id":"4","last_reported":1747189682,"current_range_meters":18000,"station_id":"ce4bhoh2rcd13ifvqh5g","pricing_plan_id":"cebpf4jnsgd1na2vs0mg"},{"bike_id":"3315caf7-376f-4460-bd73-ddce057d5263","system_id":"levelo_inurba_marseille","lat":43.240692,"lon":5.377442,"is_reserved":false,"is_disabled":false,"rental_uris":{"android":"levelo://app?vid=3315caf7-376f-4460-bd73-ddce057d5263","ios":"levelo://app?vid=3315caf7-376f-4460-bd73-ddce057d5263"},"vehicle_type_id":"4","last_reported":1747189682,"current_range_meters":18000,"station_id":"ce4bhnp2rcd13ifvqgvg","pricing_plan_id":"cebpf4jnsgd1na2vs0mg"},{"bike_id":"5647a91f-31a6-41fb-82bb-83893a94fc73","system_id":"levelo_inurba_marseille","lat":43.21192,"lon":5.35073,"is_reserved":false,"is_disabled":false,"rental_uris":{"android":"levelo://app?vid=5647a91f-31a6-41fb-82bb-83893a94fc73","ios":"levelo://app?vid=5647a91f-31a6-41fb-82bb-83893a94fc73"},"vehicle_type_id":"4","last_reported":1747189682,"current_range_meters":18800,"station_id":"st_cvj6sg6p6f1abm77japg","pricing_plan_id":"cebpf4jnsgd1na2vs0mg"},{"bike_id":"5b2bf2cc-e79c-4a99-a91f-20d49657d90b","system_id":"levelo_inurba_marseille","lat":43.24173,"lon":5.39733,"is_reserved":false,"is_disabled":false,"rental_uris":{"android":"levelo://app?vid=5b2bf2cc-e79c-4a99-a91f-20d49657d90b","ios":"levelo://app?vid=5b2bf2cc-e79c-4a99-a91f-20d49657d90b"},"vehicle_type_id":"4","last_reported":1747189682,"current_range_meters":18800,"station_id":"ce4bhn12rcd13ifvqgpg","pricing_plan_id":"cebpf4jnsgd1na2vs0mg"},{"bike_id":"2caf282f-50d5-4f90-a160-c61524772e9a","system_id":"levelo_inurba_marseille","lat":43.28552,"lon":5.3951,"is_reserved":false,"is_disabled":false,"rental_uris":{"android":"levelo://app?vid=2caf282f-50d5-4f90-a160-c61524772e9a","ios":"levelo://app?vid=2caf282f-50d5-4f90-a160-c61524772e9a"},"vehicle_type_id":"4","last_reported":1747189682,"current_range_meters":18800,"station_id":"ce4bh292rcd13ifvqdg0","pricing_plan_id":"cebpf4jnsgd1na2vs0mg"},{"bike_id":"c77744cd-dd85-473a-952b-e9873b6afa4f","system_id":"levelo_inurba_marseille","lat":43.33229,"lon":5.4044,"is_reserved":false,"is_disabled":false,"rental_uris":{"android":"levelo://app?vid=c77744cd-dd85-473a-952b-e9873b6afa4f","ios":"levelo://app?vid=c77744cd-dd85-473a-952b-e9873b6afa4f"},"vehicle_type_id":"4","last_reported":1747189682,"current_range_meters":18800,"station_id":"","pricing_plan_id":"cebpf4jnsgd1na2vs0mg"},{"bike_id":"743d0d38-9a78-4c3b-bda7-0ebf8bc2b883","system_id":"levelo_inurba_marseille","lat":43.29186,"lon":5.39325,"is_reserved":false,"is_disabled":false,"rental_uris":{"android":"levelo://app?vid=743d0d38-9a78-4c3b-bda7-0ebf8bc2b883","ios":"levelo://app?vid=743d0d38-9a78-4c3b-bda7-0ebf8bc2b883"},"vehicle_type_id":"4","last_reported":1747189682,"current_range_meters":18800,"station_id":"ce4bh192rcd13ifvqdd0","pricing_plan_id":"cebpf4jnsgd1na2vs0mg"},{"bike_id":"cde9e2f9-16b1-492d-93b9-e84fde1bbe3d","system_id":"levelo_inurba_marseille","lat":43.33764,"lon":5.37469,"is_reserved":false,"is_disabled":false,"rental_uris":{"android":"levelo://app?vid=cde9e2f9-16b1-492d-93b9-e84fde1bbe3d","ios":"levelo://app?vid=cde9e2f9-16b1-492d-93b9-e84fde1bbe3d"},"vehicle_type_id":"4","last_reported":1747189682,"current_range_meters":18800,"station_id":"","pricing_plan_id":"cebpf4jnsgd1na2vs0mg"},{"bike_id":"75838bdd-0ba7-4e40-906e-58301d4d7b01","system_id":"levelo_inurba_marseille","lat":43.323588,"lon":5.38882,"is_reserved":false,"is_disabled":false,"rental_uris":{"android":"levelo://app?vid=75838bdd-0ba7-4e40-906e-58301d4d7b01","ios":"levelo://app?vid=75838bdd-0ba7-4e40-906e-58301d4d7b01"},"vehicle_type_id":"4","last_reported":1747189682,"current_range_meters":18800,"station_id":"ce4bhqp2rcd13ifvqhog","pricing_plan_id":"cebpf4jnsgd1na2vs0mg"},{"bike_id":"71184bd5-3817-43b3-8b7e-8c7eedcc81a3","system_id":"levelo_inurba_marseille","lat":43.30313,"lon":5.40438,"is_reserved":false,"is_disabled":false,"rental_uris":{"android":"levelo://app?vid=71184bd5-3817-43b3-8b7e-8c7eedcc81a3","ios":"levelo://app?vid=71184bd5-3817-43b3-8b7e-8c7eedcc81a3"},"vehicle_type_id":"4","last_reported":1747189682,"current_range_meters":19200,"station_id":"ce4bh012rcd13ifvqd10","pricing_plan_id":"cebpf4jnsgd1na2vs0mg"},{"bike_id":"0b9607ef-f196-4c2a-a63c-3384ebed5fb2","system_id":"levelo_inurba_marseille","lat":43.29864,"lon":5.3974,"is_reserved":false,"is_disabled":false,"rental_uris":{"android":"levelo://app?vid=0b9607ef-f196-4c2a-a63c-3384ebed5fb2","ios":"levelo://app?vid=0b9607ef-f196-4c2a-a63c-3384ebed5fb2"},"vehicle_type_id":"4","last_reported":1747189682,"current_range_meters":19200,"station_id":"ce4bh0h2rcd13ifvqd50","pricing_plan_id":"cebpf4jnsgd1na2vs0mg"},{"bike_id":"f0649364-0107-4d97-ae7e-c2cb5ebd23f0","system_id":"levelo_inurba_marseille","lat":43.21749,"lon":5.34611,"is_reserved":false,"is_disabled":false,"rental_uris":{"android":"levelo://app?vid=f0649364-0107-4d97-ae7e-c2cb5ebd23f0","ios":"levelo://app?vid=f0649364-0107-4d97-ae7e-c2cb5ebd23f0"},"vehicle_type_id":"4","last_reported":1747189682,"current_range_meters":19200,"station_id":"st_cvj6r9ubvosntc0bgbag","pricing_plan_id":"cebpf4jnsgd1na2vs0mg"},{"bike_id":"09a35a50-6156-435d-8ef9-8519335d4492","system_id":"levelo_inurba_marseille","lat":43.30641,"lon":5.40071,"is_reserved":false,"is_disabled":false,"rental_uris":{"android":"levelo://app?vid=09a35a50-6156-435d-8ef9-8519335d4492","ios":"levelo://app?vid=09a35a50-6156-435d-8ef9-8519335d4492"},"vehicle_type_id":"4","last_reported":1747189682,"current_range_meters":19200,"station_id":"ce4bh112rcd13ifvqda0","pricing_plan_id":"cebpf4jnsgd1na2vs0mg"},{"bike_id":"c61dc4c2-1457-4a98-ab55-37af57e827a1","system_id":"levelo_inurba_marseille","lat":43.28156,"lon":5.42651,"is_reserved":false,"is_disabled":false,"rental_uris":{"android":"levelo://app?vid=c61dc4c2-1457-4a98-ab55-37af57e827a1","ios":"levelo://app?vid=c61dc4c2-1457-4a98-ab55-37af57e827a1"},"vehicle_type_id":"4","last_reported":1747189682,"current_range_meters":19200,"station_id":"ce4bhnh2rcd13ifvqgug","pricing_plan_id":"cebpf4jnsgd1na2vs0mg"},{"bike_id":"c11d672d-5ac8-4a85-b01e-f9e4763d878d","system_id":"levelo_inurba_marseille","lat":43.33579,"lon":5.4105,"is_reserved":false,"is_disabled":false,"rental_uris":{"android":"levelo://app?vid=c11d672d-5ac8-4a85-b01e-f9e4763d878d","ios":"levelo://app?vid=c11d672d-5ac8-4a85-b01e-f9e4763d878d"},"vehicle_type_id":"4","last_reported":1747189682,"current_range_meters":19200,"station_id":"ce4bhqh2rcd13ifvqhmg","pricing_plan_id":"cebpf4jnsgd1na2vs0mg"},{"bike_id":"41534364-62ff-4459-92c4-4f300a43681b","system_id":"levelo_inurba_marseille","lat":43.28439,"lon":5.39186,"is_reserved":false,"is_disabled":false,"rental_uris":{"android":"levelo://app?vid=41534364-62ff-4459-92c4-4f300a43681b","ios":"levelo://app?vid=41534364-62ff-4459-92c4-4f300a43681b"},"vehicle_type_id":"4","last_reported":1747189682,"current_range_meters":19200,"station_id":"ce4bhoh2rcd13ifvqh5g","pricing_plan_id":"cebpf4jnsgd1na2vs0mg"},{"bike_id":"5624bb87-67e8-4801-b311-2ee22ddd3ec7","system_id":"levelo_inurba_marseille","lat":43.27213,"lon":5.39181,"is_reserved":false,"is_disabled":false,"rental_uris":{"android":"levelo://app?vid=5624bb87-67e8-4801-b311-2ee22ddd3ec7","ios":"levelo://app?vid=5624bb87-67e8-4801-b311-2ee22ddd3ec7"},"vehicle_type_id":"4","last_reported":1747189682,"current_range_meters":19600,"station_id":"ce4bhhp2rcd13ifvqfm0","pricing_plan_id":"cebpf4jnsgd1na2vs0mg"},{"bike_id":"ac0112c9-313e-422c-910b-a3523b05b0c9","system_id":"levelo_inurba_marseille","lat":43.23031,"lon":5.35524,"is_reserved":false,"is_disabled":false,"rental_uris":{"android":"levelo://app?vid=ac0112c9-313e-422c-910b-a3523b05b0c9","ios":"levelo://app?vid=ac0112c9-313e-422c-910b-a3523b05b0c9"},"vehicle_type_id":"4","last_reported":1747189682,"current_range_meters":19600,"station_id":"cpo3342slgdg3j2ifvpg","pricing_plan_id":"cebpf4jnsgd1na2vs0mg"},{"bike_id":"042b9723-7f0a-48a6-9720-7f35c609a25c","system_id":"levelo_inurba_marseille","lat":43.31359,"lon":5.38491,"is_reserved":false,"is_disabled":false,"rental_uris":{"android":"levelo://app?vid=042b9723-7f0a-48a6-9720-7f35c609a25c","ios":"levelo://app?vid=042b9723-7f0a-48a6-9720-7f35c609a25c"},"vehicle_type_id":"4","last_reported":1747189682,"current_range_meters":19600,"station_id":"ce4bgt92rcd13ifvqcf0","pricing_plan_id":"cebpf4jnsgd1na2vs0mg"},{"bike_id":"49a5f454-00ee-4b17-84b8-175848e72351","system_id":"levelo_inurba_marseille","lat":43.306528,"lon":5.400854,"is_reserved":false,"is_disabled":false,"rental_uris":{"android":"levelo://app?vid=49a5f454-00ee-4b17-84b8-175848e72351","ios":"levelo://app?vid=49a5f454-00ee-4b17-84b8-175848e72351"},"vehicle_type_id":"4","last_reported":1747189682,"current_range_meters":19600,"station_id":"ce4bh112rcd13ifvqda0","pricing_plan_id":"cebpf4jnsgd1na2vs0mg"},{"bike_id":"c4f204d2-505f-4d38-a978-29d1e951ec0a","system_id":"levelo_inurba_marseille","lat":43.250014,"lon":5.389297,"is_reserved":false,"is_disabled":false,"rental_uris":{"android":"levelo://app?vid=c4f204d2-505f-4d38-a978-29d1e951ec0a","ios":"levelo://app?vid=c4f204d2-505f-4d38-a978-29d1e951ec0a"},"vehicle_type_id":"4","last_reported":1747189682,"current_range_meters":19600,"station_id":"ce4bhgp2rcd13ifvqfd0","pricing_plan_id":"cebpf4jnsgd1na2vs0mg"},{"bike_id":"e409cd08-b9c4-4d62-aefb-05d029e2c480","system_id":"levelo_inurba_marseille","lat":43.306449,"lon":5.427942,"is_reserved":false,"is_disabled":false,"rental_uris":{"android":"levelo://app?vid=e409cd08-b9c4-4d62-aefb-05d029e2c480","ios":"levelo://app?vid=e409cd08-b9c4-4d62-aefb-05d029e2c480"},"vehicle_type_id":"4","last_reported":1747189682,"current_range_meters":19600,"station_id":"","pricing_plan_id":"cebpf4jnsgd1na2vs0mg"},{"bike_id":"32c4297d-700e-456e-b1ab-9788fe2e644b","system_id":"levelo_inurba_marseille","lat":43.315083,"lon":5.372947,"is_reserved":false,"is_disabled":true,"rental_uris":{"android":"levelo://app?vid=32c4297d-700e-456e-b1ab-9788fe2e644b","ios":"levelo://app?vid=32c4297d-700e-456e-b1ab-9788fe2e644b"},"vehicle_type_id":"4","last_reported":1747189682,"current_range_meters":19600,"station_id":"ce4bgt12rcd13ifvqcd0","pricing_plan_id":"cebpf4jnsgd1na2vs0mg"},{"bike_id":"000c0b13-a9a2-4019-bac1-98362dbbca8f","system_id":"levelo_inurba_marseille","lat":43.24061,"lon":5.37766,"is_reserved":false,"is_disabled":false,"rental_uris":{"android":"levelo://app?vid=000c0b13-a9a2-4019-bac1-98362dbbca8f","ios":"levelo://app?vid=000c0b13-a9a2-4019-bac1-98362dbbca8f"},"vehicle_type_id":"4","last_reported":1747189682,"current_range_meters":19600,"station_id":"ce4bhnp2rcd13ifvqgvg","pricing_plan_id":"cebpf4jnsgd1na2vs0mg"},{"bike_id":"2b610a4a-1cfb-4419-b14d-2ee96e7de55a","system_id":"levelo_inurba_marseille","lat":43.29193,"lon":5.39339,"is_reserved":false,"is_disabled":false,"rental_uris":{"android":"levelo://app?vid=2b610a4a-1cfb-4419-b14d-2ee96e7de55a","ios":"levelo://app?vid=2b610a4a-1cfb-4419-b14d-2ee96e7de55a"},"vehicle_type_id":"4","last_reported":1747189682,"current_range_meters":19600,"station_id":"ce4bh192rcd13ifvqdd0","pricing_plan_id":"cebpf4jnsgd1na2vs0mg"},{"bike_id":"c2b14f17-082d-4942-ac27-c2062cd954d6","system_id":"levelo_inurba_marseille","lat":43.261953,"lon":5.379294,"is_reserved":false,"is_disabled":false,"rental_uris":{"android":"levelo://app?vid=c2b14f17-082d-4942-ac27-c2062cd954d6","ios":"levelo://app?vid=c2b14f17-082d-4942-ac27-c2062cd954d6"},"vehicle_type_id":"4","last_reported":1747189682,"current_range_meters":20000,"station_id":"ce4bhjp2rcd13ifvqg90","pricing_plan_id":"cebpf4jnsgd1na2vs0mg"},{"bike_id":"c21fd8a7-f8cf-41af-b742-acb68b7cb536","system_id":"levelo_inurba_marseille","lat":43.241788,"lon":5.397087,"is_reserved":false,"is_disabled":true,"rental_uris":{"android":"levelo://app?vid=c21fd8a7-f8cf-41af-b742-acb68b7cb536","ios":"levelo://app?vid=c21fd8a7-f8cf-41af-b742-acb68b7cb536"},"vehicle_type_id":"4","last_reported":1747189682,"current_range_meters":20000,"station_id":"ce4bhn12rcd13ifvqgpg","pricing_plan_id":"cebpf4jnsgd1na2vs0mg"},{"bike_id":"68bd40db-e76c-4167-888e-a375f5a26ea6","system_id":"levelo_inurba_marseille","lat":43.28131,"lon":5.42664,"is_reserved":false,"is_disabled":false,"rental_uris":{"android":"levelo://app?vid=68bd40db-e76c-4167-888e-a375f5a26ea6","ios":"levelo://app?vid=68bd40db-e76c-4167-888e-a375f5a26ea6"},"vehicle_type_id":"4","last_reported":1747189682,"current_range_meters":20000,"station_id":"ce4bhnh2rcd13ifvqgug","pricing_plan_id":"cebpf4jnsgd1na2vs0mg"},{"bike_id":"65a2976c-8b04-429a-95dd-f42d445408eb","system_id":"levelo_inurba_marseille","lat":43.28916,"lon":5.39686,"is_reserved":false,"is_disabled":false,"rental_uris":{"android":"levelo://app?vid=65a2976c-8b04-429a-95dd-f42d445408eb","ios":"levelo://app?vid=65a2976c-8b04-429a-95dd-f42d445408eb"},"vehicle_type_id":"4","last_reported":1747189682,"current_range_meters":20000,"station_id":"ce4bh3h2rcd13ifvqdn0","pricing_plan_id":"cebpf4jnsgd1na2vs0mg"},{"bike_id":"765d3cc3-0332-4bc4-99d3-4f30c7b8cbea","system_id":"levelo_inurba_marseille","lat":43.28274,"lon":5.3507,"is_reserved":false,"is_disabled":false,"rental_uris":{"android":"levelo://app?vid=765d3cc3-0332-4bc4-99d3-4f30c7b8cbea","ios":"levelo://app?vid=765d3cc3-0332-4bc4-99d3-4f30c7b8cbea"},"vehicle_type_id":"4","last_reported":1747189682,"current_range_meters":20000,"station_id":"ce4bhbp2rcd13ifvqerg","pricing_plan_id":"cebpf4jnsgd1na2vs0mg"},{"bike_id":"e46528c9-be4d-4b17-9919-22ec681c2159","system_id":"levelo_inurba_marseille","lat":43.29934,"lon":5.38518,"is_reserved":false,"is_disabled":false,"rental_uris":{"android":"levelo://app?vid=e46528c9-be4d-4b17-9919-22ec681c2159","ios":"levelo://app?vid=e46528c9-be4d-4b17-9919-22ec681c2159"},"vehicle_type_id":"4","last_reported":1747189682,"current_range_meters":20800,"station_id":"","pricing_plan_id":"cebpf4jnsgd1na2vs0mg"},{"bike_id":"04e67dbc-e3a0-4610-98d7-538d972ffae2","system_id":"levelo_inurba_marseille","lat":43.25112,"lon":5.40337,"is_reserved":false,"is_disabled":false,"rental_uris":{"android":"levelo://app?vid=04e67dbc-e3a0-4610-98d7-538d972ffae2","ios":"levelo://app?vid=04e67dbc-e3a0-4610-98d7-538d972ffae2"},"vehicle_type_id":"4","last_reported":1747189682,"current_range_meters":20800,"station_id":"ce4bhlh2rcd13ifvqgig","pricing_plan_id":"cebpf4jnsgd1na2vs0mg"},{"bike_id":"644511a3-94a8-4d9e-a99e-a8a4681f0634","system_id":"levelo_inurba_marseille","lat":43.24154,"lon":5.39764,"is_reserved":false,"is_disabled":false,"rental_uris":{"android":"levelo://app?vid=644511a3-94a8-4d9e-a99e-a8a4681f0634","ios":"levelo://app?vid=644511a3-94a8-4d9e-a99e-a8a4681f0634"},"vehicle_type_id":"4","last_reported":1747189682,"current_range_meters":20800,"station_id":"ce4bhn12rcd13ifvqgpg","pricing_plan_id":"cebpf4jnsgd1na2vs0mg"},{"bike_id":"a0b33ced-2d73-4ee0-93d7-11f117c46477","system_id":"levelo_inurba_marseille","lat":43.308049,"lon":5.381474,"is_reserved":false,"is_disabled":false,"rental_uris":{"android":"levelo://app?vid=a0b33ced-2d73-4ee0-93d7-11f117c46477","ios":"levelo://app?vid=a0b33ced-2d73-4ee0-93d7-11f117c46477"},"vehicle_type_id":"4","last_reported":1747189682,"current_range_meters":20800,"station_id":"ce4bgt12rcd13ifvqce0","pricing_plan_id":"cebpf4jnsgd1na2vs0mg"},{"bike_id":"38e17345-4492-446b-b61d-b44cc143194f","system_id":"levelo_inurba_marseille","lat":43.2718,"lon":5.4101,"is_reserved":false,"is_disabled":false,"rental_uris":{"android":"levelo://app?vid=38e17345-4492-446b-b61d-b44cc143194f","ios":"levelo://app?vid=38e17345-4492-446b-b61d-b44cc143194f"},"vehicle_type_id":"4","last_reported":1747189682,"current_range_meters":20800,"station_id":"ce4bhl12rcd13ifvqgf0","pricing_plan_id":"cebpf4jnsgd1na2vs0mg"},{"bike_id":"c0b9fd4f-e181-46ce-b0bf-f5119973334f","system_id":"levelo_inurba_marseille","lat":43.33771,"lon":5.37424,"is_reserved":false,"is_disabled":false,"rental_uris":{"android":"levelo://app?vid=c0b9fd4f-e181-46ce-b0bf-f5119973334f","ios":"levelo://app?vid=c0b9fd4f-e181-46ce-b0bf-f5119973334f"},"vehicle_type_id":"4","last_reported":1747189682,"current_range_meters":20800,"station_id":"","pricing_plan_id":"cebpf4jnsgd1na2vs0mg"},{"bike_id":"6acad5bb-433f-471b-b953-71840710769f","system_id":"levelo_inurba_marseille","lat":43.28152,"lon":5.42647,"is_reserved":false,"is_disabled":false,"rental_uris":{"android":"levelo://app?vid=6acad5bb-433f-471b-b953-71840710769f","ios":"levelo://app?vid=6acad5bb-433f-471b-b953-71840710769f"},"vehicle_type_id":"4","last_reported":1747189682,"current_range_meters":21600,"station_id":"ce4bhnh2rcd13ifvqgug","pricing_plan_id":"cebpf4jnsgd1na2vs0mg"},{"bike_id":"08a93b84-f9e2-4480-b23a-2ee7a592645e","system_id":"levelo_inurba_marseille","lat":43.217473,"lon":5.346044,"is_reserved":false,"is_disabled":false,"rental_uris":{"android":"levelo://app?vid=08a93b84-f9e2-4480-b23a-2ee7a592645e","ios":"levelo://app?vid=08a93b84-f9e2-4480-b23a-2ee7a592645e"},"vehicle_type_id":"4","last_reported":1747189682,"current_range_meters":21600,"station_id":"st_cvj6r9ubvosntc0bgbag","pricing_plan_id":"cebpf4jnsgd1na2vs0mg"},{"bike_id":"f68e8348-7bfa-41aa-8b96-07cd6d89f773","system_id":"levelo_inurba_marseille","lat":43.281552,"lon":5.426478,"is_reserved":false,"is_disabled":false,"rental_uris":{"android":"levelo://app?vid=f68e8348-7bfa-41aa-8b96-07cd6d89f773","ios":"levelo://app?vid=f68e8348-7bfa-41aa-8b96-07cd6d89f773"},"vehicle_type_id":"4","last_reported":1747189682,"current_range_meters":21600,"station_id":"","pricing_plan_id":"cebpf4jnsgd1na2vs0mg"},{"bike_id":"c35bcab0-a37f-4f36-9542-92ea7d9f56c6","system_id":"levelo_inurba_marseille","lat":43.28441,"lon":5.39182,"is_reserved":false,"is_disabled":false,"rental_uris":{"android":"levelo://app?vid=c35bcab0-a37f-4f36-9542-92ea7d9f56c6","ios":"levelo://app?vid=c35bcab0-a37f-4f36-9542-92ea7d9f56c6"},"vehicle_type_id":"4","last_reported":1747189682,"current_range_meters":21600,"station_id":"ce4bhoh2rcd13ifvqh5g","pricing_plan_id":"cebpf4jnsgd1na2vs0mg"},{"bike_id":"0cc46be0-cda7-4d84-a24a-b567a36e5f7e","system_id":"levelo_inurba_marseille","lat":43.30273,"lon":5.36859,"is_reserved":false,"is_disabled":true,"rental_uris":{"android":"levelo://app?vid=0cc46be0-cda7-4d84-a24a-b567a36e5f7e","ios":"levelo://app?vid=0cc46be0-cda7-4d84-a24a-b567a36e5f7e"},"vehicle_type_id":"4","last_reported":1747189682,"current_range_meters":21600,"station_id":"","pricing_plan_id":"cebpf4jnsgd1na2vs0mg"},{"bike_id":"b1aa1f45-b92a-4d19-a660-2a64a4d58438","system_id":"levelo_inurba_marseille","lat":43.308026,"lon":5.435246,"is_reserved":false,"is_disabled":false,"rental_uris":{"android":"levelo://app?vid=b1aa1f45-b92a-4d19-a660-2a64a4d58438","ios":"levelo://app?vid=b1aa1f45-b92a-4d19-a660-2a64a4d58438"},"vehicle_type_id":"4","last_reported":1747189682,"current_range_meters":21600,"station_id":"ce4bhph2rcd13ifvqheg","pricing_plan_id":"cebpf4jnsgd1na2vs0mg"},{"bike_id":"c9813867-74b9-4493-a0fd-23fe27ebcda4","system_id":"levelo_inurba_marseille","lat":43.231864,"lon":5.399918,"is_reserved":false,"is_disabled":false,"rental_uris":{"android":"levelo://app?vid=c9813867-74b9-4493-a0fd-23fe27ebcda4","ios":"levelo://app?vid=c9813867-74b9-4493-a0fd-23fe27ebcda4"},"vehicle_type_id":"4","last_reported":1747189682,"current_range_meters":21600,"station_id":"ce4bhn12rcd13ifvqgqg","pricing_plan_id":"cebpf4jnsgd1na2vs0mg"},{"bike_id":"74e465a6-62f1-45be-9144-40f0ae71c9e6","system_id":"levelo_inurba_marseille","lat":43.32292,"lon":5.3655,"is_reserved":false,"is_disabled":false,"rental_uris":{"android":"levelo://app?vid=74e465a6-62f1-45be-9144-40f0ae71c9e6","ios":"levelo://app?vid=74e465a6-62f1-45be-9144-40f0ae71c9e6"},"vehicle_type_id":"4","last_reported":1747189682,"current_range_meters":21600,"station_id":"ce4bhsh2rcd13ifvqi2g","pricing_plan_id":"cebpf4jnsgd1na2vs0mg"},{"bike_id":"b6df1ef4-d5f7-49cc-b6d6-45e21292bd56","system_id":"levelo_inurba_marseille","lat":43.30759,"lon":5.37646,"is_reserved":false,"is_disabled":false,"rental_uris":{"android":"levelo://app?vid=b6df1ef4-d5f7-49cc-b6d6-45e21292bd56","ios":"levelo://app?vid=b6df1ef4-d5f7-49cc-b6d6-45e21292bd56"},"vehicle_type_id":"4","last_reported":1747189682,"current_range_meters":21600,"station_id":"ce4bgv92rcd13ifvqcq0","pricing_plan_id":"cebpf4jnsgd1na2vs0mg"},{"bike_id":"9f1268c2-d2d6-4f6b-ad6b-d35923580a6d","system_id":"levelo_inurba_marseille","lat":43.24164,"lon":5.39736,"is_reserved":false,"is_disabled":false,"rental_uris":{"android":"levelo://app?vid=9f1268c2-d2d6-4f6b-ad6b-d35923580a6d","ios":"levelo://app?vid=9f1268c2-d2d6-4f6b-ad6b-d35923580a6d"},"vehicle_type_id":"4","last_reported":1747189682,"current_range_meters":22000,"station_id":"ce4bhn12rcd13ifvqgpg","pricing_plan_id":"cebpf4jnsgd1na2vs0mg"},{"bike_id":"330f2327-dace-4ec8-bea6-228e1998da88","system_id":"levelo_inurba_marseille","lat":43.31177,"lon":5.38717,"is_reserved":false,"is_disabled":false,"rental_uris":{"android":"levelo://app?vid=330f2327-dace-4ec8-bea6-228e1998da88","ios":"levelo://app?vid=330f2327-dace-4ec8-bea6-228e1998da88"},"vehicle_type_id":"4","last_reported":1747189682,"current_range_meters":22000,"station_id":"ce4bgv12rcd13ifvqcp0","pricing_plan_id":"cebpf4jnsgd1na2vs0mg"},{"bike_id":"64824209-6cba-4c12-875a-1502c403c27a","system_id":"levelo_inurba_marseille","lat":43.21162,"lon":5.35075,"is_reserved":false,"is_disabled":false,"rental_uris":{"android":"levelo://app?vid=64824209-6cba-4c12-875a-1502c403c27a","ios":"levelo://app?vid=64824209-6cba-4c12-875a-1502c403c27a"},"vehicle_type_id":"4","last_reported":1747189682,"current_range_meters":22000,"station_id":"st_cvj6sg6p6f1abm77japg","pricing_plan_id":"cebpf4jnsgd1na2vs0mg"},{"bike_id":"a2b1f0a7-81e1-4424-a84c-5e109e4852f5","system_id":"levelo_inurba_marseille","lat":43.272,"lon":5.39235,"is_reserved":false,"is_disabled":false,"rental_uris":{"android":"levelo://app?vid=a2b1f0a7-81e1-4424-a84c-5e109e4852f5","ios":"levelo://app?vid=a2b1f0a7-81e1-4424-a84c-5e109e4852f5"},"vehicle_type_id":"4","last_reported":1747189682,"current_range_meters":22000,"station_id":"ce4bhhp2rcd13ifvqfm0","pricing_plan_id":"cebpf4jnsgd1na2vs0mg"},{"bike_id":"b40566c8-4d01-4412-8987-500491dad71f","system_id":"levelo_inurba_marseille","lat":43.29187,"lon":5.39331,"is_reserved":false,"is_disabled":false,"rental_uris":{"android":"levelo://app?vid=b40566c8-4d01-4412-8987-500491dad71f","ios":"levelo://app?vid=b40566c8-4d01-4412-8987-500491dad71f"},"vehicle_type_id":"4","last_reported":1747189682,"current_range_meters":22400,"station_id":"ce4bh192rcd13ifvqdd0","pricing_plan_id":"cebpf4jnsgd1na2vs0mg"},{"bike_id":"59376901-c0a4-474a-802e-dc837b763276","system_id":"levelo_inurba_marseille","lat":43.269361,"lon":5.4025,"is_reserved":false,"is_disabled":false,"rental_uris":{"android":"levelo://app?vid=59376901-c0a4-474a-802e-dc837b763276","ios":"levelo://app?vid=59376901-c0a4-474a-802e-dc837b763276"},"vehicle_type_id":"4","last_reported":1747189682,"current_range_meters":22400,"station_id":"cjm6bp8fraef2m0cb0m0","pricing_plan_id":"cebpf4jnsgd1na2vs0mg"},{"bike_id":"609f90e5-b3dc-4f12-9a9c-f87707d79da6","system_id":"levelo_inurba_marseille","lat":43.30644,"lon":5.40077,"is_reserved":false,"is_disabled":false,"rental_uris":{"android":"levelo://app?vid=609f90e5-b3dc-4f12-9a9c-f87707d79da6","ios":"levelo://app?vid=609f90e5-b3dc-4f12-9a9c-f87707d79da6"},"vehicle_type_id":"4","last_reported":1747189682,"current_range_meters":22400,"station_id":"ce4bh112rcd13ifvqda0","pricing_plan_id":"cebpf4jnsgd1na2vs0mg"},{"bike_id":"90d298fd-9069-4918-a0ed-7933d2508d55","system_id":"levelo_inurba_marseille","lat":43.24984,"lon":5.38951,"is_reserved":false,"is_disabled":false,"rental_uris":{"android":"levelo://app?vid=90d298fd-9069-4918-a0ed-7933d2508d55","ios":"levelo://app?vid=90d298fd-9069-4918-a0ed-7933d2508d55"},"vehicle_type_id":"4","last_reported":1747189682,"current_range_meters":22800,"station_id":"ce4bhgp2rcd13ifvqfd0","pricing_plan_id":"cebpf4jnsgd1na2vs0mg"},{"bike_id":"535a0ff2-55fd-494f-9309-765ffaabd655","system_id":"levelo_inurba_marseille","lat":43.29242,"lon":5.3845,"is_reserved":false,"is_disabled":true,"rental_uris":{"android":"levelo://app?vid=535a0ff2-55fd-494f-9309-765ffaabd655","ios":"levelo://app?vid=535a0ff2-55fd-494f-9309-765ffaabd655"},"vehicle_type_id":"4","last_reported":1747189682,"current_range_meters":22800,"station_id":"ce4bh692rcd13ifvqea0","pricing_plan_id":"cebpf4jnsgd1na2vs0mg"},{"bike_id":"40b7249d-dd19-497f-8d80-28577f46a35f","system_id":"levelo_inurba_marseille","lat":43.297073,"lon":5.377029,"is_reserved":false,"is_disabled":false,"rental_uris":{"android":"levelo://app?vid=40b7249d-dd19-497f-8d80-28577f46a35f","ios":"levelo://app?vid=40b7249d-dd19-497f-8d80-28577f46a35f"},"vehicle_type_id":"4","last_reported":1747189682,"current_range_meters":22800,"station_id":"","pricing_plan_id":"cebpf4jnsgd1na2vs0mg"},{"bike_id":"5d2adaa4-6c94-44d1-9821-32113c11cea1","system_id":"levelo_inurba_marseille","lat":43.311235,"lon":5.377731,"is_reserved":false,"is_disabled":false,"rental_uris":{"android":"levelo://app?vid=5d2adaa4-6c94-44d1-9821-32113c11cea1","ios":"levelo://app?vid=5d2adaa4-6c94-44d1-9821-32113c11cea1"},"vehicle_type_id":"4","last_reported":1747189682,"current_range_meters":22800,"station_id":"ce4bgt92rcd13ifvqcg0","pricing_plan_id":"cebpf4jnsgd1na2vs0mg"},{"bike_id":"4f461d9e-0791-44a1-8f2c-1bfb520f3d7e","system_id":"levelo_inurba_marseille","lat":43.286852,"lon":5.39981,"is_reserved":false,"is_disabled":false,"rental_uris":{"android":"levelo://app?vid=4f461d9e-0791-44a1-8f2c-1bfb520f3d7e","ios":"levelo://app?vid=4f461d9e-0791-44a1-8f2c-1bfb520f3d7e"},"vehicle_type_id":"4","last_reported":1747189682,"current_range_meters":22800,"station_id":"ce4bho92rcd13ifvqh3g","pricing_plan_id":"cebpf4jnsgd1na2vs0mg"},{"bike_id":"ebeec7c7-d83e-4d66-a329-183623c050d7","system_id":"levelo_inurba_marseille","lat":43.30797,"lon":5.43528,"is_reserved":false,"is_disabled":false,"rental_uris":{"android":"levelo://app?vid=ebeec7c7-d83e-4d66-a329-183623c050d7","ios":"levelo://app?vid=ebeec7c7-d83e-4d66-a329-183623c050d7"},"vehicle_type_id":"4","last_reported":1747189682,"current_range_meters":22800,"station_id":"ce4bhph2rcd13ifvqheg","pricing_plan_id":"cebpf4jnsgd1na2vs0mg"},{"bike_id":"f7f6f24d-43e1-4937-8f7b-cf3ee6847e7e","system_id":"levelo_inurba_marseille","lat":43.30793,"lon":5.38156,"is_reserved":false,"is_disabled":false,"rental_uris":{"android":"levelo://app?vid=f7f6f24d-43e1-4937-8f7b-cf3ee6847e7e","ios":"levelo://app?vid=f7f6f24d-43e1-4937-8f7b-cf3ee6847e7e"},"vehicle_type_id":"4","last_reported":1747189682,"current_range_meters":23200,"station_id":"ce4bgt12rcd13ifvqce0","pricing_plan_id":"cebpf4jnsgd1na2vs0mg"},{"bike_id":"13d7645a-b313-4466-b24e-065d9d04ca16","system_id":"levelo_inurba_marseille","lat":43.308848,"lon":5.396336,"is_reserved":false,"is_disabled":false,"rental_uris":{"android":"levelo://app?vid=13d7645a-b313-4466-b24e-065d9d04ca16","ios":"levelo://app?vid=13d7645a-b313-4466-b24e-065d9d04ca16"},"vehicle_type_id":"4","last_reported":1747189682,"current_range_meters":23200,"station_id":"ce4bh012rcd13ifvqcv0","pricing_plan_id":"cebpf4jnsgd1na2vs0mg"},{"bike_id":"1cefe3c8-6482-4456-8977-2796698d014e","system_id":"levelo_inurba_marseille","lat":43.28708,"lon":5.3795,"is_reserved":false,"is_disabled":true,"rental_uris":{"android":"levelo://app?vid=1cefe3c8-6482-4456-8977-2796698d014e","ios":"levelo://app?vid=1cefe3c8-6482-4456-8977-2796698d014e"},"vehicle_type_id":"4","last_reported":1747189682,"current_range_meters":23200,"station_id":"ce4bh9p2rcd13ifvqec0","pricing_plan_id":"cebpf4jnsgd1na2vs0mg"},{"bike_id":"293b1291-fa31-42ff-b217-fd5b0c052cbd","system_id":"levelo_inurba_marseille","lat":43.27907,"lon":5.39567,"is_reserved":false,"is_disabled":false,"rental_uris":{"android":"levelo://app?vid=293b1291-fa31-42ff-b217-fd5b0c052cbd","ios":"levelo://app?vid=293b1291-fa31-42ff-b217-fd5b0c052cbd"},"vehicle_type_id":"4","last_reported":1747189682,"current_range_meters":23200,"station_id":"ce4bhf92rcd13ifvqf40","pricing_plan_id":"cebpf4jnsgd1na2vs0mg"},{"bike_id":"fc4a2a91-2090-42e4-827a-8953545bc346","system_id":"levelo_inurba_marseille","lat":43.22926,"lon":5.35397,"is_reserved":false,"is_disabled":false,"rental_uris":{"android":"levelo://app?vid=fc4a2a91-2090-42e4-827a-8953545bc346","ios":"levelo://app?vid=fc4a2a91-2090-42e4-827a-8953545bc346"},"vehicle_type_id":"4","last_reported":1747189682,"current_range_meters":23200,"station_id":"cpo3532slgdg3j2ikp40","pricing_plan_id":"cebpf4jnsgd1na2vs0mg"},{"bike_id":"a9d31fe0-2508-42cc-8e0b-6f6a14799b08","system_id":"levelo_inurba_marseille","lat":43.301594,"lon":5.372279,"is_reserved":false,"is_disabled":false,"rental_uris":{"android":"levelo://app?vid=a9d31fe0-2508-42cc-8e0b-6f6a14799b08","ios":"levelo://app?vid=a9d31fe0-2508-42cc-8e0b-6f6a14799b08"},"vehicle_type_id":"4","last_reported":1747189682,"current_range_meters":23200,"station_id":"","pricing_plan_id":"cebpf4jnsgd1na2vs0mg"},{"bike_id":"f03ed3f3-42d4-488a-9039-0789b1881240","system_id":"levelo_inurba_marseille","lat":43.30787,"lon":5.37411,"is_reserved":false,"is_disabled":false,"rental_uris":{"android":"levelo://app?vid=f03ed3f3-42d4-488a-9039-0789b1881240","ios":"levelo://app?vid=f03ed3f3-42d4-488a-9039-0789b1881240"},"vehicle_type_id":"4","last_reported":1747189682,"current_range_meters":23200,"station_id":"","pricing_plan_id":"cebpf4jnsgd1na2vs0mg"},{"bike_id":"9a402898-f116-408b-8709-c62dd77d2b5d","system_id":"levelo_inurba_marseille","lat":43.2935,"lon":5.42828,"is_reserved":false,"is_disabled":false,"rental_uris":{"android":"levelo://app?vid=9a402898-f116-408b-8709-c62dd77d2b5d","ios":"levelo://app?vid=9a402898-f116-408b-8709-c62dd77d2b5d"},"vehicle_type_id":"4","last_reported":1747189682,"current_range_meters":24000,"station_id":"","pricing_plan_id":"cebpf4jnsgd1na2vs0mg"},{"bike_id":"29024e2c-7541-48b4-92bf-96f8b42b1b66","system_id":"levelo_inurba_marseille","lat":43.21175,"lon":5.351,"is_reserved":false,"is_disabled":true,"rental_uris":{"android":"levelo://app?vid=29024e2c-7541-48b4-92bf-96f8b42b1b66","ios":"levelo://app?vid=29024e2c-7541-48b4-92bf-96f8b42b1b66"},"vehicle_type_id":"4","last_reported":1747189682,"current_range_meters":24000,"station_id":"st_cvj6sg6p6f1abm77japg","pricing_plan_id":"cebpf4jnsgd1na2vs0mg"},{"bike_id":"e9571d0b-5795-4e11-b5a3-f8cd357134ee","system_id":"levelo_inurba_marseille","lat":43.30585,"lon":5.37257,"is_reserved":false,"is_disabled":false,"rental_uris":{"android":"levelo://app?vid=e9571d0b-5795-4e11-b5a3-f8cd357134ee","ios":"levelo://app?vid=e9571d0b-5795-4e11-b5a3-f8cd357134ee"},"vehicle_type_id":"4","last_reported":1747189682,"current_range_meters":24000,"station_id":"ce4bgqh2rcd13ifvqc4g","pricing_plan_id":"cebpf4jnsgd1na2vs0mg"},{"bike_id":"5f376294-688d-4353-8107-9da36b230f2c","system_id":"levelo_inurba_marseille","lat":43.28406,"lon":5.39196,"is_reserved":false,"is_disabled":false,"rental_uris":{"android":"levelo://app?vid=5f376294-688d-4353-8107-9da36b230f2c","ios":"levelo://app?vid=5f376294-688d-4353-8107-9da36b230f2c"},"vehicle_type_id":"4","last_reported":1747189682,"current_range_meters":24000,"station_id":"ce4bhoh2rcd13ifvqh5g","pricing_plan_id":"cebpf4jnsgd1na2vs0mg"},{"bike_id":"d12f0c5e-de37-47c9-926e-843b262b3d00","system_id":"levelo_inurba_marseille","lat":43.3064,"lon":5.40074,"is_reserved":false,"is_disabled":false,"rental_uris":{"android":"levelo://app?vid=d12f0c5e-de37-47c9-926e-843b262b3d00","ios":"levelo://app?vid=d12f0c5e-de37-47c9-926e-843b262b3d00"},"vehicle_type_id":"4","last_reported":1747189682,"current_range_meters":24400,"station_id":"ce4bh112rcd13ifvqda0","pricing_plan_id":"cebpf4jnsgd1na2vs0mg"},{"bike_id":"a53fd275-d2bd-4ffd-adf7-334596269a76","system_id":"levelo_inurba_marseille","lat":43.31322,"lon":5.39699,"is_reserved":false,"is_disabled":true,"rental_uris":{"android":"levelo://app?vid=a53fd275-d2bd-4ffd-adf7-334596269a76","ios":"levelo://app?vid=a53fd275-d2bd-4ffd-adf7-334596269a76"},"vehicle_type_id":"4","last_reported":1747189682,"current_range_meters":24400,"station_id":"ce4bgvp2rcd13ifvqcu0","pricing_plan_id":"cebpf4jnsgd1na2vs0mg"},{"bike_id":"c351ad74-cfad-4524-b23a-5f995cfa52ab","system_id":"levelo_inurba_marseille","lat":43.22505,"lon":5.34761,"is_reserved":false,"is_disabled":false,"rental_uris":{"android":"levelo://app?vid=c351ad74-cfad-4524-b23a-5f995cfa52ab","ios":"levelo://app?vid=c351ad74-cfad-4524-b23a-5f995cfa52ab"},"vehicle_type_id":"4","last_reported":1747189682,"current_range_meters":24400,"station_id":"st_cvj5dfep6f1abm77gieg","pricing_plan_id":"cebpf4jnsgd1na2vs0mg"},{"bike_id":"40c3a0bb-b106-481f-8d5f-6825dd7e2086","system_id":"levelo_inurba_marseille","lat":43.30561,"lon":5.37243,"is_reserved":false,"is_disabled":false,"rental_uris":{"android":"levelo://app?vid=40c3a0bb-b106-481f-8d5f-6825dd7e2086","ios":"levelo://app?vid=40c3a0bb-b106-481f-8d5f-6825dd7e2086"},"vehicle_type_id":"4","last_reported":1747189682,"current_range_meters":24400,"station_id":"ce4bgqh2rcd13ifvqc4g","pricing_plan_id":"cebpf4jnsgd1na2vs0mg"},{"bike_id":"84cb6767-3eec-4008-94f2-cf384810ff36","system_id":"levelo_inurba_marseille","lat":43.28934,"lon":5.39625,"is_reserved":false,"is_disabled":false,"rental_uris":{"android":"levelo://app?vid=84cb6767-3eec-4008-94f2-cf384810ff36","ios":"levelo://app?vid=84cb6767-3eec-4008-94f2-cf384810ff36"},"vehicle_type_id":"4","last_reported":1747189682,"current_range_meters":24400,"station_id":"ce4bh3h2rcd13ifvqdn0","pricing_plan_id":"cebpf4jnsgd1na2vs0mg"},{"bike_id":"f5916ab5-da34-4ae7-833d-4eaf7108c313","system_id":"levelo_inurba_marseille","lat":43.28399,"lon":5.37555,"is_reserved":false,"is_disabled":false,"rental_uris":{"android":"levelo://app?vid=f5916ab5-da34-4ae7-833d-4eaf7108c313","ios":"levelo://app?vid=f5916ab5-da34-4ae7-833d-4eaf7108c313"},"vehicle_type_id":"4","last_reported":1747189682,"current_range_meters":24400,"station_id":"ce4bh412rcd13ifvqds0","pricing_plan_id":"cebpf4jnsgd1na2vs0mg"},{"bike_id":"c7d6c562-b7e1-4d6b-9698-3ded696f5564","system_id":"levelo_inurba_marseille","lat":43.3032,"lon":5.40447,"is_reserved":false,"is_disabled":false,"rental_uris":{"android":"levelo://app?vid=c7d6c562-b7e1-4d6b-9698-3ded696f5564","ios":"levelo://app?vid=c7d6c562-b7e1-4d6b-9698-3ded696f5564"},"vehicle_type_id":"4","last_reported":1747189682,"current_range_meters":24400,"station_id":"ce4bh012rcd13ifvqd10","pricing_plan_id":"cebpf4jnsgd1na2vs0mg"},{"bike_id":"93122e68-3506-4165-a72a-567c26dbd4ce","system_id":"levelo_inurba_marseille","lat":43.28955,"lon":5.36511,"is_reserved":false,"is_disabled":false,"rental_uris":{"android":"levelo://app?vid=93122e68-3506-4165-a72a-567c26dbd4ce","ios":"levelo://app?vid=93122e68-3506-4165-a72a-567c26dbd4ce"},"vehicle_type_id":"4","last_reported":1747189682,"current_range_meters":24400,"station_id":"","pricing_plan_id":"cebpf4jnsgd1na2vs0mg"},{"bike_id":"0557397f-6091-47c1-b384-cd2a143c2568","system_id":"levelo_inurba_marseille","lat":43.27189,"lon":5.41008,"is_reserved":false,"is_disabled":true,"rental_uris":{"android":"levelo://app?vid=0557397f-6091-47c1-b384-cd2a143c2568","ios":"levelo://app?vid=0557397f-6091-47c1-b384-cd2a143c2568"},"vehicle_type_id":"4","last_reported":1747189682,"current_range_meters":24400,"station_id":"ce4bhl12rcd13ifvqgf0","pricing_plan_id":"cebpf4jnsgd1na2vs0mg"},{"bike_id":"d608ab93-8a42-4106-a60f-e264e23b137a","system_id":"levelo_inurba_marseille","lat":43.24162,"lon":5.39751,"is_reserved":false,"is_disabled":false,"rental_uris":{"android":"levelo://app?vid=d608ab93-8a42-4106-a60f-e264e23b137a","ios":"levelo://app?vid=d608ab93-8a42-4106-a60f-e264e23b137a"},"vehicle_type_id":"4","last_reported":1747189682,"current_range_meters":24400,"station_id":"ce4bhn12rcd13ifvqgpg","pricing_plan_id":"cebpf4jnsgd1na2vs0mg"},{"bike_id":"27c04895-ef43-45ce-84e9-d550fde0f1e6","system_id":"levelo_inurba_marseille","lat":43.28568,"lon":5.39496,"is_reserved":false,"is_disabled":true,"rental_uris":{"android":"levelo://app?vid=27c04895-ef43-45ce-84e9-d550fde0f1e6","ios":"levelo://app?vid=27c04895-ef43-45ce-84e9-d550fde0f1e6"},"vehicle_type_id":"4","last_reported":1747189682,"current_range_meters":24800,"station_id":"ce4bh292rcd13ifvqdg0","pricing_plan_id":"cebpf4jnsgd1na2vs0mg"},{"bike_id":"d7cb1cc6-df3f-4ac2-bcb8-81d5316a1010","system_id":"levelo_inurba_marseille","lat":43.280297,"lon":5.369464,"is_reserved":false,"is_disabled":true,"rental_uris":{"android":"levelo://app?vid=d7cb1cc6-df3f-4ac2-bcb8-81d5316a1010","ios":"levelo://app?vid=d7cb1cc6-df3f-4ac2-bcb8-81d5316a1010"},"vehicle_type_id":"4","last_reported":1747189682,"current_range_meters":24800,"station_id":"ce4bha12rcd13ifvqef0","pricing_plan_id":"cebpf4jnsgd1na2vs0mg"},{"bike_id":"2db49789-f147-4efe-9027-7d0a661abb26","system_id":"levelo_inurba_marseille","lat":43.29641,"lon":5.40604,"is_reserved":false,"is_disabled":true,"rental_uris":{"android":"levelo://app?vid=2db49789-f147-4efe-9027-7d0a661abb26","ios":"levelo://app?vid=2db49789-f147-4efe-9027-7d0a661abb26"},"vehicle_type_id":"4","last_reported":1747189682,"current_range_meters":24800,"station_id":"ce4bh0h2rcd13ifvqd60","pricing_plan_id":"cebpf4jnsgd1na2vs0mg"},{"bike_id":"8f7e4e4e-fae5-4382-8f9d-1ea9deb48874","system_id":"levelo_inurba_marseille","lat":43.28602,"lon":5.37073,"is_reserved":false,"is_disabled":false,"rental_uris":{"android":"levelo://app?vid=8f7e4e4e-fae5-4382-8f9d-1ea9deb48874","ios":"levelo://app?vid=8f7e4e4e-fae5-4382-8f9d-1ea9deb48874"},"vehicle_type_id":"4","last_reported":1747189682,"current_range_meters":24800,"station_id":"ce4bht12rcd13ifvqi60","pricing_plan_id":"cebpf4jnsgd1na2vs0mg"},