{"last_updated":1705019777,"ttl":30,"version":"2.2","data":{"bikes":[{"bike_id":"e7fc50c4-feb2-44bc-b909-91f17f7638f2","system_id":"levelo_inurba_marseille","lat":43.313391,"lon":5.36706,"is_reserved":false,"is_disabled":false,"rental_uris":{"android":"levelo://app?vid=e7fc50c4-feb2-44bc-b909-91f17f7638f2","ios":"levelo://app?vid=e7fc50c4-feb2-44bc-b909-91f17f7638f2"},"vehicle_type_id":"4","last_reported":1705019777,"current_range_meters":26800,"station_id":"ce4bgr92rcd13ifvqc6g","pricing_plan_id":"free"},{"bike_id":"ff1ddd66-18ea-46f5-bacc-f047ec17bfd2","system_id":"levelo_inurba_marseille","lat":43.312239,"lon":5.368562,"is_reserved":false,"is_disabled":false,"rental_uris":{"android":"levelo://app?vid=ff1ddd66-18ea-46f5-bacc-f047ec17bfd2","ios":"levelo://app?vid=ff1ddd66-18ea-46f5-bacc-f047ec17bfd2"},"vehicle_type_id":"4","last_reported":1705019777,"current_range_meters":19200,"station_id":"ce4bgl92rcd13ifvqbq0","pricing_plan_id":"free"},{"bike_id":"a17e2d97-4ce5-45a8-805e-164ade31b000","system_id":"levelo_inurba_marseille","lat":43.312239,"lon":5.368562,"is_reserved":false,"is_disabled":false,"rental_uris":{"android":"levelo://app?vid=a17e2d97-4ce5-45a8-805e-164ade31b000","ios":"levelo://app?vid=a17e2d97-4ce5-45a8-805e-164ade31b000"},"vehicle_type_id":"4","last_reported":1705019777,"current_range_meters":26800,"station_id":"ce4bgl92rcd13ifvqbq0","pricing_plan_id":"free"},{"bike_id":"798cf49a-c913-4c52-a78f-93b9520c15c5","system_id":"levelo_inurba_marseille","lat":43.309076,"lon":5.368465,"is_reserved":false,"is_disabled":false,"rental_uris":{"android":"levelo://app?vid=798cf49a-c913-4c52-a78f-93b9520c15c5","ios":"levelo://app?vid=798cf49a-c913-4c52-a78f-93b9520c15c5"},"vehicle_type_id":"4","last_reported":1705019777,"current_range_meters":30800,"station_id":"ce4bgn92rcd13ifvqbvg","pricing_plan_id":"free"},{"bike_id":"671c7fec-3a3b-4a44-a329-c79a2b258c3e","system_id":"levelo_inurba_marseille","lat":43.314811,"lon":5.373103,"is_reserved":false,"is_disabled":false,"rental_uris":{"android":"levelo://app?vid=671c7fec-3a3b-4a44-a329-c79a2b258c3e","ios":"levelo://app?vid=671c7fec-3a3b-4a44-a329-c79a2b258c3e"},"vehicle_type_id":"4","last_reported":1705019777,"current_range_meters":6400,"station_id":"ce4bgt12rcd13ifvqcd0","pricing_plan_id":"free"},{"bike_id":"823a2ddc-d052-4f62-beea-a3b2c2b2b1c3","system_id":"levelo_inurba_marseille","lat":43.314811,"lon":5.373103,"is_reserved":false,"is_disabled":false,"rental_uris":{"android":"levelo://app?vid=823a2ddc-d052-4f62-beea-a3b2c2b2b1c3","ios":"levelo://app?vid=823a2ddc-d052-4f62-beea-a3b2c2b2b1c3"},"vehicle_type_id":"4","last_reported":1705019777,"current_range_meters":26000,"station_id":"ce4bgt12rcd13ifvqcd0","pricing_plan_id":"free"},{"bike_id":"8be446d1-762e-4e80-8f4e-6a46c6ab1dbe","system_id":"levelo_inurba_marseille","lat":43.31503,"lon":5.37288,"is_reserved":false,"is_disabled":false,"rental_uris":{"android":"levelo://app?vid=8be446d1-762e-4e80-8f4e-6a46c6ab1dbe","ios":"levelo://app?vid=8be446d1-762e-4e80-8f4e-6a46c6ab1dbe"},"vehicle_type_id":"4","last_reported":1705019777,"current_range_meters":18800,"station_id":"ce4bgt12rcd13ifvqcd0","pricing_plan_id":"free"},{"bike_id":"d6bd4f66-a774-4d58-b17f-2d6490cf35f1","system_id":"levelo_inurba_marseille","lat":43.314811,"lon":5.373103,"is_reserved":false,"is_disabled":false,"rental_uris":{"android":"levelo://app?vid=d6bd4f66-a774-4d58-b17f-2d6490cf35f1","ios":"levelo://app?vid=d6bd4f66-a774-4d58-b17f-2d6490cf35f1"},"vehicle_type_id":"4","last_reported":1705019777,"current_range_meters":17600,"station_id":"ce4bgt12rcd13ifvqcd0","pricing_plan_id":"free"},{"bike_id":"c2be9ebd-4cf0-4091-91e3-2cf7a42e68be","system_id":"levelo_inurba_marseille","lat":43.314811,"lon":5.373104,"is_reserved":false,"is_disabled":false,"rental_uris":{"android":"levelo://app?vid=c2be9ebd-4cf0-4091-91e3-2cf7a42e68be","ios":"levelo://app?vid=c2be9ebd-4cf0-4091-91e3-2cf7a42e68be"},"vehicle_type_id":"4","last_reported":1705019777,"current_range_meters":23600,"station_id":"ce4bgt12rcd13ifvqcd0","pricing_plan_id":"free"},{"bike_id":"ae08ef9e-0c41-491e-a3e3-52d53c4d559a","system_id":"levelo_inurba_marseille","lat":43.309039,"lon":5.371797,"is_reserved":false,"is_disabled":false,"rental_uris":{"android":"levelo://app?vid=ae08ef9e-0c41-491e-a3e3-52d53c4d559a","ios":"levelo://app?vid=ae08ef9e-0c41-491e-a3e3-52d53c4d559a"},"vehicle_type_id":"4","last_reported":1705019777,"current_range_meters":23600,"station_id":"ce4bguh2rcd13ifvqckg","pricing_plan_id":"free"},{"bike_id":"c6883d6a-00a1-4c2e-81b5-dd16e0b99594","system_id":"levelo_inurba_marseille","lat":43.305368,"lon":5.367343,"is_reserved":false,"is_disabled":false,"rental_uris":{"android":"levelo://app?vid=c6883d6a-00a1-4c2e-81b5-dd16e0b99594","ios":"levelo://app?vid=c6883d6a-00a1-4c2e-81b5-dd16e0b99594"},"vehicle_type_id":"4","last_reported":1705019777,"current_range_meters":22400,"station_id":"ce4bgrp2rcd13ifvqc9g","pricing_plan_id":"free"},{"bike_id":"a1a33bad-4d43-46ac-b6f7-22580bc3cae4","system_id":"levelo_inurba_marseille","lat":43.305368,"lon":5.367343,"is_reserved":false,"is_disabled":false,"rental_uris":{"android":"levelo://app?vid=a1a33bad-4d43-46ac-b6f7-22580bc3cae4","ios":"levelo://app?vid=a1a33bad-4d43-46ac-b6f7-22580bc3cae4"},"vehicle_type_id":"4","last_reported":1705019777,"current_range_meters":23600,"station_id":"ce4bgrp2rcd13ifvqc9g","pricing_plan_id":"free"},{"bike_id":"df1261dd-95bd-494d-acb8-0c882dba4d1e","system_id":"levelo_inurba_marseille","lat":43.305989,"lon":5.37225,"is_reserved":false,"is_disabled":false,"rental_uris":{"android":"levelo://app?vid=df1261dd-95bd-494d-acb8-0c882dba4d1e","ios":"levelo://app?vid=df1261dd-95bd-494d-acb8-0c882dba4d1e"},"vehicle_type_id":"4","last_reported":1705019777,"current_range_meters":30000,"station_id":"ce4bgqh2rcd13ifvqc4g","pricing_plan_id":"free"},{"bike_id":"74529a5a-9cac-4ce1-8757-6689f5440879","system_id":"levelo_inurba_marseille","lat":43.305989,"lon":5.37225,"is_reserved":false,"is_disabled":false,"rental_uris":{"android":"levelo://app?vid=74529a5a-9cac-4ce1-8757-6689f5440879","ios":"levelo://app?vid=74529a5a-9cac-4ce1-8757-6689f5440879"},"vehicle_type_id":"4","last_reported":1705019777,"current_range_meters":19600,"station_id":"ce4bgqh2rcd13ifvqc4g","pricing_plan_id":"free"},{"bike_id":"b6026ec3-d5b8-46d5-b658-315ca64c95d4","system_id":"levelo_inurba_marseille","lat":43.305989,"lon":5.37225,"is_reserved":false,"is_disabled":false,"rental_uris":{"android":"levelo://app?vid=b6026ec3-d5b8-46d5-b658-315ca64c95d4","ios":"levelo://app?vid=b6026ec3-d5b8-46d5-b658-315ca64c95d4"},"vehicle_type_id":"4","last_reported":1705019777,"current_range_meters":25200,"station_id":"ce4bgqh2rcd13ifvqc4g","pricing_plan_id":"free"},{"bike_id":"1c5dd4f6-0871-4fbd-a01e-b32e499f460b","system_id":"levelo_inurba_marseille","lat":43.305989,"lon":5.37225,"is_reserved":false,"is_disabled":false,"rental_uris":{"android":"levelo://app?vid=1c5dd4f6-0871-4fbd-a01e-b32e499f460b","ios":"levelo://app?vid=1c5dd4f6-0871-4fbd-a01e-b32e499f460b"},"vehicle_type_id":"4","last_reported":1705019777,"current_range_meters":27600,"station_id":"ce4bgqh2rcd13ifvqc4g","pricing_plan_id":"free"},{"bike_id":"184158ff-9ede-494e-9d48-b0fb29d27191","system_id":"levelo_inurba_marseille","lat":43.311131,"lon":5.377651,"is_reserved":false,"is_disabled":false,"rental_uris":{"android":"levelo://app?vid=184158ff-9ede-494e-9d48-b0fb29d27191","ios":"levelo://app?vid=184158ff-9ede-494e-9d48-b0fb29d27191"},"vehicle_type_id":"4","last_reported":1705019777,"current_range_meters":17200,"station_id":"ce4bgt92rcd13ifvqcg0","pricing_plan_id":"free"},{"bike_id":"3e864bca-9652-4a6f-9da5-863f66ff4acc","system_id":"levelo_inurba_marseille","lat":43.311131,"lon":5.377651,"is_reserved":false,"is_disabled":false,"rental_uris":{"android":"levelo://app?vid=3e864bca-9652-4a6f-9da5-863f66ff4acc","ios":"levelo://app?vid=3e864bca-9652-4a6f-9da5-863f66ff4acc"},"vehicle_type_id":"4","last_reported":1705019777,"current_range_meters":800,"station_id":"ce4bgt92rcd13ifvqcg0","pricing_plan_id":"free"},{"bike_id":"f3ffb53c-cd9b-46ea-9f77-38843214ff36","system_id":"levelo_inurba_marseille","lat":43.311131,"lon":5.377651,"is_reserved":false,"is_disabled":false,"rental_uris":{"android":"levelo://app?vid=f3ffb53c-cd9b-46ea-9f77-38843214ff36","ios":"levelo://app?vid=f3ffb53c-cd9b-46ea-9f77-38843214ff36"},"vehicle_type_id":"4","last_reported":1705019777,"current_range_meters":15600,"station_id":"ce4bgt92rcd13ifvqcg0","pricing_plan_id":"free"},{"bike_id":"fcbbed34-21cb-40cb-8a48-d71d9bec8934","system_id":"levelo_inurba_marseille","lat":43.311125,"lon":5.377624,"is_reserved":false,"is_disabled":false,"rental_uris":{"android":"levelo://app?vid=fcbbed34-21cb-40cb-8a48-d71d9bec8934","ios":"levelo://app?vid=fcbbed34-21cb-40cb-8a48-d71d9bec8934"},"vehicle_type_id":"4","last_reported":1705019777,"current_range_meters":18800,"station_id":"ce4bgt92rcd13ifvqcg0","pricing_plan_id":"free"},{"bike_id":"9f623137-8efe-4add-9c6c-f23a8c3fa4da","system_id":"levelo_inurba_marseille","lat":43.307945,"lon":5.376487,"is_reserved":false,"is_disabled":false,"rental_uris":{"android":"levelo://app?vid=9f623137-8efe-4add-9c6c-f23a8c3fa4da","ios":"levelo://app?vid=9f623137-8efe-4add-9c6c-f23a8c3fa4da"},"vehicle_type_id":"4","last_reported":1705019777,"current_range_meters":30400,"station_id":"ce4bgv92rcd13ifvqcq0","pricing_plan_id":"free"},{"bike_id":"83753c03-5428-4cff-8023-f1219e409913","system_id":"levelo_inurba_marseille","lat":43.307945,"lon":5.376487,"is_reserved":false,"is_disabled":false,"rental_uris":{"android":"levelo://app?vid=83753c03-5428-4cff-8023-f1219e409913","ios":"levelo://app?vid=83753c03-5428-4cff-8023-f1219e409913"},"vehicle_type_id":"4","last_reported":1705019777,"current_range_meters":31200,"station_id":"ce4bgv92rcd13ifvqcq0","pricing_plan_id":"free"},{"bike_id":"e720ba0b-86fa-4f68-92e2-051a9a9c6bf8","system_id":"levelo_inurba_marseille","lat":43.307945,"lon":5.376487,"is_reserved":false,"is_disabled":false,"rental_uris":{"android":"levelo://app?vid=e720ba0b-86fa-4f68-92e2-051a9a9c6bf8","ios":"levelo://app?vid=e720ba0b-86fa-4f68-92e2-051a9a9c6bf8"},"vehicle_type_id":"4","last_reported":1705019777,"current_range_meters":28800,"station_id":"ce4bgv92rcd13ifvqcq0","pricing_plan_id":"free"},{"bike_id":"12ee48e0-14ba-4ff6-856f-d159fc9be661","system_id":"levelo_inurba_marseille","lat":43.307945,"lon":5.376487,"is_reserved":false,"is_disabled":false,"rental_uris":{"android":"levelo://app?vid=12ee48e0-14ba-4ff6-856f-d159fc9be661","ios":"levelo://app?vid=12ee48e0-14ba-4ff6-856f-d159fc9be661"},"vehicle_type_id":"4","last_reported":1705019777,"current_range_meters":31200,"station_id":"ce4bgv92rcd13ifvqcq0","pricing_plan_id":"free"},{"bike_id":"e7d71356-79f7-4172-9d8f-618dc971724e","system_id":"levelo_inurba_marseille","lat":43.307945,"lon":5.376487,"is_reserved":false,"is_disabled":false,"rental_uris":{"android":"levelo://app?vid=e7d71356-79f7-4172-9d8f-618dc971724e","ios":"levelo://app?vid=e7d71356-79f7-4172-9d8f-618dc971724e"},"vehicle_type_id":"4","last_reported":1705019777,"current_range_meters":31200,"station_id":"ce4bgv92rcd13ifvqcq0","pricing_plan_id":"free"},{"bike_id":"54e33b5b-09aa-4353-a391-cd779343d7da","system_id":"levelo_inurba_marseille","lat":43.31705,"lon":5.37736,"is_reserved":false,"is_disabled":false,"rental_uris":{"android":"levelo://app?vid=54e33b5b-09aa-4353-a391-cd779343d7da","ios":"levelo://app?vid=54e33b5b-09aa-4353-a391-cd779343d7da"},"vehicle_type_id":"4","last_reported":1705019777,"current_range_meters":25600,"station_id":"ce4bgth2rcd13ifvqch0","pricing_plan_id":"free"},{"bike_id":"90c705de-1ce9-494a-881d-0028ac1e0b07","system_id":"levelo_inurba_marseille","lat":43.317075,"lon":5.377367,"is_reserved":false,"is_disabled":false,"rental_uris":{"android":"levelo://app?vid=90c705de-1ce9-494a-881d-0028ac1e0b07","ios":"levelo://app?vid=90c705de-1ce9-494a-881d-0028ac1e0b07"},"vehicle_type_id":"4","last_reported":1705019777,"current_range_meters":10000,"station_id":"ce4bgth2rcd13ifvqch0","pricing_plan_id":"free"},{"bike_id":"3070ff87-c5c4-46ce-a60c-bfad443be469","system_id":"levelo_inurba_marseille","lat":43.317075,"lon":5.377367,"is_reserved":false,"is_disabled":false,"rental_uris":{"android":"levelo://app?vid=3070ff87-c5c4-46ce-a60c-bfad443be469","ios":"levelo://app?vid=3070ff87-c5c4-46ce-a60c-bfad443be469"},"vehicle_type_id":"4","last_reported":1705019777,"current_range_meters":23600,"station_id":"ce4bgth2rcd13ifvqch0","pricing_plan_id":"free"},{"bike_id":"6ccd192c-e272-452f-b08f-0ef9a71280c6","system_id":"levelo_inurba_marseille","lat":43.317075,"lon":5.377367,"is_reserved":false,"is_disabled":false,"rental_uris":{"android":"levelo://app?vid=6ccd192c-e272-452f-b08f-0ef9a71280c6","ios":"levelo://app?vid=6ccd192c-e272-452f-b08f-0ef9a71280c6"},"vehicle_type_id":"4","last_reported":1705019777,"current_range_meters":31200,"station_id":"ce4bgth2rcd13ifvqch0","pricing_plan_id":"free"},{"bike_id":"3d71a54a-937c-4a8c-b1b4-4ba188da6e55","system_id":"levelo_inurba_marseille","lat":43.317075,"lon":5.377367,"is_reserved":false,"is_disabled":false,"rental_uris":{"android":"levelo://app?vid=3d71a54a-937c-4a8c-b1b4-4ba188da6e55","ios":"levelo://app?vid=3d71a54a-937c-4a8c-b1b4-4ba188da6e55"},"vehicle_type_id":"4","last_reported":1705019777,"current_range_meters":26800,"station_id":"ce4bgth2rcd13ifvqch0","pricing_plan_id":"free"},{"bike_id":"5f439269-f022-4f6e-af35-6d0b7fdbd6a6","system_id":"levelo_inurba_marseille","lat":43.3153,"lon":5.38027,"is_reserved":false,"is_disabled":false,"rental_uris":{"android":"levelo://app?vid=5f439269-f022-4f6e-af35-6d0b7fdbd6a6","ios":"levelo://app?vid=5f439269-f022-4f6e-af35-6d0b7fdbd6a6"},"vehicle_type_id":"4","last_reported":1705019777,"current_range_meters":800,"station_id":"ce4bhsp2rcd13ifvqi50","pricing_plan_id":"free"},{"bike_id":"9c7fae86-0b63-4f20-8be7-1e7d01fbb71b","system_id":"levelo_inurba_marseille","lat":43.3154,"lon":5.38028,"is_reserved":false,"is_disabled":false,"rental_uris":{"android":"levelo://app?vid=9c7fae86-0b63-4f20-8be7-1e7d01fbb71b","ios":"levelo://app?vid=9c7fae86-0b63-4f20-8be7-1e7d01fbb71b"},"vehicle_type_id":"4","last_reported":1705019777,"current_range_meters":14400,"station_id":"ce4bhsp2rcd13ifvqi50","pricing_plan_id":"free"},{"bike_id":"5919711a-f4b4-441b-a21d-1e8c7cbeca31","system_id":"levelo_inurba_marseille","lat":43.31535,"lon":5.38042,"is_reserved":false,"is_disabled":false,"rental_uris":{"android":"levelo://app?vid=5919711a-f4b4-441b-a21d-1e8c7cbeca31","ios":"levelo://app?vid=5919711a-f4b4-441b-a21d-1e8c7cbeca31"},"vehicle_type_id":"4","last_reported":1705019777,"current_range_meters":14800,"station_id":"ce4bhsp2rcd13ifvqi50","pricing_plan_id":"free"},{"bike_id":"ad1c1b83-1740-4b52-8a60-42a938c4c153","system_id":"levelo_inurba_marseille","lat":43.301939,"lon":5.366286,"is_reserved":false,"is_disabled":false,"rental_uris":{"android":"levelo://app?vid=ad1c1b83-1740-4b52-8a60-42a938c4c153","ios":"levelo://app?vid=ad1c1b83-1740-4b52-8a60-42a938c4c153"},"vehicle_type_id":"4","last_reported":1705019777,"current_range_meters":4000,"station_id":"ce4bgrh2rcd13ifvqc8g","pricing_plan_id":"free"},{"bike_id":"9b6e7ef1-9741-487d-82d9-4b2d8cad0ed1","system_id":"levelo_inurba_marseille","lat":43.301939,"lon":5.366286,"is_reserved":false,"is_disabled":false,"rental_uris":{"android":"levelo://app?vid=9b6e7ef1-9741-487d-82d9-4b2d8cad0ed1","ios":"levelo://app?vid=9b6e7ef1-9741-487d-82d9-4b2d8cad0ed1"},"vehicle_type_id":"4","last_reported":1705019777,"current_range_meters":27200,"station_id":"ce4bgrh2rcd13ifvqc8g","pricing_plan_id":"free"},{"bike_id":"6faecfb5-1281-42d9-8565-801c7bacc163","system_id":"levelo_inurba_marseille","lat":43.301939,"lon":5.366286,"is_reserved":false,"is_disabled":false,"rental_uris":{"android":"levelo://app?vid=6faecfb5-1281-42d9-8565-801c7bacc163","ios":"levelo://app?vid=6faecfb5-1281-42d9-8565-801c7bacc163"},"vehicle_type_id":"4","last_reported":1705019777,"current_range_meters":22800,"station_id":"ce4bgrh2rcd13ifvqc8g","pricing_plan_id":"free"},{"bike_id":"2d0a04dd-a561-4c80-8ac7-b3e2e599d8ab","system_id":"levelo_inurba_marseille","lat":43.308012,"lon":5.381511,"is_reserved":false,"is_disabled":false,"rental_uris":{"android":"levelo://app?vid=2d0a04dd-a561-4c80-8ac7-b3e2e599d8ab","ios":"levelo://app?vid=2d0a04dd-a561-4c80-8ac7-b3e2e599d8ab"},"vehicle_type_id":"4","last_reported":1705019777,"current_range_meters":23200,"station_id":"ce4bgt12rcd13ifvqce0","pricing_plan_id":"free"},{"bike_id":"de5207f7-c78c-4477-8173-cb8adbebd4e7","system_id":"levelo_inurba_marseille","lat":43.308012,"lon":5.381511,"is_reserved":false,"is_disabled":false,"rental_uris":{"android":"levelo://app?vid=de5207f7-c78c-4477-8173-cb8adbebd4e7","ios":"levelo://app?vid=de5207f7-c78c-4477-8173-cb8adbebd4e7"},"vehicle_type_id":"4","last_reported":1705019777,"current_range_meters":10400,"station_id":"ce4bgt12rcd13ifvqce0","pricing_plan_id":"free"},{"bike_id":"a67b8d11-5e28-4346-b570-479cb8468e38","system_id":"levelo_inurba_marseille","lat":43.308012,"lon":5.381511,"is_reserved":false,"is_disabled":false,"rental_uris":{"android":"levelo://app?vid=a67b8d11-5e28-4346-b570-479cb8468e38","ios":"levelo://app?vid=a67b8d11-5e28-4346-b570-479cb8468e38"},"vehicle_type_id":"4","last_reported":1705019777,"current_range_meters":17600,"station_id":"ce4bgt12rcd13ifvqce0","pricing_plan_id":"free"},{"bike_id":"e2a10532-fac8-4431-9b77-d7dbf46e9372","system_id":"levelo_inurba_marseille","lat":43.32461,"lon":5.36543,"is_reserved":false,"is_disabled":false,"rental_uris":{"android":"levelo://app?vid=e2a10532-fac8-4431-9b77-d7dbf46e9372","ios":"levelo://app?vid=e2a10532-fac8-4431-9b77-d7dbf46e9372"},"vehicle_type_id":"4","last_reported":1705019777,"current_range_meters":24400,"station_id":"ce4bhs12rcd13ifvqhvg","pricing_plan_id":"free"},{"bike_id":"950af946-0c30-472d-a18a-ac6e9eaa0ab9","system_id":"levelo_inurba_marseille","lat":43.300827,"lon":5.365856,"is_reserved":false,"is_disabled":false,"rental_uris":{"android":"levelo://app?vid=950af946-0c30-472d-a18a-ac6e9eaa0ab9","ios":"levelo://app?vid=950af946-0c30-472d-a18a-ac6e9eaa0ab9"},"vehicle_type_id":"4","last_reported":1705019777,"current_range_meters":7200,"station_id":"","pricing_plan_id":"free"},{"bike_id":"ac86877b-6b6e-484f-8ae0-5f45edfff293","system_id":"levelo_inurba_marseille","lat":43.324771,"lon":5.36557,"is_reserved":false,"is_disabled":false,"rental_uris":{"android":"levelo://app?vid=ac86877b-6b6e-484f-8ae0-5f45edfff293","ios":"levelo://app?vid=ac86877b-6b6e-484f-8ae0-5f45edfff293"},"vehicle_type_id":"4","last_reported":1705019777,"current_range_meters":3600,"station_id":"ce4bhs12rcd13ifvqhvg","pricing_plan_id":"free"},{"bike_id":"ec9ecb27-288b-402d-93e2-7922441b6504","system_id":"levelo_inurba_marseille","lat":43.324771,"lon":5.36557,"is_reserved":false,"is_disabled":false,"rental_uris":{"android":"levelo://app?vid=ec9ecb27-288b-402d-93e2-7922441b6504","ios":"levelo://app?vid=ec9ecb27-288b-402d-93e2-7922441b6504"},"vehicle_type_id":"4","last_reported":1705019777,"current_range_meters":4000,"station_id":"ce4bhs12rcd13ifvqhvg","pricing_plan_id":"free"},{"bike_id":"dbac1f68-361a-44b0-bf37-5ebb1476a993","system_id":"levelo_inurba_marseille","lat":43.324771,"lon":5.36557,"is_reserved":false,"is_disabled":false,"rental_uris":{"android":"levelo://app?vid=dbac1f68-361a-44b0-bf37-5ebb1476a993","ios":"levelo://app?vid=dbac1f68-361a-44b0-bf37-5ebb1476a993"},"vehicle_type_id":"4","last_reported":1705019777,"current_range_meters":6000,"station_id":"ce4bhs12rcd13ifvqhvg","pricing_plan_id":"free"},{"bike_id":"e3ddbe67-20ea-4173-8d9a-0186ccff05d5","system_id":"levelo_inurba_marseille","lat":43.301429,"lon":5.37413,"is_reserved":false,"is_disabled":false,"rental_uris":{"android":"levelo://app?vid=e3ddbe67-20ea-4173-8d9a-0186ccff05d5","ios":"levelo://app?vid=e3ddbe67-20ea-4173-8d9a-0186ccff05d5"},"vehicle_type_id":"4","last_reported":1705019777,"current_range_meters":31600,"station_id":"ce4bgs92rcd13ifvqcc0","pricing_plan_id":"free"},{"bike_id":"f06ea75e-f241-47dc-a660-4c8eb62624f5","system_id":"levelo_inurba_marseille","lat":43.301429,"lon":5.37413,"is_reserved":false,"is_disabled":false,"rental_uris":{"android":"levelo://app?vid=f06ea75e-f241-47dc-a660-4c8eb62624f5","ios":"levelo://app?vid=f06ea75e-f241-47dc-a660-4c8eb62624f5"},"vehicle_type_id":"4","last_reported":1705019777,"current_range_meters":7200,"station_id":"ce4bgs92rcd13ifvqcc0","pricing_plan_id":"free"},{"bike_id":"a6f51d84-1209-4f8e-81f2-85a813ca610f","system_id":"levelo_inurba_marseille","lat":43.319935,"lon":5.381699,"is_reserved":false,"is_disabled":false,"rental_uris":{"android":"levelo://app?vid=a6f51d84-1209-4f8e-81f2-85a813ca610f","ios":"levelo://app?vid=a6f51d84-1209-4f8e-81f2-85a813ca610f"},"vehicle_type_id":"4","last_reported":1705019777,"current_range_meters":14800,"station_id":"ce4bhr12rcd13ifvqhpg","pricing_plan_id":"free"},{"bike_id":"785a4c90-b23e-4cb5-b3cf-a876c36bbee9","system_id":"levelo_inurba_marseille","lat":43.319935,"lon":5.381699,"is_reserved":false,"is_disabled":false,"rental_uris":{"android":"levelo://app?vid=785a4c90-b23e-4cb5-b3cf-a876c36bbee9","ios":"levelo://app?vid=785a4c90-b23e-4cb5-b3cf-a876c36bbee9"},"vehicle_type_id":"4","last_reported":1705019777,"current_range_meters":7200,"station_id":"ce4bhr12rcd13ifvqhpg","pricing_plan_id":"free"},{"bike_id":"85f693be-fb4b-46c4-99eb-650153798b22","system_id":"levelo_inurba_marseille","lat":43.313571,"lon":5.384829,"is_reserved":false,"is_disabled":false,"rental_uris":{"android":"levelo://app?vid=85f693be-fb4b-46c4-99eb-650153798b22","ios":"levelo://app?vid=85f693be-fb4b-46c4-99eb-650153798b22"},"vehicle_type_id":"4","last_reported":1705019777,"current_range_meters":22800,"station_id":"ce4bgt92rcd13ifvqcf0","pricing_plan_id":"free"},{"bike_id":"3f482cf6-a896-4602-bfa3-22f73490e4f8","system_id":"levelo_inurba_marseille","lat":43.299222,"lon":5.365554,"is_reserved":false,"is_disabled":false,"rental_uris":{"android":"levelo://app?vid=3f482cf6-a896-4602-bfa3-22f73490e4f8","ios":"levelo://app?vid=3f482cf6-a896-4602-bfa3-22f73490e4f8"},"vehicle_type_id":"4","last_reported":1705019777,"current_range_meters":15600,"station_id":"ce4bgm92rcd13ifvqbr0","pricing_plan_id":"free"},{"bike_id":"c6ad11ea-03a8-4a97-bb34-586887d5d208","system_id":"levelo_inurba_marseille","lat":43.299222,"lon":5.365554,"is_reserved":false,"is_disabled":false,"rental_uris":{"android":"levelo://app?vid=c6ad11ea-03a8-4a97-bb34-586887d5d208","ios":"levelo://app?vid=c6ad11ea-03a8-4a97-bb34-586887d5d208"},"vehicle_type_id":"4","last_reported":1705019777,"current_range_meters":14400,"station_id":"ce4bgm92rcd13ifvqbr0","pricing_plan_id":"free"},{"bike_id":"ac1040e1-b768-4118-9658-1a73e7444e5b","system_id":"levelo_inurba_marseille","lat":43.299724,"lon":5.371829,"is_reserved":false,"is_disabled":false,"rental_uris":{"android":"levelo://app?vid=ac1040e1-b768-4118-9658-1a73e7444e5b","ios":"levelo://app?vid=ac1040e1-b768-4118-9658-1a73e7444e5b"},"vehicle_type_id":"4","last_reported":1705019777,"current_range_meters":6400,"station_id":"ce4bgr92rcd13ifvqc7g","pricing_plan_id":"free"},{"bike_id":"f727a50f-8d3b-4dfc-b399-7a4265fbf86a","system_id":"levelo_inurba_marseille","lat":43.314305,"lon":5.385497,"is_reserved":false,"is_disabled":false,"rental_uris":{"android":"levelo://app?vid=f727a50f-8d3b-4dfc-b399-7a4265fbf86a","ios":"levelo://app?vid=f727a50f-8d3b-4dfc-b399-7a4265fbf86a"},"vehicle_type_id":"4","last_reported":1705019777,"current_range_meters":2800,"station_id":"","pricing_plan_id":"free"},{"bike_id":"b81ea238-d356-47ac-aeee-27e9c1b48cdb","system_id":"levelo_inurba_marseille","lat":43.29849,"lon":5.36891,"is_reserved":false,"is_disabled":false,"rental_uris":{"android":"levelo://app?vid=b81ea238-d356-47ac-aeee-27e9c1b48cdb","ios":"levelo://app?vid=b81ea238-d356-47ac-aeee-27e9c1b48cdb"},"vehicle_type_id":"4","last_reported":1705019777,"current_range_meters":8800,"station_id":"","pricing_plan_id":"free"},{"bike_id":"0fc9f9a2-fc48-4af4-8862-d4a483a11bc7","system_id":"levelo_inurba_marseille","lat":43.305364,"lon":5.384119,"is_reserved":false,"is_disabled":false,"rental_uris":{"android":"levelo://app?vid=0fc9f9a2-fc48-4af4-8862-d4a483a11bc7","ios":"levelo://app?vid=0fc9f9a2-fc48-4af4-8862-d4a483a11bc7"},"vehicle_type_id":"4","last_reported":1705019777,"current_range_meters":21200,"station_id":"ce4bgg92rcd13ifvqb30","pricing_plan_id":"free"},{"bike_id":"8015bbf3-60ce-4a3f-a919-0606351993a9","system_id":"levelo_inurba_marseille","lat":43.311722,"lon":5.387247,"is_reserved":false,"is_disabled":false,"rental_uris":{"android":"levelo://app?vid=8015bbf3-60ce-4a3f-a919-0606351993a9","ios":"levelo://app?vid=8015bbf3-60ce-4a3f-a919-0606351993a9"},"vehicle_type_id":"4","last_reported":1705019777,"current_range_meters":27200,"station_id":"ce4bgv12rcd13ifvqcp0","pricing_plan_id":"free"},{"bike_id":"8399c1dc-7675-4e50-972c-933850bf5859","system_id":"levelo_inurba_marseille","lat":43.29916,"lon":5.37467,"is_reserved":false,"is_disabled":false,"rental_uris":{"android":"levelo://app?vid=8399c1dc-7675-4e50-972c-933850bf5859","ios":"levelo://app?vid=8399c1dc-7675-4e50-972c-933850bf5859"},"vehicle_type_id":"4","last_reported":1705019777,"current_range_meters":21200,"station_id":"ce4bgjh2rcd13ifvqbg0","pricing_plan_id":"free"},{"bike_id":"94a26f6f-9f27-4882-8e0a-7b1bacdd9017","system_id":"levelo_inurba_marseille","lat":43.311722,"lon":5.387247,"is_reserved":false,"is_disabled":false,"rental_uris":{"android":"levelo://app?vid=94a26f6f-9f27-4882-8e0a-7b1bacdd9017","ios":"levelo://app?vid=94a26f6f-9f27-4882-8e0a-7b1bacdd9017"},"vehicle_type_id":"4","last_reported":1705019777,"current_range_meters":28000,"station_id":"ce4bgv12rcd13ifvqcp0","pricing_plan_id":"free"},{"bike_id":"dbe0d42d-62b0-47ff-a638-90c425141729","system_id":"levelo_inurba_marseille","lat":43.311722,"lon":5.387247,"is_reserved":false,"is_disabled":false,"rental_uris":{"android":"levelo://app?vid=dbe0d42d-62b0-47ff-a638-90c425141729","ios":"levelo://app?vid=dbe0d42d-62b0-47ff-a638-90c425141729"},"vehicle_type_id":"4","last_reported":1705019777,"current_range_meters":29200,"station_id":"ce4bgv12rcd13ifvqcp0","pricing_plan_id":"free"},{"bike_id":"be900d39-fc07-42d5-987c-c8e1da1d6e82","system_id":"levelo_inurba_marseille","lat":43.311722,"lon":5.387247,"is_reserved":false,"is_disabled":false,"rental_uris":{"android":"levelo://app?vid=be900d39-fc07-42d5-987c-c8e1da1d6e82","ios":"levelo://app?vid=be900d39-fc07-42d5-987c-c8e1da1d6e82"},"vehicle_type_id":"4","last_reported":1705019777,"current_range_meters":30400,"station_id":"ce4bgv12rcd13ifvqcp0","pricing_plan_id":"free"},{"bike_id":"54260f53-16ca-4ede-8dc1-bd43d7e49e57","system_id":"levelo_inurba_marseille","lat":43.311722,"lon":5.387247,"is_reserved":false,"is_disabled":false,"rental_uris":{"android":"levelo://app?vid=54260f53-16ca-4ede-8dc1-bd43d7e49e57","ios":"levelo://app?vid=54260f53-16ca-4ede-8dc1-bd43d7e49e57"},"vehicle_type_id":"4","last_reported":1705019777,"current_range_meters":13200,"station_id":"ce4bgv12rcd13ifvqcp0","pricing_plan_id":"free"},{"bike_id":"1a7b9f27-100e-4bca-b023-0fadd27584c7","system_id":"levelo_inurba_marseille","lat":43.32284,"lon":5.38246,"is_reserved":false,"is_disabled":false,"rental_uris":{"android":"levelo://app?vid=1a7b9f27-100e-4bca-b023-0fadd27584c7","ios":"levelo://app?vid=1a7b9f27-100e-4bca-b023-0fadd27584c7"},"vehicle_type_id":"4","last_reported":1705019777,"current_range_meters":20400,"station_id":"ce4bhr12rcd13ifvqhqg","pricing_plan_id":"free"},{"bike_id":"d533ddce-4b07-415b-ae64-b031e8591898","system_id":"levelo_inurba_marseille","lat":43.297774,"lon":5.370875,"is_reserved":false,"is_disabled":false,"rental_uris":{"android":"levelo://app?vid=d533ddce-4b07-415b-ae64-b031e8591898","ios":"levelo://app?vid=d533ddce-4b07-415b-ae64-b031e8591898"},"vehicle_type_id":"4","last_reported":1705019777,"current_range_meters":27200,"station_id":"ce4bgop2rcd13ifvqc1g","pricing_plan_id":"free"},{"bike_id":"4d899553-d928-43f2-9434-010f54e3f861","system_id":"levelo_inurba_marseille","lat":43.32286,"lon":5.3826,"is_reserved":false,"is_disabled":false,"rental_uris":{"android":"levelo://app?vid=4d899553-d928-43f2-9434-010f54e3f861","ios":"levelo://app?vid=4d899553-d928-43f2-9434-010f54e3f861"},"vehicle_type_id":"4","last_reported":1705019777,"current_range_meters":31600,"station_id":"ce4bhr12rcd13ifvqhqg","pricing_plan_id":"free"},{"bike_id":"e2c6c23b-259f-469c-a66a-1b13670c6310","system_id":"levelo_inurba_marseille","lat":43.32288,"lon":5.38259,"is_reserved":false,"is_disabled":false,"rental_uris":{"android":"levelo://app?vid=e2c6c23b-259f-469c-a66a-1b13670c6310","ios":"levelo://app?vid=e2c6c23b-259f-469c-a66a-1b13670c6310"},"vehicle_type_id":"4","last_reported":1705019777,"current_range_meters":14400,"station_id":"ce4bhr12rcd13ifvqhqg","pricing_plan_id":"free"},{"bike_id":"a28d4661-f307-4e07-91d6-125d0105db5a","system_id":"levelo_inurba_marseille","lat":43.3229,"lon":5.38259,"is_reserved":false,"is_disabled":false,"rental_uris":{"android":"levelo://app?vid=a28d4661-f307-4e07-91d6-125d0105db5a","ios":"levelo://app?vid=a28d4661-f307-4e07-91d6-125d0105db5a"},"vehicle_type_id":"4","last_reported":1705019777,"current_range_meters":31600,"station_id":"ce4bhr12rcd13ifvqhqg","pricing_plan_id":"free"},{"bike_id":"2b5bf558-57ca-4ae3-8734-74dde5ea563b","system_id":"levelo_inurba_marseille","lat":43.32287,"lon":5.38263,"is_reserved":false,"is_disabled":false,"rental_uris":{"android":"levelo://app?vid=2b5bf558-57ca-4ae3-8734-74dde5ea563b","ios":"levelo://app?vid=2b5bf558-57ca-4ae3-8734-74dde5ea563b"},"vehicle_type_id":"4","last_reported":1705019777,"current_range_meters":31600,"station_id":"ce4bhr12rcd13ifvqhqg","pricing_plan_id":"free"},{"bike_id":"c69315be-29a9-4443-804c-1cf41f46ab1b","system_id":"levelo_inurba_marseille","lat":43.32292,"lon":5.38263,"is_reserved":false,"is_disabled":false,"rental_uris":{"android":"levelo://app?vid=c69315be-29a9-4443-804c-1cf41f46ab1b","ios":"levelo://app?vid=c69315be-29a9-4443-804c-1cf41f46ab1b"},"vehicle_type_id":"4","last_reported":1705019777,"current_range_meters":9200,"station_id":"ce4bhr12rcd13ifvqhqg","pricing_plan_id":"free"},{"bike_id":"21316b62-42e0-46a7-b34c-2b2eac0cf0ce","system_id":"levelo_inurba_marseille","lat":43.32289,"lon":5.3827,"is_reserved":false,"is_disabled":false,"rental_uris":{"android":"levelo://app?vid=21316b62-42e0-46a7-b34c-2b2eac0cf0ce","ios":"levelo://app?vid=21316b62-42e0-46a7-b34c-2b2eac0cf0ce"},"vehicle_type_id":"4","last_reported":1705019777,"current_range_meters":31600,"station_id":"ce4bhr12rcd13ifvqhqg","pricing_plan_id":"free"},{"bike_id":"d6e71fc0-c662-46a4-9ce2-a4da97cef68b","system_id":"levelo_inurba_marseille","lat":43.32829,"lon":5.36673,"is_reserved":false,"is_disabled":false,"rental_uris":{"android":"levelo://app?vid=d6e71fc0-c662-46a4-9ce2-a4da97cef68b","ios":"levelo://app?vid=d6e71fc0-c662-46a4-9ce2-a4da97cef68b"},"vehicle_type_id":"4","last_reported":1705019777,"current_range_meters":26000,"station_id":"ce4bhs92rcd13ifvqi0g","pricing_plan_id":"free"},{"bike_id":"9fbabc07-7e3e-4dc7-aad6-5f93ddb8699a","system_id":"levelo_inurba_marseille","lat":43.32829,"lon":5.36672,"is_reserved":false,"is_disabled":false,"rental_uris":{"android":"levelo://app?vid=9fbabc07-7e3e-4dc7-aad6-5f93ddb8699a","ios":"levelo://app?vid=9fbabc07-7e3e-4dc7-aad6-5f93ddb8699a"},"vehicle_type_id":"4","last_reported":1705019777,"current_range_meters":11600,"station_id":"ce4bhs92rcd13ifvqi0g","pricing_plan_id":"free"},{"bike_id":"ebd1c3ae-d840-4cf1-b3ce-5dbd8e760142","system_id":"levelo_inurba_marseille","lat":43.32831,"lon":5.36683,"is_reserved":false,"is_disabled":false,"rental_uris":{"android":"levelo://app?vid=ebd1c3ae-d840-4cf1-b3ce-5dbd8e760142","ios":"levelo://app?vid=ebd1c3ae-d840-4cf1-b3ce-5dbd8e760142"},"vehicle_type_id":"4","last_reported":1705019777,"current_range_meters":15200,"station_id":"ce4bhs92rcd13ifvqi0g","pricing_plan_id":"free"},{"bike_id":"e38d20ff-3711-42f9-8598-8b7af98ee7b5","system_id":"levelo_inurba_marseille","lat":43.32832,"lon":5.3668,"is_reserved":false,"is_disabled":false,"rental_uris":{"android":"levelo://app?vid=e38d20ff-3711-42f9-8598-8b7af98ee7b5","ios":"levelo://app?vid=e38d20ff-3711-42f9-8598-8b7af98ee7b5"},"vehicle_type_id":"4","last_reported":1705019777,"current_range_meters":15200,"station_id":"ce4bhs92rcd13ifvqi0g","pricing_plan_id":"free"},{"bike_id":"00240506-f51a-4e5e-8e4b-da47fbef48ec","system_id":"levelo_inurba_marseille","lat":43.32832,"lon":5.36668,"is_reserved":false,"is_disabled":false,"rental_uris":{"android":"levelo://app?vid=00240506-f51a-4e5e-8e4b-da47fbef48ec","ios":"levelo://app?vid=00240506-f51a-4e5e-8e4b-da47fbef48ec"},"vehicle_type_id":"4","last_reported":1705019777,"current_range_meters":23200,"station_id":"ce4bhs92rcd13ifvqi0g","pricing_plan_id":"free"},{"bike_id":"81d6536e-b99d-4f4b-832c-b840655e1244","system_id":"levelo_inurba_marseille","lat":43.32833,"lon":5.36694,"is_reserved":false,"is_disabled":false,"rental_uris":{"android":"levelo://app?vid=81d6536e-b99d-4f4b-832c-b840655e1244","ios":"levelo://app?vid=81d6536e-b99d-4f4b-832c-b840655e1244"},"vehicle_type_id":"4","last_reported":1705019777,"current_range_meters":30000,"station_id":"ce4bhs92rcd13ifvqi0g","pricing_plan_id":"free"},{"bike_id":"9949c318-cd33-4e7f-93e5-9b978c57ddec","system_id":"levelo_inurba_marseille","lat":43.32833,"lon":5.36675,"is_reserved":false,"is_disabled":false,"rental_uris":{"android":"levelo://app?vid=9949c318-cd33-4e7f-93e5-9b978c57ddec","ios":"levelo://app?vid=9949c318-cd33-4e7f-93e5-9b978c57ddec"},"vehicle_type_id":"4","last_reported":1705019777,"current_range_meters":16400,"station_id":"ce4bhs92rcd13ifvqi0g","pricing_plan_id":"free"},{"bike_id":"b7f19553-caf3-42e9-85f2-de3629dabc8e","system_id":"levelo_inurba_marseille","lat":43.32833,"lon":5.36672,"is_reserved":false,"is_disabled":false,"rental_uris":{"android":"levelo://app?vid=b7f19553-caf3-42e9-85f2-de3629dabc8e","ios":"levelo://app?vid=b7f19553-caf3-42e9-85f2-de3629dabc8e"},"vehicle_type_id":"4","last_reported":1705019777,"current_range_meters":25200,"station_id":"ce4bhs92rcd13ifvqi0g","pricing_plan_id":"free"},{"bike_id":"555f2928-05df-4910-a353-01300cd79126","system_id":"levelo_inurba_marseille","lat":43.328349,"lon":5.366832,"is_reserved":false,"is_disabled":false,"rental_uris":{"android":"levelo://app?vid=555f2928-05df-4910-a353-01300cd79126","ios":"levelo://app?vid=555f2928-05df-4910-a353-01300cd79126"},"vehicle_type_id":"4","last_reported":1705019777,"current_range_meters":28800,"station_id":"ce4bhs92rcd13ifvqi0g","pricing_plan_id":"free"},{"bike_id":"38082c03-fac1-44d3-a79f-5142b4a113a9","system_id":"levelo_inurba_marseille","lat":43.328373,"lon":5.366902,"is_reserved":false,"is_disabled":false,"rental_uris":{"android":"levelo://app?vid=38082c03-fac1-44d3-a79f-5142b4a113a9","ios":"levelo://app?vid=38082c03-fac1-44d3-a79f-5142b4a113a9"},"vehicle_type_id":"4","last_reported":1705019777,"current_range_meters":20400,"station_id":"ce4bhs92rcd13ifvqi0g","pricing_plan_id":"free"},{"bike_id":"d42d059e-1cea-4b93-b7e1-3374327b6ff9","system_id":"levelo_inurba_marseille","lat":43.297163,"lon":5.365866,"is_reserved":false,"is_disabled":false,"rental_uris":{"android":"levelo://app?vid=d42d059e-1cea-4b93-b7e1-3374327b6ff9","ios":"levelo://app?vid=d42d059e-1cea-4b93-b7e1-3374327b6ff9"},"vehicle_type_id":"4","last_reported":1705019777,"current_range_meters":6000,"station_id":"ce4bgn12rcd13ifvqbt0","pricing_plan_id":"free"},{"bike_id":"c1dbb28d-acf0-476d-8991-92e6d48da7bf","system_id":"levelo_inurba_marseille","lat":43.296801,"lon":5.372822,"is_reserved":false,"is_disabled":false,"rental_uris":{"android":"levelo://app?vid=c1dbb28d-acf0-476d-8991-92e6d48da7bf","ios":"levelo://app?vid=c1dbb28d-acf0-476d-8991-92e6d48da7bf"},"vehicle_type_id":"4","last_reported":1705019777,"current_range_meters":6000,"station_id":"","pricing_plan_id":"free"},{"bike_id":"b00acedf-d044-41a6-8a96-44378663bca8","system_id":"levelo_inurba_marseille","lat":43.29602,"lon":5.36498,"is_reserved":false,"is_disabled":false,"rental_uris":{"android":"levelo://app?vid=b00acedf-d044-41a6-8a96-44378663bca8","ios":"levelo://app?vid=b00acedf-d044-41a6-8a96-44378663bca8"},"vehicle_type_id":"4","last_reported":1705019777,"current_range_meters":26000,"station_id":"","pricing_plan_id":"free"},{"bike_id":"c15434e0-2dde-4e47-bcf3-845941a978d5","system_id":"levelo_inurba_marseille","lat":43.296131,"lon":5.370791,"is_reserved":false,"is_disabled":false,"rental_uris":{"android":"levelo://app?vid=c15434e0-2dde-4e47-bcf3-845941a978d5","ios":"levelo://app?vid=c15434e0-2dde-4e47-bcf3-845941a978d5"},"vehicle_type_id":"4","last_reported":1705019777,"current_range_meters":28400,"station_id":"ce4bgnh2rcd13ifvqc0g","pricing_plan_id":"free"},{"bike_id":"cb4bbf2d-1efc-4895-b774-b7dd69d08521","system_id":"levelo_inurba_marseille","lat":43.299202,"lon":5.381513,"is_reserved":false,"is_disabled":false,"rental_uris":{"android":"levelo://app?vid=cb4bbf2d-1efc-4895-b774-b7dd69d08521","ios":"levelo://app?vid=cb4bbf2d-1efc-4895-b774-b7dd69d08521"},"vehicle_type_id":"4","last_reported":1705019777,"current_range_meters":8400,"station_id":"","pricing_plan_id":"free"},{"bike_id":"1afccee9-0b78-4890-8017-04fc145afd9f","system_id":"levelo_inurba_marseille","lat":43.309589,"lon":5.390258,"is_reserved":false,"is_disabled":false,"rental_uris":{"android":"levelo://app?vid=1afccee9-0b78-4890-8017-04fc145afd9f","ios":"levelo://app?vid=1afccee9-0b78-4890-8017-04fc145afd9f"},"vehicle_type_id":"4","last_reported":1705019777,"current_range_meters":18400,"station_id":"ce4bgup2rcd13ifvqco0","pricing_plan_id":"free"},{"bike_id":"470d67a1-695b-44cc-b96e-0f078bad8ffc","system_id":"levelo_inurba_marseille","lat":43.299028,"lon":5.381509,"is_reserved":false,"is_disabled":false,"rental_uris":{"android":"levelo://app?vid=470d67a1-695b-44cc-b96e-0f078bad8ffc","ios":"levelo://app?vid=470d67a1-695b-44cc-b96e-0f078bad8ffc"},"vehicle_type_id":"4","last_reported":1705019777,"current_range_meters":27600,"station_id":"ce4bgj12rcd13ifvqbc0","pricing_plan_id":"free"},{"bike_id":"310141c9-75d2-416b-99f3-cad53d6b0733","system_id":"levelo_inurba_marseille","lat":43.309589,"lon":5.390258,"is_reserved":false,"is_disabled":false,"rental_uris":{"android":"levelo://app?vid=310141c9-75d2-416b-99f3-cad53d6b0733","ios":"levelo://app?vid=310141c9-75d2-416b-99f3-cad53d6b0733"},"vehicle_type_id":"4","last_reported":1705019777,"current_range_meters":30400,"station_id":"ce4bgup2rcd13ifvqco0","pricing_plan_id":"free"},{"bike_id":"e16fe284-d5af-4c1c-b04d-c14c7ff56940","system_id":"levelo_inurba_marseille","lat":43.309589,"lon":5.390258,"is_reserved":false,"is_disabled":false,"rental_uris":{"android":"levelo://app?vid=e16fe284-d5af-4c1c-b04d-c14c7ff56940","ios":"levelo://app?vid=e16fe284-d5af-4c1c-b04d-c14c7ff56940"},"vehicle_type_id":"4","last_reported":1705019777,"current_range_meters":30400,"station_id":"ce4bgup2rcd13ifvqco0","pricing_plan_id":"free"},{"bike_id":"cec9f90c-a169-4731-a05f-991eaf4be5ba","system_id":"levelo_inurba_marseille","lat":43.317557,"lon":5.390173,"is_reserved":false,"is_disabled":false,"rental_uris":{"android":"levelo://app?vid=cec9f90c-a169-4731-a05f-991eaf4be5ba","ios":"levelo://app?vid=cec9f90c-a169-4731-a05f-991eaf4be5ba"},"vehicle_type_id":"4","last_reported":1705019777,"current_range_meters":31200,"station_id":"ce4bhqp2rcd13ifvqhng","pricing_plan_id":"free"},{"bike_id":"9ce2fc2c-2553-468a-87f5-01efa6b58fcd","system_id":"levelo_inurba_marseille","lat":43.31755,"lon":5.39018,"is_reserved":false,"is_disabled":false,"rental_uris":{"android":"levelo://app?vid=9ce2fc2c-2553-468a-87f5-01efa6b58fcd","ios":"levelo://app?vid=9ce2fc2c-2553-468a-87f5-01efa6b58fcd"},"vehicle_type_id":"4","last_reported":1705019777,"current_range_meters":26800,"station_id":"ce4bhqp2rcd13ifvqhng","pricing_plan_id":"free"},{"bike_id":"0734340f-e623-42d6-bdd6-bad3f3c9ba25","system_id":"levelo_inurba_marseille","lat":43.31758,"lon":5.39017,"is_reserved":false,"is_disabled":false,"rental_uris":{"android":"levelo://app?vid=0734340f-e623-42d6-bdd6-bad3f3c9ba25","ios":"levelo://app?vid=0734340f-e623-42d6-bdd6-bad3f3c9ba25"},"vehicle_type_id":"4","last_reported":1705019777,"current_range_meters":18000,"station_id":"ce4bhqp2rcd13ifvqhng","pricing_plan_id":"free"},{"bike_id":"1a379cc0-d14e-4ab8-9952-5beea740d425","system_id":"levelo_inurba_marseille","lat":43.317557,"lon":5.390173,"is_reserved":false,"is_disabled":false,"rental_uris":{"android":"levelo://app?vid=1a379cc0-d14e-4ab8-9952-5beea740d425","ios":"levelo://app?vid=1a379cc0-d14e-4ab8-9952-5beea740d425"},"vehicle_type_id":"4","last_reported":1705019777,"current_range_meters":21600,"station_id":"ce4bhqp2rcd13ifvqhng","pricing_plan_id":"free"},{"bike_id":"cdc29905-aa14-410b-8046-85a9e888ee91","system_id":"levelo_inurba_marseille","lat":43.31752,"lon":5.39024,"is_reserved":false,"is_disabled":false,"rental_uris":{"android":"levelo://app?vid=cdc29905-aa14-410b-8046-85a9e888ee91","ios":"levelo://app?vid=cdc29905-aa14-410b-8046-85a9e888ee91"},"vehicle_type_id":"4","last_reported":1705019777,"current_range_meters":5600,"station_id":"ce4bhqp2rcd13ifvqhng","pricing_plan_id":"free"},{"bike_id":"06fc5b5d-2fb3-4fee-951f-120c9c0e8ae8","system_id":"levelo_inurba_marseille","lat":43.304274,"lon":5.388873,"is_reserved":false,"is_disabled":false,"rental_uris":{"android":"levelo://app?vid=06fc5b5d-2fb3-4fee-951f-120c9c0e8ae8","ios":"levelo://app?vid=06fc5b5d-2fb3-4fee-951f-120c9c0e8ae8"},"vehicle_type_id":"4","last_reported":1705019777,"current_range_meters":25200,"station_id":"ce4bgk12rcd13ifvqbi0","pricing_plan_id":"free"},{"bike_id":"ae002dfd-2c3f-4d0a-825e-166cd1ea440b","system_id":"levelo_inurba_marseille","lat":43.304278,"lon":5.388868,"is_reserved":false,"is_disabled":false,"rental_uris":{"android":"levelo://app?vid=ae002dfd-2c3f-4d0a-825e-166cd1ea440b","ios":"levelo://app?vid=ae002dfd-2c3f-4d0a-825e-166cd1ea440b"},"vehicle_type_id":"4","last_reported":1705019777,"current_range_meters":31600,"station_id":"ce4bgk12rcd13ifvqbi0","pricing_plan_id":"free"},{"bike_id":"bd609379-648d-420a-a57d-735375eb0470","system_id":"levelo_inurba_marseille","lat":43.304278,"lon":5.388868,"is_reserved":false,"is_disabled":false,"rental_uris":{"android":"levelo://app?vid=bd609379-648d-420a-a57d-735375eb0470","ios":"levelo://app?vid=bd609379-648d-420a-a57d-735375eb0470"},"vehicle_type_id":"4","last_reported":1705019777,"current_range_meters":3600,"station_id":"ce4bgk12rcd13ifvqbi0","pricing_plan_id":"free"},{"bike_id":"9625738a-ba11-4ab7-82fd-f6f66ad23003","system_id":"levelo_inurba_marseille","lat":43.304278,"lon":5.388868,"is_reserved":false,"is_disabled":false,"rental_uris":{"android":"levelo://app?vid=9625738a-ba11-4ab7-82fd-f6f66ad23003","ios":"levelo://app?vid=9625738a-ba11-4ab7-82fd-f6f66ad23003"},"vehicle_type_id":"4","last_reported":1705019777,"current_range_meters":15600,"station_id":"ce4bgk12rcd13ifvqbi0","pricing_plan_id":"free"},{"bike_id":"7593ae81-c8c9-4289-bbb5-369e92fd618f","system_id":"levelo_inurba_marseille","lat":43.295353,"lon":5.375002,"is_reserved":false,"is_disabled":false,"rental_uris":{"android":"levelo://app?vid=7593ae81-c8c9-4289-bbb5-369e92fd618f","ios":"levelo://app?vid=7593ae81-c8c9-4289-bbb5-369e92fd618f"},"vehicle_type_id":"4","last_reported":1705019777,"current_range_meters":7600,"station_id":"ce4bgkp2rcd13ifvqbmg","pricing_plan_id":"free"},{"bike_id":"a33ef497-c365-4da6-9c3b-8ca46c3351c4","system_id":"levelo_inurba_marseille","lat":43.299717,"lon":5.384845,"is_reserved":false,"is_disabled":false,"rental_uris":{"android":"levelo://app?vid=a33ef497-c365-4da6-9c3b-8ca46c3351c4","ios":"levelo://app?vid=a33ef497-c365-4da6-9c3b-8ca46c3351c4"},"vehicle_type_id":"4","last_reported":1705019777,"current_range_meters":18400,"station_id":"ce4bgj92rcd13ifvqbd0","pricing_plan_id":"free"},{"bike_id":"26f3a2b2-4e8e-4c5d-a07c-7a59ae22f511","system_id":"levelo_inurba_marseille","lat":43.29972,"lon":5.38494,"is_reserved":false,"is_disabled":false,"rental_uris":{"android":"levelo://app?vid=26f3a2b2-4e8e-4c5d-a07c-7a59ae22f511","ios":"levelo://app?vid=26f3a2b2-4e8e-4c5d-a07c-7a59ae22f511"},"vehicle_type_id":"4","last_reported":1705019777,"current_range_meters":0,"station_id":"ce4bgj92rcd13ifvqbd0","pricing_plan_id":"free"},{"bike_id":"599c85f0-4731-4ce0-bcd2-ce08969aa41f","system_id":"levelo_inurba_marseille","lat":43.299724,"lon":5.384848,"is_reserved":false,"is_disabled":false,"rental_uris":{"android":"levelo://app?vid=599c85f0-4731-4ce0-bcd2-ce08969aa41f","ios":"levelo://app?vid=599c85f0-4731-4ce0-bcd2-ce08969aa41f"},"vehicle_type_id":"4","last_reported":1705019777,"current_range_meters":19200,"station_id":"ce4bgj92rcd13ifvqbd0","pricing_plan_id":"free"},{"bike_id":"25bd8317-6655-4ef2-8a6f-980c9342b28b","system_id":"levelo_inurba_marseille","lat":43.32364,"lon":5.38863,"is_reserved":false,"is_disabled":false,"rental_uris":{"android":"levelo://app?vid=25bd8317-6655-4ef2-8a6f-980c9342b28b","ios":"levelo://app?vid=25bd8317-6655-4ef2-8a6f-980c9342b28b"},"vehicle_type_id":"4","last_reported":1705019777,"current_range_meters":20400,"station_id":"ce4bhqp2rcd13ifvqhog","pricing_plan_id":"free"},{"bike_id":"95ac300a-da2d-4ffb-bacc-9c61329d2342","system_id":"levelo_inurba_marseille","lat":43.32368,"lon":5.38872,"is_reserved":false,"is_disabled":false,"rental_uris":{"android":"levelo://app?vid=95ac300a-da2d-4ffb-bacc-9c61329d2342","ios":"levelo://app?vid=95ac300a-da2d-4ffb-bacc-9c61329d2342"},"vehicle_type_id":"4","last_reported":1705019777,"current_range_meters":26400,"station_id":"ce4bhqp2rcd13ifvqhog","pricing_plan_id":"free"},{"bike_id":"3bbb55c2-fb69-41bc-a8fc-0b92e6a3fb43","system_id":"levelo_inurba_marseille","lat":43.32364,"lon":5.38878,"is_reserved":false,"is_disabled":false,"rental_uris":{"android":"levelo://app?vid=3bbb55c2-fb69-41bc-a8fc-0b92e6a3fb43","ios":"levelo://app?vid=3bbb55c2-fb69-41bc-a8fc-0b92e6a3fb43"},"vehicle_type_id":"4","last_reported":1705019777,"current_range_meters":14800,"station_id":"ce4bhqp2rcd13ifvqhog","pricing_plan_id":"free"},{"bike_id":"25f5fd0e-ed90-4b33-a0ef-2c9e6bb212ed","system_id":"levelo_inurba_marseille","lat":43.32364,"lon":5.3888,"is_reserved":false,"is_disabled":false,"rental_uris":{"android":"levelo://app?vid=25f5fd0e-ed90-4b33-a0ef-2c9e6bb212ed","ios":"levelo://app?vid=25f5fd0e-ed90-4b33-a0ef-2c9e6bb212ed"},"vehicle_type_id":"4","last_reported":1705019777,"current_range_meters":9600,"station_id":"ce4bhqp2rcd13ifvqhog","pricing_plan_id":"free"},{"bike_id":"db2c4471-8b83-4b5e-9a69-60e00dfef967","system_id":"levelo_inurba_marseille","lat":43.32364,"lon":5.3888,"is_reserved":false,"is_disabled":false,"rental_uris":{"android":"levelo://app?vid=db2c4471-8b83-4b5e-9a69-60e00dfef967","ios":"levelo://app?vid=db2c4471-8b83-4b5e-9a69-60e00dfef967"},"vehicle_type_id":"4","last_reported":1705019777,"current_range_meters":24400,"station_id":"ce4bhqp2rcd13ifvqhog","pricing_plan_id":"free"},{"bike_id":"98611fae-5bae-414c-b7f6-42bbc4ffb426","system_id":"levelo_inurba_marseille","lat":43.32367,"lon":5.38878,"is_reserved":false,"is_disabled":false,"rental_uris":{"android":"levelo://app?vid=98611fae-5bae-414c-b7f6-42bbc4ffb426","ios":"levelo://app?vid=98611fae-5bae-414c-b7f6-42bbc4ffb426"},"vehicle_type_id":"4","last_reported":1705019777,"current_range_meters":12000,"station_id":"ce4bhqp2rcd13ifvqhog","pricing_plan_id":"free"},{"bike_id":"1e38e798-cb30-49fe-9bac-ca996adb3889","system_id":"levelo_inurba_marseille","lat":43.32367,"lon":5.388836,"is_reserved":false,"is_disabled":false,"rental_uris":{"android":"levelo://app?vid=1e38e798-cb30-49fe-9bac-ca996adb3889","ios":"levelo://app?vid=1e38e798-cb30-49fe-9bac-ca996adb3889"},"vehicle_type_id":"4","last_reported":1705019777,"current_range_meters":21200,"station_id":"ce4bhqp2rcd13ifvqhog","pricing_plan_id":"free"},{"bike_id":"e344bdce-8506-471e-a13c-02d5007bb0ea","system_id":"levelo_inurba_marseille","lat":43.323642,"lon":5.388845,"is_reserved":false,"is_disabled":false,"rental_uris":{"android":"levelo://app?vid=e344bdce-8506-471e-a13c-02d5007bb0ea","ios":"levelo://app?vid=e344bdce-8506-471e-a13c-02d5007bb0ea"},"vehicle_type_id":"4","last_reported":1705019777,"current_range_meters":7600,"station_id":"ce4bhqp2rcd13ifvqhog","pricing_plan_id":"free"},{"bike_id":"996217db-45d2-477c-a516-bb51ac187ebf","system_id":"levelo_inurba_marseille","lat":43.32367,"lon":5.388836,"is_reserved":false,"is_disabled":false,"rental_uris":{"android":"levelo://app?vid=996217db-45d2-477c-a516-bb51ac187ebf","ios":"levelo://app?vid=996217db-45d2-477c-a516-bb51ac187ebf"},"vehicle_type_id":"4","last_reported":1705019777,"current_range_meters":14400,"station_id":"ce4bhqp2rcd13ifvqhog","pricing_plan_id":"free"},{"bike_id":"b9f3042b-33f8-4e67-a419-fcf7e0a521ff","system_id":"levelo_inurba_marseille","lat":43.32368,"lon":5.38883,"is_reserved":false,"is_disabled":false,"rental_uris":{"android":"levelo://app?vid=b9f3042b-33f8-4e67-a419-fcf7e0a521ff","ios":"levelo://app?vid=b9f3042b-33f8-4e67-a419-fcf7e0a521ff"},"vehicle_type_id":"4","last_reported":1705019777,"current_range_meters":7600,"station_id":"ce4bhqp2rcd13ifvqhog","pricing_plan_id":"free"},{"bike_id":"8d6c877c-96c1-4aa1-8dd8-4bb1f501f83a","system_id":"levelo_inurba_marseille","lat":43.32367,"lon":5.388836,"is_reserved":false,"is_disabled":false,"rental_uris":{"android":"levelo://app?vid=8d6c877c-96c1-4aa1-8dd8-4bb1f501f83a","ios":"levelo://app?vid=8d6c877c-96c1-4aa1-8dd8-4bb1f501f83a"},"vehicle_type_id":"4","last_reported":1705019777,"current_range_meters":27200,"station_id":"ce4bhqp2rcd13ifvqhog","pricing_plan_id":"free"},{"bike_id":"d8439fa1-841d-4c5d-9b7d-9a3d25dbbbc9","system_id":"levelo_inurba_marseille","lat":43.32367,"lon":5.388836,"is_reserved":false,"is_disabled":false,"rental_uris":{"android":"levelo://app?vid=d8439fa1-841d-4c5d-9b7d-9a3d25dbbbc9","ios":"levelo://app?vid=d8439fa1-841d-4c5d-9b7d-9a3d25dbbbc9"},"vehicle_type_id":"4","last_reported":1705019777,"current_range_meters":12400,"station_id":"ce4bhqp2rcd13ifvqhog","pricing_plan_id":"free"},{"bike_id":"603fb2b7-ef21-46cc-aa9b-386745ad8041","system_id":"levelo_inurba_marseille","lat":43.29601,"lon":5.38088,"is_reserved":false,"is_disabled":false,"rental_uris":{"android":"levelo://app?vid=603fb2b7-ef21-46cc-aa9b-386745ad8041","ios":"levelo://app?vid=603fb2b7-ef21-46cc-aa9b-386745ad8041"},"vehicle_type_id":"4","last_reported":1705019777,"current_range_meters":5600,"station_id":"ce4bgl12rcd13ifvqbo0","pricing_plan_id":"free"},{"bike_id":"d02f5221-a665-4a7d-a56b-79552041d4de","system_id":"levelo_inurba_marseille","lat":43.29601,"lon":5.381084,"is_reserved":false,"is_disabled":false,"rental_uris":{"android":"levelo://app?vid=d02f5221-a665-4a7d-a56b-79552041d4de","ios":"levelo://app?vid=d02f5221-a665-4a7d-a56b-79552041d4de"},"vehicle_type_id":"4","last_reported":1705019777,"current_range_meters":28800,"station_id":"ce4bgl12rcd13ifvqbo0","pricing_plan_id":"free"},{"bike_id":"42a99375-866e-4633-8bd0-21f8e3196f8d","system_id":"levelo_inurba_marseille","lat":43.292749,"lon":5.368402,"is_reserved":false,"is_disabled":false,"rental_uris":{"android":"levelo://app?vid=42a99375-866e-4633-8bd0-21f8e3196f8d","ios":"levelo://app?vid=42a99375-866e-4633-8bd0-21f8e3196f8d"},"vehicle_type_id":"4","last_reported":1705019777,"current_range_meters":26800,"station_id":"ce4bhbp2rcd13ifvqesg","pricing_plan_id":"free"},{"bike_id":"cd7dcd01-8045-4e3c-98e9-6840971e45c5","system_id":"levelo_inurba_marseille","lat":43.305994,"lon":5.393687,"is_reserved":false,"is_disabled":false,"rental_uris":{"android":"levelo://app?vid=cd7dcd01-8045-4e3c-98e9-6840971e45c5","ios":"levelo://app?vid=cd7dcd01-8045-4e3c-98e9-6840971e45c5"},"vehicle_type_id":"4","last_reported":1705019777,"current_range_meters":15600,"station_id":"ce4bh0p2rcd13ifvqd80","pricing_plan_id":"free"},{"bike_id":"272375fa-533b-4e0e-99e3-0242a6393799","system_id":"levelo_inurba_marseille","lat":43.303002,"lon":5.392142,"is_reserved":false,"is_disabled":false,"rental_uris":{"android":"levelo://app?vid=272375fa-533b-4e0e-99e3-0242a6393799","ios":"levelo://app?vid=272375fa-533b-4e0e-99e3-0242a6393799"},"vehicle_type_id":"4","last_reported":1705019777,"current_range_meters":25600,"station_id":"ce4bgkh2rcd13ifvqbk0","pricing_plan_id":"free"},{"bike_id":"5aae9952-9794-44fe-9156-0e936b5d7cf9","system_id":"levelo_inurba_marseille","lat":43.29867,"lon":5.38904,"is_reserved":false,"is_disabled":false,"rental_uris":{"android":"levelo://app?vid=5aae9952-9794-44fe-9156-0e936b5d7cf9","ios":"levelo://app?vid=5aae9952-9794-44fe-9156-0e936b5d7cf9"},"vehicle_type_id":"4","last_reported":1705019777,"current_range_meters":20800,"station_id":"","pricing_plan_id":"free"},{"bike_id":"5951bff3-bdf4-4676-a2f4-cd3c2719e264","system_id":"levelo_inurba_marseille","lat":43.29867,"lon":5.38905,"is_reserved":false,"is_disabled":false,"rental_uris":{"android":"levelo://app?vid=5951bff3-bdf4-4676-a2f4-cd3c2719e264","ios":"levelo://app?vid=5951bff3-bdf4-4676-a2f4-cd3c2719e264"},"vehicle_type_id":"4","last_reported":1705019777,"current_range_meters":3600,"station_id":"","pricing_plan_id":"free"},{"bike_id":"3dfa45e5-a9bd-448e-b6e7-13b0bdd2a4b2","system_id":"levelo_inurba_marseille","lat":43.29869,"lon":5.38908,"is_reserved":false,"is_disabled":false,"rental_uris":{"android":"levelo://app?vid=3dfa45e5-a9bd-448e-b6e7-13b0bdd2a4b2","ios":"levelo://app?vid=3dfa45e5-a9bd-448e-b6e7-13b0bdd2a4b2"},"vehicle_type_id":"4","last_reported":1705019777,"current_range_meters":17600,"station_id":"","pricing_plan_id":"free"},{"bike_id":"bdfd3c0d-1f02-43ff-81e9-0d6d73ebbaeb","system_id":"levelo_inurba_marseille","lat":43.29863,"lon":5.38901,"is_reserved":false,"is_disabled":false,"rental_uris":{"android":"levelo://app?vid=bdfd3c0d-1f02-43ff-81e9-0d6d73ebbaeb","ios":"levelo://app?vid=bdfd3c0d-1f02-43ff-81e9-0d6d73ebbaeb"},"vehicle_type_id":"4","last_reported":1705019777,"current_range_meters":4000,"station_id":"","pricing_plan_id":"free"},{"bike_id":"314f0b70-ebaa-4aef-bcdf-862e95ecc15f","system_id":"levelo_inurba_marseille","lat":43.298727,"lon":5.389151,"is_reserved":false,"is_disabled":false,"rental_uris":{"android":"levelo://app?vid=314f0b70-ebaa-4aef-bcdf-862e95ecc15f","ios":"levelo://app?vid=314f0b70-ebaa-4aef-bcdf-862e95ecc15f"},"vehicle_type_id":"4","last_reported":1705019777,"current_range_meters":25600,"station_id":"","pricing_plan_id":"free"},{"bike_id":"338b651a-04c8-463c-b0ce-bc86d4b8ff5e","system_id":"levelo_inurba_marseille","lat":43.309038,"lon":5.396546,"is_reserved":false,"is_disabled":false,"rental_uris":{"android":"levelo://app?vid=338b651a-04c8-463c-b0ce-bc86d4b8ff5e","ios":"levelo://app?vid=338b651a-04c8-463c-b0ce-bc86d4b8ff5e"},"vehicle_type_id":"4","last_reported":1705019777,"current_range_meters":28400,"station_id":"ce4bh012rcd13ifvqcv0","pricing_plan_id":"free"},{"bike_id":"2f166351-0922-478b-b429-b6a6c0d411ab","system_id":"levelo_inurba_marseille","lat":43.309047,"lon":5.396551,"is_reserved":false,"is_disabled":false,"rental_uris":{"android":"levelo://app?vid=2f166351-0922-478b-b429-b6a6c0d411ab","ios":"levelo://app?vid=2f166351-0922-478b-b429-b6a6c0d411ab"},"vehicle_type_id":"4","last_reported":1705019777,"current_range_meters":14400,"station_id":"ce4bh012rcd13ifvqcv0","pricing_plan_id":"free"},{"bike_id":"71b742f5-738d-45b3-b847-d0a5778cec21","system_id":"levelo_inurba_marseille","lat":43.309038,"lon":5.396546,"is_reserved":false,"is_disabled":false,"rental_uris":{"android":"levelo://app?vid=71b742f5-738d-45b3-b847-d0a5778cec21","ios":"levelo://app?vid=71b742f5-738d-45b3-b847-d0a5778cec21"},"vehicle_type_id":"4","last_reported":1705019777,"current_range_meters":21600,"station_id":"ce4bh012rcd13ifvqcv0","pricing_plan_id":"free"},{"bike_id":"ece2244c-771e-432d-aeda-d46ad4479929","system_id":"levelo_inurba_marseille","lat":43.309047,"lon":5.396551,"is_reserved":false,"is_disabled":false,"rental_uris":{"android":"levelo://app?vid=ece2244c-771e-432d-aeda-d46ad4479929","ios":"levelo://app?vid=ece2244c-771e-432d-aeda-d46ad4479929"},"vehicle_type_id":"4","last_reported":1705019777,"current_range_meters":24000,"station_id":"ce4bh012rcd13ifvqcv0","pricing_plan_id":"free"},{"bike_id":"3a5f0e77-3126-4a39-b490-8ca1e757cbb1","system_id":"levelo_inurba_marseille","lat":43.309038,"lon":5.396546,"is_reserved":false,"is_disabled":false,"rental_uris":{"android":"levelo://app?vid=3a5f0e77-3126-4a39-b490-8ca1e757cbb1","ios":"levelo://app?vid=3a5f0e77-3126-4a39-b490-8ca1e757cbb1"},"vehicle_type_id":"4","last_reported":1705019777,"current_range_meters":20800,"station_id":"ce4bh012rcd13ifvqcv0","pricing_plan_id":"free"},{"bike_id":"474b8a38-9ea5-4070-ad6d-e03da1974729","system_id":"levelo_inurba_marseille","lat":43.309038,"lon":5.396546,"is_reserved":false,"is_disabled":false,"rental_uris":{"android":"levelo://app?vid=474b8a38-9ea5-4070-ad6d-e03da1974729","ios":"levelo://app?vid=474b8a38-9ea5-4070-ad6d-e03da1974729"},"vehicle_type_id":"4","last_reported":1705019777,"current_range_meters":31200,"station_id":"ce4bh012rcd13ifvqcv0","pricing_plan_id":"free"},{"bike_id":"f82a2e01-9030-401a-8ef7-52fbde0e6c4d","system_id":"levelo_inurba_marseille","lat":43.309038,"lon":5.396546,"is_reserved":false,"is_disabled":false,"rental_uris":{"android":"levelo://app?vid=f82a2e01-9030-401a-8ef7-52fbde0e6c4d","ios":"levelo://app?vid=f82a2e01-9030-401a-8ef7-52fbde0e6c4d"},"vehicle_type_id":"4","last_reported":1705019777,"current_range_meters":28000,"station_id":"ce4bh012rcd13ifvqcv0","pricing_plan_id":"free"},{"bike_id":"4427112e-c786-4c19-aca5-dd01173f3fb1","system_id":"levelo_inurba_marseille","lat":43.313291,"lon":5.396838,"is_reserved":false,"is_disabled":false,"rental_uris":{"android":"levelo://app?vid=4427112e-c786-4c19-aca5-dd01173f3fb1","ios":"levelo://app?vid=4427112e-c786-4c19-aca5-dd01173f3fb1"},"vehicle_type_id":"4","last_reported":1705019777,"current_range_meters":20400,"station_id":"ce4bgvp2rcd13ifvqcu0","pricing_plan_id":"free"},{"bike_id":"8b2e270b-d408-4a85-bc9a-55c37914bf67","system_id":"levelo_inurba_marseille","lat":43.309038,"lon":5.396546,"is_reserved":false,"is_disabled":false,"rental_uris":{"android":"levelo://app?vid=8b2e270b-d408-4a85-bc9a-55c37914bf67","ios":"levelo://app?vid=8b2e270b-d408-4a85-bc9a-55c37914bf67"},"vehicle_type_id":"4","last_reported":1705019777,"current_range_meters":26800,"station_id":"ce4bh012rcd13ifvqcv0","pricing_plan_id":"free"},{"bike_id":"433381db-2e77-4a7e-b1d7-f037e8e8cf33","system_id":"levelo_inurba_marseille","lat":43.313291,"lon":5.396838,"is_reserved":false,"is_disabled":false,"rental_uris":{"android":"levelo://app?vid=433381db-2e77-4a7e-b1d7-f037e8e8cf33","ios":"levelo://app?vid=433381db-2e77-4a7e-b1d7-f037e8e8cf33"},"vehicle_type_id":"4","last_reported":1705019777,"current_range_meters":0,"station_id":"ce4bgvp2rcd13ifvqcu0","pricing_plan_id":"free"},{"bike_id":"ff878977-698d-451c-b56e-56fd52b92198","system_id":"levelo_inurba_marseille","lat":43.309047,"lon":5.396551,"is_reserved":false,"is_disabled":false,"rental_uris":{"android":"levelo://app?vid=ff878977-698d-451c-b56e-56fd52b92198","ios":"levelo://app?vid=ff878977-698d-451c-b56e-56fd52b92198"},"vehicle_type_id":"4","last_reported":1705019777,"current_range_meters":12400,"station_id":"ce4bh012rcd13ifvqcv0","pricing_plan_id":"free"},{"bike_id":"2bb0492f-11a6-4805-9b7a-a9932c47b030","system_id":"levelo_inurba_marseille","lat":43.309047,"lon":5.396551,"is_reserved":false,"is_disabled":false,"rental_uris":{"android":"levelo://app?vid=2bb0492f-11a6-4805-9b7a-a9932c47b030","ios":"levelo://app?vid=2bb0492f-11a6-4805-9b7a-a9932c47b030"},"vehicle_type_id":"4","last_reported":1705019777,"current_range_meters":30400,"station_id":"ce4bh012rcd13ifvqcv0","pricing_plan_id":"free"},{"bike_id":"1c5218e6-d1c5-4a85-a7b8-532db91244bb","system_id":"levelo_inurba_marseille","lat":43.313291,"lon":5.396838,"is_reserved":false,"is_disabled":false,"rental_uris":{"android":"levelo://app?vid=1c5218e6-d1c5-4a85-a7b8-532db91244bb","ios":"levelo://app?vid=1c5218e6-d1c5-4a85-a7b8-532db91244bb"},"vehicle_type_id":"4","last_reported":1705019777,"current_range_meters":31200,"station_id":"ce4bgvp2rcd13ifvqcu0","pricing_plan_id":"free"},{"bike_id":"b3469799-e71c-42c9-90bd-fb89fcab2f7f","system_id":"levelo_inurba_marseille","lat":43.309038,"lon":5.396546,"is_reserved":false,"is_disabled":false,"rental_uris":{"android":"levelo://app?vid=b3469799-e71c-42c9-90bd-fb89fcab2f7f","ios":"levelo://app?vid=b3469799-e71c-42c9-90bd-fb89fcab2f7f"},"vehicle_type_id":"4","last_reported":1705019777,"current_range_meters":31200,"station_id":"ce4bh012rcd13ifvqcv0","pricing_plan_id":"free"},{"bike_id":"44e9c845-6d42-4855-9060-8113d5f44487","system_id":"levelo_inurba_marseille","lat":43.313291,"lon":5.396838,"is_reserved":false,"is_disabled":false,"rental_uris":{"android":"levelo://app?vid=44e9c845-6d42-4855-9060-8113d5f44487","ios":"levelo://app?vid=44e9c845-6d42-4855-9060-8113d5f44487"},"vehicle_type_id":"4","last_reported":1705019777,"current_range_meters":17600,"station_id":"ce4bgvp2rcd13ifvqcu0","pricing_plan_id":"free"},{"bike_id":"a5c1ce9d-a3a4-47ec-8f9b-5a360fa27927","system_id":"levelo_inurba_marseille","lat":43.309038,"lon":5.396546,"is_reserved":false,"is_disabled":false,"rental_uris":{"android":"levelo://app?vid=a5c1ce9d-a3a4-47ec-8f9b-5a360fa27927","ios":"levelo://app?vid=a5c1ce9d-a3a4-47ec-8f9b-5a360fa27927"},"vehicle_type_id":"4","last_reported":1705019777,"current_range_meters":0,"station_id":"ce4bh012rcd13ifvqcv0","pricing_plan_id":"free"},{"bike_id":"4876b680-ac16-4504-a08e-a6aa49da1743","system_id":"levelo_inurba_marseille","lat":43.309038,"lon":5.396546,"is_reserved":false,"is_disabled":false,"rental_uris":{"android":"levelo://app?vid=4876b680-ac16-4504-a08e-a6aa49da1743","ios":"levelo://app?vid=4876b680-ac16-4504-a08e-a6aa49da1743"},"vehicle_type_id":"4","last_reported":1705019777,"current_range_meters":16400,"station_id":"ce4bh012rcd13ifvqcv0","pricing_plan_id":"free"},{"bike_id":"d79eff58-60f2-41cb-bac1-c10d160accd5","system_id":"levelo_inurba_marseille","lat":43.313291,"lon":5.396838,"is_reserved":false,"is_disabled":false,"rental_uris":{"android":"levelo://app?vid=d79eff58-60f2-41cb-bac1-c10d160accd5","ios":"levelo://app?vid=d79eff58-60f2-41cb-bac1-c10d160accd5"},"vehicle_type_id":"4","last_reported":1705019777,"current_range_meters":12400,"station_id":"ce4bgvp2rcd13ifvqcu0","pricing_plan_id":"free"},{"bike_id":"0e3e5f15-fa2c-4ca9-a2ad-6f710719d69c","system_id":"levelo_inurba_marseille","lat":43.313291,"lon":5.396838,"is_reserved":false,"is_disabled":false,"rental_uris":{"android":"levelo://app?vid=0e3e5f15-fa2c-4ca9-a2ad-6f710719d69c","ios":"levelo://app?vid=0e3e5f15-fa2c-4ca9-a2ad-6f710719d69c"},"vehicle_type_id":"4","last_reported":1705019777,"current_range_meters":10800,"station_id":"ce4bgvp2rcd13ifvqcu0","pricing_plan_id":"free"},{"bike_id":"405ccce8-228d-4afd-98c4-5d8d415da1ee","system_id":"levelo_inurba_marseille","lat":43.313291,"lon":5.396838,"is_reserved":false,"is_disabled":false,"rental_uris":{"android":"levelo://app?vid=405ccce8-228d-4afd-98c4-5d8d415da1ee","ios":"levelo://app?vid=405ccce8-228d-4afd-98c4-5d8d415da1ee"},"vehicle_type_id":"4","last_reported":1705019777,"current_range_meters":24000,"station_id":"ce4bgvp2rcd13ifvqcu0","pricing_plan_id":"free"},{"bike_id":"2972d940-5a46-4a11-81da-a8c0f7cbe641","system_id":"levelo_inurba_marseille","lat":43.31328,"lon":5.39704,"is_reserved":false,"is_disabled":false,"rental_uris":{"android":"levelo://app?vid=2972d940-5a46-4a11-81da-a8c0f7cbe641","ios":"levelo://app?vid=2972d940-5a46-4a11-81da-a8c0f7cbe641"},"vehicle_type_id":"4","last_reported":1705019777,"current_range_meters":7200,"station_id":"ce4bgvp2rcd13ifvqcu0","pricing_plan_id":"free"},{"bike_id":"f6e270c7-6097-4828-a2dd-9d96d5530f56","system_id":"levelo_inurba_marseille","lat":43.29529,"lon":5.385581,"is_reserved":false,"is_disabled":false,"rental_uris":{"android":"levelo://app?vid=f6e270c7-6097-4828-a2dd-9d96d5530f56","ios":"levelo://app?vid=f6e270c7-6097-4828-a2dd-9d96d5530f56"},"vehicle_type_id":"4","last_reported":1705019777,"current_range_meters":23200,"station_id":"ce4bgih2rcd13ifvqba0","pricing_plan_id":"free"},{"bike_id":"2f06be7c-57be-426f-9ccc-67f8c2279359","system_id":"levelo_inurba_marseille","lat":43.290624,"lon":5.359245,"is_reserved":false,"is_disabled":false,"rental_uris":{"android":"levelo://app?vid=2f06be7c-57be-426f-9ccc-67f8c2279359","ios":"levelo://app?vid=2f06be7c-57be-426f-9ccc-67f8c2279359"},"vehicle_type_id":"4","last_reported":1705019777,"current_range_meters":24400,"station_id":"ce4bha92rcd13ifvqeg0","pricing_plan_id":"free"},{"bike_id":"211c846a-effd-422c-86c2-bd6d37678a8a","system_id":"levelo_inurba_marseille","lat":43.290631,"lon":5.359244,"is_reserved":false,"is_disabled":false,"rental_uris":{"android":"levelo://app?vid=211c846a-effd-422c-86c2-bd6d37678a8a","ios":"levelo://app?vid=211c846a-effd-422c-86c2-bd6d37678a8a"},"vehicle_type_id":"4","last_reported":1705019777,"current_range_meters":23600,"station_id":"ce4bha92rcd13ifvqeg0","pricing_plan_id":"free"},{"bike_id":"7c3e7c9e-ddea-401b-9b4f-14c589df7040","system_id":"levelo_inurba_marseille","lat":43.290624,"lon":5.359245,"is_reserved":false,"is_disabled":false,"rental_uris":{"android":"levelo://app?vid=7c3e7c9e-ddea-401b-9b4f-14c589df7040","ios":"levelo://app?vid=7c3e7c9e-ddea-401b-9b4f-14c589df7040"},"vehicle_type_id":"4","last_reported":1705019777,"current_range_meters":26400,"station_id":"ce4bha92rcd13ifvqeg0","pricing_plan_id":"free"},{"bike_id":"9e2b68f4-65e0-4135-b017-811c3d81323a","system_id":"levelo_inurba_marseille","lat":43.294153,"lon":5.386305,"is_reserved":false,"is_disabled":false,"rental_uris":{"android":"levelo://app?vid=9e2b68f4-65e0-4135-b017-811c3d81323a","ios":"levelo://app?vid=9e2b68f4-65e0-4135-b017-811c3d81323a"},"vehicle_type_id":"4","last_reported":1705019777,"current_range_meters":0,"station_id":"ce4bh2h2rcd13ifvqdh0","pricing_plan_id":"free"},{"bike_id":"78ce8d14-37c5-42a4-a342-92c9e3028b21","system_id":"levelo_inurba_marseille","lat":43.289184,"lon":5.366408,"is_reserved":false,"is_disabled":false,"rental_uris":{"android":"levelo://app?vid=78ce8d14-37c5-42a4-a342-92c9e3028b21","ios":"levelo://app?vid=78ce8d14-37c5-42a4-a342-92c9e3028b21"},"vehicle_type_id":"4","last_reported":1705019777,"current_range_meters":28000,"station_id":"ce4bhap2rcd13ifvqek0","pricing_plan_id":"free"},{"bike_id":"f6cf540f-3c9a-458b-8cbb-f57bfeb7219a","system_id":"levelo_inurba_marseille","lat":43.289184,"lon":5.366408,"is_reserved":false,"is_disabled":false,"rental_uris":{"android":"levelo://app?vid=f6cf540f-3c9a-458b-8cbb-f57bfeb7219a","ios":"levelo://app?vid=f6cf540f-3c9a-458b-8cbb-f57bfeb7219a"},"vehicle_type_id":"4","last_reported":1705019777,"current_range_meters":25200,"station_id":"ce4bhap2rcd13ifvqek0","pricing_plan_id":"free"},{"bike_id":"d23714fc-255e-4edb-a431-62a73eeeff71","system_id":"levelo_inurba_marseille","lat":43.289468,"lon":5.363719,"is_reserved":false,"is_disabled":false,"rental_uris":{"android":"levelo://app?vid=d23714fc-255e-4edb-a431-62a73eeeff71","ios":"levelo://app?vid=d23714fc-255e-4edb-a431-62a73eeeff71"},"vehicle_type_id":"4","last_reported":1705019777,"current_range_meters":30000,"station_id":"ce4bhc92rcd13ifvqetg","pricing_plan_id":"free"},{"bike_id":"cd2da1fa-8508-4e1c-9f65-eb5ec6232ffd","system_id":"levelo_inurba_marseille","lat":43.289468,"lon":5.363719,"is_reserved":false,"is_disabled":false,"rental_uris":{"android":"levelo://app?vid=cd2da1fa-8508-4e1c-9f65-eb5ec6232ffd","ios":"levelo://app?vid=cd2da1fa-8508-4e1c-9f65-eb5ec6232ffd"},"vehicle_type_id":"4","last_reported":1705019777,"current_range_meters":31200,"station_id":"ce4bhc92rcd13ifvqetg","pricing_plan_id":"free"},{"bike_id":"d5137e5c-f960-4915-a0a9-6a2fd017c3cd","system_id":"levelo_inurba_marseille","lat":43.289468,"lon":5.363719,"is_reserved":false,"is_disabled":false,"rental_uris":{"android":"levelo://app?vid=d5137e5c-f960-4915-a0a9-6a2fd017c3cd","ios":"levelo://app?vid=d5137e5c-f960-4915-a0a9-6a2fd017c3cd"},"vehicle_type_id":"4","last_reported":1705019777,"current_range_meters":14000,"station_id":"ce4bhc92rcd13ifvqetg","pricing_plan_id":"free"},{"bike_id":"0bac079a-0bff-46f4-968e-9e5341b798b6","system_id":"levelo_inurba_marseille","lat":43.304296,"lon":5.397513,"is_reserved":false,"is_disabled":false,"rental_uris":{"android":"levelo://app?vid=0bac079a-0bff-46f4-968e-9e5341b798b6","ios":"levelo://app?vid=0bac079a-0bff-46f4-968e-9e5341b798b6"},"vehicle_type_id":"4","last_reported":1705019777,"current_range_meters":15200,"station_id":"ce4bh092rcd13ifvqd20","pricing_plan_id":"free"},{"bike_id":"0c91e27a-42ad-46fe-a090-8c31431c575b","system_id":"levelo_inurba_marseille","lat":43.304274,"lon":5.397513,"is_reserved":false,"is_disabled":false,"rental_uris":{"android":"levelo://app?vid=0c91e27a-42ad-46fe-a090-8c31431c575b","ios":"levelo://app?vid=0c91e27a-42ad-46fe-a090-8c31431c575b"},"vehicle_type_id":"4","last_reported":1705019777,"current_range_meters":0,"station_id":"ce4bh092rcd13ifvqd20","pricing_plan_id":"free"},{"bike_id":"0e30a7b4-e8fb-4432-ae55-259dc86f2dc7","system_id":"levelo_inurba_marseille","lat":43.304274,"lon":5.397513,"is_reserved":false,"is_disabled":false,"rental_uris":{"android":"levelo://app?vid=0e30a7b4-e8fb-4432-ae55-259dc86f2dc7","ios":"levelo://app?vid=0e30a7b4-e8fb-4432-ae55-259dc86f2dc7"},"vehicle_type_id":"4","last_reported":1705019777,"current_range_meters":14000,"station_id":"ce4bh092rcd13ifvqd20","pricing_plan_id":"free"},{"bike_id":"951e0f77-b568-4a2b-b7c3-dd782687d956","system_id":"levelo_inurba_marseille","lat":43.290103,"lon":5.356114,"is_reserved":false,"is_disabled":false,"rental_uris":{"android":"levelo://app?vid=951e0f77-b568-4a2b-b7c3-dd782687d956","ios":"levelo://app?vid=951e0f77-b568-4a2b-b7c3-dd782687d956"},"vehicle_type_id":"4","last_reported":1705019777,"current_range_meters":31200,"station_id":"ce4bhb92rcd13ifvqen0","pricing_plan_id":"free"},{"bike_id":"f0281a60-4eba-4b65-802b-d95c641df8a0","system_id":"levelo_inurba_marseille","lat":43.29005,"lon":5.35604,"is_reserved":false,"is_disabled":false,"rental_uris":{"android":"levelo://app?vid=f0281a60-4eba-4b65-802b-d95c641df8a0","ios":"levelo://app?vid=f0281a60-4eba-4b65-802b-d95c641df8a0"},"vehicle_type_id":"4","last_reported":1705019777,"current_range_meters":17600,"station_id":"ce4bhb92rcd13ifvqen0","pricing_plan_id":"free"},{"bike_id":"563c616d-874a-465a-8443-693340943b7b","system_id":"levelo_inurba_marseille","lat":43.290024,"lon":5.356129,"is_reserved":false,"is_disabled":false,"rental_uris":{"android":"levelo://app?vid=563c616d-874a-465a-8443-693340943b7b","ios":"levelo://app?vid=563c616d-874a-465a-8443-693340943b7b"},"vehicle_type_id":"4","last_reported":1705019777,"current_range_meters":22000,"station_id":"","pricing_plan_id":"free"},{"bike_id":"89bc1e4f-9288-4c0e-bbed-fb00943df7fc","system_id":"levelo_inurba_marseille","lat":43.290103,"lon":5.356114,"is_reserved":false,"is_disabled":false,"rental_uris":{"android":"levelo://app?vid=89bc1e4f-9288-4c0e-bbed-fb00943df7fc","ios":"levelo://app?vid=89bc1e4f-9288-4c0e-bbed-fb00943df7fc"},"vehicle_type_id":"4","last_reported":1705019777,"current_range_meters":25200,"station_id":"ce4bhb92rcd13ifvqen0","pricing_plan_id":"free"},{"bike_id":"c3997cc9-8b7c-4525-a76d-706256ddd212","system_id":"levelo_inurba_marseille","lat":43.29267,"lon":5.38543,"is_reserved":false,"is_disabled":false,"rental_uris":{"android":"levelo://app?vid=c3997cc9-8b7c-4525-a76d-706256ddd212","ios":"levelo://app?vid=c3997cc9-8b7c-4525-a76d-706256ddd212"},"vehicle_type_id":"4","last_reported":1705019777,"current_range_meters":22000,"station_id":"","pricing_plan_id":"free"},{"bike_id":"91436e1c-a513-41ff-8d26-6e8434e88aa5","system_id":"levelo_inurba_marseille","lat":43.29787,"lon":5.39334,"is_reserved":false,"is_disabled":false,"rental_uris":{"android":"levelo://app?vid=91436e1c-a513-41ff-8d26-6e8434e88aa5","ios":"levelo://app?vid=91436e1c-a513-41ff-8d26-6e8434e88aa5"},"vehicle_type_id":"4","last_reported":1705019777,"current_range_meters":6000,"station_id":"chh1huq6cuj3fo74tm60","pricing_plan_id":"free"},{"bike_id":"5468f12b-1c96-4a76-9d49-6f47f35a243d","system_id":"levelo_inurba_marseille","lat":43.33014,"lon":5.3903,"is_reserved":false,"is_disabled":false,"rental_uris":{"android":"levelo://app?vid=5468f12b-1c96-4a76-9d49-6f47f35a243d","ios":"levelo://app?vid=5468f12b-1c96-4a76-9d49-6f47f35a243d"},"vehicle_type_id":"4","last_reported":1705019777,"current_range_meters":16400,"station_id":"","pricing_plan_id":"free"},{"bike_id":"f516f70e-ec86-47bc-839f-77db86b6fa24","system_id":"levelo_inurba_marseille","lat":43.29786,"lon":5.3934,"is_reserved":false,"is_disabled":false,"rental_uris":{"android":"levelo://app?vid=f516f70e-ec86-47bc-839f-77db86b6fa24","ios":"levelo://app?vid=f516f70e-ec86-47bc-839f-77db86b6fa24"},"vehicle_type_id":"4","last_reported":1705019777,"current_range_meters":27600,"station_id":"chh1huq6cuj3fo74tm60","pricing_plan_id":"free"},{"bike_id":"46515808-6844-41d0-ab5b-5e971c9dc2d9","system_id":"levelo_inurba_marseille","lat":43.29785,"lon":5.39344,"is_reserved":false,"is_disabled":false,"rental_uris":{"android":"levelo://app?vid=46515808-6844-41d0-ab5b-5e971c9dc2d9","ios":"levelo://app?vid=46515808-6844-41d0-ab5b-5e971c9dc2d9"},"vehicle_type_id":"4","last_reported":1705019777,"current_range_meters":26400,"station_id":"chh1huq6cuj3fo74tm60","pricing_plan_id":"free"},{"bike_id":"ceb52b2f-7142-40af-89d4-c72064d02ac6","system_id":"levelo_inurba_marseille","lat":43.3302,"lon":5.39035,"is_reserved":false,"is_disabled":false,"rental_uris":{"android":"levelo://app?vid=ceb52b2f-7142-40af-89d4-c72064d02ac6","ios":"levelo://app?vid=ceb52b2f-7142-40af-89d4-c72064d02ac6"},"vehicle_type_id":"4","last_reported":1705019777,"current_range_meters":10000,"station_id":"","pricing_plan_id":"free"},{"bike_id":"711575dc-1900-4755-897d-334094e46c4e","system_id":"levelo_inurba_marseille","lat":43.29783,"lon":5.39347,"is_reserved":false,"is_disabled":false,"rental_uris":{"android":"levelo://app?vid=711575dc-1900-4755-897d-334094e46c4e","ios":"levelo://app?vid=711575dc-1900-4755-897d-334094e46c4e"},"vehicle_type_id":"4","last_reported":1705019777,"current_range_meters":11600,"station_id":"chh1huq6cuj3fo74tm60","pricing_plan_id":"free"},{"bike_id":"3a0fd5e2-306e-4b50-bc9e-7353fd8b076e","system_id":"levelo_inurba_marseille","lat":43.297815,"lon":5.393548,"is_reserved":false,"is_disabled":false,"rental_uris":{"android":"levelo://app?vid=3a0fd5e2-306e-4b50-bc9e-7353fd8b076e","ios":"levelo://app?vid=3a0fd5e2-306e-4b50-bc9e-7353fd8b076e"},"vehicle_type_id":"4","last_reported":1705019777,"current_range_meters":26400,"station_id":"chh1huq6cuj3fo74tm60","pricing_plan_id":"free"},{"bike_id":"5e21ea74-79fb-445f-a1fd-0d2b8da69ae3","system_id":"levelo_inurba_marseille","lat":43.33024,"lon":5.39038,"is_reserved":false,"is_disabled":false,"rental_uris":{"android":"levelo://app?vid=5e21ea74-79fb-445f-a1fd-0d2b8da69ae3","ios":"levelo://app?vid=5e21ea74-79fb-445f-a1fd-0d2b8da69ae3"},"vehicle_type_id":"4","last_reported":1705019777,"current_range_meters":18800,"station_id":"","pricing_plan_id":"free"},{"bike_id":"fc3c3458-5026-4877-bb3e-ba695c28645b","system_id":"levelo_inurba_marseille","lat":43.295169,"lon":5.390426,"is_reserved":false,"is_disabled":false,"rental_uris":{"android":"levelo://app?vid=fc3c3458-5026-4877-bb3e-ba695c28645b","ios":"levelo://app?vid=fc3c3458-5026-4877-bb3e-ba695c28645b"},"vehicle_type_id":"4","last_reported":1705019777,"current_range_meters":20000,"station_id":"ce4bh3p2rcd13ifvqdp0","pricing_plan_id":"free"},{"bike_id":"ceb07978-2ebc-4a9a-a9aa-dbeeaa813a39","system_id":"levelo_inurba_marseille","lat":43.289743,"lon":5.378304,"is_reserved":false,"is_disabled":false,"rental_uris":{"android":"levelo://app?vid=ceb07978-2ebc-4a9a-a9aa-dbeeaa813a39","ios":"levelo://app?vid=ceb07978-2ebc-4a9a-a9aa-dbeeaa813a39"},"vehicle_type_id":"4","last_reported":1705019777,"current_range_meters":17600,"station_id":"ce4bh9p2rcd13ifvqed0","pricing_plan_id":"free"},{"bike_id":"0850ca90-a911-4d50-b9e1-331cd6fe5e44","system_id":"levelo_inurba_marseille","lat":43.33022,"lon":5.39048,"is_reserved":false,"is_disabled":false,"rental_uris":{"android":"levelo://app?vid=0850ca90-a911-4d50-b9e1-331cd6fe5e44","ios":"levelo://app?vid=0850ca90-a911-4d50-b9e1-331cd6fe5e44"},"vehicle_type_id":"4","last_reported":1705019777,"current_range_meters":30800,"station_id":"","pricing_plan_id":"free"},{"bike_id":"bd0c4673-646b-43a3-8af5-885c466fd2e5","system_id":"levelo_inurba_marseille","lat":43.33027,"lon":5.39044,"is_reserved":false,"is_disabled":false,"rental_uris":{"android":"levelo://app?vid=bd0c4673-646b-43a3-8af5-885c466fd2e5","ios":"levelo://app?vid=bd0c4673-646b-43a3-8af5-885c466fd2e5"},"vehicle_type_id":"4","last_reported":1705019777,"current_range_meters":17600,"station_id":"","pricing_plan_id":"free"},{"bike_id":"f7ff301f-4bfe-4aba-8d36-fa2819f428ac","system_id":"levelo_inurba_marseille","lat":43.33028,"lon":5.39043,"is_reserved":false,"is_disabled":false,"rental_uris":{"android":"levelo://app?vid=f7ff301f-4bfe-4aba-8d36-fa2819f428ac","ios":"levelo://app?vid=f7ff301f-4bfe-4aba-8d36-fa2819f428ac"},"vehicle_type_id":"4","last_reported":1705019777,"current_range_meters":16000,"station_id":"","pricing_plan_id":"free"},{"bike_id":"564dff99-80ca-443e-8f79-117df1630457","system_id":"levelo_inurba_marseille","lat":43.33026,"lon":5.390533,"is_reserved":false,"is_disabled":false,"rental_uris":{"android":"levelo://app?vid=564dff99-80ca-443e-8f79-117df1630457","ios":"levelo://app?vid=564dff99-80ca-443e-8f79-117df1630457"},"vehicle_type_id":"4","last_reported":1705019777,"current_range_meters":16800,"station_id":"","pricing_plan_id":"free"},{"bike_id":"f976471b-7021-4bc4-9b9a-a74e4ddcd96a","system_id":"levelo_inurba_marseille","lat":43.287154,"lon":5.399979,"is_reserved":false,"is_disabled":false,"rental_uris":{"android":"levelo://app?vid=f976471b-7021-4bc4-9b9a-a74e4ddcd96a","ios":"levelo://app?vid=f976471b-7021-4bc4-9b9a-a74e4ddcd96a"},"vehicle_type_id":"4","last_reported":1705019777,"current_range_meters":17200,"station_id":"ce4bho92rcd13ifvqh3g","pricing_plan_id":"free"},{"bike_id":"f550de95-d6a0-4c90-a635-969c07778a9d","system_id":"levelo_inurba_marseille","lat":43.2901,"lon":5.381269,"is_reserved":false,"is_disabled":false,"rental_uris":{"android":"levelo://app?vid=f550de95-d6a0-4c90-a635-969c07778a9d","ios":"levelo://app?vid=f550de95-d6a0-4c90-a635-969c07778a9d"},"vehicle_type_id":"4","last_reported":1705019777,"current_range_meters":25600,"station_id":"ce4bh4p2rcd13ifvqe1g","pricing_plan_id":"free"},{"bike_id":"255e10cb-9b22-4f8a-aa25-7c9c0334d801","system_id":"levelo_inurba_marseille","lat":43.28856,"lon":5.358371,"is_reserved":false,"is_disabled":false,"rental_uris":{"android":"levelo://app?vid=255e10cb-9b22-4f8a-aa25-7c9c0334d801","ios":"levelo://app?vid=255e10cb-9b22-4f8a-aa25-7c9c0334d801"},"vehicle_type_id":"4","last_reported":1705019777,"current_range_meters":18400,"station_id":"ce4bhb12rcd13ifvqem0","pricing_plan_id":"free"},{"bike_id":"03f534f8-bd5f-4e6a-946d-63f33afd66e6","system_id":"levelo_inurba_marseille","lat":43.28856,"lon":5.358371,"is_reserved":false,"is_disabled":false,"rental_uris":{"android":"levelo://app?vid=03f534f8-bd5f-4e6a-946d-63f33afd66e6","ios":"levelo://app?vid=03f534f8-bd5f-4e6a-946d-63f33afd66e6"},"vehicle_type_id":"4","last_reported":1705019777,"current_range_meters":28400,"station_id":"ce4bhb12rcd13ifvqem0","pricing_plan_id":"free"},{"bike_id":"dc36c318-9e2c-41a5-bcb4-dc9828d590e0","system_id":"levelo_inurba_marseille","lat":43.28856,"lon":5.358371,"is_reserved":false,"is_disabled":false,"rental_uris":{"android":"levelo://app?vid=dc36c318-9e2c-41a5-bcb4-dc9828d590e0","ios":"levelo://app?vid=dc36c318-9e2c-41a5-bcb4-dc9828d590e0"},"vehicle_type_id":"4","last_reported":1705019777,"current_range_meters":28000,"station_id":"ce4bhb12rcd13ifvqem0","pricing_plan_id":"free"},{"bike_id":"3387cb33-1ec8-4cb8-89f4-ab921680af49","system_id":"levelo_inurba_marseille","lat":43.28839,"lon":5.35823,"is_reserved":false,"is_disabled":false,"rental_uris":{"android":"levelo://app?vid=3387cb33-1ec8-4cb8-89f4-ab921680af49","ios":"levelo://app?vid=3387cb33-1ec8-4cb8-89f4-ab921680af49"},"vehicle_type_id":"4","last_reported":1705019777,"current_range_meters":30000,"station_id":"ce4bhb12rcd13ifvqem0","pricing_plan_id":"free"},{"bike_id":"0bca97ab-5a53-438d-a7c2-03a32d0644ac","system_id":"levelo_inurba_marseille","lat":43.3374,"lon":5.37448,"is_reserved":false,"is_disabled":false,"rental_uris":{"android":"levelo://app?vid=0bca97ab-5a53-438d-a7c2-03a32d0644ac","ios":"levelo://app?vid=0bca97ab-5a53-438d-a7c2-03a32d0644ac"},"vehicle_type_id":"4","last_reported":1705019777,"current_range_meters":21600,"station_id":"","pricing_plan_id":"free"},{"bike_id":"ab83cf0e-e819-47bc-8d5c-88a53010f74b","system_id":"levelo_inurba_marseille","lat":43.309371,"lon":5.401449,"is_reserved":false,"is_disabled":false,"rental_uris":{"android":"levelo://app?vid=ab83cf0e-e819-47bc-8d5c-88a53010f74b","ios":"levelo://app?vid=ab83cf0e-e819-47bc-8d5c-88a53010f74b"},"vehicle_type_id":"4","last_reported":1705019777,"current_range_meters":23200,"station_id":"ce4bgvp2rcd13ifvqct0","pricing_plan_id":"free"},{"bike_id":"2183208a-7ff0-47af-afad-4e16b534ae80","system_id":"levelo_inurba_marseille","lat":43.309371,"lon":5.401449,"is_reserved":false,"is_disabled":false,"rental_uris":{"android":"levelo://app?vid=2183208a-7ff0-47af-afad-4e16b534ae80","ios":"levelo://app?vid=2183208a-7ff0-47af-afad-4e16b534ae80"},"vehicle_type_id":"4","last_reported":1705019777,"current_range_meters":2000,"station_id":"ce4bgvp2rcd13ifvqct0","pricing_plan_id":"free"},{"bike_id":"72f2ef17-e8f8-402a-849f-95409ed144d8","system_id":"levelo_inurba_marseille","lat":43.309371,"lon":5.401449,"is_reserved":false,"is_disabled":false,"rental_uris":{"android":"levelo://app?vid=72f2ef17-e8f8-402a-849f-95409ed144d8","ios":"levelo://app?vid=72f2ef17-e8f8-402a-849f-95409ed144d8"},"vehicle_type_id":"4","last_reported":1705019777,"current_range_meters":26000,"station_id":"ce4bgvp2rcd13ifvqct0","pricing_plan_id":"free"},{"bike_id":"2e235f44-f4c7-486e-a886-631eac75e88e","system_id":"levelo_inurba_marseille","lat":43.309371,"lon":5.401449,"is_reserved":false,"is_disabled":false,"rental_uris":{"android":"levelo://app?vid=2e235f44-f4c7-486e-a886-631eac75e88e","ios":"levelo://app?vid=2e235f44-f4c7-486e-a886-631eac75e88e"},"vehicle_type_id":"4","last_reported":1705019777,"current_range_meters":25600,"station_id":"ce4bgvp2rcd13ifvqct0","pricing_plan_id":"free"},{"bike_id":"ce51c639-6ceb-4d4d-b0a9-693a1947c625","system_id":"levelo_inurba_marseille","lat":43.309371,"lon":5.401449,"is_reserved":false,"is_disabled":false,"rental_uris":{"android":"levelo://app?vid=ce51c639-6ceb-4d4d-b0a9-693a1947c625","ios":"levelo://app?vid=ce51c639-6ceb-4d4d-b0a9-693a1947c625"},"vehicle_type_id":"4","last_reported":1705019777,"current_range_meters":20400,"station_id":"ce4bgvp2rcd13ifvqct0","pricing_plan_id":"free"},{"bike_id":"385a5bb0-d895-4676-8e37-34689ea6119d","system_id":"levelo_inurba_marseille","lat":43.309371,"lon":5.401449,"is_reserved":false,"is_disabled":false,"rental_uris":{"android":"levelo://app?vid=385a5bb0-d895-4676-8e37-34689ea6119d","ios":"levelo://app?vid=385a5bb0-d895-4676-8e37-34689ea6119d"},"vehicle_type_id":"4","last_reported":1705019777,"current_range_meters":7600,"station_id":"ce4bgvp2rcd13ifvqct0","pricing_plan_id":"free"},{"bike_id":"c346c119-ea8c-4f69-9456-98aad64377f9","system_id":"levelo_inurba_marseille","lat":43.309371,"lon":5.401449,"is_reserved":false,"is_disabled":false,"rental_uris":{"android":"levelo://app?vid=c346c119-ea8c-4f69-9456-98aad64377f9","ios":"levelo://app?vid=c346c119-ea8c-4f69-9456-98aad64377f9"},"vehicle_type_id":"4","last_reported":1705019777,"current_range_meters":22400,"station_id":"ce4bgvp2rcd13ifvqct0","pricing_plan_id":"free"},{"bike_id":"bce4ce2a-2380-444e-8e90-0a9fffc35a31","system_id":"levelo_inurba_marseille","lat":43.31264,"lon":5.40174,"is_reserved":false,"is_disabled":false,"rental_uris":{"android":"levelo://app?vid=bce4ce2a-2380-444e-8e90-0a9fffc35a31","ios":"levelo://app?vid=bce4ce2a-2380-444e-8e90-0a9fffc35a31"},"vehicle_type_id":"4","last_reported":1705019777,"current_range_meters":12400,"station_id":"ce4bh092rcd13ifvqd30","pricing_plan_id":"free"},{"bike_id":"138b3915-50e3-400a-983d-39c858a09065","system_id":"levelo_inurba_marseille","lat":43.312609,"lon":5.401662,"is_reserved":false,"is_disabled":false,"rental_uris":{"android":"levelo://app?vid=138b3915-50e3-400a-983d-39c858a09065","ios":"levelo://app?vid=138b3915-50e3-400a-983d-39c858a09065"},"vehicle_type_id":"4","last_reported":1705019777,"current_range_meters":0,"station_id":"ce4bh092rcd13ifvqd30","pricing_plan_id":"free"},{"bike_id":"eba30531-c989-480f-816b-9547bf960a6e","system_id":"levelo_inurba_marseille","lat":43.30931,"lon":5.40143,"is_reserved":false,"is_disabled":false,"rental_uris":{"android":"levelo://app?vid=eba30531-c989-480f-816b-9547bf960a6e","ios":"levelo://app?vid=eba30531-c989-480f-816b-9547bf960a6e"},"vehicle_type_id":"4","last_reported":1705019777,"current_range_meters":24800,"station_id":"ce4bgvp2rcd13ifvqct0","pricing_plan_id":"free"},{"bike_id":"ad10c759-b875-4764-98a8-e4220d8c7038","system_id":"levelo_inurba_marseille","lat":43.309371,"lon":5.401449,"is_reserved":false,"is_disabled":false,"rental_uris":{"android":"levelo://app?vid=ad10c759-b875-4764-98a8-e4220d8c7038","ios":"levelo://app?vid=ad10c759-b875-4764-98a8-e4220d8c7038"},"vehicle_type_id":"4","last_reported":1705019777,"current_range_meters":19200,"station_id":"ce4bgvp2rcd13ifvqct0","pricing_plan_id":"free"},{"bike_id":"db8ac00d-070d-4522-89cf-8630f1a719d2","system_id":"levelo_inurba_marseille","lat":43.3127,"lon":5.40176,"is_reserved":false,"is_disabled":false,"rental_uris":{"android":"levelo://app?vid=db8ac00d-070d-4522-89cf-8630f1a719d2","ios":"levelo://app?vid=db8ac00d-070d-4522-89cf-8630f1a719d2"},"vehicle_type_id":"4","last_reported":1705019777,"current_range_meters":29200,"station_id":"ce4bh092rcd13ifvqd30","pricing_plan_id":"free"},{"bike_id":"885c4174-8b8b-4c0d-b0fe-f5a3babef55d","system_id":"levelo_inurba_marseille","lat":43.30932,"lon":5.40145,"is_reserved":false,"is_disabled":false,"rental_uris":{"android":"levelo://app?vid=885c4174-8b8b-4c0d-b0fe-f5a3babef55d","ios":"levelo://app?vid=885c4174-8b8b-4c0d-b0fe-f5a3babef55d"},"vehicle_type_id":"4","last_reported":1705019777,"current_range_meters":23600,"station_id":"ce4bgvp2rcd13ifvqct0","pricing_plan_id":"free"},{"bike_id":"b6c35b80-b44b-40cb-ba0f-e45e8b39334b","system_id":"levelo_inurba_marseille","lat":43.3065,"lon":5.4007,"is_reserved":false,"is_disabled":false,"rental_uris":{"android":"levelo://app?vid=b6c35b80-b44b-40cb-ba0f-e45e8b39334b","ios":"levelo://app?vid=b6c35b80-b44b-40cb-ba0f-e45e8b39334b"},"vehicle_type_id":"4","last_reported":1705019777,"current_range_meters":5200,"station_id":"ce4bh112rcd13ifvqda0","pricing_plan_id":"free"},{"bike_id":"0a7eefe3-4aa4-4000-9969-0ed3a1d67dfd","system_id":"levelo_inurba_marseille","lat":43.309371,"lon":5.401449,"is_reserved":false,"is_disabled":false,"rental_uris":{"android":"levelo://app?vid=0a7eefe3-4aa4-4000-9969-0ed3a1d67dfd","ios":"levelo://app?vid=0a7eefe3-4aa4-4000-9969-0ed3a1d67dfd"},"vehicle_type_id":"4","last_reported":1705019777,"current_range_meters":3600,"station_id":"ce4bgvp2rcd13ifvqct0","pricing_plan_id":"free"},{"bike_id":"e1f02aaf-d143-4f70-b98f-66bb5824068d","system_id":"levelo_inurba_marseille","lat":43.309371,"lon":5.401449,"is_reserved":false,"is_disabled":false,"rental_uris":{"android":"levelo://app?vid=e1f02aaf-d143-4f70-b98f-66bb5824068d","ios":"levelo://app?vid=e1f02aaf-d143-4f70-b98f-66bb5824068d"},"vehicle_type_id":"4","last_reported":1705019777,"current_range_meters":10800,"station_id":"ce4bgvp2rcd13ifvqct0","pricing_plan_id":"free"},{"bike_id":"08571079-55fe-4d78-8864-a66a607fe25e","system_id":"levelo_inurba_marseille","lat":43.312609,"lon":5.401662,"is_reserved":false,"is_disabled":false,"rental_uris":{"android":"levelo://app?vid=08571079-55fe-4d78-8864-a66a607fe25e","ios":"levelo://app?vid=08571079-55fe-4d78-8864-a66a607fe25e"},"vehicle_type_id":"4","last_reported":1705019777,"current_range_meters":0,"station_id":"ce4bh092rcd13ifvqd30","pricing_plan_id":"free"},{"bike_id":"8fcc1528-79ba-482a-8401-1175cf99bf7b","system_id":"levelo_inurba_marseille","lat":43.312609,"lon":5.401662,"is_reserved":false,"is_disabled":false,"rental_uris":{"android":"levelo://app?vid=8fcc1528-79ba-482a-8401-1175cf99bf7b","ios":"levelo://app?vid=8fcc1528-79ba-482a-8401-1175cf99bf7b"},"vehicle_type_id":"4","last_reported":1705019777,"current_range_meters":0,"station_id":"ce4bh092rcd13ifvqd30","pricing_plan_id":"free"},{"bike_id":"91b58007-bef7-4dd5-8420-dd8b2eabb439","system_id":"levelo_inurba_marseille","lat":43.306465,"lon":5.400733,"is_reserved":false,"is_disabled":false,"rental_uris":{"android":"levelo://app?vid=91b58007-bef7-4dd5-8420-dd8b2eabb439","ios":"levelo://app?vid=91b58007-bef7-4dd5-8420-dd8b2eabb439"},"vehicle_type_id":"4","last_reported":1705019777,"current_range_meters":800,"station_id":"ce4bh112rcd13ifvqda0","pricing_plan_id":"free"},{"bike_id":"f5d18b96-19a8-407b-b39c-288177f880c4","system_id":"levelo_inurba_marseille","lat":43.30932,"lon":5.4015,"is_reserved":false,"is_disabled":false,"rental_uris":{"android":"levelo://app?vid=f5d18b96-19a8-407b-b39c-288177f880c4","ios":"levelo://app?vid=f5d18b96-19a8-407b-b39c-288177f880c4"},"vehicle_type_id":"4","last_reported":1705019777,"current_range_meters":9200,"station_id":"ce4bgvp2rcd13ifvqct0","pricing_plan_id":"free"},{"bike_id":"0dab6596-39ac-47c2-a6eb-ab4cf7f2c995","system_id":"levelo_inurba_marseille","lat":43.30648,"lon":5.40074,"is_reserved":false,"is_disabled":false,"rental_uris":{"android":"levelo://app?vid=0dab6596-39ac-47c2-a6eb-ab4cf7f2c995","ios":"levelo://app?vid=0dab6596-39ac-47c2-a6eb-ab4cf7f2c995"},"vehicle_type_id":"4","last_reported":1705019777,"current_range_meters":5600,"station_id":"ce4bh112rcd13ifvqda0","pricing_plan_id":"free"},{"bike_id":"89591a86-de07-40bf-998b-0e6b1e1d5d3c","system_id":"levelo_inurba_marseille","lat":43.30644,"lon":5.40073,"is_reserved":false,"is_disabled":false,"rental_uris":{"android":"levelo://app?vid=89591a86-de07-40bf-998b-0e6b1e1d5d3c","ios":"levelo://app?vid=89591a86-de07-40bf-998b-0e6b1e1d5d3c"},"vehicle_type_id":"4","last_reported":1705019777,"current_range_meters":23600,"station_id":"ce4bh112rcd13ifvqda0","pricing_plan_id":"free"},{"bike_id":"21d43ead-476a-49b7-99b6-972f664def8a","system_id":"levelo_inurba_marseille","lat":43.30646,"lon":5.40074,"is_reserved":false,"is_disabled":false,"rental_uris":{"android":"levelo://app?vid=21d43ead-476a-49b7-99b6-972f664def8a","ios":"levelo://app?vid=21d43ead-476a-49b7-99b6-972f664def8a"},"vehicle_type_id":"4","last_reported":1705019777,"current_range_meters":9200,"station_id":"ce4bh112rcd13ifvqda0","pricing_plan_id":"free"},{"bike_id":"cf74ccd2-e2c9-4891-bb18-7b7e6d262101","system_id":"levelo_inurba_marseille","lat":43.33754,"lon":5.37448,"is_reserved":false,"is_disabled":false,"rental_uris":{"android":"levelo://app?vid=cf74ccd2-e2c9-4891-bb18-7b7e6d262101","ios":"levelo://app?vid=cf74ccd2-e2c9-4891-bb18-7b7e6d262101"},"vehicle_type_id":"4","last_reported":1705019777,"current_range_meters":28000,"station_id":"","pricing_plan_id":"free"},{"bike_id":"25623b9d-8da4-49ab-9ba5-bb765355a165","system_id":"levelo_inurba_marseille","lat":43.306412,"lon":5.401035,"is_reserved":false,"is_disabled":false,"rental_uris":{"android":"levelo://app?vid=25623b9d-8da4-49ab-9ba5-bb765355a165","ios":"levelo://app?vid=25623b9d-8da4-49ab-9ba5-bb765355a165"},"vehicle_type_id":"4","last_reported":1705019777,"current_range_meters":26400,"station_id":"ce4bh112rcd13ifvqda0","pricing_plan_id":"free"},{"bike_id":"0339d41e-e05e-4d7a-a338-57b870493558","system_id":"levelo_inurba_marseille","lat":43.30651,"lon":5.40078,"is_reserved":false,"is_disabled":false,"rental_uris":{"android":"levelo://app?vid=0339d41e-e05e-4d7a-a338-57b870493558","ios":"levelo://app?vid=0339d41e-e05e-4d7a-a338-57b870493558"},"vehicle_type_id":"4","last_reported":1705019777,"current_range_meters":14400,"station_id":"ce4bh112rcd13ifvqda0","pricing_plan_id":"free"},{"bike_id":"721a7947-2573-42f1-ba4e-7693523db0f1","system_id":"levelo_inurba_marseille","lat":43.30645,"lon":5.40076,"is_reserved":false,"is_disabled":false,"rental_uris":{"android":"levelo://app?vid=721a7947-2573-42f1-ba4e-7693523db0f1","ios":"levelo://app?vid=721a7947-2573-42f1-ba4e-7693523db0f1"},"vehicle_type_id":"4","last_reported":1705019777,"current_range_meters":22000,"station_id":"ce4bh112rcd13ifvqda0","pricing_plan_id":"free"},{"bike_id":"eabb42a1-37cc-403a-8bc9-7c8c2652eeff","system_id":"levelo_inurba_marseille","lat":43.30642,"lon":5.40075,"is_reserved":false,"is_disabled":false,"rental_uris":{"android":"levelo://app?vid=eabb42a1-37cc-403a-8bc9-7c8c2652eeff","ios":"levelo://app?vid=eabb42a1-37cc-403a-8bc9-7c8c2652eeff"},"vehicle_type_id":"4","last_reported":1705019777,"current_range_meters":16400,"station_id":"ce4bh112rcd13ifvqda0","pricing_plan_id":"free"},{"bike_id":"289b8b1d-2623-4f24-bf94-37b49e8be709","system_id":"levelo_inurba_marseille","lat":43.30653,"lon":5.40079,"is_reserved":false,"is_disabled":false,"rental_uris":{"android":"levelo://app?vid=289b8b1d-2623-4f24-bf94-37b49e8be709","ios":"levelo://app?vid=289b8b1d-2623-4f24-bf94-37b49e8be709"},"vehicle_type_id":"4","last_reported":1705019777,"current_range_meters":18400,"station_id":"ce4bh112rcd13ifvqda0","pricing_plan_id":"free"},{"bike_id":"3fd2af7a-c98c-4f10-85f1-4506fc8e3e87","system_id":"levelo_inurba_marseille","lat":43.30924,"lon":5.40152,"is_reserved":false,"is_disabled":false,"rental_uris":{"android":"levelo://app?vid=3fd2af7a-c98c-4f10-85f1-4506fc8e3e87","ios":"levelo://app?vid=3fd2af7a-c98c-4f10-85f1-4506fc8e3e87"},"vehicle_type_id":"4","last_reported":1705019777,"current_range_meters":9600,"station_id":"ce4bgvp2rcd13ifvqct0","pricing_plan_id":"free"},{"bike_id":"5571e58a-d723-4da4-93aa-012b6cae48bc","system_id":"levelo_inurba_marseille","lat":43.30925,"lon":5.40153,"is_reserved":false,"is_disabled":false,"rental_uris":{"android":"levelo://app?vid=5571e58a-d723-4da4-93aa-012b6cae48bc","ios":"levelo://app?vid=5571e58a-d723-4da4-93aa-012b6cae48bc"},"vehicle_type_id":"4","last_reported":1705019777,"current_range_meters":11200,"station_id":"ce4bgvp2rcd13ifvqct0","pricing_plan_id":"free"},{"bike_id":"23cd06d6-3b3d-4cfc-90f1-80d943c3bcf7","system_id":"levelo_inurba_marseille","lat":43.306412,"lon":5.401035,"is_reserved":false,"is_disabled":false,"rental_uris":{"android":"levelo://app?vid=23cd06d6-3b3d-4cfc-90f1-80d943c3bcf7","ios":"levelo://app?vid=23cd06d6-3b3d-4cfc-90f1-80d943c3bcf7"},"vehicle_type_id":"4","last_reported":1705019777,"current_range_meters":20000,"station_id":"ce4bh112rcd13ifvqda0","pricing_plan_id":"free"},{"bike_id":"ee3b6c47-480a-42d8-8641-9a3532e56cae","system_id":"levelo_inurba_marseille","lat":43.30927,"lon":5.40154,"is_reserved":false,"is_disabled":false,"rental_uris":{"android":"levelo://app?vid=ee3b6c47-480a-42d8-8641-9a3532e56cae","ios":"levelo://app?vid=ee3b6c47-480a-42d8-8641-9a3532e56cae"},"vehicle_type_id":"4","last_reported":1705019777,"current_range_meters":400,"station_id":"ce4bgvp2rcd13ifvqct0","pricing_plan_id":"free"},{"bike_id":"f09cd4d0-5d61-43b6-9387-d4b24d8c3f1a","system_id":"levelo_inurba_marseille","lat":43.30923,"lon":5.40156,"is_reserved":false,"is_disabled":false,"rental_uris":{"android":"levelo://app?vid=f09cd4d0-5d61-43b6-9387-d4b24d8c3f1a","ios":"levelo://app?vid=f09cd4d0-5d61-43b6-9387-d4b24d8c3f1a"},"vehicle_type_id":"4","last_reported":1705019777,"current_range_meters":15200,"station_id":"ce4bgvp2rcd13ifvqct0","pricing_plan_id":"free"},{"bike_id":"0d92432f-e852-44d6-82ff-b0818db47a86","system_id":"levelo_inurba_marseille","lat":43.30653,"lon":5.40086,"is_reserved":false,"is_disabled":false,"rental_uris":{"android":"levelo://app?vid=0d92432f-e852-44d6-82ff-b0818db47a86","ios":"levelo://app?vid=0d92432f-e852-44d6-82ff-b0818db47a86"},"vehicle_type_id":"4","last_reported":1705019777,"current_range_meters":4400,"station_id":"ce4bh112rcd13ifvqda0","pricing_plan_id":"free"},{"bike_id":"475f2fa7-8304-4ad6-a302-46ca79345277","system_id":"levelo_inurba_marseille","lat":43.306412,"lon":5.401035,"is_reserved":false,"is_disabled":false,"rental_uris":{"android":"levelo://app?vid=475f2fa7-8304-4ad6-a302-46ca79345277","ios":"levelo://app?vid=475f2fa7-8304-4ad6-a302-46ca79345277"},"vehicle_type_id":"4","last_reported":1705019777,"current_range_meters":12800,"station_id":"ce4bh112rcd13ifvqda0","pricing_plan_id":"free"},{"bike_id":"318e1aa1-e982-4a71-909e-d9caaa51e56a","system_id":"levelo_inurba_marseille","lat":43.309371,"lon":5.401449,"is_reserved":false,"is_disabled":false,"rental_uris":{"android":"levelo://app?vid=318e1aa1-e982-4a71-909e-d9caaa51e56a","ios":"levelo://app?vid=318e1aa1-e982-4a71-909e-d9caaa51e56a"},"vehicle_type_id":"4","last_reported":1705019777,"current_range_meters":23600,"station_id":"ce4bgvp2rcd13ifvqct0","pricing_plan_id":"free"},{"bike_id":"46f1b285-2963-4dc1-ac26-6d1b2f7cbadb","system_id":"levelo_inurba_marseille","lat":43.3064,"lon":5.4009,"is_reserved":false,"is_disabled":false,"rental_uris":{"android":"levelo://app?vid=46f1b285-2963-4dc1-ac26-6d1b2f7cbadb","ios":"levelo://app?vid=46f1b285-2963-4dc1-ac26-6d1b2f7cbadb"},"vehicle_type_id":"4","last_reported":1705019777,"current_range_meters":26400,"station_id":"ce4bh112rcd13ifvqda0","pricing_plan_id":"free"},{"bike_id":"79f0b945-b935-46b2-9986-bfdc226d5af1","system_id":"levelo_inurba_marseille","lat":43.30656,"lon":5.40099,"is_reserved":false,"is_disabled":false,"rental_uris":{"android":"levelo://app?vid=79f0b945-b935-46b2-9986-bfdc226d5af1","ios":"levelo://app?vid=79f0b945-b935-46b2-9986-bfdc226d5af1"},"vehicle_type_id":"4","last_reported":1705019777,"current_range_meters":24800,"station_id":"ce4bh112rcd13ifvqda0","pricing_plan_id":"free"},{"bike_id":"0f04f6cb-5302-4356-9d06-a09a91b93a14","system_id":"levelo_inurba_marseille","lat":43.301343,"lon":5.398577,"is_reserved":false,"is_disabled":false,"rental_uris":{"android":"levelo://app?vid=0f04f6cb-5302-4356-9d06-a09a91b93a14","ios":"levelo://app?vid=0f04f6cb-5302-4356-9d06-a09a91b93a14"},"vehicle_type_id":"4","last_reported":1705019777,"current_range_meters":12000,"station_id":"ce4bh0h2rcd13ifvqd40","pricing_plan_id":"free"},{"bike_id":"84cced97-8958-4d8b-9987-cb10a8a10aff","system_id":"levelo_inurba_marseille","lat":43.301117,"lon":5.398795,"is_reserved":false,"is_disabled":false,"rental_uris":{"android":"levelo://app?vid=84cced97-8958-4d8b-9987-cb10a8a10aff","ios":"levelo://app?vid=84cced97-8958-4d8b-9987-cb10a8a10aff"},"vehicle_type_id":"4","last_reported":1705019777,"current_range_meters":25600,"station_id":"ce4bh0h2rcd13ifvqd40","pricing_plan_id":"free"},{"bike_id":"d6211aac-7114-4f51-b065-dba574ad405c","system_id":"levelo_inurba_marseille","lat":43.28727,"lon":5.36078,"is_reserved":false,"is_disabled":false,"rental_uris":{"android":"levelo://app?vid=d6211aac-7114-4f51-b065-dba574ad405c","ios":"levelo://app?vid=d6211aac-7114-4f51-b065-dba574ad405c"},"vehicle_type_id":"4","last_reported":1705019777,"current_range_meters":17600,"station_id":"cki0cbj6b192h4jlfktg","pricing_plan_id":"free"},{"bike_id":"bccc59b3-2d3a-4ab7-b409-b7eb510eb591","system_id":"levelo_inurba_marseille","lat":43.2873,"lon":5.360855,"is_reserved":false,"is_disabled":false,"rental_uris":{"android":"levelo://app?vid=bccc59b3-2d3a-4ab7-b409-b7eb510eb591","ios":"levelo://app?vid=bccc59b3-2d3a-4ab7-b409-b7eb510eb591"},"vehicle_type_id":"4","last_reported":1705019777,"current_range_meters":13600,"station_id":"cki0cbj6b192h4jlfktg","pricing_plan_id":"free"},{"bike_id":"7b0774b6-64ed-49b2-99e5-b2bb22dff6fa","system_id":"levelo_inurba_marseille","lat":43.28727,"lon":5.36078,"is_reserved":false,"is_disabled":false,"rental_uris":{"android":"levelo://app?vid=7b0774b6-64ed-49b2-99e5-b2bb22dff6fa","ios":"levelo://app?vid=7b0774b6-64ed-49b2-99e5-b2bb22dff6fa"},"vehicle_type_id":"4","last_reported":1705019777,"current_range_meters":28400,"station_id":"cki0cbj6b192h4jlfktg","pricing_plan_id":"free"},