{"last_updated":1728655723,"ttl":60,"version":"2.2","data":{"bikes":[{"bike_id":"1ba88358-6533-42e4-825a-518ca43bb750","system_id":"levelo_inurba_marseille","lat":43.28273,"lon":5.35059,"is_reserved":false,"is_disabled":false,"rental_uris":{"android":"levelo://app?vid=1ba88358-6533-42e4-825a-518ca43bb750","ios":"levelo://app?vid=1ba88358-6533-42e4-825a-518ca43bb750"},"vehicle_type_id":"4","last_reported":1728655723,"current_range_meters":16400,"station_id":"ce4bhbp2rcd13ifvqerg","pricing_plan_id":"cebpf4jnsgd1na2vs0mg"},{"bike_id":"b0496e51-510e-4675-abf4-792414c751c4","system_id":"levelo_inurba_marseille","lat":43.31678,"lon":5.40465,"is_reserved":false,"is_disabled":false,"rental_uris":{"android":"levelo://app?vid=b0496e51-510e-4675-abf4-792414c751c4","ios":"levelo://app?vid=b0496e51-510e-4675-abf4-792414c751c4"},"vehicle_type_id":"4","last_reported":1728655723,"current_range_meters":34800,"station_id":"ce4bh012rcd13ifvqd00","pricing_plan_id":"cebpf4jnsgd1na2vs0mg"},{"bike_id":"51dd5005-a195-4642-bd5f-8cbea71cb3b3","system_id":"levelo_inurba_marseille","lat":43.2293,"lon":5.35372,"is_reserved":false,"is_disabled":false,"rental_uris":{"android":"levelo://app?vid=51dd5005-a195-4642-bd5f-8cbea71cb3b3","ios":"levelo://app?vid=51dd5005-a195-4642-bd5f-8cbea71cb3b3"},"vehicle_type_id":"4","last_reported":1728655723,"current_range_meters":5600,"station_id":"cpo3532slgdg3j2ikp40","pricing_plan_id":"cebpf4jnsgd1na2vs0mg"},{"bike_id":"3a3e1421-61ff-43bf-834e-25af7277a260","system_id":"levelo_inurba_marseille","lat":43.25857,"lon":5.39901,"is_reserved":false,"is_disabled":false,"rental_uris":{"android":"levelo://app?vid=3a3e1421-61ff-43bf-834e-25af7277a260","ios":"levelo://app?vid=3a3e1421-61ff-43bf-834e-25af7277a260"},"vehicle_type_id":"4","last_reported":1728655723,"current_range_meters":22400,"station_id":"ce4bhl92rcd13ifvqghg","pricing_plan_id":"cebpf4jnsgd1na2vs0mg"},{"bike_id":"450e5778-0485-4d26-a1ae-df8c0106d63c","system_id":"levelo_inurba_marseille","lat":43.29962,"lon":5.37173,"is_reserved":false,"is_disabled":false,"rental_uris":{"android":"levelo://app?vid=450e5778-0485-4d26-a1ae-df8c0106d63c","ios":"levelo://app?vid=450e5778-0485-4d26-a1ae-df8c0106d63c"},"vehicle_type_id":"4","last_reported":1728655723,"current_range_meters":14400,"station_id":"ce4bgr92rcd13ifvqc7g","pricing_plan_id":"cebpf4jnsgd1na2vs0mg"},{"bike_id":"acec5085-707f-4580-a16e-ac381f72189d","system_id":"levelo_inurba_marseille","lat":43.26939,"lon":5.40254,"is_reserved":false,"is_disabled":false,"rental_uris":{"android":"levelo://app?vid=acec5085-707f-4580-a16e-ac381f72189d","ios":"levelo://app?vid=acec5085-707f-4580-a16e-ac381f72189d"},"vehicle_type_id":"4","last_reported":1728655723,"current_range_meters":16400,"station_id":"cjm6bp8fraef2m0cb0m0","pricing_plan_id":"cebpf4jnsgd1na2vs0mg"},{"bike_id":"870f2101-c613-4073-b011-4658cc117fb7","system_id":"levelo_inurba_marseille","lat":43.30128,"lon":5.37425,"is_reserved":false,"is_disabled":false,"rental_uris":{"android":"levelo://app?vid=870f2101-c613-4073-b011-4658cc117fb7","ios":"levelo://app?vid=870f2101-c613-4073-b011-4658cc117fb7"},"vehicle_type_id":"4","last_reported":1728655723,"current_range_meters":8400,"station_id":"ce4bgs92rcd13ifvqcc0","pricing_plan_id":"cebpf4jnsgd1na2vs0mg"},{"bike_id":"a4be21e4-df3d-4095-8b89-1004031ed440","system_id":"levelo_inurba_marseille","lat":43.288666,"lon":5.360777,"is_reserved":false,"is_disabled":false,"rental_uris":{"android":"levelo://app?vid=a4be21e4-df3d-4095-8b89-1004031ed440","ios":"levelo://app?vid=a4be21e4-df3d-4095-8b89-1004031ed440"},"vehicle_type_id":"4","last_reported":1728655723,"current_range_meters":37600,"station_id":"ce4bgs92rcd13ifvqcc0","pricing_plan_id":"cebpf4jnsgd1na2vs0mg"},{"bike_id":"4f1ac9db-36fd-4126-b3cc-b859636a6a29","system_id":"levelo_inurba_marseille","lat":43.22928,"lon":5.35375,"is_reserved":false,"is_disabled":false,"rental_uris":{"android":"levelo://app?vid=4f1ac9db-36fd-4126-b3cc-b859636a6a29","ios":"levelo://app?vid=4f1ac9db-36fd-4126-b3cc-b859636a6a29"},"vehicle_type_id":"4","last_reported":1728655723,"current_range_meters":12000,"station_id":"cpo3532slgdg3j2ikp40","pricing_plan_id":"cebpf4jnsgd1na2vs0mg"},{"bike_id":"c31c8b2b-ffeb-47d5-880d-78adff565ff6","system_id":"levelo_inurba_marseille","lat":43.28077,"lon":5.39661,"is_reserved":false,"is_disabled":false,"rental_uris":{"android":"levelo://app?vid=c31c8b2b-ffeb-47d5-880d-78adff565ff6","ios":"levelo://app?vid=c31c8b2b-ffeb-47d5-880d-78adff565ff6"},"vehicle_type_id":"4","last_reported":1728655723,"current_range_meters":26800,"station_id":"ce4bho12rcd13ifvqh2g","pricing_plan_id":"cebpf4jnsgd1na2vs0mg"},{"bike_id":"c6bab4bd-c7fa-4db9-9f43-2fcef7430780","system_id":"levelo_inurba_marseille","lat":43.30541,"lon":5.36547,"is_reserved":false,"is_disabled":false,"rental_uris":{"android":"levelo://app?vid=c6bab4bd-c7fa-4db9-9f43-2fcef7430780","ios":"levelo://app?vid=c6bab4bd-c7fa-4db9-9f43-2fcef7430780"},"vehicle_type_id":"4","last_reported":1728655723,"current_range_meters":38800,"station_id":"ce4bgs12rcd13ifvqcag","pricing_plan_id":"cebpf4jnsgd1na2vs0mg"},{"bike_id":"fc1b1a2c-e09d-4f39-9142-3beb7c635595","system_id":"levelo_inurba_marseille","lat":43.2815,"lon":5.42645,"is_reserved":false,"is_disabled":false,"rental_uris":{"android":"levelo://app?vid=fc1b1a2c-e09d-4f39-9142-3beb7c635595","ios":"levelo://app?vid=fc1b1a2c-e09d-4f39-9142-3beb7c635595"},"vehicle_type_id":"4","last_reported":1728655723,"current_range_meters":24000,"station_id":"ce4bhnh2rcd13ifvqgug","pricing_plan_id":"cebpf4jnsgd1na2vs0mg"},{"bike_id":"0a2ff2d3-e81a-482d-834d-2c3dc6aa18e2","system_id":"levelo_inurba_marseille","lat":43.26941,"lon":5.40246,"is_reserved":false,"is_disabled":false,"rental_uris":{"android":"levelo://app?vid=0a2ff2d3-e81a-482d-834d-2c3dc6aa18e2","ios":"levelo://app?vid=0a2ff2d3-e81a-482d-834d-2c3dc6aa18e2"},"vehicle_type_id":"4","last_reported":1728655723,"current_range_meters":4800,"station_id":"cjm6bp8fraef2m0cb0m0","pricing_plan_id":"cebpf4jnsgd1na2vs0mg"},{"bike_id":"418bad21-cf7d-4a9e-9cb5-74767d38c59f","system_id":"levelo_inurba_marseille","lat":43.2718,"lon":5.40999,"is_reserved":false,"is_disabled":false,"rental_uris":{"android":"levelo://app?vid=418bad21-cf7d-4a9e-9cb5-74767d38c59f","ios":"levelo://app?vid=418bad21-cf7d-4a9e-9cb5-74767d38c59f"},"vehicle_type_id":"4","last_reported":1728655723,"current_range_meters":17200,"station_id":"ce4bhl12rcd13ifvqgf0","pricing_plan_id":"cebpf4jnsgd1na2vs0mg"},{"bike_id":"085a2b23-7916-47d1-bb33-251410175c39","system_id":"levelo_inurba_marseille","lat":43.23964,"lon":5.36632,"is_reserved":false,"is_disabled":false,"rental_uris":{"android":"levelo://app?vid=085a2b23-7916-47d1-bb33-251410175c39","ios":"levelo://app?vid=085a2b23-7916-47d1-bb33-251410175c39"},"vehicle_type_id":"4","last_reported":1728655723,"current_range_meters":20000,"station_id":"ce4bhi12rcd13ifvqfp0","pricing_plan_id":"cebpf4jnsgd1na2vs0mg"},{"bike_id":"5ce2a66a-b949-4239-ae17-6ee1644fc5f2","system_id":"levelo_inurba_marseille","lat":43.25487,"lon":5.37643,"is_reserved":false,"is_disabled":false,"rental_uris":{"android":"levelo://app?vid=5ce2a66a-b949-4239-ae17-6ee1644fc5f2","ios":"levelo://app?vid=5ce2a66a-b949-4239-ae17-6ee1644fc5f2"},"vehicle_type_id":"4","last_reported":1728655723,"current_range_meters":14000,"station_id":"ce4bhh12rcd13ifvqff0","pricing_plan_id":"cebpf4jnsgd1na2vs0mg"},{"bike_id":"6cb2fd54-0aca-4f7d-aadb-bc057dc4fb59","system_id":"levelo_inurba_marseille","lat":43.23067,"lon":5.35487,"is_reserved":false,"is_disabled":false,"rental_uris":{"android":"levelo://app?vid=6cb2fd54-0aca-4f7d-aadb-bc057dc4fb59","ios":"levelo://app?vid=6cb2fd54-0aca-4f7d-aadb-bc057dc4fb59"},"vehicle_type_id":"4","last_reported":1728655723,"current_range_meters":28000,"station_id":"cpo3342slgdg3j2ifvpg","pricing_plan_id":"cebpf4jnsgd1na2vs0mg"},{"bike_id":"e4893838-73e1-490d-bf4d-7b64c8e72cfb","system_id":"levelo_inurba_marseille","lat":43.3136,"lon":5.38482,"is_reserved":false,"is_disabled":false,"rental_uris":{"android":"levelo://app?vid=e4893838-73e1-490d-bf4d-7b64c8e72cfb","ios":"levelo://app?vid=e4893838-73e1-490d-bf4d-7b64c8e72cfb"},"vehicle_type_id":"4","last_reported":1728655723,"current_range_meters":9200,"station_id":"ce4bgt92rcd13ifvqcf0","pricing_plan_id":"cebpf4jnsgd1na2vs0mg"},{"bike_id":"4d066c51-dd8c-41d9-be6d-7e628a1a6d3b","system_id":"levelo_inurba_marseille","lat":43.23186,"lon":5.39985,"is_reserved":false,"is_disabled":false,"rental_uris":{"android":"levelo://app?vid=4d066c51-dd8c-41d9-be6d-7e628a1a6d3b","ios":"levelo://app?vid=4d066c51-dd8c-41d9-be6d-7e628a1a6d3b"},"vehicle_type_id":"4","last_reported":1728655723,"current_range_meters":3600,"station_id":"ce4bhn12rcd13ifvqgqg","pricing_plan_id":"cebpf4jnsgd1na2vs0mg"},{"bike_id":"1aeb4897-70a0-4551-a71d-42119fc01eed","system_id":"levelo_inurba_marseille","lat":43.2586,"lon":5.399,"is_reserved":false,"is_disabled":false,"rental_uris":{"android":"levelo://app?vid=1aeb4897-70a0-4551-a71d-42119fc01eed","ios":"levelo://app?vid=1aeb4897-70a0-4551-a71d-42119fc01eed"},"vehicle_type_id":"4","last_reported":1728655723,"current_range_meters":35200,"station_id":"ce4bhl92rcd13ifvqghg","pricing_plan_id":"cebpf4jnsgd1na2vs0mg"},{"bike_id":"631afeb3-ff24-4869-b570-0bf0c9ce47b0","system_id":"levelo_inurba_marseille","lat":43.32365,"lon":5.38931,"is_reserved":false,"is_disabled":false,"rental_uris":{"android":"levelo://app?vid=631afeb3-ff24-4869-b570-0bf0c9ce47b0","ios":"levelo://app?vid=631afeb3-ff24-4869-b570-0bf0c9ce47b0"},"vehicle_type_id":"4","last_reported":1728655723,"current_range_meters":20400,"station_id":"ce4bhqp2rcd13ifvqhog","pricing_plan_id":"cebpf4jnsgd1na2vs0mg"},{"bike_id":"15b5e1c5-8ecb-4ae3-bc65-7a90dc059bde","system_id":"levelo_inurba_marseille","lat":43.26205,"lon":5.37443,"is_reserved":false,"is_disabled":false,"rental_uris":{"android":"levelo://app?vid=15b5e1c5-8ecb-4ae3-bc65-7a90dc059bde","ios":"levelo://app?vid=15b5e1c5-8ecb-4ae3-bc65-7a90dc059bde"},"vehicle_type_id":"4","last_reported":1728655723,"current_range_meters":16400,"station_id":"ce4bhgp2rcd13ifvqfc0","pricing_plan_id":"cebpf4jnsgd1na2vs0mg"},{"bike_id":"f908e49c-409c-4d4a-b2c1-deee309d02a1","system_id":"levelo_inurba_marseille","lat":43.26926,"lon":5.38913,"is_reserved":false,"is_disabled":false,"rental_uris":{"android":"levelo://app?vid=f908e49c-409c-4d4a-b2c1-deee309d02a1","ios":"levelo://app?vid=f908e49c-409c-4d4a-b2c1-deee309d02a1"},"vehicle_type_id":"4","last_reported":1728655723,"current_range_meters":20400,"station_id":"ce4bhhh2rcd13ifvqfl0","pricing_plan_id":"cebpf4jnsgd1na2vs0mg"},{"bike_id":"ee90cb57-1fd0-432c-8109-440c7556341f","system_id":"levelo_inurba_marseille","lat":43.3018,"lon":5.36619,"is_reserved":false,"is_disabled":false,"rental_uris":{"android":"levelo://app?vid=ee90cb57-1fd0-432c-8109-440c7556341f","ios":"levelo://app?vid=ee90cb57-1fd0-432c-8109-440c7556341f"},"vehicle_type_id":"4","last_reported":1728655723,"current_range_meters":8000,"station_id":"ce4bgrh2rcd13ifvqc8g","pricing_plan_id":"cebpf4jnsgd1na2vs0mg"},{"bike_id":"9adaf201-d82c-4572-b283-f8690a9c9322","system_id":"levelo_inurba_marseille","lat":43.27905,"lon":5.38009,"is_reserved":false,"is_disabled":false,"rental_uris":{"android":"levelo://app?vid=9adaf201-d82c-4572-b283-f8690a9c9322","ios":"levelo://app?vid=9adaf201-d82c-4572-b283-f8690a9c9322"},"vehicle_type_id":"4","last_reported":1728655723,"current_range_meters":22800,"station_id":"ce4bhf92rcd13ifvqf50","pricing_plan_id":"cebpf4jnsgd1na2vs0mg"},{"bike_id":"e05e04f4-e651-424c-a6aa-8f864e46be12","system_id":"levelo_inurba_marseille","lat":43.28421,"lon":5.34983,"is_reserved":false,"is_disabled":false,"rental_uris":{"android":"levelo://app?vid=e05e04f4-e651-424c-a6aa-8f864e46be12","ios":"levelo://app?vid=e05e04f4-e651-424c-a6aa-8f864e46be12"},"vehicle_type_id":"4","last_reported":1728655723,"current_range_meters":38800,"station_id":"ce4bhbh2rcd13ifvqepg","pricing_plan_id":"cebpf4jnsgd1na2vs0mg"},{"bike_id":"98cb421e-2936-4980-b8ed-35b1a8674415","system_id":"levelo_inurba_marseille","lat":43.30888,"lon":5.37194,"is_reserved":false,"is_disabled":false,"rental_uris":{"android":"levelo://app?vid=98cb421e-2936-4980-b8ed-35b1a8674415","ios":"levelo://app?vid=98cb421e-2936-4980-b8ed-35b1a8674415"},"vehicle_type_id":"4","last_reported":1728655723,"current_range_meters":24000,"station_id":"ce4bguh2rcd13ifvqckg","pricing_plan_id":"cebpf4jnsgd1na2vs0mg"},{"bike_id":"40714fdc-70fc-409b-af34-619d2320ae75","system_id":"levelo_inurba_marseille","lat":43.247206,"lon":5.397706,"is_reserved":false,"is_disabled":false,"rental_uris":{"android":"levelo://app?vid=40714fdc-70fc-409b-af34-619d2320ae75","ios":"levelo://app?vid=40714fdc-70fc-409b-af34-619d2320ae75"},"vehicle_type_id":"4","last_reported":1728655723,"current_range_meters":26000,"station_id":"ce4bhi12rcd13ifvqfp0","pricing_plan_id":"cebpf4jnsgd1na2vs0mg"},{"bike_id":"6f86d6a8-6f45-4ccc-9bb6-cbba8eb20443","system_id":"levelo_inurba_marseille","lat":43.267792,"lon":5.394184,"is_reserved":false,"is_disabled":false,"rental_uris":{"android":"levelo://app?vid=6f86d6a8-6f45-4ccc-9bb6-cbba8eb20443","ios":"levelo://app?vid=6f86d6a8-6f45-4ccc-9bb6-cbba8eb20443"},"vehicle_type_id":"4","last_reported":1728655723,"current_range_meters":23200,"station_id":"ce4bhh12rcd13ifvqfg0","pricing_plan_id":"cebpf4jnsgd1na2vs0mg"},{"bike_id":"c10d4748-c422-435b-a4e3-e6f5bb7e2ab4","system_id":"levelo_inurba_marseille","lat":43.28067,"lon":5.39651,"is_reserved":false,"is_disabled":false,"rental_uris":{"android":"levelo://app?vid=c10d4748-c422-435b-a4e3-e6f5bb7e2ab4","ios":"levelo://app?vid=c10d4748-c422-435b-a4e3-e6f5bb7e2ab4"},"vehicle_type_id":"4","last_reported":1728655723,"current_range_meters":38000,"station_id":"ce4bho12rcd13ifvqh2g","pricing_plan_id":"cebpf4jnsgd1na2vs0mg"},{"bike_id":"c8de08e8-fdd4-4a0e-91a5-f5956cb05de1","system_id":"levelo_inurba_marseille","lat":43.337444,"lon":5.374475,"is_reserved":false,"is_disabled":false,"rental_uris":{"android":"levelo://app?vid=c8de08e8-fdd4-4a0e-91a5-f5956cb05de1","ios":"levelo://app?vid=c8de08e8-fdd4-4a0e-91a5-f5956cb05de1"},"vehicle_type_id":"4","last_reported":1728655723,"current_range_meters":33200,"station_id":"","pricing_plan_id":"cebpf4jnsgd1na2vs0mg"},{"bike_id":"1f414c8b-63c3-44b5-9ced-9e0bb0817876","system_id":"levelo_inurba_marseille","lat":43.23184,"lon":5.39984,"is_reserved":false,"is_disabled":false,"rental_uris":{"android":"levelo://app?vid=1f414c8b-63c3-44b5-9ced-9e0bb0817876","ios":"levelo://app?vid=1f414c8b-63c3-44b5-9ced-9e0bb0817876"},"vehicle_type_id":"4","last_reported":1728655723,"current_range_meters":8400,"station_id":"ce4bhn12rcd13ifvqgqg","pricing_plan_id":"cebpf4jnsgd1na2vs0mg"},{"bike_id":"e2c60fc1-1ef1-47a8-ba26-0ba6db861113","system_id":"levelo_inurba_marseille","lat":43.25102,"lon":5.39504,"is_reserved":false,"is_disabled":false,"rental_uris":{"android":"levelo://app?vid=e2c60fc1-1ef1-47a8-ba26-0ba6db861113","ios":"levelo://app?vid=e2c60fc1-1ef1-47a8-ba26-0ba6db861113"},"vehicle_type_id":"4","last_reported":1728655723,"current_range_meters":28400,"station_id":"ce4bhm12rcd13ifvqgkg","pricing_plan_id":"cebpf4jnsgd1na2vs0mg"},{"bike_id":"adc9a243-eb5e-4015-b0da-79fc7feb398f","system_id":"levelo_inurba_marseille","lat":43.28264,"lon":5.35067,"is_reserved":false,"is_disabled":false,"rental_uris":{"android":"levelo://app?vid=adc9a243-eb5e-4015-b0da-79fc7feb398f","ios":"levelo://app?vid=adc9a243-eb5e-4015-b0da-79fc7feb398f"},"vehicle_type_id":"4","last_reported":1728655723,"current_range_meters":10800,"station_id":"ce4bhbp2rcd13ifvqerg","pricing_plan_id":"cebpf4jnsgd1na2vs0mg"},{"bike_id":"b76ba748-e681-4b56-b64f-67d826e2e2a7","system_id":"levelo_inurba_marseille","lat":43.30144,"lon":5.37427,"is_reserved":false,"is_disabled":false,"rental_uris":{"android":"levelo://app?vid=b76ba748-e681-4b56-b64f-67d826e2e2a7","ios":"levelo://app?vid=b76ba748-e681-4b56-b64f-67d826e2e2a7"},"vehicle_type_id":"4","last_reported":1728655723,"current_range_meters":9600,"station_id":"ce4bgs92rcd13ifvqcc0","pricing_plan_id":"cebpf4jnsgd1na2vs0mg"},{"bike_id":"ef45b165-2c2b-4bf5-b417-cc338c1ff735","system_id":"levelo_inurba_marseille","lat":43.28423,"lon":5.34989,"is_reserved":false,"is_disabled":false,"rental_uris":{"android":"levelo://app?vid=ef45b165-2c2b-4bf5-b417-cc338c1ff735","ios":"levelo://app?vid=ef45b165-2c2b-4bf5-b417-cc338c1ff735"},"vehicle_type_id":"4","last_reported":1728655723,"current_range_meters":40000,"station_id":"ce4bhbh2rcd13ifvqepg","pricing_plan_id":"cebpf4jnsgd1na2vs0mg"},{"bike_id":"c2709d8c-182c-4c66-9678-32143d413767","system_id":"levelo_inurba_marseille","lat":43.2293,"lon":5.35377,"is_reserved":false,"is_disabled":false,"rental_uris":{"android":"levelo://app?vid=c2709d8c-182c-4c66-9678-32143d413767","ios":"levelo://app?vid=c2709d8c-182c-4c66-9678-32143d413767"},"vehicle_type_id":"4","last_reported":1728655723,"current_range_meters":30800,"station_id":"cpo3532slgdg3j2ikp40","pricing_plan_id":"cebpf4jnsgd1na2vs0mg"},{"bike_id":"8be180bb-2bf7-43c2-9f0d-77b74830f6e4","system_id":"levelo_inurba_marseille","lat":43.2982,"lon":5.3768,"is_reserved":false,"is_disabled":false,"rental_uris":{"android":"levelo://app?vid=8be180bb-2bf7-43c2-9f0d-77b74830f6e4","ios":"levelo://app?vid=8be180bb-2bf7-43c2-9f0d-77b74830f6e4"},"vehicle_type_id":"4","last_reported":1728655723,"current_range_meters":24000,"station_id":"","pricing_plan_id":"cebpf4jnsgd1na2vs0mg"},{"bike_id":"45dc9045-d2a6-4517-b661-2737406ffad3","system_id":"levelo_inurba_marseille","lat":43.3089,"lon":5.37191,"is_reserved":false,"is_disabled":false,"rental_uris":{"android":"levelo://app?vid=45dc9045-d2a6-4517-b661-2737406ffad3","ios":"levelo://app?vid=45dc9045-d2a6-4517-b661-2737406ffad3"},"vehicle_type_id":"4","last_reported":1728655723,"current_range_meters":34800,"station_id":"ce4bguh2rcd13ifvqckg","pricing_plan_id":"cebpf4jnsgd1na2vs0mg"},{"bike_id":"28f76944-d6cb-4316-a466-f27cb5c0f097","system_id":"levelo_inurba_marseille","lat":43.29534,"lon":5.39402,"is_reserved":false,"is_disabled":false,"rental_uris":{"android":"levelo://app?vid=28f76944-d6cb-4316-a466-f27cb5c0f097","ios":"levelo://app?vid=28f76944-d6cb-4316-a466-f27cb5c0f097"},"vehicle_type_id":"4","last_reported":1728655723,"current_range_meters":4000,"station_id":"ce4bh292rcd13ifvqdf0","pricing_plan_id":"cebpf4jnsgd1na2vs0mg"},{"bike_id":"d2610c8f-6f9f-494b-aae9-2cd3c7475da7","system_id":"levelo_inurba_marseille","lat":43.30926,"lon":5.40147,"is_reserved":false,"is_disabled":false,"rental_uris":{"android":"levelo://app?vid=d2610c8f-6f9f-494b-aae9-2cd3c7475da7","ios":"levelo://app?vid=d2610c8f-6f9f-494b-aae9-2cd3c7475da7"},"vehicle_type_id":"4","last_reported":1728655723,"current_range_meters":8400,"station_id":"ce4bgvp2rcd13ifvqct0","pricing_plan_id":"cebpf4jnsgd1na2vs0mg"},{"bike_id":"ac5b2a57-bf26-4f9c-9721-25614011bd13","system_id":"levelo_inurba_marseille","lat":43.3117,"lon":5.38713,"is_reserved":false,"is_disabled":false,"rental_uris":{"android":"levelo://app?vid=ac5b2a57-bf26-4f9c-9721-25614011bd13","ios":"levelo://app?vid=ac5b2a57-bf26-4f9c-9721-25614011bd13"},"vehicle_type_id":"4","last_reported":1728655723,"current_range_meters":38800,"station_id":"ce4bgv12rcd13ifvqcp0","pricing_plan_id":"cebpf4jnsgd1na2vs0mg"},{"bike_id":"6df6b1da-b822-474a-b356-6ce95f84ce67","system_id":"levelo_inurba_marseille","lat":43.31534,"lon":5.38031,"is_reserved":false,"is_disabled":false,"rental_uris":{"android":"levelo://app?vid=6df6b1da-b822-474a-b356-6ce95f84ce67","ios":"levelo://app?vid=6df6b1da-b822-474a-b356-6ce95f84ce67"},"vehicle_type_id":"4","last_reported":1728655723,"current_range_meters":12800,"station_id":"ce4bhsp2rcd13ifvqi50","pricing_plan_id":"cebpf4jnsgd1na2vs0mg"},{"bike_id":"15d17ad8-8082-42ca-9529-21626d10a661","system_id":"levelo_inurba_marseille","lat":43.29895,"lon":5.4366,"is_reserved":false,"is_disabled":false,"rental_uris":{"android":"levelo://app?vid=15d17ad8-8082-42ca-9529-21626d10a661","ios":"levelo://app?vid=15d17ad8-8082-42ca-9529-21626d10a661"},"vehicle_type_id":"4","last_reported":1728655723,"current_range_meters":33600,"station_id":"ce4bhpp2rcd13ifvqhfg","pricing_plan_id":"cebpf4jnsgd1na2vs0mg"},{"bike_id":"aac35ff4-9459-44b6-98fd-5486377f8c0a","system_id":"levelo_inurba_marseille","lat":43.33019,"lon":5.39035,"is_reserved":false,"is_disabled":false,"rental_uris":{"android":"levelo://app?vid=aac35ff4-9459-44b6-98fd-5486377f8c0a","ios":"levelo://app?vid=aac35ff4-9459-44b6-98fd-5486377f8c0a"},"vehicle_type_id":"4","last_reported":1728655723,"current_range_meters":17200,"station_id":"ce4bhr92rcd13ifvqhrg","pricing_plan_id":"cebpf4jnsgd1na2vs0mg"},{"bike_id":"b2b4b8c3-9fb6-44ba-a6c9-f715dd8b497e","system_id":"levelo_inurba_marseille","lat":43.30636,"lon":5.40091,"is_reserved":false,"is_disabled":false,"rental_uris":{"android":"levelo://app?vid=b2b4b8c3-9fb6-44ba-a6c9-f715dd8b497e","ios":"levelo://app?vid=b2b4b8c3-9fb6-44ba-a6c9-f715dd8b497e"},"vehicle_type_id":"4","last_reported":1728655723,"current_range_meters":31200,"station_id":"ce4bh112rcd13ifvqda0","pricing_plan_id":"cebpf4jnsgd1na2vs0mg"},{"bike_id":"30e5f0c1-a8ce-4008-a16d-48c87d9b3ca6","system_id":"levelo_inurba_marseille","lat":43.33754,"lon":5.37435,"is_reserved":false,"is_disabled":false,"rental_uris":{"android":"levelo://app?vid=30e5f0c1-a8ce-4008-a16d-48c87d9b3ca6","ios":"levelo://app?vid=30e5f0c1-a8ce-4008-a16d-48c87d9b3ca6"},"vehicle_type_id":"4","last_reported":1728655723,"current_range_meters":38800,"station_id":"","pricing_plan_id":"cebpf4jnsgd1na2vs0mg"},{"bike_id":"c42ca3f1-5e64-41a9-955f-13cdf1d79ea7","system_id":"levelo_inurba_marseille","lat":43.27162,"lon":5.40987,"is_reserved":false,"is_disabled":false,"rental_uris":{"android":"levelo://app?vid=c42ca3f1-5e64-41a9-955f-13cdf1d79ea7","ios":"levelo://app?vid=c42ca3f1-5e64-41a9-955f-13cdf1d79ea7"},"vehicle_type_id":"4","last_reported":1728655723,"current_range_meters":26000,"station_id":"ce4bhl12rcd13ifvqgf0","pricing_plan_id":"cebpf4jnsgd1na2vs0mg"},{"bike_id":"71afc88c-f31a-4d35-8f41-3a6da9afe2a7","system_id":"levelo_inurba_marseille","lat":43.33718,"lon":5.39182,"is_reserved":false,"is_disabled":false,"rental_uris":{"android":"levelo://app?vid=71afc88c-f31a-4d35-8f41-3a6da9afe2a7","ios":"levelo://app?vid=71afc88c-f31a-4d35-8f41-3a6da9afe2a7"},"vehicle_type_id":"4","last_reported":1728655723,"current_range_meters":36000,"station_id":"ce4bhr92rcd13ifvqhsg","pricing_plan_id":"cebpf4jnsgd1na2vs0mg"},{"bike_id":"30e3b3c3-67fb-41ae-93ac-365482dad7c2","system_id":"levelo_inurba_marseille","lat":43.30138,"lon":5.37406,"is_reserved":false,"is_disabled":false,"rental_uris":{"android":"levelo://app?vid=30e3b3c3-67fb-41ae-93ac-365482dad7c2","ios":"levelo://app?vid=30e3b3c3-67fb-41ae-93ac-365482dad7c2"},"vehicle_type_id":"4","last_reported":1728655723,"current_range_meters":33600,"station_id":"ce4bgs92rcd13ifvqcc0","pricing_plan_id":"cebpf4jnsgd1na2vs0mg"},{"bike_id":"d3e7dded-9462-4ba6-8547-66058e557ecb","system_id":"levelo_inurba_marseille","lat":43.30635,"lon":5.40094,"is_reserved":false,"is_disabled":false,"rental_uris":{"android":"levelo://app?vid=d3e7dded-9462-4ba6-8547-66058e557ecb","ios":"levelo://app?vid=d3e7dded-9462-4ba6-8547-66058e557ecb"},"vehicle_type_id":"4","last_reported":1728655723,"current_range_meters":18800,"station_id":"ce4bh112rcd13ifvqda0","pricing_plan_id":"cebpf4jnsgd1na2vs0mg"},{"bike_id":"3182d4bb-3f0b-4275-95e7-b9ac035f2aa6","system_id":"levelo_inurba_marseille","lat":43.29963,"lon":5.38489,"is_reserved":false,"is_disabled":false,"rental_uris":{"android":"levelo://app?vid=3182d4bb-3f0b-4275-95e7-b9ac035f2aa6","ios":"levelo://app?vid=3182d4bb-3f0b-4275-95e7-b9ac035f2aa6"},"vehicle_type_id":"4","last_reported":1728655723,"current_range_meters":30400,"station_id":"ce4bgj92rcd13ifvqbd0","pricing_plan_id":"cebpf4jnsgd1na2vs0mg"},{"bike_id":"bd4df93b-0afb-4026-9c83-7eb4d5dfd668","system_id":"levelo_inurba_marseille","lat":43.2903,"lon":5.38648,"is_reserved":false,"is_disabled":false,"rental_uris":{"android":"levelo://app?vid=bd4df93b-0afb-4026-9c83-7eb4d5dfd668","ios":"levelo://app?vid=bd4df93b-0afb-4026-9c83-7eb4d5dfd668"},"vehicle_type_id":"4","last_reported":1728655723,"current_range_meters":32800,"station_id":"ce4bh4p2rcd13ifvqe0g","pricing_plan_id":"cebpf4jnsgd1na2vs0mg"},{"bike_id":"6cf84b65-3f60-43a8-9e8b-6bd5a7696794","system_id":"levelo_inurba_marseille","lat":43.30531,"lon":5.36709,"is_reserved":false,"is_disabled":false,"rental_uris":{"android":"levelo://app?vid=6cf84b65-3f60-43a8-9e8b-6bd5a7696794","ios":"levelo://app?vid=6cf84b65-3f60-43a8-9e8b-6bd5a7696794"},"vehicle_type_id":"4","last_reported":1728655723,"current_range_meters":14000,"station_id":"ce4bgrp2rcd13ifvqc9g","pricing_plan_id":"cebpf4jnsgd1na2vs0mg"},{"bike_id":"791efab9-5432-421d-ba37-8a3cdc5464f7","system_id":"levelo_inurba_marseille","lat":43.265547,"lon":5.373364,"is_reserved":false,"is_disabled":false,"rental_uris":{"android":"levelo://app?vid=791efab9-5432-421d-ba37-8a3cdc5464f7","ios":"levelo://app?vid=791efab9-5432-421d-ba37-8a3cdc5464f7"},"vehicle_type_id":"4","last_reported":1728655723,"current_range_meters":12000,"station_id":"ce4bhg12rcd13ifvqf70","pricing_plan_id":"cebpf4jnsgd1na2vs0mg"},{"bike_id":"c7877476-ef9a-4214-9dc7-994e8a74dba0","system_id":"levelo_inurba_marseille","lat":43.32477,"lon":5.36563,"is_reserved":false,"is_disabled":false,"rental_uris":{"android":"levelo://app?vid=c7877476-ef9a-4214-9dc7-994e8a74dba0","ios":"levelo://app?vid=c7877476-ef9a-4214-9dc7-994e8a74dba0"},"vehicle_type_id":"4","last_reported":1728655723,"current_range_meters":38800,"station_id":"ce4bhs12rcd13ifvqhvg","pricing_plan_id":"cebpf4jnsgd1na2vs0mg"},{"bike_id":"3d819519-2feb-41f9-9ba5-7980c2cc54aa","system_id":"levelo_inurba_marseille","lat":43.30541,"lon":5.36528,"is_reserved":false,"is_disabled":false,"rental_uris":{"android":"levelo://app?vid=3d819519-2feb-41f9-9ba5-7980c2cc54aa","ios":"levelo://app?vid=3d819519-2feb-41f9-9ba5-7980c2cc54aa"},"vehicle_type_id":"4","last_reported":1728655723,"current_range_meters":39200,"station_id":"ce4bgs12rcd13ifvqcag","pricing_plan_id":"cebpf4jnsgd1na2vs0mg"},{"bike_id":"bc76d84f-7c87-4463-81b8-ddceba1d0f50","system_id":"levelo_inurba_marseille","lat":43.30889,"lon":5.37203,"is_reserved":false,"is_disabled":false,"rental_uris":{"android":"levelo://app?vid=bc76d84f-7c87-4463-81b8-ddceba1d0f50","ios":"levelo://app?vid=bc76d84f-7c87-4463-81b8-ddceba1d0f50"},"vehicle_type_id":"4","last_reported":1728655723,"current_range_meters":34000,"station_id":"ce4bguh2rcd13ifvqckg","pricing_plan_id":"cebpf4jnsgd1na2vs0mg"},{"bike_id":"eee18a44-71b1-4c28-8ff2-72b1fbcb0b4b","system_id":"levelo_inurba_marseille","lat":43.22927,"lon":5.35375,"is_reserved":false,"is_disabled":false,"rental_uris":{"android":"levelo://app?vid=eee18a44-71b1-4c28-8ff2-72b1fbcb0b4b","ios":"levelo://app?vid=eee18a44-71b1-4c28-8ff2-72b1fbcb0b4b"},"vehicle_type_id":"4","last_reported":1728655723,"current_range_meters":6800,"station_id":"cpo3532slgdg3j2ikp40","pricing_plan_id":"cebpf4jnsgd1na2vs0mg"},{"bike_id":"7a95dd32-c096-40c0-9789-7e97a6d9d6b1","system_id":"levelo_inurba_marseille","lat":43.31372,"lon":5.38498,"is_reserved":false,"is_disabled":false,"rental_uris":{"android":"levelo://app?vid=7a95dd32-c096-40c0-9789-7e97a6d9d6b1","ios":"levelo://app?vid=7a95dd32-c096-40c0-9789-7e97a6d9d6b1"},"vehicle_type_id":"4","last_reported":1728655723,"current_range_meters":9600,"station_id":"ce4bgt92rcd13ifvqcf0","pricing_plan_id":"cebpf4jnsgd1na2vs0mg"},{"bike_id":"5b894182-9047-444a-be00-cdd9adafe8ba","system_id":"levelo_inurba_marseille","lat":43.28722,"lon":5.36076,"is_reserved":false,"is_disabled":false,"rental_uris":{"android":"levelo://app?vid=5b894182-9047-444a-be00-cdd9adafe8ba","ios":"levelo://app?vid=5b894182-9047-444a-be00-cdd9adafe8ba"},"vehicle_type_id":"4","last_reported":1728655723,"current_range_meters":36800,"station_id":"cki0cbj6b192h4jlfktg","pricing_plan_id":"cebpf4jnsgd1na2vs0mg"},{"bike_id":"47717afc-4238-43f1-b35b-a62124556ff4","system_id":"levelo_inurba_marseille","lat":43.25867,"lon":5.39893,"is_reserved":false,"is_disabled":false,"rental_uris":{"android":"levelo://app?vid=47717afc-4238-43f1-b35b-a62124556ff4","ios":"levelo://app?vid=47717afc-4238-43f1-b35b-a62124556ff4"},"vehicle_type_id":"4","last_reported":1728655723,"current_range_meters":9200,"station_id":"ce4bhl92rcd13ifvqghg","pricing_plan_id":"cebpf4jnsgd1na2vs0mg"},{"bike_id":"b86123f3-29ea-461c-afbb-de90b817bb10","system_id":"levelo_inurba_marseille","lat":43.24072,"lon":5.37761,"is_reserved":false,"is_disabled":false,"rental_uris":{"android":"levelo://app?vid=b86123f3-29ea-461c-afbb-de90b817bb10","ios":"levelo://app?vid=b86123f3-29ea-461c-afbb-de90b817bb10"},"vehicle_type_id":"4","last_reported":1728655723,"current_range_meters":9600,"station_id":"ce4bhnp2rcd13ifvqgvg","pricing_plan_id":"cebpf4jnsgd1na2vs0mg"},{"bike_id":"ff68b789-7173-415f-860f-fb58c1b9d01d","system_id":"levelo_inurba_marseille","lat":43.22929,"lon":5.3538,"is_reserved":false,"is_disabled":false,"rental_uris":{"android":"levelo://app?vid=ff68b789-7173-415f-860f-fb58c1b9d01d","ios":"levelo://app?vid=ff68b789-7173-415f-860f-fb58c1b9d01d"},"vehicle_type_id":"4","last_reported":1728655723,"current_range_meters":30400,"station_id":"cpo3532slgdg3j2ikp40","pricing_plan_id":"cebpf4jnsgd1na2vs0mg"},{"bike_id":"4a5986d4-fdad-41eb-8cdf-0c4ed4f86f48","system_id":"levelo_inurba_marseille","lat":43.23176,"lon":5.39993,"is_reserved":false,"is_disabled":false,"rental_uris":{"android":"levelo://app?vid=4a5986d4-fdad-41eb-8cdf-0c4ed4f86f48","ios":"levelo://app?vid=4a5986d4-fdad-41eb-8cdf-0c4ed4f86f48"},"vehicle_type_id":"4","last_reported":1728655723,"current_range_meters":18000,"station_id":"ce4bhn12rcd13ifvqgqg","pricing_plan_id":"cebpf4jnsgd1na2vs0mg"},{"bike_id":"11ed2bc4-99e4-42ab-8911-f3374fcced68","system_id":"levelo_inurba_marseille","lat":43.2717,"lon":5.40985,"is_reserved":false,"is_disabled":false,"rental_uris":{"android":"levelo://app?vid=11ed2bc4-99e4-42ab-8911-f3374fcced68","ios":"levelo://app?vid=11ed2bc4-99e4-42ab-8911-f3374fcced68"},"vehicle_type_id":"4","last_reported":1728655723,"current_range_meters":36800,"station_id":"ce4bhl12rcd13ifvqgf0","pricing_plan_id":"cebpf4jnsgd1na2vs0mg"},{"bike_id":"6cb5b02c-2401-484a-8b7d-b4d2106d6b08","system_id":"levelo_inurba_marseille","lat":43.2319,"lon":5.35556,"is_reserved":false,"is_disabled":false,"rental_uris":{"android":"levelo://app?vid=6cb5b02c-2401-484a-8b7d-b4d2106d6b08","ios":"levelo://app?vid=6cb5b02c-2401-484a-8b7d-b4d2106d6b08"},"vehicle_type_id":"4","last_reported":1728655723,"current_range_meters":36000,"station_id":"ce4bhu92rcd13ifvqi70","pricing_plan_id":"cebpf4jnsgd1na2vs0mg"},{"bike_id":"7ac7e627-06e3-49fc-b1d7-b6203dd7d747","system_id":"levelo_inurba_marseille","lat":43.31757,"lon":5.39012,"is_reserved":false,"is_disabled":false,"rental_uris":{"android":"levelo://app?vid=7ac7e627-06e3-49fc-b1d7-b6203dd7d747","ios":"levelo://app?vid=7ac7e627-06e3-49fc-b1d7-b6203dd7d747"},"vehicle_type_id":"4","last_reported":1728655723,"current_range_meters":8400,"station_id":"ce4bhqp2rcd13ifvqhng","pricing_plan_id":"cebpf4jnsgd1na2vs0mg"},{"bike_id":"2a5f118b-e373-4264-9318-df370ba6a997","system_id":"levelo_inurba_marseille","lat":43.27662,"lon":5.3614,"is_reserved":false,"is_disabled":false,"rental_uris":{"android":"levelo://app?vid=2a5f118b-e373-4264-9318-df370ba6a997","ios":"levelo://app?vid=2a5f118b-e373-4264-9318-df370ba6a997"},"vehicle_type_id":"4","last_reported":1728655723,"current_range_meters":38800,"station_id":"ce4bgj92rcd13ifvqbe0","pricing_plan_id":"cebpf4jnsgd1na2vs0mg"},{"bike_id":"c417019c-5367-4191-a213-8153b6c2ea08","system_id":"levelo_inurba_marseille","lat":43.32484,"lon":5.36566,"is_reserved":false,"is_disabled":false,"rental_uris":{"android":"levelo://app?vid=c417019c-5367-4191-a213-8153b6c2ea08","ios":"levelo://app?vid=c417019c-5367-4191-a213-8153b6c2ea08"},"vehicle_type_id":"4","last_reported":1728655723,"current_range_meters":24800,"station_id":"ce4bhs12rcd13ifvqhvg","pricing_plan_id":"cebpf4jnsgd1na2vs0mg"},{"bike_id":"44c4e2cb-0dae-4c90-ac01-ffed0976125e","system_id":"levelo_inurba_marseille","lat":43.2827,"lon":5.35073,"is_reserved":false,"is_disabled":false,"rental_uris":{"android":"levelo://app?vid=44c4e2cb-0dae-4c90-ac01-ffed0976125e","ios":"levelo://app?vid=44c4e2cb-0dae-4c90-ac01-ffed0976125e"},"vehicle_type_id":"4","last_reported":1728655723,"current_range_meters":37600,"station_id":"ce4bhbp2rcd13ifvqerg","pricing_plan_id":"cebpf4jnsgd1na2vs0mg"},{"bike_id":"1c8deb49-48e6-42bc-92ff-8eefc540ca64","system_id":"levelo_inurba_marseille","lat":43.30539,"lon":5.36528,"is_reserved":false,"is_disabled":false,"rental_uris":{"android":"levelo://app?vid=1c8deb49-48e6-42bc-92ff-8eefc540ca64","ios":"levelo://app?vid=1c8deb49-48e6-42bc-92ff-8eefc540ca64"},"vehicle_type_id":"4","last_reported":1728655723,"current_range_meters":35200,"station_id":"ce4bgs12rcd13ifvqcag","pricing_plan_id":"cebpf4jnsgd1na2vs0mg"},{"bike_id":"99805da4-0e59-48d8-87e8-a3e21b3722ec","system_id":"levelo_inurba_marseille","lat":43.27173,"lon":5.40998,"is_reserved":false,"is_disabled":false,"rental_uris":{"android":"levelo://app?vid=99805da4-0e59-48d8-87e8-a3e21b3722ec","ios":"levelo://app?vid=99805da4-0e59-48d8-87e8-a3e21b3722ec"},"vehicle_type_id":"4","last_reported":1728655723,"current_range_meters":34000,"station_id":"ce4bhl12rcd13ifvqgf0","pricing_plan_id":"cebpf4jnsgd1na2vs0mg"},{"bike_id":"0218be81-a023-4135-a21e-30236bb4a4a4","system_id":"levelo_inurba_marseille","lat":43.32107,"lon":5.36777,"is_reserved":false,"is_disabled":false,"rental_uris":{"android":"levelo://app?vid=0218be81-a023-4135-a21e-30236bb4a4a4","ios":"levelo://app?vid=0218be81-a023-4135-a21e-30236bb4a4a4"},"vehicle_type_id":"4","last_reported":1728655723,"current_range_meters":38000,"station_id":"ce4bhrh2rcd13ifvqhug","pricing_plan_id":"cebpf4jnsgd1na2vs0mg"},{"bike_id":"f80c2e75-b47f-4161-9783-8454957aba75","system_id":"levelo_inurba_marseille","lat":43.32102,"lon":5.36768,"is_reserved":false,"is_disabled":false,"rental_uris":{"android":"levelo://app?vid=f80c2e75-b47f-4161-9783-8454957aba75","ios":"levelo://app?vid=f80c2e75-b47f-4161-9783-8454957aba75"},"vehicle_type_id":"4","last_reported":1728655723,"current_range_meters":4000,"station_id":"ce4bhrh2rcd13ifvqhug","pricing_plan_id":"cebpf4jnsgd1na2vs0mg"},{"bike_id":"cb06aaa1-5ef1-4aba-a99f-b8375e142e9f","system_id":"levelo_inurba_marseille","lat":43.30928,"lon":5.40146,"is_reserved":false,"is_disabled":false,"rental_uris":{"android":"levelo://app?vid=cb06aaa1-5ef1-4aba-a99f-b8375e142e9f","ios":"levelo://app?vid=cb06aaa1-5ef1-4aba-a99f-b8375e142e9f"},"vehicle_type_id":"4","last_reported":1728655723,"current_range_meters":36000,"station_id":"ce4bgvp2rcd13ifvqct0","pricing_plan_id":"cebpf4jnsgd1na2vs0mg"},{"bike_id":"62aeb83e-c690-4d06-b85c-de4b6856eb4c","system_id":"levelo_inurba_marseille","lat":43.2694,"lon":5.40246,"is_reserved":false,"is_disabled":false,"rental_uris":{"android":"levelo://app?vid=62aeb83e-c690-4d06-b85c-de4b6856eb4c","ios":"levelo://app?vid=62aeb83e-c690-4d06-b85c-de4b6856eb4c"},"vehicle_type_id":"4","last_reported":1728655723,"current_range_meters":20800,"station_id":"cjm6bp8fraef2m0cb0m0","pricing_plan_id":"cebpf4jnsgd1na2vs0mg"},{"bike_id":"0763fff4-a322-4a33-acdb-f69ef660866e","system_id":"levelo_inurba_marseille","lat":43.29305,"lon":5.37173,"is_reserved":false,"is_disabled":false,"rental_uris":{"android":"levelo://app?vid=0763fff4-a322-4a33-acdb-f69ef660866e","ios":"levelo://app?vid=0763fff4-a322-4a33-acdb-f69ef660866e"},"vehicle_type_id":"4","last_reported":1728655723,"current_range_meters":37600,"station_id":"ce4bgh92rcd13ifvqb40","pricing_plan_id":"cebpf4jnsgd1na2vs0mg"},{"bike_id":"c30ed77f-4d7d-41e7-89a5-f6d4db2802f5","system_id":"levelo_inurba_marseille","lat":43.23179,"lon":5.39988,"is_reserved":false,"is_disabled":false,"rental_uris":{"android":"levelo://app?vid=c30ed77f-4d7d-41e7-89a5-f6d4db2802f5","ios":"levelo://app?vid=c30ed77f-4d7d-41e7-89a5-f6d4db2802f5"},"vehicle_type_id":"4","last_reported":1728655723,"current_range_meters":25600,"station_id":"ce4bhn12rcd13ifvqgqg","pricing_plan_id":"cebpf4jnsgd1na2vs0mg"},{"bike_id":"df6a53fa-18f0-4fb3-b654-ab01820b77c4","system_id":"levelo_inurba_marseille","lat":43.2319,"lon":5.3555,"is_reserved":false,"is_disabled":false,"rental_uris":{"android":"levelo://app?vid=df6a53fa-18f0-4fb3-b654-ab01820b77c4","ios":"levelo://app?vid=df6a53fa-18f0-4fb3-b654-ab01820b77c4"},"vehicle_type_id":"4","last_reported":1728655723,"current_range_meters":8000,"station_id":"ce4bhu92rcd13ifvqi70","pricing_plan_id":"cebpf4jnsgd1na2vs0mg"},{"bike_id":"b933402b-d1ca-49a8-bbf7-fb19281d941c","system_id":"levelo_inurba_marseille","lat":43.23182,"lon":5.35555,"is_reserved":false,"is_disabled":false,"rental_uris":{"android":"levelo://app?vid=b933402b-d1ca-49a8-bbf7-fb19281d941c","ios":"levelo://app?vid=b933402b-d1ca-49a8-bbf7-fb19281d941c"},"vehicle_type_id":"4","last_reported":1728655723,"current_range_meters":26800,"station_id":"ce4bhu92rcd13ifvqi70","pricing_plan_id":"cebpf4jnsgd1na2vs0mg"},{"bike_id":"bf0228c3-d15f-49fe-88f6-3b8c446d9982","system_id":"levelo_inurba_marseille","lat":43.30889,"lon":5.37189,"is_reserved":false,"is_disabled":false,"rental_uris":{"android":"levelo://app?vid=bf0228c3-d15f-49fe-88f6-3b8c446d9982","ios":"levelo://app?vid=bf0228c3-d15f-49fe-88f6-3b8c446d9982"},"vehicle_type_id":"4","last_reported":1728655723,"current_range_meters":16800,"station_id":"ce4bguh2rcd13ifvqckg","pricing_plan_id":"cebpf4jnsgd1na2vs0mg"},{"bike_id":"f37503d6-a1a0-4edb-bf06-a3a66ccd89a6","system_id":"levelo_inurba_marseille","lat":43.25495,"lon":5.37647,"is_reserved":false,"is_disabled":false,"rental_uris":{"android":"levelo://app?vid=f37503d6-a1a0-4edb-bf06-a3a66ccd89a6","ios":"levelo://app?vid=f37503d6-a1a0-4edb-bf06-a3a66ccd89a6"},"vehicle_type_id":"4","last_reported":1728655723,"current_range_meters":38800,"station_id":"ce4bhh12rcd13ifvqff0","pricing_plan_id":"cebpf4jnsgd1na2vs0mg"},{"bike_id":"d19ceb9a-3cb7-42ac-81b4-bfba192ee3f8","system_id":"levelo_inurba_marseille","lat":43.28262,"lon":5.35066,"is_reserved":false,"is_disabled":false,"rental_uris":{"android":"levelo://app?vid=d19ceb9a-3cb7-42ac-81b4-bfba192ee3f8","ios":"levelo://app?vid=d19ceb9a-3cb7-42ac-81b4-bfba192ee3f8"},"vehicle_type_id":"4","last_reported":1728655723,"current_range_meters":9200,"station_id":"ce4bhbp2rcd13ifvqerg","pricing_plan_id":"cebpf4jnsgd1na2vs0mg"},{"bike_id":"b7844142-2961-4a83-a628-45e2ee6d3c80","system_id":"levelo_inurba_marseille","lat":43.297836,"lon":5.393476,"is_reserved":false,"is_disabled":false,"rental_uris":{"android":"levelo://app?vid=b7844142-2961-4a83-a628-45e2ee6d3c80","ios":"levelo://app?vid=b7844142-2961-4a83-a628-45e2ee6d3c80"},"vehicle_type_id":"4","last_reported":1728655723,"current_range_meters":11200,"station_id":"chh1huq6cuj3fo74tm60","pricing_plan_id":"cebpf4jnsgd1na2vs0mg"},{"bike_id":"1430f6f2-73dd-42ca-8307-5f209eb4a512","system_id":"levelo_inurba_marseille","lat":43.29456,"lon":5.37626,"is_reserved":false,"is_disabled":false,"rental_uris":{"android":"levelo://app?vid=1430f6f2-73dd-42ca-8307-5f209eb4a512","ios":"levelo://app?vid=1430f6f2-73dd-42ca-8307-5f209eb4a512"},"vehicle_type_id":"4","last_reported":1728655723,"current_range_meters":6800,"station_id":"","pricing_plan_id":"cebpf4jnsgd1na2vs0mg"},{"bike_id":"484a4c63-4ef1-4433-b27a-9a9ca5ad2f9a","system_id":"levelo_inurba_marseille","lat":43.22926,"lon":5.35381,"is_reserved":false,"is_disabled":false,"rental_uris":{"android":"levelo://app?vid=484a4c63-4ef1-4433-b27a-9a9ca5ad2f9a","ios":"levelo://app?vid=484a4c63-4ef1-4433-b27a-9a9ca5ad2f9a"},"vehicle_type_id":"4","last_reported":1728655723,"current_range_meters":16400,"station_id":"cpo3532slgdg3j2ikp40","pricing_plan_id":"cebpf4jnsgd1na2vs0mg"},{"bike_id":"d78f0c59-f634-42b1-a587-b43ca8664564","system_id":"levelo_inurba_marseille","lat":43.30315,"lon":5.40442,"is_reserved":false,"is_disabled":false,"rental_uris":{"android":"levelo://app?vid=d78f0c59-f634-42b1-a587-b43ca8664564","ios":"levelo://app?vid=d78f0c59-f634-42b1-a587-b43ca8664564"},"vehicle_type_id":"4","last_reported":1728655723,"current_range_meters":35600,"station_id":"ce4bh012rcd13ifvqd10","pricing_plan_id":"cebpf4jnsgd1na2vs0mg"},{"bike_id":"0ee70856-9a00-48c6-a09b-236024c7a8f9","system_id":"levelo_inurba_marseille","lat":43.31695,"lon":5.3776,"is_reserved":false,"is_disabled":false,"rental_uris":{"android":"levelo://app?vid=0ee70856-9a00-48c6-a09b-236024c7a8f9","ios":"levelo://app?vid=0ee70856-9a00-48c6-a09b-236024c7a8f9"},"vehicle_type_id":"4","last_reported":1728655723,"current_range_meters":38400,"station_id":"ce4bgth2rcd13ifvqch0","pricing_plan_id":"cebpf4jnsgd1na2vs0mg"},{"bike_id":"f2e389c2-c735-4c07-9101-a0f720519690","system_id":"levelo_inurba_marseille","lat":43.28406,"lon":5.37508,"is_reserved":false,"is_disabled":false,"rental_uris":{"android":"levelo://app?vid=f2e389c2-c735-4c07-9101-a0f720519690","ios":"levelo://app?vid=f2e389c2-c735-4c07-9101-a0f720519690"},"vehicle_type_id":"4","last_reported":1728655723,"current_range_meters":34000,"station_id":"ce4bh412rcd13ifvqds0","pricing_plan_id":"cebpf4jnsgd1na2vs0mg"},{"bike_id":"fe4a255c-497a-4395-9576-9d3b5fe8157e","system_id":"levelo_inurba_marseille","lat":43.2481,"lon":5.3746,"is_reserved":false,"is_disabled":false,"rental_uris":{"android":"levelo://app?vid=fe4a255c-497a-4395-9576-9d3b5fe8157e","ios":"levelo://app?vid=fe4a255c-497a-4395-9576-9d3b5fe8157e"},"vehicle_type_id":"4","last_reported":1728655723,"current_range_meters":11200,"station_id":"ce4bhgh2rcd13ifvqfb0","pricing_plan_id":"cebpf4jnsgd1na2vs0mg"},{"bike_id":"39bb093e-1fb0-4fe9-a7de-f970ccf3512f","system_id":"levelo_inurba_marseille","lat":43.22932,"lon":5.35378,"is_reserved":false,"is_disabled":false,"rental_uris":{"android":"levelo://app?vid=39bb093e-1fb0-4fe9-a7de-f970ccf3512f","ios":"levelo://app?vid=39bb093e-1fb0-4fe9-a7de-f970ccf3512f"},"vehicle_type_id":"4","last_reported":1728655723,"current_range_meters":25600,"station_id":"cpo3532slgdg3j2ikp40","pricing_plan_id":"cebpf4jnsgd1na2vs0mg"},{"bike_id":"1cf88cb0-3f7e-4dde-bba5-b7e2bbb3b09d","system_id":"levelo_inurba_marseille","lat":43.33023,"lon":5.39036,"is_reserved":false,"is_disabled":false,"rental_uris":{"android":"levelo://app?vid=1cf88cb0-3f7e-4dde-bba5-b7e2bbb3b09d","ios":"levelo://app?vid=1cf88cb0-3f7e-4dde-bba5-b7e2bbb3b09d"},"vehicle_type_id":"4","last_reported":1728655723,"current_range_meters":18800,"station_id":"ce4bhr92rcd13ifvqhrg","pricing_plan_id":"cebpf4jnsgd1na2vs0mg"},{"bike_id":"5fafc313-2bbf-4470-aeef-67dbcfdca477","system_id":"levelo_inurba_marseille","lat":43.28477,"lon":5.38545,"is_reserved":false,"is_disabled":false,"rental_uris":{"android":"levelo://app?vid=5fafc313-2bbf-4470-aeef-67dbcfdca477","ios":"levelo://app?vid=5fafc313-2bbf-4470-aeef-67dbcfdca477"},"vehicle_type_id":"4","last_reported":1728655723,"current_range_meters":4800,"station_id":"ce4bh8p2rcd13ifvqeb0","pricing_plan_id":"cebpf4jnsgd1na2vs0mg"},{"bike_id":"de1b9930-e636-46d5-bc4b-40e16bee5c28","system_id":"levelo_inurba_marseille","lat":43.28269,"lon":5.35071,"is_reserved":false,"is_disabled":false,"rental_uris":{"android":"levelo://app?vid=de1b9930-e636-46d5-bc4b-40e16bee5c28","ios":"levelo://app?vid=de1b9930-e636-46d5-bc4b-40e16bee5c28"},"vehicle_type_id":"4","last_reported":1728655723,"current_range_meters":25600,"station_id":"ce4bhbp2rcd13ifvqerg","pricing_plan_id":"cebpf4jnsgd1na2vs0mg"},{"bike_id":"e027a13d-b80a-4a2c-8f6c-251b0590389e","system_id":"levelo_inurba_marseille","lat":43.30889,"lon":5.37195,"is_reserved":false,"is_disabled":false,"rental_uris":{"android":"levelo://app?vid=e027a13d-b80a-4a2c-8f6c-251b0590389e","ios":"levelo://app?vid=e027a13d-b80a-4a2c-8f6c-251b0590389e"},"vehicle_type_id":"4","last_reported":1728655723,"current_range_meters":38800,"station_id":"ce4bguh2rcd13ifvqckg","pricing_plan_id":"cebpf4jnsgd1na2vs0mg"},{"bike_id":"86b60c80-b076-4961-b7ae-25f83be4039d","system_id":"levelo_inurba_marseille","lat":43.29849,"lon":5.36283,"is_reserved":false,"is_disabled":false,"rental_uris":{"android":"levelo://app?vid=86b60c80-b076-4961-b7ae-25f83be4039d","ios":"levelo://app?vid=86b60c80-b076-4961-b7ae-25f83be4039d"},"vehicle_type_id":"4","last_reported":1728655723,"current_range_meters":38800,"station_id":"ce4bgpp2rcd13ifvqc3g","pricing_plan_id":"cebpf4jnsgd1na2vs0mg"},{"bike_id":"c9325678-82b6-47b8-9cb0-bc2feb67f2fb","system_id":"levelo_inurba_marseille","lat":43.29965,"lon":5.38493,"is_reserved":false,"is_disabled":false,"rental_uris":{"android":"levelo://app?vid=c9325678-82b6-47b8-9cb0-bc2feb67f2fb","ios":"levelo://app?vid=c9325678-82b6-47b8-9cb0-bc2feb67f2fb"},"vehicle_type_id":"4","last_reported":1728655723,"current_range_meters":4400,"station_id":"ce4bgj92rcd13ifvqbd0","pricing_plan_id":"cebpf4jnsgd1na2vs0mg"},{"bike_id":"5a5649e8-a9bc-4d0f-be41-ed6fc56a9baf","system_id":"levelo_inurba_marseille","lat":43.22925,"lon":5.35379,"is_reserved":false,"is_disabled":false,"rental_uris":{"android":"levelo://app?vid=5a5649e8-a9bc-4d0f-be41-ed6fc56a9baf","ios":"levelo://app?vid=5a5649e8-a9bc-4d0f-be41-ed6fc56a9baf"},"vehicle_type_id":"4","last_reported":1728655723,"current_range_meters":36800,"station_id":"cpo3532slgdg3j2ikp40","pricing_plan_id":"cebpf4jnsgd1na2vs0mg"},{"bike_id":"bd0dae11-9f15-45f3-bad7-0224207310c1","system_id":"levelo_inurba_marseille","lat":43.29892,"lon":5.43657,"is_reserved":false,"is_disabled":false,"rental_uris":{"android":"levelo://app?vid=bd0dae11-9f15-45f3-bad7-0224207310c1","ios":"levelo://app?vid=bd0dae11-9f15-45f3-bad7-0224207310c1"},"vehicle_type_id":"4","last_reported":1728655723,"current_range_meters":23200,"station_id":"ce4bhpp2rcd13ifvqhfg","pricing_plan_id":"cebpf4jnsgd1na2vs0mg"},{"bike_id":"d8f9df2a-073c-452f-9007-a16f709a8a4d","system_id":"levelo_inurba_marseille","lat":43.29594,"lon":5.38098,"is_reserved":false,"is_disabled":false,"rental_uris":{"android":"levelo://app?vid=d8f9df2a-073c-452f-9007-a16f709a8a4d","ios":"levelo://app?vid=d8f9df2a-073c-452f-9007-a16f709a8a4d"},"vehicle_type_id":"4","last_reported":1728655723,"current_range_meters":34800,"station_id":"ce4bgl12rcd13ifvqbo0","pricing_plan_id":"cebpf4jnsgd1na2vs0mg"},{"bike_id":"dbbebaaa-01ef-4ef9-bf34-4650ea8d492c","system_id":"levelo_inurba_marseille","lat":43.25117,"lon":5.4032,"is_reserved":false,"is_disabled":false,"rental_uris":{"android":"levelo://app?vid=dbbebaaa-01ef-4ef9-bf34-4650ea8d492c","ios":"levelo://app?vid=dbbebaaa-01ef-4ef9-bf34-4650ea8d492c"},"vehicle_type_id":"4","last_reported":1728655723,"current_range_meters":10800,"station_id":"ce4bhlh2rcd13ifvqgig","pricing_plan_id":"cebpf4jnsgd1na2vs0mg"},{"bike_id":"f810505e-45f7-4dcb-9d5f-e7095403f7b8","system_id":"levelo_inurba_marseille","lat":43.28995,"lon":5.35611,"is_reserved":false,"is_disabled":false,"rental_uris":{"android":"levelo://app?vid=f810505e-45f7-4dcb-9d5f-e7095403f7b8","ios":"levelo://app?vid=f810505e-45f7-4dcb-9d5f-e7095403f7b8"},"vehicle_type_id":"4","last_reported":1728655723,"current_range_meters":8800,"station_id":"ce4bhb92rcd13ifvqen0","pricing_plan_id":"cebpf4jnsgd1na2vs0mg"},{"bike_id":"fea68042-6912-4946-948b-ae6c942d18e2","system_id":"levelo_inurba_marseille","lat":43.24995,"lon":5.38933,"is_reserved":false,"is_disabled":false,"rental_uris":{"android":"levelo://app?vid=fea68042-6912-4946-948b-ae6c942d18e2","ios":"levelo://app?vid=fea68042-6912-4946-948b-ae6c942d18e2"},"vehicle_type_id":"4","last_reported":1728655723,"current_range_meters":25600,"station_id":"ce4bhgp2rcd13ifvqfd0","pricing_plan_id":"cebpf4jnsgd1na2vs0mg"},{"bike_id":"da5c52fd-3d7e-4f3c-aa2e-a5e970b78f93","system_id":"levelo_inurba_marseille","lat":43.24173,"lon":5.39721,"is_reserved":false,"is_disabled":false,"rental_uris":{"android":"levelo://app?vid=da5c52fd-3d7e-4f3c-aa2e-a5e970b78f93","ios":"levelo://app?vid=da5c52fd-3d7e-4f3c-aa2e-a5e970b78f93"},"vehicle_type_id":"4","last_reported":1728655723,"current_range_meters":8800,"station_id":"ce4bhn12rcd13ifvqgpg","pricing_plan_id":"cebpf4jnsgd1na2vs0mg"},{"bike_id":"8fb2b431-bcb9-46ba-80fb-e26e84592fc5","system_id":"levelo_inurba_marseille","lat":43.23182,"lon":5.35558,"is_reserved":false,"is_disabled":false,"rental_uris":{"android":"levelo://app?vid=8fb2b431-bcb9-46ba-80fb-e26e84592fc5","ios":"levelo://app?vid=8fb2b431-bcb9-46ba-80fb-e26e84592fc5"},"vehicle_type_id":"4","last_reported":1728655723,"current_range_meters":36400,"station_id":"ce4bhu92rcd13ifvqi70","pricing_plan_id":"cebpf4jnsgd1na2vs0mg"},{"bike_id":"dd9cc3a3-b827-48dc-87bb-4acd22d19af9","system_id":"levelo_inurba_marseille","lat":43.3053,"lon":5.3671,"is_reserved":false,"is_disabled":false,"rental_uris":{"android":"levelo://app?vid=dd9cc3a3-b827-48dc-87bb-4acd22d19af9","ios":"levelo://app?vid=dd9cc3a3-b827-48dc-87bb-4acd22d19af9"},"vehicle_type_id":"4","last_reported":1728655723,"current_range_meters":13600,"station_id":"ce4bgrp2rcd13ifvqc9g","pricing_plan_id":"cebpf4jnsgd1na2vs0mg"},{"bike_id":"fd38f279-849d-4629-93fc-f67419de4998","system_id":"levelo_inurba_marseille","lat":43.2938,"lon":5.39995,"is_reserved":false,"is_disabled":false,"rental_uris":{"android":"levelo://app?vid=fd38f279-849d-4629-93fc-f67419de4998","ios":"levelo://app?vid=fd38f279-849d-4629-93fc-f67419de4998"},"vehicle_type_id":"4","last_reported":1728655723,"current_range_meters":25600,"station_id":"","pricing_plan_id":"cebpf4jnsgd1na2vs0mg"},{"bike_id":"9930c452-aad2-4044-82f1-b5765c20877f","system_id":"levelo_inurba_marseille","lat":43.28567,"lon":5.39497,"is_reserved":false,"is_disabled":false,"rental_uris":{"android":"levelo://app?vid=9930c452-aad2-4044-82f1-b5765c20877f","ios":"levelo://app?vid=9930c452-aad2-4044-82f1-b5765c20877f"},"vehicle_type_id":"4","last_reported":1728655723,"current_range_meters":28800,"station_id":"ce4bh292rcd13ifvqdg0","pricing_plan_id":"cebpf4jnsgd1na2vs0mg"},{"bike_id":"166ecfaa-367a-44d8-8469-bb892f616109","system_id":"levelo_inurba_marseille","lat":43.31115,"lon":5.37771,"is_reserved":false,"is_disabled":false,"rental_uris":{"android":"levelo://app?vid=166ecfaa-367a-44d8-8469-bb892f616109","ios":"levelo://app?vid=166ecfaa-367a-44d8-8469-bb892f616109"},"vehicle_type_id":"4","last_reported":1728655723,"current_range_meters":25600,"station_id":"ce4bgn12rcd13ifvqbt0","pricing_plan_id":"cebpf4jnsgd1na2vs0mg"},{"bike_id":"2d30c436-26f1-4952-8a40-f10e0c983246","system_id":"levelo_inurba_marseille","lat":43.30784,"lon":5.37653,"is_reserved":false,"is_disabled":false,"rental_uris":{"android":"levelo://app?vid=2d30c436-26f1-4952-8a40-f10e0c983246","ios":"levelo://app?vid=2d30c436-26f1-4952-8a40-f10e0c983246"},"vehicle_type_id":"4","last_reported":1728655723,"current_range_meters":30800,"station_id":"ce4bgv92rcd13ifvqcq0","pricing_plan_id":"cebpf4jnsgd1na2vs0mg"},{"bike_id":"65d0d997-d398-4947-8cef-fc52ff124155","system_id":"levelo_inurba_marseille","lat":43.30534,"lon":5.38419,"is_reserved":false,"is_disabled":false,"rental_uris":{"android":"levelo://app?vid=65d0d997-d398-4947-8cef-fc52ff124155","ios":"levelo://app?vid=65d0d997-d398-4947-8cef-fc52ff124155"},"vehicle_type_id":"4","last_reported":1728655723,"current_range_meters":30000,"station_id":"ce4bgg92rcd13ifvqb30","pricing_plan_id":"cebpf4jnsgd1na2vs0mg"},{"bike_id":"70ded6a6-ef5f-4c1a-beea-062335b03364","system_id":"levelo_inurba_marseille","lat":43.32103,"lon":5.36779,"is_reserved":false,"is_disabled":false,"rental_uris":{"android":"levelo://app?vid=70ded6a6-ef5f-4c1a-beea-062335b03364","ios":"levelo://app?vid=70ded6a6-ef5f-4c1a-beea-062335b03364"},"vehicle_type_id":"4","last_reported":1728655723,"current_range_meters":36000,"station_id":"ce4bhrh2rcd13ifvqhug","pricing_plan_id":"cebpf4jnsgd1na2vs0mg"},{"bike_id":"a27554a6-a50a-485f-8f1f-4487a4aa2e01","system_id":"levelo_inurba_marseille","lat":43.30591,"lon":5.38065,"is_reserved":false,"is_disabled":false,"rental_uris":{"android":"levelo://app?vid=a27554a6-a50a-485f-8f1f-4487a4aa2e01","ios":"levelo://app?vid=a27554a6-a50a-485f-8f1f-4487a4aa2e01"},"vehicle_type_id":"4","last_reported":1728655723,"current_range_meters":30800,"station_id":"","pricing_plan_id":"cebpf4jnsgd1na2vs0mg"},{"bike_id":"6818f2b1-c18d-4bc8-932f-3078c8321d09","system_id":"levelo_inurba_marseille","lat":43.25867,"lon":5.39894,"is_reserved":false,"is_disabled":false,"rental_uris":{"android":"levelo://app?vid=6818f2b1-c18d-4bc8-932f-3078c8321d09","ios":"levelo://app?vid=6818f2b1-c18d-4bc8-932f-3078c8321d09"},"vehicle_type_id":"4","last_reported":1728655723,"current_range_meters":16800,"station_id":"ce4bhl92rcd13ifvqghg","pricing_plan_id":"cebpf4jnsgd1na2vs0mg"},{"bike_id":"54b16072-e318-40ce-b520-5eddf9a6713e","system_id":"levelo_inurba_marseille","lat":43.3107,"lon":5.38356,"is_reserved":false,"is_disabled":false,"rental_uris":{"android":"levelo://app?vid=54b16072-e318-40ce-b520-5eddf9a6713e","ios":"levelo://app?vid=54b16072-e318-40ce-b520-5eddf9a6713e"},"vehicle_type_id":"4","last_reported":1728655723,"current_range_meters":38400,"station_id":"ce4bgv92rcd13ifvqcr0","pricing_plan_id":"cebpf4jnsgd1na2vs0mg"},{"bike_id":"c18093ca-d74a-4d83-9d82-151bf6321765","system_id":"levelo_inurba_marseille","lat":43.28269,"lon":5.35059,"is_reserved":false,"is_disabled":false,"rental_uris":{"android":"levelo://app?vid=c18093ca-d74a-4d83-9d82-151bf6321765","ios":"levelo://app?vid=c18093ca-d74a-4d83-9d82-151bf6321765"},"vehicle_type_id":"4","last_reported":1728655723,"current_range_meters":5600,"station_id":"ce4bhbp2rcd13ifvqerg","pricing_plan_id":"cebpf4jnsgd1na2vs0mg"},{"bike_id":"7ecf41e5-304c-4343-8cba-1d4606f58148","system_id":"levelo_inurba_marseille","lat":43.30438,"lon":5.38891,"is_reserved":false,"is_disabled":false,"rental_uris":{"android":"levelo://app?vid=7ecf41e5-304c-4343-8cba-1d4606f58148","ios":"levelo://app?vid=7ecf41e5-304c-4343-8cba-1d4606f58148"},"vehicle_type_id":"4","last_reported":1728655723,"current_range_meters":14800,"station_id":"ce4bgk12rcd13ifvqbi0","pricing_plan_id":"cebpf4jnsgd1na2vs0mg"},{"bike_id":"2d6b34e7-38b9-4382-8bb4-f923bcf86327","system_id":"levelo_inurba_marseille","lat":43.28268,"lon":5.35073,"is_reserved":false,"is_disabled":false,"rental_uris":{"android":"levelo://app?vid=2d6b34e7-38b9-4382-8bb4-f923bcf86327","ios":"levelo://app?vid=2d6b34e7-38b9-4382-8bb4-f923bcf86327"},"vehicle_type_id":"4","last_reported":1728655723,"current_range_meters":38800,"station_id":"ce4bhbp2rcd13ifvqerg","pricing_plan_id":"cebpf4jnsgd1na2vs0mg"},{"bike_id":"7ae330f8-8720-4eac-8890-a3ec391400f3","system_id":"levelo_inurba_marseille","lat":43.28411,"lon":5.34987,"is_reserved":false,"is_disabled":false,"rental_uris":{"android":"levelo://app?vid=7ae330f8-8720-4eac-8890-a3ec391400f3","ios":"levelo://app?vid=7ae330f8-8720-4eac-8890-a3ec391400f3"},"vehicle_type_id":"4","last_reported":1728655723,"current_range_meters":6800,"station_id":"ce4bhbh2rcd13ifvqepg","pricing_plan_id":"cebpf4jnsgd1na2vs0mg"},{"bike_id":"dfb35a55-5183-4564-853f-e65a1786a8e7","system_id":"levelo_inurba_marseille","lat":43.29185,"lon":5.35808,"is_reserved":false,"is_disabled":false,"rental_uris":{"android":"levelo://app?vid=dfb35a55-5183-4564-853f-e65a1786a8e7","ios":"levelo://app?vid=dfb35a55-5183-4564-853f-e65a1786a8e7"},"vehicle_type_id":"4","last_reported":1728655723,"current_range_meters":24800,"station_id":"ce4bhb12rcd13ifvqel0","pricing_plan_id":"cebpf4jnsgd1na2vs0mg"},{"bike_id":"15771bc2-0a87-4d7d-b0f8-dcd1d196a8d6","system_id":"levelo_inurba_marseille","lat":43.28078,"lon":5.39658,"is_reserved":false,"is_disabled":false,"rental_uris":{"android":"levelo://app?vid=15771bc2-0a87-4d7d-b0f8-dcd1d196a8d6","ios":"levelo://app?vid=15771bc2-0a87-4d7d-b0f8-dcd1d196a8d6"},"vehicle_type_id":"4","last_reported":1728655723,"current_range_meters":2800,"station_id":"ce4bho12rcd13ifvqh2g","pricing_plan_id":"cebpf4jnsgd1na2vs0mg"},{"bike_id":"aa75c41c-1391-4d5a-b0ad-fb29c317877d","system_id":"levelo_inurba_marseille","lat":43.23063,"lon":5.35493,"is_reserved":false,"is_disabled":false,"rental_uris":{"android":"levelo://app?vid=aa75c41c-1391-4d5a-b0ad-fb29c317877d","ios":"levelo://app?vid=aa75c41c-1391-4d5a-b0ad-fb29c317877d"},"vehicle_type_id":"4","last_reported":1728655723,"current_range_meters":6000,"station_id":"cpo3342slgdg3j2ifvpg","pricing_plan_id":"cebpf4jnsgd1na2vs0mg"},{"bike_id":"89ae9d68-1ff4-4e49-aec5-6964e38a9f19","system_id":"levelo_inurba_marseille","lat":43.3061,"lon":5.37227,"is_reserved":false,"is_disabled":false,"rental_uris":{"android":"levelo://app?vid=89ae9d68-1ff4-4e49-aec5-6964e38a9f19","ios":"levelo://app?vid=89ae9d68-1ff4-4e49-aec5-6964e38a9f19"},"vehicle_type_id":"4","last_reported":1728655723,"current_range_meters":24400,"station_id":"ce4bgqh2rcd13ifvqc4g","pricing_plan_id":"cebpf4jnsgd1na2vs0mg"},{"bike_id":"1a0f090a-d6e7-4a1e-bfe5-0c2a632b851c","system_id":"levelo_inurba_marseille","lat":43.27166,"lon":5.4099,"is_reserved":false,"is_disabled":false,"rental_uris":{"android":"levelo://app?vid=1a0f090a-d6e7-4a1e-bfe5-0c2a632b851c","ios":"levelo://app?vid=1a0f090a-d6e7-4a1e-bfe5-0c2a632b851c"},"vehicle_type_id":"4","last_reported":1728655723,"current_range_meters":37600,"station_id":"ce4bhl12rcd13ifvqgf0","pricing_plan_id":"cebpf4jnsgd1na2vs0mg"},{"bike_id":"bcbf30f9-bc64-4538-a47e-a6a31220e84d","system_id":"levelo_inurba_marseille","lat":43.2997,"lon":5.37178,"is_reserved":false,"is_disabled":false,"rental_uris":{"android":"levelo://app?vid=bcbf30f9-bc64-4538-a47e-a6a31220e84d","ios":"levelo://app?vid=bcbf30f9-bc64-4538-a47e-a6a31220e84d"},"vehicle_type_id":"4","last_reported":1728655723,"current_range_meters":8000,"station_id":"","pricing_plan_id":"cebpf4jnsgd1na2vs0mg"},{"bike_id":"31f9b775-a9ee-4918-96f4-b4e9b4ef63c8","system_id":"levelo_inurba_marseille","lat":43.24166,"lon":5.36391,"is_reserved":false,"is_disabled":false,"rental_uris":{"android":"levelo://app?vid=31f9b775-a9ee-4918-96f4-b4e9b4ef63c8","ios":"levelo://app?vid=31f9b775-a9ee-4918-96f4-b4e9b4ef63c8"},"vehicle_type_id":"4","last_reported":1728655723,"current_range_meters":24800,"station_id":"cpo36qri1sfpv3e86is0","pricing_plan_id":"cebpf4jnsgd1na2vs0mg"},{"bike_id":"66c1d57d-3c71-42db-be34-4074a2f0c301","system_id":"levelo_inurba_marseille","lat":43.25861,"lon":5.39904,"is_reserved":false,"is_disabled":false,"rental_uris":{"android":"levelo://app?vid=66c1d57d-3c71-42db-be34-4074a2f0c301","ios":"levelo://app?vid=66c1d57d-3c71-42db-be34-4074a2f0c301"},"vehicle_type_id":"4","last_reported":1728655723,"current_range_meters":15200,"station_id":"ce4bhl92rcd13ifvqghg","pricing_plan_id":"cebpf4jnsgd1na2vs0mg"},{"bike_id":"645f7bfb-78c2-4285-abfc-4fb2be7863a7","system_id":"levelo_inurba_marseille","lat":43.30881,"lon":5.37203,"is_reserved":false,"is_disabled":false,"rental_uris":{"android":"levelo://app?vid=645f7bfb-78c2-4285-abfc-4fb2be7863a7","ios":"levelo://app?vid=645f7bfb-78c2-4285-abfc-4fb2be7863a7"},"vehicle_type_id":"4","last_reported":1728655723,"current_range_meters":38800,"station_id":"ce4bguh2rcd13ifvqckg","pricing_plan_id":"cebpf4jnsgd1na2vs0mg"},{"bike_id":"571d5718-a57f-42a9-8878-8f6b70587879","system_id":"levelo_inurba_marseille","lat":43.2694,"lon":5.40249,"is_reserved":false,"is_disabled":false,"rental_uris":{"android":"levelo://app?vid=571d5718-a57f-42a9-8878-8f6b70587879","ios":"levelo://app?vid=571d5718-a57f-42a9-8878-8f6b70587879"},"vehicle_type_id":"4","last_reported":1728655723,"current_range_meters":36800,"station_id":"cjm6bp8fraef2m0cb0m0","pricing_plan_id":"cebpf4jnsgd1na2vs0mg"},{"bike_id":"b1009450-6152-462c-a724-90df51eeb6db","system_id":"levelo_inurba_marseille","lat":43.32382,"lon":5.38917,"is_reserved":false,"is_disabled":false,"rental_uris":{"android":"levelo://app?vid=b1009450-6152-462c-a724-90df51eeb6db","ios":"levelo://app?vid=b1009450-6152-462c-a724-90df51eeb6db"},"vehicle_type_id":"4","last_reported":1728655723,"current_range_meters":5600,"station_id":"ce4bhqp2rcd13ifvqhog","pricing_plan_id":"cebpf4jnsgd1na2vs0mg"},{"bike_id":"e7ff8a71-08f6-4d85-81cd-23e686b45531","system_id":"levelo_inurba_marseille","lat":43.23196,"lon":5.35553,"is_reserved":false,"is_disabled":false,"rental_uris":{"android":"levelo://app?vid=e7ff8a71-08f6-4d85-81cd-23e686b45531","ios":"levelo://app?vid=e7ff8a71-08f6-4d85-81cd-23e686b45531"},"vehicle_type_id":"4","last_reported":1728655723,"current_range_meters":25200,"station_id":"ce4bhu92rcd13ifvqi70","pricing_plan_id":"cebpf4jnsgd1na2vs0mg"},{"bike_id":"19f5f42a-6adc-4145-8932-c12d978bc3e8","system_id":"levelo_inurba_marseille","lat":43.29844,"lon":5.36287,"is_reserved":false,"is_disabled":false,"rental_uris":{"android":"levelo://app?vid=19f5f42a-6adc-4145-8932-c12d978bc3e8","ios":"levelo://app?vid=19f5f42a-6adc-4145-8932-c12d978bc3e8"},"vehicle_type_id":"4","last_reported":1728655723,"current_range_meters":12800,"station_id":"ce4bgpp2rcd13ifvqc3g","pricing_plan_id":"cebpf4jnsgd1na2vs0mg"},{"bike_id":"e57eee6e-49c8-4cfb-a61d-0bf39603ab36","system_id":"levelo_inurba_marseille","lat":43.25501,"lon":5.37646,"is_reserved":false,"is_disabled":false,"rental_uris":{"android":"levelo://app?vid=e57eee6e-49c8-4cfb-a61d-0bf39603ab36","ios":"levelo://app?vid=e57eee6e-49c8-4cfb-a61d-0bf39603ab36"},"vehicle_type_id":"4","last_reported":1728655723,"current_range_meters":9600,"station_id":"ce4bhh12rcd13ifvqff0","pricing_plan_id":"cebpf4jnsgd1na2vs0mg"},{"bike_id":"273236b7-82cf-4c5b-add2-ae60f6144fbd","system_id":"levelo_inurba_marseille","lat":43.3014,"lon":5.37415,"is_reserved":false,"is_disabled":false,"rental_uris":{"android":"levelo://app?vid=273236b7-82cf-4c5b-add2-ae60f6144fbd","ios":"levelo://app?vid=273236b7-82cf-4c5b-add2-ae60f6144fbd"},"vehicle_type_id":"4","last_reported":1728655723,"current_range_meters":36800,"station_id":"ce4bgs92rcd13ifvqcc0","pricing_plan_id":"cebpf4jnsgd1na2vs0mg"},{"bike_id":"d15bb18b-7ad1-41e5-b85b-98d3de42750c","system_id":"levelo_inurba_marseille","lat":43.29894,"lon":5.4366,"is_reserved":false,"is_disabled":false,"rental_uris":{"android":"levelo://app?vid=d15bb18b-7ad1-41e5-b85b-98d3de42750c","ios":"levelo://app?vid=d15bb18b-7ad1-41e5-b85b-98d3de42750c"},"vehicle_type_id":"4","last_reported":1728655723,"current_range_meters":36000,"station_id":"ce4bhpp2rcd13ifvqhfg","pricing_plan_id":"cebpf4jnsgd1na2vs0mg"},{"bike_id":"41b6fa1a-91cc-47aa-87ba-072a2cea3e45","system_id":"levelo_inurba_marseille","lat":43.33023,"lon":5.39035,"is_reserved":false,"is_disabled":false,"rental_uris":{"android":"levelo://app?vid=41b6fa1a-91cc-47aa-87ba-072a2cea3e45","ios":"levelo://app?vid=41b6fa1a-91cc-47aa-87ba-072a2cea3e45"},"vehicle_type_id":"4","last_reported":1728655723,"current_range_meters":10000,"station_id":"ce4bhr92rcd13ifvqhrg","pricing_plan_id":"cebpf4jnsgd1na2vs0mg"},{"bike_id":"697179ec-19d4-47b1-a5c5-aed19302354f","system_id":"levelo_inurba_marseille","lat":43.25498,"lon":5.3765,"is_reserved":false,"is_disabled":false,"rental_uris":{"android":"levelo://app?vid=697179ec-19d4-47b1-a5c5-aed19302354f","ios":"levelo://app?vid=697179ec-19d4-47b1-a5c5-aed19302354f"},"vehicle_type_id":"4","last_reported":1728655723,"current_range_meters":8800,"station_id":"ce4bhh12rcd13ifvqff0","pricing_plan_id":"cebpf4jnsgd1na2vs0mg"},{"bike_id":"b1788b0c-85b2-4871-8f7e-54d26dcc3394","system_id":"levelo_inurba_marseille","lat":43.30888,"lon":5.37184,"is_reserved":false,"is_disabled":false,"rental_uris":{"android":"levelo://app?vid=b1788b0c-85b2-4871-8f7e-54d26dcc3394","ios":"levelo://app?vid=b1788b0c-85b2-4871-8f7e-54d26dcc3394"},"vehicle_type_id":"4","last_reported":1728655723,"current_range_meters":28000,"station_id":"ce4bguh2rcd13ifvqckg","pricing_plan_id":"cebpf4jnsgd1na2vs0mg"},{"bike_id":"a908a046-e782-42f1-924d-daff33132307","system_id":"levelo_inurba_marseille","lat":43.28567,"lon":5.39501,"is_reserved":false,"is_disabled":false,"rental_uris":{"android":"levelo://app?vid=a908a046-e782-42f1-924d-daff33132307","ios":"levelo://app?vid=a908a046-e782-42f1-924d-daff33132307"},"vehicle_type_id":"4","last_reported":1728655723,"current_range_meters":11200,"station_id":"ce4bh292rcd13ifvqdg0","pricing_plan_id":"cebpf4jnsgd1na2vs0mg"},{"bike_id":"678f1a96-41c8-412e-a637-265005ba5fd7","system_id":"levelo_inurba_marseille","lat":43.30187,"lon":5.36618,"is_reserved":false,"is_disabled":false,"rental_uris":{"android":"levelo://app?vid=678f1a96-41c8-412e-a637-265005ba5fd7","ios":"levelo://app?vid=678f1a96-41c8-412e-a637-265005ba5fd7"},"vehicle_type_id":"4","last_reported":1728655723,"current_range_meters":27200,"station_id":"ce4bgrh2rcd13ifvqc8g","pricing_plan_id":"cebpf4jnsgd1na2vs0mg"},{"bike_id":"9f9542f3-e05c-46c6-803b-8d62b2c4e40d","system_id":"levelo_inurba_marseille","lat":43.28154,"lon":5.42634,"is_reserved":false,"is_disabled":false,"rental_uris":{"android":"levelo://app?vid=9f9542f3-e05c-46c6-803b-8d62b2c4e40d","ios":"levelo://app?vid=9f9542f3-e05c-46c6-803b-8d62b2c4e40d"},"vehicle_type_id":"4","last_reported":1728655723,"current_range_meters":26800,"station_id":"ce4bhnh2rcd13ifvqgug","pricing_plan_id":"cebpf4jnsgd1na2vs0mg"},{"bike_id":"b625f39a-2d76-4608-b179-48bc7bda5389","system_id":"levelo_inurba_marseille","lat":43.31221,"lon":5.36843,"is_reserved":false,"is_disabled":false,"rental_uris":{"android":"levelo://app?vid=b625f39a-2d76-4608-b179-48bc7bda5389","ios":"levelo://app?vid=b625f39a-2d76-4608-b179-48bc7bda5389"},"vehicle_type_id":"4","last_reported":1728655723,"current_range_meters":0,"station_id":"ce4bgl92rcd13ifvqbq0","pricing_plan_id":"cebpf4jnsgd1na2vs0mg"},{"bike_id":"f95a634b-086f-41eb-b1a2-dc2ae7dba264","system_id":"levelo_inurba_marseille","lat":43.28257,"lon":5.35074,"is_reserved":false,"is_disabled":false,"rental_uris":{"android":"levelo://app?vid=f95a634b-086f-41eb-b1a2-dc2ae7dba264","ios":"levelo://app?vid=f95a634b-086f-41eb-b1a2-dc2ae7dba264"},"vehicle_type_id":"4","last_reported":1728655723,"current_range_meters":22800,"station_id":"ce4bhbp2rcd13ifvqerg","pricing_plan_id":"cebpf4jnsgd1na2vs0mg"},{"bike_id":"eafe9217-f34f-4c17-9fb3-ef0c6db51553","system_id":"levelo_inurba_marseille","lat":43.26489,"lon":5.39542,"is_reserved":false,"is_disabled":false,"rental_uris":{"android":"levelo://app?vid=eafe9217-f34f-4c17-9fb3-ef0c6db51553","ios":"levelo://app?vid=eafe9217-f34f-4c17-9fb3-ef0c6db51553"},"vehicle_type_id":"4","last_reported":1728655723,"current_range_meters":16000,"station_id":"ce4bhi12rcd13ifvqfq0","pricing_plan_id":"cebpf4jnsgd1na2vs0mg"},{"bike_id":"2d1a79aa-0c0a-46d3-aa06-2e320f73360a","system_id":"levelo_inurba_marseille","lat":43.26202,"lon":5.37451,"is_reserved":false,"is_disabled":false,"rental_uris":{"android":"levelo://app?vid=2d1a79aa-0c0a-46d3-aa06-2e320f73360a","ios":"levelo://app?vid=2d1a79aa-0c0a-46d3-aa06-2e320f73360a"},"vehicle_type_id":"4","last_reported":1728655723,"current_range_meters":8400,"station_id":"ce4bhgp2rcd13ifvqfc0","pricing_plan_id":"cebpf4jnsgd1na2vs0mg"},{"bike_id":"14c98214-2bfb-4943-8514-1fb1fd99e916","system_id":"levelo_inurba_marseille","lat":43.25626,"lon":5.393954,"is_reserved":false,"is_disabled":false,"rental_uris":{"android":"levelo://app?vid=14c98214-2bfb-4943-8514-1fb1fd99e916","ios":"levelo://app?vid=14c98214-2bfb-4943-8514-1fb1fd99e916"},"vehicle_type_id":"4","last_reported":1728655723,"current_range_meters":36800,"station_id":"ce4bhip2rcd13ifvqft0","pricing_plan_id":"cebpf4jnsgd1na2vs0mg"},{"bike_id":"e041d603-2959-4408-bf00-a1c35e7857da","system_id":"levelo_inurba_marseille","lat":43.30531,"lon":5.36534,"is_reserved":false,"is_disabled":false,"rental_uris":{"android":"levelo://app?vid=e041d603-2959-4408-bf00-a1c35e7857da","ios":"levelo://app?vid=e041d603-2959-4408-bf00-a1c35e7857da"},"vehicle_type_id":"4","last_reported":1728655723,"current_range_meters":29600,"station_id":"ce4bgs12rcd13ifvqcag","pricing_plan_id":"cebpf4jnsgd1na2vs0mg"},{"bike_id":"8c9a5779-48c6-4a49-b87c-4b9241d4f44b","system_id":"levelo_inurba_marseille","lat":43.337444,"lon":5.374475,"is_reserved":false,"is_disabled":false,"rental_uris":{"android":"levelo://app?vid=8c9a5779-48c6-4a49-b87c-4b9241d4f44b","ios":"levelo://app?vid=8c9a5779-48c6-4a49-b87c-4b9241d4f44b"},"vehicle_type_id":"4","last_reported":1728655723,"current_range_meters":10800,"station_id":"","pricing_plan_id":"cebpf4jnsgd1na2vs0mg"},{"bike_id":"14dabe4b-c30a-4b14-8646-dd91f231cabb","system_id":"levelo_inurba_marseille","lat":43.30135,"lon":5.37407,"is_reserved":false,"is_disabled":false,"rental_uris":{"android":"levelo://app?vid=14dabe4b-c30a-4b14-8646-dd91f231cabb","ios":"levelo://app?vid=14dabe4b-c30a-4b14-8646-dd91f231cabb"},"vehicle_type_id":"4","last_reported":1728655723,"current_range_meters":18000,"station_id":"ce4bgs92rcd13ifvqcc0","pricing_plan_id":"cebpf4jnsgd1na2vs0mg"},{"bike_id":"57c5b202-4d22-4168-b24f-1961bfc4e5db","system_id":"levelo_inurba_marseille","lat":43.2827,"lon":5.35074,"is_reserved":false,"is_disabled":false,"rental_uris":{"android":"levelo://app?vid=57c5b202-4d22-4168-b24f-1961bfc4e5db","ios":"levelo://app?vid=57c5b202-4d22-4168-b24f-1961bfc4e5db"},"vehicle_type_id":"4","last_reported":1728655723,"current_range_meters":38000,"station_id":"ce4bhbp2rcd13ifvqerg","pricing_plan_id":"cebpf4jnsgd1na2vs0mg"},{"bike_id":"81065468-d9a9-4abd-8ed5-6ee07c180978","system_id":"levelo_inurba_marseille","lat":43.31715,"lon":5.42404,"is_reserved":false,"is_disabled":false,"rental_uris":{"android":"levelo://app?vid=81065468-d9a9-4abd-8ed5-6ee07c180978","ios":"levelo://app?vid=81065468-d9a9-4abd-8ed5-6ee07c180978"},"vehicle_type_id":"4","last_reported":1728655723,"current_range_meters":22000,"station_id":"ce4bhp92rcd13ifvqhbg","pricing_plan_id":"cebpf4jnsgd1na2vs0mg"},{"bike_id":"fe8bfe5f-6b56-4544-a987-9773c5b6594d","system_id":"levelo_inurba_marseille","lat":43.337444,"lon":5.374475,"is_reserved":false,"is_disabled":false,"rental_uris":{"android":"levelo://app?vid=fe8bfe5f-6b56-4544-a987-9773c5b6594d","ios":"levelo://app?vid=fe8bfe5f-6b56-4544-a987-9773c5b6594d"},"vehicle_type_id":"4","last_reported":1728655723,"current_range_meters":36000,"station_id":"","pricing_plan_id":"cebpf4jnsgd1na2vs0mg"},{"bike_id":"516b9182-5518-407c-a669-e37ecdd727b0","system_id":"levelo_inurba_marseille","lat":43.29273,"lon":5.36779,"is_reserved":false,"is_disabled":false,"rental_uris":{"android":"levelo://app?vid=516b9182-5518-407c-a669-e37ecdd727b0","ios":"levelo://app?vid=516b9182-5518-407c-a669-e37ecdd727b0"},"vehicle_type_id":"4","last_reported":1728655723,"current_range_meters":7200,"station_id":"ce4bhbp2rcd13ifvqesg","pricing_plan_id":"cebpf4jnsgd1na2vs0mg"},{"bike_id":"74b637de-be89-410d-8071-43490bfbd46c","system_id":"levelo_inurba_marseille","lat":43.30638,"lon":5.40094,"is_reserved":false,"is_disabled":false,"rental_uris":{"android":"levelo://app?vid=74b637de-be89-410d-8071-43490bfbd46c","ios":"levelo://app?vid=74b637de-be89-410d-8071-43490bfbd46c"},"vehicle_type_id":"4","last_reported":1728655723,"current_range_meters":38800,"station_id":"ce4bh112rcd13ifvqda0","pricing_plan_id":"cebpf4jnsgd1na2vs0mg"},{"bike_id":"554d06a5-6d31-4fd9-9ee1-f664c95ea772","system_id":"levelo_inurba_marseille","lat":43.30887,"lon":5.39631,"is_reserved":false,"is_disabled":false,"rental_uris":{"android":"levelo://app?vid=554d06a5-6d31-4fd9-9ee1-f664c95ea772","ios":"levelo://app?vid=554d06a5-6d31-4fd9-9ee1-f664c95ea772"},"vehicle_type_id":"4","last_reported":1728655723,"current_range_meters":37600,"station_id":"ce4bh012rcd13ifvqcv0","pricing_plan_id":"cebpf4jnsgd1na2vs0mg"},{"bike_id":"86399c9b-cf0c-4b00-9f5f-a4d8bd639b5d","system_id":"levelo_inurba_marseille","lat":43.26552,"lon":5.37287,"is_reserved":false,"is_disabled":false,"rental_uris":{"android":"levelo://app?vid=86399c9b-cf0c-4b00-9f5f-a4d8bd639b5d","ios":"levelo://app?vid=86399c9b-cf0c-4b00-9f5f-a4d8bd639b5d"},"vehicle_type_id":"4","last_reported":1728655723,"current_range_meters":34000,"station_id":"ce4bhg12rcd13ifvqf70","pricing_plan_id":"cebpf4jnsgd1na2vs0mg"},{"bike_id":"384f7998-c20a-48f5-9a4b-f8228082c4e6","system_id":"levelo_inurba_marseille","lat":43.27169,"lon":5.40999,"is_reserved":false,"is_disabled":false,"rental_uris":{"android":"levelo://app?vid=384f7998-c20a-48f5-9a4b-f8228082c4e6","ios":"levelo://app?vid=384f7998-c20a-48f5-9a4b-f8228082c4e6"},"vehicle_type_id":"4","last_reported":1728655723,"current_range_meters":28800,"station_id":"ce4bhl12rcd13ifvqgf0","pricing_plan_id":"cebpf4jnsgd1na2vs0mg"},{"bike_id":"364ebaa8-af31-45fa-a121-639b46759e16","system_id":"levelo_inurba_marseille","lat":43.29845,"lon":5.37435,"is_reserved":false,"is_disabled":false,"rental_uris":{"android":"levelo://app?vid=364ebaa8-af31-45fa-a121-639b46759e16","ios":"levelo://app?vid=364ebaa8-af31-45fa-a121-639b46759e16"},"vehicle_type_id":"4","last_reported":1728655723,"current_range_meters":36800,"station_id":"ce4bgs92rcd13ifvqcc0","pricing_plan_id":"cebpf4jnsgd1na2vs0mg"},{"bike_id":"fca922bb-d61c-45de-80d8-50877370ea58","system_id":"levelo_inurba_marseille","lat":43.27117,"lon":5.40424,"is_reserved":false,"is_disabled":false,"rental_uris":{"android":"levelo://app?vid=fca922bb-d61c-45de-80d8-50877370ea58","ios":"levelo://app?vid=fca922bb-d61c-45de-80d8-50877370ea58"},"vehicle_type_id":"4","last_reported":1728655723,"current_range_meters":29600,"station_id":"ce4bhk92rcd13ifvqgc0","pricing_plan_id":"cebpf4jnsgd1na2vs0mg"},{"bike_id":"acecbd34-c049-48d9-a845-603cda8e2865","system_id":"levelo_inurba_marseille","lat":43.24072,"lon":5.37757,"is_reserved":false,"is_disabled":false,"rental_uris":{"android":"levelo://app?vid=acecbd34-c049-48d9-a845-603cda8e2865","ios":"levelo://app?vid=acecbd34-c049-48d9-a845-603cda8e2865"},"vehicle_type_id":"4","last_reported":1728655723,"current_range_meters":4000,"station_id":"ce4bhnp2rcd13ifvqgvg","pricing_plan_id":"cebpf4jnsgd1na2vs0mg"},{"bike_id":"993be520-4037-4a14-b4f9-1330051c73b4","system_id":"levelo_inurba_marseille","lat":43.31757,"lon":5.3901,"is_reserved":false,"is_disabled":false,"rental_uris":{"android":"levelo://app?vid=993be520-4037-4a14-b4f9-1330051c73b4","ios":"levelo://app?vid=993be520-4037-4a14-b4f9-1330051c73b4"},"vehicle_type_id":"4","last_reported":1728655723,"current_range_meters":38000,"station_id":"ce4bhqp2rcd13ifvqhng","pricing_plan_id":"cebpf4jnsgd1na2vs0mg"},{"bike_id":"0b51ffe8-fd6f-446f-88c2-32ebdee7f977","system_id":"levelo_inurba_marseille","lat":43.27423,"lon":5.39412,"is_reserved":false,"is_disabled":false,"rental_uris":{"android":"levelo://app?vid=0b51ffe8-fd6f-446f-88c2-32ebdee7f977","ios":"levelo://app?vid=0b51ffe8-fd6f-446f-88c2-32ebdee7f977"},"vehicle_type_id":"4","last_reported":1728655723,"current_range_meters":6400,"station_id":"ce4bhdp2rcd13ifvqf20","pricing_plan_id":"cebpf4jnsgd1na2vs0mg"},{"bike_id":"d38d496b-f346-46f5-9f86-459d36a411e1","system_id":"levelo_inurba_marseille","lat":43.29506,"lon":5.378742,"is_reserved":false,"is_disabled":false,"rental_uris":{"android":"levelo://app?vid=d38d496b-f346-46f5-9f86-459d36a411e1","ios":"levelo://app?vid=d38d496b-f346-46f5-9f86-459d36a411e1"},"vehicle_type_id":"4","last_reported":1728655723,"current_range_meters":38400,"station_id":"ce4bgi12rcd13ifvqb70","pricing_plan_id":"cebpf4jnsgd1na2vs0mg"},{"bike_id":"d0a133a8-138d-44ed-95f7-1a2fd5d3494e","system_id":"levelo_inurba_marseille","lat":43.28848,"lon":5.39311,"is_reserved":false,"is_disabled":false,"rental_uris":{"android":"levelo://app?vid=d0a133a8-138d-44ed-95f7-1a2fd5d3494e","ios":"levelo://app?vid=d0a133a8-138d-44ed-95f7-1a2fd5d3494e"},"vehicle_type_id":"4","last_reported":1728655723,"current_range_meters":10800,"station_id":"ce4bh2p2rcd13ifvqdi0","pricing_plan_id":"cebpf4jnsgd1na2vs0mg"},{"bike_id":"d0bcf234-798b-4c72-885f-7da24c2fef9e","system_id":"levelo_inurba_marseille","lat":43.32764,"lon":5.38961,"is_reserved":false,"is_disabled":false,"rental_uris":{"android":"levelo://app?vid=d0bcf234-798b-4c72-885f-7da24c2fef9e","ios":"levelo://app?vid=d0bcf234-798b-4c72-885f-7da24c2fef9e"},"vehicle_type_id":"4","last_reported":1728655723,"current_range_meters":38800,"station_id":"","pricing_plan_id":"cebpf4jnsgd1na2vs0mg"},{"bike_id":"c87484b0-e04a-4017-bf2d-cd8c5fa642b3","system_id":"levelo_inurba_marseille","lat":43.25111,"lon":5.40323,"is_reserved":false,"is_disabled":false,"rental_uris":{"android":"levelo://app?vid=c87484b0-e04a-4017-bf2d-cd8c5fa642b3","ios":"levelo://app?vid=c87484b0-e04a-4017-bf2d-cd8c5fa642b3"},"vehicle_type_id":"4","last_reported":1728655723,"current_range_meters":17200,"station_id":"ce4bhlh2rcd13ifvqgig","pricing_plan_id":"cebpf4jnsgd1na2vs0mg"},{"bike_id":"9f21766f-0837-4bcb-a575-e8ce2df39312","system_id":"levelo_inurba_marseille","lat":43.3302,"lon":5.3904,"is_reserved":false,"is_disabled":false,"rental_uris":{"android":"levelo://app?vid=9f21766f-0837-4bcb-a575-e8ce2df39312","ios":"levelo://app?vid=9f21766f-0837-4bcb-a575-e8ce2df39312"},"vehicle_type_id":"4","last_reported":1728655723,"current_range_meters":28400,"station_id":"ce4bhr92rcd13ifvqhrg","pricing_plan_id":"cebpf4jnsgd1na2vs0mg"},{"bike_id":"1474adbe-c663-479e-85dd-c5a712d477f6","system_id":"levelo_inurba_marseille","lat":43.30932,"lon":5.40144,"is_reserved":false,"is_disabled":false,"rental_uris":{"android":"levelo://app?vid=1474adbe-c663-479e-85dd-c5a712d477f6","ios":"levelo://app?vid=1474adbe-c663-479e-85dd-c5a712d477f6"},"vehicle_type_id":"4","last_reported":1728655723,"current_range_meters":35200,"station_id":"ce4bgvp2rcd13ifvqct0","pricing_plan_id":"cebpf4jnsgd1na2vs0mg"},{"bike_id":"496c5f62-9e39-402a-8e70-cbc314c52699","system_id":"levelo_inurba_marseille","lat":43.29965,"lon":5.38494,"is_reserved":false,"is_disabled":false,"rental_uris":{"android":"levelo://app?vid=496c5f62-9e39-402a-8e70-cbc314c52699","ios":"levelo://app?vid=496c5f62-9e39-402a-8e70-cbc314c52699"},"vehicle_type_id":"4","last_reported":1728655723,"current_range_meters":8400,"station_id":"ce4bgj92rcd13ifvqbd0","pricing_plan_id":"cebpf4jnsgd1na2vs0mg"},{"bike_id":"673a69ee-3900-4626-ae86-8a7a5f17ae55","system_id":"levelo_inurba_marseille","lat":43.28267,"lon":5.35066,"is_reserved":false,"is_disabled":false,"rental_uris":{"android":"levelo://app?vid=673a69ee-3900-4626-ae86-8a7a5f17ae55","ios":"levelo://app?vid=673a69ee-3900-4626-ae86-8a7a5f17ae55"},"vehicle_type_id":"4","last_reported":1728655723,"current_range_meters":24800,"station_id":"ce4bhbp2rcd13ifvqerg","pricing_plan_id":"cebpf4jnsgd1na2vs0mg"},{"bike_id":"930df0d0-a7d0-4c57-9cb8-60affbbb68dc","system_id":"levelo_inurba_marseille","lat":43.31068,"lon":5.40087,"is_reserved":false,"is_disabled":false,"rental_uris":{"android":"levelo://app?vid=930df0d0-a7d0-4c57-9cb8-60affbbb68dc","ios":"levelo://app?vid=930df0d0-a7d0-4c57-9cb8-60affbbb68dc"},"vehicle_type_id":"4","last_reported":1728655723,"current_range_meters":12000,"station_id":"","pricing_plan_id":"cebpf4jnsgd1na2vs0mg"},{"bike_id":"7295ae03-64ab-48ab-bdc2-f5c59064c566","system_id":"levelo_inurba_marseille","lat":43.25491,"lon":5.37648,"is_reserved":false,"is_disabled":false,"rental_uris":{"android":"levelo://app?vid=7295ae03-64ab-48ab-bdc2-f5c59064c566","ios":"levelo://app?vid=7295ae03-64ab-48ab-bdc2-f5c59064c566"},"vehicle_type_id":"4","last_reported":1728655723,"current_range_meters":9600,"station_id":"ce4bhh12rcd13ifvqff0","pricing_plan_id":"cebpf4jnsgd1na2vs0mg"},{"bike_id":"315d7ae0-1921-43f6-aa18-94c31c5fa005","system_id":"levelo_inurba_marseille","lat":43.27618,"lon":5.36111,"is_reserved":false,"is_disabled":false,"rental_uris":{"android":"levelo://app?vid=315d7ae0-1921-43f6-aa18-94c31c5fa005","ios":"levelo://app?vid=315d7ae0-1921-43f6-aa18-94c31c5fa005"},"vehicle_type_id":"4","last_reported":1728655723,"current_range_meters":16400,"station_id":"ce4bgj92rcd13ifvqbe0","pricing_plan_id":"cebpf4jnsgd1na2vs0mg"},{"bike_id":"8e77bb3e-c7fb-4cd2-be75-929c20dbdce5","system_id":"levelo_inurba_marseille","lat":43.31756,"lon":5.39014,"is_reserved":false,"is_disabled":false,"rental_uris":{"android":"levelo://app?vid=8e77bb3e-c7fb-4cd2-be75-929c20dbdce5","ios":"levelo://app?vid=8e77bb3e-c7fb-4cd2-be75-929c20dbdce5"},"vehicle_type_id":"4","last_reported":1728655723,"current_range_meters":18000,"station_id":"ce4bhqp2rcd13ifvqhng","pricing_plan_id":"cebpf4jnsgd1na2vs0mg"},{"bike_id":"734916ca-3c52-4f62-996a-c599e6bedb5b","system_id":"levelo_inurba_marseille","lat":43.29509,"lon":5.39399,"is_reserved":false,"is_disabled":false,"rental_uris":{"android":"levelo://app?vid=734916ca-3c52-4f62-996a-c599e6bedb5b","ios":"levelo://app?vid=734916ca-3c52-4f62-996a-c599e6bedb5b"},"vehicle_type_id":"4","last_reported":1728655723,"current_range_meters":34000,"station_id":"ce4bh292rcd13ifvqdf0","pricing_plan_id":"cebpf4jnsgd1na2vs0mg"},{"bike_id":"eba6adf8-8c87-4fdc-b893-d39ca47fb879","system_id":"levelo_inurba_marseille","lat":43.31886,"lon":5.40736,"is_reserved":false,"is_disabled":false,"rental_uris":{"android":"levelo://app?vid=eba6adf8-8c87-4fdc-b893-d39ca47fb879","ios":"levelo://app?vid=eba6adf8-8c87-4fdc-b893-d39ca47fb879"},"vehicle_type_id":"4","last_reported":1728655723,"current_range_meters":37600,"station_id":"ce4bhq12rcd13ifvqhig","pricing_plan_id":"cebpf4jnsgd1na2vs0mg"},{"bike_id":"c462ac31-e294-4267-bc1b-a4f664716350","system_id":"levelo_inurba_marseille","lat":43.23191,"lon":5.35544,"is_reserved":false,"is_disabled":false,"rental_uris":{"android":"levelo://app?vid=c462ac31-e294-4267-bc1b-a4f664716350","ios":"levelo://app?vid=c462ac31-e294-4267-bc1b-a4f664716350"},"vehicle_type_id":"4","last_reported":1728655723,"current_range_meters":26800,"station_id":"ce4bhu92rcd13ifvqi70","pricing_plan_id":"cebpf4jnsgd1na2vs0mg"},{"bike_id":"920b06f8-4c5a-4250-99a7-0e46725f8102","system_id":"levelo_inurba_marseille","lat":43.32365,"lon":5.38888,"is_reserved":false,"is_disabled":false,"rental_uris":{"android":"levelo://app?vid=920b06f8-4c5a-4250-99a7-0e46725f8102","ios":"levelo://app?vid=920b06f8-4c5a-4250-99a7-0e46725f8102"},"vehicle_type_id":"4","last_reported":1728655723,"current_range_meters":8400,"station_id":"ce4bhqp2rcd13ifvqhog","pricing_plan_id":"cebpf4jnsgd1na2vs0mg"},{"bike_id":"d8044ce8-3e85-4f02-ba8e-e7bc809696ea","system_id":"levelo_inurba_marseille","lat":43.30269,"lon":5.37715,"is_reserved":false,"is_disabled":false,"rental_uris":{"android":"levelo://app?vid=d8044ce8-3e85-4f02-ba8e-e7bc809696ea","ios":"levelo://app?vid=d8044ce8-3e85-4f02-ba8e-e7bc809696ea"},"vehicle_type_id":"4","last_reported":1728655723,"current_range_meters":5600,"station_id":"ce4bguh2rcd13ifvqcj0","pricing_plan_id":"cebpf4jnsgd1na2vs0mg"},{"bike_id":"df37e778-64f1-4bf1-a355-00b2cd20b0d9","system_id":"levelo_inurba_marseille","lat":43.23064,"lon":5.35491,"is_reserved":false,"is_disabled":false,"rental_uris":{"android":"levelo://app?vid=df37e778-64f1-4bf1-a355-00b2cd20b0d9","ios":"levelo://app?vid=df37e778-64f1-4bf1-a355-00b2cd20b0d9"},"vehicle_type_id":"4","last_reported":1728655723,"current_range_meters":23200,"station_id":"cpo3342slgdg3j2ifvpg","pricing_plan_id":"cebpf4jnsgd1na2vs0mg"},{"bike_id":"91e3ec78-c2b8-4b98-9ac9-36053e95c07e","system_id":"levelo_inurba_marseille","lat":43.28452,"lon":5.35884,"is_reserved":false,"is_disabled":false,"rental_uris":{"android":"levelo://app?vid=91e3ec78-c2b8-4b98-9ac9-36053e95c07e","ios":"levelo://app?vid=91e3ec78-c2b8-4b98-9ac9-36053e95c07e"},"vehicle_type_id":"4","last_reported":1728655723,"current_range_meters":29600,"station_id":"ce4bhah2rcd13ifvqei0","pricing_plan_id":"cebpf4jnsgd1na2vs0mg"},{"bike_id":"62f7bceb-8e72-472a-a589-7900089048c2","system_id":"levelo_inurba_marseille","lat":43.30887,"lon":5.37193,"is_reserved":false,"is_disabled":false,"rental_uris":{"android":"levelo://app?vid=62f7bceb-8e72-472a-a589-7900089048c2","ios":"levelo://app?vid=62f7bceb-8e72-472a-a589-7900089048c2"},"vehicle_type_id":"4","last_reported":1728655723,"current_range_meters":9600,"station_id":"ce4bguh2rcd13ifvqckg","pricing_plan_id":"cebpf4jnsgd1na2vs0mg"},{"bike_id":"5e0c23ab-68b4-4b65-97b8-e09acae389ef","system_id":"levelo_inurba_marseille","lat":43.28267,"lon":5.35064,"is_reserved":false,"is_disabled":false,"rental_uris":{"android":"levelo://app?vid=5e0c23ab-68b4-4b65-97b8-e09acae389ef","ios":"levelo://app?vid=5e0c23ab-68b4-4b65-97b8-e09acae389ef"},"vehicle_type_id":"4","last_reported":1728655723,"current_range_meters":14000,"station_id":"ce4bhbp2rcd13ifvqerg","pricing_plan_id":"cebpf4jnsgd1na2vs0mg"},{"bike_id":"903163cf-eb99-4ed2-9fbb-35d0734d4f5f","system_id":"levelo_inurba_marseille","lat":43.297917,"lon":5.39357,"is_reserved":false,"is_disabled":false,"rental_uris":{"android":"levelo://app?vid=903163cf-eb99-4ed2-9fbb-35d0734d4f5f","ios":"levelo://app?vid=903163cf-eb99-4ed2-9fbb-35d0734d4f5f"},"vehicle_type_id":"4","last_reported":1728655723,"current_range_meters":25200,"station_id":"chh1huq6cuj3fo74tm60","pricing_plan_id":"cebpf4jnsgd1na2vs0mg"},{"bike_id":"e1d9cbe5-a298-4c39-84b2-d37171d9e332","system_id":"levelo_inurba_marseille","lat":43.27965,"lon":5.38751,"is_reserved":false,"is_disabled":false,"rental_uris":{"android":"levelo://app?vid=e1d9cbe5-a298-4c39-84b2-d37171d9e332","ios":"levelo://app?vid=e1d9cbe5-a298-4c39-84b2-d37171d9e332"},"vehicle_type_id":"4","last_reported":1728655723,"current_range_meters":28400,"station_id":"ce4bhg12rcd13ifvqf80","pricing_plan_id":"cebpf4jnsgd1na2vs0mg"},{"bike_id":"eb2e85f4-0d7b-4246-b9c9-60288f20b4f9","system_id":"levelo_inurba_marseille","lat":43.24181,"lon":5.39729,"is_reserved":false,"is_disabled":false,"rental_uris":{"android":"levelo://app?vid=eb2e85f4-0d7b-4246-b9c9-60288f20b4f9","ios":"levelo://app?vid=eb2e85f4-0d7b-4246-b9c9-60288f20b4f9"},"vehicle_type_id":"4","last_reported":1728655723,"current_range_meters":14000,"station_id":"ce4bhn12rcd13ifvqgpg","pricing_plan_id":"cebpf4jnsgd1na2vs0mg"},{"bike_id":"054c5f7f-a71d-4647-96dd-63ae3161825f","system_id":"levelo_inurba_marseille","lat":43.295532,"lon":5.394118,"is_reserved":false,"is_disabled":false,"rental_uris":{"android":"levelo://app?vid=054c5f7f-a71d-4647-96dd-63ae3161825f","ios":"levelo://app?vid=054c5f7f-a71d-4647-96dd-63ae3161825f"},"vehicle_type_id":"4","last_reported":1728655723,"current_range_meters":32000,"station_id":"ce4bh292rcd13ifvqdf0","pricing_plan_id":"cebpf4jnsgd1na2vs0mg"},{"bike_id":"69584b0e-9bfe-44eb-a29b-f3e8d6d14aa5","system_id":"levelo_inurba_marseille","lat":43.28264,"lon":5.35061,"is_reserved":false,"is_disabled":false,"rental_uris":{"android":"levelo://app?vid=69584b0e-9bfe-44eb-a29b-f3e8d6d14aa5","ios":"levelo://app?vid=69584b0e-9bfe-44eb-a29b-f3e8d6d14aa5"},"vehicle_type_id":"4","last_reported":1728655723,"current_range_meters":28000,"station_id":"ce4bhbp2rcd13ifvqerg","pricing_plan_id":"cebpf4jnsgd1na2vs0mg"},{"bike_id":"9cf3db70-1431-4372-b452-2d0770d0c15d","system_id":"levelo_inurba_marseille","lat":43.23194,"lon":5.35553,"is_reserved":false,"is_disabled":false,"rental_uris":{"android":"levelo://app?vid=9cf3db70-1431-4372-b452-2d0770d0c15d","ios":"levelo://app?vid=9cf3db70-1431-4372-b452-2d0770d0c15d"},"vehicle_type_id":"4","last_reported":1728655723,"current_range_meters":38000,"station_id":"ce4bhu92rcd13ifvqi70","pricing_plan_id":"cebpf4jnsgd1na2vs0mg"},{"bike_id":"6062f3f1-e22a-4aee-8990-9ef72f3613fe","system_id":"levelo_inurba_marseille","lat":43.28943,"lon":5.36406,"is_reserved":false,"is_disabled":false,"rental_uris":{"android":"levelo://app?vid=6062f3f1-e22a-4aee-8990-9ef72f3613fe","ios":"levelo://app?vid=6062f3f1-e22a-4aee-8990-9ef72f3613fe"},"vehicle_type_id":"4","last_reported":1728655723,"current_range_meters":19600,"station_id":"ce4bhc92rcd13ifvqetg","pricing_plan_id":"cebpf4jnsgd1na2vs0mg"},{"bike_id":"7b6baa85-f647-4dbc-bee4-af88f44a8bf2","system_id":"levelo_inurba_marseille","lat":43.22923,"lon":5.35376,"is_reserved":false,"is_disabled":false,"rental_uris":{"android":"levelo://app?vid=7b6baa85-f647-4dbc-bee4-af88f44a8bf2","ios":"levelo://app?vid=7b6baa85-f647-4dbc-bee4-af88f44a8bf2"},"vehicle_type_id":"4","last_reported":1728655723,"current_range_meters":24400,"station_id":"cpo3532slgdg3j2ikp40","pricing_plan_id":"cebpf4jnsgd1na2vs0mg"},{"bike_id":"35db92f5-ff79-4ffe-a1dd-77d0697d3fb5","system_id":"levelo_inurba_marseille","lat":43.29187,"lon":5.358052,"is_reserved":false,"is_disabled":false,"rental_uris":{"android":"levelo://app?vid=35db92f5-ff79-4ffe-a1dd-77d0697d3fb5","ios":"levelo://app?vid=35db92f5-ff79-4ffe-a1dd-77d0697d3fb5"},"vehicle_type_id":"4","last_reported":1728655723,"current_range_meters":38800,"station_id":"ce4bhb12rcd13ifvqel0","pricing_plan_id":"cebpf4jnsgd1na2vs0mg"},{"bike_id":"f2864afc-20a6-4be4-a3f3-e85606725cd3","system_id":"levelo_inurba_marseille","lat":43.27161,"lon":5.40987,"is_reserved":false,"is_disabled":false,"rental_uris":{"android":"levelo://app?vid=f2864afc-20a6-4be4-a3f3-e85606725cd3","ios":"levelo://app?vid=f2864afc-20a6-4be4-a3f3-e85606725cd3"},"vehicle_type_id":"4","last_reported":1728655723,"current_range_meters":36400,"station_id":"ce4bhl12rcd13ifvqgf0","pricing_plan_id":"cebpf4jnsgd1na2vs0mg"},{"bike_id":"01a61abd-cede-4ef0-a4aa-b3fd73ae1806","system_id":"levelo_inurba_marseille","lat":43.28152,"lon":5.42649,"is_reserved":false,"is_disabled":false,"rental_uris":{"android":"levelo://app?vid=01a61abd-cede-4ef0-a4aa-b3fd73ae1806","ios":"levelo://app?vid=01a61abd-cede-4ef0-a4aa-b3fd73ae1806"},"vehicle_type_id":"4","last_reported":1728655723,"current_range_meters":28800,"station_id":"ce4bhnh2rcd13ifvqgug","pricing_plan_id":"cebpf4jnsgd1na2vs0mg"},{"bike_id":"15e07fb3-da18-49f1-a631-6877eb8ace30","system_id":"levelo_inurba_marseille","lat":43.25497,"lon":5.37648,"is_reserved":false,"is_disabled":false,"rental_uris":{"android":"levelo://app?vid=15e07fb3-da18-49f1-a631-6877eb8ace30","ios":"levelo://app?vid=15e07fb3-da18-49f1-a631-6877eb8ace30"},"vehicle_type_id":"4","last_reported":1728655723,"current_range_meters":21600,"station_id":"ce4bhh12rcd13ifvqff0","pricing_plan_id":"cebpf4jnsgd1na2vs0mg"},{"bike_id":"9a879b36-0237-4be8-b57d-5a7c26f4ed1a","system_id":"levelo_inurba_marseille","lat":43.32476,"lon":5.3656,"is_reserved":false,"is_disabled":false,"rental_uris":{"android":"levelo://app?vid=9a879b36-0237-4be8-b57d-5a7c26f4ed1a","ios":"levelo://app?vid=9a879b36-0237-4be8-b57d-5a7c26f4ed1a"},"vehicle_type_id":"4","last_reported":1728655723,"current_range_meters":24400,"station_id":"ce4bhs12rcd13ifvqhvg","pricing_plan_id":"cebpf4jnsgd1na2vs0mg"},{"bike_id":"3c25dded-f8d5-4193-a336-9fad641c4aac","system_id":"levelo_inurba_marseille","lat":43.33766,"lon":5.37447,"is_reserved":false,"is_disabled":false,"rental_uris":{"android":"levelo://app?vid=3c25dded-f8d5-4193-a336-9fad641c4aac","ios":"levelo://app?vid=3c25dded-f8d5-4193-a336-9fad641c4aac"},"vehicle_type_id":"4","last_reported":1728655723,"current_range_meters":11600,"station_id":"","pricing_plan_id":"cebpf4jnsgd1na2vs0mg"},{"bike_id":"e5971838-2555-4fb4-abcd-47bbab18960e","system_id":"levelo_inurba_marseille","lat":43.3063,"lon":5.38226,"is_reserved":false,"is_disabled":false,"rental_uris":{"android":"levelo://app?vid=e5971838-2555-4fb4-abcd-47bbab18960e","ios":"levelo://app?vid=e5971838-2555-4fb4-abcd-47bbab18960e"},"vehicle_type_id":"4","last_reported":1728655723,"current_range_meters":6400,"station_id":"","pricing_plan_id":"cebpf4jnsgd1na2vs0mg"},{"bike_id":"dc6eafa3-5788-4023-80c6-10d06bb3373f","system_id":"levelo_inurba_marseille","lat":43.31709,"lon":5.43706,"is_reserved":false,"is_disabled":false,"rental_uris":{"android":"levelo://app?vid=dc6eafa3-5788-4023-80c6-10d06bb3373f","ios":"levelo://app?vid=dc6eafa3-5788-4023-80c6-10d06bb3373f"},"vehicle_type_id":"4","last_reported":1728655723,"current_range_meters":17600,"station_id":"ce4bhp92rcd13ifvqhcg","pricing_plan_id":"cebpf4jnsgd1na2vs0mg"},{"bike_id":"5ea3c044-68a9-41e6-9592-30371aea6ec0","system_id":"levelo_inurba_marseille","lat":43.251,"lon":5.4033,"is_reserved":false,"is_disabled":false,"rental_uris":{"android":"levelo://app?vid=5ea3c044-68a9-41e6-9592-30371aea6ec0","ios":"levelo://app?vid=5ea3c044-68a9-41e6-9592-30371aea6ec0"},"vehicle_type_id":"4","last_reported":1728655723,"current_range_meters":15200,"station_id":"ce4bhlh2rcd13ifvqgig","pricing_plan_id":"cebpf4jnsgd1na2vs0mg"},{"bike_id":"7975faaf-f260-41c7-87cd-147b9a3b3ebf","system_id":"levelo_inurba_marseille","lat":43.23056,"lon":5.35488,"is_reserved":false,"is_disabled":false,"rental_uris":{"android":"levelo://app?vid=7975faaf-f260-41c7-87cd-147b9a3b3ebf","ios":"levelo://app?vid=7975faaf-f260-41c7-87cd-147b9a3b3ebf"},"vehicle_type_id":"4","last_reported":1728655723,"current_range_meters":14000,"station_id":"cpo3342slgdg3j2ifvpg","pricing_plan_id":"cebpf4jnsgd1na2vs0mg"},{"bike_id":"c11c8a90-0cdd-415e-8933-cf994d3fe923","system_id":"levelo_inurba_marseille","lat":43.30548,"lon":5.36702,"is_reserved":false,"is_disabled":false,"rental_uris":{"android":"levelo://app?vid=c11c8a90-0cdd-415e-8933-cf994d3fe923","ios":"levelo://app?vid=c11c8a90-0cdd-415e-8933-cf994d3fe923"},"vehicle_type_id":"4","last_reported":1728655723,"current_range_meters":28000,"station_id":"ce4bgrp2rcd13ifvqc9g","pricing_plan_id":"cebpf4jnsgd1na2vs0mg"},{"bike_id":"703d5faf-e8f5-42e8-a15c-36acb1ae64d2","system_id":"levelo_inurba_marseille","lat":43.22934,"lon":5.35377,"is_reserved":false,"is_disabled":false,"rental_uris":{"android":"levelo://app?vid=703d5faf-e8f5-42e8-a15c-36acb1ae64d2","ios":"levelo://app?vid=703d5faf-e8f5-42e8-a15c-36acb1ae64d2"},"vehicle_type_id":"4","last_reported":1728655723,"current_range_meters":4000,"station_id":"cpo3532slgdg3j2ikp40","pricing_plan_id":"cebpf4jnsgd1na2vs0mg"},{"bike_id":"cd390a27-baa1-410a-806e-47e180433336","system_id":"levelo_inurba_marseille","lat":43.25864,"lon":5.39903,"is_reserved":false,"is_disabled":false,"rental_uris":{"android":"levelo://app?vid=cd390a27-baa1-410a-806e-47e180433336","ios":"levelo://app?vid=cd390a27-baa1-410a-806e-47e180433336"},"vehicle_type_id":"4","last_reported":1728655723,"current_range_meters":8400,"station_id":"ce4bhl92rcd13ifvqghg","pricing_plan_id":"cebpf4jnsgd1na2vs0mg"},{"bike_id":"9b1c1d24-c1a1-45ba-9ed5-0815749ebd12","system_id":"levelo_inurba_marseille","lat":43.27677,"lon":5.38878,"is_reserved":false,"is_disabled":false,"rental_uris":{"android":"levelo://app?vid=9b1c1d24-c1a1-45ba-9ed5-0815749ebd12","ios":"levelo://app?vid=9b1c1d24-c1a1-45ba-9ed5-0815749ebd12"},"vehicle_type_id":"4","last_reported":1728655723,"current_range_meters":25200,"station_id":"ce4bhi12rcd13ifvqfo0","pricing_plan_id":"cebpf4jnsgd1na2vs0mg"},{"bike_id":"6ba2ee69-3fb7-4ca1-9042-b41eb697e479","system_id":"levelo_inurba_marseille","lat":43.25121,"lon":5.40315,"is_reserved":false,"is_disabled":false,"rental_uris":{"android":"levelo://app?vid=6ba2ee69-3fb7-4ca1-9042-b41eb697e479","ios":"levelo://app?vid=6ba2ee69-3fb7-4ca1-9042-b41eb697e479"},"vehicle_type_id":"4","last_reported":1728655723,"current_range_meters":9600,"station_id":"ce4bhlh2rcd13ifvqgig","pricing_plan_id":"cebpf4jnsgd1na2vs0mg"},{"bike_id":"3aad3646-e8c6-41a7-9b98-b21350923b86","system_id":"levelo_inurba_marseille","lat":43.295754,"lon":5.381466,"is_reserved":false,"is_disabled":false,"rental_uris":{"android":"levelo://app?vid=3aad3646-e8c6-41a7-9b98-b21350923b86","ios":"levelo://app?vid=3aad3646-e8c6-41a7-9b98-b21350923b86"},"vehicle_type_id":"4","last_reported":1728655723,"current_range_meters":30400,"station_id":"ce4bgl12rcd13ifvqbo0","pricing_plan_id":"cebpf4jnsgd1na2vs0mg"},{"bike_id":"38615f14-5236-4963-b830-1ab47c92ccb6","system_id":"levelo_inurba_marseille","lat":43.24169,"lon":5.36396,"is_reserved":false,"is_disabled":false,"rental_uris":{"android":"levelo://app?vid=38615f14-5236-4963-b830-1ab47c92ccb6","ios":"levelo://app?vid=38615f14-5236-4963-b830-1ab47c92ccb6"},"vehicle_type_id":"4","last_reported":1728655723,"current_range_meters":37600,"station_id":"cpo36qri1sfpv3e86is0","pricing_plan_id":"cebpf4jnsgd1na2vs0mg"},{"bike_id":"0230b24e-4eb9-4ae3-a5da-c517dad2e8e5","system_id":"levelo_inurba_marseille","lat":43.23957,"lon":5.36634,"is_reserved":false,"is_disabled":false,"rental_uris":{"android":"levelo://app?vid=0230b24e-4eb9-4ae3-a5da-c517dad2e8e5","ios":"levelo://app?vid=0230b24e-4eb9-4ae3-a5da-c517dad2e8e5"},"vehicle_type_id":"4","last_reported":1728655723,"current_range_meters":6400,"station_id":"ce4bhi12rcd13ifvqfp0","pricing_plan_id":"cebpf4jnsgd1na2vs0mg"},{"bike_id":"e7b49636-cefa-450a-ba52-4d5362cb1c52","system_id":"levelo_inurba_marseille","lat":43.23194,"lon":5.35552,"is_reserved":false,"is_disabled":false,"rental_uris":{"android":"levelo://app?vid=e7b49636-cefa-450a-ba52-4d5362cb1c52","ios":"levelo://app?vid=e7b49636-cefa-450a-ba52-4d5362cb1c52"},"vehicle_type_id":"4","last_reported":1728655723,"current_range_meters":24000,"station_id":"ce4bhu92rcd13ifvqi70","pricing_plan_id":"cebpf4jnsgd1na2vs0mg"},{"bike_id":"75b90716-3955-4020-924b-f088e36b4164","system_id":"levelo_inurba_marseille","lat":43.25111,"lon":5.4032,"is_reserved":false,"is_disabled":false,"rental_uris":{"android":"levelo://app?vid=75b90716-3955-4020-924b-f088e36b4164","ios":"levelo://app?vid=75b90716-3955-4020-924b-f088e36b4164"},"vehicle_type_id":"4","last_reported":1728655723,"current_range_meters":6000,"station_id":"ce4bhlh2rcd13ifvqgig","pricing_plan_id":"cebpf4jnsgd1na2vs0mg"},{"bike_id":"d91cb184-b1a9-41f1-983d-3d2a078b47cf","system_id":"levelo_inurba_marseille","lat":43.25865,"lon":5.39898,"is_reserved":false,"is_disabled":false,"rental_uris":{"android":"levelo://app?vid=d91cb184-b1a9-41f1-983d-3d2a078b47cf","ios":"levelo://app?vid=d91cb184-b1a9-41f1-983d-3d2a078b47cf"},"vehicle_type_id":"4","last_reported":1728655723,"current_range_meters":28000,"station_id":"ce4bhl92rcd13ifvqghg","pricing_plan_id":"cebpf4jnsgd1na2vs0mg"},{"bike_id":"632a5a84-e29a-499b-bda8-fad7ef7b49ac","system_id":"levelo_inurba_marseille","lat":43.30189,"lon":5.36608,"is_reserved":false,"is_disabled":false,"rental_uris":{"android":"levelo://app?vid=632a5a84-e29a-499b-bda8-fad7ef7b49ac","ios":"levelo://app?vid=632a5a84-e29a-499b-bda8-fad7ef7b49ac"},"vehicle_type_id":"4","last_reported":1728655723,"current_range_meters":30800,"station_id":"ce4bgrh2rcd13ifvqc8g","pricing_plan_id":"cebpf4jnsgd1na2vs0mg"},{"bike_id":"d30141cb-acde-4164-86ab-73d7aa9abfa5","system_id":"levelo_inurba_marseille","lat":43.31165,"lon":5.38724,"is_reserved":false,"is_disabled":false,"rental_uris":{"android":"levelo://app?vid=d30141cb-acde-4164-86ab-73d7aa9abfa5","ios":"levelo://app?vid=d30141cb-acde-4164-86ab-73d7aa9abfa5"},"vehicle_type_id":"4","last_reported":1728655723,"current_range_meters":37600,"station_id":"ce4bgv12rcd13ifvqcp0","pricing_plan_id":"cebpf4jnsgd1na2vs0mg"},{"bike_id":"1e5fb3cb-414c-4296-9c29-9b740f8a898c","system_id":"levelo_inurba_marseille","lat":43.30886,"lon":5.37188,"is_reserved":false,"is_disabled":false,"rental_uris":{"android":"levelo://app?vid=1e5fb3cb-414c-4296-9c29-9b740f8a898c","ios":"levelo://app?vid=1e5fb3cb-414c-4296-9c29-9b740f8a898c"},"vehicle_type_id":"4","last_reported":1728655723,"current_range_meters":38400,"station_id":"ce4bguh2rcd13ifvqckg","pricing_plan_id":"cebpf4jnsgd1na2vs0mg"},{"bike_id":"d1ce323c-55e1-4ad8-a9d6-3c794f6db76d","system_id":"levelo_inurba_marseille","lat":43.29246,"lon":5.409,"is_reserved":false,"is_disabled":false,"rental_uris":{"android":"levelo://app?vid=d1ce323c-55e1-4ad8-a9d6-3c794f6db76d","ios":"levelo://app?vid=d1ce323c-55e1-4ad8-a9d6-3c794f6db76d"},"vehicle_type_id":"4","last_reported":1728655723,"current_range_meters":38400,"station_id":"ce4bh192rcd13ifvqdc0","pricing_plan_id":"cebpf4jnsgd1na2vs0mg"},{"bike_id":"f540bda2-7b1a-47e6-aed1-0112f2d69e4b","system_id":"levelo_inurba_marseille","lat":43.255005,"lon":5.376489,"is_reserved":false,"is_disabled":false,"rental_uris":{"android":"levelo://app?vid=f540bda2-7b1a-47e6-aed1-0112f2d69e4b","ios":"levelo://app?vid=f540bda2-7b1a-47e6-aed1-0112f2d69e4b"},"vehicle_type_id":"4","last_reported":1728655723,"current_range_meters":3200,"station_id":"ce4bhh12rcd13ifvqff0","pricing_plan_id":"cebpf4jnsgd1na2vs0mg"},{"bike_id":"c2835554-89ba-4402-bee7-d8680a3d0c6a","system_id":"levelo_inurba_marseille","lat":43.254948,"lon":5.376434,"is_reserved":false,"is_disabled":false,"rental_uris":{"android":"levelo://app?vid=c2835554-89ba-4402-bee7-d8680a3d0c6a","ios":"levelo://app?vid=c2835554-89ba-4402-bee7-d8680a3d0c6a"},"vehicle_type_id":"4","last_reported":1728655723,"current_range_meters":25200,"station_id":"ce4bhh12rcd13ifvqff0","pricing_plan_id":"cebpf4jnsgd1na2vs0mg"},