{"last_updated":1716574235,"ttl":30,"version":"2.2","data":{"bikes":[{"bike_id":"fa5ceab7-faef-4c74-a23f-9e73cfe4d43c","system_id":"levelo_inurba_marseille","lat":43.312239,"lon":5.368562,"is_reserved":false,"is_disabled":false,"rental_uris":{"android":"levelo://app?vid=fa5ceab7-faef-4c74-a23f-9e73cfe4d43c","ios":"levelo://app?vid=fa5ceab7-faef-4c74-a23f-9e73cfe4d43c"},"vehicle_type_id":"4","last_reported":1716574235,"current_range_meters":16800,"station_id":"ce4bgl92rcd13ifvqbq0","pricing_plan_id":"cebpf4jnsgd1na2vs0mg"},{"bike_id":"e6be996c-436d-435f-a8dd-72cdd3aabd0f","system_id":"levelo_inurba_marseille","lat":43.312179,"lon":5.368516,"is_reserved":false,"is_disabled":false,"rental_uris":{"android":"levelo://app?vid=e6be996c-436d-435f-a8dd-72cdd3aabd0f","ios":"levelo://app?vid=e6be996c-436d-435f-a8dd-72cdd3aabd0f"},"vehicle_type_id":"4","last_reported":1716574235,"current_range_meters":4800,"station_id":"ce4bgl92rcd13ifvqbq0","pricing_plan_id":"cebpf4jnsgd1na2vs0mg"},{"bike_id":"f2afdebb-1e02-404c-be9b-ccbf569bd622","system_id":"levelo_inurba_marseille","lat":43.312239,"lon":5.368562,"is_reserved":false,"is_disabled":false,"rental_uris":{"android":"levelo://app?vid=f2afdebb-1e02-404c-be9b-ccbf569bd622","ios":"levelo://app?vid=f2afdebb-1e02-404c-be9b-ccbf569bd622"},"vehicle_type_id":"4","last_reported":1716574235,"current_range_meters":16400,"station_id":"ce4bgl92rcd13ifvqbq0","pricing_plan_id":"cebpf4jnsgd1na2vs0mg"},{"bike_id":"42fce166-d21c-48f8-9c48-4f8a249cf442","system_id":"levelo_inurba_marseille","lat":43.314811,"lon":5.373103,"is_reserved":false,"is_disabled":false,"rental_uris":{"android":"levelo://app?vid=42fce166-d21c-48f8-9c48-4f8a249cf442","ios":"levelo://app?vid=42fce166-d21c-48f8-9c48-4f8a249cf442"},"vehicle_type_id":"4","last_reported":1716574235,"current_range_meters":20400,"station_id":"ce4bgt12rcd13ifvqcd0","pricing_plan_id":"cebpf4jnsgd1na2vs0mg"},{"bike_id":"1035c75d-3ad2-4644-9b9f-a21093f2a1bb","system_id":"levelo_inurba_marseille","lat":43.309076,"lon":5.368465,"is_reserved":false,"is_disabled":false,"rental_uris":{"android":"levelo://app?vid=1035c75d-3ad2-4644-9b9f-a21093f2a1bb","ios":"levelo://app?vid=1035c75d-3ad2-4644-9b9f-a21093f2a1bb"},"vehicle_type_id":"4","last_reported":1716574235,"current_range_meters":7600,"station_id":"ce4bgn92rcd13ifvqbvg","pricing_plan_id":"cebpf4jnsgd1na2vs0mg"},{"bike_id":"680accf6-ed3b-4787-af41-1076d02d7782","system_id":"levelo_inurba_marseille","lat":43.31493,"lon":5.37295,"is_reserved":false,"is_disabled":false,"rental_uris":{"android":"levelo://app?vid=680accf6-ed3b-4787-af41-1076d02d7782","ios":"levelo://app?vid=680accf6-ed3b-4787-af41-1076d02d7782"},"vehicle_type_id":"4","last_reported":1716574235,"current_range_meters":0,"station_id":"ce4bgt12rcd13ifvqcd0","pricing_plan_id":"cebpf4jnsgd1na2vs0mg"},{"bike_id":"3f7d70e4-02f8-492e-8225-91a1ae491977","system_id":"levelo_inurba_marseille","lat":43.314811,"lon":5.373103,"is_reserved":false,"is_disabled":false,"rental_uris":{"android":"levelo://app?vid=3f7d70e4-02f8-492e-8225-91a1ae491977","ios":"levelo://app?vid=3f7d70e4-02f8-492e-8225-91a1ae491977"},"vehicle_type_id":"4","last_reported":1716574235,"current_range_meters":4400,"station_id":"ce4bgt12rcd13ifvqcd0","pricing_plan_id":"cebpf4jnsgd1na2vs0mg"},{"bike_id":"030cc3ed-0911-43f4-8d2c-82225fd47095","system_id":"levelo_inurba_marseille","lat":43.314811,"lon":5.373104,"is_reserved":false,"is_disabled":false,"rental_uris":{"android":"levelo://app?vid=030cc3ed-0911-43f4-8d2c-82225fd47095","ios":"levelo://app?vid=030cc3ed-0911-43f4-8d2c-82225fd47095"},"vehicle_type_id":"4","last_reported":1716574235,"current_range_meters":12800,"station_id":"ce4bgt12rcd13ifvqcd0","pricing_plan_id":"cebpf4jnsgd1na2vs0mg"},{"bike_id":"776666a1-eb51-4c8f-829a-a380ff8b4af0","system_id":"levelo_inurba_marseille","lat":43.309034,"lon":5.371783,"is_reserved":false,"is_disabled":false,"rental_uris":{"android":"levelo://app?vid=776666a1-eb51-4c8f-829a-a380ff8b4af0","ios":"levelo://app?vid=776666a1-eb51-4c8f-829a-a380ff8b4af0"},"vehicle_type_id":"4","last_reported":1716574235,"current_range_meters":4400,"station_id":"ce4bguh2rcd13ifvqckg","pricing_plan_id":"cebpf4jnsgd1na2vs0mg"},{"bike_id":"26382106-8739-4a5b-80ff-feb5c0b3bf6d","system_id":"levelo_inurba_marseille","lat":43.309034,"lon":5.371783,"is_reserved":false,"is_disabled":false,"rental_uris":{"android":"levelo://app?vid=26382106-8739-4a5b-80ff-feb5c0b3bf6d","ios":"levelo://app?vid=26382106-8739-4a5b-80ff-feb5c0b3bf6d"},"vehicle_type_id":"4","last_reported":1716574235,"current_range_meters":11600,"station_id":"ce4bguh2rcd13ifvqckg","pricing_plan_id":"cebpf4jnsgd1na2vs0mg"},{"bike_id":"f607a2d9-dea8-4867-a264-a375240e5b9a","system_id":"levelo_inurba_marseille","lat":43.31672,"lon":5.3722,"is_reserved":false,"is_disabled":false,"rental_uris":{"android":"levelo://app?vid=f607a2d9-dea8-4867-a264-a375240e5b9a","ios":"levelo://app?vid=f607a2d9-dea8-4867-a264-a375240e5b9a"},"vehicle_type_id":"4","last_reported":1716574235,"current_range_meters":2400,"station_id":"","pricing_plan_id":"cebpf4jnsgd1na2vs0mg"},{"bike_id":"511f1f78-88c3-49e8-82a1-3cc349db49df","system_id":"levelo_inurba_marseille","lat":43.317075,"lon":5.377367,"is_reserved":false,"is_disabled":false,"rental_uris":{"android":"levelo://app?vid=511f1f78-88c3-49e8-82a1-3cc349db49df","ios":"levelo://app?vid=511f1f78-88c3-49e8-82a1-3cc349db49df"},"vehicle_type_id":"4","last_reported":1716574235,"current_range_meters":18400,"station_id":"ce4bgth2rcd13ifvqch0","pricing_plan_id":"cebpf4jnsgd1na2vs0mg"},{"bike_id":"ec6621ef-6992-4b0b-80e2-f2c6aa9ebb80","system_id":"levelo_inurba_marseille","lat":43.30537,"lon":5.367345,"is_reserved":false,"is_disabled":false,"rental_uris":{"android":"levelo://app?vid=ec6621ef-6992-4b0b-80e2-f2c6aa9ebb80","ios":"levelo://app?vid=ec6621ef-6992-4b0b-80e2-f2c6aa9ebb80"},"vehicle_type_id":"4","last_reported":1716574235,"current_range_meters":9200,"station_id":"ce4bgrp2rcd13ifvqc9g","pricing_plan_id":"cebpf4jnsgd1na2vs0mg"},{"bike_id":"2aabbba4-a8f3-495d-baa6-b44f9284d87e","system_id":"levelo_inurba_marseille","lat":43.305706,"lon":5.365654,"is_reserved":false,"is_disabled":false,"rental_uris":{"android":"levelo://app?vid=2aabbba4-a8f3-495d-baa6-b44f9284d87e","ios":"levelo://app?vid=2aabbba4-a8f3-495d-baa6-b44f9284d87e"},"vehicle_type_id":"4","last_reported":1716574235,"current_range_meters":15200,"station_id":"ce4bgs12rcd13ifvqcag","pricing_plan_id":"cebpf4jnsgd1na2vs0mg"},{"bike_id":"26f02b17-f339-4706-aeab-3b622e447596","system_id":"levelo_inurba_marseille","lat":43.305989,"lon":5.37225,"is_reserved":false,"is_disabled":false,"rental_uris":{"android":"levelo://app?vid=26f02b17-f339-4706-aeab-3b622e447596","ios":"levelo://app?vid=26f02b17-f339-4706-aeab-3b622e447596"},"vehicle_type_id":"4","last_reported":1716574235,"current_range_meters":12800,"station_id":"ce4bgqh2rcd13ifvqc4g","pricing_plan_id":"cebpf4jnsgd1na2vs0mg"},{"bike_id":"085f8808-1d82-4a31-a42a-8e58df7e3717","system_id":"levelo_inurba_marseille","lat":43.305989,"lon":5.37225,"is_reserved":false,"is_disabled":false,"rental_uris":{"android":"levelo://app?vid=085f8808-1d82-4a31-a42a-8e58df7e3717","ios":"levelo://app?vid=085f8808-1d82-4a31-a42a-8e58df7e3717"},"vehicle_type_id":"4","last_reported":1716574235,"current_range_meters":31200,"station_id":"ce4bgqh2rcd13ifvqc4g","pricing_plan_id":"cebpf4jnsgd1na2vs0mg"},{"bike_id":"dc72fc18-bc51-40d4-80f8-8697a84d569c","system_id":"levelo_inurba_marseille","lat":43.305989,"lon":5.37225,"is_reserved":false,"is_disabled":false,"rental_uris":{"android":"levelo://app?vid=dc72fc18-bc51-40d4-80f8-8697a84d569c","ios":"levelo://app?vid=dc72fc18-bc51-40d4-80f8-8697a84d569c"},"vehicle_type_id":"4","last_reported":1716574235,"current_range_meters":14800,"station_id":"ce4bgqh2rcd13ifvqc4g","pricing_plan_id":"cebpf4jnsgd1na2vs0mg"},{"bike_id":"7818c750-e792-4e19-a21b-fdab7f8d4f91","system_id":"levelo_inurba_marseille","lat":43.305989,"lon":5.37225,"is_reserved":false,"is_disabled":false,"rental_uris":{"android":"levelo://app?vid=7818c750-e792-4e19-a21b-fdab7f8d4f91","ios":"levelo://app?vid=7818c750-e792-4e19-a21b-fdab7f8d4f91"},"vehicle_type_id":"4","last_reported":1716574235,"current_range_meters":18400,"station_id":"ce4bgqh2rcd13ifvqc4g","pricing_plan_id":"cebpf4jnsgd1na2vs0mg"},{"bike_id":"39486bdf-70b0-4c23-b405-5b6b5e814b4e","system_id":"levelo_inurba_marseille","lat":43.305368,"lon":5.367343,"is_reserved":false,"is_disabled":false,"rental_uris":{"android":"levelo://app?vid=39486bdf-70b0-4c23-b405-5b6b5e814b4e","ios":"levelo://app?vid=39486bdf-70b0-4c23-b405-5b6b5e814b4e"},"vehicle_type_id":"4","last_reported":1716574235,"current_range_meters":0,"station_id":"ce4bgrp2rcd13ifvqc9g","pricing_plan_id":"cebpf4jnsgd1na2vs0mg"},{"bike_id":"005fb9a7-6438-4568-9cbf-b8394601ed6f","system_id":"levelo_inurba_marseille","lat":43.311131,"lon":5.377651,"is_reserved":false,"is_disabled":false,"rental_uris":{"android":"levelo://app?vid=005fb9a7-6438-4568-9cbf-b8394601ed6f","ios":"levelo://app?vid=005fb9a7-6438-4568-9cbf-b8394601ed6f"},"vehicle_type_id":"4","last_reported":1716574235,"current_range_meters":5200,"station_id":"ce4bgt92rcd13ifvqcg0","pricing_plan_id":"cebpf4jnsgd1na2vs0mg"},{"bike_id":"1b8e4253-f79a-4ae4-9f31-e737f09dd780","system_id":"levelo_inurba_marseille","lat":43.311123,"lon":5.377855,"is_reserved":false,"is_disabled":false,"rental_uris":{"android":"levelo://app?vid=1b8e4253-f79a-4ae4-9f31-e737f09dd780","ios":"levelo://app?vid=1b8e4253-f79a-4ae4-9f31-e737f09dd780"},"vehicle_type_id":"4","last_reported":1716574235,"current_range_meters":12000,"station_id":"ce4bgt92rcd13ifvqcg0","pricing_plan_id":"cebpf4jnsgd1na2vs0mg"},{"bike_id":"87b2ed7a-3652-4c11-9778-c67fe70b8355","system_id":"levelo_inurba_marseille","lat":43.310891,"lon":5.378063,"is_reserved":false,"is_disabled":false,"rental_uris":{"android":"levelo://app?vid=87b2ed7a-3652-4c11-9778-c67fe70b8355","ios":"levelo://app?vid=87b2ed7a-3652-4c11-9778-c67fe70b8355"},"vehicle_type_id":"4","last_reported":1716574235,"current_range_meters":8400,"station_id":"ce4bgt92rcd13ifvqcg0","pricing_plan_id":"cebpf4jnsgd1na2vs0mg"},{"bike_id":"9d5c16b7-6f81-48e4-9677-a5edcc3cef92","system_id":"levelo_inurba_marseille","lat":43.307945,"lon":5.376487,"is_reserved":false,"is_disabled":false,"rental_uris":{"android":"levelo://app?vid=9d5c16b7-6f81-48e4-9677-a5edcc3cef92","ios":"levelo://app?vid=9d5c16b7-6f81-48e4-9677-a5edcc3cef92"},"vehicle_type_id":"4","last_reported":1716574235,"current_range_meters":28400,"station_id":"ce4bgv92rcd13ifvqcq0","pricing_plan_id":"cebpf4jnsgd1na2vs0mg"},{"bike_id":"0b489591-10a3-46e5-a969-db5ecf09fac3","system_id":"levelo_inurba_marseille","lat":43.307945,"lon":5.376487,"is_reserved":false,"is_disabled":false,"rental_uris":{"android":"levelo://app?vid=0b489591-10a3-46e5-a969-db5ecf09fac3","ios":"levelo://app?vid=0b489591-10a3-46e5-a969-db5ecf09fac3"},"vehicle_type_id":"4","last_reported":1716574235,"current_range_meters":10800,"station_id":"ce4bgv92rcd13ifvqcq0","pricing_plan_id":"cebpf4jnsgd1na2vs0mg"},{"bike_id":"becaa431-a8d9-410b-b743-73dc8dc17993","system_id":"levelo_inurba_marseille","lat":43.322872,"lon":5.382756,"is_reserved":false,"is_disabled":false,"rental_uris":{"android":"levelo://app?vid=becaa431-a8d9-410b-b743-73dc8dc17993","ios":"levelo://app?vid=becaa431-a8d9-410b-b743-73dc8dc17993"},"vehicle_type_id":"4","last_reported":1716574235,"current_range_meters":21600,"station_id":"ce4bhr12rcd13ifvqhqg","pricing_plan_id":"cebpf4jnsgd1na2vs0mg"},{"bike_id":"82c39937-72bd-4102-b37b-297177698715","system_id":"levelo_inurba_marseille","lat":43.315289,"lon":5.380349,"is_reserved":false,"is_disabled":false,"rental_uris":{"android":"levelo://app?vid=82c39937-72bd-4102-b37b-297177698715","ios":"levelo://app?vid=82c39937-72bd-4102-b37b-297177698715"},"vehicle_type_id":"4","last_reported":1716574235,"current_range_meters":0,"station_id":"ce4bhsp2rcd13ifvqi50","pricing_plan_id":"cebpf4jnsgd1na2vs0mg"},{"bike_id":"15c4e31b-acc6-467e-8e0e-43f24a21bbd0","system_id":"levelo_inurba_marseille","lat":43.315293,"lon":5.380349,"is_reserved":false,"is_disabled":false,"rental_uris":{"android":"levelo://app?vid=15c4e31b-acc6-467e-8e0e-43f24a21bbd0","ios":"levelo://app?vid=15c4e31b-acc6-467e-8e0e-43f24a21bbd0"},"vehicle_type_id":"4","last_reported":1716574235,"current_range_meters":27600,"station_id":"ce4bhsp2rcd13ifvqi50","pricing_plan_id":"cebpf4jnsgd1na2vs0mg"},{"bike_id":"e359a911-1a57-4687-afe6-251a57176e62","system_id":"levelo_inurba_marseille","lat":43.308012,"lon":5.381511,"is_reserved":false,"is_disabled":false,"rental_uris":{"android":"levelo://app?vid=e359a911-1a57-4687-afe6-251a57176e62","ios":"levelo://app?vid=e359a911-1a57-4687-afe6-251a57176e62"},"vehicle_type_id":"4","last_reported":1716574235,"current_range_meters":400,"station_id":"ce4bgt12rcd13ifvqce0","pricing_plan_id":"cebpf4jnsgd1na2vs0mg"},{"bike_id":"5eb4b7af-6023-40f2-9acd-effa5ffa55de","system_id":"levelo_inurba_marseille","lat":43.308012,"lon":5.381511,"is_reserved":false,"is_disabled":false,"rental_uris":{"android":"levelo://app?vid=5eb4b7af-6023-40f2-9acd-effa5ffa55de","ios":"levelo://app?vid=5eb4b7af-6023-40f2-9acd-effa5ffa55de"},"vehicle_type_id":"4","last_reported":1716574235,"current_range_meters":13600,"station_id":"ce4bgt12rcd13ifvqce0","pricing_plan_id":"cebpf4jnsgd1na2vs0mg"},{"bike_id":"03b2d0ac-4855-463a-a2f0-be21041dc802","system_id":"levelo_inurba_marseille","lat":43.304606,"lon":5.379026,"is_reserved":false,"is_disabled":false,"rental_uris":{"android":"levelo://app?vid=03b2d0ac-4855-463a-a2f0-be21041dc802","ios":"levelo://app?vid=03b2d0ac-4855-463a-a2f0-be21041dc802"},"vehicle_type_id":"4","last_reported":1716574235,"current_range_meters":31200,"station_id":"ce4bgup2rcd13ifvqcn0","pricing_plan_id":"cebpf4jnsgd1na2vs0mg"},{"bike_id":"16a06ed8-703e-4278-a699-b2724d031bcd","system_id":"levelo_inurba_marseille","lat":43.324771,"lon":5.36557,"is_reserved":false,"is_disabled":false,"rental_uris":{"android":"levelo://app?vid=16a06ed8-703e-4278-a699-b2724d031bcd","ios":"levelo://app?vid=16a06ed8-703e-4278-a699-b2724d031bcd"},"vehicle_type_id":"4","last_reported":1716574235,"current_range_meters":0,"station_id":"ce4bhs12rcd13ifvqhvg","pricing_plan_id":"cebpf4jnsgd1na2vs0mg"},{"bike_id":"97aa767d-4a7c-4d81-b244-c5d3efb49efc","system_id":"levelo_inurba_marseille","lat":43.324771,"lon":5.36557,"is_reserved":false,"is_disabled":false,"rental_uris":{"android":"levelo://app?vid=97aa767d-4a7c-4d81-b244-c5d3efb49efc","ios":"levelo://app?vid=97aa767d-4a7c-4d81-b244-c5d3efb49efc"},"vehicle_type_id":"4","last_reported":1716574235,"current_range_meters":25200,"station_id":"ce4bhs12rcd13ifvqhvg","pricing_plan_id":"cebpf4jnsgd1na2vs0mg"},{"bike_id":"46cad44a-c6f9-49fd-aa92-8c749577af76","system_id":"levelo_inurba_marseille","lat":43.32485,"lon":5.365617,"is_reserved":false,"is_disabled":false,"rental_uris":{"android":"levelo://app?vid=46cad44a-c6f9-49fd-aa92-8c749577af76","ios":"levelo://app?vid=46cad44a-c6f9-49fd-aa92-8c749577af76"},"vehicle_type_id":"4","last_reported":1716574235,"current_range_meters":6400,"station_id":"ce4bhs12rcd13ifvqhvg","pricing_plan_id":"cebpf4jnsgd1na2vs0mg"},{"bike_id":"a8cf95ee-6e67-4aed-b1f4-e2098149a3d5","system_id":"levelo_inurba_marseille","lat":43.324771,"lon":5.36557,"is_reserved":false,"is_disabled":false,"rental_uris":{"android":"levelo://app?vid=a8cf95ee-6e67-4aed-b1f4-e2098149a3d5","ios":"levelo://app?vid=a8cf95ee-6e67-4aed-b1f4-e2098149a3d5"},"vehicle_type_id":"4","last_reported":1716574235,"current_range_meters":3600,"station_id":"ce4bhs12rcd13ifvqhvg","pricing_plan_id":"cebpf4jnsgd1na2vs0mg"},{"bike_id":"bf6ab0cb-8fd1-4e5c-82d8-e77f9bab97eb","system_id":"levelo_inurba_marseille","lat":43.310804,"lon":5.38359,"is_reserved":false,"is_disabled":false,"rental_uris":{"android":"levelo://app?vid=bf6ab0cb-8fd1-4e5c-82d8-e77f9bab97eb","ios":"levelo://app?vid=bf6ab0cb-8fd1-4e5c-82d8-e77f9bab97eb"},"vehicle_type_id":"4","last_reported":1716574235,"current_range_meters":8000,"station_id":"ce4bgv92rcd13ifvqcr0","pricing_plan_id":"cebpf4jnsgd1na2vs0mg"},{"bike_id":"0c232076-c1bf-41a8-aead-9fdcaf451653","system_id":"levelo_inurba_marseille","lat":43.302784,"lon":5.377158,"is_reserved":false,"is_disabled":false,"rental_uris":{"android":"levelo://app?vid=0c232076-c1bf-41a8-aead-9fdcaf451653","ios":"levelo://app?vid=0c232076-c1bf-41a8-aead-9fdcaf451653"},"vehicle_type_id":"4","last_reported":1716574235,"current_range_meters":13600,"station_id":"ce4bguh2rcd13ifvqcj0","pricing_plan_id":"cebpf4jnsgd1na2vs0mg"},{"bike_id":"113a0bf1-8a94-4c78-b3ae-8fb111ea93a5","system_id":"levelo_inurba_marseille","lat":43.30143,"lon":5.37413,"is_reserved":false,"is_disabled":false,"rental_uris":{"android":"levelo://app?vid=113a0bf1-8a94-4c78-b3ae-8fb111ea93a5","ios":"levelo://app?vid=113a0bf1-8a94-4c78-b3ae-8fb111ea93a5"},"vehicle_type_id":"4","last_reported":1716574235,"current_range_meters":400,"station_id":"ce4bgs92rcd13ifvqcc0","pricing_plan_id":"cebpf4jnsgd1na2vs0mg"},{"bike_id":"5aadbf8d-1df4-490d-b599-931823f7d68d","system_id":"levelo_inurba_marseille","lat":43.302784,"lon":5.377158,"is_reserved":false,"is_disabled":false,"rental_uris":{"android":"levelo://app?vid=5aadbf8d-1df4-490d-b599-931823f7d68d","ios":"levelo://app?vid=5aadbf8d-1df4-490d-b599-931823f7d68d"},"vehicle_type_id":"4","last_reported":1716574235,"current_range_meters":10400,"station_id":"ce4bguh2rcd13ifvqcj0","pricing_plan_id":"cebpf4jnsgd1na2vs0mg"},{"bike_id":"659b5f1e-1b58-48d0-8b18-0f8309fdf1c3","system_id":"levelo_inurba_marseille","lat":43.319935,"lon":5.381699,"is_reserved":false,"is_disabled":false,"rental_uris":{"android":"levelo://app?vid=659b5f1e-1b58-48d0-8b18-0f8309fdf1c3","ios":"levelo://app?vid=659b5f1e-1b58-48d0-8b18-0f8309fdf1c3"},"vehicle_type_id":"4","last_reported":1716574235,"current_range_meters":2800,"station_id":"ce4bhr12rcd13ifvqhpg","pricing_plan_id":"cebpf4jnsgd1na2vs0mg"},{"bike_id":"d6cf34df-394c-4d92-a652-1b6a17a3dade","system_id":"levelo_inurba_marseille","lat":43.319935,"lon":5.381699,"is_reserved":false,"is_disabled":false,"rental_uris":{"android":"levelo://app?vid=d6cf34df-394c-4d92-a652-1b6a17a3dade","ios":"levelo://app?vid=d6cf34df-394c-4d92-a652-1b6a17a3dade"},"vehicle_type_id":"4","last_reported":1716574235,"current_range_meters":6800,"station_id":"ce4bhr12rcd13ifvqhpg","pricing_plan_id":"cebpf4jnsgd1na2vs0mg"},{"bike_id":"71369abf-e394-4940-97da-986f25abee8b","system_id":"levelo_inurba_marseille","lat":43.319935,"lon":5.381699,"is_reserved":false,"is_disabled":false,"rental_uris":{"android":"levelo://app?vid=71369abf-e394-4940-97da-986f25abee8b","ios":"levelo://app?vid=71369abf-e394-4940-97da-986f25abee8b"},"vehicle_type_id":"4","last_reported":1716574235,"current_range_meters":21600,"station_id":"ce4bhr12rcd13ifvqhpg","pricing_plan_id":"cebpf4jnsgd1na2vs0mg"},{"bike_id":"0fbe5198-f394-4686-a086-9ac196b8caea","system_id":"levelo_inurba_marseille","lat":43.319935,"lon":5.381699,"is_reserved":false,"is_disabled":false,"rental_uris":{"android":"levelo://app?vid=0fbe5198-f394-4686-a086-9ac196b8caea","ios":"levelo://app?vid=0fbe5198-f394-4686-a086-9ac196b8caea"},"vehicle_type_id":"4","last_reported":1716574235,"current_range_meters":22400,"station_id":"ce4bhr12rcd13ifvqhpg","pricing_plan_id":"cebpf4jnsgd1na2vs0mg"},{"bike_id":"9a1b0199-47ee-4bf7-93cb-5fc451dbdf1e","system_id":"levelo_inurba_marseille","lat":43.319935,"lon":5.381699,"is_reserved":false,"is_disabled":false,"rental_uris":{"android":"levelo://app?vid=9a1b0199-47ee-4bf7-93cb-5fc451dbdf1e","ios":"levelo://app?vid=9a1b0199-47ee-4bf7-93cb-5fc451dbdf1e"},"vehicle_type_id":"4","last_reported":1716574235,"current_range_meters":3200,"station_id":"ce4bhr12rcd13ifvqhpg","pricing_plan_id":"cebpf4jnsgd1na2vs0mg"},{"bike_id":"f17462eb-9d0d-4948-85db-37f9fcb89ac8","system_id":"levelo_inurba_marseille","lat":43.31995,"lon":5.3816,"is_reserved":false,"is_disabled":false,"rental_uris":{"android":"levelo://app?vid=f17462eb-9d0d-4948-85db-37f9fcb89ac8","ios":"levelo://app?vid=f17462eb-9d0d-4948-85db-37f9fcb89ac8"},"vehicle_type_id":"4","last_reported":1716574235,"current_range_meters":8400,"station_id":"ce4bhr12rcd13ifvqhpg","pricing_plan_id":"cebpf4jnsgd1na2vs0mg"},{"bike_id":"e37f899f-7372-4ddf-b012-0e53462dcc7c","system_id":"levelo_inurba_marseille","lat":43.313571,"lon":5.384829,"is_reserved":false,"is_disabled":false,"rental_uris":{"android":"levelo://app?vid=e37f899f-7372-4ddf-b012-0e53462dcc7c","ios":"levelo://app?vid=e37f899f-7372-4ddf-b012-0e53462dcc7c"},"vehicle_type_id":"4","last_reported":1716574235,"current_range_meters":13200,"station_id":"ce4bgt92rcd13ifvqcf0","pricing_plan_id":"cebpf4jnsgd1na2vs0mg"},{"bike_id":"d151cb71-8aa9-4b89-b4e8-3ed37c5b9bf3","system_id":"levelo_inurba_marseille","lat":43.299724,"lon":5.371829,"is_reserved":false,"is_disabled":false,"rental_uris":{"android":"levelo://app?vid=d151cb71-8aa9-4b89-b4e8-3ed37c5b9bf3","ios":"levelo://app?vid=d151cb71-8aa9-4b89-b4e8-3ed37c5b9bf3"},"vehicle_type_id":"4","last_reported":1716574235,"current_range_meters":28400,"station_id":"ce4bgr92rcd13ifvqc7g","pricing_plan_id":"cebpf4jnsgd1na2vs0mg"},{"bike_id":"5f659711-c516-4da9-b9f6-59e520f731c7","system_id":"levelo_inurba_marseille","lat":43.313398,"lon":5.385439,"is_reserved":false,"is_disabled":false,"rental_uris":{"android":"levelo://app?vid=5f659711-c516-4da9-b9f6-59e520f731c7","ios":"levelo://app?vid=5f659711-c516-4da9-b9f6-59e520f731c7"},"vehicle_type_id":"4","last_reported":1716574235,"current_range_meters":1200,"station_id":"","pricing_plan_id":"cebpf4jnsgd1na2vs0mg"},{"bike_id":"1eef78fe-fb2f-4d18-9cc4-710cd936cd87","system_id":"levelo_inurba_marseille","lat":43.290103,"lon":5.356114,"is_reserved":false,"is_disabled":false,"rental_uris":{"android":"levelo://app?vid=1eef78fe-fb2f-4d18-9cc4-710cd936cd87","ios":"levelo://app?vid=1eef78fe-fb2f-4d18-9cc4-710cd936cd87"},"vehicle_type_id":"4","last_reported":1716574235,"current_range_meters":22400,"station_id":"ce4bhb92rcd13ifvqen0","pricing_plan_id":"cebpf4jnsgd1na2vs0mg"},{"bike_id":"831cfedd-5133-4c99-8f20-5e39d4fa5256","system_id":"levelo_inurba_marseille","lat":43.305364,"lon":5.384119,"is_reserved":false,"is_disabled":false,"rental_uris":{"android":"levelo://app?vid=831cfedd-5133-4c99-8f20-5e39d4fa5256","ios":"levelo://app?vid=831cfedd-5133-4c99-8f20-5e39d4fa5256"},"vehicle_type_id":"4","last_reported":1716574235,"current_range_meters":10800,"station_id":"ce4bgg92rcd13ifvqb30","pricing_plan_id":"cebpf4jnsgd1na2vs0mg"},{"bike_id":"f449a9c4-b3ef-4d87-aee3-a4c83f9d58db","system_id":"levelo_inurba_marseille","lat":43.30534,"lon":5.3843,"is_reserved":false,"is_disabled":false,"rental_uris":{"android":"levelo://app?vid=f449a9c4-b3ef-4d87-aee3-a4c83f9d58db","ios":"levelo://app?vid=f449a9c4-b3ef-4d87-aee3-a4c83f9d58db"},"vehicle_type_id":"4","last_reported":1716574235,"current_range_meters":23600,"station_id":"ce4bgg92rcd13ifvqb30","pricing_plan_id":"cebpf4jnsgd1na2vs0mg"},{"bike_id":"f9320f74-c751-4156-8e28-44077bfabf16","system_id":"levelo_inurba_marseille","lat":43.299243,"lon":5.37481,"is_reserved":false,"is_disabled":false,"rental_uris":{"android":"levelo://app?vid=f9320f74-c751-4156-8e28-44077bfabf16","ios":"levelo://app?vid=f9320f74-c751-4156-8e28-44077bfabf16"},"vehicle_type_id":"4","last_reported":1716574235,"current_range_meters":16400,"station_id":"ce4bgjh2rcd13ifvqbg0","pricing_plan_id":"cebpf4jnsgd1na2vs0mg"},{"bike_id":"9c0de641-53c1-4e9a-8b10-df4717ef8f20","system_id":"levelo_inurba_marseille","lat":43.322872,"lon":5.382756,"is_reserved":false,"is_disabled":false,"rental_uris":{"android":"levelo://app?vid=9c0de641-53c1-4e9a-8b10-df4717ef8f20","ios":"levelo://app?vid=9c0de641-53c1-4e9a-8b10-df4717ef8f20"},"vehicle_type_id":"4","last_reported":1716574235,"current_range_meters":15600,"station_id":"ce4bhr12rcd13ifvqhqg","pricing_plan_id":"cebpf4jnsgd1na2vs0mg"},{"bike_id":"fcd098a3-e91c-4d4a-9ced-bbfbedf088c2","system_id":"levelo_inurba_marseille","lat":43.297794,"lon":5.370888,"is_reserved":false,"is_disabled":false,"rental_uris":{"android":"levelo://app?vid=fcd098a3-e91c-4d4a-9ced-bbfbedf088c2","ios":"levelo://app?vid=fcd098a3-e91c-4d4a-9ced-bbfbedf088c2"},"vehicle_type_id":"4","last_reported":1716574235,"current_range_meters":26800,"station_id":"ce4bgop2rcd13ifvqc1g","pricing_plan_id":"cebpf4jnsgd1na2vs0mg"},{"bike_id":"73432545-1d87-4ac2-95d3-bad1e1c4c08f","system_id":"levelo_inurba_marseille","lat":43.311722,"lon":5.387247,"is_reserved":false,"is_disabled":false,"rental_uris":{"android":"levelo://app?vid=73432545-1d87-4ac2-95d3-bad1e1c4c08f","ios":"levelo://app?vid=73432545-1d87-4ac2-95d3-bad1e1c4c08f"},"vehicle_type_id":"4","last_reported":1716574235,"current_range_meters":4800,"station_id":"ce4bgv12rcd13ifvqcp0","pricing_plan_id":"cebpf4jnsgd1na2vs0mg"},{"bike_id":"ed492a4e-944e-43b3-bd26-4581a8e6f7a8","system_id":"levelo_inurba_marseille","lat":43.297794,"lon":5.370888,"is_reserved":false,"is_disabled":false,"rental_uris":{"android":"levelo://app?vid=ed492a4e-944e-43b3-bd26-4581a8e6f7a8","ios":"levelo://app?vid=ed492a4e-944e-43b3-bd26-4581a8e6f7a8"},"vehicle_type_id":"4","last_reported":1716574235,"current_range_meters":30000,"station_id":"ce4bgop2rcd13ifvqc1g","pricing_plan_id":"cebpf4jnsgd1na2vs0mg"},{"bike_id":"0d26ce8d-7dad-448e-8a04-fad3aa451936","system_id":"levelo_inurba_marseille","lat":43.322872,"lon":5.382756,"is_reserved":false,"is_disabled":false,"rental_uris":{"android":"levelo://app?vid=0d26ce8d-7dad-448e-8a04-fad3aa451936","ios":"levelo://app?vid=0d26ce8d-7dad-448e-8a04-fad3aa451936"},"vehicle_type_id":"4","last_reported":1716574235,"current_range_meters":10800,"station_id":"ce4bhr12rcd13ifvqhqg","pricing_plan_id":"cebpf4jnsgd1na2vs0mg"},{"bike_id":"48d10151-47c7-4d75-864d-30f9b21ff931","system_id":"levelo_inurba_marseille","lat":43.322872,"lon":5.382756,"is_reserved":false,"is_disabled":false,"rental_uris":{"android":"levelo://app?vid=48d10151-47c7-4d75-864d-30f9b21ff931","ios":"levelo://app?vid=48d10151-47c7-4d75-864d-30f9b21ff931"},"vehicle_type_id":"4","last_reported":1716574235,"current_range_meters":8000,"station_id":"ce4bhr12rcd13ifvqhqg","pricing_plan_id":"cebpf4jnsgd1na2vs0mg"},{"bike_id":"a9c38c7c-2f1a-4bff-a9ae-be2146643247","system_id":"levelo_inurba_marseille","lat":43.322872,"lon":5.382756,"is_reserved":false,"is_disabled":false,"rental_uris":{"android":"levelo://app?vid=a9c38c7c-2f1a-4bff-a9ae-be2146643247","ios":"levelo://app?vid=a9c38c7c-2f1a-4bff-a9ae-be2146643247"},"vehicle_type_id":"4","last_reported":1716574235,"current_range_meters":23200,"station_id":"ce4bhr12rcd13ifvqhqg","pricing_plan_id":"cebpf4jnsgd1na2vs0mg"},{"bike_id":"79f33001-a651-4b0f-b82e-f19ee71b8d0f","system_id":"levelo_inurba_marseille","lat":43.322872,"lon":5.382756,"is_reserved":false,"is_disabled":false,"rental_uris":{"android":"levelo://app?vid=79f33001-a651-4b0f-b82e-f19ee71b8d0f","ios":"levelo://app?vid=79f33001-a651-4b0f-b82e-f19ee71b8d0f"},"vehicle_type_id":"4","last_reported":1716574235,"current_range_meters":28400,"station_id":"ce4bhr12rcd13ifvqhqg","pricing_plan_id":"cebpf4jnsgd1na2vs0mg"},{"bike_id":"a281f011-7cc0-4b1c-9d34-3a0e8e58659c","system_id":"levelo_inurba_marseille","lat":43.322872,"lon":5.382756,"is_reserved":false,"is_disabled":false,"rental_uris":{"android":"levelo://app?vid=a281f011-7cc0-4b1c-9d34-3a0e8e58659c","ios":"levelo://app?vid=a281f011-7cc0-4b1c-9d34-3a0e8e58659c"},"vehicle_type_id":"4","last_reported":1716574235,"current_range_meters":30000,"station_id":"ce4bhr12rcd13ifvqhqg","pricing_plan_id":"cebpf4jnsgd1na2vs0mg"},{"bike_id":"e39f77da-b2ef-4df0-8c27-f669a9096c13","system_id":"levelo_inurba_marseille","lat":43.322872,"lon":5.382756,"is_reserved":false,"is_disabled":false,"rental_uris":{"android":"levelo://app?vid=e39f77da-b2ef-4df0-8c27-f669a9096c13","ios":"levelo://app?vid=e39f77da-b2ef-4df0-8c27-f669a9096c13"},"vehicle_type_id":"4","last_reported":1716574235,"current_range_meters":6000,"station_id":"ce4bhr12rcd13ifvqhqg","pricing_plan_id":"cebpf4jnsgd1na2vs0mg"},{"bike_id":"ff2c9325-2710-4158-a459-0a59e7eafe1b","system_id":"levelo_inurba_marseille","lat":43.322872,"lon":5.382756,"is_reserved":false,"is_disabled":false,"rental_uris":{"android":"levelo://app?vid=ff2c9325-2710-4158-a459-0a59e7eafe1b","ios":"levelo://app?vid=ff2c9325-2710-4158-a459-0a59e7eafe1b"},"vehicle_type_id":"4","last_reported":1716574235,"current_range_meters":11200,"station_id":"ce4bhr12rcd13ifvqhqg","pricing_plan_id":"cebpf4jnsgd1na2vs0mg"},{"bike_id":"66425d78-e730-4e03-8806-befd97dd7ae9","system_id":"levelo_inurba_marseille","lat":43.322872,"lon":5.382756,"is_reserved":false,"is_disabled":false,"rental_uris":{"android":"levelo://app?vid=66425d78-e730-4e03-8806-befd97dd7ae9","ios":"levelo://app?vid=66425d78-e730-4e03-8806-befd97dd7ae9"},"vehicle_type_id":"4","last_reported":1716574235,"current_range_meters":22000,"station_id":"ce4bhr12rcd13ifvqhqg","pricing_plan_id":"cebpf4jnsgd1na2vs0mg"},{"bike_id":"023fd50e-0e64-4a44-bb5f-522d4d1226e8","system_id":"levelo_inurba_marseille","lat":43.322872,"lon":5.382756,"is_reserved":false,"is_disabled":false,"rental_uris":{"android":"levelo://app?vid=023fd50e-0e64-4a44-bb5f-522d4d1226e8","ios":"levelo://app?vid=023fd50e-0e64-4a44-bb5f-522d4d1226e8"},"vehicle_type_id":"4","last_reported":1716574235,"current_range_meters":9600,"station_id":"ce4bhr12rcd13ifvqhqg","pricing_plan_id":"cebpf4jnsgd1na2vs0mg"},{"bike_id":"8aa9a8bb-144c-4d6b-a039-63abf5648e32","system_id":"levelo_inurba_marseille","lat":43.311722,"lon":5.387247,"is_reserved":false,"is_disabled":false,"rental_uris":{"android":"levelo://app?vid=8aa9a8bb-144c-4d6b-a039-63abf5648e32","ios":"levelo://app?vid=8aa9a8bb-144c-4d6b-a039-63abf5648e32"},"vehicle_type_id":"4","last_reported":1716574235,"current_range_meters":4400,"station_id":"ce4bgv12rcd13ifvqcp0","pricing_plan_id":"cebpf4jnsgd1na2vs0mg"},{"bike_id":"3a4266a6-e3f5-4d81-8f16-fc6d23726105","system_id":"levelo_inurba_marseille","lat":43.322872,"lon":5.382756,"is_reserved":false,"is_disabled":false,"rental_uris":{"android":"levelo://app?vid=3a4266a6-e3f5-4d81-8f16-fc6d23726105","ios":"levelo://app?vid=3a4266a6-e3f5-4d81-8f16-fc6d23726105"},"vehicle_type_id":"4","last_reported":1716574235,"current_range_meters":11200,"station_id":"ce4bhr12rcd13ifvqhqg","pricing_plan_id":"cebpf4jnsgd1na2vs0mg"},{"bike_id":"fef19b85-e841-42d1-9cad-a8ea3c9523a5","system_id":"levelo_inurba_marseille","lat":43.29851,"lon":5.37698,"is_reserved":false,"is_disabled":false,"rental_uris":{"android":"levelo://app?vid=fef19b85-e841-42d1-9cad-a8ea3c9523a5","ios":"levelo://app?vid=fef19b85-e841-42d1-9cad-a8ea3c9523a5"},"vehicle_type_id":"4","last_reported":1716574235,"current_range_meters":10400,"station_id":"","pricing_plan_id":"cebpf4jnsgd1na2vs0mg"},{"bike_id":"b0181dbd-d16d-4347-9382-b450da867146","system_id":"levelo_inurba_marseille","lat":43.29657,"lon":5.36162,"is_reserved":false,"is_disabled":false,"rental_uris":{"android":"levelo://app?vid=b0181dbd-d16d-4347-9382-b450da867146","ios":"levelo://app?vid=b0181dbd-d16d-4347-9382-b450da867146"},"vehicle_type_id":"4","last_reported":1716574235,"current_range_meters":11600,"station_id":"","pricing_plan_id":"cebpf4jnsgd1na2vs0mg"},{"bike_id":"ea9310f4-2fd3-4a8e-992d-f848b21f1c2c","system_id":"levelo_inurba_marseille","lat":43.296131,"lon":5.370791,"is_reserved":false,"is_disabled":false,"rental_uris":{"android":"levelo://app?vid=ea9310f4-2fd3-4a8e-992d-f848b21f1c2c","ios":"levelo://app?vid=ea9310f4-2fd3-4a8e-992d-f848b21f1c2c"},"vehicle_type_id":"4","last_reported":1716574235,"current_range_meters":28000,"station_id":"ce4bgnh2rcd13ifvqc0g","pricing_plan_id":"cebpf4jnsgd1na2vs0mg"},{"bike_id":"31e6e981-d855-4234-b9b3-11f43f31f439","system_id":"levelo_inurba_marseille","lat":43.296131,"lon":5.370773,"is_reserved":false,"is_disabled":false,"rental_uris":{"android":"levelo://app?vid=31e6e981-d855-4234-b9b3-11f43f31f439","ios":"levelo://app?vid=31e6e981-d855-4234-b9b3-11f43f31f439"},"vehicle_type_id":"4","last_reported":1716574235,"current_range_meters":31200,"station_id":"ce4bgnh2rcd13ifvqc0g","pricing_plan_id":"cebpf4jnsgd1na2vs0mg"},{"bike_id":"1c2c23ef-a685-4baa-99de-51505202ab3c","system_id":"levelo_inurba_marseille","lat":43.296129,"lon":5.370777,"is_reserved":false,"is_disabled":false,"rental_uris":{"android":"levelo://app?vid=1c2c23ef-a685-4baa-99de-51505202ab3c","ios":"levelo://app?vid=1c2c23ef-a685-4baa-99de-51505202ab3c"},"vehicle_type_id":"4","last_reported":1716574235,"current_range_meters":29200,"station_id":"ce4bgnh2rcd13ifvqc0g","pricing_plan_id":"cebpf4jnsgd1na2vs0mg"},{"bike_id":"eb1efca5-917b-4c95-a0fe-6365e87dac1a","system_id":"levelo_inurba_marseille","lat":43.295716,"lon":5.367106,"is_reserved":false,"is_disabled":false,"rental_uris":{"android":"levelo://app?vid=eb1efca5-917b-4c95-a0fe-6365e87dac1a","ios":"levelo://app?vid=eb1efca5-917b-4c95-a0fe-6365e87dac1a"},"vehicle_type_id":"4","last_reported":1716574235,"current_range_meters":0,"station_id":"ce4bgph2rcd13ifvqc2g","pricing_plan_id":"cebpf4jnsgd1na2vs0mg"},{"bike_id":"6899777e-df5f-4e85-a757-a0beb2df16f8","system_id":"levelo_inurba_marseille","lat":43.296921,"lon":5.376579,"is_reserved":false,"is_disabled":false,"rental_uris":{"android":"levelo://app?vid=6899777e-df5f-4e85-a757-a0beb2df16f8","ios":"levelo://app?vid=6899777e-df5f-4e85-a757-a0beb2df16f8"},"vehicle_type_id":"4","last_reported":1716574235,"current_range_meters":9600,"station_id":"ce4bgkh2rcd13ifvqbl0","pricing_plan_id":"cebpf4jnsgd1na2vs0mg"},{"bike_id":"e2e9b91b-b1ce-452d-a5a2-902271469783","system_id":"levelo_inurba_marseille","lat":43.296935,"lon":5.376544,"is_reserved":false,"is_disabled":false,"rental_uris":{"android":"levelo://app?vid=e2e9b91b-b1ce-452d-a5a2-902271469783","ios":"levelo://app?vid=e2e9b91b-b1ce-452d-a5a2-902271469783"},"vehicle_type_id":"4","last_reported":1716574235,"current_range_meters":0,"station_id":"ce4bgkh2rcd13ifvqbl0","pricing_plan_id":"cebpf4jnsgd1na2vs0mg"},{"bike_id":"66fffa71-2ba2-4402-884a-2c09e25f0903","system_id":"levelo_inurba_marseille","lat":43.309589,"lon":5.390258,"is_reserved":false,"is_disabled":false,"rental_uris":{"android":"levelo://app?vid=66fffa71-2ba2-4402-884a-2c09e25f0903","ios":"levelo://app?vid=66fffa71-2ba2-4402-884a-2c09e25f0903"},"vehicle_type_id":"4","last_reported":1716574235,"current_range_meters":11200,"station_id":"ce4bgup2rcd13ifvqco0","pricing_plan_id":"cebpf4jnsgd1na2vs0mg"},{"bike_id":"80c43296-2650-457a-84e3-7803bf19a490","system_id":"levelo_inurba_marseille","lat":43.309589,"lon":5.390258,"is_reserved":false,"is_disabled":false,"rental_uris":{"android":"levelo://app?vid=80c43296-2650-457a-84e3-7803bf19a490","ios":"levelo://app?vid=80c43296-2650-457a-84e3-7803bf19a490"},"vehicle_type_id":"4","last_reported":1716574235,"current_range_meters":19600,"station_id":"ce4bgup2rcd13ifvqco0","pricing_plan_id":"cebpf4jnsgd1na2vs0mg"},{"bike_id":"01d55e34-7329-4591-9d27-703d3a3e43f9","system_id":"levelo_inurba_marseille","lat":43.309589,"lon":5.390258,"is_reserved":false,"is_disabled":false,"rental_uris":{"android":"levelo://app?vid=01d55e34-7329-4591-9d27-703d3a3e43f9","ios":"levelo://app?vid=01d55e34-7329-4591-9d27-703d3a3e43f9"},"vehicle_type_id":"4","last_reported":1716574235,"current_range_meters":0,"station_id":"ce4bgup2rcd13ifvqco0","pricing_plan_id":"cebpf4jnsgd1na2vs0mg"},{"bike_id":"ce24cd01-a1ec-49ce-91bc-229df6166f25","system_id":"levelo_inurba_marseille","lat":43.309589,"lon":5.390258,"is_reserved":false,"is_disabled":false,"rental_uris":{"android":"levelo://app?vid=ce24cd01-a1ec-49ce-91bc-229df6166f25","ios":"levelo://app?vid=ce24cd01-a1ec-49ce-91bc-229df6166f25"},"vehicle_type_id":"4","last_reported":1716574235,"current_range_meters":8400,"station_id":"ce4bgup2rcd13ifvqco0","pricing_plan_id":"cebpf4jnsgd1na2vs0mg"},{"bike_id":"15eb669b-b16d-4bff-9d49-917ae2316516","system_id":"levelo_inurba_marseille","lat":43.309589,"lon":5.390258,"is_reserved":false,"is_disabled":false,"rental_uris":{"android":"levelo://app?vid=15eb669b-b16d-4bff-9d49-917ae2316516","ios":"levelo://app?vid=15eb669b-b16d-4bff-9d49-917ae2316516"},"vehicle_type_id":"4","last_reported":1716574235,"current_range_meters":14000,"station_id":"ce4bgup2rcd13ifvqco0","pricing_plan_id":"cebpf4jnsgd1na2vs0mg"},{"bike_id":"1456d853-d958-4e07-b18d-5fd934246f42","system_id":"levelo_inurba_marseille","lat":43.317557,"lon":5.390173,"is_reserved":false,"is_disabled":false,"rental_uris":{"android":"levelo://app?vid=1456d853-d958-4e07-b18d-5fd934246f42","ios":"levelo://app?vid=1456d853-d958-4e07-b18d-5fd934246f42"},"vehicle_type_id":"4","last_reported":1716574235,"current_range_meters":9200,"station_id":"ce4bhqp2rcd13ifvqhng","pricing_plan_id":"cebpf4jnsgd1na2vs0mg"},{"bike_id":"715783de-84db-410e-8ce5-a6d9c09c8769","system_id":"levelo_inurba_marseille","lat":43.317557,"lon":5.390173,"is_reserved":false,"is_disabled":false,"rental_uris":{"android":"levelo://app?vid=715783de-84db-410e-8ce5-a6d9c09c8769","ios":"levelo://app?vid=715783de-84db-410e-8ce5-a6d9c09c8769"},"vehicle_type_id":"4","last_reported":1716574235,"current_range_meters":31200,"station_id":"ce4bhqp2rcd13ifvqhng","pricing_plan_id":"cebpf4jnsgd1na2vs0mg"},{"bike_id":"60af1f55-0297-4c8d-ae00-3fbcd2740f83","system_id":"levelo_inurba_marseille","lat":43.317557,"lon":5.390173,"is_reserved":false,"is_disabled":false,"rental_uris":{"android":"levelo://app?vid=60af1f55-0297-4c8d-ae00-3fbcd2740f83","ios":"levelo://app?vid=60af1f55-0297-4c8d-ae00-3fbcd2740f83"},"vehicle_type_id":"4","last_reported":1716574235,"current_range_meters":24400,"station_id":"ce4bhqp2rcd13ifvqhng","pricing_plan_id":"cebpf4jnsgd1na2vs0mg"},{"bike_id":"03102d8a-6a16-4cdf-b298-0d0b7b34600d","system_id":"levelo_inurba_marseille","lat":43.295748,"lon":5.37522,"is_reserved":false,"is_disabled":false,"rental_uris":{"android":"levelo://app?vid=03102d8a-6a16-4cdf-b298-0d0b7b34600d","ios":"levelo://app?vid=03102d8a-6a16-4cdf-b298-0d0b7b34600d"},"vehicle_type_id":"4","last_reported":1716574235,"current_range_meters":1600,"station_id":"ce4bgh92rcd13ifvqb50","pricing_plan_id":"cebpf4jnsgd1na2vs0mg"},{"bike_id":"ea67ee38-a663-4a31-8a3a-93cf8d058613","system_id":"levelo_inurba_marseille","lat":43.29574,"lon":5.37504,"is_reserved":false,"is_disabled":false,"rental_uris":{"android":"levelo://app?vid=ea67ee38-a663-4a31-8a3a-93cf8d058613","ios":"levelo://app?vid=ea67ee38-a663-4a31-8a3a-93cf8d058613"},"vehicle_type_id":"4","last_reported":1716574235,"current_range_meters":18400,"station_id":"ce4bgh92rcd13ifvqb50","pricing_plan_id":"cebpf4jnsgd1na2vs0mg"},{"bike_id":"c21f97e3-423d-4dc6-9401-ef2a7b2d0a3f","system_id":"levelo_inurba_marseille","lat":43.304274,"lon":5.388921,"is_reserved":false,"is_disabled":false,"rental_uris":{"android":"levelo://app?vid=c21f97e3-423d-4dc6-9401-ef2a7b2d0a3f","ios":"levelo://app?vid=c21f97e3-423d-4dc6-9401-ef2a7b2d0a3f"},"vehicle_type_id":"4","last_reported":1716574235,"current_range_meters":24000,"station_id":"ce4bgk12rcd13ifvqbi0","pricing_plan_id":"cebpf4jnsgd1na2vs0mg"},{"bike_id":"64ed6d1d-e51c-41f4-ba7f-ea05a766e5d7","system_id":"levelo_inurba_marseille","lat":43.296277,"lon":5.377108,"is_reserved":false,"is_disabled":false,"rental_uris":{"android":"levelo://app?vid=64ed6d1d-e51c-41f4-ba7f-ea05a766e5d7","ios":"levelo://app?vid=64ed6d1d-e51c-41f4-ba7f-ea05a766e5d7"},"vehicle_type_id":"4","last_reported":1716574235,"current_range_meters":13200,"station_id":"ce4bgi92rcd13ifvqb90","pricing_plan_id":"cebpf4jnsgd1na2vs0mg"},{"bike_id":"1fc7d8a4-e84d-4942-b4ca-5a516d8ac4bf","system_id":"levelo_inurba_marseille","lat":43.295748,"lon":5.37522,"is_reserved":false,"is_disabled":false,"rental_uris":{"android":"levelo://app?vid=1fc7d8a4-e84d-4942-b4ca-5a516d8ac4bf","ios":"levelo://app?vid=1fc7d8a4-e84d-4942-b4ca-5a516d8ac4bf"},"vehicle_type_id":"4","last_reported":1716574235,"current_range_meters":0,"station_id":"ce4bgh92rcd13ifvqb50","pricing_plan_id":"cebpf4jnsgd1na2vs0mg"},{"bike_id":"01eaea81-a9a0-4be3-b0d0-429fb6897853","system_id":"levelo_inurba_marseille","lat":43.299813,"lon":5.384924,"is_reserved":false,"is_disabled":false,"rental_uris":{"android":"levelo://app?vid=01eaea81-a9a0-4be3-b0d0-429fb6897853","ios":"levelo://app?vid=01eaea81-a9a0-4be3-b0d0-429fb6897853"},"vehicle_type_id":"4","last_reported":1716574235,"current_range_meters":16400,"station_id":"ce4bgj92rcd13ifvqbd0","pricing_plan_id":"cebpf4jnsgd1na2vs0mg"},{"bike_id":"ea5c8d42-c861-4802-a2ac-9f57d3bd183f","system_id":"levelo_inurba_marseille","lat":43.299683,"lon":5.384883,"is_reserved":false,"is_disabled":false,"rental_uris":{"android":"levelo://app?vid=ea5c8d42-c861-4802-a2ac-9f57d3bd183f","ios":"levelo://app?vid=ea5c8d42-c861-4802-a2ac-9f57d3bd183f"},"vehicle_type_id":"4","last_reported":1716574235,"current_range_meters":30000,"station_id":"ce4bgj92rcd13ifvqbd0","pricing_plan_id":"cebpf4jnsgd1na2vs0mg"},{"bike_id":"fd40c8d3-368f-4d75-a715-feac2b0f71e0","system_id":"levelo_inurba_marseille","lat":43.29966,"lon":5.38486,"is_reserved":false,"is_disabled":false,"rental_uris":{"android":"levelo://app?vid=fd40c8d3-368f-4d75-a715-feac2b0f71e0","ios":"levelo://app?vid=fd40c8d3-368f-4d75-a715-feac2b0f71e0"},"vehicle_type_id":"4","last_reported":1716574235,"current_range_meters":3200,"station_id":"ce4bgj92rcd13ifvqbd0","pricing_plan_id":"cebpf4jnsgd1na2vs0mg"},{"bike_id":"c0c6f35a-4c90-4d4d-94c1-e82240ba4323","system_id":"levelo_inurba_marseille","lat":43.29967,"lon":5.38489,"is_reserved":false,"is_disabled":false,"rental_uris":{"android":"levelo://app?vid=c0c6f35a-4c90-4d4d-94c1-e82240ba4323","ios":"levelo://app?vid=c0c6f35a-4c90-4d4d-94c1-e82240ba4323"},"vehicle_type_id":"4","last_reported":1716574235,"current_range_meters":400,"station_id":"ce4bgj92rcd13ifvqbd0","pricing_plan_id":"cebpf4jnsgd1na2vs0mg"},{"bike_id":"5e6c6c92-447b-4104-8d64-8e37e5728737","system_id":"levelo_inurba_marseille","lat":43.29968,"lon":5.38493,"is_reserved":false,"is_disabled":false,"rental_uris":{"android":"levelo://app?vid=5e6c6c92-447b-4104-8d64-8e37e5728737","ios":"levelo://app?vid=5e6c6c92-447b-4104-8d64-8e37e5728737"},"vehicle_type_id":"4","last_reported":1716574235,"current_range_meters":8000,"station_id":"ce4bgj92rcd13ifvqbd0","pricing_plan_id":"cebpf4jnsgd1na2vs0mg"},{"bike_id":"d014cf3e-048b-41f0-8f75-4b7171a47831","system_id":"levelo_inurba_marseille","lat":43.29964,"lon":5.3849,"is_reserved":false,"is_disabled":false,"rental_uris":{"android":"levelo://app?vid=d014cf3e-048b-41f0-8f75-4b7171a47831","ios":"levelo://app?vid=d014cf3e-048b-41f0-8f75-4b7171a47831"},"vehicle_type_id":"4","last_reported":1716574235,"current_range_meters":31600,"station_id":"ce4bgj92rcd13ifvqbd0","pricing_plan_id":"cebpf4jnsgd1na2vs0mg"},{"bike_id":"d967b1d7-750c-4968-b4d1-4af21516fe5c","system_id":"levelo_inurba_marseille","lat":43.299717,"lon":5.384845,"is_reserved":false,"is_disabled":false,"rental_uris":{"android":"levelo://app?vid=d967b1d7-750c-4968-b4d1-4af21516fe5c","ios":"levelo://app?vid=d967b1d7-750c-4968-b4d1-4af21516fe5c"},"vehicle_type_id":"4","last_reported":1716574235,"current_range_meters":30400,"station_id":"ce4bgj92rcd13ifvqbd0","pricing_plan_id":"cebpf4jnsgd1na2vs0mg"},{"bike_id":"9a1e13ca-c146-46c8-9cd9-704a08b53475","system_id":"levelo_inurba_marseille","lat":43.29963,"lon":5.38493,"is_reserved":false,"is_disabled":false,"rental_uris":{"android":"levelo://app?vid=9a1e13ca-c146-46c8-9cd9-704a08b53475","ios":"levelo://app?vid=9a1e13ca-c146-46c8-9cd9-704a08b53475"},"vehicle_type_id":"4","last_reported":1716574235,"current_range_meters":0,"station_id":"ce4bgj92rcd13ifvqbd0","pricing_plan_id":"cebpf4jnsgd1na2vs0mg"},{"bike_id":"664bcd6b-e026-4fba-a55c-16cabca6d21e","system_id":"levelo_inurba_marseille","lat":43.29962,"lon":5.38493,"is_reserved":false,"is_disabled":false,"rental_uris":{"android":"levelo://app?vid=664bcd6b-e026-4fba-a55c-16cabca6d21e","ios":"levelo://app?vid=664bcd6b-e026-4fba-a55c-16cabca6d21e"},"vehicle_type_id":"4","last_reported":1716574235,"current_range_meters":0,"station_id":"ce4bgj92rcd13ifvqbd0","pricing_plan_id":"cebpf4jnsgd1na2vs0mg"},{"bike_id":"c692fd75-9972-42e1-92a8-4ac7cce47a41","system_id":"levelo_inurba_marseille","lat":43.299243,"lon":5.37481,"is_reserved":false,"is_disabled":false,"rental_uris":{"android":"levelo://app?vid=c692fd75-9972-42e1-92a8-4ac7cce47a41","ios":"levelo://app?vid=c692fd75-9972-42e1-92a8-4ac7cce47a41"},"vehicle_type_id":"4","last_reported":1716574235,"current_range_meters":15200,"station_id":"ce4bgjh2rcd13ifvqbg0","pricing_plan_id":"cebpf4jnsgd1na2vs0mg"},{"bike_id":"78252e3e-8eff-4ccb-a142-6526e4cc39f4","system_id":"levelo_inurba_marseille","lat":43.30089,"lon":5.38729,"is_reserved":false,"is_disabled":false,"rental_uris":{"android":"levelo://app?vid=78252e3e-8eff-4ccb-a142-6526e4cc39f4","ios":"levelo://app?vid=78252e3e-8eff-4ccb-a142-6526e4cc39f4"},"vehicle_type_id":"4","last_reported":1716574235,"current_range_meters":3600,"station_id":"","pricing_plan_id":"cebpf4jnsgd1na2vs0mg"},{"bike_id":"10c9bec8-d864-4e7a-9ff7-4ace6412c9ed","system_id":"levelo_inurba_marseille","lat":43.32363,"lon":5.38878,"is_reserved":false,"is_disabled":false,"rental_uris":{"android":"levelo://app?vid=10c9bec8-d864-4e7a-9ff7-4ace6412c9ed","ios":"levelo://app?vid=10c9bec8-d864-4e7a-9ff7-4ace6412c9ed"},"vehicle_type_id":"4","last_reported":1716574235,"current_range_meters":21600,"station_id":"ce4bhqp2rcd13ifvqhog","pricing_plan_id":"cebpf4jnsgd1na2vs0mg"},{"bike_id":"eef2fc75-37f2-4919-a57c-ff6516d63899","system_id":"levelo_inurba_marseille","lat":43.323668,"lon":5.3888,"is_reserved":false,"is_disabled":false,"rental_uris":{"android":"levelo://app?vid=eef2fc75-37f2-4919-a57c-ff6516d63899","ios":"levelo://app?vid=eef2fc75-37f2-4919-a57c-ff6516d63899"},"vehicle_type_id":"4","last_reported":1716574235,"current_range_meters":0,"station_id":"ce4bhqp2rcd13ifvqhog","pricing_plan_id":"cebpf4jnsgd1na2vs0mg"},{"bike_id":"4c8882e3-fb0d-4069-aa35-6a6f8d4824eb","system_id":"levelo_inurba_marseille","lat":43.32361,"lon":5.38886,"is_reserved":false,"is_disabled":false,"rental_uris":{"android":"levelo://app?vid=4c8882e3-fb0d-4069-aa35-6a6f8d4824eb","ios":"levelo://app?vid=4c8882e3-fb0d-4069-aa35-6a6f8d4824eb"},"vehicle_type_id":"4","last_reported":1716574235,"current_range_meters":0,"station_id":"ce4bhqp2rcd13ifvqhog","pricing_plan_id":"cebpf4jnsgd1na2vs0mg"},{"bike_id":"5f35d5c7-76ed-4ce2-ab49-cbc28f093e1a","system_id":"levelo_inurba_marseille","lat":43.292749,"lon":5.368398,"is_reserved":false,"is_disabled":false,"rental_uris":{"android":"levelo://app?vid=5f35d5c7-76ed-4ce2-ab49-cbc28f093e1a","ios":"levelo://app?vid=5f35d5c7-76ed-4ce2-ab49-cbc28f093e1a"},"vehicle_type_id":"4","last_reported":1716574235,"current_range_meters":13200,"station_id":"ce4bhbp2rcd13ifvqesg","pricing_plan_id":"cebpf4jnsgd1na2vs0mg"},{"bike_id":"828360e7-38b6-4cfd-a8b2-cf11fffdd184","system_id":"levelo_inurba_marseille","lat":43.292749,"lon":5.368398,"is_reserved":false,"is_disabled":false,"rental_uris":{"android":"levelo://app?vid=828360e7-38b6-4cfd-a8b2-cf11fffdd184","ios":"levelo://app?vid=828360e7-38b6-4cfd-a8b2-cf11fffdd184"},"vehicle_type_id":"4","last_reported":1716574235,"current_range_meters":0,"station_id":"ce4bhbp2rcd13ifvqesg","pricing_plan_id":"cebpf4jnsgd1na2vs0mg"},{"bike_id":"dc6f75e0-d823-4899-a5ca-fe847f767a5b","system_id":"levelo_inurba_marseille","lat":43.292749,"lon":5.368398,"is_reserved":false,"is_disabled":false,"rental_uris":{"android":"levelo://app?vid=dc6f75e0-d823-4899-a5ca-fe847f767a5b","ios":"levelo://app?vid=dc6f75e0-d823-4899-a5ca-fe847f767a5b"},"vehicle_type_id":"4","last_reported":1716574235,"current_range_meters":2800,"station_id":"ce4bhbp2rcd13ifvqesg","pricing_plan_id":"cebpf4jnsgd1na2vs0mg"},{"bike_id":"300e7e88-16c2-49b7-aa28-dbc23edd9b13","system_id":"levelo_inurba_marseille","lat":43.293009,"lon":5.374584,"is_reserved":false,"is_disabled":false,"rental_uris":{"android":"levelo://app?vid=300e7e88-16c2-49b7-aa28-dbc23edd9b13","ios":"levelo://app?vid=300e7e88-16c2-49b7-aa28-dbc23edd9b13"},"vehicle_type_id":"4","last_reported":1716574235,"current_range_meters":0,"station_id":"ce4bgi12rcd13ifvqb70","pricing_plan_id":"cebpf4jnsgd1na2vs0mg"},{"bike_id":"7effa1e9-bee6-4971-b0ea-385bd46c3950","system_id":"levelo_inurba_marseille","lat":43.305994,"lon":5.393687,"is_reserved":false,"is_disabled":false,"rental_uris":{"android":"levelo://app?vid=7effa1e9-bee6-4971-b0ea-385bd46c3950","ios":"levelo://app?vid=7effa1e9-bee6-4971-b0ea-385bd46c3950"},"vehicle_type_id":"4","last_reported":1716574235,"current_range_meters":26400,"station_id":"ce4bh0p2rcd13ifvqd80","pricing_plan_id":"cebpf4jnsgd1na2vs0mg"},{"bike_id":"e013b6dd-b7cb-44a8-b975-87b520557f22","system_id":"levelo_inurba_marseille","lat":43.305994,"lon":5.393687,"is_reserved":false,"is_disabled":false,"rental_uris":{"android":"levelo://app?vid=e013b6dd-b7cb-44a8-b975-87b520557f22","ios":"levelo://app?vid=e013b6dd-b7cb-44a8-b975-87b520557f22"},"vehicle_type_id":"4","last_reported":1716574235,"current_range_meters":13200,"station_id":"ce4bh0p2rcd13ifvqd80","pricing_plan_id":"cebpf4jnsgd1na2vs0mg"},{"bike_id":"36dadd8d-7e3e-49f1-b28c-ac32806b6f40","system_id":"levelo_inurba_marseille","lat":43.293009,"lon":5.374584,"is_reserved":false,"is_disabled":false,"rental_uris":{"android":"levelo://app?vid=36dadd8d-7e3e-49f1-b28c-ac32806b6f40","ios":"levelo://app?vid=36dadd8d-7e3e-49f1-b28c-ac32806b6f40"},"vehicle_type_id":"4","last_reported":1716574235,"current_range_meters":0,"station_id":"ce4bgi12rcd13ifvqb70","pricing_plan_id":"cebpf4jnsgd1na2vs0mg"},{"bike_id":"e65e7e96-2286-462a-af3d-732f71b314d1","system_id":"levelo_inurba_marseille","lat":43.293009,"lon":5.374584,"is_reserved":false,"is_disabled":false,"rental_uris":{"android":"levelo://app?vid=e65e7e96-2286-462a-af3d-732f71b314d1","ios":"levelo://app?vid=e65e7e96-2286-462a-af3d-732f71b314d1"},"vehicle_type_id":"4","last_reported":1716574235,"current_range_meters":0,"station_id":"ce4bgi12rcd13ifvqb70","pricing_plan_id":"cebpf4jnsgd1na2vs0mg"},{"bike_id":"a0860d19-ccb6-4952-9dcf-7c390f79c124","system_id":"levelo_inurba_marseille","lat":43.293009,"lon":5.374584,"is_reserved":false,"is_disabled":false,"rental_uris":{"android":"levelo://app?vid=a0860d19-ccb6-4952-9dcf-7c390f79c124","ios":"levelo://app?vid=a0860d19-ccb6-4952-9dcf-7c390f79c124"},"vehicle_type_id":"4","last_reported":1716574235,"current_range_meters":23600,"station_id":"ce4bgi12rcd13ifvqb70","pricing_plan_id":"cebpf4jnsgd1na2vs0mg"},{"bike_id":"08b793aa-edb2-4ef3-8feb-528f5fe1ee22","system_id":"levelo_inurba_marseille","lat":43.293009,"lon":5.374584,"is_reserved":false,"is_disabled":false,"rental_uris":{"android":"levelo://app?vid=08b793aa-edb2-4ef3-8feb-528f5fe1ee22","ios":"levelo://app?vid=08b793aa-edb2-4ef3-8feb-528f5fe1ee22"},"vehicle_type_id":"4","last_reported":1716574235,"current_range_meters":21200,"station_id":"ce4bgi12rcd13ifvqb70","pricing_plan_id":"cebpf4jnsgd1na2vs0mg"},{"bike_id":"a6350e46-36ad-4a4b-88ee-19dc3d4a425b","system_id":"levelo_inurba_marseille","lat":43.302992,"lon":5.392136,"is_reserved":false,"is_disabled":false,"rental_uris":{"android":"levelo://app?vid=a6350e46-36ad-4a4b-88ee-19dc3d4a425b","ios":"levelo://app?vid=a6350e46-36ad-4a4b-88ee-19dc3d4a425b"},"vehicle_type_id":"4","last_reported":1716574235,"current_range_meters":0,"station_id":"ce4bgkh2rcd13ifvqbk0","pricing_plan_id":"cebpf4jnsgd1na2vs0mg"},{"bike_id":"8dca27de-4b79-4350-a1c7-203ddb7a0626","system_id":"levelo_inurba_marseille","lat":43.302992,"lon":5.392136,"is_reserved":false,"is_disabled":false,"rental_uris":{"android":"levelo://app?vid=8dca27de-4b79-4350-a1c7-203ddb7a0626","ios":"levelo://app?vid=8dca27de-4b79-4350-a1c7-203ddb7a0626"},"vehicle_type_id":"4","last_reported":1716574235,"current_range_meters":10000,"station_id":"ce4bgkh2rcd13ifvqbk0","pricing_plan_id":"cebpf4jnsgd1na2vs0mg"},{"bike_id":"cab4d411-19e8-448f-a40f-128721181661","system_id":"levelo_inurba_marseille","lat":43.29362,"lon":5.37856,"is_reserved":false,"is_disabled":false,"rental_uris":{"android":"levelo://app?vid=cab4d411-19e8-448f-a40f-128721181661","ios":"levelo://app?vid=cab4d411-19e8-448f-a40f-128721181661"},"vehicle_type_id":"4","last_reported":1716574235,"current_range_meters":0,"station_id":"ce4bgjh2rcd13ifvqbf0","pricing_plan_id":"cebpf4jnsgd1na2vs0mg"},{"bike_id":"4b01c79b-b1eb-474b-90ea-b0f75cbba146","system_id":"levelo_inurba_marseille","lat":43.30085,"lon":5.390856,"is_reserved":false,"is_disabled":false,"rental_uris":{"android":"levelo://app?vid=4b01c79b-b1eb-474b-90ea-b0f75cbba146","ios":"levelo://app?vid=4b01c79b-b1eb-474b-90ea-b0f75cbba146"},"vehicle_type_id":"4","last_reported":1716574235,"current_range_meters":0,"station_id":"ce4bh192rcd13ifvqdb0","pricing_plan_id":"cebpf4jnsgd1na2vs0mg"},{"bike_id":"acf61fd3-d1ce-4b2e-a2b7-c9a3b80ae1d3","system_id":"levelo_inurba_marseille","lat":43.292311,"lon":5.360731,"is_reserved":false,"is_disabled":false,"rental_uris":{"android":"levelo://app?vid=acf61fd3-d1ce-4b2e-a2b7-c9a3b80ae1d3","ios":"levelo://app?vid=acf61fd3-d1ce-4b2e-a2b7-c9a3b80ae1d3"},"vehicle_type_id":"4","last_reported":1716574235,"current_range_meters":24000,"station_id":"ce4bhbh2rcd13ifvqeqg","pricing_plan_id":"cebpf4jnsgd1na2vs0mg"},{"bike_id":"8bd22901-df68-49bd-b184-11df07c9e691","system_id":"levelo_inurba_marseille","lat":43.2936,"lon":5.37835,"is_reserved":false,"is_disabled":false,"rental_uris":{"android":"levelo://app?vid=8bd22901-df68-49bd-b184-11df07c9e691","ios":"levelo://app?vid=8bd22901-df68-49bd-b184-11df07c9e691"},"vehicle_type_id":"4","last_reported":1716574235,"current_range_meters":16400,"station_id":"ce4bgjh2rcd13ifvqbf0","pricing_plan_id":"cebpf4jnsgd1na2vs0mg"},{"bike_id":"a0b408f1-38a1-454e-a7cf-aa4f14066ad4","system_id":"levelo_inurba_marseille","lat":43.292311,"lon":5.360731,"is_reserved":false,"is_disabled":false,"rental_uris":{"android":"levelo://app?vid=a0b408f1-38a1-454e-a7cf-aa4f14066ad4","ios":"levelo://app?vid=a0b408f1-38a1-454e-a7cf-aa4f14066ad4"},"vehicle_type_id":"4","last_reported":1716574235,"current_range_meters":0,"station_id":"ce4bhbh2rcd13ifvqeqg","pricing_plan_id":"cebpf4jnsgd1na2vs0mg"},{"bike_id":"455dde78-7f37-4f78-a6c8-efe3a9dae4eb","system_id":"levelo_inurba_marseille","lat":43.292311,"lon":5.360731,"is_reserved":false,"is_disabled":false,"rental_uris":{"android":"levelo://app?vid=455dde78-7f37-4f78-a6c8-efe3a9dae4eb","ios":"levelo://app?vid=455dde78-7f37-4f78-a6c8-efe3a9dae4eb"},"vehicle_type_id":"4","last_reported":1716574235,"current_range_meters":19600,"station_id":"ce4bhbh2rcd13ifvqeqg","pricing_plan_id":"cebpf4jnsgd1na2vs0mg"},{"bike_id":"e9740470-42a5-46f8-9c3b-ee047fd8fb67","system_id":"levelo_inurba_marseille","lat":43.298764,"lon":5.388973,"is_reserved":false,"is_disabled":false,"rental_uris":{"android":"levelo://app?vid=e9740470-42a5-46f8-9c3b-ee047fd8fb67","ios":"levelo://app?vid=e9740470-42a5-46f8-9c3b-ee047fd8fb67"},"vehicle_type_id":"4","last_reported":1716574235,"current_range_meters":14800,"station_id":"ce4bh392rcd13ifvqdl0","pricing_plan_id":"cebpf4jnsgd1na2vs0mg"},{"bike_id":"4bb4bf04-0ef8-495e-8859-56ab58338a56","system_id":"levelo_inurba_marseille","lat":43.292311,"lon":5.360731,"is_reserved":false,"is_disabled":false,"rental_uris":{"android":"levelo://app?vid=4bb4bf04-0ef8-495e-8859-56ab58338a56","ios":"levelo://app?vid=4bb4bf04-0ef8-495e-8859-56ab58338a56"},"vehicle_type_id":"4","last_reported":1716574235,"current_range_meters":20800,"station_id":"ce4bhbh2rcd13ifvqeqg","pricing_plan_id":"cebpf4jnsgd1na2vs0mg"},{"bike_id":"20514b7c-838e-4103-bd17-86d25fe02928","system_id":"levelo_inurba_marseille","lat":43.30085,"lon":5.390856,"is_reserved":false,"is_disabled":false,"rental_uris":{"android":"levelo://app?vid=20514b7c-838e-4103-bd17-86d25fe02928","ios":"levelo://app?vid=20514b7c-838e-4103-bd17-86d25fe02928"},"vehicle_type_id":"4","last_reported":1716574235,"current_range_meters":21200,"station_id":"ce4bh192rcd13ifvqdb0","pricing_plan_id":"cebpf4jnsgd1na2vs0mg"},{"bike_id":"c8aa69dd-ed00-4014-abd1-0b0bf97d0725","system_id":"levelo_inurba_marseille","lat":43.300814,"lon":5.390961,"is_reserved":false,"is_disabled":false,"rental_uris":{"android":"levelo://app?vid=c8aa69dd-ed00-4014-abd1-0b0bf97d0725","ios":"levelo://app?vid=c8aa69dd-ed00-4014-abd1-0b0bf97d0725"},"vehicle_type_id":"4","last_reported":1716574235,"current_range_meters":0,"station_id":"","pricing_plan_id":"cebpf4jnsgd1na2vs0mg"},{"bike_id":"23f79f2d-e349-413b-ae78-c3b7f633e079","system_id":"levelo_inurba_marseille","lat":43.3008,"lon":5.39097,"is_reserved":false,"is_disabled":false,"rental_uris":{"android":"levelo://app?vid=23f79f2d-e349-413b-ae78-c3b7f633e079","ios":"levelo://app?vid=23f79f2d-e349-413b-ae78-c3b7f633e079"},"vehicle_type_id":"4","last_reported":1716574235,"current_range_meters":18000,"station_id":"ce4bh192rcd13ifvqdb0","pricing_plan_id":"cebpf4jnsgd1na2vs0mg"},{"bike_id":"95242ab9-b528-4867-8510-f8e7d27ba277","system_id":"levelo_inurba_marseille","lat":43.291671,"lon":5.371575,"is_reserved":false,"is_disabled":false,"rental_uris":{"android":"levelo://app?vid=95242ab9-b528-4867-8510-f8e7d27ba277","ios":"levelo://app?vid=95242ab9-b528-4867-8510-f8e7d27ba277"},"vehicle_type_id":"4","last_reported":1716574235,"current_range_meters":11200,"station_id":"ce4bha92rcd13ifvqeh0","pricing_plan_id":"cebpf4jnsgd1na2vs0mg"},{"bike_id":"056a53c4-abc6-4d9d-94df-47c8b2540b8f","system_id":"levelo_inurba_marseille","lat":43.298764,"lon":5.388973,"is_reserved":false,"is_disabled":false,"rental_uris":{"android":"levelo://app?vid=056a53c4-abc6-4d9d-94df-47c8b2540b8f","ios":"levelo://app?vid=056a53c4-abc6-4d9d-94df-47c8b2540b8f"},"vehicle_type_id":"4","last_reported":1716574235,"current_range_meters":18800,"station_id":"ce4bh392rcd13ifvqdl0","pricing_plan_id":"cebpf4jnsgd1na2vs0mg"},{"bike_id":"e7f0e07c-d803-43aa-a003-8ba8ffebdd39","system_id":"levelo_inurba_marseille","lat":43.298764,"lon":5.388973,"is_reserved":false,"is_disabled":false,"rental_uris":{"android":"levelo://app?vid=e7f0e07c-d803-43aa-a003-8ba8ffebdd39","ios":"levelo://app?vid=e7f0e07c-d803-43aa-a003-8ba8ffebdd39"},"vehicle_type_id":"4","last_reported":1716574235,"current_range_meters":13200,"station_id":"ce4bh392rcd13ifvqdl0","pricing_plan_id":"cebpf4jnsgd1na2vs0mg"},{"bike_id":"e294ab5b-5bd1-4dae-b468-15bfddfa8c16","system_id":"levelo_inurba_marseille","lat":43.298764,"lon":5.388973,"is_reserved":false,"is_disabled":false,"rental_uris":{"android":"levelo://app?vid=e294ab5b-5bd1-4dae-b468-15bfddfa8c16","ios":"levelo://app?vid=e294ab5b-5bd1-4dae-b468-15bfddfa8c16"},"vehicle_type_id":"4","last_reported":1716574235,"current_range_meters":4800,"station_id":"ce4bh392rcd13ifvqdl0","pricing_plan_id":"cebpf4jnsgd1na2vs0mg"},{"bike_id":"812a4be2-bd29-4303-a8fe-42df9db058c6","system_id":"levelo_inurba_marseille","lat":43.309038,"lon":5.396546,"is_reserved":false,"is_disabled":false,"rental_uris":{"android":"levelo://app?vid=812a4be2-bd29-4303-a8fe-42df9db058c6","ios":"levelo://app?vid=812a4be2-bd29-4303-a8fe-42df9db058c6"},"vehicle_type_id":"4","last_reported":1716574235,"current_range_meters":0,"station_id":"ce4bh012rcd13ifvqcv0","pricing_plan_id":"cebpf4jnsgd1na2vs0mg"},{"bike_id":"9fc11b32-68c7-43b5-bbfa-3c43ff5f1176","system_id":"levelo_inurba_marseille","lat":43.309038,"lon":5.396546,"is_reserved":false,"is_disabled":false,"rental_uris":{"android":"levelo://app?vid=9fc11b32-68c7-43b5-bbfa-3c43ff5f1176","ios":"levelo://app?vid=9fc11b32-68c7-43b5-bbfa-3c43ff5f1176"},"vehicle_type_id":"4","last_reported":1716574235,"current_range_meters":0,"station_id":"ce4bh012rcd13ifvqcv0","pricing_plan_id":"cebpf4jnsgd1na2vs0mg"},{"bike_id":"3df64b94-68f8-401c-aa4c-848c0e944567","system_id":"levelo_inurba_marseille","lat":43.313291,"lon":5.396838,"is_reserved":false,"is_disabled":false,"rental_uris":{"android":"levelo://app?vid=3df64b94-68f8-401c-aa4c-848c0e944567","ios":"levelo://app?vid=3df64b94-68f8-401c-aa4c-848c0e944567"},"vehicle_type_id":"4","last_reported":1716574235,"current_range_meters":18800,"station_id":"ce4bgvp2rcd13ifvqcu0","pricing_plan_id":"cebpf4jnsgd1na2vs0mg"},{"bike_id":"e357b7d1-79be-4dd6-837c-37db48bfcc05","system_id":"levelo_inurba_marseille","lat":43.309038,"lon":5.396546,"is_reserved":false,"is_disabled":false,"rental_uris":{"android":"levelo://app?vid=e357b7d1-79be-4dd6-837c-37db48bfcc05","ios":"levelo://app?vid=e357b7d1-79be-4dd6-837c-37db48bfcc05"},"vehicle_type_id":"4","last_reported":1716574235,"current_range_meters":3600,"station_id":"ce4bh012rcd13ifvqcv0","pricing_plan_id":"cebpf4jnsgd1na2vs0mg"},{"bike_id":"bffc0406-18c3-4d59-89af-7409ecd88ad4","system_id":"levelo_inurba_marseille","lat":43.29529,"lon":5.385581,"is_reserved":false,"is_disabled":false,"rental_uris":{"android":"levelo://app?vid=bffc0406-18c3-4d59-89af-7409ecd88ad4","ios":"levelo://app?vid=bffc0406-18c3-4d59-89af-7409ecd88ad4"},"vehicle_type_id":"4","last_reported":1716574235,"current_range_meters":11600,"station_id":"ce4bgih2rcd13ifvqba0","pricing_plan_id":"cebpf4jnsgd1na2vs0mg"},{"bike_id":"6269f41a-0042-4a16-ac1e-20fde93c482f","system_id":"levelo_inurba_marseille","lat":43.313291,"lon":5.396838,"is_reserved":false,"is_disabled":false,"rental_uris":{"android":"levelo://app?vid=6269f41a-0042-4a16-ac1e-20fde93c482f","ios":"levelo://app?vid=6269f41a-0042-4a16-ac1e-20fde93c482f"},"vehicle_type_id":"4","last_reported":1716574235,"current_range_meters":7600,"station_id":"ce4bgvp2rcd13ifvqcu0","pricing_plan_id":"cebpf4jnsgd1na2vs0mg"},{"bike_id":"d36ca68f-d60c-4c79-b31c-2dfc4071c690","system_id":"levelo_inurba_marseille","lat":43.29529,"lon":5.385581,"is_reserved":false,"is_disabled":false,"rental_uris":{"android":"levelo://app?vid=d36ca68f-d60c-4c79-b31c-2dfc4071c690","ios":"levelo://app?vid=d36ca68f-d60c-4c79-b31c-2dfc4071c690"},"vehicle_type_id":"4","last_reported":1716574235,"current_range_meters":0,"station_id":"ce4bgih2rcd13ifvqba0","pricing_plan_id":"cebpf4jnsgd1na2vs0mg"},{"bike_id":"00d01e3e-bea6-4666-84a6-e12e39bf6f88","system_id":"levelo_inurba_marseille","lat":43.295171,"lon":5.385811,"is_reserved":false,"is_disabled":false,"rental_uris":{"android":"levelo://app?vid=00d01e3e-bea6-4666-84a6-e12e39bf6f88","ios":"levelo://app?vid=00d01e3e-bea6-4666-84a6-e12e39bf6f88"},"vehicle_type_id":"4","last_reported":1716574235,"current_range_meters":6400,"station_id":"ce4bh2h2rcd13ifvqdh0","pricing_plan_id":"cebpf4jnsgd1na2vs0mg"},{"bike_id":"42875bbc-b0be-4681-9fb4-5ca291cff835","system_id":"levelo_inurba_marseille","lat":43.290595,"lon":5.371538,"is_reserved":false,"is_disabled":false,"rental_uris":{"android":"levelo://app?vid=42875bbc-b0be-4681-9fb4-5ca291cff835","ios":"levelo://app?vid=42875bbc-b0be-4681-9fb4-5ca291cff835"},"vehicle_type_id":"4","last_reported":1716574235,"current_range_meters":0,"station_id":"ce4bh5p2rcd13ifvqe4g","pricing_plan_id":"cebpf4jnsgd1na2vs0mg"},{"bike_id":"543ad27a-ec2a-4390-a41a-9bf748a31fca","system_id":"levelo_inurba_marseille","lat":43.302008,"lon":5.394694,"is_reserved":false,"is_disabled":false,"rental_uris":{"android":"levelo://app?vid=543ad27a-ec2a-4390-a41a-9bf748a31fca","ios":"levelo://app?vid=543ad27a-ec2a-4390-a41a-9bf748a31fca"},"vehicle_type_id":"4","last_reported":1716574235,"current_range_meters":6800,"station_id":"ce4bh0p2rcd13ifvqd70","pricing_plan_id":"cebpf4jnsgd1na2vs0mg"},{"bike_id":"f3e846e9-6bd8-4be3-bec8-c826b1ed6e7a","system_id":"levelo_inurba_marseille","lat":43.30211,"lon":5.3947,"is_reserved":false,"is_disabled":false,"rental_uris":{"android":"levelo://app?vid=f3e846e9-6bd8-4be3-bec8-c826b1ed6e7a","ios":"levelo://app?vid=f3e846e9-6bd8-4be3-bec8-c826b1ed6e7a"},"vehicle_type_id":"4","last_reported":1716574235,"current_range_meters":0,"station_id":"ce4bh0p2rcd13ifvqd70","pricing_plan_id":"cebpf4jnsgd1na2vs0mg"},{"bike_id":"45a9ba71-0a05-4bce-a771-eb20f7b758b5","system_id":"levelo_inurba_marseille","lat":43.290631,"lon":5.359244,"is_reserved":false,"is_disabled":false,"rental_uris":{"android":"levelo://app?vid=45a9ba71-0a05-4bce-a771-eb20f7b758b5","ios":"levelo://app?vid=45a9ba71-0a05-4bce-a771-eb20f7b758b5"},"vehicle_type_id":"4","last_reported":1716574235,"current_range_meters":0,"station_id":"ce4bha92rcd13ifvqeg0","pricing_plan_id":"cebpf4jnsgd1na2vs0mg"},{"bike_id":"0f7a67d7-0f8a-4927-9cce-4b911f950a3a","system_id":"levelo_inurba_marseille","lat":43.290631,"lon":5.359244,"is_reserved":false,"is_disabled":false,"rental_uris":{"android":"levelo://app?vid=0f7a67d7-0f8a-4927-9cce-4b911f950a3a","ios":"levelo://app?vid=0f7a67d7-0f8a-4927-9cce-4b911f950a3a"},"vehicle_type_id":"4","last_reported":1716574235,"current_range_meters":28400,"station_id":"ce4bha92rcd13ifvqeg0","pricing_plan_id":"cebpf4jnsgd1na2vs0mg"},{"bike_id":"e370e371-e4eb-4e1e-a903-45641ed3080e","system_id":"levelo_inurba_marseille","lat":43.290624,"lon":5.359245,"is_reserved":false,"is_disabled":false,"rental_uris":{"android":"levelo://app?vid=e370e371-e4eb-4e1e-a903-45641ed3080e","ios":"levelo://app?vid=e370e371-e4eb-4e1e-a903-45641ed3080e"},"vehicle_type_id":"4","last_reported":1716574235,"current_range_meters":5600,"station_id":"ce4bha92rcd13ifvqeg0","pricing_plan_id":"cebpf4jnsgd1na2vs0mg"},{"bike_id":"d7c3d58a-1b1e-4f17-8334-dc6c86a730af","system_id":"levelo_inurba_marseille","lat":43.29034,"lon":5.359267,"is_reserved":false,"is_disabled":false,"rental_uris":{"android":"levelo://app?vid=d7c3d58a-1b1e-4f17-8334-dc6c86a730af","ios":"levelo://app?vid=d7c3d58a-1b1e-4f17-8334-dc6c86a730af"},"vehicle_type_id":"4","last_reported":1716574235,"current_range_meters":1200,"station_id":"ce4bha92rcd13ifvqeg0","pricing_plan_id":"cebpf4jnsgd1na2vs0mg"},{"bike_id":"2e462820-0f82-44ff-92f7-8f07697d9d64","system_id":"levelo_inurba_marseille","lat":43.290631,"lon":5.359244,"is_reserved":false,"is_disabled":false,"rental_uris":{"android":"levelo://app?vid=2e462820-0f82-44ff-92f7-8f07697d9d64","ios":"levelo://app?vid=2e462820-0f82-44ff-92f7-8f07697d9d64"},"vehicle_type_id":"4","last_reported":1716574235,"current_range_meters":23600,"station_id":"ce4bha92rcd13ifvqeg0","pricing_plan_id":"cebpf4jnsgd1na2vs0mg"},{"bike_id":"af9817a0-aec0-4674-a9b6-d820f233318b","system_id":"levelo_inurba_marseille","lat":43.29416,"lon":5.38621,"is_reserved":false,"is_disabled":false,"rental_uris":{"android":"levelo://app?vid=af9817a0-aec0-4674-a9b6-d820f233318b","ios":"levelo://app?vid=af9817a0-aec0-4674-a9b6-d820f233318b"},"vehicle_type_id":"4","last_reported":1716574235,"current_range_meters":4400,"station_id":"ce4bh2h2rcd13ifvqdh0","pricing_plan_id":"cebpf4jnsgd1na2vs0mg"},{"bike_id":"41c9d2fa-fc8f-4559-b3ce-74b26948b33a","system_id":"levelo_inurba_marseille","lat":43.289184,"lon":5.366408,"is_reserved":false,"is_disabled":false,"rental_uris":{"android":"levelo://app?vid=41c9d2fa-fc8f-4559-b3ce-74b26948b33a","ios":"levelo://app?vid=41c9d2fa-fc8f-4559-b3ce-74b26948b33a"},"vehicle_type_id":"4","last_reported":1716574235,"current_range_meters":10800,"station_id":"ce4bhap2rcd13ifvqek0","pricing_plan_id":"cebpf4jnsgd1na2vs0mg"},{"bike_id":"f4a8c227-a526-41a6-baa0-08ae049b5359","system_id":"levelo_inurba_marseille","lat":43.290065,"lon":5.359374,"is_reserved":false,"is_disabled":false,"rental_uris":{"android":"levelo://app?vid=f4a8c227-a526-41a6-baa0-08ae049b5359","ios":"levelo://app?vid=f4a8c227-a526-41a6-baa0-08ae049b5359"},"vehicle_type_id":"4","last_reported":1716574235,"current_range_meters":1200,"station_id":"ce4bha92rcd13ifvqeg0","pricing_plan_id":"cebpf4jnsgd1na2vs0mg"},{"bike_id":"c91d30a1-06d8-4a3f-93a9-8db7081eab7d","system_id":"levelo_inurba_marseille","lat":43.294153,"lon":5.386305,"is_reserved":false,"is_disabled":false,"rental_uris":{"android":"levelo://app?vid=c91d30a1-06d8-4a3f-93a9-8db7081eab7d","ios":"levelo://app?vid=c91d30a1-06d8-4a3f-93a9-8db7081eab7d"},"vehicle_type_id":"4","last_reported":1716574235,"current_range_meters":22400,"station_id":"ce4bh2h2rcd13ifvqdh0","pricing_plan_id":"cebpf4jnsgd1na2vs0mg"},{"bike_id":"1ee94c8b-43d6-48c2-a277-aa1c9aa01cd4","system_id":"levelo_inurba_marseille","lat":43.28937,"lon":5.36628,"is_reserved":false,"is_disabled":false,"rental_uris":{"android":"levelo://app?vid=1ee94c8b-43d6-48c2-a277-aa1c9aa01cd4","ios":"levelo://app?vid=1ee94c8b-43d6-48c2-a277-aa1c9aa01cd4"},"vehicle_type_id":"4","last_reported":1716574235,"current_range_meters":14800,"station_id":"ce4bhap2rcd13ifvqek0","pricing_plan_id":"cebpf4jnsgd1na2vs0mg"},{"bike_id":"523e54b1-d1d9-45cc-8957-6112cae1c405","system_id":"levelo_inurba_marseille","lat":43.28936,"lon":5.36642,"is_reserved":false,"is_disabled":false,"rental_uris":{"android":"levelo://app?vid=523e54b1-d1d9-45cc-8957-6112cae1c405","ios":"levelo://app?vid=523e54b1-d1d9-45cc-8957-6112cae1c405"},"vehicle_type_id":"4","last_reported":1716574235,"current_range_meters":0,"station_id":"ce4bhap2rcd13ifvqek0","pricing_plan_id":"cebpf4jnsgd1na2vs0mg"},{"bike_id":"54307852-10fc-4ac9-b5e8-54258ac57977","system_id":"levelo_inurba_marseille","lat":43.289184,"lon":5.366408,"is_reserved":false,"is_disabled":false,"rental_uris":{"android":"levelo://app?vid=54307852-10fc-4ac9-b5e8-54258ac57977","ios":"levelo://app?vid=54307852-10fc-4ac9-b5e8-54258ac57977"},"vehicle_type_id":"4","last_reported":1716574235,"current_range_meters":11200,"station_id":"ce4bhap2rcd13ifvqek0","pricing_plan_id":"cebpf4jnsgd1na2vs0mg"},{"bike_id":"384ed6ab-3175-4dd0-8a39-5b06fa200887","system_id":"levelo_inurba_marseille","lat":43.289184,"lon":5.366408,"is_reserved":false,"is_disabled":false,"rental_uris":{"android":"levelo://app?vid=384ed6ab-3175-4dd0-8a39-5b06fa200887","ios":"levelo://app?vid=384ed6ab-3175-4dd0-8a39-5b06fa200887"},"vehicle_type_id":"4","last_reported":1716574235,"current_range_meters":0,"station_id":"ce4bhap2rcd13ifvqek0","pricing_plan_id":"cebpf4jnsgd1na2vs0mg"},{"bike_id":"ba60c1ac-c062-4ac9-92b4-a7b29bfe8ca6","system_id":"levelo_inurba_marseille","lat":43.289313,"lon":5.366421,"is_reserved":false,"is_disabled":false,"rental_uris":{"android":"levelo://app?vid=ba60c1ac-c062-4ac9-92b4-a7b29bfe8ca6","ios":"levelo://app?vid=ba60c1ac-c062-4ac9-92b4-a7b29bfe8ca6"},"vehicle_type_id":"4","last_reported":1716574235,"current_range_meters":28000,"station_id":"ce4bhap2rcd13ifvqek0","pricing_plan_id":"cebpf4jnsgd1na2vs0mg"},{"bike_id":"c4c4e2fe-264d-4993-8a16-ccc3b151e94f","system_id":"levelo_inurba_marseille","lat":43.289468,"lon":5.363719,"is_reserved":false,"is_disabled":false,"rental_uris":{"android":"levelo://app?vid=c4c4e2fe-264d-4993-8a16-ccc3b151e94f","ios":"levelo://app?vid=c4c4e2fe-264d-4993-8a16-ccc3b151e94f"},"vehicle_type_id":"4","last_reported":1716574235,"current_range_meters":19200,"station_id":"ce4bhc92rcd13ifvqetg","pricing_plan_id":"cebpf4jnsgd1na2vs0mg"},{"bike_id":"1015aa50-b3a0-4c1c-8c8d-a97dac0335c9","system_id":"levelo_inurba_marseille","lat":43.2893,"lon":5.36638,"is_reserved":false,"is_disabled":false,"rental_uris":{"android":"levelo://app?vid=1015aa50-b3a0-4c1c-8c8d-a97dac0335c9","ios":"levelo://app?vid=1015aa50-b3a0-4c1c-8c8d-a97dac0335c9"},"vehicle_type_id":"4","last_reported":1716574235,"current_range_meters":4400,"station_id":"ce4bhap2rcd13ifvqek0","pricing_plan_id":"cebpf4jnsgd1na2vs0mg"},{"bike_id":"233635d6-3f6f-4e93-a185-f78cfe101fbe","system_id":"levelo_inurba_marseille","lat":43.289184,"lon":5.366408,"is_reserved":false,"is_disabled":false,"rental_uris":{"android":"levelo://app?vid=233635d6-3f6f-4e93-a185-f78cfe101fbe","ios":"levelo://app?vid=233635d6-3f6f-4e93-a185-f78cfe101fbe"},"vehicle_type_id":"4","last_reported":1716574235,"current_range_meters":400,"station_id":"ce4bhap2rcd13ifvqek0","pricing_plan_id":"cebpf4jnsgd1na2vs0mg"},{"bike_id":"d1d84b9d-445c-4657-8277-faed9b8b675f","system_id":"levelo_inurba_marseille","lat":43.289468,"lon":5.363719,"is_reserved":false,"is_disabled":false,"rental_uris":{"android":"levelo://app?vid=d1d84b9d-445c-4657-8277-faed9b8b675f","ios":"levelo://app?vid=d1d84b9d-445c-4657-8277-faed9b8b675f"},"vehicle_type_id":"4","last_reported":1716574235,"current_range_meters":0,"station_id":"ce4bhc92rcd13ifvqetg","pricing_plan_id":"cebpf4jnsgd1na2vs0mg"},{"bike_id":"9837189d-83a7-41a0-910e-49ba10535ad5","system_id":"levelo_inurba_marseille","lat":43.293853,"lon":5.386276,"is_reserved":false,"is_disabled":false,"rental_uris":{"android":"levelo://app?vid=9837189d-83a7-41a0-910e-49ba10535ad5","ios":"levelo://app?vid=9837189d-83a7-41a0-910e-49ba10535ad5"},"vehicle_type_id":"4","last_reported":1716574235,"current_range_meters":0,"station_id":"ce4bh2h2rcd13ifvqdh0","pricing_plan_id":"cebpf4jnsgd1na2vs0mg"},{"bike_id":"04d6df8d-5743-402a-ab99-c47756340528","system_id":"levelo_inurba_marseille","lat":43.286591,"lon":5.363346,"is_reserved":false,"is_disabled":false,"rental_uris":{"android":"levelo://app?vid=04d6df8d-5743-402a-ab99-c47756340528","ios":"levelo://app?vid=04d6df8d-5743-402a-ab99-c47756340528"},"vehicle_type_id":"4","last_reported":1716574235,"current_range_meters":11200,"station_id":"ce4bhah2rcd13ifvqej0","pricing_plan_id":"cebpf4jnsgd1na2vs0mg"},{"bike_id":"ff7d8298-d523-421f-80a6-ed2019cfbc10","system_id":"levelo_inurba_marseille","lat":43.292642,"lon":5.384254,"is_reserved":false,"is_disabled":false,"rental_uris":{"android":"levelo://app?vid=ff7d8298-d523-421f-80a6-ed2019cfbc10","ios":"levelo://app?vid=ff7d8298-d523-421f-80a6-ed2019cfbc10"},"vehicle_type_id":"4","last_reported":1716574235,"current_range_meters":800,"station_id":"ce4bh692rcd13ifvqea0","pricing_plan_id":"cebpf4jnsgd1na2vs0mg"},{"bike_id":"59348392-7f17-4310-bf10-dc0ad71f8ab4","system_id":"levelo_inurba_marseille","lat":43.292644,"lon":5.384257,"is_reserved":false,"is_disabled":false,"rental_uris":{"android":"levelo://app?vid=59348392-7f17-4310-bf10-dc0ad71f8ab4","ios":"levelo://app?vid=59348392-7f17-4310-bf10-dc0ad71f8ab4"},"vehicle_type_id":"4","last_reported":1716574235,"current_range_meters":0,"station_id":"ce4bh692rcd13ifvqea0","pricing_plan_id":"cebpf4jnsgd1na2vs0mg"},{"bike_id":"ae1dba94-33c0-411e-98a7-0194319fb7c0","system_id":"levelo_inurba_marseille","lat":43.292644,"lon":5.384257,"is_reserved":false,"is_disabled":false,"rental_uris":{"android":"levelo://app?vid=ae1dba94-33c0-411e-98a7-0194319fb7c0","ios":"levelo://app?vid=ae1dba94-33c0-411e-98a7-0194319fb7c0"},"vehicle_type_id":"4","last_reported":1716574235,"current_range_meters":4800,"station_id":"ce4bh692rcd13ifvqea0","pricing_plan_id":"cebpf4jnsgd1na2vs0mg"},{"bike_id":"ea2a81ce-466d-45c4-aad0-6a8d72e747af","system_id":"levelo_inurba_marseille","lat":43.292609,"lon":5.384354,"is_reserved":false,"is_disabled":false,"rental_uris":{"android":"levelo://app?vid=ea2a81ce-466d-45c4-aad0-6a8d72e747af","ios":"levelo://app?vid=ea2a81ce-466d-45c4-aad0-6a8d72e747af"},"vehicle_type_id":"4","last_reported":1716574235,"current_range_meters":0,"station_id":"ce4bh692rcd13ifvqea0","pricing_plan_id":"cebpf4jnsgd1na2vs0mg"},{"bike_id":"26879562-a620-4492-9fea-8aefe63ff97d","system_id":"levelo_inurba_marseille","lat":43.304274,"lon":5.397513,"is_reserved":false,"is_disabled":false,"rental_uris":{"android":"levelo://app?vid=26879562-a620-4492-9fea-8aefe63ff97d","ios":"levelo://app?vid=26879562-a620-4492-9fea-8aefe63ff97d"},"vehicle_type_id":"4","last_reported":1716574235,"current_range_meters":31200,"station_id":"ce4bh092rcd13ifvqd20","pricing_plan_id":"cebpf4jnsgd1na2vs0mg"},{"bike_id":"1fcabd6b-461c-49e1-a59c-bc6bc9a70274","system_id":"levelo_inurba_marseille","lat":43.292642,"lon":5.384254,"is_reserved":false,"is_disabled":false,"rental_uris":{"android":"levelo://app?vid=1fcabd6b-461c-49e1-a59c-bc6bc9a70274","ios":"levelo://app?vid=1fcabd6b-461c-49e1-a59c-bc6bc9a70274"},"vehicle_type_id":"4","last_reported":1716574235,"current_range_meters":29600,"station_id":"ce4bh692rcd13ifvqea0","pricing_plan_id":"cebpf4jnsgd1na2vs0mg"},{"bike_id":"cec1d956-d6e3-4b18-9a29-0f31236206ec","system_id":"levelo_inurba_marseille","lat":43.29257,"lon":5.3844,"is_reserved":false,"is_disabled":false,"rental_uris":{"android":"levelo://app?vid=cec1d956-d6e3-4b18-9a29-0f31236206ec","ios":"levelo://app?vid=cec1d956-d6e3-4b18-9a29-0f31236206ec"},"vehicle_type_id":"4","last_reported":1716574235,"current_range_meters":0,"station_id":"ce4bh692rcd13ifvqea0","pricing_plan_id":"cebpf4jnsgd1na2vs0mg"},{"bike_id":"3f59f5e2-48d9-454e-838e-caf49a5d31c7","system_id":"levelo_inurba_marseille","lat":43.304296,"lon":5.397513,"is_reserved":false,"is_disabled":false,"rental_uris":{"android":"levelo://app?vid=3f59f5e2-48d9-454e-838e-caf49a5d31c7","ios":"levelo://app?vid=3f59f5e2-48d9-454e-838e-caf49a5d31c7"},"vehicle_type_id":"4","last_reported":1716574235,"current_range_meters":0,"station_id":"ce4bh092rcd13ifvqd20","pricing_plan_id":"cebpf4jnsgd1na2vs0mg"},{"bike_id":"335caf7a-83db-412f-b876-0f34d3e25551","system_id":"levelo_inurba_marseille","lat":43.292621,"lon":5.384694,"is_reserved":false,"is_disabled":false,"rental_uris":{"android":"levelo://app?vid=335caf7a-83db-412f-b876-0f34d3e25551","ios":"levelo://app?vid=335caf7a-83db-412f-b876-0f34d3e25551"},"vehicle_type_id":"4","last_reported":1716574235,"current_range_meters":0,"station_id":"ce4bh692rcd13ifvqea0","pricing_plan_id":"cebpf4jnsgd1na2vs0mg"},{"bike_id":"eefea682-4f0d-41c1-ad3c-f669e428afad","system_id":"levelo_inurba_marseille","lat":43.290103,"lon":5.356114,"is_reserved":false,"is_disabled":false,"rental_uris":{"android":"levelo://app?vid=eefea682-4f0d-41c1-ad3c-f669e428afad","ios":"levelo://app?vid=eefea682-4f0d-41c1-ad3c-f669e428afad"},"vehicle_type_id":"4","last_reported":1716574235,"current_range_meters":14400,"station_id":"ce4bhb92rcd13ifvqen0","pricing_plan_id":"cebpf4jnsgd1na2vs0mg"},{"bike_id":"8fae2673-cc2e-47de-8d47-7e0eca5589e2","system_id":"levelo_inurba_marseille","lat":43.290104,"lon":5.356111,"is_reserved":false,"is_disabled":false,"rental_uris":{"android":"levelo://app?vid=8fae2673-cc2e-47de-8d47-7e0eca5589e2","ios":"levelo://app?vid=8fae2673-cc2e-47de-8d47-7e0eca5589e2"},"vehicle_type_id":"4","last_reported":1716574235,"current_range_meters":17600,"station_id":"ce4bhb92rcd13ifvqen0","pricing_plan_id":"cebpf4jnsgd1na2vs0mg"},{"bike_id":"8b430e00-2d87-4633-b070-ea241569876f","system_id":"levelo_inurba_marseille","lat":43.290103,"lon":5.356114,"is_reserved":false,"is_disabled":false,"rental_uris":{"android":"levelo://app?vid=8b430e00-2d87-4633-b070-ea241569876f","ios":"levelo://app?vid=8b430e00-2d87-4633-b070-ea241569876f"},"vehicle_type_id":"4","last_reported":1716574235,"current_range_meters":12800,"station_id":"ce4bhb92rcd13ifvqen0","pricing_plan_id":"cebpf4jnsgd1na2vs0mg"},{"bike_id":"13421fbd-5ab3-4713-ae0f-8df548dd4166","system_id":"levelo_inurba_marseille","lat":43.290103,"lon":5.356114,"is_reserved":false,"is_disabled":false,"rental_uris":{"android":"levelo://app?vid=13421fbd-5ab3-4713-ae0f-8df548dd4166","ios":"levelo://app?vid=13421fbd-5ab3-4713-ae0f-8df548dd4166"},"vehicle_type_id":"4","last_reported":1716574235,"current_range_meters":11200,"station_id":"ce4bhb92rcd13ifvqen0","pricing_plan_id":"cebpf4jnsgd1na2vs0mg"},{"bike_id":"549ef7c4-d211-4868-9c9d-88baed1b03c7","system_id":"levelo_inurba_marseille","lat":43.290104,"lon":5.356111,"is_reserved":false,"is_disabled":false,"rental_uris":{"android":"levelo://app?vid=549ef7c4-d211-4868-9c9d-88baed1b03c7","ios":"levelo://app?vid=549ef7c4-d211-4868-9c9d-88baed1b03c7"},"vehicle_type_id":"4","last_reported":1716574235,"current_range_meters":12400,"station_id":"ce4bhb92rcd13ifvqen0","pricing_plan_id":"cebpf4jnsgd1na2vs0mg"},{"bike_id":"5282edf7-4cee-45e0-9d37-fceb373b2a7c","system_id":"levelo_inurba_marseille","lat":43.29006,"lon":5.35614,"is_reserved":false,"is_disabled":false,"rental_uris":{"android":"levelo://app?vid=5282edf7-4cee-45e0-9d37-fceb373b2a7c","ios":"levelo://app?vid=5282edf7-4cee-45e0-9d37-fceb373b2a7c"},"vehicle_type_id":"4","last_reported":1716574235,"current_range_meters":7200,"station_id":"ce4bhbh2rcd13ifvqeqg","pricing_plan_id":"cebpf4jnsgd1na2vs0mg"},{"bike_id":"b6fc6562-2aad-4123-9ddc-7326be1af058","system_id":"levelo_inurba_marseille","lat":43.290104,"lon":5.356111,"is_reserved":false,"is_disabled":false,"rental_uris":{"android":"levelo://app?vid=b6fc6562-2aad-4123-9ddc-7326be1af058","ios":"levelo://app?vid=b6fc6562-2aad-4123-9ddc-7326be1af058"},"vehicle_type_id":"4","last_reported":1716574235,"current_range_meters":11200,"station_id":"ce4bhb92rcd13ifvqen0","pricing_plan_id":"cebpf4jnsgd1na2vs0mg"},{"bike_id":"ca929da4-4039-4e6d-8cf1-b5691d339889","system_id":"levelo_inurba_marseille","lat":43.290104,"lon":5.356111,"is_reserved":false,"is_disabled":false,"rental_uris":{"android":"levelo://app?vid=ca929da4-4039-4e6d-8cf1-b5691d339889","ios":"levelo://app?vid=ca929da4-4039-4e6d-8cf1-b5691d339889"},"vehicle_type_id":"4","last_reported":1716574235,"current_range_meters":7200,"station_id":"ce4bhb92rcd13ifvqen0","pricing_plan_id":"cebpf4jnsgd1na2vs0mg"},{"bike_id":"576feec9-6dc0-447a-a20c-7177f777cd9c","system_id":"levelo_inurba_marseille","lat":43.290104,"lon":5.356111,"is_reserved":false,"is_disabled":false,"rental_uris":{"android":"levelo://app?vid=576feec9-6dc0-447a-a20c-7177f777cd9c","ios":"levelo://app?vid=576feec9-6dc0-447a-a20c-7177f777cd9c"},"vehicle_type_id":"4","last_reported":1716574235,"current_range_meters":24800,"station_id":"ce4bhb92rcd13ifvqen0","pricing_plan_id":"cebpf4jnsgd1na2vs0mg"},{"bike_id":"6936364a-3066-4c17-812d-2c1f36fa5da2","system_id":"levelo_inurba_marseille","lat":43.290104,"lon":5.356111,"is_reserved":false,"is_disabled":false,"rental_uris":{"android":"levelo://app?vid=6936364a-3066-4c17-812d-2c1f36fa5da2","ios":"levelo://app?vid=6936364a-3066-4c17-812d-2c1f36fa5da2"},"vehicle_type_id":"4","last_reported":1716574235,"current_range_meters":8000,"station_id":"ce4bhb92rcd13ifvqen0","pricing_plan_id":"cebpf4jnsgd1na2vs0mg"},{"bike_id":"286ca79d-d6c6-4e7f-8d7b-6217063b9bf2","system_id":"levelo_inurba_marseille","lat":43.290103,"lon":5.356114,"is_reserved":false,"is_disabled":false,"rental_uris":{"android":"levelo://app?vid=286ca79d-d6c6-4e7f-8d7b-6217063b9bf2","ios":"levelo://app?vid=286ca79d-d6c6-4e7f-8d7b-6217063b9bf2"},"vehicle_type_id":"4","last_reported":1716574235,"current_range_meters":11200,"station_id":"ce4bhb92rcd13ifvqen0","pricing_plan_id":"cebpf4jnsgd1na2vs0mg"},{"bike_id":"204d6723-540a-4425-974d-ec7c9531a139","system_id":"levelo_inurba_marseille","lat":43.290104,"lon":5.356111,"is_reserved":false,"is_disabled":false,"rental_uris":{"android":"levelo://app?vid=204d6723-540a-4425-974d-ec7c9531a139","ios":"levelo://app?vid=204d6723-540a-4425-974d-ec7c9531a139"},"vehicle_type_id":"4","last_reported":1716574235,"current_range_meters":5200,"station_id":"ce4bhb92rcd13ifvqen0","pricing_plan_id":"cebpf4jnsgd1na2vs0mg"},{"bike_id":"e4f5fd44-9f75-4a81-84e5-977286588777","system_id":"levelo_inurba_marseille","lat":43.290995,"lon":5.381361,"is_reserved":false,"is_disabled":false,"rental_uris":{"android":"levelo://app?vid=e4f5fd44-9f75-4a81-84e5-977286588777","ios":"levelo://app?vid=e4f5fd44-9f75-4a81-84e5-977286588777"},"vehicle_type_id":"4","last_reported":1716574235,"current_range_meters":5600,"station_id":"ce4bh512rcd13ifvqe2g","pricing_plan_id":"cebpf4jnsgd1na2vs0mg"},{"bike_id":"1aaccd55-08bd-4ba9-81a8-0c4a55481bdc","system_id":"levelo_inurba_marseille","lat":43.290995,"lon":5.381361,"is_reserved":false,"is_disabled":false,"rental_uris":{"android":"levelo://app?vid=1aaccd55-08bd-4ba9-81a8-0c4a55481bdc","ios":"levelo://app?vid=1aaccd55-08bd-4ba9-81a8-0c4a55481bdc"},"vehicle_type_id":"4","last_reported":1716574235,"current_range_meters":400,"station_id":"ce4bh512rcd13ifvqe2g","pricing_plan_id":"cebpf4jnsgd1na2vs0mg"},{"bike_id":"8f3dbdd6-05d6-466c-8fad-4aa0fc6fac81","system_id":"levelo_inurba_marseille","lat":43.29782,"lon":5.39336,"is_reserved":false,"is_disabled":false,"rental_uris":{"android":"levelo://app?vid=8f3dbdd6-05d6-466c-8fad-4aa0fc6fac81","ios":"levelo://app?vid=8f3dbdd6-05d6-466c-8fad-4aa0fc6fac81"},"vehicle_type_id":"4","last_reported":1716574235,"current_range_meters":16000,"station_id":"chh1huq6cuj3fo74tm60","pricing_plan_id":"cebpf4jnsgd1na2vs0mg"},{"bike_id":"e950b2a9-27ed-41d9-81cf-053ccf200e85","system_id":"levelo_inurba_marseille","lat":43.29791,"lon":5.393563,"is_reserved":false,"is_disabled":false,"rental_uris":{"android":"levelo://app?vid=e950b2a9-27ed-41d9-81cf-053ccf200e85","ios":"levelo://app?vid=e950b2a9-27ed-41d9-81cf-053ccf200e85"},"vehicle_type_id":"4","last_reported":1716574235,"current_range_meters":0,"station_id":"chh1huq6cuj3fo74tm60","pricing_plan_id":"cebpf4jnsgd1na2vs0mg"},{"bike_id":"d6edaa43-0437-41a3-981f-a20f752f7d0f","system_id":"levelo_inurba_marseille","lat":43.330442,"lon":5.389148,"is_reserved":false,"is_disabled":false,"rental_uris":{"android":"levelo://app?vid=d6edaa43-0437-41a3-981f-a20f752f7d0f","ios":"levelo://app?vid=d6edaa43-0437-41a3-981f-a20f752f7d0f"},"vehicle_type_id":"4","last_reported":1716574235,"current_range_meters":26400,"station_id":"ce4bhr92rcd13ifvqhrg","pricing_plan_id":"cebpf4jnsgd1na2vs0mg"},{"bike_id":"38317117-1e3c-4d1e-a569-596efad91699","system_id":"levelo_inurba_marseille","lat":43.295169,"lon":5.390426,"is_reserved":false,"is_disabled":false,"rental_uris":{"android":"levelo://app?vid=38317117-1e3c-4d1e-a569-596efad91699","ios":"levelo://app?vid=38317117-1e3c-4d1e-a569-596efad91699"},"vehicle_type_id":"4","last_reported":1716574235,"current_range_meters":16000,"station_id":"ce4bh3p2rcd13ifvqdp0","pricing_plan_id":"cebpf4jnsgd1na2vs0mg"},{"bike_id":"1aefaff0-6848-4a49-a01d-eb9380321220","system_id":"levelo_inurba_marseille","lat":43.330442,"lon":5.389148,"is_reserved":false,"is_disabled":false,"rental_uris":{"android":"levelo://app?vid=1aefaff0-6848-4a49-a01d-eb9380321220","ios":"levelo://app?vid=1aefaff0-6848-4a49-a01d-eb9380321220"},"vehicle_type_id":"4","last_reported":1716574235,"current_range_meters":4800,"station_id":"ce4bhr92rcd13ifvqhrg","pricing_plan_id":"cebpf4jnsgd1na2vs0mg"},{"bike_id":"ba3acbb6-8843-4515-b2e2-d4f98414eefe","system_id":"levelo_inurba_marseille","lat":43.29515,"lon":5.39023,"is_reserved":false,"is_disabled":false,"rental_uris":{"android":"levelo://app?vid=ba3acbb6-8843-4515-b2e2-d4f98414eefe","ios":"levelo://app?vid=ba3acbb6-8843-4515-b2e2-d4f98414eefe"},"vehicle_type_id":"4","last_reported":1716574235,"current_range_meters":4800,"station_id":"ce4bh3p2rcd13ifvqdp0","pricing_plan_id":"cebpf4jnsgd1na2vs0mg"},{"bike_id":"ae13145a-a55e-4480-af8a-11c8020743f5","system_id":"levelo_inurba_marseille","lat":43.330442,"lon":5.389148,"is_reserved":false,"is_disabled":false,"rental_uris":{"android":"levelo://app?vid=ae13145a-a55e-4480-af8a-11c8020743f5","ios":"levelo://app?vid=ae13145a-a55e-4480-af8a-11c8020743f5"},"vehicle_type_id":"4","last_reported":1716574235,"current_range_meters":24000,"station_id":"ce4bhr92rcd13ifvqhrg","pricing_plan_id":"cebpf4jnsgd1na2vs0mg"},{"bike_id":"d81c1ca5-5ff3-462d-9e40-089b868a32fb","system_id":"levelo_inurba_marseille","lat":43.330442,"lon":5.389148,"is_reserved":false,"is_disabled":false,"rental_uris":{"android":"levelo://app?vid=d81c1ca5-5ff3-462d-9e40-089b868a32fb","ios":"levelo://app?vid=d81c1ca5-5ff3-462d-9e40-089b868a32fb"},"vehicle_type_id":"4","last_reported":1716574235,"current_range_meters":10000,"station_id":"ce4bhr92rcd13ifvqhrg","pricing_plan_id":"cebpf4jnsgd1na2vs0mg"},{"bike_id":"2b35aada-166a-4825-9084-a5132c553373","system_id":"levelo_inurba_marseille","lat":43.28971,"lon":5.37841,"is_reserved":false,"is_disabled":false,"rental_uris":{"android":"levelo://app?vid=2b35aada-166a-4825-9084-a5132c553373","ios":"levelo://app?vid=2b35aada-166a-4825-9084-a5132c553373"},"vehicle_type_id":"4","last_reported":1716574235,"current_range_meters":0,"station_id":"ce4bh9p2rcd13ifvqed0","pricing_plan_id":"cebpf4jnsgd1na2vs0mg"},{"bike_id":"ba7bba16-c57b-44f6-9f9c-c9839289854f","system_id":"levelo_inurba_marseille","lat":43.31065,"lon":5.40081,"is_reserved":false,"is_disabled":false,"rental_uris":{"android":"levelo://app?vid=ba7bba16-c57b-44f6-9f9c-c9839289854f","ios":"levelo://app?vid=ba7bba16-c57b-44f6-9f9c-c9839289854f"},"vehicle_type_id":"4","last_reported":1716574235,"current_range_meters":26000,"station_id":"","pricing_plan_id":"cebpf4jnsgd1na2vs0mg"},{"bike_id":"579f5aeb-2953-4f06-9585-107883f215e0","system_id":"levelo_inurba_marseille","lat":43.2901,"lon":5.381269,"is_reserved":false,"is_disabled":false,"rental_uris":{"android":"levelo://app?vid=579f5aeb-2953-4f06-9585-107883f215e0","ios":"levelo://app?vid=579f5aeb-2953-4f06-9585-107883f215e0"},"vehicle_type_id":"4","last_reported":1716574235,"current_range_meters":2400,"station_id":"ce4bh4p2rcd13ifvqe1g","pricing_plan_id":"cebpf4jnsgd1na2vs0mg"},{"bike_id":"de921063-9ba9-400f-868a-e6b0180bc5fe","system_id":"levelo_inurba_marseille","lat":43.2901,"lon":5.381269,"is_reserved":false,"is_disabled":false,"rental_uris":{"android":"levelo://app?vid=de921063-9ba9-400f-868a-e6b0180bc5fe","ios":"levelo://app?vid=de921063-9ba9-400f-868a-e6b0180bc5fe"},"vehicle_type_id":"4","last_reported":1716574235,"current_range_meters":7200,"station_id":"ce4bh4p2rcd13ifvqe1g","pricing_plan_id":"cebpf4jnsgd1na2vs0mg"},{"bike_id":"1a1505af-a805-4e97-b6c5-ef86c8ad33ae","system_id":"levelo_inurba_marseille","lat":43.31069,"lon":5.40095,"is_reserved":false,"is_disabled":false,"rental_uris":{"android":"levelo://app?vid=1a1505af-a805-4e97-b6c5-ef86c8ad33ae","ios":"levelo://app?vid=1a1505af-a805-4e97-b6c5-ef86c8ad33ae"},"vehicle_type_id":"4","last_reported":1716574235,"current_range_meters":8800,"station_id":"","pricing_plan_id":"cebpf4jnsgd1na2vs0mg"},{"bike_id":"8adade76-bddb-4b81-9df6-90b1c3b2af00","system_id":"levelo_inurba_marseille","lat":43.2901,"lon":5.381269,"is_reserved":false,"is_disabled":false,"rental_uris":{"android":"levelo://app?vid=8adade76-bddb-4b81-9df6-90b1c3b2af00","ios":"levelo://app?vid=8adade76-bddb-4b81-9df6-90b1c3b2af00"},"vehicle_type_id":"4","last_reported":1716574235,"current_range_meters":22000,"station_id":"ce4bh4p2rcd13ifvqe1g","pricing_plan_id":"cebpf4jnsgd1na2vs0mg"},{"bike_id":"45c4e419-2984-4f24-ba54-df30e4d9a744","system_id":"levelo_inurba_marseille","lat":43.290094,"lon":5.381264,"is_reserved":false,"is_disabled":false,"rental_uris":{"android":"levelo://app?vid=45c4e419-2984-4f24-ba54-df30e4d9a744","ios":"levelo://app?vid=45c4e419-2984-4f24-ba54-df30e4d9a744"},"vehicle_type_id":"4","last_reported":1716574235,"current_range_meters":26000,"station_id":"ce4bh4p2rcd13ifvqe1g","pricing_plan_id":"cebpf4jnsgd1na2vs0mg"},{"bike_id":"d8abed2a-51aa-4578-853b-de357285abde","system_id":"levelo_inurba_marseille","lat":43.30926,"lon":5.40143,"is_reserved":false,"is_disabled":false,"rental_uris":{"android":"levelo://app?vid=d8abed2a-51aa-4578-853b-de357285abde","ios":"levelo://app?vid=d8abed2a-51aa-4578-853b-de357285abde"},"vehicle_type_id":"4","last_reported":1716574235,"current_range_meters":20000,"station_id":"ce4bgvp2rcd13ifvqct0","pricing_plan_id":"cebpf4jnsgd1na2vs0mg"},{"bike_id":"5e08015a-b315-49d5-b067-121fc243166b","system_id":"levelo_inurba_marseille","lat":43.33752,"lon":5.37436,"is_reserved":false,"is_disabled":false,"rental_uris":{"android":"levelo://app?vid=5e08015a-b315-49d5-b067-121fc243166b","ios":"levelo://app?vid=5e08015a-b315-49d5-b067-121fc243166b"},"vehicle_type_id":"4","last_reported":1716574235,"current_range_meters":22400,"station_id":"","pricing_plan_id":"cebpf4jnsgd1na2vs0mg"},{"bike_id":"73ed19b5-6949-4b6a-9ee3-4e987781e314","system_id":"levelo_inurba_marseille","lat":43.30933,"lon":5.40157,"is_reserved":false,"is_disabled":false,"rental_uris":{"android":"levelo://app?vid=73ed19b5-6949-4b6a-9ee3-4e987781e314","ios":"levelo://app?vid=73ed19b5-6949-4b6a-9ee3-4e987781e314"},"vehicle_type_id":"4","last_reported":1716574235,"current_range_meters":0,"station_id":"ce4bgvp2rcd13ifvqct0","pricing_plan_id":"cebpf4jnsgd1na2vs0mg"},{"bike_id":"4d476eee-4013-46a3-be70-3fc5198fa0f9","system_id":"levelo_inurba_marseille","lat":43.33763,"lon":5.374318,"is_reserved":false,"is_disabled":false,"rental_uris":{"android":"levelo://app?vid=4d476eee-4013-46a3-be70-3fc5198fa0f9","ios":"levelo://app?vid=4d476eee-4013-46a3-be70-3fc5198fa0f9"},"vehicle_type_id":"4","last_reported":1716574235,"current_range_meters":19200,"station_id":"","pricing_plan_id":"cebpf4jnsgd1na2vs0mg"},{"bike_id":"8b72a3a0-c7aa-4cc3-b46e-a04a3d9b8d4a","system_id":"levelo_inurba_marseille","lat":43.337625,"lon":5.374405,"is_reserved":false,"is_disabled":false,"rental_uris":{"android":"levelo://app?vid=8b72a3a0-c7aa-4cc3-b46e-a04a3d9b8d4a","ios":"levelo://app?vid=8b72a3a0-c7aa-4cc3-b46e-a04a3d9b8d4a"},"vehicle_type_id":"4","last_reported":1716574235,"current_range_meters":19200,"station_id":"","pricing_plan_id":"cebpf4jnsgd1na2vs0mg"},{"bike_id":"53c70ae3-8356-4615-a5ee-d27e4fbf5a2d","system_id":"levelo_inurba_marseille","lat":43.337642,"lon":5.374393,"is_reserved":false,"is_disabled":false,"rental_uris":{"android":"levelo://app?vid=53c70ae3-8356-4615-a5ee-d27e4fbf5a2d","ios":"levelo://app?vid=53c70ae3-8356-4615-a5ee-d27e4fbf5a2d"},"vehicle_type_id":"4","last_reported":1716574235,"current_range_meters":800,"station_id":"","pricing_plan_id":"cebpf4jnsgd1na2vs0mg"},{"bike_id":"9f7be069-df4c-408d-9765-b6064c0f58b5","system_id":"levelo_inurba_marseille","lat":43.306412,"lon":5.401035,"is_reserved":false,"is_disabled":false,"rental_uris":{"android":"levelo://app?vid=9f7be069-df4c-408d-9765-b6064c0f58b5","ios":"levelo://app?vid=9f7be069-df4c-408d-9765-b6064c0f58b5"},"vehicle_type_id":"4","last_reported":1716574235,"current_range_meters":25200,"station_id":"ce4bh112rcd13ifvqda0","pricing_plan_id":"cebpf4jnsgd1na2vs0mg"},{"bike_id":"399f0771-48d5-4784-8e83-a05fdb9675c0","system_id":"levelo_inurba_marseille","lat":43.3014,"lon":5.39868,"is_reserved":false,"is_disabled":false,"rental_uris":{"android":"levelo://app?vid=399f0771-48d5-4784-8e83-a05fdb9675c0","ios":"levelo://app?vid=399f0771-48d5-4784-8e83-a05fdb9675c0"},"vehicle_type_id":"4","last_reported":1716574235,"current_range_meters":0,"station_id":"ce4bh0h2rcd13ifvqd40","pricing_plan_id":"cebpf4jnsgd1na2vs0mg"},{"bike_id":"ee8aa928-8da0-4782-a37e-85fd992c1791","system_id":"levelo_inurba_marseille","lat":43.298681,"lon":5.397225,"is_reserved":false,"is_disabled":false,"rental_uris":{"android":"levelo://app?vid=ee8aa928-8da0-4782-a37e-85fd992c1791","ios":"levelo://app?vid=ee8aa928-8da0-4782-a37e-85fd992c1791"},"vehicle_type_id":"4","last_reported":1716574235,"current_range_meters":7200,"station_id":"ce4bh0h2rcd13ifvqd50","pricing_plan_id":"cebpf4jnsgd1na2vs0mg"},{"bike_id":"7f3c3e5f-d223-459f-b3ca-3786861e43dc","system_id":"levelo_inurba_marseille","lat":43.298681,"lon":5.397225,"is_reserved":false,"is_disabled":false,"rental_uris":{"android":"levelo://app?vid=7f3c3e5f-d223-459f-b3ca-3786861e43dc","ios":"levelo://app?vid=7f3c3e5f-d223-459f-b3ca-3786861e43dc"},"vehicle_type_id":"4","last_reported":1716574235,"current_range_meters":10000,"station_id":"ce4bh0h2rcd13ifvqd50","pricing_plan_id":"cebpf4jnsgd1na2vs0mg"},{"bike_id":"6163bc68-c59d-4765-bcd1-298201375e31","system_id":"levelo_inurba_marseille","lat":43.28727,"lon":5.36078,"is_reserved":false,"is_disabled":false,"rental_uris":{"android":"levelo://app?vid=6163bc68-c59d-4765-bcd1-298201375e31","ios":"levelo://app?vid=6163bc68-c59d-4765-bcd1-298201375e31"},"vehicle_type_id":"4","last_reported":1716574235,"current_range_meters":400,"station_id":"cki0cbj6b192h4jlfktg","pricing_plan_id":"cebpf4jnsgd1na2vs0mg"},{"bike_id":"a212ab53-d4a0-41f2-878d-84a553fd11bf","system_id":"levelo_inurba_marseille","lat":43.28727,"lon":5.36078,"is_reserved":false,"is_disabled":false,"rental_uris":{"android":"levelo://app?vid=a212ab53-d4a0-41f2-878d-84a553fd11bf","ios":"levelo://app?vid=a212ab53-d4a0-41f2-878d-84a553fd11bf"},"vehicle_type_id":"4","last_reported":1716574235,"current_range_meters":14400,"station_id":"cki0cbj6b192h4jlfktg","pricing_plan_id":"cebpf4jnsgd1na2vs0mg"},{"bike_id":"9c684bac-c957-47f1-903e-fea5f337fcf3","system_id":"levelo_inurba_marseille","lat":43.286591,"lon":5.363346,"is_reserved":false,"is_disabled":false,"rental_uris":{"android":"levelo://app?vid=9c684bac-c957-47f1-903e-fea5f337fcf3","ios":"levelo://app?vid=9c684bac-c957-47f1-903e-fea5f337fcf3"},"vehicle_type_id":"4","last_reported":1716574235,"current_range_meters":7200,"station_id":"ce4bhah2rcd13ifvqej0","pricing_plan_id":"cebpf4jnsgd1na2vs0mg"},{"bike_id":"6c36ba74-0d6d-4fc2-8153-684d4a7c5202","system_id":"levelo_inurba_marseille","lat":43.298681,"lon":5.397225,"is_reserved":false,"is_disabled":false,"rental_uris":{"android":"levelo://app?vid=6c36ba74-0d6d-4fc2-8153-684d4a7c5202","ios":"levelo://app?vid=6c36ba74-0d6d-4fc2-8153-684d4a7c5202"},"vehicle_type_id":"4","last_reported":1716574235,"current_range_meters":16800,"station_id":"ce4bh0h2rcd13ifvqd50","pricing_plan_id":"cebpf4jnsgd1na2vs0mg"},{"bike_id":"8fabc9ec-b2f8-4693-af12-af8745102255","system_id":"levelo_inurba_marseille","lat":43.298681,"lon":5.397225,"is_reserved":false,"is_disabled":false,"rental_uris":{"android":"levelo://app?vid=8fabc9ec-b2f8-4693-af12-af8745102255","ios":"levelo://app?vid=8fabc9ec-b2f8-4693-af12-af8745102255"},"vehicle_type_id":"4","last_reported":1716574235,"current_range_meters":0,"station_id":"ce4bh0h2rcd13ifvqd50","pricing_plan_id":"cebpf4jnsgd1na2vs0mg"},{"bike_id":"5810e4a8-0a25-49ee-88c2-4fbf4d5b3b3a","system_id":"levelo_inurba_marseille","lat":43.298681,"lon":5.397225,"is_reserved":false,"is_disabled":false,"rental_uris":{"android":"levelo://app?vid=5810e4a8-0a25-49ee-88c2-4fbf4d5b3b3a","ios":"levelo://app?vid=5810e4a8-0a25-49ee-88c2-4fbf4d5b3b3a"},"vehicle_type_id":"4","last_reported":1716574235,"current_range_meters":10000,"station_id":"ce4bh0h2rcd13ifvqd50","pricing_plan_id":"cebpf4jnsgd1na2vs0mg"},{"bike_id":"467ee7e5-a97c-4621-92a5-6bf28a599739","system_id":"levelo_inurba_marseille","lat":43.286989,"lon":5.373923,"is_reserved":false,"is_disabled":false,"rental_uris":{"android":"levelo://app?vid=467ee7e5-a97c-4621-92a5-6bf28a599739","ios":"levelo://app?vid=467ee7e5-a97c-4621-92a5-6bf28a599739"},"vehicle_type_id":"4","last_reported":1716574235,"current_range_meters":0,"station_id":"ce4bh3p2rcd13ifvqdq0","pricing_plan_id":"cebpf4jnsgd1na2vs0mg"},{"bike_id":"d4319cd6-5ca7-4472-8434-7490ca48e2d9","system_id":"levelo_inurba_marseille","lat":43.286593,"lon":5.363346,"is_reserved":false,"is_disabled":false,"rental_uris":{"android":"levelo://app?vid=d4319cd6-5ca7-4472-8434-7490ca48e2d9","ios":"levelo://app?vid=d4319cd6-5ca7-4472-8434-7490ca48e2d9"},"vehicle_type_id":"4","last_reported":1716574235,"current_range_meters":29200,"station_id":"ce4bhah2rcd13ifvqej0","pricing_plan_id":"cebpf4jnsgd1na2vs0mg"},{"bike_id":"c582dc4b-fec6-4fb1-a4ce-170e1419d1ba","system_id":"levelo_inurba_marseille","lat":43.298681,"lon":5.397225,"is_reserved":false,"is_disabled":false,"rental_uris":{"android":"levelo://app?vid=c582dc4b-fec6-4fb1-a4ce-170e1419d1ba","ios":"levelo://app?vid=c582dc4b-fec6-4fb1-a4ce-170e1419d1ba"},"vehicle_type_id":"4","last_reported":1716574235,"current_range_meters":24800,"station_id":"ce4bh0h2rcd13ifvqd50","pricing_plan_id":"cebpf4jnsgd1na2vs0mg"},{"bike_id":"d626bc95-f7e8-45c9-8cf5-d1efe7da001b","system_id":"levelo_inurba_marseille","lat":43.298681,"lon":5.397225,"is_reserved":false,"is_disabled":false,"rental_uris":{"android":"levelo://app?vid=d626bc95-f7e8-45c9-8cf5-d1efe7da001b","ios":"levelo://app?vid=d626bc95-f7e8-45c9-8cf5-d1efe7da001b"},"vehicle_type_id":"4","last_reported":1716574235,"current_range_meters":14000,"station_id":"ce4bh0h2rcd13ifvqd50","pricing_plan_id":"cebpf4jnsgd1na2vs0mg"},{"bike_id":"ae3c0dc3-ab0e-4dcd-8903-6a82f0d8d178","system_id":"levelo_inurba_marseille","lat":43.302759,"lon":5.400793,"is_reserved":false,"is_disabled":false,"rental_uris":{"android":"levelo://app?vid=ae3c0dc3-ab0e-4dcd-8903-6a82f0d8d178","ios":"levelo://app?vid=ae3c0dc3-ab0e-4dcd-8903-6a82f0d8d178"},"vehicle_type_id":"4","last_reported":1716574235,"current_range_meters":6800,"station_id":"ce4bgvh2rcd13ifvqcs0","pricing_plan_id":"cebpf4jnsgd1na2vs0mg"},{"bike_id":"4323c934-ae4d-41b8-97c8-17dce60cab73","system_id":"levelo_inurba_marseille","lat":43.2903,"lon":5.3865,"is_reserved":false,"is_disabled":false,"rental_uris":{"android":"levelo://app?vid=4323c934-ae4d-41b8-97c8-17dce60cab73","ios":"levelo://app?vid=4323c934-ae4d-41b8-97c8-17dce60cab73"},"vehicle_type_id":"4","last_reported":1716574235,"current_range_meters":23200,"station_id":"ce4bh4p2rcd13ifvqe0g","pricing_plan_id":"cebpf4jnsgd1na2vs0mg"},