{"last_updated":1727875052,"ttl":60,"version":"2.2","data":{"bikes":[{"bike_id":"50c01756-546e-4df1-9354-30fd0b84448a","system_id":"levelo_inurba_marseille","lat":43.30098,"lon":5.39073,"is_reserved":false,"is_disabled":false,"rental_uris":{"android":"levelo://app?vid=50c01756-546e-4df1-9354-30fd0b84448a","ios":"levelo://app?vid=50c01756-546e-4df1-9354-30fd0b84448a"},"vehicle_type_id":"4","last_reported":1727875052,"current_range_meters":24400,"station_id":"ce4bh192rcd13ifvqdb0","pricing_plan_id":"cebpf4jnsgd1na2vs0mg"},{"bike_id":"2d33c085-1afb-4a73-ad61-ded45b855f08","system_id":"levelo_inurba_marseille","lat":43.27146,"lon":5.39172,"is_reserved":false,"is_disabled":false,"rental_uris":{"android":"levelo://app?vid=2d33c085-1afb-4a73-ad61-ded45b855f08","ios":"levelo://app?vid=2d33c085-1afb-4a73-ad61-ded45b855f08"},"vehicle_type_id":"4","last_reported":1727875052,"current_range_meters":8400,"station_id":"ce4bhn12rcd13ifvqgpg","pricing_plan_id":"cebpf4jnsgd1na2vs0mg"},{"bike_id":"98bbd9c1-8307-405d-9250-6682408d96e2","system_id":"levelo_inurba_marseille","lat":43.33744,"lon":5.37491,"is_reserved":false,"is_disabled":false,"rental_uris":{"android":"levelo://app?vid=98bbd9c1-8307-405d-9250-6682408d96e2","ios":"levelo://app?vid=98bbd9c1-8307-405d-9250-6682408d96e2"},"vehicle_type_id":"4","last_reported":1727875052,"current_range_meters":38000,"station_id":"","pricing_plan_id":"cebpf4jnsgd1na2vs0mg"},{"bike_id":"1f5ab231-cd8b-4043-b9a4-1252e0d72433","system_id":"levelo_inurba_marseille","lat":43.28561,"lon":5.3949,"is_reserved":false,"is_disabled":false,"rental_uris":{"android":"levelo://app?vid=1f5ab231-cd8b-4043-b9a4-1252e0d72433","ios":"levelo://app?vid=1f5ab231-cd8b-4043-b9a4-1252e0d72433"},"vehicle_type_id":"4","last_reported":1727875052,"current_range_meters":28000,"station_id":"ce4bh292rcd13ifvqdg0","pricing_plan_id":"cebpf4jnsgd1na2vs0mg"},{"bike_id":"49cd4443-d6dd-4b0a-b11d-28dd808839ca","system_id":"levelo_inurba_marseille","lat":43.2739,"lon":5.36247,"is_reserved":false,"is_disabled":false,"rental_uris":{"android":"levelo://app?vid=49cd4443-d6dd-4b0a-b11d-28dd808839ca","ios":"levelo://app?vid=49cd4443-d6dd-4b0a-b11d-28dd808839ca"},"vehicle_type_id":"4","last_reported":1727875052,"current_range_meters":38800,"station_id":"ce4bhbh2rcd13ifvqeo0","pricing_plan_id":"cebpf4jnsgd1na2vs0mg"},{"bike_id":"c9d21d93-4991-4925-bdde-e80d62e3a069","system_id":"levelo_inurba_marseille","lat":43.24179,"lon":5.39724,"is_reserved":false,"is_disabled":false,"rental_uris":{"android":"levelo://app?vid=c9d21d93-4991-4925-bdde-e80d62e3a069","ios":"levelo://app?vid=c9d21d93-4991-4925-bdde-e80d62e3a069"},"vehicle_type_id":"4","last_reported":1727875052,"current_range_meters":13600,"station_id":"ce4bhn12rcd13ifvqgpg","pricing_plan_id":"cebpf4jnsgd1na2vs0mg"},{"bike_id":"d6852ed8-116f-4d91-a768-183d51d75781","system_id":"levelo_inurba_marseille","lat":43.26567,"lon":5.39008,"is_reserved":false,"is_disabled":false,"rental_uris":{"android":"levelo://app?vid=d6852ed8-116f-4d91-a768-183d51d75781","ios":"levelo://app?vid=d6852ed8-116f-4d91-a768-183d51d75781"},"vehicle_type_id":"4","last_reported":1727875052,"current_range_meters":30800,"station_id":"ce4bhe12rcd13ifvqf30","pricing_plan_id":"cebpf4jnsgd1na2vs0mg"},{"bike_id":"5f2e32d7-6e0b-4351-b5ce-fc3369e0c7f5","system_id":"levelo_inurba_marseille","lat":43.23172,"lon":5.39968,"is_reserved":false,"is_disabled":false,"rental_uris":{"android":"levelo://app?vid=5f2e32d7-6e0b-4351-b5ce-fc3369e0c7f5","ios":"levelo://app?vid=5f2e32d7-6e0b-4351-b5ce-fc3369e0c7f5"},"vehicle_type_id":"4","last_reported":1727875052,"current_range_meters":28400,"station_id":"ce4bhn12rcd13ifvqgqg","pricing_plan_id":"cebpf4jnsgd1na2vs0mg"},{"bike_id":"ab00df15-6bd8-4bdb-9b30-89f559c48932","system_id":"levelo_inurba_marseille","lat":43.23183,"lon":5.39987,"is_reserved":false,"is_disabled":false,"rental_uris":{"android":"levelo://app?vid=ab00df15-6bd8-4bdb-9b30-89f559c48932","ios":"levelo://app?vid=ab00df15-6bd8-4bdb-9b30-89f559c48932"},"vehicle_type_id":"4","last_reported":1727875052,"current_range_meters":28000,"station_id":"ce4bhn12rcd13ifvqgqg","pricing_plan_id":"cebpf4jnsgd1na2vs0mg"},{"bike_id":"42ed059b-5d3c-445d-b109-e24ad7adc6ec","system_id":"levelo_inurba_marseille","lat":43.30196,"lon":5.36611,"is_reserved":false,"is_disabled":false,"rental_uris":{"android":"levelo://app?vid=42ed059b-5d3c-445d-b109-e24ad7adc6ec","ios":"levelo://app?vid=42ed059b-5d3c-445d-b109-e24ad7adc6ec"},"vehicle_type_id":"4","last_reported":1727875052,"current_range_meters":16400,"station_id":"ce4bgrh2rcd13ifvqc8g","pricing_plan_id":"cebpf4jnsgd1na2vs0mg"},{"bike_id":"277d8420-a72e-4424-9303-5dcf7c7101ab","system_id":"levelo_inurba_marseille","lat":43.30957,"lon":5.39035,"is_reserved":false,"is_disabled":false,"rental_uris":{"android":"levelo://app?vid=277d8420-a72e-4424-9303-5dcf7c7101ab","ios":"levelo://app?vid=277d8420-a72e-4424-9303-5dcf7c7101ab"},"vehicle_type_id":"4","last_reported":1727875052,"current_range_meters":30400,"station_id":"ce4bgup2rcd13ifvqco0","pricing_plan_id":"cebpf4jnsgd1na2vs0mg"},{"bike_id":"d0f735a4-5031-481e-9a42-734ebb1f5861","system_id":"levelo_inurba_marseille","lat":43.29703,"lon":5.40182,"is_reserved":false,"is_disabled":false,"rental_uris":{"android":"levelo://app?vid=d0f735a4-5031-481e-9a42-734ebb1f5861","ios":"levelo://app?vid=d0f735a4-5031-481e-9a42-734ebb1f5861"},"vehicle_type_id":"4","last_reported":1727875052,"current_range_meters":29600,"station_id":"ce4bh192rcd13ifvqdc0","pricing_plan_id":"cebpf4jnsgd1na2vs0mg"},{"bike_id":"cc1b0ea3-ad3d-4cdd-bd2d-01272f02e72c","system_id":"levelo_inurba_marseille","lat":43.30097,"lon":5.3907,"is_reserved":false,"is_disabled":false,"rental_uris":{"android":"levelo://app?vid=cc1b0ea3-ad3d-4cdd-bd2d-01272f02e72c","ios":"levelo://app?vid=cc1b0ea3-ad3d-4cdd-bd2d-01272f02e72c"},"vehicle_type_id":"4","last_reported":1727875052,"current_range_meters":35200,"station_id":"ce4bh192rcd13ifvqdb0","pricing_plan_id":"cebpf4jnsgd1na2vs0mg"},{"bike_id":"3266d668-2f81-4f3b-ae04-8070b32a0e52","system_id":"levelo_inurba_marseille","lat":43.3303,"lon":5.39037,"is_reserved":false,"is_disabled":false,"rental_uris":{"android":"levelo://app?vid=3266d668-2f81-4f3b-ae04-8070b32a0e52","ios":"levelo://app?vid=3266d668-2f81-4f3b-ae04-8070b32a0e52"},"vehicle_type_id":"4","last_reported":1727875052,"current_range_meters":38800,"station_id":"ce4bhr92rcd13ifvqhrg","pricing_plan_id":"cebpf4jnsgd1na2vs0mg"},{"bike_id":"9be5b0ff-0133-4d88-a566-3d4f835df562","system_id":"levelo_inurba_marseille","lat":43.30601,"lon":5.37209,"is_reserved":false,"is_disabled":false,"rental_uris":{"android":"levelo://app?vid=9be5b0ff-0133-4d88-a566-3d4f835df562","ios":"levelo://app?vid=9be5b0ff-0133-4d88-a566-3d4f835df562"},"vehicle_type_id":"4","last_reported":1727875052,"current_range_meters":19200,"station_id":"ce4bgqh2rcd13ifvqc4g","pricing_plan_id":"cebpf4jnsgd1na2vs0mg"},{"bike_id":"e2a5d668-e0e0-47d9-be44-74dfccbe8d19","system_id":"levelo_inurba_marseille","lat":43.312382,"lon":5.368762,"is_reserved":false,"is_disabled":false,"rental_uris":{"android":"levelo://app?vid=e2a5d668-e0e0-47d9-be44-74dfccbe8d19","ios":"levelo://app?vid=e2a5d668-e0e0-47d9-be44-74dfccbe8d19"},"vehicle_type_id":"4","last_reported":1727875052,"current_range_meters":20000,"station_id":"ce4bgl92rcd13ifvqbq0","pricing_plan_id":"cebpf4jnsgd1na2vs0mg"},{"bike_id":"cda1ff19-c8e7-4dce-9f37-aa697db0ed32","system_id":"levelo_inurba_marseille","lat":43.31356,"lon":5.36714,"is_reserved":false,"is_disabled":false,"rental_uris":{"android":"levelo://app?vid=cda1ff19-c8e7-4dce-9f37-aa697db0ed32","ios":"levelo://app?vid=cda1ff19-c8e7-4dce-9f37-aa697db0ed32"},"vehicle_type_id":"4","last_reported":1727875052,"current_range_meters":5600,"station_id":"ce4bgr92rcd13ifvqc6g","pricing_plan_id":"cebpf4jnsgd1na2vs0mg"},{"bike_id":"71fd1931-88c2-4193-b9a5-cec8572c79f1","system_id":"levelo_inurba_marseille","lat":43.28939,"lon":5.39617,"is_reserved":false,"is_disabled":false,"rental_uris":{"android":"levelo://app?vid=71fd1931-88c2-4193-b9a5-cec8572c79f1","ios":"levelo://app?vid=71fd1931-88c2-4193-b9a5-cec8572c79f1"},"vehicle_type_id":"4","last_reported":1727875052,"current_range_meters":25200,"station_id":"ce4bh3h2rcd13ifvqdn0","pricing_plan_id":"cebpf4jnsgd1na2vs0mg"},{"bike_id":"24b8f41a-3ca2-445c-a0ab-f7f3545231d9","system_id":"levelo_inurba_marseille","lat":43.28002,"lon":5.39999,"is_reserved":false,"is_disabled":false,"rental_uris":{"android":"levelo://app?vid=24b8f41a-3ca2-445c-a0ab-f7f3545231d9","ios":"levelo://app?vid=24b8f41a-3ca2-445c-a0ab-f7f3545231d9"},"vehicle_type_id":"4","last_reported":1727875052,"current_range_meters":8400,"station_id":"ce4bho92rcd13ifvqh4g","pricing_plan_id":"cebpf4jnsgd1na2vs0mg"},{"bike_id":"b6ea728b-2d2d-4635-9b17-8eccb7f5d95d","system_id":"levelo_inurba_marseille","lat":43.28568,"lon":5.39499,"is_reserved":false,"is_disabled":false,"rental_uris":{"android":"levelo://app?vid=b6ea728b-2d2d-4635-9b17-8eccb7f5d95d","ios":"levelo://app?vid=b6ea728b-2d2d-4635-9b17-8eccb7f5d95d"},"vehicle_type_id":"4","last_reported":1727875052,"current_range_meters":15200,"station_id":"ce4bh292rcd13ifvqdg0","pricing_plan_id":"cebpf4jnsgd1na2vs0mg"},{"bike_id":"c3de9d2f-e38c-454a-8894-488ca974a2d1","system_id":"levelo_inurba_marseille","lat":43.26713,"lon":5.38251,"is_reserved":false,"is_disabled":false,"rental_uris":{"android":"levelo://app?vid=c3de9d2f-e38c-454a-8894-488ca974a2d1","ios":"levelo://app?vid=c3de9d2f-e38c-454a-8894-488ca974a2d1"},"vehicle_type_id":"4","last_reported":1727875052,"current_range_meters":38800,"station_id":"ce4bhg92rcd13ifvqf90","pricing_plan_id":"cebpf4jnsgd1na2vs0mg"},{"bike_id":"16734ac4-1a86-42c4-9e95-32c0fc3f96b3","system_id":"levelo_inurba_marseille","lat":43.29961,"lon":5.38494,"is_reserved":false,"is_disabled":false,"rental_uris":{"android":"levelo://app?vid=16734ac4-1a86-42c4-9e95-32c0fc3f96b3","ios":"levelo://app?vid=16734ac4-1a86-42c4-9e95-32c0fc3f96b3"},"vehicle_type_id":"4","last_reported":1727875052,"current_range_meters":24800,"station_id":"ce4bgj92rcd13ifvqbd0","pricing_plan_id":"cebpf4jnsgd1na2vs0mg"},{"bike_id":"876492a7-d5e5-449e-8cc3-23f0fed115f9","system_id":"levelo_inurba_marseille","lat":43.30934,"lon":5.40135,"is_reserved":false,"is_disabled":false,"rental_uris":{"android":"levelo://app?vid=876492a7-d5e5-449e-8cc3-23f0fed115f9","ios":"levelo://app?vid=876492a7-d5e5-449e-8cc3-23f0fed115f9"},"vehicle_type_id":"4","last_reported":1727875052,"current_range_meters":38800,"station_id":"ce4bgvp2rcd13ifvqct0","pricing_plan_id":"cebpf4jnsgd1na2vs0mg"},{"bike_id":"775b89d5-55a6-47fd-a8df-2816fe3497e0","system_id":"levelo_inurba_marseille","lat":43.3015,"lon":5.39872,"is_reserved":false,"is_disabled":false,"rental_uris":{"android":"levelo://app?vid=775b89d5-55a6-47fd-a8df-2816fe3497e0","ios":"levelo://app?vid=775b89d5-55a6-47fd-a8df-2816fe3497e0"},"vehicle_type_id":"4","last_reported":1727875052,"current_range_meters":23200,"station_id":"","pricing_plan_id":"cebpf4jnsgd1na2vs0mg"},{"bike_id":"ec1c3e2c-022c-4156-88fa-de4eba1043d2","system_id":"levelo_inurba_marseille","lat":43.25008,"lon":5.38914,"is_reserved":false,"is_disabled":false,"rental_uris":{"android":"levelo://app?vid=ec1c3e2c-022c-4156-88fa-de4eba1043d2","ios":"levelo://app?vid=ec1c3e2c-022c-4156-88fa-de4eba1043d2"},"vehicle_type_id":"4","last_reported":1727875052,"current_range_meters":33200,"station_id":"ce4bhgp2rcd13ifvqfd0","pricing_plan_id":"cebpf4jnsgd1na2vs0mg"},{"bike_id":"3e65f00c-f0c4-4777-96c6-f283e47f3b97","system_id":"levelo_inurba_marseille","lat":43.27942,"lon":5.41041,"is_reserved":false,"is_disabled":false,"rental_uris":{"android":"levelo://app?vid=3e65f00c-f0c4-4777-96c6-f283e47f3b97","ios":"levelo://app?vid=3e65f00c-f0c4-4777-96c6-f283e47f3b97"},"vehicle_type_id":"4","last_reported":1727875052,"current_range_meters":33200,"station_id":"ce4bhnp2rcd13ifvqh0g","pricing_plan_id":"cebpf4jnsgd1na2vs0mg"},{"bike_id":"186d1d7d-1293-4df2-9a3c-509d9f14d3c3","system_id":"levelo_inurba_marseille","lat":43.25929,"lon":5.40905,"is_reserved":false,"is_disabled":false,"rental_uris":{"android":"levelo://app?vid=186d1d7d-1293-4df2-9a3c-509d9f14d3c3","ios":"levelo://app?vid=186d1d7d-1293-4df2-9a3c-509d9f14d3c3"},"vehicle_type_id":"4","last_reported":1727875052,"current_range_meters":28400,"station_id":"ce4bhm92rcd13ifvqglg","pricing_plan_id":"cebpf4jnsgd1na2vs0mg"},{"bike_id":"1ed8582d-7899-444b-b13b-c772b64db595","system_id":"levelo_inurba_marseille","lat":43.30217,"lon":5.39465,"is_reserved":false,"is_disabled":false,"rental_uris":{"android":"levelo://app?vid=1ed8582d-7899-444b-b13b-c772b64db595","ios":"levelo://app?vid=1ed8582d-7899-444b-b13b-c772b64db595"},"vehicle_type_id":"4","last_reported":1727875052,"current_range_meters":38800,"station_id":"ce4bh0p2rcd13ifvqd70","pricing_plan_id":"cebpf4jnsgd1na2vs0mg"},{"bike_id":"91aa9156-b7cc-4733-b415-df1a0f563d58","system_id":"levelo_inurba_marseille","lat":43.22937,"lon":5.35374,"is_reserved":false,"is_disabled":false,"rental_uris":{"android":"levelo://app?vid=91aa9156-b7cc-4733-b415-df1a0f563d58","ios":"levelo://app?vid=91aa9156-b7cc-4733-b415-df1a0f563d58"},"vehicle_type_id":"4","last_reported":1727875052,"current_range_meters":24800,"station_id":"cpo3532slgdg3j2ikp40","pricing_plan_id":"cebpf4jnsgd1na2vs0mg"},{"bike_id":"4fa6dae9-98a8-46c2-a6c7-4b7459c83453","system_id":"levelo_inurba_marseille","lat":43.31688,"lon":5.40458,"is_reserved":false,"is_disabled":false,"rental_uris":{"android":"levelo://app?vid=4fa6dae9-98a8-46c2-a6c7-4b7459c83453","ios":"levelo://app?vid=4fa6dae9-98a8-46c2-a6c7-4b7459c83453"},"vehicle_type_id":"4","last_reported":1727875052,"current_range_meters":38800,"station_id":"ce4bh012rcd13ifvqd00","pricing_plan_id":"cebpf4jnsgd1na2vs0mg"},{"bike_id":"90b7edda-53c7-47fc-8818-49f222543e81","system_id":"levelo_inurba_marseille","lat":43.31723,"lon":5.42393,"is_reserved":false,"is_disabled":false,"rental_uris":{"android":"levelo://app?vid=90b7edda-53c7-47fc-8818-49f222543e81","ios":"levelo://app?vid=90b7edda-53c7-47fc-8818-49f222543e81"},"vehicle_type_id":"4","last_reported":1727875052,"current_range_meters":33600,"station_id":"ce4bhp92rcd13ifvqhbg","pricing_plan_id":"cebpf4jnsgd1na2vs0mg"},{"bike_id":"cacdd7a9-7e31-49b4-924f-e0f5419d4bb3","system_id":"levelo_inurba_marseille","lat":43.26494,"lon":5.39539,"is_reserved":false,"is_disabled":false,"rental_uris":{"android":"levelo://app?vid=cacdd7a9-7e31-49b4-924f-e0f5419d4bb3","ios":"levelo://app?vid=cacdd7a9-7e31-49b4-924f-e0f5419d4bb3"},"vehicle_type_id":"4","last_reported":1727875052,"current_range_meters":26000,"station_id":"ce4bhi12rcd13ifvqfq0","pricing_plan_id":"cebpf4jnsgd1na2vs0mg"},{"bike_id":"d1f0d014-7557-47d8-822b-5e26ceaae108","system_id":"levelo_inurba_marseille","lat":43.23185,"lon":5.39987,"is_reserved":false,"is_disabled":false,"rental_uris":{"android":"levelo://app?vid=d1f0d014-7557-47d8-822b-5e26ceaae108","ios":"levelo://app?vid=d1f0d014-7557-47d8-822b-5e26ceaae108"},"vehicle_type_id":"4","last_reported":1727875052,"current_range_meters":17200,"station_id":"ce4bhn12rcd13ifvqgqg","pricing_plan_id":"cebpf4jnsgd1na2vs0mg"},{"bike_id":"80f7483e-7999-4a77-abee-debef9740948","system_id":"levelo_inurba_marseille","lat":43.276665,"lon":5.388795,"is_reserved":false,"is_disabled":false,"rental_uris":{"android":"levelo://app?vid=80f7483e-7999-4a77-abee-debef9740948","ios":"levelo://app?vid=80f7483e-7999-4a77-abee-debef9740948"},"vehicle_type_id":"4","last_reported":1727875052,"current_range_meters":37600,"station_id":"ce4bhi12rcd13ifvqfo0","pricing_plan_id":"cebpf4jnsgd1na2vs0mg"},{"bike_id":"a32e6350-58b1-4ab3-99f4-754aab2fed37","system_id":"levelo_inurba_marseille","lat":43.28469,"lon":5.35883,"is_reserved":false,"is_disabled":false,"rental_uris":{"android":"levelo://app?vid=a32e6350-58b1-4ab3-99f4-754aab2fed37","ios":"levelo://app?vid=a32e6350-58b1-4ab3-99f4-754aab2fed37"},"vehicle_type_id":"4","last_reported":1727875052,"current_range_meters":37600,"station_id":"ce4bhah2rcd13ifvqei0","pricing_plan_id":"cebpf4jnsgd1na2vs0mg"},{"bike_id":"be19b1fe-4ab5-45f0-a575-f506ba21f8b3","system_id":"levelo_inurba_marseille","lat":43.29204,"lon":5.39312,"is_reserved":false,"is_disabled":false,"rental_uris":{"android":"levelo://app?vid=be19b1fe-4ab5-45f0-a575-f506ba21f8b3","ios":"levelo://app?vid=be19b1fe-4ab5-45f0-a575-f506ba21f8b3"},"vehicle_type_id":"4","last_reported":1727875052,"current_range_meters":24800,"station_id":"ce4bh192rcd13ifvqdd0","pricing_plan_id":"cebpf4jnsgd1na2vs0mg"},{"bike_id":"3a48058d-bdb7-4fa4-aea5-da158a7a0b38","system_id":"levelo_inurba_marseille","lat":43.33028,"lon":5.39043,"is_reserved":false,"is_disabled":false,"rental_uris":{"android":"levelo://app?vid=3a48058d-bdb7-4fa4-aea5-da158a7a0b38","ios":"levelo://app?vid=3a48058d-bdb7-4fa4-aea5-da158a7a0b38"},"vehicle_type_id":"4","last_reported":1727875052,"current_range_meters":32000,"station_id":"ce4bhr92rcd13ifvqhrg","pricing_plan_id":"cebpf4jnsgd1na2vs0mg"},{"bike_id":"2392ac77-55f7-4c80-af73-e5c5c755b68a","system_id":"levelo_inurba_marseille","lat":43.26563,"lon":5.37279,"is_reserved":false,"is_disabled":false,"rental_uris":{"android":"levelo://app?vid=2392ac77-55f7-4c80-af73-e5c5c755b68a","ios":"levelo://app?vid=2392ac77-55f7-4c80-af73-e5c5c755b68a"},"vehicle_type_id":"4","last_reported":1727875052,"current_range_meters":27600,"station_id":"ce4bhg12rcd13ifvqf70","pricing_plan_id":"cebpf4jnsgd1na2vs0mg"},{"bike_id":"1aa4a624-7f10-47df-8b0a-bbc42655e77d","system_id":"levelo_inurba_marseille","lat":43.27063,"lon":5.40256,"is_reserved":false,"is_disabled":false,"rental_uris":{"android":"levelo://app?vid=1aa4a624-7f10-47df-8b0a-bbc42655e77d","ios":"levelo://app?vid=1aa4a624-7f10-47df-8b0a-bbc42655e77d"},"vehicle_type_id":"4","last_reported":1727875052,"current_range_meters":3200,"station_id":"ce4bhk92rcd13ifvqgc0","pricing_plan_id":"cebpf4jnsgd1na2vs0mg"},{"bike_id":"a1ac91c2-e22c-4ece-bfe2-4d5e13ad6026","system_id":"levelo_inurba_marseille","lat":43.34074,"lon":5.42005,"is_reserved":false,"is_disabled":false,"rental_uris":{"android":"levelo://app?vid=a1ac91c2-e22c-4ece-bfe2-4d5e13ad6026","ios":"levelo://app?vid=a1ac91c2-e22c-4ece-bfe2-4d5e13ad6026"},"vehicle_type_id":"4","last_reported":1727875052,"current_range_meters":4400,"station_id":"","pricing_plan_id":"cebpf4jnsgd1na2vs0mg"},{"bike_id":"a2b2e7ec-9291-4e2e-99f8-400018f4dc70","system_id":"levelo_inurba_marseille","lat":43.30541,"lon":5.3669,"is_reserved":false,"is_disabled":false,"rental_uris":{"android":"levelo://app?vid=a2b2e7ec-9291-4e2e-99f8-400018f4dc70","ios":"levelo://app?vid=a2b2e7ec-9291-4e2e-99f8-400018f4dc70"},"vehicle_type_id":"4","last_reported":1727875052,"current_range_meters":39200,"station_id":"ce4bgrp2rcd13ifvqc9g","pricing_plan_id":"cebpf4jnsgd1na2vs0mg"},{"bike_id":"fc04cc9f-113c-4624-a932-35f7c4f7a9f2","system_id":"levelo_inurba_marseille","lat":43.30943,"lon":5.40141,"is_reserved":false,"is_disabled":false,"rental_uris":{"android":"levelo://app?vid=fc04cc9f-113c-4624-a932-35f7c4f7a9f2","ios":"levelo://app?vid=fc04cc9f-113c-4624-a932-35f7c4f7a9f2"},"vehicle_type_id":"4","last_reported":1727875052,"current_range_meters":38800,"station_id":"ce4bgvp2rcd13ifvqct0","pricing_plan_id":"cebpf4jnsgd1na2vs0mg"},{"bike_id":"f925acf9-5b2d-402c-9a32-9eb149c8a91c","system_id":"levelo_inurba_marseille","lat":43.33756,"lon":5.37447,"is_reserved":false,"is_disabled":false,"rental_uris":{"android":"levelo://app?vid=f925acf9-5b2d-402c-9a32-9eb149c8a91c","ios":"levelo://app?vid=f925acf9-5b2d-402c-9a32-9eb149c8a91c"},"vehicle_type_id":"4","last_reported":1727875052,"current_range_meters":31200,"station_id":"","pricing_plan_id":"cebpf4jnsgd1na2vs0mg"},{"bike_id":"609844d3-402e-4c83-8b7f-d2093120cb67","system_id":"levelo_inurba_marseille","lat":43.32543,"lon":5.41453,"is_reserved":false,"is_disabled":false,"rental_uris":{"android":"levelo://app?vid=609844d3-402e-4c83-8b7f-d2093120cb67","ios":"levelo://app?vid=609844d3-402e-4c83-8b7f-d2093120cb67"},"vehicle_type_id":"4","last_reported":1727875052,"current_range_meters":35600,"station_id":"ce4bhq12rcd13ifvqhhg","pricing_plan_id":"cebpf4jnsgd1na2vs0mg"},{"bike_id":"649b0ebd-72c1-4ccb-bdb5-0127394604e7","system_id":"levelo_inurba_marseille","lat":43.33613,"lon":5.41021,"is_reserved":false,"is_disabled":false,"rental_uris":{"android":"levelo://app?vid=649b0ebd-72c1-4ccb-bdb5-0127394604e7","ios":"levelo://app?vid=649b0ebd-72c1-4ccb-bdb5-0127394604e7"},"vehicle_type_id":"4","last_reported":1727875052,"current_range_meters":37600,"station_id":"ce4bhqh2rcd13ifvqhmg","pricing_plan_id":"cebpf4jnsgd1na2vs0mg"},{"bike_id":"9e6f82c5-7edd-4d61-8fe9-86f829a7226e","system_id":"levelo_inurba_marseille","lat":43.2315,"lon":5.43722,"is_reserved":false,"is_disabled":false,"rental_uris":{"android":"levelo://app?vid=9e6f82c5-7edd-4d61-8fe9-86f829a7226e","ios":"levelo://app?vid=9e6f82c5-7edd-4d61-8fe9-86f829a7226e"},"vehicle_type_id":"4","last_reported":1727875052,"current_range_meters":10800,"station_id":"ce4bhmp2rcd13ifvqgog","pricing_plan_id":"cebpf4jnsgd1na2vs0mg"},{"bike_id":"ee9e0424-af0c-43d0-9013-eb1ebf9a730d","system_id":"levelo_inurba_marseille","lat":43.309291,"lon":5.401389,"is_reserved":false,"is_disabled":false,"rental_uris":{"android":"levelo://app?vid=ee9e0424-af0c-43d0-9013-eb1ebf9a730d","ios":"levelo://app?vid=ee9e0424-af0c-43d0-9013-eb1ebf9a730d"},"vehicle_type_id":"4","last_reported":1727875052,"current_range_meters":38800,"station_id":"ce4bgvp2rcd13ifvqct0","pricing_plan_id":"cebpf4jnsgd1na2vs0mg"},{"bike_id":"83e528b7-7aa0-42de-b78f-f113de29a4bd","system_id":"levelo_inurba_marseille","lat":43.30321,"lon":5.36886,"is_reserved":false,"is_disabled":false,"rental_uris":{"android":"levelo://app?vid=83e528b7-7aa0-42de-b78f-f113de29a4bd","ios":"levelo://app?vid=83e528b7-7aa0-42de-b78f-f113de29a4bd"},"vehicle_type_id":"4","last_reported":1727875052,"current_range_meters":30000,"station_id":"ce4bgqh2rcd13ifvqc5g","pricing_plan_id":"cebpf4jnsgd1na2vs0mg"},{"bike_id":"9d0dadf5-bffd-4e3b-bb56-bf7fbcac6f24","system_id":"levelo_inurba_marseille","lat":43.25088,"lon":5.39519,"is_reserved":false,"is_disabled":false,"rental_uris":{"android":"levelo://app?vid=9d0dadf5-bffd-4e3b-bb56-bf7fbcac6f24","ios":"levelo://app?vid=9d0dadf5-bffd-4e3b-bb56-bf7fbcac6f24"},"vehicle_type_id":"4","last_reported":1727875052,"current_range_meters":7200,"station_id":"ce4bhm12rcd13ifvqgkg","pricing_plan_id":"cebpf4jnsgd1na2vs0mg"},{"bike_id":"5a0d3d90-449e-478b-94b1-488eb695ddbe","system_id":"levelo_inurba_marseille","lat":43.29843,"lon":5.36269,"is_reserved":false,"is_disabled":false,"rental_uris":{"android":"levelo://app?vid=5a0d3d90-449e-478b-94b1-488eb695ddbe","ios":"levelo://app?vid=5a0d3d90-449e-478b-94b1-488eb695ddbe"},"vehicle_type_id":"4","last_reported":1727875052,"current_range_meters":36000,"station_id":"ce4bgpp2rcd13ifvqc3g","pricing_plan_id":"cebpf4jnsgd1na2vs0mg"},{"bike_id":"9c2ceccf-22b3-46ff-b3d3-fc888a155293","system_id":"levelo_inurba_marseille","lat":43.2999,"lon":5.38486,"is_reserved":false,"is_disabled":false,"rental_uris":{"android":"levelo://app?vid=9c2ceccf-22b3-46ff-b3d3-fc888a155293","ios":"levelo://app?vid=9c2ceccf-22b3-46ff-b3d3-fc888a155293"},"vehicle_type_id":"4","last_reported":1727875052,"current_range_meters":37600,"station_id":"ce4bgj92rcd13ifvqbd0","pricing_plan_id":"cebpf4jnsgd1na2vs0mg"},{"bike_id":"a4ee0f04-460a-48cd-a86d-58e157c7e0ec","system_id":"levelo_inurba_marseille","lat":43.29078,"lon":5.37168,"is_reserved":false,"is_disabled":false,"rental_uris":{"android":"levelo://app?vid=a4ee0f04-460a-48cd-a86d-58e157c7e0ec","ios":"levelo://app?vid=a4ee0f04-460a-48cd-a86d-58e157c7e0ec"},"vehicle_type_id":"4","last_reported":1727875052,"current_range_meters":17200,"station_id":"ce4bh5p2rcd13ifvqe4g","pricing_plan_id":"cebpf4jnsgd1na2vs0mg"},{"bike_id":"bc003e84-fe9a-4d0b-bc44-c97f12a3a7a4","system_id":"levelo_inurba_marseille","lat":43.31076,"lon":5.38364,"is_reserved":false,"is_disabled":false,"rental_uris":{"android":"levelo://app?vid=bc003e84-fe9a-4d0b-bc44-c97f12a3a7a4","ios":"levelo://app?vid=bc003e84-fe9a-4d0b-bc44-c97f12a3a7a4"},"vehicle_type_id":"4","last_reported":1727875052,"current_range_meters":3200,"station_id":"ce4bgv92rcd13ifvqcr0","pricing_plan_id":"cebpf4jnsgd1na2vs0mg"},{"bike_id":"f77c1722-4fc0-4587-9e7c-163d954b1ae3","system_id":"levelo_inurba_marseille","lat":43.29903,"lon":5.43669,"is_reserved":false,"is_disabled":false,"rental_uris":{"android":"levelo://app?vid=f77c1722-4fc0-4587-9e7c-163d954b1ae3","ios":"levelo://app?vid=f77c1722-4fc0-4587-9e7c-163d954b1ae3"},"vehicle_type_id":"4","last_reported":1727875052,"current_range_meters":28800,"station_id":"ce4bhpp2rcd13ifvqhfg","pricing_plan_id":"cebpf4jnsgd1na2vs0mg"},{"bike_id":"29da839a-70d3-4f5c-9bc3-97ff70636a0e","system_id":"levelo_inurba_marseille","lat":43.26568,"lon":5.38988,"is_reserved":false,"is_disabled":false,"rental_uris":{"android":"levelo://app?vid=29da839a-70d3-4f5c-9bc3-97ff70636a0e","ios":"levelo://app?vid=29da839a-70d3-4f5c-9bc3-97ff70636a0e"},"vehicle_type_id":"4","last_reported":1727875052,"current_range_meters":38800,"station_id":"ce4bhe12rcd13ifvqf30","pricing_plan_id":"cebpf4jnsgd1na2vs0mg"},{"bike_id":"432e88ac-89ec-4c58-b08a-5437a3576177","system_id":"levelo_inurba_marseille","lat":43.23187,"lon":5.39981,"is_reserved":false,"is_disabled":false,"rental_uris":{"android":"levelo://app?vid=432e88ac-89ec-4c58-b08a-5437a3576177","ios":"levelo://app?vid=432e88ac-89ec-4c58-b08a-5437a3576177"},"vehicle_type_id":"4","last_reported":1727875052,"current_range_meters":12800,"station_id":"ce4bhn12rcd13ifvqgqg","pricing_plan_id":"cebpf4jnsgd1na2vs0mg"},{"bike_id":"a253aee3-25a2-4169-81f0-7160ec578495","system_id":"levelo_inurba_marseille","lat":43.27358,"lon":5.36241,"is_reserved":false,"is_disabled":false,"rental_uris":{"android":"levelo://app?vid=a253aee3-25a2-4169-81f0-7160ec578495","ios":"levelo://app?vid=a253aee3-25a2-4169-81f0-7160ec578495"},"vehicle_type_id":"4","last_reported":1727875052,"current_range_meters":38800,"station_id":"ce4bhbh2rcd13ifvqeo0","pricing_plan_id":"cebpf4jnsgd1na2vs0mg"},{"bike_id":"39c7dc54-6d62-4b84-92eb-f8a41a50040c","system_id":"levelo_inurba_marseille","lat":43.23154,"lon":5.43694,"is_reserved":false,"is_disabled":false,"rental_uris":{"android":"levelo://app?vid=39c7dc54-6d62-4b84-92eb-f8a41a50040c","ios":"levelo://app?vid=39c7dc54-6d62-4b84-92eb-f8a41a50040c"},"vehicle_type_id":"4","last_reported":1727875052,"current_range_meters":25600,"station_id":"ce4bhmp2rcd13ifvqgog","pricing_plan_id":"cebpf4jnsgd1na2vs0mg"},{"bike_id":"30077ecd-1d3c-4ffe-bf30-a1a2991e1aca","system_id":"levelo_inurba_marseille","lat":43.23057,"lon":5.35485,"is_reserved":false,"is_disabled":false,"rental_uris":{"android":"levelo://app?vid=30077ecd-1d3c-4ffe-bf30-a1a2991e1aca","ios":"levelo://app?vid=30077ecd-1d3c-4ffe-bf30-a1a2991e1aca"},"vehicle_type_id":"4","last_reported":1727875052,"current_range_meters":37600,"station_id":"cpo3342slgdg3j2ifvpg","pricing_plan_id":"cebpf4jnsgd1na2vs0mg"},{"bike_id":"fec1c4e0-ecc5-4650-bb2c-a7b963c3d8fe","system_id":"levelo_inurba_marseille","lat":43.27803,"lon":5.40682,"is_reserved":false,"is_disabled":false,"rental_uris":{"android":"levelo://app?vid=fec1c4e0-ecc5-4650-bb2c-a7b963c3d8fe","ios":"levelo://app?vid=fec1c4e0-ecc5-4650-bb2c-a7b963c3d8fe"},"vehicle_type_id":"4","last_reported":1727875052,"current_range_meters":19600,"station_id":"ce4bhnh2rcd13ifvqgtg","pricing_plan_id":"cebpf4jnsgd1na2vs0mg"},{"bike_id":"123ff6ed-4385-4a10-999b-eb298bcab43c","system_id":"levelo_inurba_marseille","lat":43.33025,"lon":5.39038,"is_reserved":false,"is_disabled":false,"rental_uris":{"android":"levelo://app?vid=123ff6ed-4385-4a10-999b-eb298bcab43c","ios":"levelo://app?vid=123ff6ed-4385-4a10-999b-eb298bcab43c"},"vehicle_type_id":"4","last_reported":1727875052,"current_range_meters":39200,"station_id":"ce4bhr92rcd13ifvqhrg","pricing_plan_id":"cebpf4jnsgd1na2vs0mg"},{"bike_id":"958476e9-5c3c-4630-908d-9065c20162a7","system_id":"levelo_inurba_marseille","lat":43.29019,"lon":5.38128,"is_reserved":false,"is_disabled":false,"rental_uris":{"android":"levelo://app?vid=958476e9-5c3c-4630-908d-9065c20162a7","ios":"levelo://app?vid=958476e9-5c3c-4630-908d-9065c20162a7"},"vehicle_type_id":"4","last_reported":1727875052,"current_range_meters":24800,"station_id":"ce4bh4p2rcd13ifvqe1g","pricing_plan_id":"cebpf4jnsgd1na2vs0mg"},{"bike_id":"789e3afd-a921-4dce-9615-939a2591cb8d","system_id":"levelo_inurba_marseille","lat":43.31044,"lon":5.40102,"is_reserved":false,"is_disabled":false,"rental_uris":{"android":"levelo://app?vid=789e3afd-a921-4dce-9615-939a2591cb8d","ios":"levelo://app?vid=789e3afd-a921-4dce-9615-939a2591cb8d"},"vehicle_type_id":"4","last_reported":1727875052,"current_range_meters":33200,"station_id":"ce4bh092rcd13ifvqd30","pricing_plan_id":"cebpf4jnsgd1na2vs0mg"},{"bike_id":"99dc559c-151b-4a3c-9c27-7537d7a64297","system_id":"levelo_inurba_marseille","lat":43.29036,"lon":5.37561,"is_reserved":false,"is_disabled":false,"rental_uris":{"android":"levelo://app?vid=99dc559c-151b-4a3c-9c27-7537d7a64297","ios":"levelo://app?vid=99dc559c-151b-4a3c-9c27-7537d7a64297"},"vehicle_type_id":"4","last_reported":1727875052,"current_range_meters":3600,"station_id":"ce4bh692rcd13ifvqe90","pricing_plan_id":"cebpf4jnsgd1na2vs0mg"},{"bike_id":"81c8f3eb-4f47-48de-b362-cac094d7e803","system_id":"levelo_inurba_marseille","lat":43.25934,"lon":5.4091,"is_reserved":false,"is_disabled":false,"rental_uris":{"android":"levelo://app?vid=81c8f3eb-4f47-48de-b362-cac094d7e803","ios":"levelo://app?vid=81c8f3eb-4f47-48de-b362-cac094d7e803"},"vehicle_type_id":"4","last_reported":1727875052,"current_range_meters":7200,"station_id":"ce4bhm92rcd13ifvqglg","pricing_plan_id":"cebpf4jnsgd1na2vs0mg"},{"bike_id":"3bb2d3e7-5aa1-4521-98a8-026a51b80a36","system_id":"levelo_inurba_marseille","lat":43.27054,"lon":5.40264,"is_reserved":false,"is_disabled":false,"rental_uris":{"android":"levelo://app?vid=3bb2d3e7-5aa1-4521-98a8-026a51b80a36","ios":"levelo://app?vid=3bb2d3e7-5aa1-4521-98a8-026a51b80a36"},"vehicle_type_id":"4","last_reported":1727875052,"current_range_meters":16800,"station_id":"ce4bhk92rcd13ifvqgc0","pricing_plan_id":"cebpf4jnsgd1na2vs0mg"},{"bike_id":"49f70484-8757-4395-998e-fc3633fa05de","system_id":"levelo_inurba_marseille","lat":43.32546,"lon":5.41443,"is_reserved":false,"is_disabled":false,"rental_uris":{"android":"levelo://app?vid=49f70484-8757-4395-998e-fc3633fa05de","ios":"levelo://app?vid=49f70484-8757-4395-998e-fc3633fa05de"},"vehicle_type_id":"4","last_reported":1727875052,"current_range_meters":25200,"station_id":"ce4bhq12rcd13ifvqhhg","pricing_plan_id":"cebpf4jnsgd1na2vs0mg"},{"bike_id":"fc707434-04d4-413b-a729-065ca27b3cae","system_id":"levelo_inurba_marseille","lat":43.29366,"lon":5.37829,"is_reserved":false,"is_disabled":false,"rental_uris":{"android":"levelo://app?vid=fc707434-04d4-413b-a729-065ca27b3cae","ios":"levelo://app?vid=fc707434-04d4-413b-a729-065ca27b3cae"},"vehicle_type_id":"4","last_reported":1727875052,"current_range_meters":38000,"station_id":"ce4bgjh2rcd13ifvqbf0","pricing_plan_id":"cebpf4jnsgd1na2vs0mg"},{"bike_id":"f8f518e3-bd48-40f5-801a-4ead88758ee2","system_id":"levelo_inurba_marseille","lat":43.32113,"lon":5.36772,"is_reserved":false,"is_disabled":false,"rental_uris":{"android":"levelo://app?vid=f8f518e3-bd48-40f5-801a-4ead88758ee2","ios":"levelo://app?vid=f8f518e3-bd48-40f5-801a-4ead88758ee2"},"vehicle_type_id":"4","last_reported":1727875052,"current_range_meters":9200,"station_id":"ce4bhrh2rcd13ifvqhug","pricing_plan_id":"cebpf4jnsgd1na2vs0mg"},{"bike_id":"b7206f34-0043-4306-9807-a1fc16f41e59","system_id":"levelo_inurba_marseille","lat":43.2998,"lon":5.38487,"is_reserved":false,"is_disabled":false,"rental_uris":{"android":"levelo://app?vid=b7206f34-0043-4306-9807-a1fc16f41e59","ios":"levelo://app?vid=b7206f34-0043-4306-9807-a1fc16f41e59"},"vehicle_type_id":"4","last_reported":1727875052,"current_range_meters":38000,"station_id":"ce4bgj92rcd13ifvqbd0","pricing_plan_id":"cebpf4jnsgd1na2vs0mg"},{"bike_id":"b8d0f0fe-9829-4e25-b3fc-9da75c2774f3","system_id":"levelo_inurba_marseille","lat":43.25932,"lon":5.40902,"is_reserved":false,"is_disabled":false,"rental_uris":{"android":"levelo://app?vid=b8d0f0fe-9829-4e25-b3fc-9da75c2774f3","ios":"levelo://app?vid=b8d0f0fe-9829-4e25-b3fc-9da75c2774f3"},"vehicle_type_id":"4","last_reported":1727875052,"current_range_meters":16000,"station_id":"ce4bhm92rcd13ifvqglg","pricing_plan_id":"cebpf4jnsgd1na2vs0mg"},{"bike_id":"eeddf935-9c21-4471-9e36-d8397c7b2ce1","system_id":"levelo_inurba_marseille","lat":43.24806,"lon":5.37452,"is_reserved":false,"is_disabled":false,"rental_uris":{"android":"levelo://app?vid=eeddf935-9c21-4471-9e36-d8397c7b2ce1","ios":"levelo://app?vid=eeddf935-9c21-4471-9e36-d8397c7b2ce1"},"vehicle_type_id":"4","last_reported":1727875052,"current_range_meters":24400,"station_id":"ce4bhgh2rcd13ifvqfb0","pricing_plan_id":"cebpf4jnsgd1na2vs0mg"},{"bike_id":"add29882-e415-4ee9-8de1-1553af38535a","system_id":"levelo_inurba_marseille","lat":43.25116,"lon":5.40322,"is_reserved":false,"is_disabled":false,"rental_uris":{"android":"levelo://app?vid=add29882-e415-4ee9-8de1-1553af38535a","ios":"levelo://app?vid=add29882-e415-4ee9-8de1-1553af38535a"},"vehicle_type_id":"4","last_reported":1727875052,"current_range_meters":38800,"station_id":"ce4bhlh2rcd13ifvqgig","pricing_plan_id":"cebpf4jnsgd1na2vs0mg"},{"bike_id":"91b10d81-ee63-4d4b-b9ba-21e9744b0964","system_id":"levelo_inurba_marseille","lat":43.27813,"lon":5.40708,"is_reserved":false,"is_disabled":false,"rental_uris":{"android":"levelo://app?vid=91b10d81-ee63-4d4b-b9ba-21e9744b0964","ios":"levelo://app?vid=91b10d81-ee63-4d4b-b9ba-21e9744b0964"},"vehicle_type_id":"4","last_reported":1727875052,"current_range_meters":32800,"station_id":"ce4bhnh2rcd13ifvqgtg","pricing_plan_id":"cebpf4jnsgd1na2vs0mg"},{"bike_id":"4d0bf592-faa0-46bd-adc8-99f808f11b3a","system_id":"levelo_inurba_marseille","lat":43.312776,"lon":5.401712,"is_reserved":false,"is_disabled":false,"rental_uris":{"android":"levelo://app?vid=4d0bf592-faa0-46bd-adc8-99f808f11b3a","ios":"levelo://app?vid=4d0bf592-faa0-46bd-adc8-99f808f11b3a"},"vehicle_type_id":"4","last_reported":1727875052,"current_range_meters":39200,"station_id":"ce4bh092rcd13ifvqd30","pricing_plan_id":"cebpf4jnsgd1na2vs0mg"},{"bike_id":"b5872471-5507-4506-ae90-b6bf9c383465","system_id":"levelo_inurba_marseille","lat":43.29006,"lon":5.35605,"is_reserved":false,"is_disabled":false,"rental_uris":{"android":"levelo://app?vid=b5872471-5507-4506-ae90-b6bf9c383465","ios":"levelo://app?vid=b5872471-5507-4506-ae90-b6bf9c383465"},"vehicle_type_id":"4","last_reported":1727875052,"current_range_meters":2800,"station_id":"ce4bhb92rcd13ifvqen0","pricing_plan_id":"cebpf4jnsgd1na2vs0mg"},{"bike_id":"083b265c-13b6-4f64-9361-9349d4fe6b90","system_id":"levelo_inurba_marseille","lat":43.29002,"lon":5.35604,"is_reserved":false,"is_disabled":false,"rental_uris":{"android":"levelo://app?vid=083b265c-13b6-4f64-9361-9349d4fe6b90","ios":"levelo://app?vid=083b265c-13b6-4f64-9361-9349d4fe6b90"},"vehicle_type_id":"4","last_reported":1727875052,"current_range_meters":11200,"station_id":"ce4bhb92rcd13ifvqen0","pricing_plan_id":"cebpf4jnsgd1na2vs0mg"},{"bike_id":"d871a647-44ab-4e6a-a9f8-68c97c570642","system_id":"levelo_inurba_marseille","lat":43.29899,"lon":5.43671,"is_reserved":false,"is_disabled":false,"rental_uris":{"android":"levelo://app?vid=d871a647-44ab-4e6a-a9f8-68c97c570642","ios":"levelo://app?vid=d871a647-44ab-4e6a-a9f8-68c97c570642"},"vehicle_type_id":"4","last_reported":1727875052,"current_range_meters":16000,"station_id":"ce4bhpp2rcd13ifvqhfg","pricing_plan_id":"cebpf4jnsgd1na2vs0mg"},{"bike_id":"c002c026-0bec-4143-99f2-9e088f70f49b","system_id":"levelo_inurba_marseille","lat":43.2582,"lon":5.39426,"is_reserved":false,"is_disabled":false,"rental_uris":{"android":"levelo://app?vid=c002c026-0bec-4143-99f2-9e088f70f49b","ios":"levelo://app?vid=c002c026-0bec-4143-99f2-9e088f70f49b"},"vehicle_type_id":"4","last_reported":1727875052,"current_range_meters":38000,"station_id":"ce4bhip2rcd13ifvqft0","pricing_plan_id":"cebpf4jnsgd1na2vs0mg"},{"bike_id":"db85d372-cbf4-48ca-97fd-c9307927e51f","system_id":"levelo_inurba_marseille","lat":43.28703,"lon":5.39969,"is_reserved":false,"is_disabled":false,"rental_uris":{"android":"levelo://app?vid=db85d372-cbf4-48ca-97fd-c9307927e51f","ios":"levelo://app?vid=db85d372-cbf4-48ca-97fd-c9307927e51f"},"vehicle_type_id":"4","last_reported":1727875052,"current_range_meters":28800,"station_id":"ce4bho92rcd13ifvqh3g","pricing_plan_id":"cebpf4jnsgd1na2vs0mg"},{"bike_id":"255cef87-5b31-4b88-a709-326983bcf963","system_id":"levelo_inurba_marseille","lat":43.29574,"lon":5.39984,"is_reserved":false,"is_disabled":false,"rental_uris":{"android":"levelo://app?vid=255cef87-5b31-4b88-a709-326983bcf963","ios":"levelo://app?vid=255cef87-5b31-4b88-a709-326983bcf963"},"vehicle_type_id":"4","last_reported":1727875052,"current_range_meters":36400,"station_id":"ce4bh312rcd13ifvqdj0","pricing_plan_id":"cebpf4jnsgd1na2vs0mg"},{"bike_id":"b1c59b33-0c17-43c3-b285-0af4cf6e0d27","system_id":"levelo_inurba_marseille","lat":43.29557,"lon":5.42287,"is_reserved":false,"is_disabled":false,"rental_uris":{"android":"levelo://app?vid=b1c59b33-0c17-43c3-b285-0af4cf6e0d27","ios":"levelo://app?vid=b1c59b33-0c17-43c3-b285-0af4cf6e0d27"},"vehicle_type_id":"4","last_reported":1727875052,"current_range_meters":30000,"station_id":"ce4bhph2rcd13ifvqhdg","pricing_plan_id":"cebpf4jnsgd1na2vs0mg"},{"bike_id":"dee5a0e8-5130-4846-b687-1699c6e18d76","system_id":"levelo_inurba_marseille","lat":43.3376,"lon":5.3744,"is_reserved":false,"is_disabled":false,"rental_uris":{"android":"levelo://app?vid=dee5a0e8-5130-4846-b687-1699c6e18d76","ios":"levelo://app?vid=dee5a0e8-5130-4846-b687-1699c6e18d76"},"vehicle_type_id":"4","last_reported":1727875052,"current_range_meters":35200,"station_id":"","pricing_plan_id":"cebpf4jnsgd1na2vs0mg"},{"bike_id":"dcf405e3-3109-4b92-8731-d9dec9d1a0f6","system_id":"levelo_inurba_marseille","lat":43.28463,"lon":5.37632,"is_reserved":false,"is_disabled":false,"rental_uris":{"android":"levelo://app?vid=dcf405e3-3109-4b92-8731-d9dec9d1a0f6","ios":"levelo://app?vid=dcf405e3-3109-4b92-8731-d9dec9d1a0f6"},"vehicle_type_id":"4","last_reported":1727875052,"current_range_meters":10800,"station_id":"ce4bh412rcd13ifvqds0","pricing_plan_id":"cebpf4jnsgd1na2vs0mg"},{"bike_id":"94eb947a-ad36-47f0-bbd9-f03b94063c72","system_id":"levelo_inurba_marseille","lat":43.26943,"lon":5.40249,"is_reserved":false,"is_disabled":false,"rental_uris":{"android":"levelo://app?vid=94eb947a-ad36-47f0-bbd9-f03b94063c72","ios":"levelo://app?vid=94eb947a-ad36-47f0-bbd9-f03b94063c72"},"vehicle_type_id":"4","last_reported":1727875052,"current_range_meters":8800,"station_id":"cjm6bp8fraef2m0cb0m0","pricing_plan_id":"cebpf4jnsgd1na2vs0mg"},{"bike_id":"a5ad5518-344a-4531-b257-a4001607da13","system_id":"levelo_inurba_marseille","lat":43.29721,"lon":5.36606,"is_reserved":false,"is_disabled":false,"rental_uris":{"android":"levelo://app?vid=a5ad5518-344a-4531-b257-a4001607da13","ios":"levelo://app?vid=a5ad5518-344a-4531-b257-a4001607da13"},"vehicle_type_id":"4","last_reported":1727875052,"current_range_meters":37600,"station_id":"ce4bgn12rcd13ifvqbt0","pricing_plan_id":"cebpf4jnsgd1na2vs0mg"},{"bike_id":"a726f08b-6955-4a90-87a0-9db9878695ea","system_id":"levelo_inurba_marseille","lat":43.262141,"lon":5.37437,"is_reserved":false,"is_disabled":false,"rental_uris":{"android":"levelo://app?vid=a726f08b-6955-4a90-87a0-9db9878695ea","ios":"levelo://app?vid=a726f08b-6955-4a90-87a0-9db9878695ea"},"vehicle_type_id":"4","last_reported":1727875052,"current_range_meters":20800,"station_id":"ce4bhgp2rcd13ifvqfc0","pricing_plan_id":"cebpf4jnsgd1na2vs0mg"},{"bike_id":"04c16949-8595-4525-b669-063513b63c40","system_id":"levelo_inurba_marseille","lat":43.248053,"lon":5.37453,"is_reserved":false,"is_disabled":false,"rental_uris":{"android":"levelo://app?vid=04c16949-8595-4525-b669-063513b63c40","ios":"levelo://app?vid=04c16949-8595-4525-b669-063513b63c40"},"vehicle_type_id":"4","last_reported":1727875052,"current_range_meters":9200,"station_id":"ce4bhgh2rcd13ifvqfb0","pricing_plan_id":"cebpf4jnsgd1na2vs0mg"},{"bike_id":"7bc21cda-5ae8-4a23-81d9-9177900c8295","system_id":"levelo_inurba_marseille","lat":43.27811,"lon":5.40714,"is_reserved":false,"is_disabled":false,"rental_uris":{"android":"levelo://app?vid=7bc21cda-5ae8-4a23-81d9-9177900c8295","ios":"levelo://app?vid=7bc21cda-5ae8-4a23-81d9-9177900c8295"},"vehicle_type_id":"4","last_reported":1727875052,"current_range_meters":17600,"station_id":"ce4bhnh2rcd13ifvqgtg","pricing_plan_id":"cebpf4jnsgd1na2vs0mg"},{"bike_id":"c03a7cd2-b0dd-43c7-ac6d-23529bcf0915","system_id":"levelo_inurba_marseille","lat":43.31496,"lon":5.37306,"is_reserved":false,"is_disabled":false,"rental_uris":{"android":"levelo://app?vid=c03a7cd2-b0dd-43c7-ac6d-23529bcf0915","ios":"levelo://app?vid=c03a7cd2-b0dd-43c7-ac6d-23529bcf0915"},"vehicle_type_id":"4","last_reported":1727875052,"current_range_meters":3200,"station_id":"ce4bgt12rcd13ifvqcd0","pricing_plan_id":"cebpf4jnsgd1na2vs0mg"},{"bike_id":"633023d5-3411-46be-a271-dc61d0e3d555","system_id":"levelo_inurba_marseille","lat":43.2582,"lon":5.39434,"is_reserved":false,"is_disabled":false,"rental_uris":{"android":"levelo://app?vid=633023d5-3411-46be-a271-dc61d0e3d555","ios":"levelo://app?vid=633023d5-3411-46be-a271-dc61d0e3d555"},"vehicle_type_id":"4","last_reported":1727875052,"current_range_meters":27600,"station_id":"ce4bhip2rcd13ifvqft0","pricing_plan_id":"cebpf4jnsgd1na2vs0mg"},{"bike_id":"512988e3-1d20-4e89-b417-2db2a9845bdc","system_id":"levelo_inurba_marseille","lat":43.29958,"lon":5.38495,"is_reserved":false,"is_disabled":false,"rental_uris":{"android":"levelo://app?vid=512988e3-1d20-4e89-b417-2db2a9845bdc","ios":"levelo://app?vid=512988e3-1d20-4e89-b417-2db2a9845bdc"},"vehicle_type_id":"4","last_reported":1727875052,"current_range_meters":38800,"station_id":"ce4bgj92rcd13ifvqbd0","pricing_plan_id":"cebpf4jnsgd1na2vs0mg"},{"bike_id":"9e0f8531-ac87-4939-876c-6806e8dfeda9","system_id":"levelo_inurba_marseille","lat":43.23151,"lon":5.43709,"is_reserved":false,"is_disabled":false,"rental_uris":{"android":"levelo://app?vid=9e0f8531-ac87-4939-876c-6806e8dfeda9","ios":"levelo://app?vid=9e0f8531-ac87-4939-876c-6806e8dfeda9"},"vehicle_type_id":"4","last_reported":1727875052,"current_range_meters":7200,"station_id":"ce4bhmp2rcd13ifvqgog","pricing_plan_id":"cebpf4jnsgd1na2vs0mg"},{"bike_id":"53c6fe7a-c5f0-4c29-bdb6-08c6c7db5c71","system_id":"levelo_inurba_marseille","lat":43.32082,"lon":5.36758,"is_reserved":false,"is_disabled":false,"rental_uris":{"android":"levelo://app?vid=53c6fe7a-c5f0-4c29-bdb6-08c6c7db5c71","ios":"levelo://app?vid=53c6fe7a-c5f0-4c29-bdb6-08c6c7db5c71"},"vehicle_type_id":"4","last_reported":1727875052,"current_range_meters":16800,"station_id":"ce4bhrh2rcd13ifvqhug","pricing_plan_id":"cebpf4jnsgd1na2vs0mg"},{"bike_id":"6ce60676-3f86-4aaa-a5df-572436c32ad4","system_id":"levelo_inurba_marseille","lat":43.23192,"lon":5.35551,"is_reserved":false,"is_disabled":false,"rental_uris":{"android":"levelo://app?vid=6ce60676-3f86-4aaa-a5df-572436c32ad4","ios":"levelo://app?vid=6ce60676-3f86-4aaa-a5df-572436c32ad4"},"vehicle_type_id":"4","last_reported":1727875052,"current_range_meters":25200,"station_id":"ce4bhu92rcd13ifvqi70","pricing_plan_id":"cebpf4jnsgd1na2vs0mg"},{"bike_id":"4468b5d4-1685-4490-93ec-e9e63be7cd0e","system_id":"levelo_inurba_marseille","lat":43.310122,"lon":5.400581,"is_reserved":false,"is_disabled":false,"rental_uris":{"android":"levelo://app?vid=4468b5d4-1685-4490-93ec-e9e63be7cd0e","ios":"levelo://app?vid=4468b5d4-1685-4490-93ec-e9e63be7cd0e"},"vehicle_type_id":"4","last_reported":1727875052,"current_range_meters":3600,"station_id":"","pricing_plan_id":"cebpf4jnsgd1na2vs0mg"},{"bike_id":"3ea720e0-4b3f-4929-8dc2-e35b5681af5c","system_id":"levelo_inurba_marseille","lat":43.29859,"lon":5.36286,"is_reserved":false,"is_disabled":false,"rental_uris":{"android":"levelo://app?vid=3ea720e0-4b3f-4929-8dc2-e35b5681af5c","ios":"levelo://app?vid=3ea720e0-4b3f-4929-8dc2-e35b5681af5c"},"vehicle_type_id":"4","last_reported":1727875052,"current_range_meters":33600,"station_id":"ce4bgpp2rcd13ifvqc3g","pricing_plan_id":"cebpf4jnsgd1na2vs0mg"},{"bike_id":"1cbac9b0-66ad-4c13-ae3d-23411b1e8c56","system_id":"levelo_inurba_marseille","lat":43.29935,"lon":5.41321,"is_reserved":false,"is_disabled":false,"rental_uris":{"android":"levelo://app?vid=1cbac9b0-66ad-4c13-ae3d-23411b1e8c56","ios":"levelo://app?vid=1cbac9b0-66ad-4c13-ae3d-23411b1e8c56"},"vehicle_type_id":"4","last_reported":1727875052,"current_range_meters":24800,"station_id":"ce4bhp12rcd13ifvqh9g","pricing_plan_id":"cebpf4jnsgd1na2vs0mg"},{"bike_id":"b25e4383-99cd-4093-bd4d-9338a6b6425b","system_id":"levelo_inurba_marseille","lat":43.32115,"lon":5.36762,"is_reserved":false,"is_disabled":false,"rental_uris":{"android":"levelo://app?vid=b25e4383-99cd-4093-bd4d-9338a6b6425b","ios":"levelo://app?vid=b25e4383-99cd-4093-bd4d-9338a6b6425b"},"vehicle_type_id":"4","last_reported":1727875052,"current_range_meters":2800,"station_id":"ce4bhrh2rcd13ifvqhug","pricing_plan_id":"cebpf4jnsgd1na2vs0mg"},{"bike_id":"24e3fd63-8e93-4cb9-b4fb-7af2924abaca","system_id":"levelo_inurba_marseille","lat":43.31084,"lon":5.4243,"is_reserved":false,"is_disabled":false,"rental_uris":{"android":"levelo://app?vid=24e3fd63-8e93-4cb9-b4fb-7af2924abaca","ios":"levelo://app?vid=24e3fd63-8e93-4cb9-b4fb-7af2924abaca"},"vehicle_type_id":"4","last_reported":1727875052,"current_range_meters":2800,"station_id":"ce4bhp92rcd13ifvqhag","pricing_plan_id":"cebpf4jnsgd1na2vs0mg"},{"bike_id":"f70163f2-2b5a-48cd-bbde-8677b52ed60f","system_id":"levelo_inurba_marseille","lat":43.28939,"lon":5.36631,"is_reserved":false,"is_disabled":false,"rental_uris":{"android":"levelo://app?vid=f70163f2-2b5a-48cd-bbde-8677b52ed60f","ios":"levelo://app?vid=f70163f2-2b5a-48cd-bbde-8677b52ed60f"},"vehicle_type_id":"4","last_reported":1727875052,"current_range_meters":23200,"station_id":"ce4bhap2rcd13ifvqek0","pricing_plan_id":"cebpf4jnsgd1na2vs0mg"},{"bike_id":"10ff5d2d-9937-4741-b373-1010b7e971bb","system_id":"levelo_inurba_marseille","lat":43.30527,"lon":5.36714,"is_reserved":false,"is_disabled":false,"rental_uris":{"android":"levelo://app?vid=10ff5d2d-9937-4741-b373-1010b7e971bb","ios":"levelo://app?vid=10ff5d2d-9937-4741-b373-1010b7e971bb"},"vehicle_type_id":"4","last_reported":1727875052,"current_range_meters":10000,"station_id":"ce4bgrp2rcd13ifvqc9g","pricing_plan_id":"cebpf4jnsgd1na2vs0mg"},{"bike_id":"685b90ce-814b-4273-8784-07bec12d9d85","system_id":"levelo_inurba_marseille","lat":43.28719,"lon":5.37426,"is_reserved":false,"is_disabled":false,"rental_uris":{"android":"levelo://app?vid=685b90ce-814b-4273-8784-07bec12d9d85","ios":"levelo://app?vid=685b90ce-814b-4273-8784-07bec12d9d85"},"vehicle_type_id":"4","last_reported":1727875052,"current_range_meters":9200,"station_id":"ce4bh412rcd13ifvqds0","pricing_plan_id":"cebpf4jnsgd1na2vs0mg"},{"bike_id":"7bb41cee-bbf2-4cb9-b053-b4b65ed6d515","system_id":"levelo_inurba_marseille","lat":43.28006,"lon":5.40006,"is_reserved":false,"is_disabled":false,"rental_uris":{"android":"levelo://app?vid=7bb41cee-bbf2-4cb9-b053-b4b65ed6d515","ios":"levelo://app?vid=7bb41cee-bbf2-4cb9-b053-b4b65ed6d515"},"vehicle_type_id":"4","last_reported":1727875052,"current_range_meters":9200,"station_id":"ce4bho92rcd13ifvqh4g","pricing_plan_id":"cebpf4jnsgd1na2vs0mg"},{"bike_id":"92778824-43d0-48af-977c-04511febaa5e","system_id":"levelo_inurba_marseille","lat":43.33751,"lon":5.37445,"is_reserved":false,"is_disabled":false,"rental_uris":{"android":"levelo://app?vid=92778824-43d0-48af-977c-04511febaa5e","ios":"levelo://app?vid=92778824-43d0-48af-977c-04511febaa5e"},"vehicle_type_id":"4","last_reported":1727875052,"current_range_meters":33600,"station_id":"","pricing_plan_id":"cebpf4jnsgd1na2vs0mg"},{"bike_id":"f9104789-07dd-4d3c-94f3-a1c602d8a7ca","system_id":"levelo_inurba_marseille","lat":43.24805,"lon":5.37451,"is_reserved":false,"is_disabled":false,"rental_uris":{"android":"levelo://app?vid=f9104789-07dd-4d3c-94f3-a1c602d8a7ca","ios":"levelo://app?vid=f9104789-07dd-4d3c-94f3-a1c602d8a7ca"},"vehicle_type_id":"4","last_reported":1727875052,"current_range_meters":38000,"station_id":"ce4bhgh2rcd13ifvqfb0","pricing_plan_id":"cebpf4jnsgd1na2vs0mg"},{"bike_id":"4f6b844e-d2cf-490a-8106-86117d25078a","system_id":"levelo_inurba_marseille","lat":43.33732,"lon":5.39185,"is_reserved":false,"is_disabled":false,"rental_uris":{"android":"levelo://app?vid=4f6b844e-d2cf-490a-8106-86117d25078a","ios":"levelo://app?vid=4f6b844e-d2cf-490a-8106-86117d25078a"},"vehicle_type_id":"4","last_reported":1727875052,"current_range_meters":28800,"station_id":"ce4bhr92rcd13ifvqhsg","pricing_plan_id":"cebpf4jnsgd1na2vs0mg"},{"bike_id":"7755968c-1dde-4b85-b4c1-da09675a4ad3","system_id":"levelo_inurba_marseille","lat":43.25819,"lon":5.39428,"is_reserved":false,"is_disabled":false,"rental_uris":{"android":"levelo://app?vid=7755968c-1dde-4b85-b4c1-da09675a4ad3","ios":"levelo://app?vid=7755968c-1dde-4b85-b4c1-da09675a4ad3"},"vehicle_type_id":"4","last_reported":1727875052,"current_range_meters":7200,"station_id":"ce4bhip2rcd13ifvqft0","pricing_plan_id":"cebpf4jnsgd1na2vs0mg"},{"bike_id":"d882c178-db66-4976-adc4-d612f68051db","system_id":"levelo_inurba_marseille","lat":43.25869,"lon":5.39901,"is_reserved":false,"is_disabled":false,"rental_uris":{"android":"levelo://app?vid=d882c178-db66-4976-adc4-d612f68051db","ios":"levelo://app?vid=d882c178-db66-4976-adc4-d612f68051db"},"vehicle_type_id":"4","last_reported":1727875052,"current_range_meters":38800,"station_id":"ce4bhl92rcd13ifvqghg","pricing_plan_id":"cebpf4jnsgd1na2vs0mg"},{"bike_id":"c24e5f50-a926-40d1-bdc1-3f195a81d222","system_id":"levelo_inurba_marseille","lat":43.25824,"lon":5.39431,"is_reserved":false,"is_disabled":false,"rental_uris":{"android":"levelo://app?vid=c24e5f50-a926-40d1-bdc1-3f195a81d222","ios":"levelo://app?vid=c24e5f50-a926-40d1-bdc1-3f195a81d222"},"vehicle_type_id":"4","last_reported":1727875052,"current_range_meters":9600,"station_id":"ce4bhip2rcd13ifvqft0","pricing_plan_id":"cebpf4jnsgd1na2vs0mg"},{"bike_id":"2366865d-432d-401c-97f3-0e1a67c4db52","system_id":"levelo_inurba_marseille","lat":43.31692,"lon":5.40468,"is_reserved":false,"is_disabled":false,"rental_uris":{"android":"levelo://app?vid=2366865d-432d-401c-97f3-0e1a67c4db52","ios":"levelo://app?vid=2366865d-432d-401c-97f3-0e1a67c4db52"},"vehicle_type_id":"4","last_reported":1727875052,"current_range_meters":38400,"station_id":"ce4bh012rcd13ifvqd00","pricing_plan_id":"cebpf4jnsgd1na2vs0mg"},{"bike_id":"389dbe3b-4b02-4d49-9def-1a6fa2f84c9b","system_id":"levelo_inurba_marseille","lat":43.30553,"lon":5.36523,"is_reserved":false,"is_disabled":false,"rental_uris":{"android":"levelo://app?vid=389dbe3b-4b02-4d49-9def-1a6fa2f84c9b","ios":"levelo://app?vid=389dbe3b-4b02-4d49-9def-1a6fa2f84c9b"},"vehicle_type_id":"4","last_reported":1727875052,"current_range_meters":30400,"station_id":"ce4bgs12rcd13ifvqcag","pricing_plan_id":"cebpf4jnsgd1na2vs0mg"},{"bike_id":"1d3701a6-6a4f-416c-85dc-d011a8602e4e","system_id":"levelo_inurba_marseille","lat":43.26195,"lon":5.37446,"is_reserved":false,"is_disabled":false,"rental_uris":{"android":"levelo://app?vid=1d3701a6-6a4f-416c-85dc-d011a8602e4e","ios":"levelo://app?vid=1d3701a6-6a4f-416c-85dc-d011a8602e4e"},"vehicle_type_id":"4","last_reported":1727875052,"current_range_meters":5600,"station_id":"ce4bhgp2rcd13ifvqfc0","pricing_plan_id":"cebpf4jnsgd1na2vs0mg"},{"bike_id":"33efb312-7ac0-443f-af7e-d1b49299b3f0","system_id":"levelo_inurba_marseille","lat":43.28,"lon":5.40009,"is_reserved":false,"is_disabled":false,"rental_uris":{"android":"levelo://app?vid=33efb312-7ac0-443f-af7e-d1b49299b3f0","ios":"levelo://app?vid=33efb312-7ac0-443f-af7e-d1b49299b3f0"},"vehicle_type_id":"4","last_reported":1727875052,"current_range_meters":27200,"station_id":"ce4bho92rcd13ifvqh4g","pricing_plan_id":"cebpf4jnsgd1na2vs0mg"},{"bike_id":"e87b5406-bfc3-450b-90be-ea33674025e0","system_id":"levelo_inurba_marseille","lat":43.31356,"lon":5.36716,"is_reserved":false,"is_disabled":false,"rental_uris":{"android":"levelo://app?vid=e87b5406-bfc3-450b-90be-ea33674025e0","ios":"levelo://app?vid=e87b5406-bfc3-450b-90be-ea33674025e0"},"vehicle_type_id":"4","last_reported":1727875052,"current_range_meters":37600,"station_id":"ce4bgr92rcd13ifvqc6g","pricing_plan_id":"cebpf4jnsgd1na2vs0mg"},{"bike_id":"0dce4c74-27a3-407b-a535-f31a0faa1359","system_id":"levelo_inurba_marseille","lat":43.28851,"lon":5.35862,"is_reserved":false,"is_disabled":false,"rental_uris":{"android":"levelo://app?vid=0dce4c74-27a3-407b-a535-f31a0faa1359","ios":"levelo://app?vid=0dce4c74-27a3-407b-a535-f31a0faa1359"},"vehicle_type_id":"4","last_reported":1727875052,"current_range_meters":4800,"station_id":"ce4bhb12rcd13ifvqem0","pricing_plan_id":"cebpf4jnsgd1na2vs0mg"},{"bike_id":"86d53e3d-ab37-48a6-a607-3a3e88a04330","system_id":"levelo_inurba_marseille","lat":43.30322,"lon":5.36889,"is_reserved":false,"is_disabled":false,"rental_uris":{"android":"levelo://app?vid=86d53e3d-ab37-48a6-a607-3a3e88a04330","ios":"levelo://app?vid=86d53e3d-ab37-48a6-a607-3a3e88a04330"},"vehicle_type_id":"4","last_reported":1727875052,"current_range_meters":33600,"station_id":"ce4bgqh2rcd13ifvqc5g","pricing_plan_id":"cebpf4jnsgd1na2vs0mg"},{"bike_id":"6f1d957b-8297-40fa-a942-e2792002a275","system_id":"levelo_inurba_marseille","lat":43.30794,"lon":5.43528,"is_reserved":false,"is_disabled":false,"rental_uris":{"android":"levelo://app?vid=6f1d957b-8297-40fa-a942-e2792002a275","ios":"levelo://app?vid=6f1d957b-8297-40fa-a942-e2792002a275"},"vehicle_type_id":"4","last_reported":1727875052,"current_range_meters":9200,"station_id":"ce4bhph2rcd13ifvqheg","pricing_plan_id":"cebpf4jnsgd1na2vs0mg"},{"bike_id":"020cc63e-a76e-4683-9146-ae8f92152aa5","system_id":"levelo_inurba_marseille","lat":43.3027,"lon":5.37693,"is_reserved":false,"is_disabled":false,"rental_uris":{"android":"levelo://app?vid=020cc63e-a76e-4683-9146-ae8f92152aa5","ios":"levelo://app?vid=020cc63e-a76e-4683-9146-ae8f92152aa5"},"vehicle_type_id":"4","last_reported":1727875052,"current_range_meters":18000,"station_id":"ce4bguh2rcd13ifvqcj0","pricing_plan_id":"cebpf4jnsgd1na2vs0mg"},{"bike_id":"c8e4ff73-620c-4248-92f7-758d5098242c","system_id":"levelo_inurba_marseille","lat":43.22934,"lon":5.3538,"is_reserved":false,"is_disabled":false,"rental_uris":{"android":"levelo://app?vid=c8e4ff73-620c-4248-92f7-758d5098242c","ios":"levelo://app?vid=c8e4ff73-620c-4248-92f7-758d5098242c"},"vehicle_type_id":"4","last_reported":1727875052,"current_range_meters":32400,"station_id":"cpo3532slgdg3j2ikp40","pricing_plan_id":"cebpf4jnsgd1na2vs0mg"},{"bike_id":"dc802187-7a6d-4f65-9ab4-6c98534761de","system_id":"levelo_inurba_marseille","lat":43.28462,"lon":5.35885,"is_reserved":false,"is_disabled":false,"rental_uris":{"android":"levelo://app?vid=dc802187-7a6d-4f65-9ab4-6c98534761de","ios":"levelo://app?vid=dc802187-7a6d-4f65-9ab4-6c98534761de"},"vehicle_type_id":"4","last_reported":1727875052,"current_range_meters":8800,"station_id":"ce4bhah2rcd13ifvqei0","pricing_plan_id":"cebpf4jnsgd1na2vs0mg"},{"bike_id":"0fc3137f-ea0f-44cc-9da4-8076e542a80e","system_id":"levelo_inurba_marseille","lat":43.25602,"lon":5.38229,"is_reserved":false,"is_disabled":false,"rental_uris":{"android":"levelo://app?vid=0fc3137f-ea0f-44cc-9da4-8076e542a80e","ios":"levelo://app?vid=0fc3137f-ea0f-44cc-9da4-8076e542a80e"},"vehicle_type_id":"4","last_reported":1727875052,"current_range_meters":26800,"station_id":"ce4bhih2rcd13ifvqfs0","pricing_plan_id":"cebpf4jnsgd1na2vs0mg"},{"bike_id":"38778f5a-4f43-491f-a496-931d2b42d9b9","system_id":"levelo_inurba_marseille","lat":43.30314,"lon":5.36897,"is_reserved":false,"is_disabled":false,"rental_uris":{"android":"levelo://app?vid=38778f5a-4f43-491f-a496-931d2b42d9b9","ios":"levelo://app?vid=38778f5a-4f43-491f-a496-931d2b42d9b9"},"vehicle_type_id":"4","last_reported":1727875052,"current_range_meters":25200,"station_id":"ce4bgqh2rcd13ifvqc5g","pricing_plan_id":"cebpf4jnsgd1na2vs0mg"},{"bike_id":"29f11818-f9fc-4aeb-8f65-046a7179b1ea","system_id":"levelo_inurba_marseille","lat":43.337444,"lon":5.374475,"is_reserved":false,"is_disabled":false,"rental_uris":{"android":"levelo://app?vid=29f11818-f9fc-4aeb-8f65-046a7179b1ea","ios":"levelo://app?vid=29f11818-f9fc-4aeb-8f65-046a7179b1ea"},"vehicle_type_id":"4","last_reported":1727875052,"current_range_meters":38000,"station_id":"ce4bgkh2rcd13ifvqbk0","pricing_plan_id":"cebpf4jnsgd1na2vs0mg"},{"bike_id":"a6dee003-1feb-474f-90ab-955ae11dce3f","system_id":"levelo_inurba_marseille","lat":43.29783,"lon":5.37112,"is_reserved":false,"is_disabled":false,"rental_uris":{"android":"levelo://app?vid=a6dee003-1feb-474f-90ab-955ae11dce3f","ios":"levelo://app?vid=a6dee003-1feb-474f-90ab-955ae11dce3f"},"vehicle_type_id":"4","last_reported":1727875052,"current_range_meters":17200,"station_id":"ce4bgop2rcd13ifvqc1g","pricing_plan_id":"cebpf4jnsgd1na2vs0mg"},{"bike_id":"b81e90cf-8c6c-4b8b-98f0-3f2a4e3f90fe","system_id":"levelo_inurba_marseille","lat":43.28971,"lon":5.37825,"is_reserved":false,"is_disabled":false,"rental_uris":{"android":"levelo://app?vid=b81e90cf-8c6c-4b8b-98f0-3f2a4e3f90fe","ios":"levelo://app?vid=b81e90cf-8c6c-4b8b-98f0-3f2a4e3f90fe"},"vehicle_type_id":"4","last_reported":1727875052,"current_range_meters":14400,"station_id":"ce4bh9p2rcd13ifvqed0","pricing_plan_id":"cebpf4jnsgd1na2vs0mg"},{"bike_id":"4bd2bdb0-2428-4b26-b66c-938192bf3d68","system_id":"levelo_inurba_marseille","lat":43.33757,"lon":5.37417,"is_reserved":false,"is_disabled":false,"rental_uris":{"android":"levelo://app?vid=4bd2bdb0-2428-4b26-b66c-938192bf3d68","ios":"levelo://app?vid=4bd2bdb0-2428-4b26-b66c-938192bf3d68"},"vehicle_type_id":"4","last_reported":1727875052,"current_range_meters":33200,"station_id":"","pricing_plan_id":"cebpf4jnsgd1na2vs0mg"},{"bike_id":"ba413f1b-5d98-4be2-9974-11e83f898225","system_id":"levelo_inurba_marseille","lat":43.30597,"lon":5.37218,"is_reserved":false,"is_disabled":false,"rental_uris":{"android":"levelo://app?vid=ba413f1b-5d98-4be2-9974-11e83f898225","ios":"levelo://app?vid=ba413f1b-5d98-4be2-9974-11e83f898225"},"vehicle_type_id":"4","last_reported":1727875052,"current_range_meters":24800,"station_id":"ce4bgqh2rcd13ifvqc4g","pricing_plan_id":"cebpf4jnsgd1na2vs0mg"},{"bike_id":"c6aefcac-9b59-4be9-ba9c-464572888e5a","system_id":"levelo_inurba_marseille","lat":43.30541,"lon":5.36696,"is_reserved":false,"is_disabled":false,"rental_uris":{"android":"levelo://app?vid=c6aefcac-9b59-4be9-ba9c-464572888e5a","ios":"levelo://app?vid=c6aefcac-9b59-4be9-ba9c-464572888e5a"},"vehicle_type_id":"4","last_reported":1727875052,"current_range_meters":38800,"station_id":"ce4bgrp2rcd13ifvqc9g","pricing_plan_id":"cebpf4jnsgd1na2vs0mg"},{"bike_id":"e327d4c5-e7de-478d-89b6-da24369c6f53","system_id":"levelo_inurba_marseille","lat":43.29851,"lon":5.36271,"is_reserved":false,"is_disabled":false,"rental_uris":{"android":"levelo://app?vid=e327d4c5-e7de-478d-89b6-da24369c6f53","ios":"levelo://app?vid=e327d4c5-e7de-478d-89b6-da24369c6f53"},"vehicle_type_id":"4","last_reported":1727875052,"current_range_meters":37600,"station_id":"ce4bgpp2rcd13ifvqc3g","pricing_plan_id":"cebpf4jnsgd1na2vs0mg"},{"bike_id":"46928ea4-813f-4cac-a9b4-21b92fcc659f","system_id":"levelo_inurba_marseille","lat":43.23066,"lon":5.35493,"is_reserved":false,"is_disabled":false,"rental_uris":{"android":"levelo://app?vid=46928ea4-813f-4cac-a9b4-21b92fcc659f","ios":"levelo://app?vid=46928ea4-813f-4cac-a9b4-21b92fcc659f"},"vehicle_type_id":"4","last_reported":1727875052,"current_range_meters":36800,"station_id":"cpo3342slgdg3j2ifvpg","pricing_plan_id":"cebpf4jnsgd1na2vs0mg"},{"bike_id":"86686436-da3d-45a4-8da2-59abc51e529f","system_id":"levelo_inurba_marseille","lat":43.29622,"lon":5.37721,"is_reserved":false,"is_disabled":false,"rental_uris":{"android":"levelo://app?vid=86686436-da3d-45a4-8da2-59abc51e529f","ios":"levelo://app?vid=86686436-da3d-45a4-8da2-59abc51e529f"},"vehicle_type_id":"4","last_reported":1727875052,"current_range_meters":6800,"station_id":"ce4bgi92rcd13ifvqb90","pricing_plan_id":"cebpf4jnsgd1na2vs0mg"},{"bike_id":"c7b9d95c-e0a1-459d-b666-50e7dd71d420","system_id":"levelo_inurba_marseille","lat":43.25728,"lon":5.41105,"is_reserved":false,"is_disabled":false,"rental_uris":{"android":"levelo://app?vid=c7b9d95c-e0a1-459d-b666-50e7dd71d420","ios":"levelo://app?vid=c7b9d95c-e0a1-459d-b666-50e7dd71d420"},"vehicle_type_id":"4","last_reported":1727875052,"current_range_meters":6000,"station_id":"ce4bhkp2rcd13ifvqgd0","pricing_plan_id":"cebpf4jnsgd1na2vs0mg"},{"bike_id":"4b8e20a0-43db-4f00-bc7b-c93b6e410c0b","system_id":"levelo_inurba_marseille","lat":43.25121,"lon":5.40318,"is_reserved":false,"is_disabled":false,"rental_uris":{"android":"levelo://app?vid=4b8e20a0-43db-4f00-bc7b-c93b6e410c0b","ios":"levelo://app?vid=4b8e20a0-43db-4f00-bc7b-c93b6e410c0b"},"vehicle_type_id":"4","last_reported":1727875052,"current_range_meters":19600,"station_id":"ce4bhlh2rcd13ifvqgig","pricing_plan_id":"cebpf4jnsgd1na2vs0mg"},{"bike_id":"4a97e0ef-89e9-44ba-af5c-ec90b4f67c69","system_id":"levelo_inurba_marseille","lat":43.280823,"lon":5.396568,"is_reserved":false,"is_disabled":false,"rental_uris":{"android":"levelo://app?vid=4a97e0ef-89e9-44ba-af5c-ec90b4f67c69","ios":"levelo://app?vid=4a97e0ef-89e9-44ba-af5c-ec90b4f67c69"},"vehicle_type_id":"4","last_reported":1727875052,"current_range_meters":3200,"station_id":"ce4bho12rcd13ifvqh2g","pricing_plan_id":"cebpf4jnsgd1na2vs0mg"},{"bike_id":"2ce7a7bd-fa8f-4be8-bf66-3a6cd0df14c3","system_id":"levelo_inurba_marseille","lat":43.286682,"lon":5.385898,"is_reserved":false,"is_disabled":false,"rental_uris":{"android":"levelo://app?vid=2ce7a7bd-fa8f-4be8-bf66-3a6cd0df14c3","ios":"levelo://app?vid=2ce7a7bd-fa8f-4be8-bf66-3a6cd0df14c3"},"vehicle_type_id":"4","last_reported":1727875052,"current_range_meters":17600,"station_id":"ce4bhih2rcd13ifvqfs0","pricing_plan_id":"cebpf4jnsgd1na2vs0mg"},{"bike_id":"7434a3c9-c883-4bb4-9e6f-ba15bb66946d","system_id":"levelo_inurba_marseille","lat":43.29007,"lon":5.356137,"is_reserved":false,"is_disabled":false,"rental_uris":{"android":"levelo://app?vid=7434a3c9-c883-4bb4-9e6f-ba15bb66946d","ios":"levelo://app?vid=7434a3c9-c883-4bb4-9e6f-ba15bb66946d"},"vehicle_type_id":"4","last_reported":1727875052,"current_range_meters":21600,"station_id":"ce4bhb92rcd13ifvqen0","pricing_plan_id":"cebpf4jnsgd1na2vs0mg"},{"bike_id":"7aca52af-2019-4d3b-82da-cf6fa47c9893","system_id":"levelo_inurba_marseille","lat":43.29577,"lon":5.37519,"is_reserved":false,"is_disabled":false,"rental_uris":{"android":"levelo://app?vid=7aca52af-2019-4d3b-82da-cf6fa47c9893","ios":"levelo://app?vid=7aca52af-2019-4d3b-82da-cf6fa47c9893"},"vehicle_type_id":"4","last_reported":1727875052,"current_range_meters":9200,"station_id":"ce4bgh92rcd13ifvqb50","pricing_plan_id":"cebpf4jnsgd1na2vs0mg"},{"bike_id":"6ea42084-a292-4d7f-894d-7220a8b8dfaa","system_id":"levelo_inurba_marseille","lat":43.28003,"lon":5.40007,"is_reserved":false,"is_disabled":false,"rental_uris":{"android":"levelo://app?vid=6ea42084-a292-4d7f-894d-7220a8b8dfaa","ios":"levelo://app?vid=6ea42084-a292-4d7f-894d-7220a8b8dfaa"},"vehicle_type_id":"4","last_reported":1727875052,"current_range_meters":9600,"station_id":"ce4bho92rcd13ifvqh4g","pricing_plan_id":"cebpf4jnsgd1na2vs0mg"},{"bike_id":"86a9d355-6ad5-411b-b440-34e606e36e59","system_id":"levelo_inurba_marseille","lat":43.31075,"lon":5.38358,"is_reserved":false,"is_disabled":false,"rental_uris":{"android":"levelo://app?vid=86a9d355-6ad5-411b-b440-34e606e36e59","ios":"levelo://app?vid=86a9d355-6ad5-411b-b440-34e606e36e59"},"vehicle_type_id":"4","last_reported":1727875052,"current_range_meters":13600,"station_id":"ce4bgv92rcd13ifvqcr0","pricing_plan_id":"cebpf4jnsgd1na2vs0mg"},{"bike_id":"5232706d-f6ed-49c5-82b0-3d08f9db9c69","system_id":"levelo_inurba_marseille","lat":43.29837,"lon":5.36263,"is_reserved":false,"is_disabled":false,"rental_uris":{"android":"levelo://app?vid=5232706d-f6ed-49c5-82b0-3d08f9db9c69","ios":"levelo://app?vid=5232706d-f6ed-49c5-82b0-3d08f9db9c69"},"vehicle_type_id":"4","last_reported":1727875052,"current_range_meters":39200,"station_id":"ce4bgpp2rcd13ifvqc3g","pricing_plan_id":"cebpf4jnsgd1na2vs0mg"},{"bike_id":"6ca24f61-090a-4715-a991-883ca237ff8b","system_id":"levelo_inurba_marseille","lat":43.29846,"lon":5.36275,"is_reserved":false,"is_disabled":false,"rental_uris":{"android":"levelo://app?vid=6ca24f61-090a-4715-a991-883ca237ff8b","ios":"levelo://app?vid=6ca24f61-090a-4715-a991-883ca237ff8b"},"vehicle_type_id":"4","last_reported":1727875052,"current_range_meters":37600,"station_id":"ce4bgpp2rcd13ifvqc3g","pricing_plan_id":"cebpf4jnsgd1na2vs0mg"},{"bike_id":"23fcd5dc-52e3-40b6-b601-8da82c35b64a","system_id":"levelo_inurba_marseille","lat":43.23198,"lon":5.35542,"is_reserved":false,"is_disabled":false,"rental_uris":{"android":"levelo://app?vid=23fcd5dc-52e3-40b6-b601-8da82c35b64a","ios":"levelo://app?vid=23fcd5dc-52e3-40b6-b601-8da82c35b64a"},"vehicle_type_id":"4","last_reported":1727875052,"current_range_meters":6800,"station_id":"ce4bhu92rcd13ifvqi70","pricing_plan_id":"cebpf4jnsgd1na2vs0mg"},{"bike_id":"8eebbf9b-09d5-41f7-9fcb-1a511b9e8ee3","system_id":"levelo_inurba_marseille","lat":43.23149,"lon":5.43714,"is_reserved":false,"is_disabled":false,"rental_uris":{"android":"levelo://app?vid=8eebbf9b-09d5-41f7-9fcb-1a511b9e8ee3","ios":"levelo://app?vid=8eebbf9b-09d5-41f7-9fcb-1a511b9e8ee3"},"vehicle_type_id":"4","last_reported":1727875052,"current_range_meters":38800,"station_id":"ce4bhmp2rcd13ifvqgog","pricing_plan_id":"cebpf4jnsgd1na2vs0mg"},{"bike_id":"2e09932f-5a9e-4221-887d-7acc340762ee","system_id":"levelo_inurba_marseille","lat":43.308853,"lon":5.378097,"is_reserved":false,"is_disabled":false,"rental_uris":{"android":"levelo://app?vid=2e09932f-5a9e-4221-887d-7acc340762ee","ios":"levelo://app?vid=2e09932f-5a9e-4221-887d-7acc340762ee"},"vehicle_type_id":"4","last_reported":1727875052,"current_range_meters":36400,"station_id":"ce4bgv92rcd13ifvqcq0","pricing_plan_id":"cebpf4jnsgd1na2vs0mg"},{"bike_id":"0e453a26-497d-466a-8d1f-eb05b85fd2f5","system_id":"levelo_inurba_marseille","lat":43.231494,"lon":5.437196,"is_reserved":false,"is_disabled":false,"rental_uris":{"android":"levelo://app?vid=0e453a26-497d-466a-8d1f-eb05b85fd2f5","ios":"levelo://app?vid=0e453a26-497d-466a-8d1f-eb05b85fd2f5"},"vehicle_type_id":"4","last_reported":1727875052,"current_range_meters":2800,"station_id":"ce4bhmp2rcd13ifvqgog","pricing_plan_id":"cebpf4jnsgd1na2vs0mg"},{"bike_id":"50595bee-1ffb-4755-b1e4-cfdf7155cd8f","system_id":"levelo_inurba_marseille","lat":43.23189,"lon":5.39977,"is_reserved":false,"is_disabled":false,"rental_uris":{"android":"levelo://app?vid=50595bee-1ffb-4755-b1e4-cfdf7155cd8f","ios":"levelo://app?vid=50595bee-1ffb-4755-b1e4-cfdf7155cd8f"},"vehicle_type_id":"4","last_reported":1727875052,"current_range_meters":8800,"station_id":"ce4bhn12rcd13ifvqgqg","pricing_plan_id":"cebpf4jnsgd1na2vs0mg"},{"bike_id":"d9513a24-3235-43a7-b9a5-1c5cfe37603f","system_id":"levelo_inurba_marseille","lat":43.230615,"lon":5.35491,"is_reserved":false,"is_disabled":false,"rental_uris":{"android":"levelo://app?vid=d9513a24-3235-43a7-b9a5-1c5cfe37603f","ios":"levelo://app?vid=d9513a24-3235-43a7-b9a5-1c5cfe37603f"},"vehicle_type_id":"4","last_reported":1727875052,"current_range_meters":35200,"station_id":"cpo3342slgdg3j2ifvpg","pricing_plan_id":"cebpf4jnsgd1na2vs0mg"},{"bike_id":"772088a0-7828-4f69-ba5d-0f6cdb83dec2","system_id":"levelo_inurba_marseille","lat":43.337444,"lon":5.374475,"is_reserved":false,"is_disabled":false,"rental_uris":{"android":"levelo://app?vid=772088a0-7828-4f69-ba5d-0f6cdb83dec2","ios":"levelo://app?vid=772088a0-7828-4f69-ba5d-0f6cdb83dec2"},"vehicle_type_id":"4","last_reported":1727875052,"current_range_meters":6000,"station_id":"","pricing_plan_id":"cebpf4jnsgd1na2vs0mg"},{"bike_id":"ad2a96ee-92fc-4960-b614-5decfd6f98f1","system_id":"levelo_inurba_marseille","lat":43.28854,"lon":5.39313,"is_reserved":false,"is_disabled":false,"rental_uris":{"android":"levelo://app?vid=ad2a96ee-92fc-4960-b614-5decfd6f98f1","ios":"levelo://app?vid=ad2a96ee-92fc-4960-b614-5decfd6f98f1"},"vehicle_type_id":"4","last_reported":1727875052,"current_range_meters":4400,"station_id":"ce4bh2p2rcd13ifvqdi0","pricing_plan_id":"cebpf4jnsgd1na2vs0mg"},{"bike_id":"3c421237-806a-4fc9-8da4-8a392ea67998","system_id":"levelo_inurba_marseille","lat":43.33612,"lon":5.41029,"is_reserved":false,"is_disabled":false,"rental_uris":{"android":"levelo://app?vid=3c421237-806a-4fc9-8da4-8a392ea67998","ios":"levelo://app?vid=3c421237-806a-4fc9-8da4-8a392ea67998"},"vehicle_type_id":"4","last_reported":1727875052,"current_range_meters":6400,"station_id":"ce4bhqh2rcd13ifvqhmg","pricing_plan_id":"cebpf4jnsgd1na2vs0mg"},{"bike_id":"e2da3c07-00f3-449e-8959-9516be7a5f2b","system_id":"levelo_inurba_marseille","lat":43.32362,"lon":5.38886,"is_reserved":false,"is_disabled":false,"rental_uris":{"android":"levelo://app?vid=e2da3c07-00f3-449e-8959-9516be7a5f2b","ios":"levelo://app?vid=e2da3c07-00f3-449e-8959-9516be7a5f2b"},"vehicle_type_id":"4","last_reported":1727875052,"current_range_meters":38800,"station_id":"ce4bhqp2rcd13ifvqhog","pricing_plan_id":"cebpf4jnsgd1na2vs0mg"},{"bike_id":"87084eb7-fa51-47ae-9f81-a2635c68b777","system_id":"levelo_inurba_marseille","lat":43.26057,"lon":5.39393,"is_reserved":false,"is_disabled":false,"rental_uris":{"android":"levelo://app?vid=87084eb7-fa51-47ae-9f81-a2635c68b777","ios":"levelo://app?vid=87084eb7-fa51-47ae-9f81-a2635c68b777"},"vehicle_type_id":"4","last_reported":1727875052,"current_range_meters":26800,"station_id":"ce4bhh92rcd13ifvqfj0","pricing_plan_id":"cebpf4jnsgd1na2vs0mg"},{"bike_id":"f2eafe04-603e-4fb0-8676-42d468e4f953","system_id":"levelo_inurba_marseille","lat":43.3376,"lon":5.37439,"is_reserved":false,"is_disabled":false,"rental_uris":{"android":"levelo://app?vid=f2eafe04-603e-4fb0-8676-42d468e4f953","ios":"levelo://app?vid=f2eafe04-603e-4fb0-8676-42d468e4f953"},"vehicle_type_id":"4","last_reported":1727875052,"current_range_meters":38800,"station_id":"","pricing_plan_id":"cebpf4jnsgd1na2vs0mg"},{"bike_id":"306aac45-6365-473a-9337-fc9144e11246","system_id":"levelo_inurba_marseille","lat":43.30543,"lon":5.36556,"is_reserved":false,"is_disabled":false,"rental_uris":{"android":"levelo://app?vid=306aac45-6365-473a-9337-fc9144e11246","ios":"levelo://app?vid=306aac45-6365-473a-9337-fc9144e11246"},"vehicle_type_id":"4","last_reported":1727875052,"current_range_meters":34800,"station_id":"ce4bgs12rcd13ifvqcag","pricing_plan_id":"cebpf4jnsgd1na2vs0mg"},{"bike_id":"b3e24112-d030-40a0-a3ce-a041f042f7fe","system_id":"levelo_inurba_marseille","lat":43.23058,"lon":5.35488,"is_reserved":false,"is_disabled":false,"rental_uris":{"android":"levelo://app?vid=b3e24112-d030-40a0-a3ce-a041f042f7fe","ios":"levelo://app?vid=b3e24112-d030-40a0-a3ce-a041f042f7fe"},"vehicle_type_id":"4","last_reported":1727875052,"current_range_meters":38400,"station_id":"cpo3342slgdg3j2ifvpg","pricing_plan_id":"cebpf4jnsgd1na2vs0mg"},{"bike_id":"ee6b95e9-4758-4cd6-bf63-6e38a83d2c29","system_id":"levelo_inurba_marseille","lat":43.25866,"lon":5.39906,"is_reserved":false,"is_disabled":false,"rental_uris":{"android":"levelo://app?vid=ee6b95e9-4758-4cd6-bf63-6e38a83d2c29","ios":"levelo://app?vid=ee6b95e9-4758-4cd6-bf63-6e38a83d2c29"},"vehicle_type_id":"4","last_reported":1727875052,"current_range_meters":9600,"station_id":"ce4bhl92rcd13ifvqghg","pricing_plan_id":"cebpf4jnsgd1na2vs0mg"},{"bike_id":"bc9bb81a-0b90-463e-aab2-294ab6dbe84e","system_id":"levelo_inurba_marseille","lat":43.27971,"lon":5.38738,"is_reserved":false,"is_disabled":false,"rental_uris":{"android":"levelo://app?vid=bc9bb81a-0b90-463e-aab2-294ab6dbe84e","ios":"levelo://app?vid=bc9bb81a-0b90-463e-aab2-294ab6dbe84e"},"vehicle_type_id":"4","last_reported":1727875052,"current_range_meters":22800,"station_id":"ce4bhg12rcd13ifvqf80","pricing_plan_id":"cebpf4jnsgd1na2vs0mg"},{"bike_id":"a6ba689d-e1e4-43a7-a0ff-5a88d687212e","system_id":"levelo_inurba_marseille","lat":43.28679,"lon":5.38664,"is_reserved":false,"is_disabled":false,"rental_uris":{"android":"levelo://app?vid=a6ba689d-e1e4-43a7-a0ff-5a88d687212e","ios":"levelo://app?vid=a6ba689d-e1e4-43a7-a0ff-5a88d687212e"},"vehicle_type_id":"4","last_reported":1727875052,"current_range_meters":38800,"station_id":"ce4bh492rcd13ifvqdug","pricing_plan_id":"cebpf4jnsgd1na2vs0mg"},{"bike_id":"3944727c-8281-4569-b56e-eca466ba769c","system_id":"levelo_inurba_marseille","lat":43.3095,"lon":5.39026,"is_reserved":false,"is_disabled":false,"rental_uris":{"android":"levelo://app?vid=3944727c-8281-4569-b56e-eca466ba769c","ios":"levelo://app?vid=3944727c-8281-4569-b56e-eca466ba769c"},"vehicle_type_id":"4","last_reported":1727875052,"current_range_meters":9200,"station_id":"ce4bgup2rcd13ifvqco0","pricing_plan_id":"cebpf4jnsgd1na2vs0mg"},{"bike_id":"a69e7372-0e73-4b9b-9ce3-2edaf8d32c61","system_id":"levelo_inurba_marseille","lat":43.246499,"lon":5.388911,"is_reserved":false,"is_disabled":false,"rental_uris":{"android":"levelo://app?vid=a69e7372-0e73-4b9b-9ce3-2edaf8d32c61","ios":"levelo://app?vid=a69e7372-0e73-4b9b-9ce3-2edaf8d32c61"},"vehicle_type_id":"4","last_reported":1727875052,"current_range_meters":12400,"station_id":"ce4bhg12rcd13ifvqf60","pricing_plan_id":"cebpf4jnsgd1na2vs0mg"},{"bike_id":"3039553f-4141-4a51-88da-468d657e6e54","system_id":"levelo_inurba_marseille","lat":43.28263,"lon":5.35059,"is_reserved":false,"is_disabled":false,"rental_uris":{"android":"levelo://app?vid=3039553f-4141-4a51-88da-468d657e6e54","ios":"levelo://app?vid=3039553f-4141-4a51-88da-468d657e6e54"},"vehicle_type_id":"4","last_reported":1727875052,"current_range_meters":2000,"station_id":"ce4bhbp2rcd13ifvqerg","pricing_plan_id":"cebpf4jnsgd1na2vs0mg"},{"bike_id":"199a5f76-1cf2-4099-a9ad-ab453c60b47e","system_id":"levelo_inurba_marseille","lat":43.33756,"lon":5.37426,"is_reserved":false,"is_disabled":false,"rental_uris":{"android":"levelo://app?vid=199a5f76-1cf2-4099-a9ad-ab453c60b47e","ios":"levelo://app?vid=199a5f76-1cf2-4099-a9ad-ab453c60b47e"},"vehicle_type_id":"4","last_reported":1727875052,"current_range_meters":36000,"station_id":"","pricing_plan_id":"cebpf4jnsgd1na2vs0mg"},{"bike_id":"f9059654-f6b7-481d-9d48-eb9afea1ab25","system_id":"levelo_inurba_marseille","lat":43.27812,"lon":5.40711,"is_reserved":false,"is_disabled":false,"rental_uris":{"android":"levelo://app?vid=f9059654-f6b7-481d-9d48-eb9afea1ab25","ios":"levelo://app?vid=f9059654-f6b7-481d-9d48-eb9afea1ab25"},"vehicle_type_id":"4","last_reported":1727875052,"current_range_meters":5600,"station_id":"ce4bhnh2rcd13ifvqgtg","pricing_plan_id":"cebpf4jnsgd1na2vs0mg"},{"bike_id":"0927edc0-a2c0-428a-a1e9-31ec3c4f6f54","system_id":"levelo_inurba_marseille","lat":43.30549,"lon":5.39208,"is_reserved":false,"is_disabled":false,"rental_uris":{"android":"levelo://app?vid=0927edc0-a2c0-428a-a1e9-31ec3c4f6f54","ios":"levelo://app?vid=0927edc0-a2c0-428a-a1e9-31ec3c4f6f54"},"vehicle_type_id":"4","last_reported":1727875052,"current_range_meters":14400,"station_id":"","pricing_plan_id":"cebpf4jnsgd1na2vs0mg"},{"bike_id":"4d76a3a3-f206-4e4b-9246-73c7ca373d35","system_id":"levelo_inurba_marseille","lat":43.2996,"lon":5.38497,"is_reserved":false,"is_disabled":false,"rental_uris":{"android":"levelo://app?vid=4d76a3a3-f206-4e4b-9246-73c7ca373d35","ios":"levelo://app?vid=4d76a3a3-f206-4e4b-9246-73c7ca373d35"},"vehicle_type_id":"4","last_reported":1727875052,"current_range_meters":16400,"station_id":"ce4bgj92rcd13ifvqbd0","pricing_plan_id":"cebpf4jnsgd1na2vs0mg"},{"bike_id":"ae114c87-7eed-4d3b-a2e1-7777cded2777","system_id":"levelo_inurba_marseille","lat":43.26684,"lon":5.38276,"is_reserved":false,"is_disabled":false,"rental_uris":{"android":"levelo://app?vid=ae114c87-7eed-4d3b-a2e1-7777cded2777","ios":"levelo://app?vid=ae114c87-7eed-4d3b-a2e1-7777cded2777"},"vehicle_type_id":"4","last_reported":1727875052,"current_range_meters":32800,"station_id":"ce4bhg92rcd13ifvqf90","pricing_plan_id":"cebpf4jnsgd1na2vs0mg"},{"bike_id":"16d0b1bd-77be-44f3-8829-9c3f4674a608","system_id":"levelo_inurba_marseille","lat":43.3123,"lon":5.36853,"is_reserved":false,"is_disabled":false,"rental_uris":{"android":"levelo://app?vid=16d0b1bd-77be-44f3-8829-9c3f4674a608","ios":"levelo://app?vid=16d0b1bd-77be-44f3-8829-9c3f4674a608"},"vehicle_type_id":"4","last_reported":1727875052,"current_range_meters":38800,"station_id":"ce4bgl92rcd13ifvqbq0","pricing_plan_id":"cebpf4jnsgd1na2vs0mg"},{"bike_id":"852ba5a7-b345-437d-b953-0681eef052a1","system_id":"levelo_inurba_marseille","lat":43.28716,"lon":5.3997,"is_reserved":false,"is_disabled":false,"rental_uris":{"android":"levelo://app?vid=852ba5a7-b345-437d-b953-0681eef052a1","ios":"levelo://app?vid=852ba5a7-b345-437d-b953-0681eef052a1"},"vehicle_type_id":"4","last_reported":1727875052,"current_range_meters":37600,"station_id":"ce4bho92rcd13ifvqh3g","pricing_plan_id":"cebpf4jnsgd1na2vs0mg"},{"bike_id":"f66270d0-56d8-429e-aca5-e404f44ff30e","system_id":"levelo_inurba_marseille","lat":43.29796,"lon":5.39342,"is_reserved":false,"is_disabled":false,"rental_uris":{"android":"levelo://app?vid=f66270d0-56d8-429e-aca5-e404f44ff30e","ios":"levelo://app?vid=f66270d0-56d8-429e-aca5-e404f44ff30e"},"vehicle_type_id":"4","last_reported":1727875052,"current_range_meters":37600,"station_id":"chh1huq6cuj3fo74tm60","pricing_plan_id":"cebpf4jnsgd1na2vs0mg"},{"bike_id":"826b8b79-9913-4f94-836f-9df098fd385f","system_id":"levelo_inurba_marseille","lat":43.29628,"lon":5.3716,"is_reserved":false,"is_disabled":false,"rental_uris":{"android":"levelo://app?vid=826b8b79-9913-4f94-836f-9df098fd385f","ios":"levelo://app?vid=826b8b79-9913-4f94-836f-9df098fd385f"},"vehicle_type_id":"4","last_reported":1727875052,"current_range_meters":38800,"station_id":"ce4bgnh2rcd13ifvqc0g","pricing_plan_id":"cebpf4jnsgd1na2vs0mg"},{"bike_id":"7c7831b8-5083-4675-8d1a-f60c9fd82b32","system_id":"levelo_inurba_marseille","lat":43.25486,"lon":5.41234,"is_reserved":false,"is_disabled":false,"rental_uris":{"android":"levelo://app?vid=7c7831b8-5083-4675-8d1a-f60c9fd82b32","ios":"levelo://app?vid=7c7831b8-5083-4675-8d1a-f60c9fd82b32"},"vehicle_type_id":"4","last_reported":1727875052,"current_range_meters":29600,"station_id":"ce4bhkp2rcd13ifvqgd0","pricing_plan_id":"cebpf4jnsgd1na2vs0mg"},{"bike_id":"5084d4e8-22d7-4248-aec8-4997331ff1e0","system_id":"levelo_inurba_marseille","lat":43.22924,"lon":5.35375,"is_reserved":false,"is_disabled":false,"rental_uris":{"android":"levelo://app?vid=5084d4e8-22d7-4248-aec8-4997331ff1e0","ios":"levelo://app?vid=5084d4e8-22d7-4248-aec8-4997331ff1e0"},"vehicle_type_id":"4","last_reported":1727875052,"current_range_meters":38400,"station_id":"cpo3532slgdg3j2ikp40","pricing_plan_id":"cebpf4jnsgd1na2vs0mg"},{"bike_id":"1bd284e6-8890-429e-ab08-b94e0011fdcb","system_id":"levelo_inurba_marseille","lat":43.24806,"lon":5.37453,"is_reserved":false,"is_disabled":false,"rental_uris":{"android":"levelo://app?vid=1bd284e6-8890-429e-ab08-b94e0011fdcb","ios":"levelo://app?vid=1bd284e6-8890-429e-ab08-b94e0011fdcb"},"vehicle_type_id":"4","last_reported":1727875052,"current_range_meters":4800,"station_id":"ce4bhgh2rcd13ifvqfb0","pricing_plan_id":"cebpf4jnsgd1na2vs0mg"},{"bike_id":"21cd8bee-8581-4f36-9fc1-52a9ec9169ef","system_id":"levelo_inurba_marseille","lat":43.23151,"lon":5.43704,"is_reserved":false,"is_disabled":false,"rental_uris":{"android":"levelo://app?vid=21cd8bee-8581-4f36-9fc1-52a9ec9169ef","ios":"levelo://app?vid=21cd8bee-8581-4f36-9fc1-52a9ec9169ef"},"vehicle_type_id":"4","last_reported":1727875052,"current_range_meters":38000,"station_id":"ce4bhmp2rcd13ifvqgog","pricing_plan_id":"cebpf4jnsgd1na2vs0mg"},{"bike_id":"839c9596-f91c-43e7-b990-8d1e0e90ea7a","system_id":"levelo_inurba_marseille","lat":43.28421,"lon":5.34986,"is_reserved":false,"is_disabled":false,"rental_uris":{"android":"levelo://app?vid=839c9596-f91c-43e7-b990-8d1e0e90ea7a","ios":"levelo://app?vid=839c9596-f91c-43e7-b990-8d1e0e90ea7a"},"vehicle_type_id":"4","last_reported":1727875052,"current_range_meters":7200,"station_id":"ce4bhbh2rcd13ifvqepg","pricing_plan_id":"cebpf4jnsgd1na2vs0mg"},{"bike_id":"6153543f-5e3f-48f0-9614-a51a9c3ce506","system_id":"levelo_inurba_marseille","lat":43.33022,"lon":5.39036,"is_reserved":false,"is_disabled":false,"rental_uris":{"android":"levelo://app?vid=6153543f-5e3f-48f0-9614-a51a9c3ce506","ios":"levelo://app?vid=6153543f-5e3f-48f0-9614-a51a9c3ce506"},"vehicle_type_id":"4","last_reported":1727875052,"current_range_meters":30400,"station_id":"ce4bhr92rcd13ifvqhrg","pricing_plan_id":"cebpf4jnsgd1na2vs0mg"},{"bike_id":"7e350479-327e-4b6e-a073-d7dcef6f424a","system_id":"levelo_inurba_marseille","lat":43.3029,"lon":5.37705,"is_reserved":false,"is_disabled":false,"rental_uris":{"android":"levelo://app?vid=7e350479-327e-4b6e-a073-d7dcef6f424a","ios":"levelo://app?vid=7e350479-327e-4b6e-a073-d7dcef6f424a"},"vehicle_type_id":"4","last_reported":1727875052,"current_range_meters":36000,"station_id":"ce4bguh2rcd13ifvqcj0","pricing_plan_id":"cebpf4jnsgd1na2vs0mg"},{"bike_id":"d8366149-ec40-4652-a491-417ff42d6a78","system_id":"levelo_inurba_marseille","lat":43.25084,"lon":5.39514,"is_reserved":false,"is_disabled":false,"rental_uris":{"android":"levelo://app?vid=d8366149-ec40-4652-a491-417ff42d6a78","ios":"levelo://app?vid=d8366149-ec40-4652-a491-417ff42d6a78"},"vehicle_type_id":"4","last_reported":1727875052,"current_range_meters":31200,"station_id":"ce4bhm12rcd13ifvqgkg","pricing_plan_id":"cebpf4jnsgd1na2vs0mg"},{"bike_id":"260ebec3-4891-4f97-956b-6364c6614277","system_id":"levelo_inurba_marseille","lat":43.28477,"lon":5.38418,"is_reserved":false,"is_disabled":false,"rental_uris":{"android":"levelo://app?vid=260ebec3-4891-4f97-956b-6364c6614277","ios":"levelo://app?vid=260ebec3-4891-4f97-956b-6364c6614277"},"vehicle_type_id":"4","last_reported":1727875052,"current_range_meters":10800,"station_id":"ce4bh512rcd13ifvqe3g","pricing_plan_id":"cebpf4jnsgd1na2vs0mg"},{"bike_id":"c0985fa9-bb76-402f-954f-9e4cc23b80ec","system_id":"levelo_inurba_marseille","lat":43.28939,"lon":5.36633,"is_reserved":false,"is_disabled":false,"rental_uris":{"android":"levelo://app?vid=c0985fa9-bb76-402f-954f-9e4cc23b80ec","ios":"levelo://app?vid=c0985fa9-bb76-402f-954f-9e4cc23b80ec"},"vehicle_type_id":"4","last_reported":1727875052,"current_range_meters":28000,"station_id":"ce4bhap2rcd13ifvqek0","pricing_plan_id":"cebpf4jnsgd1na2vs0mg"},{"bike_id":"7e265af9-8b4a-42fb-9eb8-9b1b9ac3c14b","system_id":"levelo_inurba_marseille","lat":43.3149,"lon":5.37304,"is_reserved":false,"is_disabled":false,"rental_uris":{"android":"levelo://app?vid=7e265af9-8b4a-42fb-9eb8-9b1b9ac3c14b","ios":"levelo://app?vid=7e265af9-8b4a-42fb-9eb8-9b1b9ac3c14b"},"vehicle_type_id":"4","last_reported":1727875052,"current_range_meters":7200,"station_id":"ce4bgt12rcd13ifvqcd0","pricing_plan_id":"cebpf4jnsgd1na2vs0mg"},{"bike_id":"849785e9-3354-451b-a4b8-9dfecd3e3883","system_id":"levelo_inurba_marseille","lat":43.26686,"lon":5.38265,"is_reserved":false,"is_disabled":false,"rental_uris":{"android":"levelo://app?vid=849785e9-3354-451b-a4b8-9dfecd3e3883","ios":"levelo://app?vid=849785e9-3354-451b-a4b8-9dfecd3e3883"},"vehicle_type_id":"4","last_reported":1727875052,"current_range_meters":38800,"station_id":"ce4bhg92rcd13ifvqf90","pricing_plan_id":"cebpf4jnsgd1na2vs0mg"},{"bike_id":"ba20442c-91f5-4fc7-8381-475970a95f4c","system_id":"levelo_inurba_marseille","lat":43.28977,"lon":5.36639,"is_reserved":false,"is_disabled":false,"rental_uris":{"android":"levelo://app?vid=ba20442c-91f5-4fc7-8381-475970a95f4c","ios":"levelo://app?vid=ba20442c-91f5-4fc7-8381-475970a95f4c"},"vehicle_type_id":"4","last_reported":1727875052,"current_range_meters":30400,"station_id":"","pricing_plan_id":"cebpf4jnsgd1na2vs0mg"},{"bike_id":"c09c769a-6518-4cf4-ba28-9168aaaf34a7","system_id":"levelo_inurba_marseille","lat":43.28077,"lon":5.39652,"is_reserved":false,"is_disabled":false,"rental_uris":{"android":"levelo://app?vid=c09c769a-6518-4cf4-ba28-9168aaaf34a7","ios":"levelo://app?vid=c09c769a-6518-4cf4-ba28-9168aaaf34a7"},"vehicle_type_id":"4","last_reported":1727875052,"current_range_meters":36800,"station_id":"ce4bho12rcd13ifvqh2g","pricing_plan_id":"cebpf4jnsgd1na2vs0mg"},{"bike_id":"76e72baa-4044-48b9-a47d-38dcf94b591e","system_id":"levelo_inurba_marseille","lat":43.30909,"lon":5.36851,"is_reserved":false,"is_disabled":false,"rental_uris":{"android":"levelo://app?vid=76e72baa-4044-48b9-a47d-38dcf94b591e","ios":"levelo://app?vid=76e72baa-4044-48b9-a47d-38dcf94b591e"},"vehicle_type_id":"4","last_reported":1727875052,"current_range_meters":38800,"station_id":"ce4bgn92rcd13ifvqbvg","pricing_plan_id":"cebpf4jnsgd1na2vs0mg"},{"bike_id":"a0a8a104-5f24-4ed2-83a3-3321dfd691f7","system_id":"levelo_inurba_marseille","lat":43.33608,"lon":5.41012,"is_reserved":false,"is_disabled":false,"rental_uris":{"android":"levelo://app?vid=a0a8a104-5f24-4ed2-83a3-3321dfd691f7","ios":"levelo://app?vid=a0a8a104-5f24-4ed2-83a3-3321dfd691f7"},"vehicle_type_id":"4","last_reported":1727875052,"current_range_meters":35600,"station_id":"ce4bhqh2rcd13ifvqhmg","pricing_plan_id":"cebpf4jnsgd1na2vs0mg"},{"bike_id":"831c30ef-4a1d-4e7d-83a1-de8b691d82b4","system_id":"levelo_inurba_marseille","lat":43.29716,"lon":5.36605,"is_reserved":false,"is_disabled":false,"rental_uris":{"android":"levelo://app?vid=831c30ef-4a1d-4e7d-83a1-de8b691d82b4","ios":"levelo://app?vid=831c30ef-4a1d-4e7d-83a1-de8b691d82b4"},"vehicle_type_id":"4","last_reported":1727875052,"current_range_meters":38800,"station_id":"ce4bgn12rcd13ifvqbt0","pricing_plan_id":"cebpf4jnsgd1na2vs0mg"},{"bike_id":"361c4015-fea1-4d09-abed-03e20c4632cc","system_id":"levelo_inurba_marseille","lat":43.30914,"lon":5.36849,"is_reserved":false,"is_disabled":false,"rental_uris":{"android":"levelo://app?vid=361c4015-fea1-4d09-abed-03e20c4632cc","ios":"levelo://app?vid=361c4015-fea1-4d09-abed-03e20c4632cc"},"vehicle_type_id":"4","last_reported":1727875052,"current_range_meters":38800,"station_id":"ce4bgn92rcd13ifvqbvg","pricing_plan_id":"cebpf4jnsgd1na2vs0mg"},{"bike_id":"109843ee-0abb-4ff8-8f2b-0b7886122ab8","system_id":"levelo_inurba_marseille","lat":43.26553,"lon":5.37276,"is_reserved":false,"is_disabled":false,"rental_uris":{"android":"levelo://app?vid=109843ee-0abb-4ff8-8f2b-0b7886122ab8","ios":"levelo://app?vid=109843ee-0abb-4ff8-8f2b-0b7886122ab8"},"vehicle_type_id":"4","last_reported":1727875052,"current_range_meters":31200,"station_id":"ce4bhg12rcd13ifvqf70","pricing_plan_id":"cebpf4jnsgd1na2vs0mg"},{"bike_id":"5817c078-0e58-49cd-b7ab-a3d42c8e07b6","system_id":"levelo_inurba_marseille","lat":43.27062,"lon":5.40264,"is_reserved":false,"is_disabled":false,"rental_uris":{"android":"levelo://app?vid=5817c078-0e58-49cd-b7ab-a3d42c8e07b6","ios":"levelo://app?vid=5817c078-0e58-49cd-b7ab-a3d42c8e07b6"},"vehicle_type_id":"4","last_reported":1727875052,"current_range_meters":26800,"station_id":"ce4bhk92rcd13ifvqgc0","pricing_plan_id":"cebpf4jnsgd1na2vs0mg"},{"bike_id":"56c14d9d-5582-4a6f-a605-7472166419a2","system_id":"levelo_inurba_marseille","lat":43.33748,"lon":5.37443,"is_reserved":false,"is_disabled":false,"rental_uris":{"android":"levelo://app?vid=56c14d9d-5582-4a6f-a605-7472166419a2","ios":"levelo://app?vid=56c14d9d-5582-4a6f-a605-7472166419a2"},"vehicle_type_id":"4","last_reported":1727875052,"current_range_meters":38400,"station_id":"","pricing_plan_id":"cebpf4jnsgd1na2vs0mg"},{"bike_id":"a54c0315-bbb2-4a3b-8b1d-d7370b1ea09c","system_id":"levelo_inurba_marseille","lat":43.29878,"lon":5.389,"is_reserved":false,"is_disabled":false,"rental_uris":{"android":"levelo://app?vid=a54c0315-bbb2-4a3b-8b1d-d7370b1ea09c","ios":"levelo://app?vid=a54c0315-bbb2-4a3b-8b1d-d7370b1ea09c"},"vehicle_type_id":"4","last_reported":1727875052,"current_range_meters":22800,"station_id":"ce4bh392rcd13ifvqdl0","pricing_plan_id":"cebpf4jnsgd1na2vs0mg"},{"bike_id":"55cfb1ad-d80a-480d-bfe7-f79544ab315e","system_id":"levelo_inurba_marseille","lat":43.27064,"lon":5.40259,"is_reserved":false,"is_disabled":false,"rental_uris":{"android":"levelo://app?vid=55cfb1ad-d80a-480d-bfe7-f79544ab315e","ios":"levelo://app?vid=55cfb1ad-d80a-480d-bfe7-f79544ab315e"},"vehicle_type_id":"4","last_reported":1727875052,"current_range_meters":38800,"station_id":"ce4bhk92rcd13ifvqgc0","pricing_plan_id":"cebpf4jnsgd1na2vs0mg"},{"bike_id":"5f760e0b-9dfe-4d5e-9005-a50522c5964e","system_id":"levelo_inurba_marseille","lat":43.25822,"lon":5.39428,"is_reserved":false,"is_disabled":false,"rental_uris":{"android":"levelo://app?vid=5f760e0b-9dfe-4d5e-9005-a50522c5964e","ios":"levelo://app?vid=5f760e0b-9dfe-4d5e-9005-a50522c5964e"},"vehicle_type_id":"4","last_reported":1727875052,"current_range_meters":14800,"station_id":"ce4bhip2rcd13ifvqft0","pricing_plan_id":"cebpf4jnsgd1na2vs0mg"},{"bike_id":"487367c1-48d3-49de-8bba-79773ebd9ad8","system_id":"levelo_inurba_marseille","lat":43.28495,"lon":5.38552,"is_reserved":false,"is_disabled":false,"rental_uris":{"android":"levelo://app?vid=487367c1-48d3-49de-8bba-79773ebd9ad8","ios":"levelo://app?vid=487367c1-48d3-49de-8bba-79773ebd9ad8"},"vehicle_type_id":"4","last_reported":1727875052,"current_range_meters":2000,"station_id":"ce4bh8p2rcd13ifvqeb0","pricing_plan_id":"cebpf4jnsgd1na2vs0mg"},{"bike_id":"267a7255-2896-452d-a993-3929e3d62dd1","system_id":"levelo_inurba_marseille","lat":43.29939,"lon":5.36522,"is_reserved":false,"is_disabled":false,"rental_uris":{"android":"levelo://app?vid=267a7255-2896-452d-a993-3929e3d62dd1","ios":"levelo://app?vid=267a7255-2896-452d-a993-3929e3d62dd1"},"vehicle_type_id":"4","last_reported":1727875052,"current_range_meters":26000,"station_id":"ce4bgm92rcd13ifvqbr0","pricing_plan_id":"cebpf4jnsgd1na2vs0mg"},{"bike_id":"efc34f14-15c1-4770-87a0-24a7219661ec","system_id":"levelo_inurba_marseille","lat":43.30212,"lon":5.39472,"is_reserved":false,"is_disabled":false,"rental_uris":{"android":"levelo://app?vid=efc34f14-15c1-4770-87a0-24a7219661ec","ios":"levelo://app?vid=efc34f14-15c1-4770-87a0-24a7219661ec"},"vehicle_type_id":"4","last_reported":1727875052,"current_range_meters":32800,"station_id":"ce4bh0p2rcd13ifvqd70","pricing_plan_id":"cebpf4jnsgd1na2vs0mg"},{"bike_id":"431be60a-3e1d-4a94-b6d5-3f0040486314","system_id":"levelo_inurba_marseille","lat":43.29374,"lon":5.37851,"is_reserved":false,"is_disabled":false,"rental_uris":{"android":"levelo://app?vid=431be60a-3e1d-4a94-b6d5-3f0040486314","ios":"levelo://app?vid=431be60a-3e1d-4a94-b6d5-3f0040486314"},"vehicle_type_id":"4","last_reported":1727875052,"current_range_meters":38400,"station_id":"ce4bgjh2rcd13ifvqbf0","pricing_plan_id":"cebpf4jnsgd1na2vs0mg"},{"bike_id":"db215235-46fd-4e94-b4a2-8d3ec4e5a140","system_id":"levelo_inurba_marseille","lat":43.32479,"lon":5.36546,"is_reserved":false,"is_disabled":false,"rental_uris":{"android":"levelo://app?vid=db215235-46fd-4e94-b4a2-8d3ec4e5a140","ios":"levelo://app?vid=db215235-46fd-4e94-b4a2-8d3ec4e5a140"},"vehicle_type_id":"4","last_reported":1727875052,"current_range_meters":19200,"station_id":"ce4bhs12rcd13ifvqhvg","pricing_plan_id":"cebpf4jnsgd1na2vs0mg"},{"bike_id":"4ac5b21d-f552-4c0b-a28d-986f107a6b95","system_id":"levelo_inurba_marseille","lat":43.32406,"lon":5.39005,"is_reserved":false,"is_disabled":false,"rental_uris":{"android":"levelo://app?vid=4ac5b21d-f552-4c0b-a28d-986f107a6b95","ios":"levelo://app?vid=4ac5b21d-f552-4c0b-a28d-986f107a6b95"},"vehicle_type_id":"4","last_reported":1727875052,"current_range_meters":11600,"station_id":"","pricing_plan_id":"cebpf4jnsgd1na2vs0mg"},{"bike_id":"5b85824c-d0fb-4411-9498-fe58aee29981","system_id":"levelo_inurba_marseille","lat":43.26498,"lon":5.39539,"is_reserved":false,"is_disabled":false,"rental_uris":{"android":"levelo://app?vid=5b85824c-d0fb-4411-9498-fe58aee29981","ios":"levelo://app?vid=5b85824c-d0fb-4411-9498-fe58aee29981"},"vehicle_type_id":"4","last_reported":1727875052,"current_range_meters":6800,"station_id":"ce4bhi12rcd13ifvqfq0","pricing_plan_id":"cebpf4jnsgd1na2vs0mg"},{"bike_id":"af73b995-6c55-4096-8776-a462be9b879a","system_id":"levelo_inurba_marseille","lat":43.30583,"lon":5.37119,"is_reserved":false,"is_disabled":false,"rental_uris":{"android":"levelo://app?vid=af73b995-6c55-4096-8776-a462be9b879a","ios":"levelo://app?vid=af73b995-6c55-4096-8776-a462be9b879a"},"vehicle_type_id":"4","last_reported":1727875052,"current_range_meters":36800,"station_id":"","pricing_plan_id":"cebpf4jnsgd1na2vs0mg"},{"bike_id":"2cd62159-cdb3-4ab1-afe4-be11b2a67d0e","system_id":"levelo_inurba_marseille","lat":43.23193,"lon":5.39977,"is_reserved":false,"is_disabled":false,"rental_uris":{"android":"levelo://app?vid=2cd62159-cdb3-4ab1-afe4-be11b2a67d0e","ios":"levelo://app?vid=2cd62159-cdb3-4ab1-afe4-be11b2a67d0e"},"vehicle_type_id":"4","last_reported":1727875052,"current_range_meters":4800,"station_id":"ce4bhn12rcd13ifvqgqg","pricing_plan_id":"cebpf4jnsgd1na2vs0mg"},{"bike_id":"1c296cfc-8f00-4f90-8f0a-fc69f201321e","system_id":"levelo_inurba_marseille","lat":43.29025,"lon":5.38639,"is_reserved":false,"is_disabled":false,"rental_uris":{"android":"levelo://app?vid=1c296cfc-8f00-4f90-8f0a-fc69f201321e","ios":"levelo://app?vid=1c296cfc-8f00-4f90-8f0a-fc69f201321e"},"vehicle_type_id":"4","last_reported":1727875052,"current_range_meters":36800,"station_id":"ce4bh4p2rcd13ifvqe0g","pricing_plan_id":"cebpf4jnsgd1na2vs0mg"},{"bike_id":"6ad662ca-0f18-4a30-9d6d-d8a9e6ece23c","system_id":"levelo_inurba_marseille","lat":43.31234,"lon":5.36854,"is_reserved":false,"is_disabled":false,"rental_uris":{"android":"levelo://app?vid=6ad662ca-0f18-4a30-9d6d-d8a9e6ece23c","ios":"levelo://app?vid=6ad662ca-0f18-4a30-9d6d-d8a9e6ece23c"},"vehicle_type_id":"4","last_reported":1727875052,"current_range_meters":38800,"station_id":"ce4bgl92rcd13ifvqbq0","pricing_plan_id":"cebpf4jnsgd1na2vs0mg"},{"bike_id":"ffe0f8e7-b8ff-4644-90c3-ef056ccf153f","system_id":"levelo_inurba_marseille","lat":43.25006,"lon":5.38908,"is_reserved":false,"is_disabled":false,"rental_uris":{"android":"levelo://app?vid=ffe0f8e7-b8ff-4644-90c3-ef056ccf153f","ios":"levelo://app?vid=ffe0f8e7-b8ff-4644-90c3-ef056ccf153f"},"vehicle_type_id":"4","last_reported":1727875052,"current_range_meters":12400,"station_id":"ce4bhgp2rcd13ifvqfd0","pricing_plan_id":"cebpf4jnsgd1na2vs0mg"},{"bike_id":"dc71b5f2-729f-4b71-a034-83d1556c5621","system_id":"levelo_inurba_marseille","lat":43.23156,"lon":5.43699,"is_reserved":false,"is_disabled":false,"rental_uris":{"android":"levelo://app?vid=dc71b5f2-729f-4b71-a034-83d1556c5621","ios":"levelo://app?vid=dc71b5f2-729f-4b71-a034-83d1556c5621"},"vehicle_type_id":"4","last_reported":1727875052,"current_range_meters":2000,"station_id":"ce4bhmp2rcd13ifvqgog","pricing_plan_id":"cebpf4jnsgd1na2vs0mg"},{"bike_id":"ddf3a500-cddd-43ec-b032-dd02564b74b7","system_id":"levelo_inurba_marseille","lat":43.29365,"lon":5.37839,"is_reserved":false,"is_disabled":false,"rental_uris":{"android":"levelo://app?vid=ddf3a500-cddd-43ec-b032-dd02564b74b7","ios":"levelo://app?vid=ddf3a500-cddd-43ec-b032-dd02564b74b7"},"vehicle_type_id":"4","last_reported":1727875052,"current_range_meters":2800,"station_id":"ce4bgjh2rcd13ifvqbf0","pricing_plan_id":"cebpf4jnsgd1na2vs0mg"},{"bike_id":"01e77b0f-7cc2-4f21-bca1-292aaef4dbf5","system_id":"levelo_inurba_marseille","lat":43.23062,"lon":5.35491,"is_reserved":false,"is_disabled":false,"rental_uris":{"android":"levelo://app?vid=01e77b0f-7cc2-4f21-bca1-292aaef4dbf5","ios":"levelo://app?vid=01e77b0f-7cc2-4f21-bca1-292aaef4dbf5"},"vehicle_type_id":"4","last_reported":1727875052,"current_range_meters":27200,"station_id":"cpo3342slgdg3j2ifvpg","pricing_plan_id":"cebpf4jnsgd1na2vs0mg"},{"bike_id":"f824a346-ba66-47cd-8efa-aa77e2ccc637","system_id":"levelo_inurba_marseille","lat":43.33761,"lon":5.3744,"is_reserved":false,"is_disabled":false,"rental_uris":{"android":"levelo://app?vid=f824a346-ba66-47cd-8efa-aa77e2ccc637","ios":"levelo://app?vid=f824a346-ba66-47cd-8efa-aa77e2ccc637"},"vehicle_type_id":"4","last_reported":1727875052,"current_range_meters":37600,"station_id":"","pricing_plan_id":"cebpf4jnsgd1na2vs0mg"},{"bike_id":"068b66f4-7ef6-4575-9402-dc5aa1ccbbf4","system_id":"levelo_inurba_marseille","lat":43.23154,"lon":5.43704,"is_reserved":false,"is_disabled":false,"rental_uris":{"android":"levelo://app?vid=068b66f4-7ef6-4575-9402-dc5aa1ccbbf4","ios":"levelo://app?vid=068b66f4-7ef6-4575-9402-dc5aa1ccbbf4"},"vehicle_type_id":"4","last_reported":1727875052,"current_range_meters":36800,"station_id":"ce4bhmp2rcd13ifvqgog","pricing_plan_id":"cebpf4jnsgd1na2vs0mg"},{"bike_id":"5dac9f59-99d8-47f9-b99a-06c3eeec022f","system_id":"levelo_inurba_marseille","lat":43.23062,"lon":5.35493,"is_reserved":false,"is_disabled":false,"rental_uris":{"android":"levelo://app?vid=5dac9f59-99d8-47f9-b99a-06c3eeec022f","ios":"levelo://app?vid=5dac9f59-99d8-47f9-b99a-06c3eeec022f"},"vehicle_type_id":"4","last_reported":1727875052,"current_range_meters":36400,"station_id":"cpo3342slgdg3j2ifvpg","pricing_plan_id":"cebpf4jnsgd1na2vs0mg"},{"bike_id":"c8aba292-b2e5-4973-9fd7-78fcaee0c7aa","system_id":"levelo_inurba_marseille","lat":43.24999,"lon":5.38921,"is_reserved":false,"is_disabled":false,"rental_uris":{"android":"levelo://app?vid=c8aba292-b2e5-4973-9fd7-78fcaee0c7aa","ios":"levelo://app?vid=c8aba292-b2e5-4973-9fd7-78fcaee0c7aa"},"vehicle_type_id":"4","last_reported":1727875052,"current_range_meters":5600,"station_id":"ce4bhgp2rcd13ifvqfd0","pricing_plan_id":"cebpf4jnsgd1na2vs0mg"},{"bike_id":"045ca8e1-e089-436a-9787-f8b76fc8ed18","system_id":"levelo_inurba_marseille","lat":43.30543,"lon":5.36688,"is_reserved":false,"is_disabled":false,"rental_uris":{"android":"levelo://app?vid=045ca8e1-e089-436a-9787-f8b76fc8ed18","ios":"levelo://app?vid=045ca8e1-e089-436a-9787-f8b76fc8ed18"},"vehicle_type_id":"4","last_reported":1727875052,"current_range_meters":22400,"station_id":"ce4bgrp2rcd13ifvqc9g","pricing_plan_id":"cebpf4jnsgd1na2vs0mg"},{"bike_id":"4dafd9dd-1677-4239-a4d3-ea683d48fd8b","system_id":"levelo_inurba_marseille","lat":43.2832,"lon":5.38105,"is_reserved":false,"is_disabled":false,"rental_uris":{"android":"levelo://app?vid=4dafd9dd-1677-4239-a4d3-ea683d48fd8b","ios":"levelo://app?vid=4dafd9dd-1677-4239-a4d3-ea683d48fd8b"},"vehicle_type_id":"4","last_reported":1727875052,"current_range_meters":36400,"station_id":"ce4bh412rcd13ifvqdr0","pricing_plan_id":"cebpf4jnsgd1na2vs0mg"},{"bike_id":"ed780946-af92-41a2-a667-d4098e089bce","system_id":"levelo_inurba_marseille","lat":43.25829,"lon":5.39434,"is_reserved":false,"is_disabled":false,"rental_uris":{"android":"levelo://app?vid=ed780946-af92-41a2-a667-d4098e089bce","ios":"levelo://app?vid=ed780946-af92-41a2-a667-d4098e089bce"},"vehicle_type_id":"4","last_reported":1727875052,"current_range_meters":10800,"station_id":"ce4bhip2rcd13ifvqft0","pricing_plan_id":"cebpf4jnsgd1na2vs0mg"},{"bike_id":"e80fc413-d94c-4ed9-97ce-bddf0be3a259","system_id":"levelo_inurba_marseille","lat":43.29971,"lon":5.38489,"is_reserved":false,"is_disabled":false,"rental_uris":{"android":"levelo://app?vid=e80fc413-d94c-4ed9-97ce-bddf0be3a259","ios":"levelo://app?vid=e80fc413-d94c-4ed9-97ce-bddf0be3a259"},"vehicle_type_id":"4","last_reported":1727875052,"current_range_meters":26000,"station_id":"ce4bgj92rcd13ifvqbd0","pricing_plan_id":"cebpf4jnsgd1na2vs0mg"},{"bike_id":"1a1cec13-e1bf-4f2a-ab8c-9e8b864f4084","system_id":"levelo_inurba_marseille","lat":43.25825,"lon":5.39424,"is_reserved":false,"is_disabled":false,"rental_uris":{"android":"levelo://app?vid=1a1cec13-e1bf-4f2a-ab8c-9e8b864f4084","ios":"levelo://app?vid=1a1cec13-e1bf-4f2a-ab8c-9e8b864f4084"},"vehicle_type_id":"4","last_reported":1727875052,"current_range_meters":7200,"station_id":"ce4bhip2rcd13ifvqft0","pricing_plan_id":"cebpf4jnsgd1na2vs0mg"},