{"last_updated":1691687183,"ttl":30,"version":"2.2","data":{"bikes":[{"bike_id":"021e9c90-ab3e-4236-a502-91c799d17d19","system_id":"levelo_inurba_marseille","lat":43.312239,"lon":5.368562,"is_reserved":false,"is_disabled":false,"rental_uris":{"android":"levelo://app?vid=021e9c90-ab3e-4236-a502-91c799d17d19","ios":"levelo://app?vid=021e9c90-ab3e-4236-a502-91c799d17d19"},"vehicle_type_id":"4","last_reported":1691687184,"current_range_meters":17600,"station_id":"ce4bgl92rcd13ifvqbq0","pricing_plan_id":"free"},{"bike_id":"901cf419-b48c-49c5-8259-92a7d6857c7d","system_id":"levelo_inurba_marseille","lat":43.31115,"lon":5.36781,"is_reserved":false,"is_disabled":false,"rental_uris":{"android":"levelo://app?vid=901cf419-b48c-49c5-8259-92a7d6857c7d","ios":"levelo://app?vid=901cf419-b48c-49c5-8259-92a7d6857c7d"},"vehicle_type_id":"4","last_reported":1691687184,"current_range_meters":0,"station_id":"","pricing_plan_id":"free"},{"bike_id":"ee4372ac-6c36-458f-87ba-1fe75337f206","system_id":"levelo_inurba_marseille","lat":43.30919,"lon":5.36843,"is_reserved":false,"is_disabled":false,"rental_uris":{"android":"levelo://app?vid=ee4372ac-6c36-458f-87ba-1fe75337f206","ios":"levelo://app?vid=ee4372ac-6c36-458f-87ba-1fe75337f206"},"vehicle_type_id":"4","last_reported":1691687184,"current_range_meters":14000,"station_id":"","pricing_plan_id":"free"},{"bike_id":"937204da-b578-45e6-be24-fb660ed2357a","system_id":"levelo_inurba_marseille","lat":43.309039,"lon":5.371797,"is_reserved":false,"is_disabled":false,"rental_uris":{"android":"levelo://app?vid=937204da-b578-45e6-be24-fb660ed2357a","ios":"levelo://app?vid=937204da-b578-45e6-be24-fb660ed2357a"},"vehicle_type_id":"4","last_reported":1691687184,"current_range_meters":12000,"station_id":"ce4bguh2rcd13ifvqckg","pricing_plan_id":"free"},{"bike_id":"35a0ba15-6d5d-4138-ab03-d17c1ecfba93","system_id":"levelo_inurba_marseille","lat":43.30895,"lon":5.3718,"is_reserved":false,"is_disabled":false,"rental_uris":{"android":"levelo://app?vid=35a0ba15-6d5d-4138-ab03-d17c1ecfba93","ios":"levelo://app?vid=35a0ba15-6d5d-4138-ab03-d17c1ecfba93"},"vehicle_type_id":"4","last_reported":1691687184,"current_range_meters":13200,"station_id":"ce4bguh2rcd13ifvqckg","pricing_plan_id":"free"},{"bike_id":"40468346-26b8-4992-8304-e935cfacc708","system_id":"levelo_inurba_marseille","lat":43.30555,"lon":5.36539,"is_reserved":false,"is_disabled":false,"rental_uris":{"android":"levelo://app?vid=40468346-26b8-4992-8304-e935cfacc708","ios":"levelo://app?vid=40468346-26b8-4992-8304-e935cfacc708"},"vehicle_type_id":"4","last_reported":1691687184,"current_range_meters":16800,"station_id":"ce4bgs12rcd13ifvqcag","pricing_plan_id":"free"},{"bike_id":"55811165-2a2f-4606-82fb-03d8720dfd70","system_id":"levelo_inurba_marseille","lat":43.305706,"lon":5.365654,"is_reserved":false,"is_disabled":false,"rental_uris":{"android":"levelo://app?vid=55811165-2a2f-4606-82fb-03d8720dfd70","ios":"levelo://app?vid=55811165-2a2f-4606-82fb-03d8720dfd70"},"vehicle_type_id":"4","last_reported":1691687184,"current_range_meters":22800,"station_id":"ce4bgs12rcd13ifvqcag","pricing_plan_id":"free"},{"bike_id":"3fc8a8a5-ac66-4177-a3f2-fc450373d373","system_id":"levelo_inurba_marseille","lat":43.306119,"lon":5.372248,"is_reserved":false,"is_disabled":false,"rental_uris":{"android":"levelo://app?vid=3fc8a8a5-ac66-4177-a3f2-fc450373d373","ios":"levelo://app?vid=3fc8a8a5-ac66-4177-a3f2-fc450373d373"},"vehicle_type_id":"4","last_reported":1691687184,"current_range_meters":10400,"station_id":"ce4bgqh2rcd13ifvqc4g","pricing_plan_id":"free"},{"bike_id":"d7423357-6827-4fbf-9d71-c010382c54fa","system_id":"levelo_inurba_marseille","lat":43.30594,"lon":5.37213,"is_reserved":false,"is_disabled":false,"rental_uris":{"android":"levelo://app?vid=d7423357-6827-4fbf-9d71-c010382c54fa","ios":"levelo://app?vid=d7423357-6827-4fbf-9d71-c010382c54fa"},"vehicle_type_id":"4","last_reported":1691687184,"current_range_meters":31200,"station_id":"ce4bgqh2rcd13ifvqc4g","pricing_plan_id":"free"},{"bike_id":"0ea3a3f3-f2be-4a96-a039-c37886b76c48","system_id":"levelo_inurba_marseille","lat":43.305989,"lon":5.37225,"is_reserved":false,"is_disabled":false,"rental_uris":{"android":"levelo://app?vid=0ea3a3f3-f2be-4a96-a039-c37886b76c48","ios":"levelo://app?vid=0ea3a3f3-f2be-4a96-a039-c37886b76c48"},"vehicle_type_id":"4","last_reported":1691687184,"current_range_meters":31200,"station_id":"ce4bgqh2rcd13ifvqc4g","pricing_plan_id":"free"},{"bike_id":"e033f8f4-d4f1-4b9e-8052-8c83edaebdb5","system_id":"levelo_inurba_marseille","lat":43.30592,"lon":5.37211,"is_reserved":false,"is_disabled":false,"rental_uris":{"android":"levelo://app?vid=e033f8f4-d4f1-4b9e-8052-8c83edaebdb5","ios":"levelo://app?vid=e033f8f4-d4f1-4b9e-8052-8c83edaebdb5"},"vehicle_type_id":"4","last_reported":1691687184,"current_range_meters":17600,"station_id":"ce4bgqh2rcd13ifvqc4g","pricing_plan_id":"free"},{"bike_id":"af992e24-bf39-448f-bae0-545690a452ec","system_id":"levelo_inurba_marseille","lat":43.31536,"lon":5.38024,"is_reserved":false,"is_disabled":false,"rental_uris":{"android":"levelo://app?vid=af992e24-bf39-448f-bae0-545690a452ec","ios":"levelo://app?vid=af992e24-bf39-448f-bae0-545690a452ec"},"vehicle_type_id":"4","last_reported":1691687184,"current_range_meters":23600,"station_id":"ce4bhsp2rcd13ifvqi50","pricing_plan_id":"free"},{"bike_id":"42133c7a-ed36-43a5-b13e-b74b0676fa9d","system_id":"levelo_inurba_marseille","lat":43.30811,"lon":5.379195,"is_reserved":false,"is_disabled":false,"rental_uris":{"android":"levelo://app?vid=42133c7a-ed36-43a5-b13e-b74b0676fa9d","ios":"levelo://app?vid=42133c7a-ed36-43a5-b13e-b74b0676fa9d"},"vehicle_type_id":"4","last_reported":1691687184,"current_range_meters":9600,"station_id":"ce4bgup2rcd13ifvqcn0","pricing_plan_id":"free"},{"bike_id":"e9b733c9-d432-49d4-82f6-f74b8d86c36b","system_id":"levelo_inurba_marseille","lat":43.301939,"lon":5.366286,"is_reserved":false,"is_disabled":false,"rental_uris":{"android":"levelo://app?vid=e9b733c9-d432-49d4-82f6-f74b8d86c36b","ios":"levelo://app?vid=e9b733c9-d432-49d4-82f6-f74b8d86c36b"},"vehicle_type_id":"4","last_reported":1691687184,"current_range_meters":3200,"station_id":"ce4bgrh2rcd13ifvqc8g","pricing_plan_id":"free"},{"bike_id":"438751a5-0d22-494a-b869-553a99615b25","system_id":"levelo_inurba_marseille","lat":43.304606,"lon":5.379026,"is_reserved":false,"is_disabled":false,"rental_uris":{"android":"levelo://app?vid=438751a5-0d22-494a-b869-553a99615b25","ios":"levelo://app?vid=438751a5-0d22-494a-b869-553a99615b25"},"vehicle_type_id":"4","last_reported":1691687184,"current_range_meters":10800,"station_id":"ce4bgup2rcd13ifvqcn0","pricing_plan_id":"free"},{"bike_id":"100c46ee-8951-4fcc-922f-9c62e6de8588","system_id":"levelo_inurba_marseille","lat":43.31107,"lon":5.38342,"is_reserved":false,"is_disabled":false,"rental_uris":{"android":"levelo://app?vid=100c46ee-8951-4fcc-922f-9c62e6de8588","ios":"levelo://app?vid=100c46ee-8951-4fcc-922f-9c62e6de8588"},"vehicle_type_id":"4","last_reported":1691687184,"current_range_meters":4000,"station_id":"","pricing_plan_id":"free"},{"bike_id":"da3ba877-06d5-4b63-9096-3752a045b7e9","system_id":"levelo_inurba_marseille","lat":43.30054,"lon":5.3691,"is_reserved":false,"is_disabled":false,"rental_uris":{"android":"levelo://app?vid=da3ba877-06d5-4b63-9096-3752a045b7e9","ios":"levelo://app?vid=da3ba877-06d5-4b63-9096-3752a045b7e9"},"vehicle_type_id":"4","last_reported":1691687184,"current_range_meters":5200,"station_id":"","pricing_plan_id":"free"},{"bike_id":"4880131d-1ccb-4281-ae04-4277df758df9","system_id":"levelo_inurba_marseille","lat":43.30142,"lon":5.37424,"is_reserved":false,"is_disabled":false,"rental_uris":{"android":"levelo://app?vid=4880131d-1ccb-4281-ae04-4277df758df9","ios":"levelo://app?vid=4880131d-1ccb-4281-ae04-4277df758df9"},"vehicle_type_id":"4","last_reported":1691687184,"current_range_meters":18000,"station_id":"ce4bgs92rcd13ifvqcc0","pricing_plan_id":"free"},{"bike_id":"4fd72b7b-1510-4bf3-a06f-45331b216662","system_id":"levelo_inurba_marseille","lat":43.304606,"lon":5.379026,"is_reserved":false,"is_disabled":false,"rental_uris":{"android":"levelo://app?vid=4fd72b7b-1510-4bf3-a06f-45331b216662","ios":"levelo://app?vid=4fd72b7b-1510-4bf3-a06f-45331b216662"},"vehicle_type_id":"4","last_reported":1691687184,"current_range_meters":0,"station_id":"ce4bgup2rcd13ifvqcn0","pricing_plan_id":"free"},{"bike_id":"4e49d24f-99b3-417b-9a18-edd14757c327","system_id":"levelo_inurba_marseille","lat":43.31362,"lon":5.38488,"is_reserved":false,"is_disabled":false,"rental_uris":{"android":"levelo://app?vid=4e49d24f-99b3-417b-9a18-edd14757c327","ios":"levelo://app?vid=4e49d24f-99b3-417b-9a18-edd14757c327"},"vehicle_type_id":"4","last_reported":1691687184,"current_range_meters":24400,"station_id":"ce4bgt92rcd13ifvqcf0","pricing_plan_id":"free"},{"bike_id":"0ea9ee5b-e83c-4703-93e5-06ae484e6e75","system_id":"levelo_inurba_marseille","lat":43.29968,"lon":5.37171,"is_reserved":false,"is_disabled":false,"rental_uris":{"android":"levelo://app?vid=0ea9ee5b-e83c-4703-93e5-06ae484e6e75","ios":"levelo://app?vid=0ea9ee5b-e83c-4703-93e5-06ae484e6e75"},"vehicle_type_id":"4","last_reported":1691687184,"current_range_meters":7600,"station_id":"ce4bgr92rcd13ifvqc7g","pricing_plan_id":"free"},{"bike_id":"65fe42cf-db48-4166-8f91-b1aa28cfe25a","system_id":"levelo_inurba_marseille","lat":43.30546,"lon":5.38427,"is_reserved":false,"is_disabled":false,"rental_uris":{"android":"levelo://app?vid=65fe42cf-db48-4166-8f91-b1aa28cfe25a","ios":"levelo://app?vid=65fe42cf-db48-4166-8f91-b1aa28cfe25a"},"vehicle_type_id":"4","last_reported":1691687184,"current_range_meters":7200,"station_id":"ce4bgg92rcd13ifvqb30","pricing_plan_id":"free"},{"bike_id":"30537d43-af02-4a10-b928-7b9b8cf633d2","system_id":"levelo_inurba_marseille","lat":43.305387,"lon":5.384253,"is_reserved":false,"is_disabled":false,"rental_uris":{"android":"levelo://app?vid=30537d43-af02-4a10-b928-7b9b8cf633d2","ios":"levelo://app?vid=30537d43-af02-4a10-b928-7b9b8cf633d2"},"vehicle_type_id":"4","last_reported":1691687184,"current_range_meters":15600,"station_id":"ce4bgg92rcd13ifvqb30","pricing_plan_id":"free"},{"bike_id":"c966d00d-f08a-432f-ad19-9bfa00dfa0fe","system_id":"levelo_inurba_marseille","lat":43.32292,"lon":5.38257,"is_reserved":false,"is_disabled":false,"rental_uris":{"android":"levelo://app?vid=c966d00d-f08a-432f-ad19-9bfa00dfa0fe","ios":"levelo://app?vid=c966d00d-f08a-432f-ad19-9bfa00dfa0fe"},"vehicle_type_id":"4","last_reported":1691687184,"current_range_meters":10000,"station_id":"ce4bhr12rcd13ifvqhqg","pricing_plan_id":"free"},{"bike_id":"3a574de3-b31f-4b53-9fcf-1545808be757","system_id":"levelo_inurba_marseille","lat":43.3229,"lon":5.38267,"is_reserved":false,"is_disabled":false,"rental_uris":{"android":"levelo://app?vid=3a574de3-b31f-4b53-9fcf-1545808be757","ios":"levelo://app?vid=3a574de3-b31f-4b53-9fcf-1545808be757"},"vehicle_type_id":"4","last_reported":1691687184,"current_range_meters":21200,"station_id":"ce4bhr12rcd13ifvqhqg","pricing_plan_id":"free"},{"bike_id":"b9e102c1-0c61-49d0-9109-c8259e0fc4f7","system_id":"levelo_inurba_marseille","lat":43.297774,"lon":5.370875,"is_reserved":false,"is_disabled":false,"rental_uris":{"android":"levelo://app?vid=b9e102c1-0c61-49d0-9109-c8259e0fc4f7","ios":"levelo://app?vid=b9e102c1-0c61-49d0-9109-c8259e0fc4f7"},"vehicle_type_id":"4","last_reported":1691687184,"current_range_meters":16000,"station_id":"ce4bgop2rcd13ifvqc1g","pricing_plan_id":"free"},{"bike_id":"8666ec56-06a8-477e-9b94-98035404545e","system_id":"levelo_inurba_marseille","lat":43.328371,"lon":5.366909,"is_reserved":false,"is_disabled":false,"rental_uris":{"android":"levelo://app?vid=8666ec56-06a8-477e-9b94-98035404545e","ios":"levelo://app?vid=8666ec56-06a8-477e-9b94-98035404545e"},"vehicle_type_id":"4","last_reported":1691687184,"current_range_meters":12800,"station_id":"ce4bhs92rcd13ifvqi0g","pricing_plan_id":"free"},{"bike_id":"8ce81456-09b5-4da0-802b-88be49dcac1d","system_id":"levelo_inurba_marseille","lat":43.32826,"lon":5.36679,"is_reserved":false,"is_disabled":false,"rental_uris":{"android":"levelo://app?vid=8ce81456-09b5-4da0-802b-88be49dcac1d","ios":"levelo://app?vid=8ce81456-09b5-4da0-802b-88be49dcac1d"},"vehicle_type_id":"4","last_reported":1691687184,"current_range_meters":27600,"station_id":"ce4bhs92rcd13ifvqi0g","pricing_plan_id":"free"},{"bike_id":"5d76a089-57a6-41c3-9736-662fd5348cfc","system_id":"levelo_inurba_marseille","lat":43.328371,"lon":5.366909,"is_reserved":false,"is_disabled":false,"rental_uris":{"android":"levelo://app?vid=5d76a089-57a6-41c3-9736-662fd5348cfc","ios":"levelo://app?vid=5d76a089-57a6-41c3-9736-662fd5348cfc"},"vehicle_type_id":"4","last_reported":1691687184,"current_range_meters":26000,"station_id":"ce4bhs92rcd13ifvqi0g","pricing_plan_id":"free"},{"bike_id":"39fdb1f4-2f6d-433f-ac1c-f84beb81a73e","system_id":"levelo_inurba_marseille","lat":43.328371,"lon":5.366909,"is_reserved":false,"is_disabled":false,"rental_uris":{"android":"levelo://app?vid=39fdb1f4-2f6d-433f-ac1c-f84beb81a73e","ios":"levelo://app?vid=39fdb1f4-2f6d-433f-ac1c-f84beb81a73e"},"vehicle_type_id":"4","last_reported":1691687184,"current_range_meters":12400,"station_id":"ce4bhs92rcd13ifvqi0g","pricing_plan_id":"free"},{"bike_id":"4656a0a2-1ed7-49a9-99e1-00b2f7e77116","system_id":"levelo_inurba_marseille","lat":43.32829,"lon":5.36678,"is_reserved":false,"is_disabled":false,"rental_uris":{"android":"levelo://app?vid=4656a0a2-1ed7-49a9-99e1-00b2f7e77116","ios":"levelo://app?vid=4656a0a2-1ed7-49a9-99e1-00b2f7e77116"},"vehicle_type_id":"4","last_reported":1691687184,"current_range_meters":24000,"station_id":"ce4bhs92rcd13ifvqi0g","pricing_plan_id":"free"},{"bike_id":"cf43544e-989a-4d21-9699-931a6368cb00","system_id":"levelo_inurba_marseille","lat":43.32829,"lon":5.36672,"is_reserved":false,"is_disabled":false,"rental_uris":{"android":"levelo://app?vid=cf43544e-989a-4d21-9699-931a6368cb00","ios":"levelo://app?vid=cf43544e-989a-4d21-9699-931a6368cb00"},"vehicle_type_id":"4","last_reported":1691687184,"current_range_meters":30800,"station_id":"ce4bhs92rcd13ifvqi0g","pricing_plan_id":"free"},{"bike_id":"6e2049d4-c28c-4978-a454-4edbdc0f7037","system_id":"levelo_inurba_marseille","lat":43.3283,"lon":5.3668,"is_reserved":false,"is_disabled":false,"rental_uris":{"android":"levelo://app?vid=6e2049d4-c28c-4978-a454-4edbdc0f7037","ios":"levelo://app?vid=6e2049d4-c28c-4978-a454-4edbdc0f7037"},"vehicle_type_id":"4","last_reported":1691687184,"current_range_meters":3600,"station_id":"ce4bhs92rcd13ifvqi0g","pricing_plan_id":"free"},{"bike_id":"a112a680-d3e0-411d-8250-15bff243835d","system_id":"levelo_inurba_marseille","lat":43.32833,"lon":5.36684,"is_reserved":false,"is_disabled":false,"rental_uris":{"android":"levelo://app?vid=a112a680-d3e0-411d-8250-15bff243835d","ios":"levelo://app?vid=a112a680-d3e0-411d-8250-15bff243835d"},"vehicle_type_id":"4","last_reported":1691687184,"current_range_meters":30800,"station_id":"ce4bhs92rcd13ifvqi0g","pricing_plan_id":"free"},{"bike_id":"dd789220-e7b5-42c1-b9dc-dc4243148021","system_id":"levelo_inurba_marseille","lat":43.297163,"lon":5.365866,"is_reserved":false,"is_disabled":false,"rental_uris":{"android":"levelo://app?vid=dd789220-e7b5-42c1-b9dc-dc4243148021","ios":"levelo://app?vid=dd789220-e7b5-42c1-b9dc-dc4243148021"},"vehicle_type_id":"4","last_reported":1691687184,"current_range_meters":31200,"station_id":"ce4bgn12rcd13ifvqbt0","pricing_plan_id":"free"},{"bike_id":"44083f66-fac4-47f0-887c-1e5643752b55","system_id":"levelo_inurba_marseille","lat":43.32839,"lon":5.36691,"is_reserved":false,"is_disabled":false,"rental_uris":{"android":"levelo://app?vid=44083f66-fac4-47f0-887c-1e5643752b55","ios":"levelo://app?vid=44083f66-fac4-47f0-887c-1e5643752b55"},"vehicle_type_id":"4","last_reported":1691687184,"current_range_meters":4000,"station_id":"ce4bhs92rcd13ifvqi0g","pricing_plan_id":"free"},{"bike_id":"55d88cb9-15b2-412b-a289-ae605c972fc8","system_id":"levelo_inurba_marseille","lat":43.299028,"lon":5.381509,"is_reserved":false,"is_disabled":false,"rental_uris":{"android":"levelo://app?vid=55d88cb9-15b2-412b-a289-ae605c972fc8","ios":"levelo://app?vid=55d88cb9-15b2-412b-a289-ae605c972fc8"},"vehicle_type_id":"4","last_reported":1691687184,"current_range_meters":14400,"station_id":"ce4bgj12rcd13ifvqbc0","pricing_plan_id":"free"},{"bike_id":"559b15e3-d14f-4a1c-b1f8-594734157eb0","system_id":"levelo_inurba_marseille","lat":43.299028,"lon":5.381509,"is_reserved":false,"is_disabled":false,"rental_uris":{"android":"levelo://app?vid=559b15e3-d14f-4a1c-b1f8-594734157eb0","ios":"levelo://app?vid=559b15e3-d14f-4a1c-b1f8-594734157eb0"},"vehicle_type_id":"4","last_reported":1691687184,"current_range_meters":13200,"station_id":"ce4bgj12rcd13ifvqbc0","pricing_plan_id":"free"},{"bike_id":"a427662d-06b3-4ee9-a3cc-a6445bd1aeb3","system_id":"levelo_inurba_marseille","lat":43.309589,"lon":5.390258,"is_reserved":false,"is_disabled":false,"rental_uris":{"android":"levelo://app?vid=a427662d-06b3-4ee9-a3cc-a6445bd1aeb3","ios":"levelo://app?vid=a427662d-06b3-4ee9-a3cc-a6445bd1aeb3"},"vehicle_type_id":"4","last_reported":1691687184,"current_range_meters":18800,"station_id":"ce4bgup2rcd13ifvqco0","pricing_plan_id":"free"},{"bike_id":"bbc7b30d-56a0-428a-a0e2-a2ce0c7c0761","system_id":"levelo_inurba_marseille","lat":43.299028,"lon":5.381509,"is_reserved":false,"is_disabled":false,"rental_uris":{"android":"levelo://app?vid=bbc7b30d-56a0-428a-a0e2-a2ce0c7c0761","ios":"levelo://app?vid=bbc7b30d-56a0-428a-a0e2-a2ce0c7c0761"},"vehicle_type_id":"4","last_reported":1691687184,"current_range_meters":14400,"station_id":"ce4bgj12rcd13ifvqbc0","pricing_plan_id":"free"},{"bike_id":"28244932-1fd9-48ea-8842-32c03159abbc","system_id":"levelo_inurba_marseille","lat":43.2991,"lon":5.38153,"is_reserved":false,"is_disabled":false,"rental_uris":{"android":"levelo://app?vid=28244932-1fd9-48ea-8842-32c03159abbc","ios":"levelo://app?vid=28244932-1fd9-48ea-8842-32c03159abbc"},"vehicle_type_id":"4","last_reported":1691687184,"current_range_meters":28400,"station_id":"ce4bgj12rcd13ifvqbc0","pricing_plan_id":"free"},{"bike_id":"9e288399-e594-4c1b-827a-c224681650a9","system_id":"levelo_inurba_marseille","lat":43.317557,"lon":5.390173,"is_reserved":false,"is_disabled":false,"rental_uris":{"android":"levelo://app?vid=9e288399-e594-4c1b-827a-c224681650a9","ios":"levelo://app?vid=9e288399-e594-4c1b-827a-c224681650a9"},"vehicle_type_id":"4","last_reported":1691687184,"current_range_meters":30400,"station_id":"ce4bhqp2rcd13ifvqhng","pricing_plan_id":"free"},{"bike_id":"a927fafb-4085-41bb-9607-4de178bdc56d","system_id":"levelo_inurba_marseille","lat":43.317557,"lon":5.390173,"is_reserved":false,"is_disabled":false,"rental_uris":{"android":"levelo://app?vid=a927fafb-4085-41bb-9607-4de178bdc56d","ios":"levelo://app?vid=a927fafb-4085-41bb-9607-4de178bdc56d"},"vehicle_type_id":"4","last_reported":1691687184,"current_range_meters":13600,"station_id":"ce4bhqp2rcd13ifvqhng","pricing_plan_id":"free"},{"bike_id":"a4df99ce-0488-49dd-a888-94686f562e88","system_id":"levelo_inurba_marseille","lat":43.295748,"lon":5.37522,"is_reserved":false,"is_disabled":false,"rental_uris":{"android":"levelo://app?vid=a4df99ce-0488-49dd-a888-94686f562e88","ios":"levelo://app?vid=a4df99ce-0488-49dd-a888-94686f562e88"},"vehicle_type_id":"4","last_reported":1691687184,"current_range_meters":27600,"station_id":"ce4bgh92rcd13ifvqb50","pricing_plan_id":"free"},{"bike_id":"3b6f1658-692e-468e-a981-7c46b0c6ef4c","system_id":"levelo_inurba_marseille","lat":43.30428,"lon":5.38893,"is_reserved":false,"is_disabled":false,"rental_uris":{"android":"levelo://app?vid=3b6f1658-692e-468e-a981-7c46b0c6ef4c","ios":"levelo://app?vid=3b6f1658-692e-468e-a981-7c46b0c6ef4c"},"vehicle_type_id":"4","last_reported":1691687184,"current_range_meters":5200,"station_id":"ce4bgk12rcd13ifvqbi0","pricing_plan_id":"free"},{"bike_id":"90f617ef-80de-4559-857c-505e901bf6c3","system_id":"levelo_inurba_marseille","lat":43.304403,"lon":5.389069,"is_reserved":false,"is_disabled":false,"rental_uris":{"android":"levelo://app?vid=90f617ef-80de-4559-857c-505e901bf6c3","ios":"levelo://app?vid=90f617ef-80de-4559-857c-505e901bf6c3"},"vehicle_type_id":"4","last_reported":1691687184,"current_range_meters":17600,"station_id":"ce4bgk12rcd13ifvqbi0","pricing_plan_id":"free"},{"bike_id":"9b295767-9fa8-4359-a934-7dc9fc026dc3","system_id":"levelo_inurba_marseille","lat":43.304274,"lon":5.388873,"is_reserved":false,"is_disabled":false,"rental_uris":{"android":"levelo://app?vid=9b295767-9fa8-4359-a934-7dc9fc026dc3","ios":"levelo://app?vid=9b295767-9fa8-4359-a934-7dc9fc026dc3"},"vehicle_type_id":"4","last_reported":1691687184,"current_range_meters":24000,"station_id":"ce4bgk12rcd13ifvqbi0","pricing_plan_id":"free"},{"bike_id":"ff6ce172-5629-4b03-9802-372eec145cae","system_id":"levelo_inurba_marseille","lat":43.296277,"lon":5.377108,"is_reserved":false,"is_disabled":false,"rental_uris":{"android":"levelo://app?vid=ff6ce172-5629-4b03-9802-372eec145cae","ios":"levelo://app?vid=ff6ce172-5629-4b03-9802-372eec145cae"},"vehicle_type_id":"4","last_reported":1691687184,"current_range_meters":0,"station_id":"ce4bgi92rcd13ifvqb90","pricing_plan_id":"free"},{"bike_id":"95c5c8f4-7976-4440-9997-93c201f5365b","system_id":"levelo_inurba_marseille","lat":43.299717,"lon":5.384845,"is_reserved":false,"is_disabled":false,"rental_uris":{"android":"levelo://app?vid=95c5c8f4-7976-4440-9997-93c201f5365b","ios":"levelo://app?vid=95c5c8f4-7976-4440-9997-93c201f5365b"},"vehicle_type_id":"4","last_reported":1691687184,"current_range_meters":14400,"station_id":"ce4bgj92rcd13ifvqbd0","pricing_plan_id":"free"},{"bike_id":"51af65c0-eb64-40d5-af2a-1804a21ab835","system_id":"levelo_inurba_marseille","lat":43.32371,"lon":5.38886,"is_reserved":false,"is_disabled":false,"rental_uris":{"android":"levelo://app?vid=51af65c0-eb64-40d5-af2a-1804a21ab835","ios":"levelo://app?vid=51af65c0-eb64-40d5-af2a-1804a21ab835"},"vehicle_type_id":"4","last_reported":1691687184,"current_range_meters":9200,"station_id":"ce4bhqp2rcd13ifvqhog","pricing_plan_id":"free"},{"bike_id":"9200d6b4-f73c-49b8-8e3e-8418dd208634","system_id":"levelo_inurba_marseille","lat":43.29602,"lon":5.381084,"is_reserved":false,"is_disabled":false,"rental_uris":{"android":"levelo://app?vid=9200d6b4-f73c-49b8-8e3e-8418dd208634","ios":"levelo://app?vid=9200d6b4-f73c-49b8-8e3e-8418dd208634"},"vehicle_type_id":"4","last_reported":1691687184,"current_range_meters":10400,"station_id":"ce4bgl12rcd13ifvqbo0","pricing_plan_id":"free"},{"bike_id":"1ab017e5-45ac-449a-9ac7-ef72277408c2","system_id":"levelo_inurba_marseille","lat":43.29611,"lon":5.38107,"is_reserved":false,"is_disabled":false,"rental_uris":{"android":"levelo://app?vid=1ab017e5-45ac-449a-9ac7-ef72277408c2","ios":"levelo://app?vid=1ab017e5-45ac-449a-9ac7-ef72277408c2"},"vehicle_type_id":"4","last_reported":1691687184,"current_range_meters":30000,"station_id":"","pricing_plan_id":"free"},{"bike_id":"36e104f0-f7a8-4a26-a875-4d270ae2f914","system_id":"levelo_inurba_marseille","lat":43.29602,"lon":5.381084,"is_reserved":false,"is_disabled":false,"rental_uris":{"android":"levelo://app?vid=36e104f0-f7a8-4a26-a875-4d270ae2f914","ios":"levelo://app?vid=36e104f0-f7a8-4a26-a875-4d270ae2f914"},"vehicle_type_id":"4","last_reported":1691687184,"current_range_meters":27600,"station_id":"ce4bgl12rcd13ifvqbo0","pricing_plan_id":"free"},{"bike_id":"ab92a19f-9342-4415-8e32-57b22f5872d5","system_id":"levelo_inurba_marseille","lat":43.296,"lon":5.38091,"is_reserved":false,"is_disabled":false,"rental_uris":{"android":"levelo://app?vid=ab92a19f-9342-4415-8e32-57b22f5872d5","ios":"levelo://app?vid=ab92a19f-9342-4415-8e32-57b22f5872d5"},"vehicle_type_id":"4","last_reported":1691687184,"current_range_meters":21200,"station_id":"ce4bgl12rcd13ifvqbo0","pricing_plan_id":"free"},{"bike_id":"0d16acf3-42b1-4662-a222-160493d2482e","system_id":"levelo_inurba_marseille","lat":43.29602,"lon":5.381084,"is_reserved":false,"is_disabled":false,"rental_uris":{"android":"levelo://app?vid=0d16acf3-42b1-4662-a222-160493d2482e","ios":"levelo://app?vid=0d16acf3-42b1-4662-a222-160493d2482e"},"vehicle_type_id":"4","last_reported":1691687184,"current_range_meters":4400,"station_id":"ce4bgl12rcd13ifvqbo0","pricing_plan_id":"free"},{"bike_id":"e2524d53-1156-4be7-bf2b-11d9d61b70a4","system_id":"levelo_inurba_marseille","lat":43.293249,"lon":5.371578,"is_reserved":false,"is_disabled":false,"rental_uris":{"android":"levelo://app?vid=e2524d53-1156-4be7-bf2b-11d9d61b70a4","ios":"levelo://app?vid=e2524d53-1156-4be7-bf2b-11d9d61b70a4"},"vehicle_type_id":"4","last_reported":1691687184,"current_range_meters":12000,"station_id":"ce4bgh92rcd13ifvqb40","pricing_plan_id":"free"},{"bike_id":"dbe406a0-e31d-4174-932b-0d8d584d17c2","system_id":"levelo_inurba_marseille","lat":43.292749,"lon":5.368402,"is_reserved":false,"is_disabled":false,"rental_uris":{"android":"levelo://app?vid=dbe406a0-e31d-4174-932b-0d8d584d17c2","ios":"levelo://app?vid=dbe406a0-e31d-4174-932b-0d8d584d17c2"},"vehicle_type_id":"4","last_reported":1691687184,"current_range_meters":31200,"station_id":"ce4bhbp2rcd13ifvqesg","pricing_plan_id":"free"},{"bike_id":"03661eb9-3323-4f59-aeb7-1de068ded050","system_id":"levelo_inurba_marseille","lat":43.305994,"lon":5.393687,"is_reserved":false,"is_disabled":false,"rental_uris":{"android":"levelo://app?vid=03661eb9-3323-4f59-aeb7-1de068ded050","ios":"levelo://app?vid=03661eb9-3323-4f59-aeb7-1de068ded050"},"vehicle_type_id":"4","last_reported":1691687184,"current_range_meters":18800,"station_id":"ce4bh0p2rcd13ifvqd80","pricing_plan_id":"free"},{"bike_id":"cb4bf14c-8dde-4d6c-be05-fca540643b69","system_id":"levelo_inurba_marseille","lat":43.305994,"lon":5.393687,"is_reserved":false,"is_disabled":false,"rental_uris":{"android":"levelo://app?vid=cb4bf14c-8dde-4d6c-be05-fca540643b69","ios":"levelo://app?vid=cb4bf14c-8dde-4d6c-be05-fca540643b69"},"vehicle_type_id":"4","last_reported":1691687184,"current_range_meters":19200,"station_id":"ce4bh0p2rcd13ifvqd80","pricing_plan_id":"free"},{"bike_id":"50c7c1ec-ea99-4125-b233-a1869f9dbab6","system_id":"levelo_inurba_marseille","lat":43.292311,"lon":5.360731,"is_reserved":false,"is_disabled":false,"rental_uris":{"android":"levelo://app?vid=50c7c1ec-ea99-4125-b233-a1869f9dbab6","ios":"levelo://app?vid=50c7c1ec-ea99-4125-b233-a1869f9dbab6"},"vehicle_type_id":"4","last_reported":1691687184,"current_range_meters":29200,"station_id":"ce4bhbh2rcd13ifvqeqg","pricing_plan_id":"free"},{"bike_id":"c9010f55-1d54-4fb8-8cc5-a5d0086b00e5","system_id":"levelo_inurba_marseille","lat":43.292311,"lon":5.360731,"is_reserved":false,"is_disabled":false,"rental_uris":{"android":"levelo://app?vid=c9010f55-1d54-4fb8-8cc5-a5d0086b00e5","ios":"levelo://app?vid=c9010f55-1d54-4fb8-8cc5-a5d0086b00e5"},"vehicle_type_id":"4","last_reported":1691687184,"current_range_meters":8000,"station_id":"ce4bhbh2rcd13ifvqeqg","pricing_plan_id":"free"},{"bike_id":"c8b44197-758f-48d4-b645-0e2639973cb1","system_id":"levelo_inurba_marseille","lat":43.29226,"lon":5.36071,"is_reserved":false,"is_disabled":false,"rental_uris":{"android":"levelo://app?vid=c8b44197-758f-48d4-b645-0e2639973cb1","ios":"levelo://app?vid=c8b44197-758f-48d4-b645-0e2639973cb1"},"vehicle_type_id":"4","last_reported":1691687184,"current_range_meters":14000,"station_id":"ce4bhbh2rcd13ifvqeqg","pricing_plan_id":"free"},{"bike_id":"0785b8d9-f502-4bf8-b990-63482bcafc59","system_id":"levelo_inurba_marseille","lat":43.292311,"lon":5.360731,"is_reserved":false,"is_disabled":false,"rental_uris":{"android":"levelo://app?vid=0785b8d9-f502-4bf8-b990-63482bcafc59","ios":"levelo://app?vid=0785b8d9-f502-4bf8-b990-63482bcafc59"},"vehicle_type_id":"4","last_reported":1691687184,"current_range_meters":18800,"station_id":"ce4bhbh2rcd13ifvqeqg","pricing_plan_id":"free"},{"bike_id":"8b78be38-6d58-43ae-a1fe-126cc1c690dd","system_id":"levelo_inurba_marseille","lat":43.292311,"lon":5.360731,"is_reserved":false,"is_disabled":false,"rental_uris":{"android":"levelo://app?vid=8b78be38-6d58-43ae-a1fe-126cc1c690dd","ios":"levelo://app?vid=8b78be38-6d58-43ae-a1fe-126cc1c690dd"},"vehicle_type_id":"4","last_reported":1691687184,"current_range_meters":26800,"station_id":"ce4bhbh2rcd13ifvqeqg","pricing_plan_id":"free"},{"bike_id":"4aef9558-e594-45ec-ac92-d4a56ac05b5a","system_id":"levelo_inurba_marseille","lat":43.291671,"lon":5.371575,"is_reserved":false,"is_disabled":false,"rental_uris":{"android":"levelo://app?vid=4aef9558-e594-45ec-ac92-d4a56ac05b5a","ios":"levelo://app?vid=4aef9558-e594-45ec-ac92-d4a56ac05b5a"},"vehicle_type_id":"4","last_reported":1691687184,"current_range_meters":29600,"station_id":"ce4bha92rcd13ifvqeh0","pricing_plan_id":"free"},{"bike_id":"197a4daa-afce-41bb-a23c-b05baf306a9f","system_id":"levelo_inurba_marseille","lat":43.291675,"lon":5.371583,"is_reserved":false,"is_disabled":false,"rental_uris":{"android":"levelo://app?vid=197a4daa-afce-41bb-a23c-b05baf306a9f","ios":"levelo://app?vid=197a4daa-afce-41bb-a23c-b05baf306a9f"},"vehicle_type_id":"4","last_reported":1691687184,"current_range_meters":22000,"station_id":"ce4bha92rcd13ifvqeh0","pricing_plan_id":"free"},{"bike_id":"5bd513d9-b18a-4852-8b9e-41dc1491dc29","system_id":"levelo_inurba_marseille","lat":43.309038,"lon":5.396546,"is_reserved":false,"is_disabled":false,"rental_uris":{"android":"levelo://app?vid=5bd513d9-b18a-4852-8b9e-41dc1491dc29","ios":"levelo://app?vid=5bd513d9-b18a-4852-8b9e-41dc1491dc29"},"vehicle_type_id":"4","last_reported":1691687184,"current_range_meters":0,"station_id":"ce4bh012rcd13ifvqcv0","pricing_plan_id":"free"},{"bike_id":"4b59eeb1-7eef-4bc8-9ba2-9c0efaba8aa5","system_id":"levelo_inurba_marseille","lat":43.291948,"lon":5.357972,"is_reserved":false,"is_disabled":false,"rental_uris":{"android":"levelo://app?vid=4b59eeb1-7eef-4bc8-9ba2-9c0efaba8aa5","ios":"levelo://app?vid=4b59eeb1-7eef-4bc8-9ba2-9c0efaba8aa5"},"vehicle_type_id":"4","last_reported":1691687184,"current_range_meters":22400,"station_id":"ce4bhb12rcd13ifvqel0","pricing_plan_id":"free"},{"bike_id":"b4857762-f2a2-4534-b9bf-0feeaa433d30","system_id":"levelo_inurba_marseille","lat":43.31331,"lon":5.39692,"is_reserved":false,"is_disabled":false,"rental_uris":{"android":"levelo://app?vid=b4857762-f2a2-4534-b9bf-0feeaa433d30","ios":"levelo://app?vid=b4857762-f2a2-4534-b9bf-0feeaa433d30"},"vehicle_type_id":"4","last_reported":1691687184,"current_range_meters":17600,"station_id":"ce4bgvp2rcd13ifvqcu0","pricing_plan_id":"free"},{"bike_id":"34293e0a-10ec-435c-a8eb-e34b7dde6e63","system_id":"levelo_inurba_marseille","lat":43.29186,"lon":5.35795,"is_reserved":false,"is_disabled":false,"rental_uris":{"android":"levelo://app?vid=34293e0a-10ec-435c-a8eb-e34b7dde6e63","ios":"levelo://app?vid=34293e0a-10ec-435c-a8eb-e34b7dde6e63"},"vehicle_type_id":"4","last_reported":1691687184,"current_range_meters":22000,"station_id":"ce4bhb12rcd13ifvqel0","pricing_plan_id":"free"},{"bike_id":"c42dcbd7-0e20-4628-b203-172dc790585a","system_id":"levelo_inurba_marseille","lat":43.309038,"lon":5.396546,"is_reserved":false,"is_disabled":false,"rental_uris":{"android":"levelo://app?vid=c42dcbd7-0e20-4628-b203-172dc790585a","ios":"levelo://app?vid=c42dcbd7-0e20-4628-b203-172dc790585a"},"vehicle_type_id":"4","last_reported":1691687184,"current_range_meters":16400,"station_id":"ce4bh012rcd13ifvqcv0","pricing_plan_id":"free"},{"bike_id":"b4da1612-927a-421f-b094-ed233f0e3e8e","system_id":"levelo_inurba_marseille","lat":43.2953,"lon":5.38548,"is_reserved":false,"is_disabled":false,"rental_uris":{"android":"levelo://app?vid=b4da1612-927a-421f-b094-ed233f0e3e8e","ios":"levelo://app?vid=b4da1612-927a-421f-b094-ed233f0e3e8e"},"vehicle_type_id":"4","last_reported":1691687184,"current_range_meters":2800,"station_id":"ce4bgih2rcd13ifvqba0","pricing_plan_id":"free"},{"bike_id":"d46768f0-a83e-40fe-abd1-3035084a02fd","system_id":"levelo_inurba_marseille","lat":43.29529,"lon":5.385581,"is_reserved":false,"is_disabled":false,"rental_uris":{"android":"levelo://app?vid=d46768f0-a83e-40fe-abd1-3035084a02fd","ios":"levelo://app?vid=d46768f0-a83e-40fe-abd1-3035084a02fd"},"vehicle_type_id":"4","last_reported":1691687184,"current_range_meters":24000,"station_id":"ce4bgih2rcd13ifvqba0","pricing_plan_id":"free"},{"bike_id":"7ced50fc-577a-49fa-9e84-8ff5a83cf8e2","system_id":"levelo_inurba_marseille","lat":43.290624,"lon":5.359245,"is_reserved":false,"is_disabled":false,"rental_uris":{"android":"levelo://app?vid=7ced50fc-577a-49fa-9e84-8ff5a83cf8e2","ios":"levelo://app?vid=7ced50fc-577a-49fa-9e84-8ff5a83cf8e2"},"vehicle_type_id":"4","last_reported":1691687184,"current_range_meters":6000,"station_id":"ce4bha92rcd13ifvqeg0","pricing_plan_id":"free"},{"bike_id":"3aec99a5-b12e-476f-afcb-ca7f69519412","system_id":"levelo_inurba_marseille","lat":43.290327,"lon":5.375711,"is_reserved":false,"is_disabled":false,"rental_uris":{"android":"levelo://app?vid=3aec99a5-b12e-476f-afcb-ca7f69519412","ios":"levelo://app?vid=3aec99a5-b12e-476f-afcb-ca7f69519412"},"vehicle_type_id":"4","last_reported":1691687184,"current_range_meters":10000,"station_id":"ce4bh692rcd13ifvqe90","pricing_plan_id":"free"},{"bike_id":"0c1befaa-b585-4b29-b3b7-da915ca4c842","system_id":"levelo_inurba_marseille","lat":43.294153,"lon":5.386305,"is_reserved":false,"is_disabled":false,"rental_uris":{"android":"levelo://app?vid=0c1befaa-b585-4b29-b3b7-da915ca4c842","ios":"levelo://app?vid=0c1befaa-b585-4b29-b3b7-da915ca4c842"},"vehicle_type_id":"4","last_reported":1691687184,"current_range_meters":6800,"station_id":"ce4bh2h2rcd13ifvqdh0","pricing_plan_id":"free"},{"bike_id":"6c046a00-4d7b-44ef-903d-a0a07435bbb1","system_id":"levelo_inurba_marseille","lat":43.28941,"lon":5.36636,"is_reserved":false,"is_disabled":false,"rental_uris":{"android":"levelo://app?vid=6c046a00-4d7b-44ef-903d-a0a07435bbb1","ios":"levelo://app?vid=6c046a00-4d7b-44ef-903d-a0a07435bbb1"},"vehicle_type_id":"4","last_reported":1691687184,"current_range_meters":11600,"station_id":"","pricing_plan_id":"free"},{"bike_id":"e7b9fb4c-39d1-4146-b889-14524297b63b","system_id":"levelo_inurba_marseille","lat":43.289184,"lon":5.366408,"is_reserved":false,"is_disabled":false,"rental_uris":{"android":"levelo://app?vid=e7b9fb4c-39d1-4146-b889-14524297b63b","ios":"levelo://app?vid=e7b9fb4c-39d1-4146-b889-14524297b63b"},"vehicle_type_id":"4","last_reported":1691687184,"current_range_meters":16400,"station_id":"ce4bhap2rcd13ifvqek0","pricing_plan_id":"free"},{"bike_id":"ba6f8a51-b10b-41db-995f-d49fcacacce5","system_id":"levelo_inurba_marseille","lat":43.289184,"lon":5.366408,"is_reserved":false,"is_disabled":false,"rental_uris":{"android":"levelo://app?vid=ba6f8a51-b10b-41db-995f-d49fcacacce5","ios":"levelo://app?vid=ba6f8a51-b10b-41db-995f-d49fcacacce5"},"vehicle_type_id":"4","last_reported":1691687184,"current_range_meters":26000,"station_id":"ce4bhap2rcd13ifvqek0","pricing_plan_id":"free"},{"bike_id":"95c8405d-68d1-4c59-9040-f04131646943","system_id":"levelo_inurba_marseille","lat":43.289184,"lon":5.366408,"is_reserved":false,"is_disabled":false,"rental_uris":{"android":"levelo://app?vid=95c8405d-68d1-4c59-9040-f04131646943","ios":"levelo://app?vid=95c8405d-68d1-4c59-9040-f04131646943"},"vehicle_type_id":"4","last_reported":1691687184,"current_range_meters":22000,"station_id":"ce4bhap2rcd13ifvqek0","pricing_plan_id":"free"},{"bike_id":"0e7b6680-fbc3-42ff-81b0-3eacb9a92565","system_id":"levelo_inurba_marseille","lat":43.28941,"lon":5.36381,"is_reserved":false,"is_disabled":false,"rental_uris":{"android":"levelo://app?vid=0e7b6680-fbc3-42ff-81b0-3eacb9a92565","ios":"levelo://app?vid=0e7b6680-fbc3-42ff-81b0-3eacb9a92565"},"vehicle_type_id":"4","last_reported":1691687184,"current_range_meters":26800,"station_id":"ce4bhc92rcd13ifvqetg","pricing_plan_id":"free"},{"bike_id":"6fd6a8ea-dcba-41d9-94da-ef467ff696a9","system_id":"levelo_inurba_marseille","lat":43.289468,"lon":5.363719,"is_reserved":false,"is_disabled":false,"rental_uris":{"android":"levelo://app?vid=6fd6a8ea-dcba-41d9-94da-ef467ff696a9","ios":"levelo://app?vid=6fd6a8ea-dcba-41d9-94da-ef467ff696a9"},"vehicle_type_id":"4","last_reported":1691687184,"current_range_meters":5200,"station_id":"ce4bhc92rcd13ifvqetg","pricing_plan_id":"free"},{"bike_id":"0b4f9564-f9f7-4727-99e5-faec45161c81","system_id":"levelo_inurba_marseille","lat":43.28935,"lon":5.36397,"is_reserved":false,"is_disabled":false,"rental_uris":{"android":"levelo://app?vid=0b4f9564-f9f7-4727-99e5-faec45161c81","ios":"levelo://app?vid=0b4f9564-f9f7-4727-99e5-faec45161c81"},"vehicle_type_id":"4","last_reported":1691687184,"current_range_meters":7600,"station_id":"ce4bhc92rcd13ifvqetg","pricing_plan_id":"free"},{"bike_id":"66865473-f6e1-4e2f-8574-218d6d3c6031","system_id":"levelo_inurba_marseille","lat":43.289468,"lon":5.363719,"is_reserved":false,"is_disabled":false,"rental_uris":{"android":"levelo://app?vid=66865473-f6e1-4e2f-8574-218d6d3c6031","ios":"levelo://app?vid=66865473-f6e1-4e2f-8574-218d6d3c6031"},"vehicle_type_id":"4","last_reported":1691687184,"current_range_meters":26000,"station_id":"ce4bhc92rcd13ifvqetg","pricing_plan_id":"free"},{"bike_id":"eda96265-890c-4cd2-8c6b-68022d0413ec","system_id":"levelo_inurba_marseille","lat":43.29041,"lon":5.399634,"is_reserved":false,"is_disabled":false,"rental_uris":{"android":"levelo://app?vid=eda96265-890c-4cd2-8c6b-68022d0413ec","ios":"levelo://app?vid=eda96265-890c-4cd2-8c6b-68022d0413ec"},"vehicle_type_id":"4","last_reported":1691687184,"current_range_meters":6000,"station_id":"ce4bh392rcd13ifvqdm0","pricing_plan_id":"free"},{"bike_id":"6b92e0bb-6016-4253-a99b-b05d889b4528","system_id":"levelo_inurba_marseille","lat":43.292644,"lon":5.384257,"is_reserved":false,"is_disabled":false,"rental_uris":{"android":"levelo://app?vid=6b92e0bb-6016-4253-a99b-b05d889b4528","ios":"levelo://app?vid=6b92e0bb-6016-4253-a99b-b05d889b4528"},"vehicle_type_id":"4","last_reported":1691687184,"current_range_meters":19200,"station_id":"ce4bh692rcd13ifvqea0","pricing_plan_id":"free"},{"bike_id":"1ccdd62c-06de-4b16-83fb-5b95558b8d82","system_id":"levelo_inurba_marseille","lat":43.292642,"lon":5.384254,"is_reserved":false,"is_disabled":false,"rental_uris":{"android":"levelo://app?vid=1ccdd62c-06de-4b16-83fb-5b95558b8d82","ios":"levelo://app?vid=1ccdd62c-06de-4b16-83fb-5b95558b8d82"},"vehicle_type_id":"4","last_reported":1691687184,"current_range_meters":2400,"station_id":"ce4bh692rcd13ifvqea0","pricing_plan_id":"free"},{"bike_id":"2f3c64c1-46d7-4fc1-8bc5-0ca094364a94","system_id":"levelo_inurba_marseille","lat":43.292644,"lon":5.384257,"is_reserved":false,"is_disabled":false,"rental_uris":{"android":"levelo://app?vid=2f3c64c1-46d7-4fc1-8bc5-0ca094364a94","ios":"levelo://app?vid=2f3c64c1-46d7-4fc1-8bc5-0ca094364a94"},"vehicle_type_id":"4","last_reported":1691687184,"current_range_meters":3600,"station_id":"ce4bh692rcd13ifvqea0","pricing_plan_id":"free"},{"bike_id":"6f434b4f-1c0b-4485-8b71-d1060d9c630d","system_id":"levelo_inurba_marseille","lat":43.30423,"lon":5.39747,"is_reserved":false,"is_disabled":false,"rental_uris":{"android":"levelo://app?vid=6f434b4f-1c0b-4485-8b71-d1060d9c630d","ios":"levelo://app?vid=6f434b4f-1c0b-4485-8b71-d1060d9c630d"},"vehicle_type_id":"4","last_reported":1691687184,"current_range_meters":30000,"station_id":"","pricing_plan_id":"free"},{"bike_id":"31a65195-7092-4248-aafb-0453a45b4745","system_id":"levelo_inurba_marseille","lat":43.292642,"lon":5.384254,"is_reserved":false,"is_disabled":false,"rental_uris":{"android":"levelo://app?vid=31a65195-7092-4248-aafb-0453a45b4745","ios":"levelo://app?vid=31a65195-7092-4248-aafb-0453a45b4745"},"vehicle_type_id":"4","last_reported":1691687184,"current_range_meters":20400,"station_id":"ce4bh692rcd13ifvqea0","pricing_plan_id":"free"},{"bike_id":"aa26ec3f-a23b-4089-a5b5-c37c0c9476cf","system_id":"levelo_inurba_marseille","lat":43.292644,"lon":5.384257,"is_reserved":false,"is_disabled":false,"rental_uris":{"android":"levelo://app?vid=aa26ec3f-a23b-4089-a5b5-c37c0c9476cf","ios":"levelo://app?vid=aa26ec3f-a23b-4089-a5b5-c37c0c9476cf"},"vehicle_type_id":"4","last_reported":1691687184,"current_range_meters":29600,"station_id":"ce4bh692rcd13ifvqea0","pricing_plan_id":"free"},{"bike_id":"350e124f-9ae0-43e1-9caa-a83af74adc33","system_id":"levelo_inurba_marseille","lat":43.330357,"lon":5.38912,"is_reserved":false,"is_disabled":false,"rental_uris":{"android":"levelo://app?vid=350e124f-9ae0-43e1-9caa-a83af74adc33","ios":"levelo://app?vid=350e124f-9ae0-43e1-9caa-a83af74adc33"},"vehicle_type_id":"4","last_reported":1691687184,"current_range_meters":20400,"station_id":"","pricing_plan_id":"free"},{"bike_id":"8b79ef23-6770-4e0f-a891-3a9b921780ba","system_id":"levelo_inurba_marseille","lat":43.290111,"lon":5.356203,"is_reserved":false,"is_disabled":false,"rental_uris":{"android":"levelo://app?vid=8b79ef23-6770-4e0f-a891-3a9b921780ba","ios":"levelo://app?vid=8b79ef23-6770-4e0f-a891-3a9b921780ba"},"vehicle_type_id":"4","last_reported":1691687184,"current_range_meters":26400,"station_id":"ce4bhb92rcd13ifvqen0","pricing_plan_id":"free"},{"bike_id":"eb6d6ace-3c38-4856-b527-85eeee1e9f16","system_id":"levelo_inurba_marseille","lat":43.29012,"lon":5.35607,"is_reserved":false,"is_disabled":false,"rental_uris":{"android":"levelo://app?vid=eb6d6ace-3c38-4856-b527-85eeee1e9f16","ios":"levelo://app?vid=eb6d6ace-3c38-4856-b527-85eeee1e9f16"},"vehicle_type_id":"4","last_reported":1691687184,"current_range_meters":10800,"station_id":"ce4bhb92rcd13ifvqen0","pricing_plan_id":"free"},{"bike_id":"0fee5965-6fa3-41ed-94fd-e212550bf080","system_id":"levelo_inurba_marseille","lat":43.33043,"lon":5.38914,"is_reserved":false,"is_disabled":false,"rental_uris":{"android":"levelo://app?vid=0fee5965-6fa3-41ed-94fd-e212550bf080","ios":"levelo://app?vid=0fee5965-6fa3-41ed-94fd-e212550bf080"},"vehicle_type_id":"4","last_reported":1691687184,"current_range_meters":18800,"station_id":"ce4bhr92rcd13ifvqhrg","pricing_plan_id":"free"},{"bike_id":"e1ba2342-5cd1-4783-b75c-011209b60996","system_id":"levelo_inurba_marseille","lat":43.33044,"lon":5.38913,"is_reserved":false,"is_disabled":false,"rental_uris":{"android":"levelo://app?vid=e1ba2342-5cd1-4783-b75c-011209b60996","ios":"levelo://app?vid=e1ba2342-5cd1-4783-b75c-011209b60996"},"vehicle_type_id":"4","last_reported":1691687184,"current_range_meters":22400,"station_id":"ce4bhr92rcd13ifvqhrg","pricing_plan_id":"free"},{"bike_id":"4c6c8599-260a-40af-809e-680a0575fb10","system_id":"levelo_inurba_marseille","lat":43.33046,"lon":5.38913,"is_reserved":false,"is_disabled":false,"rental_uris":{"android":"levelo://app?vid=4c6c8599-260a-40af-809e-680a0575fb10","ios":"levelo://app?vid=4c6c8599-260a-40af-809e-680a0575fb10"},"vehicle_type_id":"4","last_reported":1691687184,"current_range_meters":10800,"station_id":"ce4bhr92rcd13ifvqhrg","pricing_plan_id":"free"},{"bike_id":"e36b388a-2794-4834-8956-4774abbe5ce2","system_id":"levelo_inurba_marseille","lat":43.29009,"lon":5.35611,"is_reserved":false,"is_disabled":false,"rental_uris":{"android":"levelo://app?vid=e36b388a-2794-4834-8956-4774abbe5ce2","ios":"levelo://app?vid=e36b388a-2794-4834-8956-4774abbe5ce2"},"vehicle_type_id":"4","last_reported":1691687184,"current_range_meters":400,"station_id":"ce4bhb92rcd13ifvqen0","pricing_plan_id":"free"},{"bike_id":"4469df7e-247b-4ca6-b4e4-4233cc4953c7","system_id":"levelo_inurba_marseille","lat":43.29009,"lon":5.356105,"is_reserved":false,"is_disabled":false,"rental_uris":{"android":"levelo://app?vid=4469df7e-247b-4ca6-b4e4-4233cc4953c7","ios":"levelo://app?vid=4469df7e-247b-4ca6-b4e4-4233cc4953c7"},"vehicle_type_id":"4","last_reported":1691687184,"current_range_meters":30000,"station_id":"ce4bhb92rcd13ifvqen0","pricing_plan_id":"free"},{"bike_id":"865a6602-8ee2-43b8-9064-a3d1d62c8758","system_id":"levelo_inurba_marseille","lat":43.29009,"lon":5.3561,"is_reserved":false,"is_disabled":false,"rental_uris":{"android":"levelo://app?vid=865a6602-8ee2-43b8-9064-a3d1d62c8758","ios":"levelo://app?vid=865a6602-8ee2-43b8-9064-a3d1d62c8758"},"vehicle_type_id":"4","last_reported":1691687184,"current_range_meters":8800,"station_id":"ce4bhb92rcd13ifvqen0","pricing_plan_id":"free"},{"bike_id":"5e92fafc-e349-4e41-a322-cf7bd93ef45a","system_id":"levelo_inurba_marseille","lat":43.33046,"lon":5.38914,"is_reserved":false,"is_disabled":false,"rental_uris":{"android":"levelo://app?vid=5e92fafc-e349-4e41-a322-cf7bd93ef45a","ios":"levelo://app?vid=5e92fafc-e349-4e41-a322-cf7bd93ef45a"},"vehicle_type_id":"4","last_reported":1691687184,"current_range_meters":14400,"station_id":"ce4bhr92rcd13ifvqhrg","pricing_plan_id":"free"},{"bike_id":"4d75e4eb-ad99-45ef-9f3e-00a895686f3a","system_id":"levelo_inurba_marseille","lat":43.290104,"lon":5.356111,"is_reserved":false,"is_disabled":false,"rental_uris":{"android":"levelo://app?vid=4d75e4eb-ad99-45ef-9f3e-00a895686f3a","ios":"levelo://app?vid=4d75e4eb-ad99-45ef-9f3e-00a895686f3a"},"vehicle_type_id":"4","last_reported":1691687184,"current_range_meters":24400,"station_id":"ce4bhb92rcd13ifvqen0","pricing_plan_id":"free"},{"bike_id":"7b78d55e-e99c-4fa7-968a-c672d6912f00","system_id":"levelo_inurba_marseille","lat":43.29006,"lon":5.35603,"is_reserved":false,"is_disabled":false,"rental_uris":{"android":"levelo://app?vid=7b78d55e-e99c-4fa7-968a-c672d6912f00","ios":"levelo://app?vid=7b78d55e-e99c-4fa7-968a-c672d6912f00"},"vehicle_type_id":"4","last_reported":1691687184,"current_range_meters":31200,"station_id":"ce4bhb92rcd13ifvqen0","pricing_plan_id":"free"},{"bike_id":"d92191b5-3897-428d-989c-4b986c7a7e64","system_id":"levelo_inurba_marseille","lat":43.29003,"lon":5.3561,"is_reserved":false,"is_disabled":false,"rental_uris":{"android":"levelo://app?vid=d92191b5-3897-428d-989c-4b986c7a7e64","ios":"levelo://app?vid=d92191b5-3897-428d-989c-4b986c7a7e64"},"vehicle_type_id":"4","last_reported":1691687184,"current_range_meters":27200,"station_id":"ce4bhb92rcd13ifvqen0","pricing_plan_id":"free"},{"bike_id":"444d014a-80f2-4450-b6e3-05c33793397e","system_id":"levelo_inurba_marseille","lat":43.290104,"lon":5.356111,"is_reserved":false,"is_disabled":false,"rental_uris":{"android":"levelo://app?vid=444d014a-80f2-4450-b6e3-05c33793397e","ios":"levelo://app?vid=444d014a-80f2-4450-b6e3-05c33793397e"},"vehicle_type_id":"4","last_reported":1691687184,"current_range_meters":28800,"station_id":"ce4bhb92rcd13ifvqen0","pricing_plan_id":"free"},{"bike_id":"05751229-b3b5-4f3d-8a10-9b1b8fa64b70","system_id":"levelo_inurba_marseille","lat":43.28884,"lon":5.36057,"is_reserved":false,"is_disabled":false,"rental_uris":{"android":"levelo://app?vid=05751229-b3b5-4f3d-8a10-9b1b8fa64b70","ios":"levelo://app?vid=05751229-b3b5-4f3d-8a10-9b1b8fa64b70"},"vehicle_type_id":"4","last_reported":1691687184,"current_range_meters":4000,"station_id":"","pricing_plan_id":"free"},{"bike_id":"840b082e-849d-4469-a43f-2cfe83b0b0ff","system_id":"levelo_inurba_marseille","lat":43.29774,"lon":5.39338,"is_reserved":false,"is_disabled":false,"rental_uris":{"android":"levelo://app?vid=840b082e-849d-4469-a43f-2cfe83b0b0ff","ios":"levelo://app?vid=840b082e-849d-4469-a43f-2cfe83b0b0ff"},"vehicle_type_id":"4","last_reported":1691687184,"current_range_meters":0,"station_id":"chh1huq6cuj3fo74tm60","pricing_plan_id":"free"},{"bike_id":"d264d3ff-ae1a-47b7-a22a-c49c71f07388","system_id":"levelo_inurba_marseille","lat":43.295169,"lon":5.390426,"is_reserved":false,"is_disabled":false,"rental_uris":{"android":"levelo://app?vid=d264d3ff-ae1a-47b7-a22a-c49c71f07388","ios":"levelo://app?vid=d264d3ff-ae1a-47b7-a22a-c49c71f07388"},"vehicle_type_id":"4","last_reported":1691687184,"current_range_meters":1600,"station_id":"ce4bh3p2rcd13ifvqdp0","pricing_plan_id":"free"},{"bike_id":"7a9a3272-0b5b-457d-9a9e-f9def184fcb1","system_id":"levelo_inurba_marseille","lat":43.29028,"lon":5.38141,"is_reserved":false,"is_disabled":false,"rental_uris":{"android":"levelo://app?vid=7a9a3272-0b5b-457d-9a9e-f9def184fcb1","ios":"levelo://app?vid=7a9a3272-0b5b-457d-9a9e-f9def184fcb1"},"vehicle_type_id":"4","last_reported":1691687184,"current_range_meters":0,"station_id":"ce4bh4p2rcd13ifvqe1g","pricing_plan_id":"free"},{"bike_id":"372112c5-18cb-4954-983f-733681690369","system_id":"levelo_inurba_marseille","lat":43.28856,"lon":5.358371,"is_reserved":false,"is_disabled":false,"rental_uris":{"android":"levelo://app?vid=372112c5-18cb-4954-983f-733681690369","ios":"levelo://app?vid=372112c5-18cb-4954-983f-733681690369"},"vehicle_type_id":"4","last_reported":1691687184,"current_range_meters":22000,"station_id":"ce4bhb12rcd13ifvqem0","pricing_plan_id":"free"},{"bike_id":"e07999dc-08e0-48ff-8b84-68ab27475ddd","system_id":"levelo_inurba_marseille","lat":43.29018,"lon":5.38134,"is_reserved":false,"is_disabled":false,"rental_uris":{"android":"levelo://app?vid=e07999dc-08e0-48ff-8b84-68ab27475ddd","ios":"levelo://app?vid=e07999dc-08e0-48ff-8b84-68ab27475ddd"},"vehicle_type_id":"4","last_reported":1691687184,"current_range_meters":6400,"station_id":"ce4bh4p2rcd13ifvqe1g","pricing_plan_id":"free"},{"bike_id":"589ef921-bb5c-42b2-a0cc-21fa4fff7709","system_id":"levelo_inurba_marseille","lat":43.28856,"lon":5.358371,"is_reserved":false,"is_disabled":false,"rental_uris":{"android":"levelo://app?vid=589ef921-bb5c-42b2-a0cc-21fa4fff7709","ios":"levelo://app?vid=589ef921-bb5c-42b2-a0cc-21fa4fff7709"},"vehicle_type_id":"4","last_reported":1691687184,"current_range_meters":26400,"station_id":"ce4bhb12rcd13ifvqem0","pricing_plan_id":"free"},{"bike_id":"ce3cc56d-bb4d-4f74-ba17-5d0128a52cd8","system_id":"levelo_inurba_marseille","lat":43.28856,"lon":5.358371,"is_reserved":false,"is_disabled":false,"rental_uris":{"android":"levelo://app?vid=ce3cc56d-bb4d-4f74-ba17-5d0128a52cd8","ios":"levelo://app?vid=ce3cc56d-bb4d-4f74-ba17-5d0128a52cd8"},"vehicle_type_id":"4","last_reported":1691687184,"current_range_meters":10000,"station_id":"ce4bhb12rcd13ifvqem0","pricing_plan_id":"free"},{"bike_id":"3faf2d2f-7519-4ece-b0d0-f557d7a437ae","system_id":"levelo_inurba_marseille","lat":43.28856,"lon":5.358371,"is_reserved":false,"is_disabled":false,"rental_uris":{"android":"levelo://app?vid=3faf2d2f-7519-4ece-b0d0-f557d7a437ae","ios":"levelo://app?vid=3faf2d2f-7519-4ece-b0d0-f557d7a437ae"},"vehicle_type_id":"4","last_reported":1691687184,"current_range_meters":12400,"station_id":"ce4bhb12rcd13ifvqem0","pricing_plan_id":"free"},{"bike_id":"01d245f1-3b55-4abd-9c99-9da551a489bf","system_id":"levelo_inurba_marseille","lat":43.28846,"lon":5.3585,"is_reserved":false,"is_disabled":false,"rental_uris":{"android":"levelo://app?vid=01d245f1-3b55-4abd-9c99-9da551a489bf","ios":"levelo://app?vid=01d245f1-3b55-4abd-9c99-9da551a489bf"},"vehicle_type_id":"4","last_reported":1691687184,"current_range_meters":12000,"station_id":"","pricing_plan_id":"free"},{"bike_id":"03bff3f4-a669-4855-9a0f-829654bd11f3","system_id":"levelo_inurba_marseille","lat":43.309371,"lon":5.401449,"is_reserved":false,"is_disabled":false,"rental_uris":{"android":"levelo://app?vid=03bff3f4-a669-4855-9a0f-829654bd11f3","ios":"levelo://app?vid=03bff3f4-a669-4855-9a0f-829654bd11f3"},"vehicle_type_id":"4","last_reported":1691687184,"current_range_meters":14800,"station_id":"ce4bgvp2rcd13ifvqct0","pricing_plan_id":"free"},{"bike_id":"5034fcde-7d9d-4604-b65c-1426ed467658","system_id":"levelo_inurba_marseille","lat":43.30951,"lon":5.40133,"is_reserved":false,"is_disabled":false,"rental_uris":{"android":"levelo://app?vid=5034fcde-7d9d-4604-b65c-1426ed467658","ios":"levelo://app?vid=5034fcde-7d9d-4604-b65c-1426ed467658"},"vehicle_type_id":"4","last_reported":1691687184,"current_range_meters":14000,"station_id":"ce4bgvp2rcd13ifvqct0","pricing_plan_id":"free"},{"bike_id":"28d13c55-4291-4762-918c-3b7311502c37","system_id":"levelo_inurba_marseille","lat":43.30642,"lon":5.401031,"is_reserved":false,"is_disabled":false,"rental_uris":{"android":"levelo://app?vid=28d13c55-4291-4762-918c-3b7311502c37","ios":"levelo://app?vid=28d13c55-4291-4762-918c-3b7311502c37"},"vehicle_type_id":"4","last_reported":1691687184,"current_range_meters":12000,"station_id":"ce4bh112rcd13ifvqda0","pricing_plan_id":"free"},{"bike_id":"b1671bb2-164b-4af2-b30c-b22c3210a79e","system_id":"levelo_inurba_marseille","lat":43.312609,"lon":5.401662,"is_reserved":false,"is_disabled":false,"rental_uris":{"android":"levelo://app?vid=b1671bb2-164b-4af2-b30c-b22c3210a79e","ios":"levelo://app?vid=b1671bb2-164b-4af2-b30c-b22c3210a79e"},"vehicle_type_id":"4","last_reported":1691687184,"current_range_meters":11200,"station_id":"ce4bh092rcd13ifvqd30","pricing_plan_id":"free"},{"bike_id":"f47763d5-00bd-47cc-b398-567564a2faaa","system_id":"levelo_inurba_marseille","lat":43.30942,"lon":5.40142,"is_reserved":false,"is_disabled":false,"rental_uris":{"android":"levelo://app?vid=f47763d5-00bd-47cc-b398-567564a2faaa","ios":"levelo://app?vid=f47763d5-00bd-47cc-b398-567564a2faaa"},"vehicle_type_id":"4","last_reported":1691687184,"current_range_meters":14800,"station_id":"ce4bgvp2rcd13ifvqct0","pricing_plan_id":"free"},{"bike_id":"ed49606e-78c8-47f0-963a-10c40cf1c774","system_id":"levelo_inurba_marseille","lat":43.309371,"lon":5.401449,"is_reserved":false,"is_disabled":false,"rental_uris":{"android":"levelo://app?vid=ed49606e-78c8-47f0-963a-10c40cf1c774","ios":"levelo://app?vid=ed49606e-78c8-47f0-963a-10c40cf1c774"},"vehicle_type_id":"4","last_reported":1691687184,"current_range_meters":0,"station_id":"ce4bgvp2rcd13ifvqct0","pricing_plan_id":"free"},{"bike_id":"94bcd71b-942e-48ed-b8b3-f337cdb50842","system_id":"levelo_inurba_marseille","lat":43.33745,"lon":5.37462,"is_reserved":false,"is_disabled":false,"rental_uris":{"android":"levelo://app?vid=94bcd71b-942e-48ed-b8b3-f337cdb50842","ios":"levelo://app?vid=94bcd71b-942e-48ed-b8b3-f337cdb50842"},"vehicle_type_id":"4","last_reported":1691687184,"current_range_meters":24400,"station_id":"","pricing_plan_id":"free"},{"bike_id":"de5bbb78-03db-4bf6-8387-6fefebbdfd89","system_id":"levelo_inurba_marseille","lat":43.309371,"lon":5.401449,"is_reserved":false,"is_disabled":false,"rental_uris":{"android":"levelo://app?vid=de5bbb78-03db-4bf6-8387-6fefebbdfd89","ios":"levelo://app?vid=de5bbb78-03db-4bf6-8387-6fefebbdfd89"},"vehicle_type_id":"4","last_reported":1691687184,"current_range_meters":0,"station_id":"ce4bgvp2rcd13ifvqct0","pricing_plan_id":"free"},{"bike_id":"55c0f65a-0f66-484d-9df9-5434dd0ca22f","system_id":"levelo_inurba_marseille","lat":43.33747,"lon":5.37462,"is_reserved":false,"is_disabled":false,"rental_uris":{"android":"levelo://app?vid=55c0f65a-0f66-484d-9df9-5434dd0ca22f","ios":"levelo://app?vid=55c0f65a-0f66-484d-9df9-5434dd0ca22f"},"vehicle_type_id":"4","last_reported":1691687184,"current_range_meters":22800,"station_id":"","pricing_plan_id":"free"},{"bike_id":"587f2a5e-97aa-4562-ad3a-7a9ad8b5b318","system_id":"levelo_inurba_marseille","lat":43.33755,"lon":5.37463,"is_reserved":false,"is_disabled":false,"rental_uris":{"android":"levelo://app?vid=587f2a5e-97aa-4562-ad3a-7a9ad8b5b318","ios":"levelo://app?vid=587f2a5e-97aa-4562-ad3a-7a9ad8b5b318"},"vehicle_type_id":"4","last_reported":1691687184,"current_range_meters":25200,"station_id":"","pricing_plan_id":"free"},{"bike_id":"b3b16b8c-38cc-4310-af08-3c8ec2196726","system_id":"levelo_inurba_marseille","lat":43.33768,"lon":5.37428,"is_reserved":false,"is_disabled":false,"rental_uris":{"android":"levelo://app?vid=b3b16b8c-38cc-4310-af08-3c8ec2196726","ios":"levelo://app?vid=b3b16b8c-38cc-4310-af08-3c8ec2196726"},"vehicle_type_id":"4","last_reported":1691687184,"current_range_meters":26800,"station_id":"","pricing_plan_id":"free"},{"bike_id":"2f27f2d7-e95f-4bf2-b9dc-f517cd0ceace","system_id":"levelo_inurba_marseille","lat":43.30642,"lon":5.401031,"is_reserved":false,"is_disabled":false,"rental_uris":{"android":"levelo://app?vid=2f27f2d7-e95f-4bf2-b9dc-f517cd0ceace","ios":"levelo://app?vid=2f27f2d7-e95f-4bf2-b9dc-f517cd0ceace"},"vehicle_type_id":"4","last_reported":1691687184,"current_range_meters":4400,"station_id":"ce4bh112rcd13ifvqda0","pricing_plan_id":"free"},{"bike_id":"ab49be18-9af4-4840-b8c0-bae68d675b3c","system_id":"levelo_inurba_marseille","lat":43.301117,"lon":5.398795,"is_reserved":false,"is_disabled":false,"rental_uris":{"android":"levelo://app?vid=ab49be18-9af4-4840-b8c0-bae68d675b3c","ios":"levelo://app?vid=ab49be18-9af4-4840-b8c0-bae68d675b3c"},"vehicle_type_id":"4","last_reported":1691687184,"current_range_meters":30400,"station_id":"ce4bh0h2rcd13ifvqd40","pricing_plan_id":"free"},{"bike_id":"915f802e-f31b-4c71-8de0-2a5fc39e5970","system_id":"levelo_inurba_marseille","lat":43.32994,"lon":5.39403,"is_reserved":false,"is_disabled":false,"rental_uris":{"android":"levelo://app?vid=915f802e-f31b-4c71-8de0-2a5fc39e5970","ios":"levelo://app?vid=915f802e-f31b-4c71-8de0-2a5fc39e5970"},"vehicle_type_id":"4","last_reported":1691687184,"current_range_meters":10400,"station_id":"","pricing_plan_id":"free"},{"bike_id":"27f0d16f-6e64-4981-aa95-5a94fa1f4767","system_id":"levelo_inurba_marseille","lat":43.298681,"lon":5.397225,"is_reserved":false,"is_disabled":false,"rental_uris":{"android":"levelo://app?vid=27f0d16f-6e64-4981-aa95-5a94fa1f4767","ios":"levelo://app?vid=27f0d16f-6e64-4981-aa95-5a94fa1f4767"},"vehicle_type_id":"4","last_reported":1691687184,"current_range_meters":0,"station_id":"ce4bh0h2rcd13ifvqd50","pricing_plan_id":"free"},{"bike_id":"0bdab33e-457a-41da-a862-d8f6da7516f4","system_id":"levelo_inurba_marseille","lat":43.286591,"lon":5.363346,"is_reserved":false,"is_disabled":false,"rental_uris":{"android":"levelo://app?vid=0bdab33e-457a-41da-a862-d8f6da7516f4","ios":"levelo://app?vid=0bdab33e-457a-41da-a862-d8f6da7516f4"},"vehicle_type_id":"4","last_reported":1691687184,"current_range_meters":30400,"station_id":"ce4bhah2rcd13ifvqej0","pricing_plan_id":"free"},{"bike_id":"2c3df343-bc1c-4eb8-b5f5-75a560bc4a09","system_id":"levelo_inurba_marseille","lat":43.29876,"lon":5.3974,"is_reserved":false,"is_disabled":false,"rental_uris":{"android":"levelo://app?vid=2c3df343-bc1c-4eb8-b5f5-75a560bc4a09","ios":"levelo://app?vid=2c3df343-bc1c-4eb8-b5f5-75a560bc4a09"},"vehicle_type_id":"4","last_reported":1691687184,"current_range_meters":31200,"station_id":"ce4bh0h2rcd13ifvqd50","pricing_plan_id":"free"},{"bike_id":"15cc41ac-8645-47db-b911-1ac4148012a5","system_id":"levelo_inurba_marseille","lat":43.286642,"lon":5.363511,"is_reserved":false,"is_disabled":false,"rental_uris":{"android":"levelo://app?vid=15cc41ac-8645-47db-b911-1ac4148012a5","ios":"levelo://app?vid=15cc41ac-8645-47db-b911-1ac4148012a5"},"vehicle_type_id":"4","last_reported":1691687184,"current_range_meters":3600,"station_id":"","pricing_plan_id":"free"},{"bike_id":"e9e99643-39c7-43ca-9378-4e5599c96f69","system_id":"levelo_inurba_marseille","lat":43.286591,"lon":5.363346,"is_reserved":false,"is_disabled":false,"rental_uris":{"android":"levelo://app?vid=e9e99643-39c7-43ca-9378-4e5599c96f69","ios":"levelo://app?vid=e9e99643-39c7-43ca-9378-4e5599c96f69"},"vehicle_type_id":"4","last_reported":1691687184,"current_range_meters":18800,"station_id":"ce4bhah2rcd13ifvqej0","pricing_plan_id":"free"},{"bike_id":"889e1ab5-917f-4b92-b1c8-e5a651d39857","system_id":"levelo_inurba_marseille","lat":43.286591,"lon":5.363346,"is_reserved":false,"is_disabled":false,"rental_uris":{"android":"levelo://app?vid=889e1ab5-917f-4b92-b1c8-e5a651d39857","ios":"levelo://app?vid=889e1ab5-917f-4b92-b1c8-e5a651d39857"},"vehicle_type_id":"4","last_reported":1691687184,"current_range_meters":12000,"station_id":"ce4bhah2rcd13ifvqej0","pricing_plan_id":"free"},{"bike_id":"5e197c86-d16a-4635-9d5c-dbb6f06888e6","system_id":"levelo_inurba_marseille","lat":43.286593,"lon":5.363346,"is_reserved":false,"is_disabled":false,"rental_uris":{"android":"levelo://app?vid=5e197c86-d16a-4635-9d5c-dbb6f06888e6","ios":"levelo://app?vid=5e197c86-d16a-4635-9d5c-dbb6f06888e6"},"vehicle_type_id":"4","last_reported":1691687184,"current_range_meters":10400,"station_id":"ce4bhah2rcd13ifvqej0","pricing_plan_id":"free"},{"bike_id":"e6fca172-af6a-430e-9697-6e348cb7eb7a","system_id":"levelo_inurba_marseille","lat":43.286593,"lon":5.363346,"is_reserved":false,"is_disabled":false,"rental_uris":{"android":"levelo://app?vid=e6fca172-af6a-430e-9697-6e348cb7eb7a","ios":"levelo://app?vid=e6fca172-af6a-430e-9697-6e348cb7eb7a"},"vehicle_type_id":"4","last_reported":1691687184,"current_range_meters":4400,"station_id":"ce4bhah2rcd13ifvqej0","pricing_plan_id":"free"},{"bike_id":"11b42816-66f1-4a80-9828-e1ba03e19232","system_id":"levelo_inurba_marseille","lat":43.295196,"lon":5.39397,"is_reserved":false,"is_disabled":false,"rental_uris":{"android":"levelo://app?vid=11b42816-66f1-4a80-9828-e1ba03e19232","ios":"levelo://app?vid=11b42816-66f1-4a80-9828-e1ba03e19232"},"vehicle_type_id":"4","last_reported":1691687184,"current_range_meters":22800,"station_id":"ce4bh292rcd13ifvqdf0","pricing_plan_id":"free"},{"bike_id":"75199276-b705-4ad7-b6a9-49aeaa84628a","system_id":"levelo_inurba_marseille","lat":43.286591,"lon":5.363346,"is_reserved":false,"is_disabled":false,"rental_uris":{"android":"levelo://app?vid=75199276-b705-4ad7-b6a9-49aeaa84628a","ios":"levelo://app?vid=75199276-b705-4ad7-b6a9-49aeaa84628a"},"vehicle_type_id":"4","last_reported":1691687184,"current_range_meters":31600,"station_id":"ce4bhah2rcd13ifvqej0","pricing_plan_id":"free"},{"bike_id":"561c4ef4-4248-4a12-a4b0-f12d72822a17","system_id":"levelo_inurba_marseille","lat":43.286593,"lon":5.363346,"is_reserved":false,"is_disabled":false,"rental_uris":{"android":"levelo://app?vid=561c4ef4-4248-4a12-a4b0-f12d72822a17","ios":"levelo://app?vid=561c4ef4-4248-4a12-a4b0-f12d72822a17"},"vehicle_type_id":"4","last_reported":1691687184,"current_range_meters":20800,"station_id":"ce4bhah2rcd13ifvqej0","pricing_plan_id":"free"},{"bike_id":"a22ed528-74b1-4c42-b4c3-bb6e0fa25ea5","system_id":"levelo_inurba_marseille","lat":43.290336,"lon":5.386425,"is_reserved":false,"is_disabled":false,"rental_uris":{"android":"levelo://app?vid=a22ed528-74b1-4c42-b4c3-bb6e0fa25ea5","ios":"levelo://app?vid=a22ed528-74b1-4c42-b4c3-bb6e0fa25ea5"},"vehicle_type_id":"4","last_reported":1691687184,"current_range_meters":21600,"station_id":"ce4bh4p2rcd13ifvqe0g","pricing_plan_id":"free"},{"bike_id":"29489f0b-e590-48c4-b07b-2881247c1f46","system_id":"levelo_inurba_marseille","lat":43.295713,"lon":5.399639,"is_reserved":false,"is_disabled":false,"rental_uris":{"android":"levelo://app?vid=29489f0b-e590-48c4-b07b-2881247c1f46","ios":"levelo://app?vid=29489f0b-e590-48c4-b07b-2881247c1f46"},"vehicle_type_id":"4","last_reported":1691687184,"current_range_meters":16400,"station_id":"ce4bh312rcd13ifvqdj0","pricing_plan_id":"free"},{"bike_id":"81dd4380-7dfa-4cdb-922a-874c3d35b809","system_id":"levelo_inurba_marseille","lat":43.287185,"lon":5.379373,"is_reserved":false,"is_disabled":false,"rental_uris":{"android":"levelo://app?vid=81dd4380-7dfa-4cdb-922a-874c3d35b809","ios":"levelo://app?vid=81dd4380-7dfa-4cdb-922a-874c3d35b809"},"vehicle_type_id":"4","last_reported":1691687184,"current_range_meters":5200,"station_id":"ce4bh9p2rcd13ifvqec0","pricing_plan_id":"free"},{"bike_id":"491bb127-ab1e-46ab-8fc1-74961a7261a3","system_id":"levelo_inurba_marseille","lat":43.287184,"lon":5.37937,"is_reserved":false,"is_disabled":false,"rental_uris":{"android":"levelo://app?vid=491bb127-ab1e-46ab-8fc1-74961a7261a3","ios":"levelo://app?vid=491bb127-ab1e-46ab-8fc1-74961a7261a3"},"vehicle_type_id":"4","last_reported":1691687184,"current_range_meters":17600,"station_id":"ce4bh9p2rcd13ifvqec0","pricing_plan_id":"free"},{"bike_id":"101c38e9-ca7c-4012-a3b1-cea2481d0a69","system_id":"levelo_inurba_marseille","lat":43.291994,"lon":5.392907,"is_reserved":false,"is_disabled":false,"rental_uris":{"android":"levelo://app?vid=101c38e9-ca7c-4012-a3b1-cea2481d0a69","ios":"levelo://app?vid=101c38e9-ca7c-4012-a3b1-cea2481d0a69"},"vehicle_type_id":"4","last_reported":1691687184,"current_range_meters":3600,"station_id":"ce4bh192rcd13ifvqdd0","pricing_plan_id":"free"},{"bike_id":"967a2ae1-b996-43c4-bca3-e5683e4312e6","system_id":"levelo_inurba_marseille","lat":43.284538,"lon":5.358657,"is_reserved":false,"is_disabled":false,"rental_uris":{"android":"levelo://app?vid=967a2ae1-b996-43c4-bca3-e5683e4312e6","ios":"levelo://app?vid=967a2ae1-b996-43c4-bca3-e5683e4312e6"},"vehicle_type_id":"4","last_reported":1691687184,"current_range_meters":16000,"station_id":"ce4bhah2rcd13ifvqei0","pricing_plan_id":"free"},{"bike_id":"e74e41f7-0937-410f-b964-186044aeea1f","system_id":"levelo_inurba_marseille","lat":43.28465,"lon":5.35891,"is_reserved":false,"is_disabled":false,"rental_uris":{"android":"levelo://app?vid=e74e41f7-0937-410f-b964-186044aeea1f","ios":"levelo://app?vid=e74e41f7-0937-410f-b964-186044aeea1f"},"vehicle_type_id":"4","last_reported":1691687184,"current_range_meters":9600,"station_id":"ce4bhah2rcd13ifvqei0","pricing_plan_id":"free"},{"bike_id":"b57696fb-b5b7-4b24-905e-680e88d66735","system_id":"levelo_inurba_marseille","lat":43.284538,"lon":5.358657,"is_reserved":false,"is_disabled":false,"rental_uris":{"android":"levelo://app?vid=b57696fb-b5b7-4b24-905e-680e88d66735","ios":"levelo://app?vid=b57696fb-b5b7-4b24-905e-680e88d66735"},"vehicle_type_id":"4","last_reported":1691687184,"current_range_meters":10400,"station_id":"ce4bhah2rcd13ifvqei0","pricing_plan_id":"free"},{"bike_id":"28f080f7-b235-4f21-b3f2-2362e3edc779","system_id":"levelo_inurba_marseille","lat":43.284534,"lon":5.358662,"is_reserved":false,"is_disabled":false,"rental_uris":{"android":"levelo://app?vid=28f080f7-b235-4f21-b3f2-2362e3edc779","ios":"levelo://app?vid=28f080f7-b235-4f21-b3f2-2362e3edc779"},"vehicle_type_id":"4","last_reported":1691687184,"current_range_meters":22800,"station_id":"ce4bhah2rcd13ifvqei0","pricing_plan_id":"free"},{"bike_id":"a747beac-bce0-4461-8f68-33d46acdec1c","system_id":"levelo_inurba_marseille","lat":43.284534,"lon":5.358662,"is_reserved":false,"is_disabled":false,"rental_uris":{"android":"levelo://app?vid=a747beac-bce0-4461-8f68-33d46acdec1c","ios":"levelo://app?vid=a747beac-bce0-4461-8f68-33d46acdec1c"},"vehicle_type_id":"4","last_reported":1691687184,"current_range_meters":8800,"station_id":"ce4bhah2rcd13ifvqei0","pricing_plan_id":"free"},{"bike_id":"31265084-8cb9-4304-acda-0b2118b3e9cc","system_id":"levelo_inurba_marseille","lat":43.284538,"lon":5.358657,"is_reserved":false,"is_disabled":false,"rental_uris":{"android":"levelo://app?vid=31265084-8cb9-4304-acda-0b2118b3e9cc","ios":"levelo://app?vid=31265084-8cb9-4304-acda-0b2118b3e9cc"},"vehicle_type_id":"4","last_reported":1691687184,"current_range_meters":24400,"station_id":"ce4bhah2rcd13ifvqei0","pricing_plan_id":"free"},{"bike_id":"b67a9978-ebfa-44a6-b476-e20d679f4c30","system_id":"levelo_inurba_marseille","lat":43.284534,"lon":5.358662,"is_reserved":false,"is_disabled":false,"rental_uris":{"android":"levelo://app?vid=b67a9978-ebfa-44a6-b476-e20d679f4c30","ios":"levelo://app?vid=b67a9978-ebfa-44a6-b476-e20d679f4c30"},"vehicle_type_id":"4","last_reported":1691687184,"current_range_meters":23600,"station_id":"ce4bhah2rcd13ifvqei0","pricing_plan_id":"free"},{"bike_id":"f92c85a7-1c1a-42c2-a2bc-13e8e0142e3b","system_id":"levelo_inurba_marseille","lat":43.28621,"lon":5.35103,"is_reserved":false,"is_disabled":false,"rental_uris":{"android":"levelo://app?vid=f92c85a7-1c1a-42c2-a2bc-13e8e0142e3b","ios":"levelo://app?vid=f92c85a7-1c1a-42c2-a2bc-13e8e0142e3b"},"vehicle_type_id":"4","last_reported":1691687184,"current_range_meters":10000,"station_id":"ce4bhch2rcd13ifvqeug","pricing_plan_id":"free"},{"bike_id":"32bb1744-f96f-4d81-bc81-c737f4290fde","system_id":"levelo_inurba_marseille","lat":43.28617,"lon":5.35105,"is_reserved":false,"is_disabled":false,"rental_uris":{"android":"levelo://app?vid=32bb1744-f96f-4d81-bc81-c737f4290fde","ios":"levelo://app?vid=32bb1744-f96f-4d81-bc81-c737f4290fde"},"vehicle_type_id":"4","last_reported":1691687184,"current_range_meters":13200,"station_id":"ce4bhch2rcd13ifvqeug","pricing_plan_id":"free"},{"bike_id":"443b5bc6-7589-4b7b-8a90-0f6bb883c232","system_id":"levelo_inurba_marseille","lat":43.285856,"lon":5.350771,"is_reserved":false,"is_disabled":false,"rental_uris":{"android":"levelo://app?vid=443b5bc6-7589-4b7b-8a90-0f6bb883c232","ios":"levelo://app?vid=443b5bc6-7589-4b7b-8a90-0f6bb883c232"},"vehicle_type_id":"4","last_reported":1691687184,"current_range_meters":12800,"station_id":"ce4bhch2rcd13ifvqeug","pricing_plan_id":"free"},{"bike_id":"c341a3a0-120b-4f2e-9c0e-1def8eabe498","system_id":"levelo_inurba_marseille","lat":43.28617,"lon":5.35103,"is_reserved":false,"is_disabled":false,"rental_uris":{"android":"levelo://app?vid=c341a3a0-120b-4f2e-9c0e-1def8eabe498","ios":"levelo://app?vid=c341a3a0-120b-4f2e-9c0e-1def8eabe498"},"vehicle_type_id":"4","last_reported":1691687184,"current_range_meters":13600,"station_id":"ce4bhch2rcd13ifvqeug","pricing_plan_id":"free"},{"bike_id":"524f63f8-7c1b-451c-98e7-7291b68a81ba","system_id":"levelo_inurba_marseille","lat":43.28614,"lon":5.35103,"is_reserved":false,"is_disabled":false,"rental_uris":{"android":"levelo://app?vid=524f63f8-7c1b-451c-98e7-7291b68a81ba","ios":"levelo://app?vid=524f63f8-7c1b-451c-98e7-7291b68a81ba"},"vehicle_type_id":"4","last_reported":1691687184,"current_range_meters":17600,"station_id":"ce4bhch2rcd13ifvqeug","pricing_plan_id":"free"},{"bike_id":"9ff4a6a2-e5b5-4579-aab9-f1f4dcd45646","system_id":"levelo_inurba_marseille","lat":43.284534,"lon":5.358662,"is_reserved":false,"is_disabled":false,"rental_uris":{"android":"levelo://app?vid=9ff4a6a2-e5b5-4579-aab9-f1f4dcd45646","ios":"levelo://app?vid=9ff4a6a2-e5b5-4579-aab9-f1f4dcd45646"},"vehicle_type_id":"4","last_reported":1691687184,"current_range_meters":14400,"station_id":"ce4bhah2rcd13ifvqei0","pricing_plan_id":"free"},{"bike_id":"0ec58d92-d4f0-4e7d-ae51-5b2c27dac12d","system_id":"levelo_inurba_marseille","lat":43.295713,"lon":5.399639,"is_reserved":false,"is_disabled":false,"rental_uris":{"android":"levelo://app?vid=0ec58d92-d4f0-4e7d-ae51-5b2c27dac12d","ios":"levelo://app?vid=0ec58d92-d4f0-4e7d-ae51-5b2c27dac12d"},"vehicle_type_id":"4","last_reported":1691687184,"current_range_meters":6000,"station_id":"ce4bh312rcd13ifvqdj0","pricing_plan_id":"free"},{"bike_id":"619b8de8-7536-4201-91cc-b4acba31c4d7","system_id":"levelo_inurba_marseille","lat":43.28677,"lon":5.38664,"is_reserved":false,"is_disabled":false,"rental_uris":{"android":"levelo://app?vid=619b8de8-7536-4201-91cc-b4acba31c4d7","ios":"levelo://app?vid=619b8de8-7536-4201-91cc-b4acba31c4d7"},"vehicle_type_id":"4","last_reported":1691687184,"current_range_meters":0,"station_id":"ce4bh492rcd13ifvqdug","pricing_plan_id":"free"},{"bike_id":"10a145e5-87a5-4b56-91b4-e5e5def07b5f","system_id":"levelo_inurba_marseille","lat":43.33726,"lon":5.39181,"is_reserved":false,"is_disabled":false,"rental_uris":{"android":"levelo://app?vid=10a145e5-87a5-4b56-91b4-e5e5def07b5f","ios":"levelo://app?vid=10a145e5-87a5-4b56-91b4-e5e5def07b5f"},"vehicle_type_id":"4","last_reported":1691687184,"current_range_meters":6000,"station_id":"ce4bhr92rcd13ifvqhsg","pricing_plan_id":"free"},{"bike_id":"2bd7f880-0d99-4654-b3ae-eb106d86be5e","system_id":"levelo_inurba_marseille","lat":43.284787,"lon":5.384116,"is_reserved":false,"is_disabled":false,"rental_uris":{"android":"levelo://app?vid=2bd7f880-0d99-4654-b3ae-eb106d86be5e","ios":"levelo://app?vid=2bd7f880-0d99-4654-b3ae-eb106d86be5e"},"vehicle_type_id":"4","last_reported":1691687184,"current_range_meters":23200,"station_id":"ce4bh512rcd13ifvqe3g","pricing_plan_id":"free"},{"bike_id":"e4ce6cde-2e34-43c6-a5d2-7a0e9a204482","system_id":"levelo_inurba_marseille","lat":43.32344,"lon":5.40618,"is_reserved":false,"is_disabled":false,"rental_uris":{"android":"levelo://app?vid=e4ce6cde-2e34-43c6-a5d2-7a0e9a204482","ios":"levelo://app?vid=e4ce6cde-2e34-43c6-a5d2-7a0e9a204482"},"vehicle_type_id":"4","last_reported":1691687184,"current_range_meters":5200,"station_id":"ce4bhq92rcd13ifvqhjg","pricing_plan_id":"free"},{"bike_id":"edb3c5c3-dea4-418b-ab85-ce27e4437e73","system_id":"levelo_inurba_marseille","lat":43.33727,"lon":5.39185,"is_reserved":false,"is_disabled":false,"rental_uris":{"android":"levelo://app?vid=edb3c5c3-dea4-418b-ab85-ce27e4437e73","ios":"levelo://app?vid=edb3c5c3-dea4-418b-ab85-ce27e4437e73"},"vehicle_type_id":"4","last_reported":1691687184,"current_range_meters":0,"station_id":"ce4bhr92rcd13ifvqhsg","pricing_plan_id":"free"},{"bike_id":"b8c9edec-ef62-4364-a629-68c5b64f7180","system_id":"levelo_inurba_marseille","lat":43.32341,"lon":5.40621,"is_reserved":false,"is_disabled":false,"rental_uris":{"android":"levelo://app?vid=b8c9edec-ef62-4364-a629-68c5b64f7180","ios":"levelo://app?vid=b8c9edec-ef62-4364-a629-68c5b64f7180"},"vehicle_type_id":"4","last_reported":1691687184,"current_range_meters":6400,"station_id":"ce4bhq92rcd13ifvqhjg","pricing_plan_id":"free"},{"bike_id":"11fda3b5-1dd6-4c96-aec6-36b73fb1dc1f","system_id":"levelo_inurba_marseille","lat":43.323464,"lon":5.406297,"is_reserved":false,"is_disabled":false,"rental_uris":{"android":"levelo://app?vid=11fda3b5-1dd6-4c96-aec6-36b73fb1dc1f","ios":"levelo://app?vid=11fda3b5-1dd6-4c96-aec6-36b73fb1dc1f"},"vehicle_type_id":"4","last_reported":1691687184,"current_range_meters":31200,"station_id":"ce4bhq92rcd13ifvqhjg","pricing_plan_id":"free"},{"bike_id":"a369c97d-81f0-46c7-b8ce-be37c51bdc96","system_id":"levelo_inurba_marseille","lat":43.3373,"lon":5.39186,"is_reserved":false,"is_disabled":false,"rental_uris":{"android":"levelo://app?vid=a369c97d-81f0-46c7-b8ce-be37c51bdc96","ios":"levelo://app?vid=a369c97d-81f0-46c7-b8ce-be37c51bdc96"},"vehicle_type_id":"4","last_reported":1691687184,"current_range_meters":28400,"station_id":"ce4bhr92rcd13ifvqhsg","pricing_plan_id":"free"},{"bike_id":"12780ec8-de1e-47ef-903b-cd2ba14849fe","system_id":"levelo_inurba_marseille","lat":43.323464,"lon":5.406297,"is_reserved":false,"is_disabled":false,"rental_uris":{"android":"levelo://app?vid=12780ec8-de1e-47ef-903b-cd2ba14849fe","ios":"levelo://app?vid=12780ec8-de1e-47ef-903b-cd2ba14849fe"},"vehicle_type_id":"4","last_reported":1691687184,"current_range_meters":31200,"station_id":"ce4bhq92rcd13ifvqhjg","pricing_plan_id":"free"},{"bike_id":"256b8aa9-de16-40ce-8d0e-d3c4aeb75438","system_id":"levelo_inurba_marseille","lat":43.284793,"lon":5.384113,"is_reserved":false,"is_disabled":false,"rental_uris":{"android":"levelo://app?vid=256b8aa9-de16-40ce-8d0e-d3c4aeb75438","ios":"levelo://app?vid=256b8aa9-de16-40ce-8d0e-d3c4aeb75438"},"vehicle_type_id":"4","last_reported":1691687184,"current_range_meters":4800,"station_id":"ce4bh512rcd13ifvqe3g","pricing_plan_id":"free"},{"bike_id":"e1ebc67b-691f-4052-99c7-fc07fb277cc9","system_id":"levelo_inurba_marseille","lat":43.288497,"lon":5.393089,"is_reserved":false,"is_disabled":false,"rental_uris":{"android":"levelo://app?vid=e1ebc67b-691f-4052-99c7-fc07fb277cc9","ios":"levelo://app?vid=e1ebc67b-691f-4052-99c7-fc07fb277cc9"},"vehicle_type_id":"4","last_reported":1691687184,"current_range_meters":800,"station_id":"ce4bh2p2rcd13ifvqdi0","pricing_plan_id":"free"},{"bike_id":"98692975-f28b-4117-b1a2-02ca3fbfffbb","system_id":"levelo_inurba_marseille","lat":43.28428,"lon":5.34997,"is_reserved":false,"is_disabled":false,"rental_uris":{"android":"levelo://app?vid=98692975-f28b-4117-b1a2-02ca3fbfffbb","ios":"levelo://app?vid=98692975-f28b-4117-b1a2-02ca3fbfffbb"},"vehicle_type_id":"4","last_reported":1691687184,"current_range_meters":30400,"station_id":"ce4bhbh2rcd13ifvqepg","pricing_plan_id":"free"},{"bike_id":"9b024e7c-3c81-42aa-84f2-7073e2b752bb","system_id":"levelo_inurba_marseille","lat":43.284219,"lon":5.3497,"is_reserved":false,"is_disabled":false,"rental_uris":{"android":"levelo://app?vid=9b024e7c-3c81-42aa-84f2-7073e2b752bb","ios":"levelo://app?vid=9b024e7c-3c81-42aa-84f2-7073e2b752bb"},"vehicle_type_id":"4","last_reported":1691687184,"current_range_meters":31200,"station_id":"ce4bhbh2rcd13ifvqepg","pricing_plan_id":"free"},{"bike_id":"c79bc8a1-23d7-424e-ad4e-22377a24c192","system_id":"levelo_inurba_marseille","lat":43.28426,"lon":5.34998,"is_reserved":false,"is_disabled":false,"rental_uris":{"android":"levelo://app?vid=c79bc8a1-23d7-424e-ad4e-22377a24c192","ios":"levelo://app?vid=c79bc8a1-23d7-424e-ad4e-22377a24c192"},"vehicle_type_id":"4","last_reported":1691687184,"current_range_meters":17600,"station_id":"ce4bhbh2rcd13ifvqepg","pricing_plan_id":"free"},{"bike_id":"e2bc81e9-2f2a-473a-8abc-a7b96782938b","system_id":"levelo_inurba_marseille","lat":43.284219,"lon":5.3497,"is_reserved":false,"is_disabled":false,"rental_uris":{"android":"levelo://app?vid=e2bc81e9-2f2a-473a-8abc-a7b96782938b","ios":"levelo://app?vid=e2bc81e9-2f2a-473a-8abc-a7b96782938b"},"vehicle_type_id":"4","last_reported":1691687184,"current_range_meters":31200,"station_id":"ce4bhbh2rcd13ifvqepg","pricing_plan_id":"free"},{"bike_id":"e4c37f6e-72f6-4978-adff-865ed245c097","system_id":"levelo_inurba_marseille","lat":43.28425,"lon":5.34994,"is_reserved":false,"is_disabled":false,"rental_uris":{"android":"levelo://app?vid=e4c37f6e-72f6-4978-adff-865ed245c097","ios":"levelo://app?vid=e4c37f6e-72f6-4978-adff-865ed245c097"},"vehicle_type_id":"4","last_reported":1691687184,"current_range_meters":22400,"station_id":"ce4bhbh2rcd13ifvqepg","pricing_plan_id":"free"},{"bike_id":"c2936cf8-cde5-44a4-9461-52a164a85c68","system_id":"levelo_inurba_marseille","lat":43.28426,"lon":5.3499,"is_reserved":false,"is_disabled":false,"rental_uris":{"android":"levelo://app?vid=c2936cf8-cde5-44a4-9461-52a164a85c68","ios":"levelo://app?vid=c2936cf8-cde5-44a4-9461-52a164a85c68"},"vehicle_type_id":"4","last_reported":1691687184,"current_range_meters":31200,"station_id":"ce4bhbh2rcd13ifvqepg","pricing_plan_id":"free"},{"bike_id":"78ca2e40-460f-461e-8da9-cdf1e3b5b4c6","system_id":"levelo_inurba_marseille","lat":43.284217,"lon":5.349697,"is_reserved":false,"is_disabled":false,"rental_uris":{"android":"levelo://app?vid=78ca2e40-460f-461e-8da9-cdf1e3b5b4c6","ios":"levelo://app?vid=78ca2e40-460f-461e-8da9-cdf1e3b5b4c6"},"vehicle_type_id":"4","last_reported":1691687184,"current_range_meters":31200,"station_id":"ce4bhbh2rcd13ifvqepg","pricing_plan_id":"free"},{"bike_id":"3caceb8e-3e6b-47e4-b97c-600f4df68da5","system_id":"levelo_inurba_marseille","lat":43.284219,"lon":5.3497,"is_reserved":false,"is_disabled":false,"rental_uris":{"android":"levelo://app?vid=3caceb8e-3e6b-47e4-b97c-600f4df68da5","ios":"levelo://app?vid=3caceb8e-3e6b-47e4-b97c-600f4df68da5"},"vehicle_type_id":"4","last_reported":1691687184,"current_range_meters":30800,"station_id":"ce4bhbh2rcd13ifvqepg","pricing_plan_id":"free"},{"bike_id":"c0b941fc-50d4-406c-b345-ac1dfe9c92bf","system_id":"levelo_inurba_marseille","lat":43.284219,"lon":5.3497,"is_reserved":false,"is_disabled":false,"rental_uris":{"android":"levelo://app?vid=c0b941fc-50d4-406c-b345-ac1dfe9c92bf","ios":"levelo://app?vid=c0b941fc-50d4-406c-b345-ac1dfe9c92bf"},"vehicle_type_id":"4","last_reported":1691687184,"current_range_meters":31600,"station_id":"ce4bhbh2rcd13ifvqepg","pricing_plan_id":"free"},{"bike_id":"ba980343-2e52-476d-9457-9983feac21d9","system_id":"levelo_inurba_marseille","lat":43.284217,"lon":5.349697,"is_reserved":false,"is_disabled":false,"rental_uris":{"android":"levelo://app?vid=ba980343-2e52-476d-9457-9983feac21d9","ios":"levelo://app?vid=ba980343-2e52-476d-9457-9983feac21d9"},"vehicle_type_id":"4","last_reported":1691687184,"current_range_meters":31200,"station_id":"ce4bhbh2rcd13ifvqepg","pricing_plan_id":"free"},{"bike_id":"da3c814e-7e32-4e3b-b1b2-c8abbb4d7d66","system_id":"levelo_inurba_marseille","lat":43.284219,"lon":5.3497,"is_reserved":false,"is_disabled":false,"rental_uris":{"android":"levelo://app?vid=da3c814e-7e32-4e3b-b1b2-c8abbb4d7d66","ios":"levelo://app?vid=da3c814e-7e32-4e3b-b1b2-c8abbb4d7d66"},"vehicle_type_id":"4","last_reported":1691687184,"current_range_meters":27600,"station_id":"ce4bhbh2rcd13ifvqepg","pricing_plan_id":"free"},{"bike_id":"7ae02a04-8d58-4cd0-ba98-1cc9ff990664","system_id":"levelo_inurba_marseille","lat":43.284217,"lon":5.349697,"is_reserved":false,"is_disabled":false,"rental_uris":{"android":"levelo://app?vid=7ae02a04-8d58-4cd0-ba98-1cc9ff990664","ios":"levelo://app?vid=7ae02a04-8d58-4cd0-ba98-1cc9ff990664"},"vehicle_type_id":"4","last_reported":1691687184,"current_range_meters":29200,"station_id":"ce4bhbh2rcd13ifvqepg","pricing_plan_id":"free"},{"bike_id":"b916700d-7a85-4512-b37f-dec3e04ec11a","system_id":"levelo_inurba_marseille","lat":43.284217,"lon":5.349697,"is_reserved":false,"is_disabled":false,"rental_uris":{"android":"levelo://app?vid=b916700d-7a85-4512-b37f-dec3e04ec11a","ios":"levelo://app?vid=b916700d-7a85-4512-b37f-dec3e04ec11a"},"vehicle_type_id":"4","last_reported":1691687184,"current_range_meters":26000,"station_id":"ce4bhbh2rcd13ifvqepg","pricing_plan_id":"free"},{"bike_id":"cacf1315-373b-47dd-a8dc-edda72d8a786","system_id":"levelo_inurba_marseille","lat":43.284219,"lon":5.3497,"is_reserved":false,"is_disabled":false,"rental_uris":{"android":"levelo://app?vid=cacf1315-373b-47dd-a8dc-edda72d8a786","ios":"levelo://app?vid=cacf1315-373b-47dd-a8dc-edda72d8a786"},"vehicle_type_id":"4","last_reported":1691687184,"current_range_meters":31600,"station_id":"ce4bhbh2rcd13ifvqepg","pricing_plan_id":"free"},{"bike_id":"ef2e1103-814b-4d38-b968-f892d7498847","system_id":"levelo_inurba_marseille","lat":43.284219,"lon":5.3497,"is_reserved":false,"is_disabled":false,"rental_uris":{"android":"levelo://app?vid=ef2e1103-814b-4d38-b968-f892d7498847","ios":"levelo://app?vid=ef2e1103-814b-4d38-b968-f892d7498847"},"vehicle_type_id":"4","last_reported":1691687184,"current_range_meters":28800,"station_id":"ce4bhbh2rcd13ifvqepg","pricing_plan_id":"free"},{"bike_id":"a4e40847-03e3-427b-91df-39b125da0273","system_id":"levelo_inurba_marseille","lat":43.284219,"lon":5.3497,"is_reserved":false,"is_disabled":false,"rental_uris":{"android":"levelo://app?vid=a4e40847-03e3-427b-91df-39b125da0273","ios":"levelo://app?vid=a4e40847-03e3-427b-91df-39b125da0273"},"vehicle_type_id":"4","last_reported":1691687184,"current_range_meters":10800,"station_id":"ce4bhbh2rcd13ifvqepg","pricing_plan_id":"free"},{"bike_id":"9f7edbb9-c146-487e-8812-aaf18626e74d","system_id":"levelo_inurba_marseille","lat":43.284219,"lon":5.3497,"is_reserved":false,"is_disabled":false,"rental_uris":{"android":"levelo://app?vid=9f7edbb9-c146-487e-8812-aaf18626e74d","ios":"levelo://app?vid=9f7edbb9-c146-487e-8812-aaf18626e74d"},"vehicle_type_id":"4","last_reported":1691687184,"current_range_meters":17200,"station_id":"ce4bhbh2rcd13ifvqepg","pricing_plan_id":"free"},{"bike_id":"d4ea7a22-5d9e-4a12-9cbc-c9f42b777142","system_id":"levelo_inurba_marseille","lat":43.28422,"lon":5.34981,"is_reserved":false,"is_disabled":false,"rental_uris":{"android":"levelo://app?vid=d4ea7a22-5d9e-4a12-9cbc-c9f42b777142","ios":"levelo://app?vid=d4ea7a22-5d9e-4a12-9cbc-c9f42b777142"},"vehicle_type_id":"4","last_reported":1691687184,"current_range_meters":16000,"station_id":"ce4bhbh2rcd13ifvqepg","pricing_plan_id":"free"},{"bike_id":"990a2a4b-fa2a-439c-b1ab-b418dbf617c7","system_id":"levelo_inurba_marseille","lat":43.284219,"lon":5.3497,"is_reserved":false,"is_disabled":false,"rental_uris":{"android":"levelo://app?vid=990a2a4b-fa2a-439c-b1ab-b418dbf617c7","ios":"levelo://app?vid=990a2a4b-fa2a-439c-b1ab-b418dbf617c7"},"vehicle_type_id":"4","last_reported":1691687184,"current_range_meters":31200,"station_id":"ce4bhbh2rcd13ifvqepg","pricing_plan_id":"free"},{"bike_id":"9bf4bd5e-12af-4fb2-8ce5-3127f29b5e31","system_id":"levelo_inurba_marseille","lat":43.284217,"lon":5.349697,"is_reserved":false,"is_disabled":false,"rental_uris":{"android":"levelo://app?vid=9bf4bd5e-12af-4fb2-8ce5-3127f29b5e31","ios":"levelo://app?vid=9bf4bd5e-12af-4fb2-8ce5-3127f29b5e31"},"vehicle_type_id":"4","last_reported":1691687184,"current_range_meters":31200,"station_id":"ce4bhbh2rcd13ifvqepg","pricing_plan_id":"free"},{"bike_id":"66242709-9402-41f8-bf17-9c6281fcb8e9","system_id":"levelo_inurba_marseille","lat":43.28418,"lon":5.34992,"is_reserved":false,"is_disabled":false,"rental_uris":{"android":"levelo://app?vid=66242709-9402-41f8-bf17-9c6281fcb8e9","ios":"levelo://app?vid=66242709-9402-41f8-bf17-9c6281fcb8e9"},"vehicle_type_id":"4","last_reported":1691687184,"current_range_meters":21600,"station_id":"ce4bhbh2rcd13ifvqepg","pricing_plan_id":"free"},{"bike_id":"c9484193-e89d-4124-9464-93ac39e93e99","system_id":"levelo_inurba_marseille","lat":43.284219,"lon":5.3497,"is_reserved":false,"is_disabled":false,"rental_uris":{"android":"levelo://app?vid=c9484193-e89d-4124-9464-93ac39e93e99","ios":"levelo://app?vid=c9484193-e89d-4124-9464-93ac39e93e99"},"vehicle_type_id":"4","last_reported":1691687184,"current_range_meters":0,"station_id":"ce4bhbh2rcd13ifvqepg","pricing_plan_id":"free"},{"bike_id":"cc67a5ea-c1b0-4bdf-a7b0-7dbeaaf7145b","system_id":"levelo_inurba_marseille","lat":43.28421,"lon":5.34982,"is_reserved":false,"is_disabled":false,"rental_uris":{"android":"levelo://app?vid=cc67a5ea-c1b0-4bdf-a7b0-7dbeaaf7145b","ios":"levelo://app?vid=cc67a5ea-c1b0-4bdf-a7b0-7dbeaaf7145b"},"vehicle_type_id":"4","last_reported":1691687184,"current_range_meters":16400,"station_id":"ce4bhbh2rcd13ifvqepg","pricing_plan_id":"free"},{"bike_id":"aecbcef8-ff5d-40b5-9e86-9708909d713b","system_id":"levelo_inurba_marseille","lat":43.284219,"lon":5.3497,"is_reserved":false,"is_disabled":false,"rental_uris":{"android":"levelo://app?vid=aecbcef8-ff5d-40b5-9e86-9708909d713b","ios":"levelo://app?vid=aecbcef8-ff5d-40b5-9e86-9708909d713b"},"vehicle_type_id":"4","last_reported":1691687184,"current_range_meters":31600,"station_id":"ce4bhbh2rcd13ifvqepg","pricing_plan_id":"free"},{"bike_id":"3207fe38-4fdd-4f83-89a4-ed6933146352","system_id":"levelo_inurba_marseille","lat":43.284219,"lon":5.3497,"is_reserved":false,"is_disabled":false,"rental_uris":{"android":"levelo://app?vid=3207fe38-4fdd-4f83-89a4-ed6933146352","ios":"levelo://app?vid=3207fe38-4fdd-4f83-89a4-ed6933146352"},"vehicle_type_id":"4","last_reported":1691687184,"current_range_meters":28000,"station_id":"ce4bhbh2rcd13ifvqepg","pricing_plan_id":"free"},{"bike_id":"344e6a44-dfab-4ac9-b11e-d087a711da4b","system_id":"levelo_inurba_marseille","lat":43.284219,"lon":5.3497,"is_reserved":false,"is_disabled":false,"rental_uris":{"android":"levelo://app?vid=344e6a44-dfab-4ac9-b11e-d087a711da4b","ios":"levelo://app?vid=344e6a44-dfab-4ac9-b11e-d087a711da4b"},"vehicle_type_id":"4","last_reported":1691687184,"current_range_meters":16400,"station_id":"ce4bhbh2rcd13ifvqepg","pricing_plan_id":"free"},{"bike_id":"34b2b869-aae2-4719-8b86-261c19241371","system_id":"levelo_inurba_marseille","lat":43.284219,"lon":5.3497,"is_reserved":false,"is_disabled":false,"rental_uris":{"android":"levelo://app?vid=34b2b869-aae2-4719-8b86-261c19241371","ios":"levelo://app?vid=34b2b869-aae2-4719-8b86-261c19241371"},"vehicle_type_id":"4","last_reported":1691687184,"current_range_meters":16400,"station_id":"ce4bhbh2rcd13ifvqepg","pricing_plan_id":"free"},{"bike_id":"8df0c264-2054-411d-a31f-7b406e0b1b54","system_id":"levelo_inurba_marseille","lat":43.28411,"lon":5.34991,"is_reserved":false,"is_disabled":false,"rental_uris":{"android":"levelo://app?vid=8df0c264-2054-411d-a31f-7b406e0b1b54","ios":"levelo://app?vid=8df0c264-2054-411d-a31f-7b406e0b1b54"},"vehicle_type_id":"4","last_reported":1691687184,"current_range_meters":13200,"station_id":"ce4bhbh2rcd13ifvqepg","pricing_plan_id":"free"},{"bike_id":"5cec26ac-344f-432b-af34-450b75305b9b","system_id":"levelo_inurba_marseille","lat":43.292724,"lon":5.401131,"is_reserved":false,"is_disabled":false,"rental_uris":{"android":"levelo://app?vid=5cec26ac-344f-432b-af34-450b75305b9b","ios":"levelo://app?vid=5cec26ac-344f-432b-af34-450b75305b9b"},"vehicle_type_id":"4","last_reported":1691687184,"current_range_meters":31200,"station_id":"ce4bh312rcd13ifvqdk0","pricing_plan_id":"free"},{"bike_id":"fade5717-540c-4f8c-acb9-c66215f93814","system_id":"levelo_inurba_marseille","lat":43.28289,"lon":5.35087,"is_reserved":false,"is_disabled":false,"rental_uris":{"android":"levelo://app?vid=fade5717-540c-4f8c-acb9-c66215f93814","ios":"levelo://app?vid=fade5717-540c-4f8c-acb9-c66215f93814"},"vehicle_type_id":"4","last_reported":1691687184,"current_range_meters":31200,"station_id":"ce4bhbp2rcd13ifvqerg","pricing_plan_id":"free"},{"bike_id":"f748e1f1-38b7-4f39-86ac-7bd325ceffb3","system_id":"levelo_inurba_marseille","lat":43.28285,"lon":5.3508,"is_reserved":false,"is_disabled":false,"rental_uris":{"android":"levelo://app?vid=f748e1f1-38b7-4f39-86ac-7bd325ceffb3","ios":"levelo://app?vid=f748e1f1-38b7-4f39-86ac-7bd325ceffb3"},"vehicle_type_id":"4","last_reported":1691687184,"current_range_meters":16400,"station_id":"ce4bhbp2rcd13ifvqerg","pricing_plan_id":"free"},{"bike_id":"faa628a9-9efc-4200-a691-f06d66e76f08","system_id":"levelo_inurba_marseille","lat":43.2828,"lon":5.35078,"is_reserved":false,"is_disabled":false,"rental_uris":{"android":"levelo://app?vid=faa628a9-9efc-4200-a691-f06d66e76f08","ios":"levelo://app?vid=faa628a9-9efc-4200-a691-f06d66e76f08"},"vehicle_type_id":"4","last_reported":1691687184,"current_range_meters":31200,"station_id":"ce4bhbp2rcd13ifvqerg","pricing_plan_id":"free"},{"bike_id":"291c6558-6bab-4970-9b03-a7e5b6fcea98","system_id":"levelo_inurba_marseille","lat":43.28279,"lon":5.35077,"is_reserved":false,"is_disabled":false,"rental_uris":{"android":"levelo://app?vid=291c6558-6bab-4970-9b03-a7e5b6fcea98","ios":"levelo://app?vid=291c6558-6bab-4970-9b03-a7e5b6fcea98"},"vehicle_type_id":"4","last_reported":1691687184,"current_range_meters":30000,"station_id":"ce4bhbp2rcd13ifvqerg","pricing_plan_id":"free"},{"bike_id":"c5304ab2-6d44-45e9-b047-8875c0cae248","system_id":"levelo_inurba_marseille","lat":43.282754,"lon":5.350519,"is_reserved":false,"is_disabled":false,"rental_uris":{"android":"levelo://app?vid=c5304ab2-6d44-45e9-b047-8875c0cae248","ios":"levelo://app?vid=c5304ab2-6d44-45e9-b047-8875c0cae248"},"vehicle_type_id":"4","last_reported":1691687184,"current_range_meters":6400,"station_id":"ce4bhbp2rcd13ifvqerg","pricing_plan_id":"free"},{"bike_id":"4c53bfb1-b837-4839-ae7c-3afc03258106","system_id":"levelo_inurba_marseille","lat":43.28278,"lon":5.35077,"is_reserved":false,"is_disabled":false,"rental_uris":{"android":"levelo://app?vid=4c53bfb1-b837-4839-ae7c-3afc03258106","ios":"levelo://app?vid=4c53bfb1-b837-4839-ae7c-3afc03258106"},"vehicle_type_id":"4","last_reported":1691687184,"current_range_meters":30800,"station_id":"ce4bhbp2rcd13ifvqerg","pricing_plan_id":"free"},{"bike_id":"483ee533-3810-4dcc-8201-ccfe6a5da9fa","system_id":"levelo_inurba_marseille","lat":43.28282,"lon":5.35063,"is_reserved":false,"is_disabled":false,"rental_uris":{"android":"levelo://app?vid=483ee533-3810-4dcc-8201-ccfe6a5da9fa","ios":"levelo://app?vid=483ee533-3810-4dcc-8201-ccfe6a5da9fa"},"vehicle_type_id":"4","last_reported":1691687184,"current_range_meters":18800,"station_id":"","pricing_plan_id":"free"},{"bike_id":"51b3f365-4a69-4db6-85be-3d5f0c328c73","system_id":"levelo_inurba_marseille","lat":43.28278,"lon":5.35074,"is_reserved":false,"is_disabled":false,"rental_uris":{"android":"levelo://app?vid=51b3f365-4a69-4db6-85be-3d5f0c328c73","ios":"levelo://app?vid=51b3f365-4a69-4db6-85be-3d5f0c328c73"},"vehicle_type_id":"4","last_reported":1691687184,"current_range_meters":11600,"station_id":"ce4bhbp2rcd13ifvqerg","pricing_plan_id":"free"},{"bike_id":"3b6b073c-ea76-46be-b303-7d40cb9d84c5","system_id":"levelo_inurba_marseille","lat":43.28277,"lon":5.35075,"is_reserved":false,"is_disabled":false,"rental_uris":{"android":"levelo://app?vid=3b6b073c-ea76-46be-b303-7d40cb9d84c5","ios":"levelo://app?vid=3b6b073c-ea76-46be-b303-7d40cb9d84c5"},"vehicle_type_id":"4","last_reported":1691687184,"current_range_meters":10400,"station_id":"ce4bhbp2rcd13ifvqerg","pricing_plan_id":"free"},{"bike_id":"f48f40c2-214d-4f06-ab5d-a017fa6ab44a","system_id":"levelo_inurba_marseille","lat":43.28275,"lon":5.3508,"is_reserved":false,"is_disabled":false,"rental_uris":{"android":"levelo://app?vid=f48f40c2-214d-4f06-ab5d-a017fa6ab44a","ios":"levelo://app?vid=f48f40c2-214d-4f06-ab5d-a017fa6ab44a"},"vehicle_type_id":"4","last_reported":1691687184,"current_range_meters":31200,"station_id":"ce4bhbp2rcd13ifvqerg","pricing_plan_id":"free"},{"bike_id":"4d6d19f5-0d57-4bde-8b4a-c78c4e7e6b6d","system_id":"levelo_inurba_marseille","lat":43.282744,"lon":5.350533,"is_reserved":false,"is_disabled":false,"rental_uris":{"android":"levelo://app?vid=4d6d19f5-0d57-4bde-8b4a-c78c4e7e6b6d","ios":"levelo://app?vid=4d6d19f5-0d57-4bde-8b4a-c78c4e7e6b6d"},"vehicle_type_id":"4","last_reported":1691687184,"current_range_meters":22000,"station_id":"ce4bhbp2rcd13ifvqerg","pricing_plan_id":"free"},{"bike_id":"a31a8b92-0ea2-4240-8b7a-48a5403161e7","system_id":"levelo_inurba_marseille","lat":43.282744,"lon":5.350533,"is_reserved":false,"is_disabled":false,"rental_uris":{"android":"levelo://app?vid=a31a8b92-0ea2-4240-8b7a-48a5403161e7","ios":"levelo://app?vid=a31a8b92-0ea2-4240-8b7a-48a5403161e7"},"vehicle_type_id":"4","last_reported":1691687184,"current_range_meters":25600,"station_id":"ce4bhbp2rcd13ifvqerg","pricing_plan_id":"free"},{"bike_id":"2911c951-ddce-4dbc-b3b6-3125351b1878","system_id":"levelo_inurba_marseille","lat":43.28276,"lon":5.35074,"is_reserved":false,"is_disabled":false,"rental_uris":{"android":"levelo://app?vid=2911c951-ddce-4dbc-b3b6-3125351b1878","ios":"levelo://app?vid=2911c951-ddce-4dbc-b3b6-3125351b1878"},"vehicle_type_id":"4","last_reported":1691687184,"current_range_meters":30000,"station_id":"ce4bhbp2rcd13ifvqerg","pricing_plan_id":"free"},{"bike_id":"2ed12c1d-8154-4da8-a6ed-0c90facf64ec","system_id":"levelo_inurba_marseille","lat":43.282744,"lon":5.350533,"is_reserved":false,"is_disabled":false,"rental_uris":{"android":"levelo://app?vid=2ed12c1d-8154-4da8-a6ed-0c90facf64ec","ios":"levelo://app?vid=2ed12c1d-8154-4da8-a6ed-0c90facf64ec"},"vehicle_type_id":"4","last_reported":1691687184,"current_range_meters":31200,"station_id":"ce4bhbp2rcd13ifvqerg","pricing_plan_id":"free"},{"bike_id":"45d14e75-d6ee-4bd0-83f5-09e2af5c6dba","system_id":"levelo_inurba_marseille","lat":43.28275,"lon":5.35075,"is_reserved":false,"is_disabled":false,"rental_uris":{"android":"levelo://app?vid=45d14e75-d6ee-4bd0-83f5-09e2af5c6dba","ios":"levelo://app?vid=45d14e75-d6ee-4bd0-83f5-09e2af5c6dba"},"vehicle_type_id":"4","last_reported":1691687184,"current_range_meters":20800,"station_id":"ce4bhbp2rcd13ifvqerg","pricing_plan_id":"free"},{"bike_id":"88940920-727e-47f8-bee6-24feedff1167","system_id":"levelo_inurba_marseille","lat":43.282754,"lon":5.350519,"is_reserved":false,"is_disabled":false,"rental_uris":{"android":"levelo://app?vid=88940920-727e-47f8-bee6-24feedff1167","ios":"levelo://app?vid=88940920-727e-47f8-bee6-24feedff1167"},"vehicle_type_id":"4","last_reported":1691687184,"current_range_meters":31600,"station_id":"ce4bhbp2rcd13ifvqerg","pricing_plan_id":"free"},{"bike_id":"cff93726-2e5e-4e8d-afb6-862809bd3056","system_id":"levelo_inurba_marseille","lat":43.28274,"lon":5.3507,"is_reserved":false,"is_disabled":false,"rental_uris":{"android":"levelo://app?vid=cff93726-2e5e-4e8d-afb6-862809bd3056","ios":"levelo://app?vid=cff93726-2e5e-4e8d-afb6-862809bd3056"},"vehicle_type_id":"4","last_reported":1691687184,"current_range_meters":11600,"station_id":"ce4bhbp2rcd13ifvqerg","pricing_plan_id":"free"},{"bike_id":"fe45fd43-2c37-43c4-9386-b03633b9c45f","system_id":"levelo_inurba_marseille","lat":43.28274,"lon":5.35065,"is_reserved":false,"is_disabled":false,"rental_uris":{"android":"levelo://app?vid=fe45fd43-2c37-43c4-9386-b03633b9c45f","ios":"levelo://app?vid=fe45fd43-2c37-43c4-9386-b03633b9c45f"},"vehicle_type_id":"4","last_reported":1691687184,"current_range_meters":22000,"station_id":"ce4bhbp2rcd13ifvqerg","pricing_plan_id":"free"},{"bike_id":"bf79c9b8-1346-4756-a129-7e7c62b3fab2","system_id":"levelo_inurba_marseille","lat":43.282754,"lon":5.350519,"is_reserved":false,"is_disabled":false,"rental_uris":{"android":"levelo://app?vid=bf79c9b8-1346-4756-a129-7e7c62b3fab2","ios":"levelo://app?vid=bf79c9b8-1346-4756-a129-7e7c62b3fab2"},"vehicle_type_id":"4","last_reported":1691687184,"current_range_meters":16000,"station_id":"ce4bhbp2rcd13ifvqerg","pricing_plan_id":"free"},{"bike_id":"3f434133-1c27-4932-90c2-e0fa615a9ca3","system_id":"levelo_inurba_marseille","lat":43.282744,"lon":5.350533,"is_reserved":false,"is_disabled":false,"rental_uris":{"android":"levelo://app?vid=3f434133-1c27-4932-90c2-e0fa615a9ca3","ios":"levelo://app?vid=3f434133-1c27-4932-90c2-e0fa615a9ca3"},"vehicle_type_id":"4","last_reported":1691687184,"current_range_meters":2000,"station_id":"ce4bhbp2rcd13ifvqerg","pricing_plan_id":"free"},{"bike_id":"69a5e357-00c6-489b-9013-54c79fcca409","system_id":"levelo_inurba_marseille","lat":43.28271,"lon":5.35071,"is_reserved":false,"is_disabled":false,"rental_uris":{"android":"levelo://app?vid=69a5e357-00c6-489b-9013-54c79fcca409","ios":"levelo://app?vid=69a5e357-00c6-489b-9013-54c79fcca409"},"vehicle_type_id":"4","last_reported":1691687184,"current_range_meters":24000,"station_id":"ce4bhbp2rcd13ifvqerg","pricing_plan_id":"free"},{"bike_id":"f3813a84-4687-4253-b202-f5534006fd35","system_id":"levelo_inurba_marseille","lat":43.2827,"lon":5.3507,"is_reserved":false,"is_disabled":false,"rental_uris":{"android":"levelo://app?vid=f3813a84-4687-4253-b202-f5534006fd35","ios":"levelo://app?vid=f3813a84-4687-4253-b202-f5534006fd35"},"vehicle_type_id":"4","last_reported":1691687184,"current_range_meters":30400,"station_id":"ce4bhbp2rcd13ifvqerg","pricing_plan_id":"free"},{"bike_id":"5d5d29f2-ce97-47c7-b9f7-4f48a84d80a5","system_id":"levelo_inurba_marseille","lat":43.282744,"lon":5.350533,"is_reserved":false,"is_disabled":false,"rental_uris":{"android":"levelo://app?vid=5d5d29f2-ce97-47c7-b9f7-4f48a84d80a5","ios":"levelo://app?vid=5d5d29f2-ce97-47c7-b9f7-4f48a84d80a5"},"vehicle_type_id":"4","last_reported":1691687184,"current_range_meters":24800,"station_id":"ce4bhbp2rcd13ifvqerg","pricing_plan_id":"free"},{"bike_id":"b131168e-d797-4d9d-8a42-2ce496131037","system_id":"levelo_inurba_marseille","lat":43.28269,"lon":5.35067,"is_reserved":false,"is_disabled":false,"rental_uris":{"android":"levelo://app?vid=b131168e-d797-4d9d-8a42-2ce496131037","ios":"levelo://app?vid=b131168e-d797-4d9d-8a42-2ce496131037"},"vehicle_type_id":"4","last_reported":1691687184,"current_range_meters":30400,"station_id":"ce4bhbp2rcd13ifvqerg","pricing_plan_id":"free"},{"bike_id":"a1db948b-a0b4-47eb-911d-a87916f477f9","system_id":"levelo_inurba_marseille","lat":43.28271,"lon":5.35058,"is_reserved":false,"is_disabled":false,"rental_uris":{"android":"levelo://app?vid=a1db948b-a0b4-47eb-911d-a87916f477f9","ios":"levelo://app?vid=a1db948b-a0b4-47eb-911d-a87916f477f9"},"vehicle_type_id":"4","last_reported":1691687184,"current_range_meters":3200,"station_id":"ce4bhbp2rcd13ifvqerg","pricing_plan_id":"free"},{"bike_id":"fd232440-2f59-44b3-9af3-fe5bcb2fb91a","system_id":"levelo_inurba_marseille","lat":43.282744,"lon":5.350533,"is_reserved":false,"is_disabled":false,"rental_uris":{"android":"levelo://app?vid=fd232440-2f59-44b3-9af3-fe5bcb2fb91a","ios":"levelo://app?vid=fd232440-2f59-44b3-9af3-fe5bcb2fb91a"},"vehicle_type_id":"4","last_reported":1691687184,"current_range_meters":27600,"station_id":"ce4bhbp2rcd13ifvqerg","pricing_plan_id":"free"},{"bike_id":"82e745ef-8d87-476c-94df-702fa1e100a3","system_id":"levelo_inurba_marseille","lat":43.28263,"lon":5.35073,"is_reserved":false,"is_disabled":false,"rental_uris":{"android":"levelo://app?vid=82e745ef-8d87-476c-94df-702fa1e100a3","ios":"levelo://app?vid=82e745ef-8d87-476c-94df-702fa1e100a3"},"vehicle_type_id":"4","last_reported":1691687184,"current_range_meters":31200,"station_id":"ce4bhbp2rcd13ifvqerg","pricing_plan_id":"free"},{"bike_id":"26d14aee-7377-46d1-8426-27c3fbf6bcd8","system_id":"levelo_inurba_marseille","lat":43.283502,"lon":5.386471,"is_reserved":false,"is_disabled":false,"rental_uris":{"android":"levelo://app?vid=26d14aee-7377-46d1-8426-27c3fbf6bcd8","ios":"levelo://app?vid=26d14aee-7377-46d1-8426-27c3fbf6bcd8"},"vehicle_type_id":"4","last_reported":1691687184,"current_range_meters":25600,"station_id":"ce4bh492rcd13ifvqdvg","pricing_plan_id":"free"},