{"last_updated":1698250121,"ttl":30,"version":"2.2","data":{"bikes":[{"bike_id":"cb7576bb-0362-4fbf-baa4-dcb32e287db2","system_id":"levelo_inurba_marseille","lat":43.31314,"lon":5.3676,"is_reserved":false,"is_disabled":false,"rental_uris":{"android":"levelo://app?vid=cb7576bb-0362-4fbf-baa4-dcb32e287db2","ios":"levelo://app?vid=cb7576bb-0362-4fbf-baa4-dcb32e287db2"},"vehicle_type_id":"4","last_reported":1698250121,"current_range_meters":31200,"station_id":"","pricing_plan_id":"free"},{"bike_id":"a20483b7-65cc-4502-9b00-acf4fd022db2","system_id":"levelo_inurba_marseille","lat":43.31323,"lon":5.36767,"is_reserved":false,"is_disabled":false,"rental_uris":{"android":"levelo://app?vid=a20483b7-65cc-4502-9b00-acf4fd022db2","ios":"levelo://app?vid=a20483b7-65cc-4502-9b00-acf4fd022db2"},"vehicle_type_id":"4","last_reported":1698250121,"current_range_meters":28800,"station_id":"","pricing_plan_id":"free"},{"bike_id":"f5c58904-aeb7-4548-b4b5-9f5e83f269ce","system_id":"levelo_inurba_marseille","lat":43.309797,"lon":5.368093,"is_reserved":false,"is_disabled":false,"rental_uris":{"android":"levelo://app?vid=f5c58904-aeb7-4548-b4b5-9f5e83f269ce","ios":"levelo://app?vid=f5c58904-aeb7-4548-b4b5-9f5e83f269ce"},"vehicle_type_id":"4","last_reported":1698250121,"current_range_meters":3200,"station_id":"ce4bgn92rcd13ifvqbvg","pricing_plan_id":"free"},{"bike_id":"c5ef0ca8-27df-4976-a969-31b9ecb53e9b","system_id":"levelo_inurba_marseille","lat":43.31519,"lon":5.37175,"is_reserved":false,"is_disabled":false,"rental_uris":{"android":"levelo://app?vid=c5ef0ca8-27df-4976-a969-31b9ecb53e9b","ios":"levelo://app?vid=c5ef0ca8-27df-4976-a969-31b9ecb53e9b"},"vehicle_type_id":"4","last_reported":1698250121,"current_range_meters":0,"station_id":"","pricing_plan_id":"free"},{"bike_id":"dbbdea51-7e3d-4271-bd96-c3aabecbd7e2","system_id":"levelo_inurba_marseille","lat":43.315783,"lon":5.372523,"is_reserved":false,"is_disabled":false,"rental_uris":{"android":"levelo://app?vid=dbbdea51-7e3d-4271-bd96-c3aabecbd7e2","ios":"levelo://app?vid=dbbdea51-7e3d-4271-bd96-c3aabecbd7e2"},"vehicle_type_id":"4","last_reported":1698250121,"current_range_meters":19200,"station_id":"","pricing_plan_id":"free"},{"bike_id":"7b9b24c0-b88c-4156-ab8e-26e288aa23ab","system_id":"levelo_inurba_marseille","lat":43.314811,"lon":5.373104,"is_reserved":false,"is_disabled":false,"rental_uris":{"android":"levelo://app?vid=7b9b24c0-b88c-4156-ab8e-26e288aa23ab","ios":"levelo://app?vid=7b9b24c0-b88c-4156-ab8e-26e288aa23ab"},"vehicle_type_id":"4","last_reported":1698250121,"current_range_meters":10800,"station_id":"ce4bgt12rcd13ifvqcd0","pricing_plan_id":"free"},{"bike_id":"631643d0-cbf8-4dba-a9bc-b25b0911124c","system_id":"levelo_inurba_marseille","lat":43.309039,"lon":5.371797,"is_reserved":false,"is_disabled":false,"rental_uris":{"android":"levelo://app?vid=631643d0-cbf8-4dba-a9bc-b25b0911124c","ios":"levelo://app?vid=631643d0-cbf8-4dba-a9bc-b25b0911124c"},"vehicle_type_id":"4","last_reported":1698250121,"current_range_meters":9200,"station_id":"ce4bguh2rcd13ifvqckg","pricing_plan_id":"free"},{"bike_id":"28d91daa-bf2a-466b-8cf6-56dbc3683808","system_id":"levelo_inurba_marseille","lat":43.317351,"lon":5.372994,"is_reserved":false,"is_disabled":false,"rental_uris":{"android":"levelo://app?vid=28d91daa-bf2a-466b-8cf6-56dbc3683808","ios":"levelo://app?vid=28d91daa-bf2a-466b-8cf6-56dbc3683808"},"vehicle_type_id":"4","last_reported":1698250121,"current_range_meters":31200,"station_id":"","pricing_plan_id":"free"},{"bike_id":"9e47fb19-eee4-4e07-b7f1-8ce1b8050977","system_id":"levelo_inurba_marseille","lat":43.305368,"lon":5.367343,"is_reserved":false,"is_disabled":false,"rental_uris":{"android":"levelo://app?vid=9e47fb19-eee4-4e07-b7f1-8ce1b8050977","ios":"levelo://app?vid=9e47fb19-eee4-4e07-b7f1-8ce1b8050977"},"vehicle_type_id":"4","last_reported":1698250121,"current_range_meters":17200,"station_id":"ce4bgrp2rcd13ifvqc9g","pricing_plan_id":"free"},{"bike_id":"43ca5111-3f26-4a24-8163-510950d13aa0","system_id":"levelo_inurba_marseille","lat":43.30536,"lon":5.3654,"is_reserved":false,"is_disabled":false,"rental_uris":{"android":"levelo://app?vid=43ca5111-3f26-4a24-8163-510950d13aa0","ios":"levelo://app?vid=43ca5111-3f26-4a24-8163-510950d13aa0"},"vehicle_type_id":"4","last_reported":1698250121,"current_range_meters":10800,"station_id":"ce4bgs12rcd13ifvqcag","pricing_plan_id":"free"},{"bike_id":"f252b071-dddd-4e5f-ad07-506846af6d1a","system_id":"levelo_inurba_marseille","lat":43.3053,"lon":5.3655,"is_reserved":false,"is_disabled":false,"rental_uris":{"android":"levelo://app?vid=f252b071-dddd-4e5f-ad07-506846af6d1a","ios":"levelo://app?vid=f252b071-dddd-4e5f-ad07-506846af6d1a"},"vehicle_type_id":"4","last_reported":1698250121,"current_range_meters":11600,"station_id":"ce4bgs12rcd13ifvqcag","pricing_plan_id":"free"},{"bike_id":"a72f655c-37f7-4775-9238-0215cb9d0f34","system_id":"levelo_inurba_marseille","lat":43.306153,"lon":5.372277,"is_reserved":false,"is_disabled":false,"rental_uris":{"android":"levelo://app?vid=a72f655c-37f7-4775-9238-0215cb9d0f34","ios":"levelo://app?vid=a72f655c-37f7-4775-9238-0215cb9d0f34"},"vehicle_type_id":"4","last_reported":1698250121,"current_range_meters":18000,"station_id":"ce4bgqh2rcd13ifvqc4g","pricing_plan_id":"free"},{"bike_id":"62226e34-24fc-46ec-a66d-03504bc1e084","system_id":"levelo_inurba_marseille","lat":43.305989,"lon":5.37225,"is_reserved":false,"is_disabled":false,"rental_uris":{"android":"levelo://app?vid=62226e34-24fc-46ec-a66d-03504bc1e084","ios":"levelo://app?vid=62226e34-24fc-46ec-a66d-03504bc1e084"},"vehicle_type_id":"4","last_reported":1698250121,"current_range_meters":31200,"station_id":"ce4bgqh2rcd13ifvqc4g","pricing_plan_id":"free"},{"bike_id":"4c846280-c3d1-4def-9fe5-dc24dedbb472","system_id":"levelo_inurba_marseille","lat":43.305989,"lon":5.37225,"is_reserved":false,"is_disabled":false,"rental_uris":{"android":"levelo://app?vid=4c846280-c3d1-4def-9fe5-dc24dedbb472","ios":"levelo://app?vid=4c846280-c3d1-4def-9fe5-dc24dedbb472"},"vehicle_type_id":"4","last_reported":1698250121,"current_range_meters":14000,"station_id":"ce4bgqh2rcd13ifvqc4g","pricing_plan_id":"free"},{"bike_id":"dc52e251-400e-485a-8abe-9ac4c99cd63e","system_id":"levelo_inurba_marseille","lat":43.305989,"lon":5.37225,"is_reserved":false,"is_disabled":false,"rental_uris":{"android":"levelo://app?vid=dc52e251-400e-485a-8abe-9ac4c99cd63e","ios":"levelo://app?vid=dc52e251-400e-485a-8abe-9ac4c99cd63e"},"vehicle_type_id":"4","last_reported":1698250121,"current_range_meters":24400,"station_id":"ce4bgqh2rcd13ifvqc4g","pricing_plan_id":"free"},{"bike_id":"8669d5da-a001-47ce-a581-b5fb863b2661","system_id":"levelo_inurba_marseille","lat":43.305989,"lon":5.37225,"is_reserved":false,"is_disabled":false,"rental_uris":{"android":"levelo://app?vid=8669d5da-a001-47ce-a581-b5fb863b2661","ios":"levelo://app?vid=8669d5da-a001-47ce-a581-b5fb863b2661"},"vehicle_type_id":"4","last_reported":1698250121,"current_range_meters":24000,"station_id":"ce4bgqh2rcd13ifvqc4g","pricing_plan_id":"free"},{"bike_id":"d7819b9c-17ff-48ba-8353-ad1e7e139653","system_id":"levelo_inurba_marseille","lat":43.311131,"lon":5.377774,"is_reserved":false,"is_disabled":false,"rental_uris":{"android":"levelo://app?vid=d7819b9c-17ff-48ba-8353-ad1e7e139653","ios":"levelo://app?vid=d7819b9c-17ff-48ba-8353-ad1e7e139653"},"vehicle_type_id":"4","last_reported":1698250121,"current_range_meters":28400,"station_id":"ce4bgt92rcd13ifvqcg0","pricing_plan_id":"free"},{"bike_id":"2fe6addf-3f28-4e18-9be7-8e324eee151f","system_id":"levelo_inurba_marseille","lat":43.30501,"lon":5.37088,"is_reserved":false,"is_disabled":false,"rental_uris":{"android":"levelo://app?vid=2fe6addf-3f28-4e18-9be7-8e324eee151f","ios":"levelo://app?vid=2fe6addf-3f28-4e18-9be7-8e324eee151f"},"vehicle_type_id":"4","last_reported":1698250121,"current_range_meters":13600,"station_id":"","pricing_plan_id":"free"},{"bike_id":"26804411-5caf-4728-9d44-6646ae4d8eb2","system_id":"levelo_inurba_marseille","lat":43.303046,"lon":5.368981,"is_reserved":false,"is_disabled":false,"rental_uris":{"android":"levelo://app?vid=26804411-5caf-4728-9d44-6646ae4d8eb2","ios":"levelo://app?vid=26804411-5caf-4728-9d44-6646ae4d8eb2"},"vehicle_type_id":"4","last_reported":1698250121,"current_range_meters":31200,"station_id":"ce4bgqh2rcd13ifvqc5g","pricing_plan_id":"free"},{"bike_id":"26ad591c-b859-4117-a244-bb517e277408","system_id":"levelo_inurba_marseille","lat":43.30945,"lon":5.37955,"is_reserved":false,"is_disabled":false,"rental_uris":{"android":"levelo://app?vid=26ad591c-b859-4117-a244-bb517e277408","ios":"levelo://app?vid=26ad591c-b859-4117-a244-bb517e277408"},"vehicle_type_id":"4","last_reported":1698250121,"current_range_meters":0,"station_id":"","pricing_plan_id":"free"},{"bike_id":"424bb2da-c9f4-4de0-a888-8a0bde12c5d5","system_id":"levelo_inurba_marseille","lat":43.3153,"lon":5.38036,"is_reserved":false,"is_disabled":false,"rental_uris":{"android":"levelo://app?vid=424bb2da-c9f4-4de0-a888-8a0bde12c5d5","ios":"levelo://app?vid=424bb2da-c9f4-4de0-a888-8a0bde12c5d5"},"vehicle_type_id":"4","last_reported":1698250121,"current_range_meters":17600,"station_id":"ce4bhsp2rcd13ifvqi50","pricing_plan_id":"free"},{"bike_id":"5c2b8f23-f2aa-4696-9697-f03dd2ede8ee","system_id":"levelo_inurba_marseille","lat":43.32183,"lon":5.375055,"is_reserved":false,"is_disabled":false,"rental_uris":{"android":"levelo://app?vid=5c2b8f23-f2aa-4696-9697-f03dd2ede8ee","ios":"levelo://app?vid=5c2b8f23-f2aa-4696-9697-f03dd2ede8ee"},"vehicle_type_id":"4","last_reported":1698250121,"current_range_meters":16400,"station_id":"","pricing_plan_id":"free"},{"bike_id":"c7851b40-2894-404d-82fb-9e2fee8a5f55","system_id":"levelo_inurba_marseille","lat":43.304606,"lon":5.379026,"is_reserved":false,"is_disabled":false,"rental_uris":{"android":"levelo://app?vid=c7851b40-2894-404d-82fb-9e2fee8a5f55","ios":"levelo://app?vid=c7851b40-2894-404d-82fb-9e2fee8a5f55"},"vehicle_type_id":"4","last_reported":1698250121,"current_range_meters":10800,"station_id":"ce4bgup2rcd13ifvqcn0","pricing_plan_id":"free"},{"bike_id":"a74a2625-5a89-4599-8c4e-15502a121722","system_id":"levelo_inurba_marseille","lat":43.304606,"lon":5.379026,"is_reserved":false,"is_disabled":false,"rental_uris":{"android":"levelo://app?vid=a74a2625-5a89-4599-8c4e-15502a121722","ios":"levelo://app?vid=a74a2625-5a89-4599-8c4e-15502a121722"},"vehicle_type_id":"4","last_reported":1698250121,"current_range_meters":7200,"station_id":"ce4bgup2rcd13ifvqcn0","pricing_plan_id":"free"},{"bike_id":"1047bcc5-10ff-460b-bd6f-eac1d4a67db4","system_id":"levelo_inurba_marseille","lat":43.31745,"lon":5.382537,"is_reserved":false,"is_disabled":false,"rental_uris":{"android":"levelo://app?vid=1047bcc5-10ff-460b-bd6f-eac1d4a67db4","ios":"levelo://app?vid=1047bcc5-10ff-460b-bd6f-eac1d4a67db4"},"vehicle_type_id":"4","last_reported":1698250121,"current_range_meters":3600,"station_id":"","pricing_plan_id":"free"},{"bike_id":"f80e8d45-a927-459f-9859-d99f91c63994","system_id":"levelo_inurba_marseille","lat":43.301429,"lon":5.37413,"is_reserved":false,"is_disabled":false,"rental_uris":{"android":"levelo://app?vid=f80e8d45-a927-459f-9859-d99f91c63994","ios":"levelo://app?vid=f80e8d45-a927-459f-9859-d99f91c63994"},"vehicle_type_id":"4","last_reported":1698250121,"current_range_meters":26400,"station_id":"ce4bgs92rcd13ifvqcc0","pricing_plan_id":"free"},{"bike_id":"29dc1716-08ad-4234-aa83-7c4f67e931f6","system_id":"levelo_inurba_marseille","lat":43.301429,"lon":5.37413,"is_reserved":false,"is_disabled":false,"rental_uris":{"android":"levelo://app?vid=29dc1716-08ad-4234-aa83-7c4f67e931f6","ios":"levelo://app?vid=29dc1716-08ad-4234-aa83-7c4f67e931f6"},"vehicle_type_id":"4","last_reported":1698250121,"current_range_meters":16000,"station_id":"ce4bgs92rcd13ifvqcc0","pricing_plan_id":"free"},{"bike_id":"73c6c664-2c4e-403f-b0c3-393f4315b035","system_id":"levelo_inurba_marseille","lat":43.319893,"lon":5.381183,"is_reserved":false,"is_disabled":false,"rental_uris":{"android":"levelo://app?vid=73c6c664-2c4e-403f-b0c3-393f4315b035","ios":"levelo://app?vid=73c6c664-2c4e-403f-b0c3-393f4315b035"},"vehicle_type_id":"4","last_reported":1698250121,"current_range_meters":27200,"station_id":"ce4bhr12rcd13ifvqhpg","pricing_plan_id":"free"},{"bike_id":"d34028e0-3792-4cc5-93dd-0a721f8927d4","system_id":"levelo_inurba_marseille","lat":43.319935,"lon":5.381699,"is_reserved":false,"is_disabled":false,"rental_uris":{"android":"levelo://app?vid=d34028e0-3792-4cc5-93dd-0a721f8927d4","ios":"levelo://app?vid=d34028e0-3792-4cc5-93dd-0a721f8927d4"},"vehicle_type_id":"4","last_reported":1698250121,"current_range_meters":18000,"station_id":"ce4bhr12rcd13ifvqhpg","pricing_plan_id":"free"},{"bike_id":"46e59620-997e-486c-a36f-24a6f0541ad5","system_id":"levelo_inurba_marseille","lat":43.319937,"lon":5.381563,"is_reserved":false,"is_disabled":false,"rental_uris":{"android":"levelo://app?vid=46e59620-997e-486c-a36f-24a6f0541ad5","ios":"levelo://app?vid=46e59620-997e-486c-a36f-24a6f0541ad5"},"vehicle_type_id":"4","last_reported":1698250121,"current_range_meters":14000,"station_id":"","pricing_plan_id":"free"},{"bike_id":"f507e8be-9b3f-472c-a252-5dd0f9edfd30","system_id":"levelo_inurba_marseille","lat":43.313571,"lon":5.384829,"is_reserved":false,"is_disabled":false,"rental_uris":{"android":"levelo://app?vid=f507e8be-9b3f-472c-a252-5dd0f9edfd30","ios":"levelo://app?vid=f507e8be-9b3f-472c-a252-5dd0f9edfd30"},"vehicle_type_id":"4","last_reported":1698250121,"current_range_meters":27200,"station_id":"ce4bgt92rcd13ifvqcf0","pricing_plan_id":"free"},{"bike_id":"b76119d1-f975-44ae-be55-f89c4f565f7c","system_id":"levelo_inurba_marseille","lat":43.313571,"lon":5.384829,"is_reserved":false,"is_disabled":false,"rental_uris":{"android":"levelo://app?vid=b76119d1-f975-44ae-be55-f89c4f565f7c","ios":"levelo://app?vid=b76119d1-f975-44ae-be55-f89c4f565f7c"},"vehicle_type_id":"4","last_reported":1698250121,"current_range_meters":14800,"station_id":"ce4bgt92rcd13ifvqcf0","pricing_plan_id":"free"},{"bike_id":"97997ef7-b347-4148-ba57-9a15ecc4912d","system_id":"levelo_inurba_marseille","lat":43.320945,"lon":5.38306,"is_reserved":false,"is_disabled":false,"rental_uris":{"android":"levelo://app?vid=97997ef7-b347-4148-ba57-9a15ecc4912d","ios":"levelo://app?vid=97997ef7-b347-4148-ba57-9a15ecc4912d"},"vehicle_type_id":"4","last_reported":1698250121,"current_range_meters":4400,"station_id":"","pricing_plan_id":"free"},{"bike_id":"c9f22466-257b-44f4-b9d1-d921a6967f13","system_id":"levelo_inurba_marseille","lat":43.311722,"lon":5.387247,"is_reserved":false,"is_disabled":false,"rental_uris":{"android":"levelo://app?vid=c9f22466-257b-44f4-b9d1-d921a6967f13","ios":"levelo://app?vid=c9f22466-257b-44f4-b9d1-d921a6967f13"},"vehicle_type_id":"4","last_reported":1698250121,"current_range_meters":19200,"station_id":"ce4bgv12rcd13ifvqcp0","pricing_plan_id":"free"},{"bike_id":"8a0f5abf-1bc3-456b-bae9-a9a008227d11","system_id":"levelo_inurba_marseille","lat":43.297794,"lon":5.370888,"is_reserved":false,"is_disabled":false,"rental_uris":{"android":"levelo://app?vid=8a0f5abf-1bc3-456b-bae9-a9a008227d11","ios":"levelo://app?vid=8a0f5abf-1bc3-456b-bae9-a9a008227d11"},"vehicle_type_id":"4","last_reported":1698250121,"current_range_meters":8800,"station_id":"ce4bgop2rcd13ifvqc1g","pricing_plan_id":"free"},{"bike_id":"2cb55403-67fb-4dc4-a23d-ed44a0a6b4f7","system_id":"levelo_inurba_marseille","lat":43.32827,"lon":5.36679,"is_reserved":false,"is_disabled":false,"rental_uris":{"android":"levelo://app?vid=2cb55403-67fb-4dc4-a23d-ed44a0a6b4f7","ios":"levelo://app?vid=2cb55403-67fb-4dc4-a23d-ed44a0a6b4f7"},"vehicle_type_id":"4","last_reported":1698250121,"current_range_meters":0,"station_id":"","pricing_plan_id":"free"},{"bike_id":"512a0d9b-8f6a-4f7e-ad27-a3386323b43f","system_id":"levelo_inurba_marseille","lat":43.32829,"lon":5.36684,"is_reserved":false,"is_disabled":false,"rental_uris":{"android":"levelo://app?vid=512a0d9b-8f6a-4f7e-ad27-a3386323b43f","ios":"levelo://app?vid=512a0d9b-8f6a-4f7e-ad27-a3386323b43f"},"vehicle_type_id":"4","last_reported":1698250121,"current_range_meters":20400,"station_id":"ce4bhs92rcd13ifvqi0g","pricing_plan_id":"free"},{"bike_id":"2bf09692-7151-4aba-9fa7-8ce1d6106004","system_id":"levelo_inurba_marseille","lat":43.328303,"lon":5.366873,"is_reserved":false,"is_disabled":false,"rental_uris":{"android":"levelo://app?vid=2bf09692-7151-4aba-9fa7-8ce1d6106004","ios":"levelo://app?vid=2bf09692-7151-4aba-9fa7-8ce1d6106004"},"vehicle_type_id":"4","last_reported":1698250121,"current_range_meters":24000,"station_id":"","pricing_plan_id":"free"},{"bike_id":"06e5816c-1a41-4671-9990-eddc8c155d29","system_id":"levelo_inurba_marseille","lat":43.32832,"lon":5.36694,"is_reserved":false,"is_disabled":false,"rental_uris":{"android":"levelo://app?vid=06e5816c-1a41-4671-9990-eddc8c155d29","ios":"levelo://app?vid=06e5816c-1a41-4671-9990-eddc8c155d29"},"vehicle_type_id":"4","last_reported":1698250121,"current_range_meters":7600,"station_id":"ce4bhs92rcd13ifvqi0g","pricing_plan_id":"free"},{"bike_id":"4b864192-aded-475b-9c0d-5f054a348cd8","system_id":"levelo_inurba_marseille","lat":43.297079,"lon":5.366077,"is_reserved":false,"is_disabled":false,"rental_uris":{"android":"levelo://app?vid=4b864192-aded-475b-9c0d-5f054a348cd8","ios":"levelo://app?vid=4b864192-aded-475b-9c0d-5f054a348cd8"},"vehicle_type_id":"4","last_reported":1698250121,"current_range_meters":16000,"station_id":"ce4bgn12rcd13ifvqbt0","pricing_plan_id":"free"},{"bike_id":"2c8d871e-33f9-4907-9fbe-e41455273434","system_id":"levelo_inurba_marseille","lat":43.29702,"lon":5.366079,"is_reserved":false,"is_disabled":false,"rental_uris":{"android":"levelo://app?vid=2c8d871e-33f9-4907-9fbe-e41455273434","ios":"levelo://app?vid=2c8d871e-33f9-4907-9fbe-e41455273434"},"vehicle_type_id":"4","last_reported":1698250121,"current_range_meters":31200,"station_id":"ce4bgn12rcd13ifvqbt0","pricing_plan_id":"free"},{"bike_id":"418b9286-fd98-4cfa-ae60-81075ffc2682","system_id":"levelo_inurba_marseille","lat":43.32884,"lon":5.36392,"is_reserved":false,"is_disabled":false,"rental_uris":{"android":"levelo://app?vid=418b9286-fd98-4cfa-ae60-81075ffc2682","ios":"levelo://app?vid=418b9286-fd98-4cfa-ae60-81075ffc2682"},"vehicle_type_id":"4","last_reported":1698250121,"current_range_meters":0,"station_id":"","pricing_plan_id":"free"},{"bike_id":"05948396-051f-4eeb-a44f-863d2a524d01","system_id":"levelo_inurba_marseille","lat":43.2968,"lon":5.37291,"is_reserved":false,"is_disabled":false,"rental_uris":{"android":"levelo://app?vid=05948396-051f-4eeb-a44f-863d2a524d01","ios":"levelo://app?vid=05948396-051f-4eeb-a44f-863d2a524d01"},"vehicle_type_id":"4","last_reported":1698250121,"current_range_meters":2800,"station_id":"ce4bgk12rcd13ifvqbj0","pricing_plan_id":"free"},{"bike_id":"39ed8ad1-077d-44ff-a16e-e08e2981e37c","system_id":"levelo_inurba_marseille","lat":43.29626,"lon":5.36342,"is_reserved":false,"is_disabled":false,"rental_uris":{"android":"levelo://app?vid=39ed8ad1-077d-44ff-a16e-e08e2981e37c","ios":"levelo://app?vid=39ed8ad1-077d-44ff-a16e-e08e2981e37c"},"vehicle_type_id":"4","last_reported":1698250121,"current_range_meters":10800,"station_id":"","pricing_plan_id":"free"},{"bike_id":"81e72559-a875-44a8-ac20-cb14be191031","system_id":"levelo_inurba_marseille","lat":43.29619,"lon":5.37151,"is_reserved":false,"is_disabled":false,"rental_uris":{"android":"levelo://app?vid=81e72559-a875-44a8-ac20-cb14be191031","ios":"levelo://app?vid=81e72559-a875-44a8-ac20-cb14be191031"},"vehicle_type_id":"4","last_reported":1698250121,"current_range_meters":0,"station_id":"ce4bgk12rcd13ifvqbj0","pricing_plan_id":"free"},{"bike_id":"f3d0381f-7a2d-409e-a12f-bd3d9095653d","system_id":"levelo_inurba_marseille","lat":43.329673,"lon":5.365468,"is_reserved":false,"is_disabled":false,"rental_uris":{"android":"levelo://app?vid=f3d0381f-7a2d-409e-a12f-bd3d9095653d","ios":"levelo://app?vid=f3d0381f-7a2d-409e-a12f-bd3d9095653d"},"vehicle_type_id":"4","last_reported":1698250121,"current_range_meters":16400,"station_id":"","pricing_plan_id":"free"},{"bike_id":"cf56d963-b829-457c-865d-bc62483248f1","system_id":"levelo_inurba_marseille","lat":43.299028,"lon":5.381509,"is_reserved":false,"is_disabled":false,"rental_uris":{"android":"levelo://app?vid=cf56d963-b829-457c-865d-bc62483248f1","ios":"levelo://app?vid=cf56d963-b829-457c-865d-bc62483248f1"},"vehicle_type_id":"4","last_reported":1698250121,"current_range_meters":25200,"station_id":"ce4bgj12rcd13ifvqbc0","pricing_plan_id":"free"},{"bike_id":"836968a8-95d8-4c8e-8aca-23d297030b4e","system_id":"levelo_inurba_marseille","lat":43.299028,"lon":5.381509,"is_reserved":false,"is_disabled":false,"rental_uris":{"android":"levelo://app?vid=836968a8-95d8-4c8e-8aca-23d297030b4e","ios":"levelo://app?vid=836968a8-95d8-4c8e-8aca-23d297030b4e"},"vehicle_type_id":"4","last_reported":1698250121,"current_range_meters":26000,"station_id":"ce4bgj12rcd13ifvqbc0","pricing_plan_id":"free"},{"bike_id":"d2ca3370-8573-46e7-af0a-b67a405cc636","system_id":"levelo_inurba_marseille","lat":43.317557,"lon":5.390173,"is_reserved":false,"is_disabled":false,"rental_uris":{"android":"levelo://app?vid=d2ca3370-8573-46e7-af0a-b67a405cc636","ios":"levelo://app?vid=d2ca3370-8573-46e7-af0a-b67a405cc636"},"vehicle_type_id":"4","last_reported":1698250121,"current_range_meters":22800,"station_id":"ce4bhqp2rcd13ifvqhng","pricing_plan_id":"free"},{"bike_id":"b83fbd41-1a64-431f-a30e-a2e3213e7210","system_id":"levelo_inurba_marseille","lat":43.317557,"lon":5.390173,"is_reserved":false,"is_disabled":false,"rental_uris":{"android":"levelo://app?vid=b83fbd41-1a64-431f-a30e-a2e3213e7210","ios":"levelo://app?vid=b83fbd41-1a64-431f-a30e-a2e3213e7210"},"vehicle_type_id":"4","last_reported":1698250121,"current_range_meters":17600,"station_id":"ce4bhqp2rcd13ifvqhng","pricing_plan_id":"free"},{"bike_id":"ee2ddceb-2d09-40be-bad4-e547a4ae1e2e","system_id":"levelo_inurba_marseille","lat":43.304274,"lon":5.388873,"is_reserved":false,"is_disabled":false,"rental_uris":{"android":"levelo://app?vid=ee2ddceb-2d09-40be-bad4-e547a4ae1e2e","ios":"levelo://app?vid=ee2ddceb-2d09-40be-bad4-e547a4ae1e2e"},"vehicle_type_id":"4","last_reported":1698250121,"current_range_meters":11200,"station_id":"ce4bgk12rcd13ifvqbi0","pricing_plan_id":"free"},{"bike_id":"d1422ced-947c-47a6-b64c-42b111176fb9","system_id":"levelo_inurba_marseille","lat":43.304274,"lon":5.388873,"is_reserved":false,"is_disabled":false,"rental_uris":{"android":"levelo://app?vid=d1422ced-947c-47a6-b64c-42b111176fb9","ios":"levelo://app?vid=d1422ced-947c-47a6-b64c-42b111176fb9"},"vehicle_type_id":"4","last_reported":1698250121,"current_range_meters":16400,"station_id":"ce4bgk12rcd13ifvqbi0","pricing_plan_id":"free"},{"bike_id":"322c5da3-528d-4afb-be91-5b208e7906ce","system_id":"levelo_inurba_marseille","lat":43.299717,"lon":5.384845,"is_reserved":false,"is_disabled":false,"rental_uris":{"android":"levelo://app?vid=322c5da3-528d-4afb-be91-5b208e7906ce","ios":"levelo://app?vid=322c5da3-528d-4afb-be91-5b208e7906ce"},"vehicle_type_id":"4","last_reported":1698250121,"current_range_meters":20400,"station_id":"ce4bgj92rcd13ifvqbd0","pricing_plan_id":"free"},{"bike_id":"36390995-08cb-4001-862e-817ab3a489cd","system_id":"levelo_inurba_marseille","lat":43.29835,"lon":5.38316,"is_reserved":false,"is_disabled":false,"rental_uris":{"android":"levelo://app?vid=36390995-08cb-4001-862e-817ab3a489cd","ios":"levelo://app?vid=36390995-08cb-4001-862e-817ab3a489cd"},"vehicle_type_id":"4","last_reported":1698250121,"current_range_meters":10000,"station_id":"","pricing_plan_id":"free"},{"bike_id":"b4292b1b-4f45-455f-871e-7573d8a73258","system_id":"levelo_inurba_marseille","lat":43.294803,"lon":5.37484,"is_reserved":false,"is_disabled":false,"rental_uris":{"android":"levelo://app?vid=b4292b1b-4f45-455f-871e-7573d8a73258","ios":"levelo://app?vid=b4292b1b-4f45-455f-871e-7573d8a73258"},"vehicle_type_id":"4","last_reported":1698250121,"current_range_meters":8400,"station_id":"","pricing_plan_id":"free"},{"bike_id":"50ba0a4e-dc52-4b36-bbea-ef74378b458b","system_id":"levelo_inurba_marseille","lat":43.29698,"lon":5.3812,"is_reserved":false,"is_disabled":false,"rental_uris":{"android":"levelo://app?vid=50ba0a4e-dc52-4b36-bbea-ef74378b458b","ios":"levelo://app?vid=50ba0a4e-dc52-4b36-bbea-ef74378b458b"},"vehicle_type_id":"4","last_reported":1698250121,"current_range_meters":5600,"station_id":"","pricing_plan_id":"free"},{"bike_id":"56f25917-9d88-476d-a60d-dac2ff0f725d","system_id":"levelo_inurba_marseille","lat":43.323765,"lon":5.389265,"is_reserved":false,"is_disabled":false,"rental_uris":{"android":"levelo://app?vid=56f25917-9d88-476d-a60d-dac2ff0f725d","ios":"levelo://app?vid=56f25917-9d88-476d-a60d-dac2ff0f725d"},"vehicle_type_id":"4","last_reported":1698250121,"current_range_meters":1600,"station_id":"ce4bhqp2rcd13ifvqhog","pricing_plan_id":"free"},{"bike_id":"a2da83ff-4156-4a3b-982c-690558b32a97","system_id":"levelo_inurba_marseille","lat":43.295908,"lon":5.381095,"is_reserved":false,"is_disabled":false,"rental_uris":{"android":"levelo://app?vid=a2da83ff-4156-4a3b-982c-690558b32a97","ios":"levelo://app?vid=a2da83ff-4156-4a3b-982c-690558b32a97"},"vehicle_type_id":"4","last_reported":1698250121,"current_range_meters":8800,"station_id":"ce4bgl12rcd13ifvqbo0","pricing_plan_id":"free"},{"bike_id":"bbab7e28-ee01-4080-b12e-dd8baccd43d0","system_id":"levelo_inurba_marseille","lat":43.32394,"lon":5.389747,"is_reserved":false,"is_disabled":false,"rental_uris":{"android":"levelo://app?vid=bbab7e28-ee01-4080-b12e-dd8baccd43d0","ios":"levelo://app?vid=bbab7e28-ee01-4080-b12e-dd8baccd43d0"},"vehicle_type_id":"4","last_reported":1698250121,"current_range_meters":20000,"station_id":"","pricing_plan_id":"free"},{"bike_id":"bb82c854-6356-48f0-bcf0-c0437b5cd142","system_id":"levelo_inurba_marseille","lat":43.302248,"lon":5.390418,"is_reserved":false,"is_disabled":false,"rental_uris":{"android":"levelo://app?vid=bb82c854-6356-48f0-bcf0-c0437b5cd142","ios":"levelo://app?vid=bb82c854-6356-48f0-bcf0-c0437b5cd142"},"vehicle_type_id":"4","last_reported":1698250121,"current_range_meters":30400,"station_id":"","pricing_plan_id":"free"},{"bike_id":"072ecde3-8e5c-4d16-b583-9751995d1c56","system_id":"levelo_inurba_marseille","lat":43.292929,"lon":5.371462,"is_reserved":false,"is_disabled":false,"rental_uris":{"android":"levelo://app?vid=072ecde3-8e5c-4d16-b583-9751995d1c56","ios":"levelo://app?vid=072ecde3-8e5c-4d16-b583-9751995d1c56"},"vehicle_type_id":"4","last_reported":1698250121,"current_range_meters":27600,"station_id":"ce4bgh92rcd13ifvqb40","pricing_plan_id":"free"},{"bike_id":"a1e98f6f-7d43-438a-ad82-5b1de6dbab61","system_id":"levelo_inurba_marseille","lat":43.305994,"lon":5.393687,"is_reserved":false,"is_disabled":false,"rental_uris":{"android":"levelo://app?vid=a1e98f6f-7d43-438a-ad82-5b1de6dbab61","ios":"levelo://app?vid=a1e98f6f-7d43-438a-ad82-5b1de6dbab61"},"vehicle_type_id":"4","last_reported":1698250121,"current_range_meters":20800,"station_id":"ce4bh0p2rcd13ifvqd80","pricing_plan_id":"free"},{"bike_id":"5697a94d-5df6-4708-a929-66a2c65771c3","system_id":"levelo_inurba_marseille","lat":43.293009,"lon":5.374584,"is_reserved":false,"is_disabled":false,"rental_uris":{"android":"levelo://app?vid=5697a94d-5df6-4708-a929-66a2c65771c3","ios":"levelo://app?vid=5697a94d-5df6-4708-a929-66a2c65771c3"},"vehicle_type_id":"4","last_reported":1698250121,"current_range_meters":24000,"station_id":"ce4bgi12rcd13ifvqb70","pricing_plan_id":"free"},{"bike_id":"1c177986-8803-4747-8d88-635a09fa830e","system_id":"levelo_inurba_marseille","lat":43.303002,"lon":5.392142,"is_reserved":false,"is_disabled":false,"rental_uris":{"android":"levelo://app?vid=1c177986-8803-4747-8d88-635a09fa830e","ios":"levelo://app?vid=1c177986-8803-4747-8d88-635a09fa830e"},"vehicle_type_id":"4","last_reported":1698250121,"current_range_meters":5200,"station_id":"ce4bgkh2rcd13ifvqbk0","pricing_plan_id":"free"},{"bike_id":"be4b1c77-614e-488f-b9db-86567b67d644","system_id":"levelo_inurba_marseille","lat":43.298764,"lon":5.388973,"is_reserved":false,"is_disabled":false,"rental_uris":{"android":"levelo://app?vid=be4b1c77-614e-488f-b9db-86567b67d644","ios":"levelo://app?vid=be4b1c77-614e-488f-b9db-86567b67d644"},"vehicle_type_id":"4","last_reported":1698250121,"current_range_meters":24000,"station_id":"ce4bh392rcd13ifvqdl0","pricing_plan_id":"free"},{"bike_id":"14ff03b9-648c-44f6-ae85-2a7ac24a0375","system_id":"levelo_inurba_marseille","lat":43.292311,"lon":5.360731,"is_reserved":false,"is_disabled":false,"rental_uris":{"android":"levelo://app?vid=14ff03b9-648c-44f6-ae85-2a7ac24a0375","ios":"levelo://app?vid=14ff03b9-648c-44f6-ae85-2a7ac24a0375"},"vehicle_type_id":"4","last_reported":1698250121,"current_range_meters":5600,"station_id":"ce4bhbh2rcd13ifvqeqg","pricing_plan_id":"free"},{"bike_id":"e232e835-4e6e-487f-93ef-86cdfa4e87e7","system_id":"levelo_inurba_marseille","lat":43.300852,"lon":5.390859,"is_reserved":false,"is_disabled":false,"rental_uris":{"android":"levelo://app?vid=e232e835-4e6e-487f-93ef-86cdfa4e87e7","ios":"levelo://app?vid=e232e835-4e6e-487f-93ef-86cdfa4e87e7"},"vehicle_type_id":"4","last_reported":1698250121,"current_range_meters":19600,"station_id":"ce4bh192rcd13ifvqdb0","pricing_plan_id":"free"},{"bike_id":"8221aa9a-f0b2-45b8-b7c6-98bcc83044b9","system_id":"levelo_inurba_marseille","lat":43.300852,"lon":5.390859,"is_reserved":false,"is_disabled":false,"rental_uris":{"android":"levelo://app?vid=8221aa9a-f0b2-45b8-b7c6-98bcc83044b9","ios":"levelo://app?vid=8221aa9a-f0b2-45b8-b7c6-98bcc83044b9"},"vehicle_type_id":"4","last_reported":1698250121,"current_range_meters":9200,"station_id":"ce4bh192rcd13ifvqdb0","pricing_plan_id":"free"},{"bike_id":"e9195cc3-4a3b-4ad7-b5f6-eacfb5513fa0","system_id":"levelo_inurba_marseille","lat":43.29889,"lon":5.38893,"is_reserved":false,"is_disabled":false,"rental_uris":{"android":"levelo://app?vid=e9195cc3-4a3b-4ad7-b5f6-eacfb5513fa0","ios":"levelo://app?vid=e9195cc3-4a3b-4ad7-b5f6-eacfb5513fa0"},"vehicle_type_id":"4","last_reported":1698250121,"current_range_meters":10400,"station_id":"ce4bh392rcd13ifvqdl0","pricing_plan_id":"free"},{"bike_id":"41a6cd79-e97b-4cf4-8a3f-58a23a3c6c2d","system_id":"levelo_inurba_marseille","lat":43.298764,"lon":5.388973,"is_reserved":false,"is_disabled":false,"rental_uris":{"android":"levelo://app?vid=41a6cd79-e97b-4cf4-8a3f-58a23a3c6c2d","ios":"levelo://app?vid=41a6cd79-e97b-4cf4-8a3f-58a23a3c6c2d"},"vehicle_type_id":"4","last_reported":1698250121,"current_range_meters":8000,"station_id":"ce4bh392rcd13ifvqdl0","pricing_plan_id":"free"},{"bike_id":"81676d2b-4b61-4423-af0e-f808566d1dac","system_id":"levelo_inurba_marseille","lat":43.29884,"lon":5.38909,"is_reserved":false,"is_disabled":false,"rental_uris":{"android":"levelo://app?vid=81676d2b-4b61-4423-af0e-f808566d1dac","ios":"levelo://app?vid=81676d2b-4b61-4423-af0e-f808566d1dac"},"vehicle_type_id":"4","last_reported":1698250121,"current_range_meters":18000,"station_id":"ce4bh392rcd13ifvqdl0","pricing_plan_id":"free"},{"bike_id":"6ff98d26-2397-4db1-b4e5-5225eb730f19","system_id":"levelo_inurba_marseille","lat":43.29255,"lon":5.37629,"is_reserved":false,"is_disabled":false,"rental_uris":{"android":"levelo://app?vid=6ff98d26-2397-4db1-b4e5-5225eb730f19","ios":"levelo://app?vid=6ff98d26-2397-4db1-b4e5-5225eb730f19"},"vehicle_type_id":"4","last_reported":1698250121,"current_range_meters":28000,"station_id":"ce4bgi12rcd13ifvqb80","pricing_plan_id":"free"},{"bike_id":"2dd4b047-fd15-4df7-9cfd-9d0611f7854c","system_id":"levelo_inurba_marseille","lat":43.29203,"lon":5.3588,"is_reserved":false,"is_disabled":false,"rental_uris":{"android":"levelo://app?vid=2dd4b047-fd15-4df7-9cfd-9d0611f7854c","ios":"levelo://app?vid=2dd4b047-fd15-4df7-9cfd-9d0611f7854c"},"vehicle_type_id":"4","last_reported":1698250121,"current_range_meters":15600,"station_id":"ce4bhb12rcd13ifvqel0","pricing_plan_id":"free"},{"bike_id":"3d986b4d-5b04-42b1-a6b0-4edcaa417126","system_id":"levelo_inurba_marseille","lat":43.309047,"lon":5.396551,"is_reserved":false,"is_disabled":false,"rental_uris":{"android":"levelo://app?vid=3d986b4d-5b04-42b1-a6b0-4edcaa417126","ios":"levelo://app?vid=3d986b4d-5b04-42b1-a6b0-4edcaa417126"},"vehicle_type_id":"4","last_reported":1698250121,"current_range_meters":15600,"station_id":"ce4bh012rcd13ifvqcv0","pricing_plan_id":"free"},{"bike_id":"f36a063f-0415-4a40-9d56-17e56edf42e9","system_id":"levelo_inurba_marseille","lat":43.29191,"lon":5.35793,"is_reserved":false,"is_disabled":false,"rental_uris":{"android":"levelo://app?vid=f36a063f-0415-4a40-9d56-17e56edf42e9","ios":"levelo://app?vid=f36a063f-0415-4a40-9d56-17e56edf42e9"},"vehicle_type_id":"4","last_reported":1698250121,"current_range_meters":2400,"station_id":"ce4bhb12rcd13ifvqel0","pricing_plan_id":"free"},{"bike_id":"65ce0417-34d1-4c1a-b95c-188874ee33b0","system_id":"levelo_inurba_marseille","lat":43.31323,"lon":5.39694,"is_reserved":false,"is_disabled":false,"rental_uris":{"android":"levelo://app?vid=65ce0417-34d1-4c1a-b95c-188874ee33b0","ios":"levelo://app?vid=65ce0417-34d1-4c1a-b95c-188874ee33b0"},"vehicle_type_id":"4","last_reported":1698250121,"current_range_meters":2400,"station_id":"ce4bgvp2rcd13ifvqcu0","pricing_plan_id":"free"},{"bike_id":"2b190bad-89ed-4a20-8a86-3d5766bf4a7d","system_id":"levelo_inurba_marseille","lat":43.31324,"lon":5.39704,"is_reserved":false,"is_disabled":false,"rental_uris":{"android":"levelo://app?vid=2b190bad-89ed-4a20-8a86-3d5766bf4a7d","ios":"levelo://app?vid=2b190bad-89ed-4a20-8a86-3d5766bf4a7d"},"vehicle_type_id":"4","last_reported":1698250121,"current_range_meters":11600,"station_id":"ce4bgvp2rcd13ifvqcu0","pricing_plan_id":"free"},{"bike_id":"bccfd428-7e2f-4dff-8d88-8f7e5798c1eb","system_id":"levelo_inurba_marseille","lat":43.309047,"lon":5.396551,"is_reserved":false,"is_disabled":false,"rental_uris":{"android":"levelo://app?vid=bccfd428-7e2f-4dff-8d88-8f7e5798c1eb","ios":"levelo://app?vid=bccfd428-7e2f-4dff-8d88-8f7e5798c1eb"},"vehicle_type_id":"4","last_reported":1698250121,"current_range_meters":22400,"station_id":"ce4bh012rcd13ifvqcv0","pricing_plan_id":"free"},{"bike_id":"922ec95e-45a6-4a3b-b47b-e22cae95003c","system_id":"levelo_inurba_marseille","lat":43.309047,"lon":5.396551,"is_reserved":false,"is_disabled":false,"rental_uris":{"android":"levelo://app?vid=922ec95e-45a6-4a3b-b47b-e22cae95003c","ios":"levelo://app?vid=922ec95e-45a6-4a3b-b47b-e22cae95003c"},"vehicle_type_id":"4","last_reported":1698250121,"current_range_meters":4800,"station_id":"ce4bh012rcd13ifvqcv0","pricing_plan_id":"free"},{"bike_id":"a5c9bcc8-2efa-418b-bafc-bab95419a592","system_id":"levelo_inurba_marseille","lat":43.309047,"lon":5.396551,"is_reserved":false,"is_disabled":false,"rental_uris":{"android":"levelo://app?vid=a5c9bcc8-2efa-418b-bafc-bab95419a592","ios":"levelo://app?vid=a5c9bcc8-2efa-418b-bafc-bab95419a592"},"vehicle_type_id":"4","last_reported":1698250121,"current_range_meters":14800,"station_id":"ce4bh012rcd13ifvqcv0","pricing_plan_id":"free"},{"bike_id":"973db20b-0fdd-4e9c-989d-7f7c902a8444","system_id":"levelo_inurba_marseille","lat":43.309047,"lon":5.396551,"is_reserved":false,"is_disabled":false,"rental_uris":{"android":"levelo://app?vid=973db20b-0fdd-4e9c-989d-7f7c902a8444","ios":"levelo://app?vid=973db20b-0fdd-4e9c-989d-7f7c902a8444"},"vehicle_type_id":"4","last_reported":1698250121,"current_range_meters":4000,"station_id":"ce4bh012rcd13ifvqcv0","pricing_plan_id":"free"},{"bike_id":"d323dfdc-3dbe-4266-b85c-80c05fa8980e","system_id":"levelo_inurba_marseille","lat":43.29529,"lon":5.385581,"is_reserved":false,"is_disabled":false,"rental_uris":{"android":"levelo://app?vid=d323dfdc-3dbe-4266-b85c-80c05fa8980e","ios":"levelo://app?vid=d323dfdc-3dbe-4266-b85c-80c05fa8980e"},"vehicle_type_id":"4","last_reported":1698250121,"current_range_meters":24800,"station_id":"ce4bgih2rcd13ifvqba0","pricing_plan_id":"free"},{"bike_id":"b2e25566-9c08-4cc2-9de5-27b5a0182a05","system_id":"levelo_inurba_marseille","lat":43.289184,"lon":5.366408,"is_reserved":false,"is_disabled":false,"rental_uris":{"android":"levelo://app?vid=b2e25566-9c08-4cc2-9de5-27b5a0182a05","ios":"levelo://app?vid=b2e25566-9c08-4cc2-9de5-27b5a0182a05"},"vehicle_type_id":"4","last_reported":1698250121,"current_range_meters":28000,"station_id":"ce4bhap2rcd13ifvqek0","pricing_plan_id":"free"},{"bike_id":"d445e7dc-8f39-4198-8d15-1838ad42556e","system_id":"levelo_inurba_marseille","lat":43.30205,"lon":5.39475,"is_reserved":false,"is_disabled":false,"rental_uris":{"android":"levelo://app?vid=d445e7dc-8f39-4198-8d15-1838ad42556e","ios":"levelo://app?vid=d445e7dc-8f39-4198-8d15-1838ad42556e"},"vehicle_type_id":"4","last_reported":1698250121,"current_range_meters":14400,"station_id":"ce4bh0p2rcd13ifvqd70","pricing_plan_id":"free"},{"bike_id":"3ba9337c-3a4c-4b79-bb22-9c08f678ee27","system_id":"levelo_inurba_marseille","lat":43.3339,"lon":5.37907,"is_reserved":false,"is_disabled":false,"rental_uris":{"android":"levelo://app?vid=3ba9337c-3a4c-4b79-bb22-9c08f678ee27","ios":"levelo://app?vid=3ba9337c-3a4c-4b79-bb22-9c08f678ee27"},"vehicle_type_id":"4","last_reported":1698250121,"current_range_meters":26000,"station_id":"","pricing_plan_id":"free"},{"bike_id":"676004f2-ccff-47a3-80e4-9701239a74b4","system_id":"levelo_inurba_marseille","lat":43.2904,"lon":5.35927,"is_reserved":false,"is_disabled":false,"rental_uris":{"android":"levelo://app?vid=676004f2-ccff-47a3-80e4-9701239a74b4","ios":"levelo://app?vid=676004f2-ccff-47a3-80e4-9701239a74b4"},"vehicle_type_id":"4","last_reported":1698250121,"current_range_meters":26400,"station_id":"ce4bha92rcd13ifvqeg0","pricing_plan_id":"free"},{"bike_id":"5da1d097-24a1-4287-9cdb-0827e20164ce","system_id":"levelo_inurba_marseille","lat":43.29035,"lon":5.3591,"is_reserved":false,"is_disabled":false,"rental_uris":{"android":"levelo://app?vid=5da1d097-24a1-4287-9cdb-0827e20164ce","ios":"levelo://app?vid=5da1d097-24a1-4287-9cdb-0827e20164ce"},"vehicle_type_id":"4","last_reported":1698250121,"current_range_meters":12800,"station_id":"ce4bha92rcd13ifvqeg0","pricing_plan_id":"free"},{"bike_id":"db010902-5cd4-4c5d-aa1b-93af8355edb7","system_id":"levelo_inurba_marseille","lat":43.290631,"lon":5.359244,"is_reserved":false,"is_disabled":false,"rental_uris":{"android":"levelo://app?vid=db010902-5cd4-4c5d-aa1b-93af8355edb7","ios":"levelo://app?vid=db010902-5cd4-4c5d-aa1b-93af8355edb7"},"vehicle_type_id":"4","last_reported":1698250121,"current_range_meters":12400,"station_id":"ce4bha92rcd13ifvqeg0","pricing_plan_id":"free"},{"bike_id":"c6c39874-bb05-4ebc-ae64-349b30c616e6","system_id":"levelo_inurba_marseille","lat":43.294153,"lon":5.386305,"is_reserved":false,"is_disabled":false,"rental_uris":{"android":"levelo://app?vid=c6c39874-bb05-4ebc-ae64-349b30c616e6","ios":"levelo://app?vid=c6c39874-bb05-4ebc-ae64-349b30c616e6"},"vehicle_type_id":"4","last_reported":1698250121,"current_range_meters":22800,"station_id":"ce4bh2h2rcd13ifvqdh0","pricing_plan_id":"free"},{"bike_id":"1d429ee4-7e1a-4df0-be29-b0f8d7f2853f","system_id":"levelo_inurba_marseille","lat":43.2942,"lon":5.38626,"is_reserved":false,"is_disabled":false,"rental_uris":{"android":"levelo://app?vid=1d429ee4-7e1a-4df0-be29-b0f8d7f2853f","ios":"levelo://app?vid=1d429ee4-7e1a-4df0-be29-b0f8d7f2853f"},"vehicle_type_id":"4","last_reported":1698250121,"current_range_meters":14800,"station_id":"ce4bh2h2rcd13ifvqdh0","pricing_plan_id":"free"},{"bike_id":"60d22e1d-a4e5-428e-971d-ad5eec05072e","system_id":"levelo_inurba_marseille","lat":43.294162,"lon":5.386292,"is_reserved":false,"is_disabled":false,"rental_uris":{"android":"levelo://app?vid=60d22e1d-a4e5-428e-971d-ad5eec05072e","ios":"levelo://app?vid=60d22e1d-a4e5-428e-971d-ad5eec05072e"},"vehicle_type_id":"4","last_reported":1698250121,"current_range_meters":21600,"station_id":"ce4bh2h2rcd13ifvqdh0","pricing_plan_id":"free"},{"bike_id":"350b1b71-ccfd-415a-a9e9-8bd20c5b118c","system_id":"levelo_inurba_marseille","lat":43.294162,"lon":5.386292,"is_reserved":false,"is_disabled":false,"rental_uris":{"android":"levelo://app?vid=350b1b71-ccfd-415a-a9e9-8bd20c5b118c","ios":"levelo://app?vid=350b1b71-ccfd-415a-a9e9-8bd20c5b118c"},"vehicle_type_id":"4","last_reported":1698250121,"current_range_meters":14000,"station_id":"ce4bh2h2rcd13ifvqdh0","pricing_plan_id":"free"},{"bike_id":"b6daacbf-228e-40c0-9c60-01cf25d59d1d","system_id":"levelo_inurba_marseille","lat":43.289184,"lon":5.366408,"is_reserved":false,"is_disabled":false,"rental_uris":{"android":"levelo://app?vid=b6daacbf-228e-40c0-9c60-01cf25d59d1d","ios":"levelo://app?vid=b6daacbf-228e-40c0-9c60-01cf25d59d1d"},"vehicle_type_id":"4","last_reported":1698250121,"current_range_meters":27600,"station_id":"ce4bhap2rcd13ifvqek0","pricing_plan_id":"free"},{"bike_id":"5e34a2a8-77d8-4caa-9263-2e1342d2e3c4","system_id":"levelo_inurba_marseille","lat":43.290327,"lon":5.375711,"is_reserved":false,"is_disabled":false,"rental_uris":{"android":"levelo://app?vid=5e34a2a8-77d8-4caa-9263-2e1342d2e3c4","ios":"levelo://app?vid=5e34a2a8-77d8-4caa-9263-2e1342d2e3c4"},"vehicle_type_id":"4","last_reported":1698250121,"current_range_meters":15200,"station_id":"ce4bh692rcd13ifvqe90","pricing_plan_id":"free"},{"bike_id":"2b456654-38ed-4b82-bb7e-f1009a591945","system_id":"levelo_inurba_marseille","lat":43.28939,"lon":5.36629,"is_reserved":false,"is_disabled":false,"rental_uris":{"android":"levelo://app?vid=2b456654-38ed-4b82-bb7e-f1009a591945","ios":"levelo://app?vid=2b456654-38ed-4b82-bb7e-f1009a591945"},"vehicle_type_id":"4","last_reported":1698250121,"current_range_meters":27600,"station_id":"ce4bhap2rcd13ifvqek0","pricing_plan_id":"free"},{"bike_id":"bd583441-cfba-4e48-aeef-e64f5752cbb0","system_id":"levelo_inurba_marseille","lat":43.289184,"lon":5.366408,"is_reserved":false,"is_disabled":false,"rental_uris":{"android":"levelo://app?vid=bd583441-cfba-4e48-aeef-e64f5752cbb0","ios":"levelo://app?vid=bd583441-cfba-4e48-aeef-e64f5752cbb0"},"vehicle_type_id":"4","last_reported":1698250121,"current_range_meters":17600,"station_id":"ce4bhap2rcd13ifvqek0","pricing_plan_id":"free"},{"bike_id":"063ab33d-5f4f-4f3a-8571-e0d622a368cf","system_id":"levelo_inurba_marseille","lat":43.289184,"lon":5.366408,"is_reserved":false,"is_disabled":false,"rental_uris":{"android":"levelo://app?vid=063ab33d-5f4f-4f3a-8571-e0d622a368cf","ios":"levelo://app?vid=063ab33d-5f4f-4f3a-8571-e0d622a368cf"},"vehicle_type_id":"4","last_reported":1698250121,"current_range_meters":21600,"station_id":"ce4bhap2rcd13ifvqek0","pricing_plan_id":"free"},{"bike_id":"0c485126-419c-456a-ba4b-caaff0ff0ed7","system_id":"levelo_inurba_marseille","lat":43.28931,"lon":5.36631,"is_reserved":false,"is_disabled":false,"rental_uris":{"android":"levelo://app?vid=0c485126-419c-456a-ba4b-caaff0ff0ed7","ios":"levelo://app?vid=0c485126-419c-456a-ba4b-caaff0ff0ed7"},"vehicle_type_id":"4","last_reported":1698250121,"current_range_meters":19600,"station_id":"ce4bhap2rcd13ifvqek0","pricing_plan_id":"free"},{"bike_id":"d950c775-f31b-48d5-8808-0d2e83826505","system_id":"levelo_inurba_marseille","lat":43.284534,"lon":5.358662,"is_reserved":false,"is_disabled":false,"rental_uris":{"android":"levelo://app?vid=d950c775-f31b-48d5-8808-0d2e83826505","ios":"levelo://app?vid=d950c775-f31b-48d5-8808-0d2e83826505"},"vehicle_type_id":"4","last_reported":1698250121,"current_range_meters":23200,"station_id":"ce4bhah2rcd13ifvqei0","pricing_plan_id":"free"},{"bike_id":"0444f902-8416-40b6-903a-1809e509b7cd","system_id":"levelo_inurba_marseille","lat":43.289468,"lon":5.363719,"is_reserved":false,"is_disabled":false,"rental_uris":{"android":"levelo://app?vid=0444f902-8416-40b6-903a-1809e509b7cd","ios":"levelo://app?vid=0444f902-8416-40b6-903a-1809e509b7cd"},"vehicle_type_id":"4","last_reported":1698250121,"current_range_meters":6400,"station_id":"ce4bhc92rcd13ifvqetg","pricing_plan_id":"free"},{"bike_id":"55c674cb-f319-4124-8a34-e9a68dfc294a","system_id":"levelo_inurba_marseille","lat":43.292644,"lon":5.384257,"is_reserved":false,"is_disabled":false,"rental_uris":{"android":"levelo://app?vid=55c674cb-f319-4124-8a34-e9a68dfc294a","ios":"levelo://app?vid=55c674cb-f319-4124-8a34-e9a68dfc294a"},"vehicle_type_id":"4","last_reported":1698250121,"current_range_meters":28000,"station_id":"ce4bh692rcd13ifvqea0","pricing_plan_id":"free"},{"bike_id":"8e6c7fb4-7006-4448-a0ea-850a9a3a8b08","system_id":"levelo_inurba_marseille","lat":43.292644,"lon":5.384257,"is_reserved":false,"is_disabled":false,"rental_uris":{"android":"levelo://app?vid=8e6c7fb4-7006-4448-a0ea-850a9a3a8b08","ios":"levelo://app?vid=8e6c7fb4-7006-4448-a0ea-850a9a3a8b08"},"vehicle_type_id":"4","last_reported":1698250121,"current_range_meters":30000,"station_id":"ce4bh692rcd13ifvqea0","pricing_plan_id":"free"},{"bike_id":"ec8aa803-cc79-4bed-a831-3f732a8e7717","system_id":"levelo_inurba_marseille","lat":43.292644,"lon":5.384257,"is_reserved":false,"is_disabled":false,"rental_uris":{"android":"levelo://app?vid=ec8aa803-cc79-4bed-a831-3f732a8e7717","ios":"levelo://app?vid=ec8aa803-cc79-4bed-a831-3f732a8e7717"},"vehicle_type_id":"4","last_reported":1698250121,"current_range_meters":16800,"station_id":"ce4bh692rcd13ifvqea0","pricing_plan_id":"free"},{"bike_id":"5c6f6680-b42e-4f6c-a680-ecb13e0fc541","system_id":"levelo_inurba_marseille","lat":43.292644,"lon":5.384257,"is_reserved":false,"is_disabled":false,"rental_uris":{"android":"levelo://app?vid=5c6f6680-b42e-4f6c-a680-ecb13e0fc541","ios":"levelo://app?vid=5c6f6680-b42e-4f6c-a680-ecb13e0fc541"},"vehicle_type_id":"4","last_reported":1698250121,"current_range_meters":17200,"station_id":"ce4bh692rcd13ifvqea0","pricing_plan_id":"free"},{"bike_id":"cdc352d3-a63b-4bf1-a74c-852525b1f447","system_id":"levelo_inurba_marseille","lat":43.292644,"lon":5.384257,"is_reserved":false,"is_disabled":false,"rental_uris":{"android":"levelo://app?vid=cdc352d3-a63b-4bf1-a74c-852525b1f447","ios":"levelo://app?vid=cdc352d3-a63b-4bf1-a74c-852525b1f447"},"vehicle_type_id":"4","last_reported":1698250121,"current_range_meters":10400,"station_id":"ce4bh692rcd13ifvqea0","pricing_plan_id":"free"},{"bike_id":"7aad75d6-f99b-4dbb-a5c2-57047fa81666","system_id":"levelo_inurba_marseille","lat":43.292644,"lon":5.384257,"is_reserved":false,"is_disabled":false,"rental_uris":{"android":"levelo://app?vid=7aad75d6-f99b-4dbb-a5c2-57047fa81666","ios":"levelo://app?vid=7aad75d6-f99b-4dbb-a5c2-57047fa81666"},"vehicle_type_id":"4","last_reported":1698250121,"current_range_meters":24800,"station_id":"ce4bh692rcd13ifvqea0","pricing_plan_id":"free"},{"bike_id":"00a7b980-21f5-4b85-920f-58f25dcb19ee","system_id":"levelo_inurba_marseille","lat":43.29264,"lon":5.38459,"is_reserved":false,"is_disabled":false,"rental_uris":{"android":"levelo://app?vid=00a7b980-21f5-4b85-920f-58f25dcb19ee","ios":"levelo://app?vid=00a7b980-21f5-4b85-920f-58f25dcb19ee"},"vehicle_type_id":"4","last_reported":1698250121,"current_range_meters":0,"station_id":"ce4bh692rcd13ifvqea0","pricing_plan_id":"free"},{"bike_id":"27a5a743-d18b-45f3-b88a-97994039e232","system_id":"levelo_inurba_marseille","lat":43.290104,"lon":5.356111,"is_reserved":false,"is_disabled":false,"rental_uris":{"android":"levelo://app?vid=27a5a743-d18b-45f3-b88a-97994039e232","ios":"levelo://app?vid=27a5a743-d18b-45f3-b88a-97994039e232"},"vehicle_type_id":"4","last_reported":1698250121,"current_range_meters":11600,"station_id":"ce4bhb92rcd13ifvqen0","pricing_plan_id":"free"},{"bike_id":"889eecdb-8a38-4c74-a602-25c352cfc7be","system_id":"levelo_inurba_marseille","lat":43.30825,"lon":5.40036,"is_reserved":false,"is_disabled":false,"rental_uris":{"android":"levelo://app?vid=889eecdb-8a38-4c74-a602-25c352cfc7be","ios":"levelo://app?vid=889eecdb-8a38-4c74-a602-25c352cfc7be"},"vehicle_type_id":"4","last_reported":1698250121,"current_range_meters":7200,"station_id":"","pricing_plan_id":"free"},{"bike_id":"126d4670-e812-40c6-9f2a-535ee2ec9a6b","system_id":"levelo_inurba_marseille","lat":43.33649,"lon":5.378253,"is_reserved":false,"is_disabled":false,"rental_uris":{"android":"levelo://app?vid=126d4670-e812-40c6-9f2a-535ee2ec9a6b","ios":"levelo://app?vid=126d4670-e812-40c6-9f2a-535ee2ec9a6b"},"vehicle_type_id":"4","last_reported":1698250121,"current_range_meters":6800,"station_id":"","pricing_plan_id":"free"},{"bike_id":"e6d4d363-7f09-47ec-b2b9-86bc4db6d915","system_id":"levelo_inurba_marseille","lat":43.30642,"lon":5.401031,"is_reserved":false,"is_disabled":false,"rental_uris":{"android":"levelo://app?vid=e6d4d363-7f09-47ec-b2b9-86bc4db6d915","ios":"levelo://app?vid=e6d4d363-7f09-47ec-b2b9-86bc4db6d915"},"vehicle_type_id":"4","last_reported":1698250121,"current_range_meters":18000,"station_id":"ce4bh112rcd13ifvqda0","pricing_plan_id":"free"},{"bike_id":"4d780b75-9aca-4307-b912-b9e740a52059","system_id":"levelo_inurba_marseille","lat":43.28727,"lon":5.36078,"is_reserved":false,"is_disabled":false,"rental_uris":{"android":"levelo://app?vid=4d780b75-9aca-4307-b912-b9e740a52059","ios":"levelo://app?vid=4d780b75-9aca-4307-b912-b9e740a52059"},"vehicle_type_id":"4","last_reported":1698250121,"current_range_meters":9200,"station_id":"cki0cbj6b192h4jlfktg","pricing_plan_id":"free"},{"bike_id":"65e2ad71-f594-471b-ba60-eae1b64bec24","system_id":"levelo_inurba_marseille","lat":43.286961,"lon":5.373785,"is_reserved":false,"is_disabled":false,"rental_uris":{"android":"levelo://app?vid=65e2ad71-f594-471b-ba60-eae1b64bec24","ios":"levelo://app?vid=65e2ad71-f594-471b-ba60-eae1b64bec24"},"vehicle_type_id":"4","last_reported":1698250121,"current_range_meters":22000,"station_id":"ce4bh3p2rcd13ifvqdq0","pricing_plan_id":"free"},{"bike_id":"4d6d2885-5bae-495d-b70a-148dda355a4b","system_id":"levelo_inurba_marseille","lat":43.28669,"lon":5.36354,"is_reserved":false,"is_disabled":false,"rental_uris":{"android":"levelo://app?vid=4d6d2885-5bae-495d-b70a-148dda355a4b","ios":"levelo://app?vid=4d6d2885-5bae-495d-b70a-148dda355a4b"},"vehicle_type_id":"4","last_reported":1698250121,"current_range_meters":20800,"station_id":"ce4bhah2rcd13ifvqej0","pricing_plan_id":"free"},{"bike_id":"56b5c2d4-377d-486a-8a01-4252dc8273b6","system_id":"levelo_inurba_marseille","lat":43.28668,"lon":5.36366,"is_reserved":false,"is_disabled":false,"rental_uris":{"android":"levelo://app?vid=56b5c2d4-377d-486a-8a01-4252dc8273b6","ios":"levelo://app?vid=56b5c2d4-377d-486a-8a01-4252dc8273b6"},"vehicle_type_id":"4","last_reported":1698250121,"current_range_meters":19600,"station_id":"ce4bhah2rcd13ifvqej0","pricing_plan_id":"free"},{"bike_id":"6d816816-5c5d-4527-8809-9b89c9b18015","system_id":"levelo_inurba_marseille","lat":43.28669,"lon":5.3635,"is_reserved":false,"is_disabled":false,"rental_uris":{"android":"levelo://app?vid=6d816816-5c5d-4527-8809-9b89c9b18015","ios":"levelo://app?vid=6d816816-5c5d-4527-8809-9b89c9b18015"},"vehicle_type_id":"4","last_reported":1698250121,"current_range_meters":19600,"station_id":"ce4bhah2rcd13ifvqej0","pricing_plan_id":"free"},{"bike_id":"ecc6d933-3ed7-4728-a6bd-767b8dac5921","system_id":"levelo_inurba_marseille","lat":43.28668,"lon":5.36359,"is_reserved":false,"is_disabled":false,"rental_uris":{"android":"levelo://app?vid=ecc6d933-3ed7-4728-a6bd-767b8dac5921","ios":"levelo://app?vid=ecc6d933-3ed7-4728-a6bd-767b8dac5921"},"vehicle_type_id":"4","last_reported":1698250121,"current_range_meters":24800,"station_id":"ce4bhah2rcd13ifvqej0","pricing_plan_id":"free"},{"bike_id":"f93aa65e-353d-4da8-a57b-b0c0882a969b","system_id":"levelo_inurba_marseille","lat":43.286961,"lon":5.373785,"is_reserved":false,"is_disabled":false,"rental_uris":{"android":"levelo://app?vid=f93aa65e-353d-4da8-a57b-b0c0882a969b","ios":"levelo://app?vid=f93aa65e-353d-4da8-a57b-b0c0882a969b"},"vehicle_type_id":"4","last_reported":1698250121,"current_range_meters":8800,"station_id":"ce4bh3p2rcd13ifvqdq0","pricing_plan_id":"free"},{"bike_id":"83b3345d-2b40-4dea-963c-934337874d2c","system_id":"levelo_inurba_marseille","lat":43.28666,"lon":5.36363,"is_reserved":false,"is_disabled":false,"rental_uris":{"android":"levelo://app?vid=83b3345d-2b40-4dea-963c-934337874d2c","ios":"levelo://app?vid=83b3345d-2b40-4dea-963c-934337874d2c"},"vehicle_type_id":"4","last_reported":1698250121,"current_range_meters":24000,"station_id":"ce4bhah2rcd13ifvqej0","pricing_plan_id":"free"},{"bike_id":"ce77acd3-4869-4e28-b602-df15068e7581","system_id":"levelo_inurba_marseille","lat":43.28665,"lon":5.36356,"is_reserved":false,"is_disabled":false,"rental_uris":{"android":"levelo://app?vid=ce77acd3-4869-4e28-b602-df15068e7581","ios":"levelo://app?vid=ce77acd3-4869-4e28-b602-df15068e7581"},"vehicle_type_id":"4","last_reported":1698250121,"current_range_meters":18400,"station_id":"ce4bhah2rcd13ifvqej0","pricing_plan_id":"free"},{"bike_id":"f49ddbf6-b9f2-4176-b1a5-267de3a7320e","system_id":"levelo_inurba_marseille","lat":43.28665,"lon":5.3635,"is_reserved":false,"is_disabled":false,"rental_uris":{"android":"levelo://app?vid=f49ddbf6-b9f2-4176-b1a5-267de3a7320e","ios":"levelo://app?vid=f49ddbf6-b9f2-4176-b1a5-267de3a7320e"},"vehicle_type_id":"4","last_reported":1698250121,"current_range_meters":21200,"station_id":"ce4bhah2rcd13ifvqej0","pricing_plan_id":"free"},{"bike_id":"fbbf8a32-1b73-4e3e-980f-9357f81556fa","system_id":"levelo_inurba_marseille","lat":43.28666,"lon":5.36329,"is_reserved":false,"is_disabled":false,"rental_uris":{"android":"levelo://app?vid=fbbf8a32-1b73-4e3e-980f-9357f81556fa","ios":"levelo://app?vid=fbbf8a32-1b73-4e3e-980f-9357f81556fa"},"vehicle_type_id":"4","last_reported":1698250121,"current_range_meters":0,"station_id":"ce4bhah2rcd13ifvqej0","pricing_plan_id":"free"},{"bike_id":"c36dd051-cad3-4acf-bca6-5914239947b7","system_id":"levelo_inurba_marseille","lat":43.286591,"lon":5.363346,"is_reserved":false,"is_disabled":false,"rental_uris":{"android":"levelo://app?vid=c36dd051-cad3-4acf-bca6-5914239947b7","ios":"levelo://app?vid=c36dd051-cad3-4acf-bca6-5914239947b7"},"vehicle_type_id":"4","last_reported":1698250121,"current_range_meters":28800,"station_id":"ce4bhah2rcd13ifvqej0","pricing_plan_id":"free"},{"bike_id":"aea35fa7-fc8e-4e03-88c7-6667f66564bc","system_id":"levelo_inurba_marseille","lat":43.286961,"lon":5.373785,"is_reserved":false,"is_disabled":false,"rental_uris":{"android":"levelo://app?vid=aea35fa7-fc8e-4e03-88c7-6667f66564bc","ios":"levelo://app?vid=aea35fa7-fc8e-4e03-88c7-6667f66564bc"},"vehicle_type_id":"4","last_reported":1698250121,"current_range_meters":19200,"station_id":"ce4bh3p2rcd13ifvqdq0","pricing_plan_id":"free"},{"bike_id":"f3029a9c-c7d5-4074-b4ca-bf5cde00eaea","system_id":"levelo_inurba_marseille","lat":43.28659,"lon":5.36352,"is_reserved":false,"is_disabled":false,"rental_uris":{"android":"levelo://app?vid=f3029a9c-c7d5-4074-b4ca-bf5cde00eaea","ios":"levelo://app?vid=f3029a9c-c7d5-4074-b4ca-bf5cde00eaea"},"vehicle_type_id":"4","last_reported":1698250121,"current_range_meters":29600,"station_id":"ce4bhah2rcd13ifvqej0","pricing_plan_id":"free"},{"bike_id":"30a476a6-8925-4338-80b1-ad2f67c1aaa7","system_id":"levelo_inurba_marseille","lat":43.286591,"lon":5.363346,"is_reserved":false,"is_disabled":false,"rental_uris":{"android":"levelo://app?vid=30a476a6-8925-4338-80b1-ad2f67c1aaa7","ios":"levelo://app?vid=30a476a6-8925-4338-80b1-ad2f67c1aaa7"},"vehicle_type_id":"4","last_reported":1698250121,"current_range_meters":31200,"station_id":"ce4bhah2rcd13ifvqej0","pricing_plan_id":"free"},{"bike_id":"3952e635-2195-40f6-8a09-820c3bef683a","system_id":"levelo_inurba_marseille","lat":43.286593,"lon":5.363346,"is_reserved":false,"is_disabled":false,"rental_uris":{"android":"levelo://app?vid=3952e635-2195-40f6-8a09-820c3bef683a","ios":"levelo://app?vid=3952e635-2195-40f6-8a09-820c3bef683a"},"vehicle_type_id":"4","last_reported":1698250121,"current_range_meters":26800,"station_id":"ce4bhah2rcd13ifvqej0","pricing_plan_id":"free"},{"bike_id":"9b463d85-47cb-4cda-8cbe-1ca2ad27dca2","system_id":"levelo_inurba_marseille","lat":43.28658,"lon":5.36359,"is_reserved":false,"is_disabled":false,"rental_uris":{"android":"levelo://app?vid=9b463d85-47cb-4cda-8cbe-1ca2ad27dca2","ios":"levelo://app?vid=9b463d85-47cb-4cda-8cbe-1ca2ad27dca2"},"vehicle_type_id":"4","last_reported":1698250121,"current_range_meters":20800,"station_id":"ce4bhah2rcd13ifvqej0","pricing_plan_id":"free"},{"bike_id":"951d193e-1bba-4e8e-9eb9-fa98b7537fc3","system_id":"levelo_inurba_marseille","lat":43.28656,"lon":5.36356,"is_reserved":false,"is_disabled":false,"rental_uris":{"android":"levelo://app?vid=951d193e-1bba-4e8e-9eb9-fa98b7537fc3","ios":"levelo://app?vid=951d193e-1bba-4e8e-9eb9-fa98b7537fc3"},"vehicle_type_id":"4","last_reported":1698250121,"current_range_meters":20000,"station_id":"ce4bhah2rcd13ifvqej0","pricing_plan_id":"free"},{"bike_id":"cfd22fb5-74fd-44cc-bbbb-ade909a8ec0c","system_id":"levelo_inurba_marseille","lat":43.28655,"lon":5.36363,"is_reserved":false,"is_disabled":false,"rental_uris":{"android":"levelo://app?vid=cfd22fb5-74fd-44cc-bbbb-ade909a8ec0c","ios":"levelo://app?vid=cfd22fb5-74fd-44cc-bbbb-ade909a8ec0c"},"vehicle_type_id":"4","last_reported":1698250121,"current_range_meters":15200,"station_id":"ce4bhah2rcd13ifvqej0","pricing_plan_id":"free"},{"bike_id":"ffef3c1d-2192-49c5-bbd2-2cc602d3905f","system_id":"levelo_inurba_marseille","lat":43.286533,"lon":5.363552,"is_reserved":false,"is_disabled":false,"rental_uris":{"android":"levelo://app?vid=ffef3c1d-2192-49c5-bbd2-2cc602d3905f","ios":"levelo://app?vid=ffef3c1d-2192-49c5-bbd2-2cc602d3905f"},"vehicle_type_id":"4","last_reported":1698250121,"current_range_meters":6000,"station_id":"ce4bhah2rcd13ifvqej0","pricing_plan_id":"free"},{"bike_id":"a86ae502-1be3-4b79-919e-0f6ac4620e4c","system_id":"levelo_inurba_marseille","lat":43.290396,"lon":5.386362,"is_reserved":false,"is_disabled":false,"rental_uris":{"android":"levelo://app?vid=a86ae502-1be3-4b79-919e-0f6ac4620e4c","ios":"levelo://app?vid=a86ae502-1be3-4b79-919e-0f6ac4620e4c"},"vehicle_type_id":"4","last_reported":1698250121,"current_range_meters":1200,"station_id":"ce4bh4p2rcd13ifvqe0g","pricing_plan_id":"free"},{"bike_id":"d93aad68-1428-4451-87ee-f13df97e2836","system_id":"levelo_inurba_marseille","lat":43.289325,"lon":5.383929,"is_reserved":false,"is_disabled":false,"rental_uris":{"android":"levelo://app?vid=d93aad68-1428-4451-87ee-f13df97e2836","ios":"levelo://app?vid=d93aad68-1428-4451-87ee-f13df97e2836"},"vehicle_type_id":"4","last_reported":1698250121,"current_range_meters":19600,"station_id":"ce4bh612rcd13ifvqe6g","pricing_plan_id":"free"},{"bike_id":"b5ced2af-7ade-4f23-b0a4-95ac94fe8f81","system_id":"levelo_inurba_marseille","lat":43.30251,"lon":5.40053,"is_reserved":false,"is_disabled":false,"rental_uris":{"android":"levelo://app?vid=b5ced2af-7ade-4f23-b0a4-95ac94fe8f81","ios":"levelo://app?vid=b5ced2af-7ade-4f23-b0a4-95ac94fe8f81"},"vehicle_type_id":"4","last_reported":1698250121,"current_range_meters":14800,"station_id":"ce4bgvh2rcd13ifvqcs0","pricing_plan_id":"free"},{"bike_id":"b1c757d8-5fe7-4e57-aaf1-9773149b713e","system_id":"levelo_inurba_marseille","lat":43.290316,"lon":5.386412,"is_reserved":false,"is_disabled":false,"rental_uris":{"android":"levelo://app?vid=b1c757d8-5fe7-4e57-aaf1-9773149b713e","ios":"levelo://app?vid=b1c757d8-5fe7-4e57-aaf1-9773149b713e"},"vehicle_type_id":"4","last_reported":1698250121,"current_range_meters":29200,"station_id":"ce4bh4p2rcd13ifvqe0g","pricing_plan_id":"free"},{"bike_id":"dcbe1c99-c45a-4ff4-8288-64c9915d4ae1","system_id":"levelo_inurba_marseille","lat":43.28926,"lon":5.384025,"is_reserved":false,"is_disabled":false,"rental_uris":{"android":"levelo://app?vid=dcbe1c99-c45a-4ff4-8288-64c9915d4ae1","ios":"levelo://app?vid=dcbe1c99-c45a-4ff4-8288-64c9915d4ae1"},"vehicle_type_id":"4","last_reported":1698250121,"current_range_meters":16000,"station_id":"ce4bh612rcd13ifvqe6g","pricing_plan_id":"free"},{"bike_id":"1b471c72-cb0e-4405-a109-1d2cc1242945","system_id":"levelo_inurba_marseille","lat":43.28925,"lon":5.38401,"is_reserved":false,"is_disabled":false,"rental_uris":{"android":"levelo://app?vid=1b471c72-cb0e-4405-a109-1d2cc1242945","ios":"levelo://app?vid=1b471c72-cb0e-4405-a109-1d2cc1242945"},"vehicle_type_id":"4","last_reported":1698250121,"current_range_meters":27600,"station_id":"ce4bh612rcd13ifvqe6g","pricing_plan_id":"free"},{"bike_id":"738bac65-d5a3-4b42-8072-72a442e59df0","system_id":"levelo_inurba_marseille","lat":43.28923,"lon":5.38399,"is_reserved":false,"is_disabled":false,"rental_uris":{"android":"levelo://app?vid=738bac65-d5a3-4b42-8072-72a442e59df0","ios":"levelo://app?vid=738bac65-d5a3-4b42-8072-72a442e59df0"},"vehicle_type_id":"4","last_reported":1698250121,"current_range_meters":21600,"station_id":"ce4bh612rcd13ifvqe6g","pricing_plan_id":"free"},{"bike_id":"7889a249-7a62-4cdb-a576-3a01404b30c8","system_id":"levelo_inurba_marseille","lat":43.29022,"lon":5.38646,"is_reserved":false,"is_disabled":false,"rental_uris":{"android":"levelo://app?vid=7889a249-7a62-4cdb-a576-3a01404b30c8","ios":"levelo://app?vid=7889a249-7a62-4cdb-a576-3a01404b30c8"},"vehicle_type_id":"4","last_reported":1698250121,"current_range_meters":11200,"station_id":"","pricing_plan_id":"free"},{"bike_id":"5fa3a709-cc23-4320-95fb-7eee6c2a800a","system_id":"levelo_inurba_marseille","lat":43.286039,"lon":5.370681,"is_reserved":false,"is_disabled":false,"rental_uris":{"android":"levelo://app?vid=5fa3a709-cc23-4320-95fb-7eee6c2a800a","ios":"levelo://app?vid=5fa3a709-cc23-4320-95fb-7eee6c2a800a"},"vehicle_type_id":"4","last_reported":1698250121,"current_range_meters":8800,"station_id":"ce4bht12rcd13ifvqi60","pricing_plan_id":"free"},{"bike_id":"57b8adef-d1f6-44c4-ad11-4818b3ea79d6","system_id":"levelo_inurba_marseille","lat":43.286039,"lon":5.370679,"is_reserved":false,"is_disabled":false,"rental_uris":{"android":"levelo://app?vid=57b8adef-d1f6-44c4-ad11-4818b3ea79d6","ios":"levelo://app?vid=57b8adef-d1f6-44c4-ad11-4818b3ea79d6"},"vehicle_type_id":"4","last_reported":1698250121,"current_range_meters":4000,"station_id":"ce4bht12rcd13ifvqi60","pricing_plan_id":"free"},{"bike_id":"1b1109cc-de8a-42d8-a26b-2acda52637c6","system_id":"levelo_inurba_marseille","lat":43.286039,"lon":5.370681,"is_reserved":false,"is_disabled":false,"rental_uris":{"android":"levelo://app?vid=1b1109cc-de8a-42d8-a26b-2acda52637c6","ios":"levelo://app?vid=1b1109cc-de8a-42d8-a26b-2acda52637c6"},"vehicle_type_id":"4","last_reported":1698250121,"current_range_meters":20000,"station_id":"ce4bht12rcd13ifvqi60","pricing_plan_id":"free"},{"bike_id":"a13f192e-232f-4f96-a483-16b34931c96c","system_id":"levelo_inurba_marseille","lat":43.286069,"lon":5.370653,"is_reserved":false,"is_disabled":false,"rental_uris":{"android":"levelo://app?vid=a13f192e-232f-4f96-a483-16b34931c96c","ios":"levelo://app?vid=a13f192e-232f-4f96-a483-16b34931c96c"},"vehicle_type_id":"4","last_reported":1698250121,"current_range_meters":7200,"station_id":"ce4bht12rcd13ifvqi60","pricing_plan_id":"free"},{"bike_id":"9062ed60-8e86-48fd-bbad-775864dbe1ee","system_id":"levelo_inurba_marseille","lat":43.302759,"lon":5.400793,"is_reserved":false,"is_disabled":false,"rental_uris":{"android":"levelo://app?vid=9062ed60-8e86-48fd-bbad-775864dbe1ee","ios":"levelo://app?vid=9062ed60-8e86-48fd-bbad-775864dbe1ee"},"vehicle_type_id":"4","last_reported":1698250121,"current_range_meters":25200,"station_id":"ce4bgvh2rcd13ifvqcs0","pricing_plan_id":"free"},{"bike_id":"82af1dbd-bfda-4fd8-9d70-7bacf0e14923","system_id":"levelo_inurba_marseille","lat":43.286039,"lon":5.370681,"is_reserved":false,"is_disabled":false,"rental_uris":{"android":"levelo://app?vid=82af1dbd-bfda-4fd8-9d70-7bacf0e14923","ios":"levelo://app?vid=82af1dbd-bfda-4fd8-9d70-7bacf0e14923"},"vehicle_type_id":"4","last_reported":1698250121,"current_range_meters":16800,"station_id":"ce4bht12rcd13ifvqi60","pricing_plan_id":"free"},{"bike_id":"bc38db60-8d47-4503-b953-5624f98c1bff","system_id":"levelo_inurba_marseille","lat":43.287185,"lon":5.379373,"is_reserved":false,"is_disabled":false,"rental_uris":{"android":"levelo://app?vid=bc38db60-8d47-4503-b953-5624f98c1bff","ios":"levelo://app?vid=bc38db60-8d47-4503-b953-5624f98c1bff"},"vehicle_type_id":"4","last_reported":1698250121,"current_range_meters":9200,"station_id":"ce4bh9p2rcd13ifvqec0","pricing_plan_id":"free"},{"bike_id":"c9703df4-1bc1-4105-b9ce-d086f319de9d","system_id":"levelo_inurba_marseille","lat":43.286039,"lon":5.370681,"is_reserved":false,"is_disabled":false,"rental_uris":{"android":"levelo://app?vid=c9703df4-1bc1-4105-b9ce-d086f319de9d","ios":"levelo://app?vid=c9703df4-1bc1-4105-b9ce-d086f319de9d"},"vehicle_type_id":"4","last_reported":1698250121,"current_range_meters":16800,"station_id":"ce4bht12rcd13ifvqi60","pricing_plan_id":"free"},{"bike_id":"930482cc-d308-4e87-9a4d-ab1c8393d3c9","system_id":"levelo_inurba_marseille","lat":43.287184,"lon":5.37937,"is_reserved":false,"is_disabled":false,"rental_uris":{"android":"levelo://app?vid=930482cc-d308-4e87-9a4d-ab1c8393d3c9","ios":"levelo://app?vid=930482cc-d308-4e87-9a4d-ab1c8393d3c9"},"vehicle_type_id":"4","last_reported":1698250121,"current_range_meters":23600,"station_id":"ce4bh9p2rcd13ifvqec0","pricing_plan_id":"free"},{"bike_id":"bc368e20-93c0-495a-bb4f-cd8ed7ee7f0d","system_id":"levelo_inurba_marseille","lat":43.335307,"lon":5.388143,"is_reserved":false,"is_disabled":false,"rental_uris":{"android":"levelo://app?vid=bc368e20-93c0-495a-bb4f-cd8ed7ee7f0d","ios":"levelo://app?vid=bc368e20-93c0-495a-bb4f-cd8ed7ee7f0d"},"vehicle_type_id":"4","last_reported":1698250121,"current_range_meters":2800,"station_id":"","pricing_plan_id":"free"},{"bike_id":"4554ace8-dfb7-44cb-9be2-f5d69f750c8c","system_id":"levelo_inurba_marseille","lat":43.285395,"lon":5.369879,"is_reserved":false,"is_disabled":false,"rental_uris":{"android":"levelo://app?vid=4554ace8-dfb7-44cb-9be2-f5d69f750c8c","ios":"levelo://app?vid=4554ace8-dfb7-44cb-9be2-f5d69f750c8c"},"vehicle_type_id":"4","last_reported":1698250121,"current_range_meters":0,"station_id":"","pricing_plan_id":"free"},{"bike_id":"5308dd92-0eb4-4581-9e2b-19673ce4400f","system_id":"levelo_inurba_marseille","lat":43.316517,"lon":5.404375,"is_reserved":false,"is_disabled":false,"rental_uris":{"android":"levelo://app?vid=5308dd92-0eb4-4581-9e2b-19673ce4400f","ios":"levelo://app?vid=5308dd92-0eb4-4581-9e2b-19673ce4400f"},"vehicle_type_id":"4","last_reported":1698250121,"current_range_meters":0,"station_id":"ce4bh012rcd13ifvqd00","pricing_plan_id":"free"},{"bike_id":"94404aec-2d9b-410a-8c73-d10219b46c23","system_id":"levelo_inurba_marseille","lat":43.299847,"lon":5.400937,"is_reserved":false,"is_disabled":false,"rental_uris":{"android":"levelo://app?vid=94404aec-2d9b-410a-8c73-d10219b46c23","ios":"levelo://app?vid=94404aec-2d9b-410a-8c73-d10219b46c23"},"vehicle_type_id":"4","last_reported":1698250121,"current_range_meters":19600,"station_id":"","pricing_plan_id":"free"},{"bike_id":"ccde55db-d719-4cbc-8ccd-6a00e1f3adaf","system_id":"levelo_inurba_marseille","lat":43.292015,"lon":5.393265,"is_reserved":false,"is_disabled":false,"rental_uris":{"android":"levelo://app?vid=ccde55db-d719-4cbc-8ccd-6a00e1f3adaf","ios":"levelo://app?vid=ccde55db-d719-4cbc-8ccd-6a00e1f3adaf"},"vehicle_type_id":"4","last_reported":1698250121,"current_range_meters":0,"station_id":"ce4bh192rcd13ifvqdd0","pricing_plan_id":"free"},{"bike_id":"2280c64b-63ed-437f-8cb4-f201108b224b","system_id":"levelo_inurba_marseille","lat":43.30119,"lon":5.40296,"is_reserved":false,"is_disabled":false,"rental_uris":{"android":"levelo://app?vid=2280c64b-63ed-437f-8cb4-f201108b224b","ios":"levelo://app?vid=2280c64b-63ed-437f-8cb4-f201108b224b"},"vehicle_type_id":"4","last_reported":1698250121,"current_range_meters":2800,"station_id":"","pricing_plan_id":"free"},{"bike_id":"d8ef673f-effd-440a-af58-0d39d358c9cc","system_id":"levelo_inurba_marseille","lat":43.28462,"lon":5.35901,"is_reserved":false,"is_disabled":false,"rental_uris":{"android":"levelo://app?vid=d8ef673f-effd-440a-af58-0d39d358c9cc","ios":"levelo://app?vid=d8ef673f-effd-440a-af58-0d39d358c9cc"},"vehicle_type_id":"4","last_reported":1698250121,"current_range_meters":0,"station_id":"ce4bhah2rcd13ifvqei0","pricing_plan_id":"free"},{"bike_id":"7f2adbc0-19f9-47bb-9fd0-cb24a636ec7d","system_id":"levelo_inurba_marseille","lat":43.2846,"lon":5.35892,"is_reserved":false,"is_disabled":false,"rental_uris":{"android":"levelo://app?vid=7f2adbc0-19f9-47bb-9fd0-cb24a636ec7d","ios":"levelo://app?vid=7f2adbc0-19f9-47bb-9fd0-cb24a636ec7d"},"vehicle_type_id":"4","last_reported":1698250121,"current_range_meters":23600,"station_id":"ce4bhah2rcd13ifvqei0","pricing_plan_id":"free"},{"bike_id":"597db440-0bb0-4a40-8f39-c7c43cec8a38","system_id":"levelo_inurba_marseille","lat":43.28457,"lon":5.35896,"is_reserved":false,"is_disabled":false,"rental_uris":{"android":"levelo://app?vid=597db440-0bb0-4a40-8f39-c7c43cec8a38","ios":"levelo://app?vid=597db440-0bb0-4a40-8f39-c7c43cec8a38"},"vehicle_type_id":"4","last_reported":1698250121,"current_range_meters":1200,"station_id":"ce4bhah2rcd13ifvqei0","pricing_plan_id":"free"},{"bike_id":"f3e697fb-3ca0-4cd8-91f0-70c34d2fcb15","system_id":"levelo_inurba_marseille","lat":43.294314,"lon":5.397498,"is_reserved":false,"is_disabled":false,"rental_uris":{"android":"levelo://app?vid=f3e697fb-3ca0-4cd8-91f0-70c34d2fcb15","ios":"levelo://app?vid=f3e697fb-3ca0-4cd8-91f0-70c34d2fcb15"},"vehicle_type_id":"4","last_reported":1698250121,"current_range_meters":3600,"station_id":"ce4bh3h2rcd13ifvqdo0","pricing_plan_id":"free"},{"bike_id":"29091559-c3f2-4732-8ee3-1de1033983ed","system_id":"levelo_inurba_marseille","lat":43.294314,"lon":5.397498,"is_reserved":false,"is_disabled":false,"rental_uris":{"android":"levelo://app?vid=29091559-c3f2-4732-8ee3-1de1033983ed","ios":"levelo://app?vid=29091559-c3f2-4732-8ee3-1de1033983ed"},"vehicle_type_id":"4","last_reported":1698250121,"current_range_meters":7600,"station_id":"ce4bh3h2rcd13ifvqdo0","pricing_plan_id":"free"},{"bike_id":"41fb5d82-a536-4a6a-8a59-5b8da783393c","system_id":"levelo_inurba_marseille","lat":43.28617,"lon":5.35106,"is_reserved":false,"is_disabled":false,"rental_uris":{"android":"levelo://app?vid=41fb5d82-a536-4a6a-8a59-5b8da783393c","ios":"levelo://app?vid=41fb5d82-a536-4a6a-8a59-5b8da783393c"},"vehicle_type_id":"4","last_reported":1698250121,"current_range_meters":11600,"station_id":"ce4bhch2rcd13ifvqeug","pricing_plan_id":"free"},{"bike_id":"2edb51f2-0a2a-4389-abce-36c76bb696b7","system_id":"levelo_inurba_marseille","lat":43.28615,"lon":5.35112,"is_reserved":false,"is_disabled":false,"rental_uris":{"android":"levelo://app?vid=2edb51f2-0a2a-4389-abce-36c76bb696b7","ios":"levelo://app?vid=2edb51f2-0a2a-4389-abce-36c76bb696b7"},"vehicle_type_id":"4","last_reported":1698250121,"current_range_meters":31200,"station_id":"ce4bhch2rcd13ifvqeug","pricing_plan_id":"free"},{"bike_id":"92307611-edb0-4c07-a3d0-8e3b635d97cc","system_id":"levelo_inurba_marseille","lat":43.28616,"lon":5.35107,"is_reserved":false,"is_disabled":false,"rental_uris":{"android":"levelo://app?vid=92307611-edb0-4c07-a3d0-8e3b635d97cc","ios":"levelo://app?vid=92307611-edb0-4c07-a3d0-8e3b635d97cc"},"vehicle_type_id":"4","last_reported":1698250121,"current_range_meters":13600,"station_id":"ce4bhch2rcd13ifvqeug","pricing_plan_id":"free"},{"bike_id":"59823c37-c986-4c9d-a426-c216a00bca5b","system_id":"levelo_inurba_marseille","lat":43.28613,"lon":5.351103,"is_reserved":false,"is_disabled":false,"rental_uris":{"android":"levelo://app?vid=59823c37-c986-4c9d-a426-c216a00bca5b","ios":"levelo://app?vid=59823c37-c986-4c9d-a426-c216a00bca5b"},"vehicle_type_id":"4","last_reported":1698250121,"current_range_meters":10800,"station_id":"ce4bhch2rcd13ifvqeug","pricing_plan_id":"free"},{"bike_id":"7116ec54-d529-4485-9d3a-1f639a1ab954","system_id":"levelo_inurba_marseille","lat":43.28614,"lon":5.35103,"is_reserved":false,"is_disabled":false,"rental_uris":{"android":"levelo://app?vid=7116ec54-d529-4485-9d3a-1f639a1ab954","ios":"levelo://app?vid=7116ec54-d529-4485-9d3a-1f639a1ab954"},"vehicle_type_id":"4","last_reported":1698250121,"current_range_meters":29200,"station_id":"ce4bhch2rcd13ifvqeug","pricing_plan_id":"free"},{"bike_id":"fd1b08fc-0bb7-48c8-8ce7-2501867f992d","system_id":"levelo_inurba_marseille","lat":43.28611,"lon":5.35109,"is_reserved":false,"is_disabled":false,"rental_uris":{"android":"levelo://app?vid=fd1b08fc-0bb7-48c8-8ce7-2501867f992d","ios":"levelo://app?vid=fd1b08fc-0bb7-48c8-8ce7-2501867f992d"},"vehicle_type_id":"4","last_reported":1698250121,"current_range_meters":16800,"station_id":"ce4bhch2rcd13ifvqeug","pricing_plan_id":"free"},{"bike_id":"4a73f72b-4841-4884-83d3-574f4389d05f","system_id":"levelo_inurba_marseille","lat":43.28612,"lon":5.35105,"is_reserved":false,"is_disabled":false,"rental_uris":{"android":"levelo://app?vid=4a73f72b-4841-4884-83d3-574f4389d05f","ios":"levelo://app?vid=4a73f72b-4841-4884-83d3-574f4389d05f"},"vehicle_type_id":"4","last_reported":1698250121,"current_range_meters":10400,"station_id":"ce4bhch2rcd13ifvqeug","pricing_plan_id":"free"},{"bike_id":"b85c7382-bf6b-4f48-924e-de5e2aee9751","system_id":"levelo_inurba_marseille","lat":43.285856,"lon":5.350771,"is_reserved":false,"is_disabled":false,"rental_uris":{"android":"levelo://app?vid=b85c7382-bf6b-4f48-924e-de5e2aee9751","ios":"levelo://app?vid=b85c7382-bf6b-4f48-924e-de5e2aee9751"},"vehicle_type_id":"4","last_reported":1698250121,"current_range_meters":28000,"station_id":"ce4bhch2rcd13ifvqeug","pricing_plan_id":"free"},{"bike_id":"1e478884-25ed-4340-8809-b3900c073164","system_id":"levelo_inurba_marseille","lat":43.28603,"lon":5.35111,"is_reserved":false,"is_disabled":false,"rental_uris":{"android":"levelo://app?vid=1e478884-25ed-4340-8809-b3900c073164","ios":"levelo://app?vid=1e478884-25ed-4340-8809-b3900c073164"},"vehicle_type_id":"4","last_reported":1698250121,"current_range_meters":31600,"station_id":"ce4bhch2rcd13ifvqeug","pricing_plan_id":"free"},{"bike_id":"25e22be1-bb2f-46cf-a066-839433364c4a","system_id":"levelo_inurba_marseille","lat":43.283998,"lon":5.375062,"is_reserved":false,"is_disabled":false,"rental_uris":{"android":"levelo://app?vid=25e22be1-bb2f-46cf-a066-839433364c4a","ios":"levelo://app?vid=25e22be1-bb2f-46cf-a066-839433364c4a"},"vehicle_type_id":"4","last_reported":1698250121,"current_range_meters":29600,"station_id":"ce4bh412rcd13ifvqds0","pricing_plan_id":"free"},{"bike_id":"a6f2f6aa-4c56-4370-b367-4cc7b19aefb9","system_id":"levelo_inurba_marseille","lat":43.283998,"lon":5.375062,"is_reserved":false,"is_disabled":false,"rental_uris":{"android":"levelo://app?vid=a6f2f6aa-4c56-4370-b367-4cc7b19aefb9","ios":"levelo://app?vid=a6f2f6aa-4c56-4370-b367-4cc7b19aefb9"},"vehicle_type_id":"4","last_reported":1698250121,"current_range_meters":16800,"station_id":"ce4bh412rcd13ifvqds0","pricing_plan_id":"free"},{"bike_id":"04a55a59-2526-416a-ae30-06e3e77c542b","system_id":"levelo_inurba_marseille","lat":43.295713,"lon":5.399639,"is_reserved":false,"is_disabled":false,"rental_uris":{"android":"levelo://app?vid=04a55a59-2526-416a-ae30-06e3e77c542b","ios":"levelo://app?vid=04a55a59-2526-416a-ae30-06e3e77c542b"},"vehicle_type_id":"4","last_reported":1698250121,"current_range_meters":11200,"station_id":"ce4bh312rcd13ifvqdj0","pricing_plan_id":"free"},{"bike_id":"e32abe3d-6b53-4b20-bf42-87cc7e78250a","system_id":"levelo_inurba_marseille","lat":43.295713,"lon":5.399639,"is_reserved":false,"is_disabled":false,"rental_uris":{"android":"levelo://app?vid=e32abe3d-6b53-4b20-bf42-87cc7e78250a","ios":"levelo://app?vid=e32abe3d-6b53-4b20-bf42-87cc7e78250a"},"vehicle_type_id":"4","last_reported":1698250121,"current_range_meters":0,"station_id":"ce4bh312rcd13ifvqdj0","pricing_plan_id":"free"},{"bike_id":"4041092c-0748-4873-829c-98610a8a45e1","system_id":"levelo_inurba_marseille","lat":43.286595,"lon":5.386795,"is_reserved":false,"is_disabled":false,"rental_uris":{"android":"levelo://app?vid=4041092c-0748-4873-829c-98610a8a45e1","ios":"levelo://app?vid=4041092c-0748-4873-829c-98610a8a45e1"},"vehicle_type_id":"4","last_reported":1698250121,"current_range_meters":0,"station_id":"ce4bh492rcd13ifvqdug","pricing_plan_id":"free"},{"bike_id":"dc6e5378-b110-4c16-8dfc-f9335ce2b05b","system_id":"levelo_inurba_marseille","lat":43.286595,"lon":5.386795,"is_reserved":false,"is_disabled":false,"rental_uris":{"android":"levelo://app?vid=dc6e5378-b110-4c16-8dfc-f9335ce2b05b","ios":"levelo://app?vid=dc6e5378-b110-4c16-8dfc-f9335ce2b05b"},"vehicle_type_id":"4","last_reported":1698250121,"current_range_meters":25600,"station_id":"ce4bh492rcd13ifvqdug","pricing_plan_id":"free"},{"bike_id":"a1a6c6bd-f737-4037-9ebc-f8e792559118","system_id":"levelo_inurba_marseille","lat":43.286595,"lon":5.386795,"is_reserved":false,"is_disabled":false,"rental_uris":{"android":"levelo://app?vid=a1a6c6bd-f737-4037-9ebc-f8e792559118","ios":"levelo://app?vid=a1a6c6bd-f737-4037-9ebc-f8e792559118"},"vehicle_type_id":"4","last_reported":1698250121,"current_range_meters":12400,"station_id":"ce4bh492rcd13ifvqdug","pricing_plan_id":"free"},{"bike_id":"86cbb641-eb56-4237-bba3-435250a711ec","system_id":"levelo_inurba_marseille","lat":43.319179,"lon":5.407725,"is_reserved":false,"is_disabled":false,"rental_uris":{"android":"levelo://app?vid=86cbb641-eb56-4237-bba3-435250a711ec","ios":"levelo://app?vid=86cbb641-eb56-4237-bba3-435250a711ec"},"vehicle_type_id":"4","last_reported":1698250121,"current_range_meters":8400,"station_id":"ce4bhq12rcd13ifvqhig","pricing_plan_id":"free"},{"bike_id":"f270c67f-ed62-4b54-91a0-ecc9ca0118a7","system_id":"levelo_inurba_marseille","lat":43.319179,"lon":5.407725,"is_reserved":false,"is_disabled":false,"rental_uris":{"android":"levelo://app?vid=f270c67f-ed62-4b54-91a0-ecc9ca0118a7","ios":"levelo://app?vid=f270c67f-ed62-4b54-91a0-ecc9ca0118a7"},"vehicle_type_id":"4","last_reported":1698250121,"current_range_meters":10800,"station_id":"ce4bhq12rcd13ifvqhig","pricing_plan_id":"free"},{"bike_id":"a04dca67-8317-445e-90d6-5788929468fd","system_id":"levelo_inurba_marseille","lat":43.33674,"lon":5.39198,"is_reserved":false,"is_disabled":false,"rental_uris":{"android":"levelo://app?vid=a04dca67-8317-445e-90d6-5788929468fd","ios":"levelo://app?vid=a04dca67-8317-445e-90d6-5788929468fd"},"vehicle_type_id":"4","last_reported":1698250121,"current_range_meters":16800,"station_id":"","pricing_plan_id":"free"},{"bike_id":"cc52f033-b612-4ee5-a1c0-4942635e737c","system_id":"levelo_inurba_marseille","lat":43.337168,"lon":5.391825,"is_reserved":false,"is_disabled":false,"rental_uris":{"android":"levelo://app?vid=cc52f033-b612-4ee5-a1c0-4942635e737c","ios":"levelo://app?vid=cc52f033-b612-4ee5-a1c0-4942635e737c"},"vehicle_type_id":"4","last_reported":1698250121,"current_range_meters":26000,"station_id":"ce4bhr92rcd13ifvqhsg","pricing_plan_id":"free"},{"bike_id":"26e3ad1e-233b-4559-81b9-8bf917557f77","system_id":"levelo_inurba_marseille","lat":43.3234,"lon":5.40629,"is_reserved":false,"is_disabled":false,"rental_uris":{"android":"levelo://app?vid=26e3ad1e-233b-4559-81b9-8bf917557f77","ios":"levelo://app?vid=26e3ad1e-233b-4559-81b9-8bf917557f77"},"vehicle_type_id":"4","last_reported":1698250121,"current_range_meters":14800,"station_id":"ce4bhq92rcd13ifvqhjg","pricing_plan_id":"free"},{"bike_id":"765dea1b-7df0-436e-a288-1406b066fea4","system_id":"levelo_inurba_marseille","lat":43.297946,"lon":5.404063,"is_reserved":false,"is_disabled":false,"rental_uris":{"android":"levelo://app?vid=765dea1b-7df0-436e-a288-1406b066fea4","ios":"levelo://app?vid=765dea1b-7df0-436e-a288-1406b066fea4"},"vehicle_type_id":"4","last_reported":1698250121,"current_range_meters":25600,"station_id":"ce4bh112rcd13ifvqd90","pricing_plan_id":"free"},{"bike_id":"51ef4d13-2896-4f64-90fc-adab191a275a","system_id":"levelo_inurba_marseille","lat":43.29795,"lon":5.404086,"is_reserved":false,"is_disabled":false,"rental_uris":{"android":"levelo://app?vid=51ef4d13-2896-4f64-90fc-adab191a275a","ios":"levelo://app?vid=51ef4d13-2896-4f64-90fc-adab191a275a"},"vehicle_type_id":"4","last_reported":1698250121,"current_range_meters":23600,"station_id":"ce4bh112rcd13ifvqd90","pricing_plan_id":"free"},{"bike_id":"d6e0f25c-aaad-4436-9a20-7d785d7e759e","system_id":"levelo_inurba_marseille","lat":43.32521,"lon":5.40572,"is_reserved":false,"is_disabled":false,"rental_uris":{"android":"levelo://app?vid=d6e0f25c-aaad-4436-9a20-7d785d7e759e","ios":"levelo://app?vid=d6e0f25c-aaad-4436-9a20-7d785d7e759e"},"vehicle_type_id":"4","last_reported":1698250121,"current_range_meters":4400,"station_id":"","pricing_plan_id":"free"},{"bike_id":"e848c5dd-baee-4c68-bdb8-95989e42962c","system_id":"levelo_inurba_marseille","lat":43.283498,"lon":5.380948,"is_reserved":false,"is_disabled":false,"rental_uris":{"android":"levelo://app?vid=e848c5dd-baee-4c68-bdb8-95989e42962c","ios":"levelo://app?vid=e848c5dd-baee-4c68-bdb8-95989e42962c"},"vehicle_type_id":"4","last_reported":1698250121,"current_range_meters":24800,"station_id":"ce4bh412rcd13ifvqdr0","pricing_plan_id":"free"},{"bike_id":"d33b6372-a414-4c58-85cf-abc0d11ba5d9","system_id":"levelo_inurba_marseille","lat":43.283498,"lon":5.380948,"is_reserved":false,"is_disabled":false,"rental_uris":{"android":"levelo://app?vid=d33b6372-a414-4c58-85cf-abc0d11ba5d9","ios":"levelo://app?vid=d33b6372-a414-4c58-85cf-abc0d11ba5d9"},"vehicle_type_id":"4","last_reported":1698250121,"current_range_meters":14400,"station_id":"ce4bh412rcd13ifvqdr0","pricing_plan_id":"free"},{"bike_id":"941e9e2e-f600-4afb-b05f-66c297d3002e","system_id":"levelo_inurba_marseille","lat":43.283498,"lon":5.380948,"is_reserved":false,"is_disabled":false,"rental_uris":{"android":"levelo://app?vid=941e9e2e-f600-4afb-b05f-66c297d3002e","ios":"levelo://app?vid=941e9e2e-f600-4afb-b05f-66c297d3002e"},"vehicle_type_id":"4","last_reported":1698250121,"current_range_meters":12000,"station_id":"ce4bh412rcd13ifvqdr0","pricing_plan_id":"free"},{"bike_id":"e190d4eb-7b3c-440b-98f3-2a5fc4fd15c9","system_id":"levelo_inurba_marseille","lat":43.28342,"lon":5.38108,"is_reserved":false,"is_disabled":false,"rental_uris":{"android":"levelo://app?vid=e190d4eb-7b3c-440b-98f3-2a5fc4fd15c9","ios":"levelo://app?vid=e190d4eb-7b3c-440b-98f3-2a5fc4fd15c9"},"vehicle_type_id":"4","last_reported":1698250121,"current_range_meters":28800,"station_id":"ce4bh412rcd13ifvqdr0","pricing_plan_id":"free"},{"bike_id":"65bb65ed-b5da-413d-9693-c4c72470e5f0","system_id":"levelo_inurba_marseille","lat":43.292724,"lon":5.401131,"is_reserved":false,"is_disabled":false,"rental_uris":{"android":"levelo://app?vid=65bb65ed-b5da-413d-9693-c4c72470e5f0","ios":"levelo://app?vid=65bb65ed-b5da-413d-9693-c4c72470e5f0"},"vehicle_type_id":"4","last_reported":1698250121,"current_range_meters":19600,"station_id":"ce4bh312rcd13ifvqdk0","pricing_plan_id":"free"},{"bike_id":"a611f891-a37c-4917-bf8d-4e219c2d2bec","system_id":"levelo_inurba_marseille","lat":43.28039,"lon":5.369297,"is_reserved":false,"is_disabled":false,"rental_uris":{"android":"levelo://app?vid=a611f891-a37c-4917-bf8d-4e219c2d2bec","ios":"levelo://app?vid=a611f891-a37c-4917-bf8d-4e219c2d2bec"},"vehicle_type_id":"4","last_reported":1698250121,"current_range_meters":9600,"station_id":"ce4bha12rcd13ifvqef0","pricing_plan_id":"free"},{"bike_id":"f1e0e99e-3049-493f-a1ba-d6c42d5d9c0a","system_id":"levelo_inurba_marseille","lat":43.28363,"lon":5.38646,"is_reserved":false,"is_disabled":false,"rental_uris":{"android":"levelo://app?vid=f1e0e99e-3049-493f-a1ba-d6c42d5d9c0a","ios":"levelo://app?vid=f1e0e99e-3049-493f-a1ba-d6c42d5d9c0a"},"vehicle_type_id":"4","last_reported":1698250121,"current_range_meters":0,"station_id":"ce4bh492rcd13ifvqdvg","pricing_plan_id":"free"},{"bike_id":"5010f0fd-5b36-4846-8292-a5b57c45c912","system_id":"levelo_inurba_marseille","lat":43.28039,"lon":5.369297,"is_reserved":false,"is_disabled":false,"rental_uris":{"android":"levelo://app?vid=5010f0fd-5b36-4846-8292-a5b57c45c912","ios":"levelo://app?vid=5010f0fd-5b36-4846-8292-a5b57c45c912"},"vehicle_type_id":"4","last_reported":1698250121,"current_range_meters":20000,"station_id":"ce4bha12rcd13ifvqef0","pricing_plan_id":"free"},{"bike_id":"e4ebd68d-a10f-48ce-a618-b36457bc83bd","system_id":"levelo_inurba_marseille","lat":43.280382,"lon":5.369291,"is_reserved":false,"is_disabled":false,"rental_uris":{"android":"levelo://app?vid=e4ebd68d-a10f-48ce-a618-b36457bc83bd","ios":"levelo://app?vid=e4ebd68d-a10f-48ce-a618-b36457bc83bd"},"vehicle_type_id":"4","last_reported":1698250121,"current_range_meters":29600,"station_id":"ce4bha12rcd13ifvqef0","pricing_plan_id":"free"},{"bike_id":"e60ee3da-0c73-4579-8e13-cd76a0886763","system_id":"levelo_inurba_marseille","lat":43.30384,"lon":5.410055,"is_reserved":false,"is_disabled":false,"rental_uris":{"android":"levelo://app?vid=e60ee3da-0c73-4579-8e13-cd76a0886763","ios":"levelo://app?vid=e60ee3da-0c73-4579-8e13-cd76a0886763"},"vehicle_type_id":"4","last_reported":1698250121,"current_range_meters":26800,"station_id":"","pricing_plan_id":"free"},{"bike_id":"13ce1ae9-6a7d-4fb3-b8f5-1352468caf34","system_id":"levelo_inurba_marseille","lat":43.281044,"lon":5.378308,"is_reserved":false,"is_disabled":false,"rental_uris":{"android":"levelo://app?vid=13ce1ae9-6a7d-4fb3-b8f5-1352468caf34","ios":"levelo://app?vid=13ce1ae9-6a7d-4fb3-b8f5-1352468caf34"},"vehicle_type_id":"4","last_reported":1698250121,"current_range_meters":26000,"station_id":"ce4bha12rcd13ifvqee0","pricing_plan_id":"free"},{"bike_id":"1ca242fe-6084-4f9b-8b54-35d465872844","system_id":"levelo_inurba_marseille","lat":43.290412,"lon":5.399633,"is_reserved":false,"is_disabled":false,"rental_uris":{"android":"levelo://app?vid=1ca242fe-6084-4f9b-8b54-35d465872844","ios":"levelo://app?vid=1ca242fe-6084-4f9b-8b54-35d465872844"},"vehicle_type_id":"4","last_reported":1698250121,"current_range_meters":22800,"station_id":"ce4bh392rcd13ifvqdm0","pricing_plan_id":"free"},{"bike_id":"76498b1d-09eb-4ef8-9cfb-d7872d65a618","system_id":"levelo_inurba_marseille","lat":43.29041,"lon":5.399634,"is_reserved":false,"is_disabled":false,"rental_uris":{"android":"levelo://app?vid=76498b1d-09eb-4ef8-9cfb-d7872d65a618","ios":"levelo://app?vid=76498b1d-09eb-4ef8-9cfb-d7872d65a618"},"vehicle_type_id":"4","last_reported":1698250121,"current_range_meters":0,"station_id":"ce4bh392rcd13ifvqdm0","pricing_plan_id":"free"},{"bike_id":"98c71133-38da-4bc9-a9ca-429b719f241a","system_id":"levelo_inurba_marseille","lat":43.323753,"lon":5.409287,"is_reserved":false,"is_disabled":false,"rental_uris":{"android":"levelo://app?vid=98c71133-38da-4bc9-a9ca-429b719f241a","ios":"levelo://app?vid=98c71133-38da-4bc9-a9ca-429b719f241a"},"vehicle_type_id":"4","last_reported":1698250121,"current_range_meters":20400,"station_id":"","pricing_plan_id":"free"},{"bike_id":"d68b1327-0b04-49ec-ba22-086903fb0322","system_id":"levelo_inurba_marseille","lat":43.281044,"lon":5.378308,"is_reserved":false,"is_disabled":false,"rental_uris":{"android":"levelo://app?vid=d68b1327-0b04-49ec-ba22-086903fb0322","ios":"levelo://app?vid=d68b1327-0b04-49ec-ba22-086903fb0322"},"vehicle_type_id":"4","last_reported":1698250121,"current_range_meters":23600,"station_id":"ce4bha12rcd13ifvqee0","pricing_plan_id":"free"},{"bike_id":"dabd3d98-d408-4277-baba-d4c9ae735091","system_id":"levelo_inurba_marseille","lat":43.281044,"lon":5.378308,"is_reserved":false,"is_disabled":false,"rental_uris":{"android":"levelo://app?vid=dabd3d98-d408-4277-baba-d4c9ae735091","ios":"levelo://app?vid=dabd3d98-d408-4277-baba-d4c9ae735091"},"vehicle_type_id":"4","last_reported":1698250121,"current_range_meters":8000,"station_id":"ce4bha12rcd13ifvqee0","pricing_plan_id":"free"},{"bike_id":"1542009d-2bd1-422c-854e-b9ff2265bc70","system_id":"levelo_inurba_marseille","lat":43.281044,"lon":5.378308,"is_reserved":false,"is_disabled":false,"rental_uris":{"android":"levelo://app?vid=1542009d-2bd1-422c-854e-b9ff2265bc70","ios":"levelo://app?vid=1542009d-2bd1-422c-854e-b9ff2265bc70"},"vehicle_type_id":"4","last_reported":1698250121,"current_range_meters":21200,"station_id":"ce4bha12rcd13ifvqee0","pricing_plan_id":"free"},{"bike_id":"a57d0fdb-b213-4e44-87aa-9e931832f41a","system_id":"levelo_inurba_marseille","lat":43.336569,"lon":5.398701,"is_reserved":false,"is_disabled":false,"rental_uris":{"android":"levelo://app?vid=a57d0fdb-b213-4e44-87aa-9e931832f41a","ios":"levelo://app?vid=a57d0fdb-b213-4e44-87aa-9e931832f41a"},"vehicle_type_id":"4","last_reported":1698250121,"current_range_meters":0,"station_id":"","pricing_plan_id":"free"},{"bike_id":"a7d44649-1319-4c33-a56f-4479ae7bd7d8","system_id":"levelo_inurba_marseille","lat":43.285742,"lon":5.395004,"is_reserved":false,"is_disabled":false,"rental_uris":{"android":"levelo://app?vid=a7d44649-1319-4c33-a56f-4479ae7bd7d8","ios":"levelo://app?vid=a7d44649-1319-4c33-a56f-4479ae7bd7d8"},"vehicle_type_id":"4","last_reported":1698250121,"current_range_meters":26400,"station_id":"ce4bh292rcd13ifvqdg0","pricing_plan_id":"free"},{"bike_id":"659078db-09f5-4f93-aa88-6fd590b04f4a","system_id":"levelo_inurba_marseille","lat":43.279087,"lon":5.380114,"is_reserved":false,"is_disabled":false,"rental_uris":{"android":"levelo://app?vid=659078db-09f5-4f93-aa88-6fd590b04f4a","ios":"levelo://app?vid=659078db-09f5-4f93-aa88-6fd590b04f4a"},"vehicle_type_id":"4","last_reported":1698250121,"current_range_meters":27200,"station_id":"ce4bhf92rcd13ifvqf50","pricing_plan_id":"free"},{"bike_id":"baafdf1a-46c8-4716-960d-e566661b0c5e","system_id":"levelo_inurba_marseille","lat":43.299577,"lon":5.413277,"is_reserved":false,"is_disabled":false,"rental_uris":{"android":"levelo://app?vid=baafdf1a-46c8-4716-960d-e566661b0c5e","ios":"levelo://app?vid=baafdf1a-46c8-4716-960d-e566661b0c5e"},"vehicle_type_id":"4","last_reported":1698250121,"current_range_meters":10000,"station_id":"ce4bhp12rcd13ifvqh9g","pricing_plan_id":"free"},{"bike_id":"e1e94263-8c58-4520-ac5e-4772d448cbaf","system_id":"levelo_inurba_marseille","lat":43.299577,"lon":5.413277,"is_reserved":false,"is_disabled":false,"rental_uris":{"android":"levelo://app?vid=e1e94263-8c58-4520-ac5e-4772d448cbaf","ios":"levelo://app?vid=e1e94263-8c58-4520-ac5e-4772d448cbaf"},"vehicle_type_id":"4","last_reported":1698250121,"current_range_meters":7600,"station_id":"ce4bhp12rcd13ifvqh9g","pricing_plan_id":"free"},{"bike_id":"7e3ed143-071d-4016-a2a4-9ffe09786612","system_id":"levelo_inurba_marseille","lat":43.299577,"lon":5.413277,"is_reserved":false,"is_disabled":false,"rental_uris":{"android":"levelo://app?vid=7e3ed143-071d-4016-a2a4-9ffe09786612","ios":"levelo://app?vid=7e3ed143-071d-4016-a2a4-9ffe09786612"},"vehicle_type_id":"4","last_reported":1698250121,"current_range_meters":16400,"station_id":"ce4bhp12rcd13ifvqh9g","pricing_plan_id":"free"},{"bike_id":"ab6a2ecc-5ab5-4c4b-97b9-a16841f55335","system_id":"levelo_inurba_marseille","lat":43.299577,"lon":5.413277,"is_reserved":false,"is_disabled":false,"rental_uris":{"android":"levelo://app?vid=ab6a2ecc-5ab5-4c4b-97b9-a16841f55335","ios":"levelo://app?vid=ab6a2ecc-5ab5-4c4b-97b9-a16841f55335"},"vehicle_type_id":"4","last_reported":1698250121,"current_range_meters":4800,"station_id":"ce4bhp12rcd13ifvqh9g","pricing_plan_id":"free"},{"bike_id":"e096380e-528b-4bbe-addf-3407b1af746d","system_id":"levelo_inurba_marseille","lat":43.292571,"lon":5.409107,"is_reserved":false,"is_disabled":false,"rental_uris":{"android":"levelo://app?vid=e096380e-528b-4bbe-addf-3407b1af746d","ios":"levelo://app?vid=e096380e-528b-4bbe-addf-3407b1af746d"},"vehicle_type_id":"4","last_reported":1698250121,"current_range_meters":26800,"station_id":"ce4bh192rcd13ifvqdc0","pricing_plan_id":"free"},{"bike_id":"069301ed-2d21-45b9-a3ad-c10eb9faa01b","system_id":"levelo_inurba_marseille","lat":43.292571,"lon":5.409107,"is_reserved":false,"is_disabled":false,"rental_uris":{"android":"levelo://app?vid=069301ed-2d21-45b9-a3ad-c10eb9faa01b","ios":"levelo://app?vid=069301ed-2d21-45b9-a3ad-c10eb9faa01b"},"vehicle_type_id":"4","last_reported":1698250121,"current_range_meters":30800,"station_id":"ce4bh192rcd13ifvqdc0","pricing_plan_id":"free"},{"bike_id":"f403f4cc-c9c8-4909-8c1f-8024f24cfe1b","system_id":"levelo_inurba_marseille","lat":43.292571,"lon":5.409107,"is_reserved":false,"is_disabled":false,"rental_uris":{"android":"levelo://app?vid=f403f4cc-c9c8-4909-8c1f-8024f24cfe1b","ios":"levelo://app?vid=f403f4cc-c9c8-4909-8c1f-8024f24cfe1b"},"vehicle_type_id":"4","last_reported":1698250121,"current_range_meters":0,"station_id":"ce4bh192rcd13ifvqdc0","pricing_plan_id":"free"},{"bike_id":"26284957-ae4d-4606-8ef5-5d847fc37503","system_id":"levelo_inurba_marseille","lat":43.292569,"lon":5.409107,"is_reserved":false,"is_disabled":false,"rental_uris":{"android":"levelo://app?vid=26284957-ae4d-4606-8ef5-5d847fc37503","ios":"levelo://app?vid=26284957-ae4d-4606-8ef5-5d847fc37503"},"vehicle_type_id":"4","last_reported":1698250121,"current_range_meters":23200,"station_id":"ce4bh192rcd13ifvqdc0","pricing_plan_id":"free"},{"bike_id":"4a17d66c-fa03-4027-bf63-a77ba516c9c1","system_id":"levelo_inurba_marseille","lat":43.276179,"lon":5.361009,"is_reserved":false,"is_disabled":false,"rental_uris":{"android":"levelo://app?vid=4a17d66c-fa03-4027-bf63-a77ba516c9c1","ios":"levelo://app?vid=4a17d66c-fa03-4027-bf63-a77ba516c9c1"},"vehicle_type_id":"4","last_reported":1698250121,"current_range_meters":26800,"station_id":"ce4bgj92rcd13ifvqbe0","pricing_plan_id":"free"},{"bike_id":"4b1a29c3-f054-4365-8a88-449ba1257ce1","system_id":"levelo_inurba_marseille","lat":43.280784,"lon":5.396622,"is_reserved":false,"is_disabled":false,"rental_uris":{"android":"levelo://app?vid=4b1a29c3-f054-4365-8a88-449ba1257ce1","ios":"levelo://app?vid=4b1a29c3-f054-4365-8a88-449ba1257ce1"},"vehicle_type_id":"4","last_reported":1698250121,"current_range_meters":23600,"station_id":"ce4bho12rcd13ifvqh2g","pricing_plan_id":"free"},{"bike_id":"8b34ad47-feb5-496c-8334-7ef135900a0e","system_id":"levelo_inurba_marseille","lat":43.303837,"lon":5.418724,"is_reserved":false,"is_disabled":false,"rental_uris":{"android":"levelo://app?vid=8b34ad47-feb5-496c-8334-7ef135900a0e","ios":"levelo://app?vid=8b34ad47-feb5-496c-8334-7ef135900a0e"},"vehicle_type_id":"4","last_reported":1698250121,"current_range_meters":13600,"station_id":"ce4bhop2rcd13ifvqh7g","pricing_plan_id":"free"},{"bike_id":"2075cd6d-8249-4944-80ff-bc32409d3e41","system_id":"levelo_inurba_marseille","lat":43.278401,"lon":5.392152,"is_reserved":false,"is_disabled":false,"rental_uris":{"android":"levelo://app?vid=2075cd6d-8249-4944-80ff-bc32409d3e41","ios":"levelo://app?vid=2075cd6d-8249-4944-80ff-bc32409d3e41"},"vehicle_type_id":"4","last_reported":1698250121,"current_range_meters":0,"station_id":"ce4bhjp2rcd13ifvqga0","pricing_plan_id":"free"},{"bike_id":"4665d6cc-5d32-42f6-84a5-9a60c9196dc6","system_id":"levelo_inurba_marseille","lat":43.2738,"lon":5.36257,"is_reserved":false,"is_disabled":false,"rental_uris":{"android":"levelo://app?vid=4665d6cc-5d32-42f6-84a5-9a60c9196dc6","ios":"levelo://app?vid=4665d6cc-5d32-42f6-84a5-9a60c9196dc6"},"vehicle_type_id":"4","last_reported":1698250121,"current_range_meters":30800,"station_id":"ce4bhbh2rcd13ifvqeo0","pricing_plan_id":"free"},{"bike_id":"edd71fc3-1fb8-4dcd-a59e-6071c8715b10","system_id":"levelo_inurba_marseille","lat":43.27379,"lon":5.362527,"is_reserved":false,"is_disabled":false,"rental_uris":{"android":"levelo://app?vid=edd71fc3-1fb8-4dcd-a59e-6071c8715b10","ios":"levelo://app?vid=edd71fc3-1fb8-4dcd-a59e-6071c8715b10"},"vehicle_type_id":"4","last_reported":1698250121,"current_range_meters":18800,"station_id":"ce4bhbh2rcd13ifvqeo0","pricing_plan_id":"free"},{"bike_id":"f3c296f5-2f8b-4a63-8aca-5b65c0748ba7","system_id":"levelo_inurba_marseille","lat":43.27378,"lon":5.36253,"is_reserved":false,"is_disabled":false,"rental_uris":{"android":"levelo://app?vid=f3c296f5-2f8b-4a63-8aca-5b65c0748ba7","ios":"levelo://app?vid=f3c296f5-2f8b-4a63-8aca-5b65c0748ba7"},"vehicle_type_id":"4","last_reported":1698250121,"current_range_meters":31200,"station_id":"ce4bhbh2rcd13ifvqeo0","pricing_plan_id":"free"},{"bike_id":"11a0c108-5863-4a12-9ccd-21f5ce77da49","system_id":"levelo_inurba_marseille","lat":43.27376,"lon":5.36259,"is_reserved":false,"is_disabled":false,"rental_uris":{"android":"levelo://app?vid=11a0c108-5863-4a12-9ccd-21f5ce77da49","ios":"levelo://app?vid=11a0c108-5863-4a12-9ccd-21f5ce77da49"},"vehicle_type_id":"4","last_reported":1698250121,"current_range_meters":31600,"station_id":"ce4bhbh2rcd13ifvqeo0","pricing_plan_id":"free"},{"bike_id":"973339f3-6bb4-4669-bff8-793557763a37","system_id":"levelo_inurba_marseille","lat":43.273759,"lon":5.362469,"is_reserved":false,"is_disabled":false,"rental_uris":{"android":"levelo://app?vid=973339f3-6bb4-4669-bff8-793557763a37","ios":"levelo://app?vid=973339f3-6bb4-4669-bff8-793557763a37"},"vehicle_type_id":"4","last_reported":1698250121,"current_range_meters":31200,"station_id":"ce4bhbh2rcd13ifvqeo0","pricing_plan_id":"free"},{"bike_id":"5b7f6bfd-0fc9-49f7-846c-6b89df119f47","system_id":"levelo_inurba_marseille","lat":43.280062,"lon":5.400153,"is_reserved":false,"is_disabled":false,"rental_uris":{"android":"levelo://app?vid=5b7f6bfd-0fc9-49f7-846c-6b89df119f47","ios":"levelo://app?vid=5b7f6bfd-0fc9-49f7-846c-6b89df119f47"},"vehicle_type_id":"4","last_reported":1698250121,"current_range_meters":20400,"station_id":"","pricing_plan_id":"free"},{"bike_id":"2613e001-1a2e-42f3-bdf8-4e6c5d1b9d10","system_id":"levelo_inurba_marseille","lat":43.28002,"lon":5.40015,"is_reserved":false,"is_disabled":false,"rental_uris":{"android":"levelo://app?vid=2613e001-1a2e-42f3-bdf8-4e6c5d1b9d10","ios":"levelo://app?vid=2613e001-1a2e-42f3-bdf8-4e6c5d1b9d10"},"vehicle_type_id":"4","last_reported":1698250121,"current_range_meters":0,"station_id":"ce4bho92rcd13ifvqh4g","pricing_plan_id":"free"},{"bike_id":"d7883944-b27a-45e9-82b6-21be75883ef9","system_id":"levelo_inurba_marseille","lat":43.28,"lon":5.40012,"is_reserved":false,"is_disabled":false,"rental_uris":{"android":"levelo://app?vid=d7883944-b27a-45e9-82b6-21be75883ef9","ios":"levelo://app?vid=d7883944-b27a-45e9-82b6-21be75883ef9"},"vehicle_type_id":"4","last_reported":1698250121,"current_range_meters":0,"station_id":"ce4bho92rcd13ifvqh4g","pricing_plan_id":"free"},{"bike_id":"fdb5c804-b5d1-4274-bc73-1c2898d3d03a","system_id":"levelo_inurba_marseille","lat":43.317121,"lon":5.423936,"is_reserved":false,"is_disabled":false,"rental_uris":{"android":"levelo://app?vid=fdb5c804-b5d1-4274-bc73-1c2898d3d03a","ios":"levelo://app?vid=fdb5c804-b5d1-4274-bc73-1c2898d3d03a"},"vehicle_type_id":"4","last_reported":1698250121,"current_range_meters":18400,"station_id":"ce4bhp92rcd13ifvqhbg","pricing_plan_id":"free"},{"bike_id":"f25ce6de-cbb1-410a-b3e2-444c998b261e","system_id":"levelo_inurba_marseille","lat":43.317121,"lon":5.423936,"is_reserved":false,"is_disabled":false,"rental_uris":{"android":"levelo://app?vid=f25ce6de-cbb1-410a-b3e2-444c998b261e","ios":"levelo://app?vid=f25ce6de-cbb1-410a-b3e2-444c998b261e"},"vehicle_type_id":"4","last_reported":1698250121,"current_range_meters":11600,"station_id":"ce4bhp92rcd13ifvqhbg","pricing_plan_id":"free"},{"bike_id":"4930b7e3-2210-4a3d-936e-bde55f878f91","system_id":"levelo_inurba_marseille","lat":43.27331,"lon":5.39085,"is_reserved":false,"is_disabled":false,"rental_uris":{"android":"levelo://app?vid=4930b7e3-2210-4a3d-936e-bde55f878f91","ios":"levelo://app?vid=4930b7e3-2210-4a3d-936e-bde55f878f91"},"vehicle_type_id":"4","last_reported":1698250121,"current_range_meters":19200,"station_id":"ce4bhgp2rcd13ifvqfe0","pricing_plan_id":"free"},{"bike_id":"0a4c5b0e-dfd3-44ed-95a4-77923f2af861","system_id":"levelo_inurba_marseille","lat":43.260912,"lon":5.397584,"is_reserved":false,"is_disabled":false,"rental_uris":{"android":"levelo://app?vid=0a4c5b0e-dfd3-44ed-95a4-77923f2af861","ios":"levelo://app?vid=0a4c5b0e-dfd3-44ed-95a4-77923f2af861"},"vehicle_type_id":"4","last_reported":1698250121,"current_range_meters":29200,"station_id":"ce4bhi12rcd13ifvqfq0","pricing_plan_id":"free"},{"bike_id":"6031130a-01f0-4c0a-9dff-e1f1191b5d8e","system_id":"levelo_inurba_marseille","lat":43.29563,"lon":5.42289,"is_reserved":false,"is_disabled":false,"rental_uris":{"android":"levelo://app?vid=6031130a-01f0-4c0a-9dff-e1f1191b5d8e","ios":"levelo://app?vid=6031130a-01f0-4c0a-9dff-e1f1191b5d8e"},