{"last_updated":1685124490,"ttl":30,"version":"2.2","data":{"bikes":[{"bike_id":"4a3eaee6-4a57-4b94-8492-46080f5b7b0d","system_id":"levelo_inurba_marseille","lat":43.31226,"lon":5.36864,"is_reserved":false,"is_disabled":false,"rental_uris":{"android":"levelo://app?vid=4a3eaee6-4a57-4b94-8492-46080f5b7b0d","ios":"levelo://app?vid=4a3eaee6-4a57-4b94-8492-46080f5b7b0d"},"vehicle_type_id":"4","last_reported":1685124491,"current_range_meters":15200,"station_id":"ce4bgl92rcd13ifvqbq0","pricing_plan_id":"free"},{"bike_id":"0a4b6da9-a1fd-48e6-bba2-ae86f9d1d4fa","system_id":"levelo_inurba_marseille","lat":43.30588,"lon":5.3723,"is_reserved":false,"is_disabled":false,"rental_uris":{"android":"levelo://app?vid=0a4b6da9-a1fd-48e6-bba2-ae86f9d1d4fa","ios":"levelo://app?vid=0a4b6da9-a1fd-48e6-bba2-ae86f9d1d4fa"},"vehicle_type_id":"4","last_reported":1685124491,"current_range_meters":0,"station_id":"ce4bgqh2rcd13ifvqc4g","pricing_plan_id":"free"},{"bike_id":"9228354f-aee1-4f6d-bf9a-8f82b491c6d3","system_id":"levelo_inurba_marseille","lat":43.317075,"lon":5.377367,"is_reserved":false,"is_disabled":false,"rental_uris":{"android":"levelo://app?vid=9228354f-aee1-4f6d-bf9a-8f82b491c6d3","ios":"levelo://app?vid=9228354f-aee1-4f6d-bf9a-8f82b491c6d3"},"vehicle_type_id":"4","last_reported":1685124491,"current_range_meters":14000,"station_id":"ce4bgth2rcd13ifvqch0","pricing_plan_id":"free"},{"bike_id":"f47b8c93-abbd-42bc-9979-f8f6f8e17204","system_id":"levelo_inurba_marseille","lat":43.317075,"lon":5.377367,"is_reserved":false,"is_disabled":false,"rental_uris":{"android":"levelo://app?vid=f47b8c93-abbd-42bc-9979-f8f6f8e17204","ios":"levelo://app?vid=f47b8c93-abbd-42bc-9979-f8f6f8e17204"},"vehicle_type_id":"4","last_reported":1685124491,"current_range_meters":12000,"station_id":"ce4bgth2rcd13ifvqch0","pricing_plan_id":"free"},{"bike_id":"ac50db6e-cb95-4b98-bc2e-0242e9227128","system_id":"levelo_inurba_marseille","lat":43.317075,"lon":5.377367,"is_reserved":false,"is_disabled":false,"rental_uris":{"android":"levelo://app?vid=ac50db6e-cb95-4b98-bc2e-0242e9227128","ios":"levelo://app?vid=ac50db6e-cb95-4b98-bc2e-0242e9227128"},"vehicle_type_id":"4","last_reported":1685124491,"current_range_meters":27200,"station_id":"ce4bgth2rcd13ifvqch0","pricing_plan_id":"free"},{"bike_id":"6ab4b008-685b-4c78-92a9-ab98fbcd3286","system_id":"levelo_inurba_marseille","lat":43.30395,"lon":5.36759,"is_reserved":false,"is_disabled":false,"rental_uris":{"android":"levelo://app?vid=6ab4b008-685b-4c78-92a9-ab98fbcd3286","ios":"levelo://app?vid=6ab4b008-685b-4c78-92a9-ab98fbcd3286"},"vehicle_type_id":"4","last_reported":1685124491,"current_range_meters":0,"station_id":"","pricing_plan_id":"free"},{"bike_id":"c0b0d062-8275-40cf-8874-7d9d55ab7e88","system_id":"levelo_inurba_marseille","lat":43.31713,"lon":5.37832,"is_reserved":false,"is_disabled":false,"rental_uris":{"android":"levelo://app?vid=c0b0d062-8275-40cf-8874-7d9d55ab7e88","ios":"levelo://app?vid=c0b0d062-8275-40cf-8874-7d9d55ab7e88"},"vehicle_type_id":"4","last_reported":1685124491,"current_range_meters":24000,"station_id":"","pricing_plan_id":"free"},{"bike_id":"198a209d-680f-4fef-97df-de1be78fdd2b","system_id":"levelo_inurba_marseille","lat":43.315289,"lon":5.380349,"is_reserved":false,"is_disabled":false,"rental_uris":{"android":"levelo://app?vid=198a209d-680f-4fef-97df-de1be78fdd2b","ios":"levelo://app?vid=198a209d-680f-4fef-97df-de1be78fdd2b"},"vehicle_type_id":"4","last_reported":1685124491,"current_range_meters":14000,"station_id":"ce4bhsp2rcd13ifvqi50","pricing_plan_id":"free"},{"bike_id":"f3e7fce9-5edd-4b52-b2e3-b62fae0f14e7","system_id":"levelo_inurba_marseille","lat":43.315293,"lon":5.380349,"is_reserved":false,"is_disabled":false,"rental_uris":{"android":"levelo://app?vid=f3e7fce9-5edd-4b52-b2e3-b62fae0f14e7","ios":"levelo://app?vid=f3e7fce9-5edd-4b52-b2e3-b62fae0f14e7"},"vehicle_type_id":"4","last_reported":1685124491,"current_range_meters":23600,"station_id":"ce4bhsp2rcd13ifvqi50","pricing_plan_id":"free"},{"bike_id":"a05200b4-eb11-41d1-8072-cf83e5d9adf4","system_id":"levelo_inurba_marseille","lat":43.30193,"lon":5.36623,"is_reserved":false,"is_disabled":false,"rental_uris":{"android":"levelo://app?vid=a05200b4-eb11-41d1-8072-cf83e5d9adf4","ios":"levelo://app?vid=a05200b4-eb11-41d1-8072-cf83e5d9adf4"},"vehicle_type_id":"4","last_reported":1685124491,"current_range_meters":13600,"station_id":"ce4bgrh2rcd13ifvqc8g","pricing_plan_id":"free"},{"bike_id":"6e03b862-66c1-46a2-8b0b-d80853f7e6f5","system_id":"levelo_inurba_marseille","lat":43.308012,"lon":5.381511,"is_reserved":false,"is_disabled":false,"rental_uris":{"android":"levelo://app?vid=6e03b862-66c1-46a2-8b0b-d80853f7e6f5","ios":"levelo://app?vid=6e03b862-66c1-46a2-8b0b-d80853f7e6f5"},"vehicle_type_id":"4","last_reported":1685124491,"current_range_meters":12400,"station_id":"ce4bgt12rcd13ifvqce0","pricing_plan_id":"free"},{"bike_id":"9b1f372f-47c0-490e-a875-eb3740a72d12","system_id":"levelo_inurba_marseille","lat":43.30141,"lon":5.37409,"is_reserved":false,"is_disabled":false,"rental_uris":{"android":"levelo://app?vid=9b1f372f-47c0-490e-a875-eb3740a72d12","ios":"levelo://app?vid=9b1f372f-47c0-490e-a875-eb3740a72d12"},"vehicle_type_id":"4","last_reported":1685124491,"current_range_meters":0,"station_id":"","pricing_plan_id":"free"},{"bike_id":"8f82a363-66e2-4da7-a376-df9f61ebf345","system_id":"levelo_inurba_marseille","lat":43.30142,"lon":5.37416,"is_reserved":false,"is_disabled":false,"rental_uris":{"android":"levelo://app?vid=8f82a363-66e2-4da7-a376-df9f61ebf345","ios":"levelo://app?vid=8f82a363-66e2-4da7-a376-df9f61ebf345"},"vehicle_type_id":"4","last_reported":1685124491,"current_range_meters":3200,"station_id":"","pricing_plan_id":"free"},{"bike_id":"15085faf-94d1-454c-8de1-c9482918e24b","system_id":"levelo_inurba_marseille","lat":43.31992,"lon":5.38151,"is_reserved":false,"is_disabled":false,"rental_uris":{"android":"levelo://app?vid=15085faf-94d1-454c-8de1-c9482918e24b","ios":"levelo://app?vid=15085faf-94d1-454c-8de1-c9482918e24b"},"vehicle_type_id":"4","last_reported":1685124491,"current_range_meters":8000,"station_id":"ce4bhr12rcd13ifvqhpg","pricing_plan_id":"free"},{"bike_id":"e5571f58-adb6-49b7-8c86-2d757ae8e1a0","system_id":"levelo_inurba_marseille","lat":43.319935,"lon":5.381699,"is_reserved":false,"is_disabled":false,"rental_uris":{"android":"levelo://app?vid=e5571f58-adb6-49b7-8c86-2d757ae8e1a0","ios":"levelo://app?vid=e5571f58-adb6-49b7-8c86-2d757ae8e1a0"},"vehicle_type_id":"4","last_reported":1685124491,"current_range_meters":17600,"station_id":"ce4bhr12rcd13ifvqhpg","pricing_plan_id":"free"},{"bike_id":"f31b646e-0ca3-4fad-87f3-bccb845465a9","system_id":"levelo_inurba_marseille","lat":43.313571,"lon":5.384829,"is_reserved":false,"is_disabled":false,"rental_uris":{"android":"levelo://app?vid=f31b646e-0ca3-4fad-87f3-bccb845465a9","ios":"levelo://app?vid=f31b646e-0ca3-4fad-87f3-bccb845465a9"},"vehicle_type_id":"4","last_reported":1685124491,"current_range_meters":4000,"station_id":"ce4bgt92rcd13ifvqcf0","pricing_plan_id":"free"},{"bike_id":"0d6739ca-c2fe-4c7a-a843-4491068a992b","system_id":"levelo_inurba_marseille","lat":43.31372,"lon":5.38517,"is_reserved":false,"is_disabled":false,"rental_uris":{"android":"levelo://app?vid=0d6739ca-c2fe-4c7a-a843-4491068a992b","ios":"levelo://app?vid=0d6739ca-c2fe-4c7a-a843-4491068a992b"},"vehicle_type_id":"4","last_reported":1685124491,"current_range_meters":23600,"station_id":"ce4bgt92rcd13ifvqcf0","pricing_plan_id":"free"},{"bike_id":"7bbc6741-24b5-4937-af39-409308b0c6e3","system_id":"levelo_inurba_marseille","lat":43.298433,"lon":5.362774,"is_reserved":false,"is_disabled":false,"rental_uris":{"android":"levelo://app?vid=7bbc6741-24b5-4937-af39-409308b0c6e3","ios":"levelo://app?vid=7bbc6741-24b5-4937-af39-409308b0c6e3"},"vehicle_type_id":"4","last_reported":1685124491,"current_range_meters":9600,"station_id":"ce4bgpp2rcd13ifvqc3g","pricing_plan_id":"free"},{"bike_id":"b2cd93ae-b10e-482b-a028-6c9fc6fb3260","system_id":"levelo_inurba_marseille","lat":43.299243,"lon":5.37481,"is_reserved":false,"is_disabled":false,"rental_uris":{"android":"levelo://app?vid=b2cd93ae-b10e-482b-a028-6c9fc6fb3260","ios":"levelo://app?vid=b2cd93ae-b10e-482b-a028-6c9fc6fb3260"},"vehicle_type_id":"4","last_reported":1685124491,"current_range_meters":24800,"station_id":"ce4bgjh2rcd13ifvqbg0","pricing_plan_id":"free"},{"bike_id":"06b84d95-8717-44d7-80f2-a1a051244ae5","system_id":"levelo_inurba_marseille","lat":43.311722,"lon":5.387247,"is_reserved":false,"is_disabled":false,"rental_uris":{"android":"levelo://app?vid=06b84d95-8717-44d7-80f2-a1a051244ae5","ios":"levelo://app?vid=06b84d95-8717-44d7-80f2-a1a051244ae5"},"vehicle_type_id":"4","last_reported":1685124491,"current_range_meters":0,"station_id":"ce4bgv12rcd13ifvqcp0","pricing_plan_id":"free"},{"bike_id":"b23a8a3b-ac5b-4e62-bf01-b8f0ca8b004a","system_id":"levelo_inurba_marseille","lat":43.29779,"lon":5.37071,"is_reserved":false,"is_disabled":false,"rental_uris":{"android":"levelo://app?vid=b23a8a3b-ac5b-4e62-bf01-b8f0ca8b004a","ios":"levelo://app?vid=b23a8a3b-ac5b-4e62-bf01-b8f0ca8b004a"},"vehicle_type_id":"4","last_reported":1685124491,"current_range_meters":12400,"station_id":"ce4bgop2rcd13ifvqc1g","pricing_plan_id":"free"},{"bike_id":"dc46d1a8-1691-481c-b80a-64311f3a1e81","system_id":"levelo_inurba_marseille","lat":43.328371,"lon":5.366912,"is_reserved":false,"is_disabled":false,"rental_uris":{"android":"levelo://app?vid=dc46d1a8-1691-481c-b80a-64311f3a1e81","ios":"levelo://app?vid=dc46d1a8-1691-481c-b80a-64311f3a1e81"},"vehicle_type_id":"4","last_reported":1685124491,"current_range_meters":22800,"station_id":"ce4bhs92rcd13ifvqi0g","pricing_plan_id":"free"},{"bike_id":"bbf06f8d-4083-4a31-beff-723604c0f8b8","system_id":"levelo_inurba_marseille","lat":43.32833,"lon":5.36674,"is_reserved":false,"is_disabled":false,"rental_uris":{"android":"levelo://app?vid=bbf06f8d-4083-4a31-beff-723604c0f8b8","ios":"levelo://app?vid=bbf06f8d-4083-4a31-beff-723604c0f8b8"},"vehicle_type_id":"4","last_reported":1685124491,"current_range_meters":0,"station_id":"ce4bhs92rcd13ifvqi0g","pricing_plan_id":"free"},{"bike_id":"b5387c8b-1aeb-4c0b-bf7e-29bd1cef36b6","system_id":"levelo_inurba_marseille","lat":43.29715,"lon":5.36616,"is_reserved":false,"is_disabled":false,"rental_uris":{"android":"levelo://app?vid=b5387c8b-1aeb-4c0b-bf7e-29bd1cef36b6","ios":"levelo://app?vid=b5387c8b-1aeb-4c0b-bf7e-29bd1cef36b6"},"vehicle_type_id":"4","last_reported":1685124491,"current_range_meters":19200,"station_id":"","pricing_plan_id":"free"},{"bike_id":"15bdd509-ac6b-486d-a3af-74b1c552f2cb","system_id":"levelo_inurba_marseille","lat":43.32835,"lon":5.36677,"is_reserved":false,"is_disabled":false,"rental_uris":{"android":"levelo://app?vid=15bdd509-ac6b-486d-a3af-74b1c552f2cb","ios":"levelo://app?vid=15bdd509-ac6b-486d-a3af-74b1c552f2cb"},"vehicle_type_id":"4","last_reported":1685124491,"current_range_meters":14800,"station_id":"ce4bhs92rcd13ifvqi0g","pricing_plan_id":"free"},{"bike_id":"6c1c3bf3-de9f-4d5b-aad5-c81ec263d55d","system_id":"levelo_inurba_marseille","lat":43.29712,"lon":5.36604,"is_reserved":false,"is_disabled":false,"rental_uris":{"android":"levelo://app?vid=6c1c3bf3-de9f-4d5b-aad5-c81ec263d55d","ios":"levelo://app?vid=6c1c3bf3-de9f-4d5b-aad5-c81ec263d55d"},"vehicle_type_id":"4","last_reported":1685124491,"current_range_meters":800,"station_id":"","pricing_plan_id":"free"},{"bike_id":"fd2f7b4b-349a-4854-83fe-5b667e45995a","system_id":"levelo_inurba_marseille","lat":43.31509,"lon":5.38933,"is_reserved":false,"is_disabled":false,"rental_uris":{"android":"levelo://app?vid=fd2f7b4b-349a-4854-83fe-5b667e45995a","ios":"levelo://app?vid=fd2f7b4b-349a-4854-83fe-5b667e45995a"},"vehicle_type_id":"4","last_reported":1685124491,"current_range_meters":24000,"station_id":"","pricing_plan_id":"free"},{"bike_id":"66142e85-73e1-45ea-b89e-7e28dc1f8054","system_id":"levelo_inurba_marseille","lat":43.296131,"lon":5.370791,"is_reserved":false,"is_disabled":false,"rental_uris":{"android":"levelo://app?vid=66142e85-73e1-45ea-b89e-7e28dc1f8054","ios":"levelo://app?vid=66142e85-73e1-45ea-b89e-7e28dc1f8054"},"vehicle_type_id":"4","last_reported":1685124491,"current_range_meters":5200,"station_id":"ce4bgnh2rcd13ifvqc0g","pricing_plan_id":"free"},{"bike_id":"191b1de1-792d-4a82-8c51-1d8cf10ced2b","system_id":"levelo_inurba_marseille","lat":43.29622,"lon":5.3715,"is_reserved":false,"is_disabled":false,"rental_uris":{"android":"levelo://app?vid=191b1de1-792d-4a82-8c51-1d8cf10ced2b","ios":"levelo://app?vid=191b1de1-792d-4a82-8c51-1d8cf10ced2b"},"vehicle_type_id":"4","last_reported":1685124491,"current_range_meters":14000,"station_id":"","pricing_plan_id":"free"},{"bike_id":"521a2ae4-946b-47bf-ba22-cf10bef5a9f9","system_id":"levelo_inurba_marseille","lat":43.2962,"lon":5.37143,"is_reserved":false,"is_disabled":false,"rental_uris":{"android":"levelo://app?vid=521a2ae4-946b-47bf-ba22-cf10bef5a9f9","ios":"levelo://app?vid=521a2ae4-946b-47bf-ba22-cf10bef5a9f9"},"vehicle_type_id":"4","last_reported":1685124491,"current_range_meters":13600,"station_id":"ce4bgk12rcd13ifvqbj0","pricing_plan_id":"free"},{"bike_id":"5b6973d9-cb8c-49ce-8914-27ea18ae03ed","system_id":"levelo_inurba_marseille","lat":43.296131,"lon":5.370791,"is_reserved":false,"is_disabled":false,"rental_uris":{"android":"levelo://app?vid=5b6973d9-cb8c-49ce-8914-27ea18ae03ed","ios":"levelo://app?vid=5b6973d9-cb8c-49ce-8914-27ea18ae03ed"},"vehicle_type_id":"4","last_reported":1685124491,"current_range_meters":5600,"station_id":"ce4bgnh2rcd13ifvqc0g","pricing_plan_id":"free"},{"bike_id":"dc5441d6-a83b-4704-b1f7-3b8d65ae24d3","system_id":"levelo_inurba_marseille","lat":43.296131,"lon":5.370773,"is_reserved":false,"is_disabled":false,"rental_uris":{"android":"levelo://app?vid=dc5441d6-a83b-4704-b1f7-3b8d65ae24d3","ios":"levelo://app?vid=dc5441d6-a83b-4704-b1f7-3b8d65ae24d3"},"vehicle_type_id":"4","last_reported":1685124491,"current_range_meters":18000,"station_id":"ce4bgnh2rcd13ifvqc0g","pricing_plan_id":"free"},{"bike_id":"0e86b6ab-bedd-4259-8279-470cbd4440ec","system_id":"levelo_inurba_marseille","lat":43.296129,"lon":5.370777,"is_reserved":false,"is_disabled":false,"rental_uris":{"android":"levelo://app?vid=0e86b6ab-bedd-4259-8279-470cbd4440ec","ios":"levelo://app?vid=0e86b6ab-bedd-4259-8279-470cbd4440ec"},"vehicle_type_id":"4","last_reported":1685124491,"current_range_meters":30000,"station_id":"ce4bgnh2rcd13ifvqc0g","pricing_plan_id":"free"},{"bike_id":"4f9df22e-5464-4476-913f-5bbec28cfcd8","system_id":"levelo_inurba_marseille","lat":43.29573,"lon":5.367355,"is_reserved":false,"is_disabled":false,"rental_uris":{"android":"levelo://app?vid=4f9df22e-5464-4476-913f-5bbec28cfcd8","ios":"levelo://app?vid=4f9df22e-5464-4476-913f-5bbec28cfcd8"},"vehicle_type_id":"4","last_reported":1685124491,"current_range_meters":16400,"station_id":"ce4bgph2rcd13ifvqc2g","pricing_plan_id":"free"},{"bike_id":"8639afe1-25a5-4ad8-87a7-7508a6d854cc","system_id":"levelo_inurba_marseille","lat":43.29573,"lon":5.367355,"is_reserved":false,"is_disabled":false,"rental_uris":{"android":"levelo://app?vid=8639afe1-25a5-4ad8-87a7-7508a6d854cc","ios":"levelo://app?vid=8639afe1-25a5-4ad8-87a7-7508a6d854cc"},"vehicle_type_id":"4","last_reported":1685124491,"current_range_meters":15200,"station_id":"ce4bgph2rcd13ifvqc2g","pricing_plan_id":"free"},{"bike_id":"d7f266a6-ce15-437e-86aa-7112b7a80e12","system_id":"levelo_inurba_marseille","lat":43.30965,"lon":5.39021,"is_reserved":false,"is_disabled":false,"rental_uris":{"android":"levelo://app?vid=d7f266a6-ce15-437e-86aa-7112b7a80e12","ios":"levelo://app?vid=d7f266a6-ce15-437e-86aa-7112b7a80e12"},"vehicle_type_id":"4","last_reported":1685124491,"current_range_meters":0,"station_id":"ce4bgup2rcd13ifvqco0","pricing_plan_id":"free"},{"bike_id":"0a80d5e9-ad49-415c-9ece-72c4359f066d","system_id":"levelo_inurba_marseille","lat":43.317557,"lon":5.390173,"is_reserved":false,"is_disabled":false,"rental_uris":{"android":"levelo://app?vid=0a80d5e9-ad49-415c-9ece-72c4359f066d","ios":"levelo://app?vid=0a80d5e9-ad49-415c-9ece-72c4359f066d"},"vehicle_type_id":"4","last_reported":1685124491,"current_range_meters":10000,"station_id":"ce4bhqp2rcd13ifvqhng","pricing_plan_id":"free"},{"bike_id":"cf3fb89a-c959-4f23-8f03-a98d306de8af","system_id":"levelo_inurba_marseille","lat":43.317557,"lon":5.390173,"is_reserved":false,"is_disabled":false,"rental_uris":{"android":"levelo://app?vid=cf3fb89a-c959-4f23-8f03-a98d306de8af","ios":"levelo://app?vid=cf3fb89a-c959-4f23-8f03-a98d306de8af"},"vehicle_type_id":"4","last_reported":1685124491,"current_range_meters":14800,"station_id":"ce4bhqp2rcd13ifvqhng","pricing_plan_id":"free"},{"bike_id":"ebd003da-9268-4e41-822e-aba884965788","system_id":"levelo_inurba_marseille","lat":43.29587,"lon":5.37513,"is_reserved":false,"is_disabled":false,"rental_uris":{"android":"levelo://app?vid=ebd003da-9268-4e41-822e-aba884965788","ios":"levelo://app?vid=ebd003da-9268-4e41-822e-aba884965788"},"vehicle_type_id":"4","last_reported":1685124491,"current_range_meters":8800,"station_id":"ce4bgh92rcd13ifvqb50","pricing_plan_id":"free"},{"bike_id":"0fd77a31-2906-404e-95b1-3c78dbe2b0c1","system_id":"levelo_inurba_marseille","lat":43.298037,"lon":5.381066,"is_reserved":false,"is_disabled":false,"rental_uris":{"android":"levelo://app?vid=0fd77a31-2906-404e-95b1-3c78dbe2b0c1","ios":"levelo://app?vid=0fd77a31-2906-404e-95b1-3c78dbe2b0c1"},"vehicle_type_id":"4","last_reported":1685124491,"current_range_meters":5200,"station_id":"ce4bgip2rcd13ifvqbb0","pricing_plan_id":"free"},{"bike_id":"a5b7b40e-190d-49b4-a07a-46f339881170","system_id":"levelo_inurba_marseille","lat":43.298037,"lon":5.381066,"is_reserved":false,"is_disabled":false,"rental_uris":{"android":"levelo://app?vid=a5b7b40e-190d-49b4-a07a-46f339881170","ios":"levelo://app?vid=a5b7b40e-190d-49b4-a07a-46f339881170"},"vehicle_type_id":"4","last_reported":1685124491,"current_range_meters":0,"station_id":"ce4bgip2rcd13ifvqbb0","pricing_plan_id":"free"},{"bike_id":"3c9db29e-7ae9-47a8-96ca-6c616169f501","system_id":"levelo_inurba_marseille","lat":43.295835,"lon":5.37518,"is_reserved":false,"is_disabled":false,"rental_uris":{"android":"levelo://app?vid=3c9db29e-7ae9-47a8-96ca-6c616169f501","ios":"levelo://app?vid=3c9db29e-7ae9-47a8-96ca-6c616169f501"},"vehicle_type_id":"4","last_reported":1685124491,"current_range_meters":0,"station_id":"ce4bgh92rcd13ifvqb50","pricing_plan_id":"free"},{"bike_id":"a7aa1d77-3f5c-49aa-af3a-d7991be774ae","system_id":"levelo_inurba_marseille","lat":43.298037,"lon":5.381066,"is_reserved":false,"is_disabled":false,"rental_uris":{"android":"levelo://app?vid=a7aa1d77-3f5c-49aa-af3a-d7991be774ae","ios":"levelo://app?vid=a7aa1d77-3f5c-49aa-af3a-d7991be774ae"},"vehicle_type_id":"4","last_reported":1685124491,"current_range_meters":0,"station_id":"ce4bgip2rcd13ifvqbb0","pricing_plan_id":"free"},{"bike_id":"5a9266d3-bd06-4d54-a712-8077216f6a98","system_id":"levelo_inurba_marseille","lat":43.295748,"lon":5.37522,"is_reserved":false,"is_disabled":false,"rental_uris":{"android":"levelo://app?vid=5a9266d3-bd06-4d54-a712-8077216f6a98","ios":"levelo://app?vid=5a9266d3-bd06-4d54-a712-8077216f6a98"},"vehicle_type_id":"4","last_reported":1685124491,"current_range_meters":10000,"station_id":"ce4bgh92rcd13ifvqb50","pricing_plan_id":"free"},{"bike_id":"1ce56c73-026f-459f-8dfe-e7b61a37891c","system_id":"levelo_inurba_marseille","lat":43.29573,"lon":5.37527,"is_reserved":false,"is_disabled":false,"rental_uris":{"android":"levelo://app?vid=1ce56c73-026f-459f-8dfe-e7b61a37891c","ios":"levelo://app?vid=1ce56c73-026f-459f-8dfe-e7b61a37891c"},"vehicle_type_id":"4","last_reported":1685124491,"current_range_meters":0,"station_id":"ce4bgh92rcd13ifvqb50","pricing_plan_id":"free"},{"bike_id":"245470bd-ad52-4ecb-b88b-c5c4460c38ae","system_id":"levelo_inurba_marseille","lat":43.296277,"lon":5.377108,"is_reserved":false,"is_disabled":false,"rental_uris":{"android":"levelo://app?vid=245470bd-ad52-4ecb-b88b-c5c4460c38ae","ios":"levelo://app?vid=245470bd-ad52-4ecb-b88b-c5c4460c38ae"},"vehicle_type_id":"4","last_reported":1685124491,"current_range_meters":22400,"station_id":"ce4bgi92rcd13ifvqb90","pricing_plan_id":"free"},{"bike_id":"692868a9-41aa-4efa-84b5-d619e4bd3654","system_id":"levelo_inurba_marseille","lat":43.296277,"lon":5.377108,"is_reserved":false,"is_disabled":false,"rental_uris":{"android":"levelo://app?vid=692868a9-41aa-4efa-84b5-d619e4bd3654","ios":"levelo://app?vid=692868a9-41aa-4efa-84b5-d619e4bd3654"},"vehicle_type_id":"4","last_reported":1685124491,"current_range_meters":0,"station_id":"ce4bgi92rcd13ifvqb90","pricing_plan_id":"free"},{"bike_id":"ae1772ad-4747-4416-a17a-33d8d7e670c8","system_id":"levelo_inurba_marseille","lat":43.296263,"lon":5.377094,"is_reserved":false,"is_disabled":false,"rental_uris":{"android":"levelo://app?vid=ae1772ad-4747-4416-a17a-33d8d7e670c8","ios":"levelo://app?vid=ae1772ad-4747-4416-a17a-33d8d7e670c8"},"vehicle_type_id":"4","last_reported":1685124491,"current_range_meters":12800,"station_id":"ce4bgi92rcd13ifvqb90","pricing_plan_id":"free"},{"bike_id":"5ed4e2c4-0dfd-4e3e-899f-8225e26c7da3","system_id":"levelo_inurba_marseille","lat":43.296263,"lon":5.377094,"is_reserved":false,"is_disabled":false,"rental_uris":{"android":"levelo://app?vid=5ed4e2c4-0dfd-4e3e-899f-8225e26c7da3","ios":"levelo://app?vid=5ed4e2c4-0dfd-4e3e-899f-8225e26c7da3"},"vehicle_type_id":"4","last_reported":1685124491,"current_range_meters":0,"station_id":"ce4bgi92rcd13ifvqb90","pricing_plan_id":"free"},{"bike_id":"1b6594d2-bffd-4fc6-923f-01120c2ca74e","system_id":"levelo_inurba_marseille","lat":43.296263,"lon":5.377094,"is_reserved":false,"is_disabled":false,"rental_uris":{"android":"levelo://app?vid=1b6594d2-bffd-4fc6-923f-01120c2ca74e","ios":"levelo://app?vid=1b6594d2-bffd-4fc6-923f-01120c2ca74e"},"vehicle_type_id":"4","last_reported":1685124491,"current_range_meters":8800,"station_id":"ce4bgi92rcd13ifvqb90","pricing_plan_id":"free"},{"bike_id":"3e659844-a02f-4418-97a3-1dceb224ad64","system_id":"levelo_inurba_marseille","lat":43.29556,"lon":5.37542,"is_reserved":false,"is_disabled":false,"rental_uris":{"android":"levelo://app?vid=3e659844-a02f-4418-97a3-1dceb224ad64","ios":"levelo://app?vid=3e659844-a02f-4418-97a3-1dceb224ad64"},"vehicle_type_id":"4","last_reported":1685124491,"current_range_meters":14400,"station_id":"","pricing_plan_id":"free"},{"bike_id":"2c4af49e-05b3-4bc4-b948-c61bdd455eec","system_id":"levelo_inurba_marseille","lat":43.296263,"lon":5.377094,"is_reserved":false,"is_disabled":false,"rental_uris":{"android":"levelo://app?vid=2c4af49e-05b3-4bc4-b948-c61bdd455eec","ios":"levelo://app?vid=2c4af49e-05b3-4bc4-b948-c61bdd455eec"},"vehicle_type_id":"4","last_reported":1685124491,"current_range_meters":20000,"station_id":"ce4bgi92rcd13ifvqb90","pricing_plan_id":"free"},{"bike_id":"48865b4e-3ce0-432b-8924-559fa3bbd108","system_id":"levelo_inurba_marseille","lat":43.29548,"lon":5.3754,"is_reserved":false,"is_disabled":false,"rental_uris":{"android":"levelo://app?vid=48865b4e-3ce0-432b-8924-559fa3bbd108","ios":"levelo://app?vid=48865b4e-3ce0-432b-8924-559fa3bbd108"},"vehicle_type_id":"4","last_reported":1685124491,"current_range_meters":15200,"station_id":"","pricing_plan_id":"free"},{"bike_id":"ea6cc5af-cf0f-4e9f-8a09-dde270712a3d","system_id":"levelo_inurba_marseille","lat":43.299707,"lon":5.384859,"is_reserved":false,"is_disabled":false,"rental_uris":{"android":"levelo://app?vid=ea6cc5af-cf0f-4e9f-8a09-dde270712a3d","ios":"levelo://app?vid=ea6cc5af-cf0f-4e9f-8a09-dde270712a3d"},"vehicle_type_id":"4","last_reported":1685124491,"current_range_meters":0,"station_id":"ce4bgj92rcd13ifvqbd0","pricing_plan_id":"free"},{"bike_id":"8da47962-dbf9-4e1a-ae64-c64d5dc534d5","system_id":"levelo_inurba_marseille","lat":43.295279,"lon":5.375048,"is_reserved":false,"is_disabled":false,"rental_uris":{"android":"levelo://app?vid=8da47962-dbf9-4e1a-ae64-c64d5dc534d5","ios":"levelo://app?vid=8da47962-dbf9-4e1a-ae64-c64d5dc534d5"},"vehicle_type_id":"4","last_reported":1685124491,"current_range_meters":0,"station_id":"ce4bgkp2rcd13ifvqbmg","pricing_plan_id":"free"},{"bike_id":"567d3ea1-d8f1-424e-a4b6-96f05286ec18","system_id":"levelo_inurba_marseille","lat":43.299724,"lon":5.384848,"is_reserved":false,"is_disabled":false,"rental_uris":{"android":"levelo://app?vid=567d3ea1-d8f1-424e-a4b6-96f05286ec18","ios":"levelo://app?vid=567d3ea1-d8f1-424e-a4b6-96f05286ec18"},"vehicle_type_id":"4","last_reported":1685124491,"current_range_meters":8000,"station_id":"ce4bgj92rcd13ifvqbd0","pricing_plan_id":"free"},{"bike_id":"594774d8-21e4-4010-bdf9-f3db05da4b9d","system_id":"levelo_inurba_marseille","lat":43.299724,"lon":5.384848,"is_reserved":false,"is_disabled":false,"rental_uris":{"android":"levelo://app?vid=594774d8-21e4-4010-bdf9-f3db05da4b9d","ios":"levelo://app?vid=594774d8-21e4-4010-bdf9-f3db05da4b9d"},"vehicle_type_id":"4","last_reported":1685124491,"current_range_meters":400,"station_id":"ce4bgj92rcd13ifvqbd0","pricing_plan_id":"free"},{"bike_id":"8260aa1f-84bb-429e-9302-aa366d16e831","system_id":"levelo_inurba_marseille","lat":43.299724,"lon":5.384848,"is_reserved":false,"is_disabled":false,"rental_uris":{"android":"levelo://app?vid=8260aa1f-84bb-429e-9302-aa366d16e831","ios":"levelo://app?vid=8260aa1f-84bb-429e-9302-aa366d16e831"},"vehicle_type_id":"4","last_reported":1685124491,"current_range_meters":0,"station_id":"ce4bgj92rcd13ifvqbd0","pricing_plan_id":"free"},{"bike_id":"f7ec2fbc-0c2b-429a-a0b8-a684cd0d58e2","system_id":"levelo_inurba_marseille","lat":43.295279,"lon":5.375048,"is_reserved":false,"is_disabled":false,"rental_uris":{"android":"levelo://app?vid=f7ec2fbc-0c2b-429a-a0b8-a684cd0d58e2","ios":"levelo://app?vid=f7ec2fbc-0c2b-429a-a0b8-a684cd0d58e2"},"vehicle_type_id":"4","last_reported":1685124491,"current_range_meters":4800,"station_id":"ce4bgkp2rcd13ifvqbmg","pricing_plan_id":"free"},{"bike_id":"3f51890a-8bd4-491a-bd54-bfd5a431d561","system_id":"levelo_inurba_marseille","lat":43.295279,"lon":5.375048,"is_reserved":false,"is_disabled":false,"rental_uris":{"android":"levelo://app?vid=3f51890a-8bd4-491a-bd54-bfd5a431d561","ios":"levelo://app?vid=3f51890a-8bd4-491a-bd54-bfd5a431d561"},"vehicle_type_id":"4","last_reported":1685124491,"current_range_meters":0,"station_id":"ce4bgkp2rcd13ifvqbmg","pricing_plan_id":"free"},{"bike_id":"ef3e1589-bc44-48f9-91ed-d97cff38af60","system_id":"levelo_inurba_marseille","lat":43.29601,"lon":5.381084,"is_reserved":false,"is_disabled":false,"rental_uris":{"android":"levelo://app?vid=ef3e1589-bc44-48f9-91ed-d97cff38af60","ios":"levelo://app?vid=ef3e1589-bc44-48f9-91ed-d97cff38af60"},"vehicle_type_id":"4","last_reported":1685124491,"current_range_meters":800,"station_id":"ce4bgl12rcd13ifvqbo0","pricing_plan_id":"free"},{"bike_id":"72105275-28c9-4e39-a053-b82658c47315","system_id":"levelo_inurba_marseille","lat":43.293249,"lon":5.371578,"is_reserved":false,"is_disabled":false,"rental_uris":{"android":"levelo://app?vid=72105275-28c9-4e39-a053-b82658c47315","ios":"levelo://app?vid=72105275-28c9-4e39-a053-b82658c47315"},"vehicle_type_id":"4","last_reported":1685124491,"current_range_meters":20800,"station_id":"ce4bgh92rcd13ifvqb40","pricing_plan_id":"free"},{"bike_id":"58bd2fc0-45d0-4a05-b980-c34343d0702f","system_id":"levelo_inurba_marseille","lat":43.292749,"lon":5.368398,"is_reserved":false,"is_disabled":false,"rental_uris":{"android":"levelo://app?vid=58bd2fc0-45d0-4a05-b980-c34343d0702f","ios":"levelo://app?vid=58bd2fc0-45d0-4a05-b980-c34343d0702f"},"vehicle_type_id":"4","last_reported":1685124491,"current_range_meters":4800,"station_id":"ce4bhbp2rcd13ifvqesg","pricing_plan_id":"free"},{"bike_id":"65e02f12-6fcc-4115-a43f-bf3957bb02b7","system_id":"levelo_inurba_marseille","lat":43.29277,"lon":5.36845,"is_reserved":false,"is_disabled":false,"rental_uris":{"android":"levelo://app?vid=65e02f12-6fcc-4115-a43f-bf3957bb02b7","ios":"levelo://app?vid=65e02f12-6fcc-4115-a43f-bf3957bb02b7"},"vehicle_type_id":"4","last_reported":1685124491,"current_range_meters":24000,"station_id":"ce4bhbp2rcd13ifvqesg","pricing_plan_id":"free"},{"bike_id":"9423541b-9a6c-4cf5-8172-18287309d83f","system_id":"levelo_inurba_marseille","lat":43.292749,"lon":5.368398,"is_reserved":false,"is_disabled":false,"rental_uris":{"android":"levelo://app?vid=9423541b-9a6c-4cf5-8172-18287309d83f","ios":"levelo://app?vid=9423541b-9a6c-4cf5-8172-18287309d83f"},"vehicle_type_id":"4","last_reported":1685124491,"current_range_meters":0,"station_id":"ce4bhbp2rcd13ifvqesg","pricing_plan_id":"free"},{"bike_id":"8cf26fc2-c535-4974-8420-70ca58cd282a","system_id":"levelo_inurba_marseille","lat":43.29299,"lon":5.37461,"is_reserved":false,"is_disabled":false,"rental_uris":{"android":"levelo://app?vid=8cf26fc2-c535-4974-8420-70ca58cd282a","ios":"levelo://app?vid=8cf26fc2-c535-4974-8420-70ca58cd282a"},"vehicle_type_id":"4","last_reported":1685124491,"current_range_meters":12400,"station_id":"ce4bgi12rcd13ifvqb70","pricing_plan_id":"free"},{"bike_id":"fc1bfe9c-5969-4c91-8a54-cfa996a029a1","system_id":"levelo_inurba_marseille","lat":43.2936,"lon":5.37835,"is_reserved":false,"is_disabled":false,"rental_uris":{"android":"levelo://app?vid=fc1bfe9c-5969-4c91-8a54-cfa996a029a1","ios":"levelo://app?vid=fc1bfe9c-5969-4c91-8a54-cfa996a029a1"},"vehicle_type_id":"4","last_reported":1685124491,"current_range_meters":20400,"station_id":"ce4bgjh2rcd13ifvqbf0","pricing_plan_id":"free"},{"bike_id":"f484a65c-ca1f-4e0e-b9df-c7c4c9d4f09c","system_id":"levelo_inurba_marseille","lat":43.302992,"lon":5.392136,"is_reserved":false,"is_disabled":false,"rental_uris":{"android":"levelo://app?vid=f484a65c-ca1f-4e0e-b9df-c7c4c9d4f09c","ios":"levelo://app?vid=f484a65c-ca1f-4e0e-b9df-c7c4c9d4f09c"},"vehicle_type_id":"4","last_reported":1685124491,"current_range_meters":0,"station_id":"ce4bgkh2rcd13ifvqbk0","pricing_plan_id":"free"},{"bike_id":"a97a4598-4ac2-4b26-9ad9-d788897a4fa6","system_id":"levelo_inurba_marseille","lat":43.29219,"lon":5.3605,"is_reserved":false,"is_disabled":false,"rental_uris":{"android":"levelo://app?vid=a97a4598-4ac2-4b26-9ad9-d788897a4fa6","ios":"levelo://app?vid=a97a4598-4ac2-4b26-9ad9-d788897a4fa6"},"vehicle_type_id":"4","last_reported":1685124491,"current_range_meters":8800,"station_id":"ce4bhbh2rcd13ifvqeqg","pricing_plan_id":"free"},{"bike_id":"683e42df-a194-448a-91e1-f1c462394a1a","system_id":"levelo_inurba_marseille","lat":43.292663,"lon":5.376389,"is_reserved":false,"is_disabled":false,"rental_uris":{"android":"levelo://app?vid=683e42df-a194-448a-91e1-f1c462394a1a","ios":"levelo://app?vid=683e42df-a194-448a-91e1-f1c462394a1a"},"vehicle_type_id":"4","last_reported":1685124491,"current_range_meters":13600,"station_id":"ce4bgi12rcd13ifvqb80","pricing_plan_id":"free"},{"bike_id":"f328e875-0438-4780-9940-efb11b5cb675","system_id":"levelo_inurba_marseille","lat":43.29881,"lon":5.38906,"is_reserved":false,"is_disabled":false,"rental_uris":{"android":"levelo://app?vid=f328e875-0438-4780-9940-efb11b5cb675","ios":"levelo://app?vid=f328e875-0438-4780-9940-efb11b5cb675"},"vehicle_type_id":"4","last_reported":1685124491,"current_range_meters":2000,"station_id":"ce4bh392rcd13ifvqdl0","pricing_plan_id":"free"},{"bike_id":"c1b2a584-2214-4f72-afdd-254e0bf4b868","system_id":"levelo_inurba_marseille","lat":43.292663,"lon":5.376394,"is_reserved":false,"is_disabled":false,"rental_uris":{"android":"levelo://app?vid=c1b2a584-2214-4f72-afdd-254e0bf4b868","ios":"levelo://app?vid=c1b2a584-2214-4f72-afdd-254e0bf4b868"},"vehicle_type_id":"4","last_reported":1685124491,"current_range_meters":0,"station_id":"ce4bgi12rcd13ifvqb80","pricing_plan_id":"free"},{"bike_id":"8f976f22-c53c-40cc-8c3b-c1afdaa667a6","system_id":"levelo_inurba_marseille","lat":43.291675,"lon":5.371583,"is_reserved":false,"is_disabled":false,"rental_uris":{"android":"levelo://app?vid=8f976f22-c53c-40cc-8c3b-c1afdaa667a6","ios":"levelo://app?vid=8f976f22-c53c-40cc-8c3b-c1afdaa667a6"},"vehicle_type_id":"4","last_reported":1685124491,"current_range_meters":19600,"station_id":"ce4bha92rcd13ifvqeh0","pricing_plan_id":"free"},{"bike_id":"15eb4a07-2d34-470b-a532-558dec1aab7d","system_id":"levelo_inurba_marseille","lat":43.313287,"lon":5.396884,"is_reserved":false,"is_disabled":false,"rental_uris":{"android":"levelo://app?vid=15eb4a07-2d34-470b-a532-558dec1aab7d","ios":"levelo://app?vid=15eb4a07-2d34-470b-a532-558dec1aab7d"},"vehicle_type_id":"4","last_reported":1685124491,"current_range_meters":0,"station_id":"","pricing_plan_id":"free"},{"bike_id":"9a9dbef6-5e1b-4546-9ed9-ce84452f7581","system_id":"levelo_inurba_marseille","lat":43.313291,"lon":5.396838,"is_reserved":false,"is_disabled":false,"rental_uris":{"android":"levelo://app?vid=9a9dbef6-5e1b-4546-9ed9-ce84452f7581","ios":"levelo://app?vid=9a9dbef6-5e1b-4546-9ed9-ce84452f7581"},"vehicle_type_id":"4","last_reported":1685124491,"current_range_meters":20800,"station_id":"ce4bgvp2rcd13ifvqcu0","pricing_plan_id":"free"},{"bike_id":"a1ebe611-4991-4f00-be4e-670747694d10","system_id":"levelo_inurba_marseille","lat":43.31327,"lon":5.3969,"is_reserved":false,"is_disabled":false,"rental_uris":{"android":"levelo://app?vid=a1ebe611-4991-4f00-be4e-670747694d10","ios":"levelo://app?vid=a1ebe611-4991-4f00-be4e-670747694d10"},"vehicle_type_id":"4","last_reported":1685124491,"current_range_meters":0,"station_id":"ce4bgvp2rcd13ifvqcu0","pricing_plan_id":"free"},{"bike_id":"0f3ea2c9-6498-45b9-b385-a99f16b5ea04","system_id":"levelo_inurba_marseille","lat":43.313291,"lon":5.396838,"is_reserved":false,"is_disabled":false,"rental_uris":{"android":"levelo://app?vid=0f3ea2c9-6498-45b9-b385-a99f16b5ea04","ios":"levelo://app?vid=0f3ea2c9-6498-45b9-b385-a99f16b5ea04"},"vehicle_type_id":"4","last_reported":1685124491,"current_range_meters":5600,"station_id":"ce4bgvp2rcd13ifvqcu0","pricing_plan_id":"free"},{"bike_id":"35f9ea2b-f674-4702-af08-d4d06c81c4be","system_id":"levelo_inurba_marseille","lat":43.29529,"lon":5.385581,"is_reserved":false,"is_disabled":false,"rental_uris":{"android":"levelo://app?vid=35f9ea2b-f674-4702-af08-d4d06c81c4be","ios":"levelo://app?vid=35f9ea2b-f674-4702-af08-d4d06c81c4be"},"vehicle_type_id":"4","last_reported":1685124491,"current_range_meters":19200,"station_id":"ce4bgih2rcd13ifvqba0","pricing_plan_id":"free"},{"bike_id":"57e5d60a-c4aa-4445-bb87-c9df2d1ba765","system_id":"levelo_inurba_marseille","lat":43.289184,"lon":5.366408,"is_reserved":false,"is_disabled":false,"rental_uris":{"android":"levelo://app?vid=57e5d60a-c4aa-4445-bb87-c9df2d1ba765","ios":"levelo://app?vid=57e5d60a-c4aa-4445-bb87-c9df2d1ba765"},"vehicle_type_id":"4","last_reported":1685124491,"current_range_meters":22400,"station_id":"ce4bhap2rcd13ifvqek0","pricing_plan_id":"free"},{"bike_id":"a7f653d4-f400-4d0d-8d81-a156bd4b970a","system_id":"levelo_inurba_marseille","lat":43.29421,"lon":5.38621,"is_reserved":false,"is_disabled":false,"rental_uris":{"android":"levelo://app?vid=a7f653d4-f400-4d0d-8d81-a156bd4b970a","ios":"levelo://app?vid=a7f653d4-f400-4d0d-8d81-a156bd4b970a"},"vehicle_type_id":"4","last_reported":1685124491,"current_range_meters":19200,"station_id":"ce4bh2h2rcd13ifvqdh0","pricing_plan_id":"free"},{"bike_id":"59aba9be-f34e-424a-99df-eaa22e50036a","system_id":"levelo_inurba_marseille","lat":43.294162,"lon":5.386292,"is_reserved":false,"is_disabled":false,"rental_uris":{"android":"levelo://app?vid=59aba9be-f34e-424a-99df-eaa22e50036a","ios":"levelo://app?vid=59aba9be-f34e-424a-99df-eaa22e50036a"},"vehicle_type_id":"4","last_reported":1685124491,"current_range_meters":10400,"station_id":"ce4bh2h2rcd13ifvqdh0","pricing_plan_id":"free"},{"bike_id":"f9817ff7-2b63-4572-85ee-3574f6a7e544","system_id":"levelo_inurba_marseille","lat":43.294162,"lon":5.386292,"is_reserved":false,"is_disabled":false,"rental_uris":{"android":"levelo://app?vid=f9817ff7-2b63-4572-85ee-3574f6a7e544","ios":"levelo://app?vid=f9817ff7-2b63-4572-85ee-3574f6a7e544"},"vehicle_type_id":"4","last_reported":1685124491,"current_range_meters":18000,"station_id":"ce4bh2h2rcd13ifvqdh0","pricing_plan_id":"free"},{"bike_id":"b96bb43d-49b8-4ce1-891c-eb7ec650f5b1","system_id":"levelo_inurba_marseille","lat":43.29418,"lon":5.38627,"is_reserved":false,"is_disabled":false,"rental_uris":{"android":"levelo://app?vid=b96bb43d-49b8-4ce1-891c-eb7ec650f5b1","ios":"levelo://app?vid=b96bb43d-49b8-4ce1-891c-eb7ec650f5b1"},"vehicle_type_id":"4","last_reported":1685124491,"current_range_meters":20400,"station_id":"ce4bh2h2rcd13ifvqdh0","pricing_plan_id":"free"},{"bike_id":"cb6a1093-5169-41ea-a889-d6153b009fcc","system_id":"levelo_inurba_marseille","lat":43.294162,"lon":5.386292,"is_reserved":false,"is_disabled":false,"rental_uris":{"android":"levelo://app?vid=cb6a1093-5169-41ea-a889-d6153b009fcc","ios":"levelo://app?vid=cb6a1093-5169-41ea-a889-d6153b009fcc"},"vehicle_type_id":"4","last_reported":1685124491,"current_range_meters":0,"station_id":"ce4bh2h2rcd13ifvqdh0","pricing_plan_id":"free"},{"bike_id":"5e20d7c1-b20a-4cdd-a8ca-e8dce0928cdb","system_id":"levelo_inurba_marseille","lat":43.294188,"lon":5.38633,"is_reserved":false,"is_disabled":false,"rental_uris":{"android":"levelo://app?vid=5e20d7c1-b20a-4cdd-a8ca-e8dce0928cdb","ios":"levelo://app?vid=5e20d7c1-b20a-4cdd-a8ca-e8dce0928cdb"},"vehicle_type_id":"4","last_reported":1685124491,"current_range_meters":12800,"station_id":"ce4bh2h2rcd13ifvqdh0","pricing_plan_id":"free"},{"bike_id":"5488e84c-a5bd-4b6f-b25e-22d8648533b5","system_id":"levelo_inurba_marseille","lat":43.289184,"lon":5.366408,"is_reserved":false,"is_disabled":false,"rental_uris":{"android":"levelo://app?vid=5488e84c-a5bd-4b6f-b25e-22d8648533b5","ios":"levelo://app?vid=5488e84c-a5bd-4b6f-b25e-22d8648533b5"},"vehicle_type_id":"4","last_reported":1685124491,"current_range_meters":2800,"station_id":"ce4bhap2rcd13ifvqek0","pricing_plan_id":"free"},{"bike_id":"04a832cc-5560-4d57-9379-459c5f6f8a6a","system_id":"levelo_inurba_marseille","lat":43.289184,"lon":5.366408,"is_reserved":false,"is_disabled":false,"rental_uris":{"android":"levelo://app?vid=04a832cc-5560-4d57-9379-459c5f6f8a6a","ios":"levelo://app?vid=04a832cc-5560-4d57-9379-459c5f6f8a6a"},"vehicle_type_id":"4","last_reported":1685124491,"current_range_meters":1600,"station_id":"ce4bhap2rcd13ifvqek0","pricing_plan_id":"free"},{"bike_id":"8fc497cd-fe36-4636-a004-e82659b03552","system_id":"levelo_inurba_marseille","lat":43.294162,"lon":5.386292,"is_reserved":false,"is_disabled":false,"rental_uris":{"android":"levelo://app?vid=8fc497cd-fe36-4636-a004-e82659b03552","ios":"levelo://app?vid=8fc497cd-fe36-4636-a004-e82659b03552"},"vehicle_type_id":"4","last_reported":1685124491,"current_range_meters":20400,"station_id":"ce4bh2h2rcd13ifvqdh0","pricing_plan_id":"free"},{"bike_id":"b5c27fbc-32b0-4e46-b82f-e3adf3351700","system_id":"levelo_inurba_marseille","lat":43.289468,"lon":5.363719,"is_reserved":false,"is_disabled":false,"rental_uris":{"android":"levelo://app?vid=b5c27fbc-32b0-4e46-b82f-e3adf3351700","ios":"levelo://app?vid=b5c27fbc-32b0-4e46-b82f-e3adf3351700"},"vehicle_type_id":"4","last_reported":1685124491,"current_range_meters":1200,"station_id":"ce4bhc92rcd13ifvqetg","pricing_plan_id":"free"},{"bike_id":"086612bd-01c1-4904-ac76-f3b43440873c","system_id":"levelo_inurba_marseille","lat":43.289468,"lon":5.363719,"is_reserved":false,"is_disabled":false,"rental_uris":{"android":"levelo://app?vid=086612bd-01c1-4904-ac76-f3b43440873c","ios":"levelo://app?vid=086612bd-01c1-4904-ac76-f3b43440873c"},"vehicle_type_id":"4","last_reported":1685124491,"current_range_meters":30000,"station_id":"ce4bhc92rcd13ifvqetg","pricing_plan_id":"free"},{"bike_id":"5ea7b0c9-7207-417e-acbc-0673702e1aab","system_id":"levelo_inurba_marseille","lat":43.29269,"lon":5.38438,"is_reserved":false,"is_disabled":false,"rental_uris":{"android":"levelo://app?vid=5ea7b0c9-7207-417e-acbc-0673702e1aab","ios":"levelo://app?vid=5ea7b0c9-7207-417e-acbc-0673702e1aab"},"vehicle_type_id":"4","last_reported":1685124491,"current_range_meters":26800,"station_id":"ce4bh692rcd13ifvqea0","pricing_plan_id":"free"},{"bike_id":"836066ba-c14d-4c73-93f7-3d8cc56e2f04","system_id":"levelo_inurba_marseille","lat":43.2926,"lon":5.38431,"is_reserved":false,"is_disabled":false,"rental_uris":{"android":"levelo://app?vid=836066ba-c14d-4c73-93f7-3d8cc56e2f04","ios":"levelo://app?vid=836066ba-c14d-4c73-93f7-3d8cc56e2f04"},"vehicle_type_id":"4","last_reported":1685124491,"current_range_meters":2000,"station_id":"ce4bh692rcd13ifvqea0","pricing_plan_id":"free"},{"bike_id":"2ba9d787-117b-4a00-8b6d-1cc03107b12e","system_id":"levelo_inurba_marseille","lat":43.29264,"lon":5.38444,"is_reserved":false,"is_disabled":false,"rental_uris":{"android":"levelo://app?vid=2ba9d787-117b-4a00-8b6d-1cc03107b12e","ios":"levelo://app?vid=2ba9d787-117b-4a00-8b6d-1cc03107b12e"},"vehicle_type_id":"4","last_reported":1685124491,"current_range_meters":8400,"station_id":"ce4bh692rcd13ifvqea0","pricing_plan_id":"free"},{"bike_id":"8277a6a1-d29b-4db3-ab21-4af69e8078e5","system_id":"levelo_inurba_marseille","lat":43.290104,"lon":5.356111,"is_reserved":false,"is_disabled":false,"rental_uris":{"android":"levelo://app?vid=8277a6a1-d29b-4db3-ab21-4af69e8078e5","ios":"levelo://app?vid=8277a6a1-d29b-4db3-ab21-4af69e8078e5"},"vehicle_type_id":"4","last_reported":1685124491,"current_range_meters":22800,"station_id":"ce4bhb92rcd13ifvqen0","pricing_plan_id":"free"},{"bike_id":"d564c1b8-bcf3-424d-a706-373bd3b6f677","system_id":"levelo_inurba_marseille","lat":43.33048,"lon":5.38911,"is_reserved":false,"is_disabled":false,"rental_uris":{"android":"levelo://app?vid=d564c1b8-bcf3-424d-a706-373bd3b6f677","ios":"levelo://app?vid=d564c1b8-bcf3-424d-a706-373bd3b6f677"},"vehicle_type_id":"4","last_reported":1685124491,"current_range_meters":11200,"station_id":"ce4bhr92rcd13ifvqhrg","pricing_plan_id":"free"},{"bike_id":"b3e9d1f3-3c3d-4fef-9391-372e0ae18482","system_id":"levelo_inurba_marseille","lat":43.29026,"lon":5.38136,"is_reserved":false,"is_disabled":false,"rental_uris":{"android":"levelo://app?vid=b3e9d1f3-3c3d-4fef-9391-372e0ae18482","ios":"levelo://app?vid=b3e9d1f3-3c3d-4fef-9391-372e0ae18482"},"vehicle_type_id":"4","last_reported":1685124491,"current_range_meters":0,"station_id":"ce4bh4p2rcd13ifvqe1g","pricing_plan_id":"free"},{"bike_id":"24ec94ef-1fc1-41b4-8b33-0d6c86de6300","system_id":"levelo_inurba_marseille","lat":43.288,"lon":5.37331,"is_reserved":false,"is_disabled":false,"rental_uris":{"android":"levelo://app?vid=24ec94ef-1fc1-41b4-8b33-0d6c86de6300","ios":"levelo://app?vid=24ec94ef-1fc1-41b4-8b33-0d6c86de6300"},"vehicle_type_id":"4","last_reported":1685124491,"current_range_meters":16400,"station_id":"","pricing_plan_id":"free"},{"bike_id":"141c14ea-594b-43ee-894e-8c44af1dcd73","system_id":"levelo_inurba_marseille","lat":43.33742,"lon":5.37451,"is_reserved":false,"is_disabled":false,"rental_uris":{"android":"levelo://app?vid=141c14ea-594b-43ee-894e-8c44af1dcd73","ios":"levelo://app?vid=141c14ea-594b-43ee-894e-8c44af1dcd73"},"vehicle_type_id":"4","last_reported":1685124491,"current_range_meters":14800,"station_id":"","pricing_plan_id":"free"},{"bike_id":"02362672-78e1-4667-9a77-d71f91f94365","system_id":"levelo_inurba_marseille","lat":43.3375,"lon":5.37441,"is_reserved":false,"is_disabled":false,"rental_uris":{"android":"levelo://app?vid=02362672-78e1-4667-9a77-d71f91f94365","ios":"levelo://app?vid=02362672-78e1-4667-9a77-d71f91f94365"},"vehicle_type_id":"4","last_reported":1685124491,"current_range_meters":19200,"station_id":"","pricing_plan_id":"free"},{"bike_id":"556c6db1-2600-4c2b-9521-aae8453517c1","system_id":"levelo_inurba_marseille","lat":43.33753,"lon":5.37441,"is_reserved":false,"is_disabled":false,"rental_uris":{"android":"levelo://app?vid=556c6db1-2600-4c2b-9521-aae8453517c1","ios":"levelo://app?vid=556c6db1-2600-4c2b-9521-aae8453517c1"},"vehicle_type_id":"4","last_reported":1685124491,"current_range_meters":20800,"station_id":"","pricing_plan_id":"free"},{"bike_id":"1490fad1-fe90-4399-a2f2-79545cf03a2b","system_id":"levelo_inurba_marseille","lat":43.337578,"lon":5.374791,"is_reserved":false,"is_disabled":false,"rental_uris":{"android":"levelo://app?vid=1490fad1-fe90-4399-a2f2-79545cf03a2b","ios":"levelo://app?vid=1490fad1-fe90-4399-a2f2-79545cf03a2b"},"vehicle_type_id":"4","last_reported":1685124491,"current_range_meters":30400,"station_id":"","pricing_plan_id":"free"},{"bike_id":"0f915385-1fd5-4f54-896c-f56a11a31d3d","system_id":"levelo_inurba_marseille","lat":43.33765,"lon":5.37436,"is_reserved":false,"is_disabled":false,"rental_uris":{"android":"levelo://app?vid=0f915385-1fd5-4f54-896c-f56a11a31d3d","ios":"levelo://app?vid=0f915385-1fd5-4f54-896c-f56a11a31d3d"},"vehicle_type_id":"4","last_reported":1685124491,"current_range_meters":22400,"station_id":"","pricing_plan_id":"free"},{"bike_id":"b57985b9-2627-4689-b49b-c795d16b5bec","system_id":"levelo_inurba_marseille","lat":43.30642,"lon":5.401031,"is_reserved":false,"is_disabled":false,"rental_uris":{"android":"levelo://app?vid=b57985b9-2627-4689-b49b-c795d16b5bec","ios":"levelo://app?vid=b57985b9-2627-4689-b49b-c795d16b5bec"},"vehicle_type_id":"4","last_reported":1685124491,"current_range_meters":0,"station_id":"ce4bh112rcd13ifvqda0","pricing_plan_id":"free"},{"bike_id":"79151fef-ab21-446b-a9aa-4c37e5aa9b4c","system_id":"levelo_inurba_marseille","lat":43.30642,"lon":5.401031,"is_reserved":false,"is_disabled":false,"rental_uris":{"android":"levelo://app?vid=79151fef-ab21-446b-a9aa-4c37e5aa9b4c","ios":"levelo://app?vid=79151fef-ab21-446b-a9aa-4c37e5aa9b4c"},"vehicle_type_id":"4","last_reported":1685124491,"current_range_meters":6000,"station_id":"ce4bh112rcd13ifvqda0","pricing_plan_id":"free"},{"bike_id":"5bd96745-9a19-4fe7-b597-4db9cabdc957","system_id":"levelo_inurba_marseille","lat":43.33775,"lon":5.37436,"is_reserved":false,"is_disabled":false,"rental_uris":{"android":"levelo://app?vid=5bd96745-9a19-4fe7-b597-4db9cabdc957","ios":"levelo://app?vid=5bd96745-9a19-4fe7-b597-4db9cabdc957"},"vehicle_type_id":"4","last_reported":1685124491,"current_range_meters":28800,"station_id":"","pricing_plan_id":"free"},{"bike_id":"eb8ac404-8a95-4fc7-819a-ea19315069af","system_id":"levelo_inurba_marseille","lat":43.3378,"lon":5.37425,"is_reserved":false,"is_disabled":false,"rental_uris":{"android":"levelo://app?vid=eb8ac404-8a95-4fc7-819a-ea19315069af","ios":"levelo://app?vid=eb8ac404-8a95-4fc7-819a-ea19315069af"},"vehicle_type_id":"4","last_reported":1685124491,"current_range_meters":27200,"station_id":"","pricing_plan_id":"free"},{"bike_id":"71167981-4e2e-4c9a-880a-75f496eb2fda","system_id":"levelo_inurba_marseille","lat":43.301117,"lon":5.398795,"is_reserved":false,"is_disabled":false,"rental_uris":{"android":"levelo://app?vid=71167981-4e2e-4c9a-880a-75f496eb2fda","ios":"levelo://app?vid=71167981-4e2e-4c9a-880a-75f496eb2fda"},"vehicle_type_id":"4","last_reported":1685124491,"current_range_meters":0,"station_id":"ce4bh0h2rcd13ifvqd40","pricing_plan_id":"free"},{"bike_id":"9ed13ef7-7e1a-420a-be13-1251e67acdec","system_id":"levelo_inurba_marseille","lat":43.298681,"lon":5.397225,"is_reserved":false,"is_disabled":false,"rental_uris":{"android":"levelo://app?vid=9ed13ef7-7e1a-420a-be13-1251e67acdec","ios":"levelo://app?vid=9ed13ef7-7e1a-420a-be13-1251e67acdec"},"vehicle_type_id":"4","last_reported":1685124491,"current_range_meters":16400,"station_id":"ce4bh0h2rcd13ifvqd50","pricing_plan_id":"free"},{"bike_id":"db4283fb-b320-4f1b-afa2-933c0a7f6f99","system_id":"levelo_inurba_marseille","lat":43.286593,"lon":5.363346,"is_reserved":false,"is_disabled":false,"rental_uris":{"android":"levelo://app?vid=db4283fb-b320-4f1b-afa2-933c0a7f6f99","ios":"levelo://app?vid=db4283fb-b320-4f1b-afa2-933c0a7f6f99"},"vehicle_type_id":"4","last_reported":1685124491,"current_range_meters":28800,"station_id":"ce4bhah2rcd13ifvqej0","pricing_plan_id":"free"},{"bike_id":"b404abdf-e2bb-48f7-8d2b-9ba35283c1cb","system_id":"levelo_inurba_marseille","lat":43.298681,"lon":5.397225,"is_reserved":false,"is_disabled":false,"rental_uris":{"android":"levelo://app?vid=b404abdf-e2bb-48f7-8d2b-9ba35283c1cb","ios":"levelo://app?vid=b404abdf-e2bb-48f7-8d2b-9ba35283c1cb"},"vehicle_type_id":"4","last_reported":1685124491,"current_range_meters":15200,"station_id":"ce4bh0h2rcd13ifvqd50","pricing_plan_id":"free"},{"bike_id":"a0cbd807-90a6-4710-8265-a99185cb5344","system_id":"levelo_inurba_marseille","lat":43.28658,"lon":5.36343,"is_reserved":false,"is_disabled":false,"rental_uris":{"android":"levelo://app?vid=a0cbd807-90a6-4710-8265-a99185cb5344","ios":"levelo://app?vid=a0cbd807-90a6-4710-8265-a99185cb5344"},"vehicle_type_id":"4","last_reported":1685124491,"current_range_meters":1600,"station_id":"ce4bhah2rcd13ifvqej0","pricing_plan_id":"free"},{"bike_id":"a1f07efa-28b5-4560-ba2c-374a4fc03cdd","system_id":"levelo_inurba_marseille","lat":43.295196,"lon":5.39397,"is_reserved":false,"is_disabled":false,"rental_uris":{"android":"levelo://app?vid=a1f07efa-28b5-4560-ba2c-374a4fc03cdd","ios":"levelo://app?vid=a1f07efa-28b5-4560-ba2c-374a4fc03cdd"},"vehicle_type_id":"4","last_reported":1685124491,"current_range_meters":20000,"station_id":"ce4bh292rcd13ifvqdf0","pricing_plan_id":"free"},{"bike_id":"c90037cd-a76f-4d3e-8909-e4e10cbd2318","system_id":"levelo_inurba_marseille","lat":43.30242,"lon":5.40044,"is_reserved":false,"is_disabled":false,"rental_uris":{"android":"levelo://app?vid=c90037cd-a76f-4d3e-8909-e4e10cbd2318","ios":"levelo://app?vid=c90037cd-a76f-4d3e-8909-e4e10cbd2318"},"vehicle_type_id":"4","last_reported":1685124491,"current_range_meters":6800,"station_id":"","pricing_plan_id":"free"},{"bike_id":"9acfc62b-aca0-47da-9dab-bc8055a5f614","system_id":"levelo_inurba_marseille","lat":43.290345,"lon":5.38646,"is_reserved":false,"is_disabled":false,"rental_uris":{"android":"levelo://app?vid=9acfc62b-aca0-47da-9dab-bc8055a5f614","ios":"levelo://app?vid=9acfc62b-aca0-47da-9dab-bc8055a5f614"},"vehicle_type_id":"4","last_reported":1685124491,"current_range_meters":31200,"station_id":"ce4bh4p2rcd13ifvqe0g","pricing_plan_id":"free"},{"bike_id":"405da185-4983-443b-88e5-3776e60195df","system_id":"levelo_inurba_marseille","lat":43.295194,"lon":5.39397,"is_reserved":false,"is_disabled":false,"rental_uris":{"android":"levelo://app?vid=405da185-4983-443b-88e5-3776e60195df","ios":"levelo://app?vid=405da185-4983-443b-88e5-3776e60195df"},"vehicle_type_id":"4","last_reported":1685124491,"current_range_meters":14400,"station_id":"ce4bh292rcd13ifvqdf0","pricing_plan_id":"free"},{"bike_id":"2259f4b1-aa61-4fef-9c4a-834c8f3862c9","system_id":"levelo_inurba_marseille","lat":43.28614,"lon":5.3707,"is_reserved":false,"is_disabled":false,"rental_uris":{"android":"levelo://app?vid=2259f4b1-aa61-4fef-9c4a-834c8f3862c9","ios":"levelo://app?vid=2259f4b1-aa61-4fef-9c4a-834c8f3862c9"},"vehicle_type_id":"4","last_reported":1685124491,"current_range_meters":14000,"station_id":"ce4bht12rcd13ifvqi60","pricing_plan_id":"free"},{"bike_id":"2707c03c-c9b6-4988-bc6c-e00883507069","system_id":"levelo_inurba_marseille","lat":43.28613,"lon":5.3706,"is_reserved":false,"is_disabled":false,"rental_uris":{"android":"levelo://app?vid=2707c03c-c9b6-4988-bc6c-e00883507069","ios":"levelo://app?vid=2707c03c-c9b6-4988-bc6c-e00883507069"},"vehicle_type_id":"4","last_reported":1685124491,"current_range_meters":12400,"station_id":"ce4bht12rcd13ifvqi60","pricing_plan_id":"free"},{"bike_id":"c1f86e0d-224a-4cc7-961e-54f393264eeb","system_id":"levelo_inurba_marseille","lat":43.28612,"lon":5.37067,"is_reserved":false,"is_disabled":false,"rental_uris":{"android":"levelo://app?vid=c1f86e0d-224a-4cc7-961e-54f393264eeb","ios":"levelo://app?vid=c1f86e0d-224a-4cc7-961e-54f393264eeb"},"vehicle_type_id":"4","last_reported":1685124491,"current_range_meters":6800,"station_id":"ce4bht12rcd13ifvqi60","pricing_plan_id":"free"},{"bike_id":"249e0a48-a440-4828-9a6b-ceb4de8949fb","system_id":"levelo_inurba_marseille","lat":43.286039,"lon":5.370679,"is_reserved":false,"is_disabled":false,"rental_uris":{"android":"levelo://app?vid=249e0a48-a440-4828-9a6b-ceb4de8949fb","ios":"levelo://app?vid=249e0a48-a440-4828-9a6b-ceb4de8949fb"},"vehicle_type_id":"4","last_reported":1685124491,"current_range_meters":18800,"station_id":"ce4bht12rcd13ifvqi60","pricing_plan_id":"free"},{"bike_id":"943c3d1c-5b20-4612-96e9-53171b36fbf4","system_id":"levelo_inurba_marseille","lat":43.286039,"lon":5.370679,"is_reserved":false,"is_disabled":false,"rental_uris":{"android":"levelo://app?vid=943c3d1c-5b20-4612-96e9-53171b36fbf4","ios":"levelo://app?vid=943c3d1c-5b20-4612-96e9-53171b36fbf4"},"vehicle_type_id":"4","last_reported":1685124491,"current_range_meters":31200,"station_id":"ce4bht12rcd13ifvqi60","pricing_plan_id":"free"},{"bike_id":"20b6d2e5-f6a2-488c-bbef-7e731e13d9a1","system_id":"levelo_inurba_marseille","lat":43.28586,"lon":5.37195,"is_reserved":false,"is_disabled":false,"rental_uris":{"android":"levelo://app?vid=20b6d2e5-f6a2-488c-bbef-7e731e13d9a1","ios":"levelo://app?vid=20b6d2e5-f6a2-488c-bbef-7e731e13d9a1"},"vehicle_type_id":"4","last_reported":1685124491,"current_range_meters":0,"station_id":"ce4bht12rcd13ifvqi60","pricing_plan_id":"free"},{"bike_id":"ebbc5366-d009-4173-94e1-1b34f10d650b","system_id":"levelo_inurba_marseille","lat":43.28702,"lon":5.37959,"is_reserved":false,"is_disabled":false,"rental_uris":{"android":"levelo://app?vid=ebbc5366-d009-4173-94e1-1b34f10d650b","ios":"levelo://app?vid=ebbc5366-d009-4173-94e1-1b34f10d650b"},"vehicle_type_id":"4","last_reported":1685124491,"current_range_meters":0,"station_id":"ce4bh9p2rcd13ifvqec0","pricing_plan_id":"free"},{"bike_id":"7fd062ca-e70a-42a5-a858-7064fdb4389d","system_id":"levelo_inurba_marseille","lat":43.31649,"lon":5.4044,"is_reserved":false,"is_disabled":false,"rental_uris":{"android":"levelo://app?vid=7fd062ca-e70a-42a5-a858-7064fdb4389d","ios":"levelo://app?vid=7fd062ca-e70a-42a5-a858-7064fdb4389d"},"vehicle_type_id":"4","last_reported":1685124491,"current_range_meters":3600,"station_id":"ce4bh012rcd13ifvqd00","pricing_plan_id":"free"},{"bike_id":"49dd9f92-f8a3-4d92-9c0f-2b3426bd267a","system_id":"levelo_inurba_marseille","lat":43.28625,"lon":5.35109,"is_reserved":false,"is_disabled":false,"rental_uris":{"android":"levelo://app?vid=49dd9f92-f8a3-4d92-9c0f-2b3426bd267a","ios":"levelo://app?vid=49dd9f92-f8a3-4d92-9c0f-2b3426bd267a"},"vehicle_type_id":"4","last_reported":1685124491,"current_range_meters":16400,"station_id":"","pricing_plan_id":"free"},{"bike_id":"bdccd39c-e3f3-4e11-b9c7-e66002ff609e","system_id":"levelo_inurba_marseille","lat":43.28615,"lon":5.35114,"is_reserved":false,"is_disabled":false,"rental_uris":{"android":"levelo://app?vid=bdccd39c-e3f3-4e11-b9c7-e66002ff609e","ios":"levelo://app?vid=bdccd39c-e3f3-4e11-b9c7-e66002ff609e"},"vehicle_type_id":"4","last_reported":1685124491,"current_range_meters":22800,"station_id":"","pricing_plan_id":"free"},{"bike_id":"a9cbc5b8-60aa-4ac8-970c-30335748fffd","system_id":"levelo_inurba_marseille","lat":43.28619,"lon":5.35098,"is_reserved":false,"is_disabled":false,"rental_uris":{"android":"levelo://app?vid=a9cbc5b8-60aa-4ac8-970c-30335748fffd","ios":"levelo://app?vid=a9cbc5b8-60aa-4ac8-970c-30335748fffd"},"vehicle_type_id":"4","last_reported":1685124491,"current_range_meters":18400,"station_id":"","pricing_plan_id":"free"},{"bike_id":"18a291a1-3aec-4fa1-a48d-1805f14dd9ab","system_id":"levelo_inurba_marseille","lat":43.28617,"lon":5.35104,"is_reserved":false,"is_disabled":false,"rental_uris":{"android":"levelo://app?vid=18a291a1-3aec-4fa1-a48d-1805f14dd9ab","ios":"levelo://app?vid=18a291a1-3aec-4fa1-a48d-1805f14dd9ab"},"vehicle_type_id":"4","last_reported":1685124491,"current_range_meters":12000,"station_id":"","pricing_plan_id":"free"},{"bike_id":"f869904a-024a-40de-82df-96b2be6c425b","system_id":"levelo_inurba_marseille","lat":43.28616,"lon":5.35104,"is_reserved":false,"is_disabled":false,"rental_uris":{"android":"levelo://app?vid=f869904a-024a-40de-82df-96b2be6c425b","ios":"levelo://app?vid=f869904a-024a-40de-82df-96b2be6c425b"},"vehicle_type_id":"4","last_reported":1685124491,"current_range_meters":18800,"station_id":"","pricing_plan_id":"free"},{"bike_id":"9a1b27d5-0ae1-4218-b697-1b214dd0dab7","system_id":"levelo_inurba_marseille","lat":43.285856,"lon":5.350771,"is_reserved":false,"is_disabled":false,"rental_uris":{"android":"levelo://app?vid=9a1b27d5-0ae1-4218-b697-1b214dd0dab7","ios":"levelo://app?vid=9a1b27d5-0ae1-4218-b697-1b214dd0dab7"},"vehicle_type_id":"4","last_reported":1685124491,"current_range_meters":18000,"station_id":"ce4bhch2rcd13ifvqeug","pricing_plan_id":"free"},{"bike_id":"8233b1fc-cd93-4fa3-8a96-9704b82265f5","system_id":"levelo_inurba_marseille","lat":43.32345,"lon":5.40612,"is_reserved":false,"is_disabled":false,"rental_uris":{"android":"levelo://app?vid=8233b1fc-cd93-4fa3-8a96-9704b82265f5","ios":"levelo://app?vid=8233b1fc-cd93-4fa3-8a96-9704b82265f5"},"vehicle_type_id":"4","last_reported":1685124491,"current_range_meters":10000,"station_id":"ce4bhq92rcd13ifvqhjg","pricing_plan_id":"free"},{"bike_id":"d5fd31a8-b7a4-48f5-9751-f4ba7b16e78e","system_id":"levelo_inurba_marseille","lat":43.323464,"lon":5.406297,"is_reserved":false,"is_disabled":false,"rental_uris":{"android":"levelo://app?vid=d5fd31a8-b7a4-48f5-9751-f4ba7b16e78e","ios":"levelo://app?vid=d5fd31a8-b7a4-48f5-9751-f4ba7b16e78e"},"vehicle_type_id":"4","last_reported":1685124491,"current_range_meters":31600,"station_id":"ce4bhq92rcd13ifvqhjg","pricing_plan_id":"free"},{"bike_id":"e28a274d-67f0-472b-8b39-da84563c923e","system_id":"levelo_inurba_marseille","lat":43.323464,"lon":5.406297,"is_reserved":false,"is_disabled":false,"rental_uris":{"android":"levelo://app?vid=e28a274d-67f0-472b-8b39-da84563c923e","ios":"levelo://app?vid=e28a274d-67f0-472b-8b39-da84563c923e"},"vehicle_type_id":"4","last_reported":1685124491,"current_range_meters":31200,"station_id":"ce4bhq92rcd13ifvqhjg","pricing_plan_id":"free"},{"bike_id":"5371bbd7-c92f-4fd0-bddb-eca2c7cd5808","system_id":"levelo_inurba_marseille","lat":43.323464,"lon":5.406297,"is_reserved":false,"is_disabled":false,"rental_uris":{"android":"levelo://app?vid=5371bbd7-c92f-4fd0-bddb-eca2c7cd5808","ios":"levelo://app?vid=5371bbd7-c92f-4fd0-bddb-eca2c7cd5808"},"vehicle_type_id":"4","last_reported":1685124491,"current_range_meters":31200,"station_id":"ce4bhq92rcd13ifvqhjg","pricing_plan_id":"free"},{"bike_id":"8a020ae7-a135-40f5-a875-00dfaa32e0ce","system_id":"levelo_inurba_marseille","lat":43.323464,"lon":5.406297,"is_reserved":false,"is_disabled":false,"rental_uris":{"android":"levelo://app?vid=8a020ae7-a135-40f5-a875-00dfaa32e0ce","ios":"levelo://app?vid=8a020ae7-a135-40f5-a875-00dfaa32e0ce"},"vehicle_type_id":"4","last_reported":1685124491,"current_range_meters":26400,"station_id":"ce4bhq92rcd13ifvqhjg","pricing_plan_id":"free"},{"bike_id":"7c265e6c-1c4a-4fdb-a636-024c5b44f8d0","system_id":"levelo_inurba_marseille","lat":43.323464,"lon":5.406297,"is_reserved":false,"is_disabled":false,"rental_uris":{"android":"levelo://app?vid=7c265e6c-1c4a-4fdb-a636-024c5b44f8d0","ios":"levelo://app?vid=7c265e6c-1c4a-4fdb-a636-024c5b44f8d0"},"vehicle_type_id":"4","last_reported":1685124491,"current_range_meters":18400,"station_id":"ce4bhq92rcd13ifvqhjg","pricing_plan_id":"free"},{"bike_id":"115e18fc-15f9-4713-a264-9ffc5c21c23b","system_id":"levelo_inurba_marseille","lat":43.2842,"lon":5.34982,"is_reserved":false,"is_disabled":false,"rental_uris":{"android":"levelo://app?vid=115e18fc-15f9-4713-a264-9ffc5c21c23b","ios":"levelo://app?vid=115e18fc-15f9-4713-a264-9ffc5c21c23b"},"vehicle_type_id":"4","last_reported":1685124491,"current_range_meters":2800,"station_id":"ce4bhbh2rcd13ifvqepg","pricing_plan_id":"free"},{"bike_id":"b931963e-8bed-4aa5-9414-803058236134","system_id":"levelo_inurba_marseille","lat":43.284217,"lon":5.349697,"is_reserved":false,"is_disabled":false,"rental_uris":{"android":"levelo://app?vid=b931963e-8bed-4aa5-9414-803058236134","ios":"levelo://app?vid=b931963e-8bed-4aa5-9414-803058236134"},"vehicle_type_id":"4","last_reported":1685124491,"current_range_meters":18400,"station_id":"ce4bhbh2rcd13ifvqepg","pricing_plan_id":"free"},{"bike_id":"82f9b77a-2380-4370-b84f-95182fa786cc","system_id":"levelo_inurba_marseille","lat":43.28421,"lon":5.34977,"is_reserved":false,"is_disabled":false,"rental_uris":{"android":"levelo://app?vid=82f9b77a-2380-4370-b84f-95182fa786cc","ios":"levelo://app?vid=82f9b77a-2380-4370-b84f-95182fa786cc"},"vehicle_type_id":"4","last_reported":1685124491,"current_range_meters":23200,"station_id":"ce4bhbh2rcd13ifvqepg","pricing_plan_id":"free"},{"bike_id":"0604660a-83ae-41fb-b884-0f5a25e2d44c","system_id":"levelo_inurba_marseille","lat":43.28418,"lon":5.3498,"is_reserved":false,"is_disabled":false,"rental_uris":{"android":"levelo://app?vid=0604660a-83ae-41fb-b884-0f5a25e2d44c","ios":"levelo://app?vid=0604660a-83ae-41fb-b884-0f5a25e2d44c"},"vehicle_type_id":"4","last_reported":1685124491,"current_range_meters":800,"station_id":"ce4bhbh2rcd13ifvqepg","pricing_plan_id":"free"},{"bike_id":"017ccccc-4d55-4005-a292-d639a4905c2b","system_id":"levelo_inurba_marseille","lat":43.28419,"lon":5.34976,"is_reserved":false,"is_disabled":false,"rental_uris":{"android":"levelo://app?vid=017ccccc-4d55-4005-a292-d639a4905c2b","ios":"levelo://app?vid=017ccccc-4d55-4005-a292-d639a4905c2b"},"vehicle_type_id":"4","last_reported":1685124491,"current_range_meters":22800,"station_id":"ce4bhbh2rcd13ifvqepg","pricing_plan_id":"free"},{"bike_id":"650e29e7-2193-48f9-88f3-cd15a8122021","system_id":"levelo_inurba_marseille","lat":43.284217,"lon":5.349697,"is_reserved":false,"is_disabled":false,"rental_uris":{"android":"levelo://app?vid=650e29e7-2193-48f9-88f3-cd15a8122021","ios":"levelo://app?vid=650e29e7-2193-48f9-88f3-cd15a8122021"},"vehicle_type_id":"4","last_reported":1685124491,"current_range_meters":10800,"station_id":"ce4bhbh2rcd13ifvqepg","pricing_plan_id":"free"},{"bike_id":"2f891f70-b995-441c-a168-9209e32bddfb","system_id":"levelo_inurba_marseille","lat":43.28417,"lon":5.34977,"is_reserved":false,"is_disabled":false,"rental_uris":{"android":"levelo://app?vid=2f891f70-b995-441c-a168-9209e32bddfb","ios":"levelo://app?vid=2f891f70-b995-441c-a168-9209e32bddfb"},"vehicle_type_id":"4","last_reported":1685124491,"current_range_meters":10800,"station_id":"ce4bhbh2rcd13ifvqepg","pricing_plan_id":"free"},{"bike_id":"8577db21-5bf7-4a67-844c-bc9eb3885e8f","system_id":"levelo_inurba_marseille","lat":43.283502,"lon":5.386471,"is_reserved":false,"is_disabled":false,"rental_uris":{"android":"levelo://app?vid=8577db21-5bf7-4a67-844c-bc9eb3885e8f","ios":"levelo://app?vid=8577db21-5bf7-4a67-844c-bc9eb3885e8f"},"vehicle_type_id":"4","last_reported":1685124491,"current_range_meters":0,"station_id":"ce4bh492rcd13ifvqdvg","pricing_plan_id":"free"},{"bike_id":"943e0713-d5c1-48c1-a5ee-5e09e54d4780","system_id":"levelo_inurba_marseille","lat":43.280382,"lon":5.369291,"is_reserved":false,"is_disabled":false,"rental_uris":{"android":"levelo://app?vid=943e0713-d5c1-48c1-a5ee-5e09e54d4780","ios":"levelo://app?vid=943e0713-d5c1-48c1-a5ee-5e09e54d4780"},"vehicle_type_id":"4","last_reported":1685124491,"current_range_meters":28400,"station_id":"ce4bha12rcd13ifvqef0","pricing_plan_id":"free"},{"bike_id":"0a76f786-29c6-4996-acb1-ff27def6a795","system_id":"levelo_inurba_marseille","lat":43.280382,"lon":5.369291,"is_reserved":false,"is_disabled":false,"rental_uris":{"android":"levelo://app?vid=0a76f786-29c6-4996-acb1-ff27def6a795","ios":"levelo://app?vid=0a76f786-29c6-4996-acb1-ff27def6a795"},"vehicle_type_id":"4","last_reported":1685124491,"current_range_meters":26400,"station_id":"ce4bha12rcd13ifvqef0","pricing_plan_id":"free"},{"bike_id":"f9541dfa-274a-4870-b879-6f20d1bd61f5","system_id":"levelo_inurba_marseille","lat":43.28039,"lon":5.369297,"is_reserved":false,"is_disabled":false,"rental_uris":{"android":"levelo://app?vid=f9541dfa-274a-4870-b879-6f20d1bd61f5","ios":"levelo://app?vid=f9541dfa-274a-4870-b879-6f20d1bd61f5"},"vehicle_type_id":"4","last_reported":1685124491,"current_range_meters":0,"station_id":"ce4bha12rcd13ifvqef0","pricing_plan_id":"free"},{"bike_id":"5953c868-b75e-4776-9f98-6e428c0da178","system_id":"levelo_inurba_marseille","lat":43.280382,"lon":5.369291,"is_reserved":false,"is_disabled":false,"rental_uris":{"android":"levelo://app?vid=5953c868-b75e-4776-9f98-6e428c0da178","ios":"levelo://app?vid=5953c868-b75e-4776-9f98-6e428c0da178"},"vehicle_type_id":"4","last_reported":1685124491,"current_range_meters":20400,"station_id":"ce4bha12rcd13ifvqef0","pricing_plan_id":"free"},{"bike_id":"4d86ce40-e406-44d0-9e2e-59dcfae65e59","system_id":"levelo_inurba_marseille","lat":43.29041,"lon":5.39947,"is_reserved":false,"is_disabled":false,"rental_uris":{"android":"levelo://app?vid=4d86ce40-e406-44d0-9e2e-59dcfae65e59","ios":"levelo://app?vid=4d86ce40-e406-44d0-9e2e-59dcfae65e59"},"vehicle_type_id":"4","last_reported":1685124491,"current_range_meters":0,"station_id":"ce4bh392rcd13ifvqdm0","pricing_plan_id":"free"},{"bike_id":"82ef86ea-cd26-4f84-9165-c738a64bf9ab","system_id":"levelo_inurba_marseille","lat":43.281044,"lon":5.378308,"is_reserved":false,"is_disabled":false,"rental_uris":{"android":"levelo://app?vid=82ef86ea-cd26-4f84-9165-c738a64bf9ab","ios":"levelo://app?vid=82ef86ea-cd26-4f84-9165-c738a64bf9ab"},"vehicle_type_id":"4","last_reported":1685124491,"current_range_meters":9200,"station_id":"ce4bha12rcd13ifvqee0","pricing_plan_id":"free"},{"bike_id":"a1b49ac7-ae84-4e47-bf92-eedc04f05fd7","system_id":"levelo_inurba_marseille","lat":43.296263,"lon":5.40601,"is_reserved":false,"is_disabled":false,"rental_uris":{"android":"levelo://app?vid=a1b49ac7-ae84-4e47-bf92-eedc04f05fd7","ios":"levelo://app?vid=a1b49ac7-ae84-4e47-bf92-eedc04f05fd7"},"vehicle_type_id":"4","last_reported":1685124491,"current_range_meters":20800,"station_id":"ce4bh0h2rcd13ifvqd60","pricing_plan_id":"free"},{"bike_id":"2c7fac34-1341-443c-8c20-b8a601c26eb6","system_id":"levelo_inurba_marseille","lat":43.28092,"lon":5.37854,"is_reserved":false,"is_disabled":false,"rental_uris":{"android":"levelo://app?vid=2c7fac34-1341-443c-8c20-b8a601c26eb6","ios":"levelo://app?vid=2c7fac34-1341-443c-8c20-b8a601c26eb6"},"vehicle_type_id":"4","last_reported":1685124491,"current_range_meters":16800,"station_id":"ce4bha12rcd13ifvqee0","pricing_plan_id":"free"},{"bike_id":"53d22a4b-3814-4cf1-a40e-5e14a78a005e","system_id":"levelo_inurba_marseille","lat":43.284462,"lon":5.392121,"is_reserved":false,"is_disabled":false,"rental_uris":{"android":"levelo://app?vid=53d22a4b-3814-4cf1-a40e-5e14a78a005e","ios":"levelo://app?vid=53d22a4b-3814-4cf1-a40e-5e14a78a005e"},"vehicle_type_id":"4","last_reported":1685124491,"current_range_meters":0,"station_id":"ce4bhoh2rcd13ifvqh5g","pricing_plan_id":"free"},{"bike_id":"e8616103-1dc3-4dab-889e-0a97f1e43798","system_id":"levelo_inurba_marseille","lat":43.27906,"lon":5.38014,"is_reserved":false,"is_disabled":false,"rental_uris":{"android":"levelo://app?vid=e8616103-1dc3-4dab-889e-0a97f1e43798","ios":"levelo://app?vid=e8616103-1dc3-4dab-889e-0a97f1e43798"},"vehicle_type_id":"4","last_reported":1685124491,"current_range_meters":12800,"station_id":"","pricing_plan_id":"free"},{"bike_id":"ac3963b2-be8c-498c-ae2f-09e027148ade","system_id":"levelo_inurba_marseille","lat":43.287061,"lon":5.399911,"is_reserved":false,"is_disabled":false,"rental_uris":{"android":"levelo://app?vid=ac3963b2-be8c-498c-ae2f-09e027148ade","ios":"levelo://app?vid=ac3963b2-be8c-498c-ae2f-09e027148ade"},"vehicle_type_id":"4","last_reported":1685124491,"current_range_meters":8000,"station_id":"","pricing_plan_id":"free"},{"bike_id":"9b51a5f2-0608-4cdc-bdaa-4699075cdbd0","system_id":"levelo_inurba_marseille","lat":43.287154,"lon":5.399979,"is_reserved":false,"is_disabled":false,"rental_uris":{"android":"levelo://app?vid=9b51a5f2-0608-4cdc-bdaa-4699075cdbd0","ios":"levelo://app?vid=9b51a5f2-0608-4cdc-bdaa-4699075cdbd0"},"vehicle_type_id":"4","last_reported":1685124491,"current_range_meters":1200,"station_id":"ce4bho92rcd13ifvqh3g","pricing_plan_id":"free"},{"bike_id":"74b15181-520f-4d6d-a59d-82e39c8cd2cd","system_id":"levelo_inurba_marseille","lat":43.287154,"lon":5.399979,"is_reserved":false,"is_disabled":false,"rental_uris":{"android":"levelo://app?vid=74b15181-520f-4d6d-a59d-82e39c8cd2cd","ios":"levelo://app?vid=74b15181-520f-4d6d-a59d-82e39c8cd2cd"},"vehicle_type_id":"4","last_reported":1685124491,"current_range_meters":8000,"station_id":"ce4bho92rcd13ifvqh3g","pricing_plan_id":"free"},{"bike_id":"b245859c-5a0b-40c3-98a1-6f33206d0818","system_id":"levelo_inurba_marseille","lat":43.27994,"lon":5.38677,"is_reserved":false,"is_disabled":false,"rental_uris":{"android":"levelo://app?vid=b245859c-5a0b-40c3-98a1-6f33206d0818","ios":"levelo://app?vid=b245859c-5a0b-40c3-98a1-6f33206d0818"},"vehicle_type_id":"4","last_reported":1685124491,"current_range_meters":26000,"station_id":"","pricing_plan_id":"free"},{"bike_id":"85eaa750-bd2f-448e-956e-63759be9a43f","system_id":"levelo_inurba_marseille","lat":43.292571,"lon":5.409107,"is_reserved":false,"is_disabled":false,"rental_uris":{"android":"levelo://app?vid=85eaa750-bd2f-448e-956e-63759be9a43f","ios":"levelo://app?vid=85eaa750-bd2f-448e-956e-63759be9a43f"},"vehicle_type_id":"4","last_reported":1685124491,"current_range_meters":16400,"station_id":"ce4bh192rcd13ifvqdc0","pricing_plan_id":"free"},{"bike_id":"70773b09-55d5-4b4b-9369-b2d3d2051e52","system_id":"levelo_inurba_marseille","lat":43.325233,"lon":5.414318,"is_reserved":false,"is_disabled":false,"rental_uris":{"android":"levelo://app?vid=70773b09-55d5-4b4b-9369-b2d3d2051e52","ios":"levelo://app?vid=70773b09-55d5-4b4b-9369-b2d3d2051e52"},"vehicle_type_id":"4","last_reported":1685124491,"current_range_meters":10400,"station_id":"ce4bhq12rcd13ifvqhhg","pricing_plan_id":"free"},{"bike_id":"2ace3ddc-388b-4441-8690-bccdb1074677","system_id":"levelo_inurba_marseille","lat":43.303837,"lon":5.418724,"is_reserved":false,"is_disabled":false,"rental_uris":{"android":"levelo://app?vid=2ace3ddc-388b-4441-8690-bccdb1074677","ios":"levelo://app?vid=2ace3ddc-388b-4441-8690-bccdb1074677"},"vehicle_type_id":"4","last_reported":1685124491,"current_range_meters":13200,"station_id":"ce4bhop2rcd13ifvqh7g","pricing_plan_id":"free"},{"bike_id":"ac3febbf-88de-4d03-872a-8252e600054f","system_id":"levelo_inurba_marseille","lat":43.336134,"lon":5.410341,"is_reserved":false,"is_disabled":false,"rental_uris":{"android":"levelo://app?vid=ac3febbf-88de-4d03-872a-8252e600054f","ios":"levelo://app?vid=ac3febbf-88de-4d03-872a-8252e600054f"},"vehicle_type_id":"4","last_reported":1685124491,"current_range_meters":6800,"station_id":"ce4bhqh2rcd13ifvqhmg","pricing_plan_id":"free"},{"bike_id":"959bf65e-fac0-4992-a582-2f91b5497d8d","system_id":"levelo_inurba_marseille","lat":43.317121,"lon":5.423936,"is_reserved":false,"is_disabled":false,"rental_uris":{"android":"levelo://app?vid=959bf65e-fac0-4992-a582-2f91b5497d8d","ios":"levelo://app?vid=959bf65e-fac0-4992-a582-2f91b5497d8d"},"vehicle_type_id":"4","last_reported":1685124491,"current_range_meters":3600,"station_id":"ce4bhp92rcd13ifvqhbg","pricing_plan_id":"free"},{"bike_id":"2f727e10-a7e1-4e46-8c74-37b957f4c2c0","system_id":"levelo_inurba_marseille","lat":43.317121,"lon":5.423936,"is_reserved":false,"is_disabled":false,"rental_uris":{"android":"levelo://app?vid=2f727e10-a7e1-4e46-8c74-37b957f4c2c0","ios":"levelo://app?vid=2f727e10-a7e1-4e46-8c74-37b957f4c2c0"},"vehicle_type_id":"4","last_reported":1685124491,"current_range_meters":31200,"station_id":"ce4bhp92rcd13ifvqhbg","pricing_plan_id":"free"},{"bike_id":"8924875d-c949-4a85-bd85-be15c0fdd64a","system_id":"levelo_inurba_marseille","lat":43.317121,"lon":5.423936,"is_reserved":false,"is_disabled":false,"rental_uris":{"android":"levelo://app?vid=8924875d-c949-4a85-bd85-be15c0fdd64a","ios":"levelo://app?vid=8924875d-c949-4a85-bd85-be15c0fdd64a"},"vehicle_type_id":"4","last_reported":1685124491,"current_range_meters":13600,"station_id":"ce4bhp92rcd13ifvqhbg","pricing_plan_id":"free"},{"bike_id":"1b3a9706-1d75-49da-b04f-a8d2d21f8a41","system_id":"levelo_inurba_marseille","lat":43.310785,"lon":5.424305,"is_reserved":false,"is_disabled":false,"rental_uris":{"android":"levelo://app?vid=1b3a9706-1d75-49da-b04f-a8d2d21f8a41","ios":"levelo://app?vid=1b3a9706-1d75-49da-b04f-a8d2d21f8a41"},"vehicle_type_id":"4","last_reported":1685124491,"current_range_meters":17600,"station_id":"ce4bhp92rcd13ifvqhag","pricing_plan_id":"free"},{"bike_id":"6d713c6e-b9c6-4bb9-9970-dd3ec8ae03ba","system_id":"levelo_inurba_marseille","lat":43.295511,"lon":5.422926,"is_reserved":false,"is_disabled":false,"rental_uris":{"android":"levelo://app?vid=6d713c6e-b9c6-4bb9-9970-dd3ec8ae03ba","ios":"levelo://app?vid=6d713c6e-b9c6-4bb9-9970-dd3ec8ae03ba"},"vehicle_type_id":"4","last_reported":1685124491,"current_range_meters":5600,"station_id":"ce4bhph2rcd13ifvqhdg","pricing_plan_id":"free"},{"bike_id":"aa48024b-638e-4c91-8341-bb88b8e8aa05","system_id":"levelo_inurba_marseille","lat":43.295511,"lon":5.422926,"is_reserved":false,"is_disabled":false,"rental_uris":{"android":"levelo://app?vid=aa48024b-638e-4c91-8341-bb88b8e8aa05","ios":"levelo://app?vid=aa48024b-638e-4c91-8341-bb88b8e8aa05"},"vehicle_type_id":"4","last_reported":1685124491,"current_range_meters":0,"station_id":"ce4bhph2rcd13ifvqhdg","pricing_plan_id":"free"},{"bike_id":"759deb41-3d0e-479d-a5d2-b1a7c7646e77","system_id":"levelo_inurba_marseille","lat":43.261782,"lon":5.374515,"is_reserved":false,"is_disabled":false,"rental_uris":{"android":"levelo://app?vid=759deb41-3d0e-479d-a5d2-b1a7c7646e77","ios":"levelo://app?vid=759deb41-3d0e-479d-a5d2-b1a7c7646e77"},"vehicle_type_id":"4","last_reported":1685124491,"current_range_meters":18000,"station_id":"ce4bhgp2rcd13ifvqfc0","pricing_plan_id":"free"},{"bike_id":"e18ce5be-9f32-4048-b084-a06d8f58229e","system_id":"levelo_inurba_marseille","lat":43.272116,"lon":5.391747,"is_reserved":false,"is_disabled":false,"rental_uris":{"android":"levelo://app?vid=e18ce5be-9f32-4048-b084-a06d8f58229e","ios":"levelo://app?vid=e18ce5be-9f32-4048-b084-a06d8f58229e"},"vehicle_type_id":"4","last_reported":1685124491,"current_range_meters":23600,"station_id":"ce4bhhp2rcd13ifvqfm0","pricing_plan_id":"free"},{"bike_id":"fe3705c7-b881-4878-bbc6-7826fc22ecd9","system_id":"levelo_inurba_marseille","lat":43.27996,"lon":5.416624,"is_reserved":false,"is_disabled":false,"rental_uris":{"android":"levelo://app?vid=fe3705c7-b881-4878-bbc6-7826fc22ecd9","ios":"levelo://app?vid=fe3705c7-b881-4878-bbc6-7826fc22ecd9"},"vehicle_type_id":"4","last_reported":1685124491,"current_range_meters":400,"station_id":"ce4bho12rcd13ifvqh1g","pricing_plan_id":"free"},{"bike_id":"1108c2a6-bb99-4b0a-ae68-8b6b480ba093","system_id":"levelo_inurba_marseille","lat":43.27981,"lon":5.41655,"is_reserved":false,"is_disabled":false,"rental_uris":{"android":"levelo://app?vid=1108c2a6-bb99-4b0a-ae68-8b6b480ba093","ios":"levelo://app?vid=1108c2a6-bb99-4b0a-ae68-8b6b480ba093"},"vehicle_type_id":"4","last_reported":1685124491,"current_range_meters":18800,"station_id":"ce4bho12rcd13ifvqh1g","pricing_plan_id":"free"},{"bike_id":"b35a7040-bbda-43db-9397-f046555e255b","system_id":"levelo_inurba_marseille","lat":43.30807,"lon":5.43527,"is_reserved":false,"is_disabled":false,"rental_uris":{"android":"levelo://app?vid=b35a7040-bbda-43db-9397-f046555e255b","ios":"levelo://app?vid=b35a7040-bbda-43db-9397-f046555e255b"},"vehicle_type_id":"4","last_reported":1685124491,"current_range_meters":23200,"station_id":"","pricing_plan_id":"free"},{"bike_id":"2e18f64f-160d-4cc2-ab99-cf430a92b7d9","system_id":"levelo_inurba_marseille","lat":43.30804,"lon":5.43528,"is_reserved":false,"is_disabled":false,"rental_uris":{"android":"levelo://app?vid=2e18f64f-160d-4cc2-ab99-cf430a92b7d9","ios":"levelo://app?vid=2e18f64f-160d-4cc2-ab99-cf430a92b7d9"},"vehicle_type_id":"4","last_reported":1685124491,"current_range_meters":0,"station_id":"","pricing_plan_id":"free"},{"bike_id":"eb1e7463-04a7-4eb1-b297-dd018c79d527","system_id":"levelo_inurba_marseille","lat":43.30799,"lon":5.43528,"is_reserved":false,"is_disabled":false,"rental_uris":{"android":"levelo://app?vid=eb1e7463-04a7-4eb1-b297-dd018c79d527","ios":"levelo://app?vid=eb1e7463-04a7-4eb1-b297-dd018c79d527"},"vehicle_type_id":"4","last_reported":1685124491,"current_range_meters":400,"station_id":"","pricing_plan_id":"free"},{"bike_id":"ed58f4d0-a170-4528-b2d9-e59be21ca2f6","system_id":"levelo_inurba_marseille","lat":43.265569,"lon":5.390047,"is_reserved":false,"is_disabled":false,"rental_uris":{"android":"levelo://app?vid=ed58f4d0-a170-4528-b2d9-e59be21ca2f6","ios":"levelo://app?vid=ed58f4d0-a170-4528-b2d9-e59be21ca2f6"},"vehicle_type_id":"4","last_reported":1685124491,"current_range_meters":4000,"station_id":"ce4bhe12rcd13ifvqf30","pricing_plan_id":"free"},{"bike_id":"ee5c148f-0f96-4dac-b154-3a9610d556fd","system_id":"levelo_inurba_marseille","lat":43.265571,"lon":5.390032,"is_reserved":false,"is_disabled":false,"rental_uris":{"android":"levelo://app?vid=ee5c148f-0f96-4dac-b154-3a9610d556fd","ios":"levelo://app?vid=ee5c148f-0f96-4dac-b154-3a9610d556fd"},"vehicle_type_id":"4","last_reported":1685124491,"current_range_meters":10800,"station_id":"ce4bhe12rcd13ifvqf30","pricing_plan_id":"free"},{"bike_id":"0a1b67ee-4bbd-4090-a38b-658873b746ec","system_id":"levelo_inurba_marseille","lat":43.265569,"lon":5.390047,"is_reserved":false,"is_disabled":false,"rental_uris":{"android":"levelo://app?vid=0a1b67ee-4bbd-4090-a38b-658873b746ec","ios":"levelo://app?vid=0a1b67ee-4bbd-4090-a38b-658873b746ec"},"vehicle_type_id":"4","last_reported":1685124491,"current_range_meters":13200,"station_id":"ce4bhe12rcd13ifvqf30","pricing_plan_id":"free"},{"bike_id":"92a6b199-8948-412a-a525-5af800dbd4bb","system_id":"levelo_inurba_marseille","lat":43.265569,"lon":5.390047,"is_reserved":false,"is_disabled":false,"rental_uris":{"android":"levelo://app?vid=92a6b199-8948-412a-a525-5af800dbd4bb","ios":"levelo://app?vid=92a6b199-8948-412a-a525-5af800dbd4bb"},"vehicle_type_id":"4","last_reported":1685124491,"current_range_meters":13600,"station_id":"ce4bhe12rcd13ifvqf30","pricing_plan_id":"free"},{"bike_id":"287ed8e6-58c4-4396-a5bb-e5e28790aa55","system_id":"levelo_inurba_marseille","lat":43.26194,"lon":5.37442,"is_reserved":false,"is_disabled":false,"rental_uris":{"android":"levelo://app?vid=287ed8e6-58c4-4396-a5bb-e5e28790aa55","ios":"levelo://app?vid=287ed8e6-58c4-4396-a5bb-e5e28790aa55"},"vehicle_type_id":"4","last_reported":1685124491,"current_range_meters":23600,"station_id":"ce4bhgp2rcd13ifvqfc0","pricing_plan_id":"free"},{"bike_id":"e13e1c05-1ce8-48e3-ace7-4279c0e50a52","system_id":"levelo_inurba_marseille","lat":43.261782,"lon":5.374515,"is_reserved":false,"is_disabled":false,"rental_uris":{"android":"levelo://app?vid=e13e1c05-1ce8-48e3-ace7-4279c0e50a52","ios":"levelo://app?vid=e13e1c05-1ce8-48e3-ace7-4279c0e50a52"},"vehicle_type_id":"4","last_reported":1685124491,"current_range_meters":20000,"station_id":"ce4bhgp2rcd13ifvqfc0","pricing_plan_id":"free"},{"bike_id":"f27d346a-c8a5-4aa3-9c23-b0942ba9d4ef","system_id":"levelo_inurba_marseille","lat":43.261782,"lon":5.374515,"is_reserved":false,"is_disabled":false,"rental_uris":{"android":"levelo://app?vid=f27d346a-c8a5-4aa3-9c23-b0942ba9d4ef","ios":"levelo://app?vid=f27d346a-c8a5-4aa3-9c23-b0942ba9d4ef"},"vehicle_type_id":"4","last_reported":1685124491,"current_range_meters":31200,"station_id":"ce4bhgp2rcd13ifvqfc0","pricing_plan_id":"free"},{"bike_id":"7a9aaa2f-2912-422c-9569-28c7551ed682","system_id":"levelo_inurba_marseille","lat":43.261782,"lon":5.374515,"is_reserved":false,"is_disabled":false,"rental_uris":{"android":"levelo://app?vid=7a9aaa2f-2912-422c-9569-28c7551ed682","ios":"levelo://app?vid=7a9aaa2f-2912-422c-9569-28c7551ed682"},"vehicle_type_id":"4","last_reported":1685124491,"current_range_meters":8000,"station_id":"ce4bhgp2rcd13ifvqfc0","pricing_plan_id":"free"},{"bike_id":"d3e9af66-851d-412c-8327-2fa7778b310f","system_id":"levelo_inurba_marseille","lat":43.261782,"lon":5.374515,"is_reserved":false,"is_disabled":false,"rental_uris":{"android":"levelo://app?vid=d3e9af66-851d-412c-8327-2fa7778b310f","ios":"levelo://app?vid=d3e9af66-851d-412c-8327-2fa7778b310f"},"vehicle_type_id":"4","last_reported":1685124491,"current_range_meters":21200,"station_id":"ce4bhgp2rcd13ifvqfc0","pricing_plan_id":"free"},{"bike_id":"affe17f8-12d5-403e-852b-8feee1978be6","system_id":"levelo_inurba_marseille","lat":43.26188,"lon":5.37442,"is_reserved":false,"is_disabled":false,"rental_uris":{"android":"levelo://app?vid=affe17f8-12d5-403e-852b-8feee1978be6","ios":"levelo://app?vid=affe17f8-12d5-403e-852b-8feee1978be6"},"vehicle_type_id":"4","last_reported":1685124491,"current_range_meters":7600,"station_id":"ce4bhgp2rcd13ifvqfc0","pricing_plan_id":"free"},{"bike_id":"2237aeb6-6f9a-46d9-9b69-3ba55762b458","system_id":"levelo_inurba_marseille","lat":43.261782,"lon":5.374515,"is_reserved":false,"is_disabled":false,"rental_uris":{"android":"levelo://app?vid=2237aeb6-6f9a-46d9-9b69-3ba55762b458","ios":"levelo://app?vid=2237aeb6-6f9a-46d9-9b69-3ba55762b458"},"vehicle_type_id":"4","last_reported":1685124491,"current_range_meters":4400,"station_id":"ce4bhgp2rcd13ifvqfc0","pricing_plan_id":"free"},{"bike_id":"6caacd0e-46b0-41a9-8c62-afb29db7e6c7","system_id":"levelo_inurba_marseille","lat":43.317104,"lon":5.436818,"is_reserved":false,"is_disabled":false,"rental_uris":{"android":"levelo://app?vid=6caacd0e-46b0-41a9-8c62-afb29db7e6c7","ios":"levelo://app?vid=6caacd0e-46b0-41a9-8c62-afb29db7e6c7"},"vehicle_type_id":"4","last_reported":1685124491,"current_range_meters":31200,"station_id":"ce4bhp92rcd13ifvqhcg","pricing_plan_id":"free"},{"bike_id":"a40b814c-8d11-48f9-af9c-8f2d70505adb","system_id":"levelo_inurba_marseille","lat":43.31713,"lon":5.43707,"is_reserved":false,"is_disabled":false,"rental_uris":{"android":"levelo://app?vid=a40b814c-8d11-48f9-af9c-8f2d70505adb","ios":"levelo://app?vid=a40b814c-8d11-48f9-af9c-8f2d70505adb"},"vehicle_type_id":"4","last_reported":1685124491,"current_range_meters":25600,"station_id":"ce4bhp92rcd13ifvqhcg","pricing_plan_id":"free"},{"bike_id":"ffba4be3-ca70-46ef-8228-16aa951b4cd6","system_id":"levelo_inurba_marseille","lat":43.317104,"lon":5.436818,"is_reserved":false,"is_disabled":false,"rental_uris":{"android":"levelo://app?vid=ffba4be3-ca70-46ef-8228-16aa951b4cd6","ios":"levelo://app?vid=ffba4be3-ca70-46ef-8228-16aa951b4cd6"},"vehicle_type_id":"4","last_reported":1685124491,"current_range_meters":28800,"station_id":"ce4bhp92rcd13ifvqhcg","pricing_plan_id":"free"},{"bike_id":"bb8daff0-5994-4de6-97ce-013dcedbf696","system_id":"levelo_inurba_marseille","lat":43.317104,"lon":5.436818,"is_reserved":false,"is_disabled":false,"rental_uris":{"android":"levelo://app?vid=bb8daff0-5994-4de6-97ce-013dcedbf696","ios":"levelo://app?vid=bb8daff0-5994-4de6-97ce-013dcedbf696"},"vehicle_type_id":"4","last_reported":1685124491,"current_range_meters":4400,"station_id":"ce4bhp92rcd13ifvqhcg","pricing_plan_id":"free"},{"bike_id":"677fe151-801a-4d73-9e92-e9bc07905498","system_id":"levelo_inurba_marseille","lat":43.31715,"lon":5.43712,"is_reserved":false,"is_disabled":false,"rental_uris":{"android":"levelo://app?vid=677fe151-801a-4d73-9e92-e9bc07905498","ios":"levelo://app?vid=677fe151-801a-4d73-9e92-e9bc07905498"},"vehicle_type_id":"4","last_reported":1685124491,"current_range_meters":30400,"station_id":"ce4bhp92rcd13ifvqhcg","pricing_plan_id":"free"},{"bike_id":"97f92444-dc7f-4ac8-885e-43ac50454dc0","system_id":"levelo_inurba_marseille","lat":43.31711,"lon":5.43715,"is_reserved":false,"is_disabled":false,"rental_uris":{"android":"levelo://app?vid=97f92444-dc7f-4ac8-885e-43ac50454dc0","ios":"levelo://app?vid=97f92444-dc7f-4ac8-885e-43ac50454dc0"},"vehicle_type_id":"4","last_reported":1685124491,"current_range_meters":0,"station_id":"ce4bhp92rcd13ifvqhcg","pricing_plan_id":"free"},{"bike_id":"555a98c0-a2be-4e1f-9a4d-f11482aaa383","system_id":"levelo_inurba_marseille","lat":43.271368,"lon":5.40928,"is_reserved":false,"is_disabled":false,"rental_uris":{"android":"levelo://app?vid=555a98c0-a2be-4e1f-9a4d-f11482aaa383","ios":"levelo://app?vid=555a98c0-a2be-4e1f-9a4d-f11482aaa383"},"vehicle_type_id":"4","last_reported":1685124491,"current_range_meters":15200,"station_id":"ce4bhl12rcd13ifvqgf0","pricing_plan_id":"free"},{"bike_id":"48fcb156-cb95-4008-8495-511b7bc0cc22","system_id":"levelo_inurba_marseille","lat":43.267959,"lon":5.402687,"is_reserved":false,"is_disabled":false,"rental_uris":{"android":"levelo://app?vid=48fcb156-cb95-4008-8495-511b7bc0cc22","ios":"levelo://app?vid=48fcb156-cb95-4008-8495-511b7bc0cc22"},"vehicle_type_id":"4","last_reported":1685124491,"current_range_meters":10400,"station_id":"ce501612rcd8frsf0b60","pricing_plan_id":"free"},{"bike_id":"2bbf39e5-5485-4880-b9ce-9ba5fff1a707","system_id":"levelo_inurba_marseille","lat":43.29897,"lon":5.4365,"is_reserved":false,"is_disabled":false,"rental_uris":{"android":"levelo://app?vid=2bbf39e5-5485-4880-b9ce-9ba5fff1a707","ios":"levelo://app?vid=2bbf39e5-5485-4880-b9ce-9ba5fff1a707"},"vehicle_type_id":"4","last_reported":1685124491,"current_range_meters":16800,"station_id":"ce4bhpp2rcd13ifvqhfg","pricing_plan_id":"free"},{"bike_id":"608b499d-e068-453a-896b-74bff4555044","system_id":"levelo_inurba_marseille","lat":43.29905,"lon":5.43658,"is_reserved":false,"is_disabled":false,"rental_uris":{"android":"levelo://app?vid=608b499d-e068-453a-896b-74bff4555044","ios":"levelo://app?vid=608b499d-e068-453a-896b-74bff4555044"},"vehicle_type_id":"4","last_reported":1685124491,"current_range_meters":21200,"station_id":"","pricing_plan_id":"free"},{"bike_id":"c8de2773-0f39-49ca-aaaa-0510f3608265","system_id":"levelo_inurba_marseille","lat":43.29906,"lon":5.4366,"is_reserved":false,"is_disabled":false,"rental_uris":{"android":"levelo://app?vid=c8de2773-0f39-49ca-aaaa-0510f3608265","ios":"levelo://app?vid=c8de2773-0f39-49ca-aaaa-0510f3608265"},"vehicle_type_id":"4","last_reported":1685124491,"current_range_meters":25200,"station_id":"","pricing_plan_id":"free"},{"bike_id":"a01b8269-cd6f-432a-9c44-37513ea96cd0","system_id":"levelo_inurba_marseille","lat":43.298768,"lon":5.43643,"is_reserved":false,"is_disabled":false,"rental_uris":{"android":"levelo://app?vid=a01b8269-cd6f-432a-9c44-37513ea96cd0","ios":"levelo://app?vid=a01b8269-cd6f-432a-9c44-37513ea96cd0"},"vehicle_type_id":"4","last_reported":1685124491,"current_range_meters":24400,"station_id":"ce4bhpp2rcd13ifvqhfg","pricing_plan_id":"free"},{"bike_id":"1522e6fe-e66c-4a0c-a606-391cd3d5a93b","system_id":"levelo_inurba_marseille","lat":43.298768,"lon":5.43643,"is_reserved":false,"is_disabled":false,"rental_uris":{"android":"levelo://app?vid=1522e6fe-e66c-4a0c-a606-391cd3d5a93b","ios":"levelo://app?vid=1522e6fe-e66c-4a0c-a606-391cd3d5a93b"},"vehicle_type_id":"4","last_reported":1685124491,"current_range_meters":19200,"station_id":"ce4bhpp2rcd13ifvqhfg","pricing_plan_id":"free"},{"bike_id":"4e1b86b6-b12c-441f-b5c1-ba0a90fca197","system_id":"levelo_inurba_marseille","lat":43.298768,"lon":5.43643,"is_reserved":false,"is_disabled":false,"rental_uris":{"android":"levelo://app?vid=4e1b86b6-b12c-441f-b5c1-ba0a90fca197","ios":"levelo://app?vid=4e1b86b6-b12c-441f-b5c1-ba0a90fca197"},"vehicle_type_id":"4","last_reported":1685124491,"current_range_meters":31200,"station_id":"ce4bhpp2rcd13ifvqhfg","pricing_plan_id":"free"},{"bike_id":"57572c88-3708-4036-891a-204b9f884608","system_id":"levelo_inurba_marseille","lat":43.29896,"lon":5.43662,"is_reserved":false,"is_disabled":false,"rental_uris":{"android":"levelo://app?vid=57572c88-3708-4036-891a-204b9f884608","ios":"levelo://app?vid=57572c88-3708-4036-891a-204b9f884608"},"vehicle_type_id":"4","last_reported":1685124491,"current_range_meters":13200,"station_id":"ce4bhpp2rcd13ifvqhfg","pricing_plan_id":"free"},{"bike_id":"625cf51e-ab1a-4754-ae5a-a72655adf3ff","system_id":"levelo_inurba_marseille","lat":43.299,"lon":5.43666,"is_reserved":false,"is_disabled":false,"rental_uris":{"android":"levelo://app?vid=625cf51e-ab1a-4754-ae5a-a72655adf3ff","ios":"levelo://app?vid=625cf51e-ab1a-4754-ae5a-a72655adf3ff"},"vehicle_type_id":"4","last_reported":1685124491,"current_range_meters":11200,"station_id":"","pricing_plan_id":"free"},{"bike_id":"dde9f2f0-56ac-4fd7-8d1e-ed84b13d9718","system_id":"levelo_inurba_marseille","lat":43.29903,"lon":5.4367,"is_reserved":false,"is_disabled":false,"rental_uris":{"android":"levelo://app?vid=dde9f2f0-56ac-4fd7-8d1e-ed84b13d9718","ios":"levelo://app?vid=dde9f2f0-56ac-4fd7-8d1e-ed84b13d9718"},"vehicle_type_id":"4","last_reported":1685124491,"current_range_meters":30000,"station_id":"ce4bhpp2rcd13ifvqhfg","pricing_plan_id":"free"},{"bike_id":"077648c5-2129-44ed-afdb-7ac824462b72","system_id":"levelo_inurba_marseille","lat":43.29898,"lon":5.43671,"is_reserved":false,"is_disabled":false,"rental_uris":{"android":"levelo://app?vid=077648c5-2129-44ed-afdb-7ac824462b72","ios":"levelo://app?vid=077648c5-2129-44ed-afdb-7ac824462b72"},"vehicle_type_id":"4","last_reported":1685124491,"current_range_meters":13200,"station_id":"","pricing_plan_id":"free"},{"bike_id":"2bec87da-92f9-4fd1-a31d-4f8c41246cb1","system_id":"levelo_inurba_marseille","lat":43.29896,"lon":5.43671,"is_reserved":false,"is_disabled":false,"rental_uris":{"android":"levelo://app?vid=2bec87da-92f9-4fd1-a31d-4f8c41246cb1","ios":"levelo://app?vid=2bec87da-92f9-4fd1-a31d-4f8c41246cb1"},"vehicle_type_id":"4","last_reported":1685124491,"current_range_meters":6800,"station_id":"","pricing_plan_id":"free"},{"bike_id":"5b810d14-bb62-4127-bdff-300f54cd4379","system_id":"levelo_inurba_marseille","lat":43.260219,"lon":5.37546,"is_reserved":false,"is_disabled":false,"rental_uris":{"android":"levelo://app?vid=5b810d14-bb62-4127-bdff-300f54cd4379","ios":"levelo://app?vid=5b810d14-bb62-4127-bdff-300f54cd4379"},"vehicle_type_id":"4","last_reported":1685124491,"current_range_meters":12400,"station_id":"ce4bhgh2rcd13ifvqfa0","pricing_plan_id":"free"},{"bike_id":"dafaf91d-190d-4285-b968-956f77e77bb6","system_id":"levelo_inurba_marseille","lat":43.260219,"lon":5.37546,"is_reserved":false,"is_disabled":false,"rental_uris":{"android":"levelo://app?vid=dafaf91d-190d-4285-b968-956f77e77bb6","ios":"levelo://app?vid=dafaf91d-190d-4285-b968-956f77e77bb6"},"vehicle_type_id":"4","last_reported":1685124491,"current_range_meters":16400,"station_id":"ce4bhgh2rcd13ifvqfa0","pricing_plan_id":"free"},{"bike_id":"243f2e72-4177-48ec-8533-cf40a49e68fa","system_id":"levelo_inurba_marseille","lat":43.260219,"lon":5.37546,"is_reserved":false,"is_disabled":false,"rental_uris":{"android":"levelo://app?vid=243f2e72-4177-48ec-8533-cf40a49e68fa","ios":"levelo://app?vid=243f2e72-4177-48ec-8533-cf40a49e68fa"},"vehicle_type_id":"4","last_reported":1685124491,"current_range_meters":4800,"station_id":"ce4bhgh2rcd13ifvqfa0","pricing_plan_id":"free"},{"bike_id":"a6fa9a78-22a3-401b-b1a9-fe3049efdd41","system_id":"levelo_inurba_marseille","lat":43.260219,"lon":5.37546,"is_reserved":false,"is_disabled":false,"rental_uris":{"android":"levelo://app?vid=a6fa9a78-22a3-401b-b1a9-fe3049efdd41","ios":"levelo://app?vid=a6fa9a78-22a3-401b-b1a9-fe3049efdd41"},"vehicle_type_id":"4","last_reported":1685124491,"current_range_meters":10800,"station_id":"ce4bhgh2rcd13ifvqfa0","pricing_plan_id":"free"},{"bike_id":"b3a3eeb1-6aab-4858-ad21-69921944c271","system_id":"levelo_inurba_marseille","lat":43.260219,"lon":5.37546,"is_reserved":false,"is_disabled":false,"rental_uris":{"android":"levelo://app?vid=b3a3eeb1-6aab-4858-ad21-69921944c271","ios":"levelo://app?vid=b3a3eeb1-6aab-4858-ad21-69921944c271"},"vehicle_type_id":"4","last_reported":1685124491,"current_range_meters":7200,"station_id":"ce4bhgh2rcd13ifvqfa0","pricing_plan_id":"free"},{"bike_id":"0d5369e2-1b54-4d97-9b93-9d10ced3f4e2","system_id":"levelo_inurba_marseille","lat":43.260219,"lon":5.37546,"is_reserved":false,"is_disabled":false,"rental_uris":{"android":"levelo://app?vid=0d5369e2-1b54-4d97-9b93-9d10ced3f4e2","ios":"levelo://app?vid=0d5369e2-1b54-4d97-9b93-9d10ced3f4e2"},"vehicle_type_id":"4","last_reported":1685124491,"current_range_meters":24000,"station_id":"ce4bhgh2rcd13ifvqfa0","pricing_plan_id":"free"},{"bike_id":"1a9ae718-e3e4-4714-8186-4c31e50b6a52","system_id":"levelo_inurba_marseille","lat":43.26358,"lon":5.4015,"is_reserved":false,"is_disabled":false,"rental_uris":{"android":"levelo://app?vid=1a9ae718-e3e4-4714-8186-4c31e50b6a52","ios":"levelo://app?vid=1a9ae718-e3e4-4714-8186-4c31e50b6a52"},"vehicle_type_id":"4","last_reported":1685124491,"current_range_meters":25200,"station_id":"","pricing_plan_id":"free"},{"bike_id":"5fa1af4c-93c4-4f73-855a-57251b1bea57","system_id":"levelo_inurba_marseille","lat":43.254945,"lon":5.376454,"is_reserved":false,"is_disabled":false,"rental_uris":{"android":"levelo://app?vid=5fa1af4c-93c4-4f73-855a-57251b1bea57","ios":"levelo://app?vid=5fa1af4c-93c4-4f73-855a-57251b1bea57"},"vehicle_type_id":"4","last_reported":1685124491,"current_range_meters":0,"station_id":"ce4bhh12rcd13ifvqff0","pricing_plan_id":"free"},{"bike_id":"2a814739-0dab-450b-8ded-0ea40e3ce1bd","system_id":"levelo_inurba_marseille","lat":43.255756,"lon":5.382303,"is_reserved":false,"is_disabled":false,"rental_uris":{"android":"levelo://app?vid=2a814739-0dab-450b-8ded-0ea40e3ce1bd","ios":"levelo://app?vid=2a814739-0dab-450b-8ded-0ea40e3ce1bd"},"vehicle_type_id":"4","last_reported":1685124491,"current_range_meters":25600,"station_id":"ce4bhih2rcd13ifvqfs0","pricing_plan_id":"free"},{"bike_id":"2406b942-c0dd-4d7e-ae2a-0b3b5ce6b8fe","system_id":"levelo_inurba_marseille","lat":43.255756,"lon":5.382303,"is_reserved":false,"is_disabled":false,"rental_uris":{"android":"levelo://app?vid=2406b942-c0dd-4d7e-ae2a-0b3b5ce6b8fe","ios":"levelo://app?vid=2406b942-c0dd-4d7e-ae2a-0b3b5ce6b8fe"},"vehicle_type_id":"4","last_reported":1685124491,"current_range_meters":12400,"station_id":"ce4bhih2rcd13ifvqfs0","pricing_plan_id":"free"},{"bike_id":"6bce1e23-16d4-4d26-bad5-eeec68dfab88","system_id":"levelo_inurba_marseille","lat":43.255756,"lon":5.382303,"is_reserved":false,"is_disabled":false,"rental_uris":{"android":"levelo://app?vid=6bce1e23-16d4-4d26-bad5-eeec68dfab88","ios":"levelo://app?vid=6bce1e23-16d4-4d26-bad5-eeec68dfab88"},"vehicle_type_id":"4","last_reported":1685124491,"current_range_meters":24800,"station_id":"ce4bhih2rcd13ifvqfs0","pricing_plan_id":"free"},{"bike_id":"30a771cb-c813-43f9-a9ac-972f10952f0e","system_id":"levelo_inurba_marseille","lat":43.254945,"lon":5.376454,"is_reserved":false,"is_disabled":false,"rental_uris":{"android":"levelo://app?vid=30a771cb-c813-43f9-a9ac-972f10952f0e","ios":"levelo://app?vid=30a771cb-c813-43f9-a9ac-972f10952f0e"},"vehicle_type_id":"4","last_reported":1685124491,"current_range_meters":0,"station_id":"ce4bhh12rcd13ifvqff0","pricing_plan_id":"free"},{"bike_id":"1df5cfc2-86bf-4cfb-9335-ed2564dc42d4","system_id":"levelo_inurba_marseille","lat":43.254945,"lon":5.376454,"is_reserved":false,"is_disabled":false,"rental_uris":{"android":"levelo://app?vid=1df5cfc2-86bf-4cfb-9335-ed2564dc42d4","ios":"levelo://app?vid=1df5cfc2-86bf-4cfb-9335-ed2564dc42d4"},"vehicle_type_id":"4","last_reported":1685124491,"current_range_meters":0,"station_id":"ce4bhh12rcd13ifvqff0","pricing_plan_id":"free"},{"bike_id":"d207f0ae-0262-47a0-83c7-1ece8fe79deb","system_id":"levelo_inurba_marseille","lat":43.254945,"lon":5.376454,"is_reserved":false,"is_disabled":false,"rental_uris":{"android":"levelo://app?vid=d207f0ae-0262-47a0-83c7-1ece8fe79deb","ios":"levelo://app?vid=d207f0ae-0262-47a0-83c7-1ece8fe79deb"},"vehicle_type_id":"4","last_reported":1685124491,"current_range_meters":16000,"station_id":"ce4bhh12rcd13ifvqff0","pricing_plan_id":"free"},{"bike_id":"6bbb1470-f162-42f6-87c6-0b5cd0d39e40","system_id":"levelo_inurba_marseille","lat":43.254945,"lon":5.376454,"is_reserved":false,"is_disabled":false,"rental_uris":{"android":"levelo://app?vid=6bbb1470-f162-42f6-87c6-0b5cd0d39e40","ios":"levelo://app?vid=6bbb1470-f162-42f6-87c6-0b5cd0d39e40"},"vehicle_type_id":"4","last_reported":1685124491,"current_range_meters":19200,"station_id":"ce4bhh12rcd13ifvqff0","pricing_plan_id":"free"},{"bike_id":"21a94e83-2bcf-4902-8a6a-85407ac0d3c9","system_id":"levelo_inurba_marseille","lat":43.254952,"lon":5.376471,"is_reserved":false,"is_disabled":false,"rental_uris":{"android":"levelo://app?vid=21a94e83-2bcf-4902-8a6a-85407ac0d3c9","ios":"levelo://app?vid=21a94e83-2bcf-4902-8a6a-85407ac0d3c9"},"vehicle_type_id":"4","last_reported":1685124491,"current_range_meters":7600,"station_id":"","pricing_plan_id":"free"},{"bike_id":"f377ebf9-3581-4132-a483-0f3065172467","system_id":"levelo_inurba_marseille","lat":43.254947,"lon":5.376454,"is_reserved":false,"is_disabled":false,"rental_uris":{"android":"levelo://app?vid=f377ebf9-3581-4132-a483-0f3065172467","ios":"levelo://app?vid=f377ebf9-3581-4132-a483-0f3065172467"},"vehicle_type_id":"4","last_reported":1685124491,"current_range_meters":11200,"station_id":"ce4bhh12rcd13ifvqff0","pricing_plan_id":"free"},{"bike_id":"6920877a-3b87-46e5-9b0d-b71e5b1c9f37","system_id":"levelo_inurba_marseille","lat":43.254947,"lon":5.376454,"is_reserved":false,"is_disabled":false,"rental_uris":{"android":"levelo://app?vid=6920877a-3b87-46e5-9b0d-b71e5b1c9f37","ios":"levelo://app?vid=6920877a-3b87-46e5-9b0d-b71e5b1c9f37"},"vehicle_type_id":"4","last_reported":1685124491,"current_range_meters":14000,"station_id":"ce4bhh12rcd13ifvqff0","pricing_plan_id":"free"},{"bike_id":"6950a90f-c2c5-40a5-b14a-1f67a236464f","system_id":"levelo_inurba_marseille","lat":43.27076,"lon":5.42283,"is_reserved":false,"is_disabled":false,"rental_uris":{"android":"levelo://app?vid=6950a90f-c2c5-40a5-b14a-1f67a236464f","ios":"levelo://app?vid=6950a90f-c2c5-40a5-b14a-1f67a236464f"},"vehicle_type_id":"4","last_reported":1685124491,"current_range_meters":0,"station_id":"ce4bhk92rcd13ifvqgb0","pricing_plan_id":"free"},{"bike_id":"e4d9ef10-8c4d-4aeb-a7b9-7864777e12d6","system_id":"levelo_inurba_marseille","lat":43.27077,"lon":5.42287,"is_reserved":false,"is_disabled":false,"rental_uris":{"android":"levelo://app?vid=e4d9ef10-8c4d-4aeb-a7b9-7864777e12d6","ios":"levelo://app?vid=e4d9ef10-8c4d-4aeb-a7b9-7864777e12d6"},"vehicle_type_id":"4","last_reported":1685124491,"current_range_meters":12400,"station_id":"ce4bhk92rcd13ifvqgb0","pricing_plan_id":"free"},{"bike_id":"3e16fddd-610d-4351-8eda-1970e2914927","system_id":"levelo_inurba_marseille","lat":43.27072,"lon":5.4228,"is_reserved":false,"is_disabled":false,"rental_uris":{"android":"levelo://app?vid=3e16fddd-610d-4351-8eda-1970e2914927","ios":"levelo://app?vid=3e16fddd-610d-4351-8eda-1970e2914927"},"vehicle_type_id":"4","last_reported":1685124491,"current_range_meters":13200,"station_id":"ce4bhk92rcd13ifvqgb0","pricing_plan_id":"free"},{"bike_id":"27a9609f-299e-400c-8869-adf0be59e38d","system_id":"levelo_inurba_marseille","lat":43.27073,"lon":5.42282,"is_reserved":false,"is_disabled":false,"rental_uris":{"android":"levelo://app?vid=27a9609f-299e-400c-8869-adf0be59e38d","ios":"levelo://app?vid=27a9609f-299e-400c-8869-adf0be59e38d"},"vehicle_type_id":"4","last_reported":1685124491,"current_range_meters":29600,"station_id":"ce4bhk92rcd13ifvqgb0","pricing_plan_id":"free"},{"bike_id":"acb8b7f2-f4db-4f18-b4c0-0bd99652041a","system_id":"levelo_inurba_marseille","lat":43.270721,"lon":5.422764,"is_reserved":false,"is_disabled":false,"rental_uris":{"android":"levelo://app?vid=acb8b7f2-f4db-4f18-b4c0-0bd99652041a","ios":"levelo://app?vid=acb8b7f2-f4db-4f18-b4c0-0bd99652041a"},"vehicle_type_id":"4","last_reported":1685124491,"current_range_meters":31600,"station_id":"ce4bhk92rcd13ifvqgb0","pricing_plan_id":"free"},{"bike_id":"fb391ea4-e81d-46d6-bf8b-15607b8eba32","system_id":"levelo_inurba_marseille","lat":43.2707,"lon":5.42279,"is_reserved":false,"is_disabled":false,"rental_uris":{"android":"levelo://app?vid=fb391ea4-e81d-46d6-bf8b-15607b8eba32","ios":"levelo://app?vid=fb391ea4-e81d-46d6-bf8b-15607b8eba32"},"vehicle_type_id":"4","last_reported":1685124491,"current_range_meters":24800,"station_id":"ce4bhk92rcd13ifvqgb0","pricing_plan_id":"free"},