{"last_updated":1751144935,"ttl":60,"version":"2.2","data":{"bikes":[{"bike_id":"3da29fb8-fc97-44c6-b9ac-31dd456b2fd4","system_id":"levelo_inurba_marseille","lat":43.33771,"lon":5.37424,"is_reserved":false,"is_disabled":true,"rental_uris":{"android":"levelo://app?vid=3da29fb8-fc97-44c6-b9ac-31dd456b2fd4","ios":"levelo://app?vid=3da29fb8-fc97-44c6-b9ac-31dd456b2fd4"},"vehicle_type_id":"4","last_reported":1751144935,"current_range_meters":0,"station_id":"","pricing_plan_id":"cebpf4jnsgd1na2vs0mg"},{"bike_id":"01861ad8-a8d7-4be6-816e-651927c87584","system_id":"levelo_inurba_marseille","lat":43.33751,"lon":5.37456,"is_reserved":false,"is_disabled":true,"rental_uris":{"android":"levelo://app?vid=01861ad8-a8d7-4be6-816e-651927c87584","ios":"levelo://app?vid=01861ad8-a8d7-4be6-816e-651927c87584"},"vehicle_type_id":"4","last_reported":1751144935,"current_range_meters":0,"station_id":"","pricing_plan_id":"cebpf4jnsgd1na2vs0mg"},{"bike_id":"612b34ed-ddf1-4f6a-96bb-08fc82d7d35a","system_id":"levelo_inurba_marseille","lat":43.27149,"lon":5.40909,"is_reserved":false,"is_disabled":true,"rental_uris":{"android":"levelo://app?vid=612b34ed-ddf1-4f6a-96bb-08fc82d7d35a","ios":"levelo://app?vid=612b34ed-ddf1-4f6a-96bb-08fc82d7d35a"},"vehicle_type_id":"4","last_reported":1751144935,"current_range_meters":0,"station_id":"","pricing_plan_id":"cebpf4jnsgd1na2vs0mg"},{"bike_id":"7aac647a-260b-423f-ae41-874b82472ad9","system_id":"levelo_inurba_marseille","lat":43.23162,"lon":5.3519,"is_reserved":false,"is_disabled":true,"rental_uris":{"android":"levelo://app?vid=7aac647a-260b-423f-ae41-874b82472ad9","ios":"levelo://app?vid=7aac647a-260b-423f-ae41-874b82472ad9"},"vehicle_type_id":"4","last_reported":1751144935,"current_range_meters":0,"station_id":"","pricing_plan_id":"cebpf4jnsgd1na2vs0mg"},{"bike_id":"732c1116-4f80-43d2-b21a-3c1f42b61440","system_id":"levelo_inurba_marseille","lat":43.29236,"lon":5.38476,"is_reserved":false,"is_disabled":true,"rental_uris":{"android":"levelo://app?vid=732c1116-4f80-43d2-b21a-3c1f42b61440","ios":"levelo://app?vid=732c1116-4f80-43d2-b21a-3c1f42b61440"},"vehicle_type_id":"4","last_reported":1751144935,"current_range_meters":0,"station_id":"","pricing_plan_id":"cebpf4jnsgd1na2vs0mg"},{"bike_id":"499114bb-646f-4618-a3ce-ee7c9ab2a1c4","system_id":"levelo_inurba_marseille","lat":43.33007,"lon":5.39098,"is_reserved":false,"is_disabled":true,"rental_uris":{"android":"levelo://app?vid=499114bb-646f-4618-a3ce-ee7c9ab2a1c4","ios":"levelo://app?vid=499114bb-646f-4618-a3ce-ee7c9ab2a1c4"},"vehicle_type_id":"4","last_reported":1751144935,"current_range_meters":0,"station_id":"","pricing_plan_id":"cebpf4jnsgd1na2vs0mg"},{"bike_id":"e9a7f2ce-f5b2-41e5-b572-5533013492a4","system_id":"levelo_inurba_marseille","lat":43.337444,"lon":5.374475,"is_reserved":false,"is_disabled":true,"rental_uris":{"android":"levelo://app?vid=e9a7f2ce-f5b2-41e5-b572-5533013492a4","ios":"levelo://app?vid=e9a7f2ce-f5b2-41e5-b572-5533013492a4"},"vehicle_type_id":"4","last_reported":1751144935,"current_range_meters":0,"station_id":"","pricing_plan_id":"cebpf4jnsgd1na2vs0mg"},{"bike_id":"666ef40e-8142-4330-a1bf-355f72ca0910","system_id":"levelo_inurba_marseille","lat":43.26338,"lon":5.40109,"is_reserved":false,"is_disabled":true,"rental_uris":{"android":"levelo://app?vid=666ef40e-8142-4330-a1bf-355f72ca0910","ios":"levelo://app?vid=666ef40e-8142-4330-a1bf-355f72ca0910"},"vehicle_type_id":"4","last_reported":1751144935,"current_range_meters":0,"station_id":"","pricing_plan_id":"cebpf4jnsgd1na2vs0mg"},{"bike_id":"d86d6404-53b1-4461-808f-1f212739deab","system_id":"levelo_inurba_marseille","lat":43.30241,"lon":5.40061,"is_reserved":false,"is_disabled":true,"rental_uris":{"android":"levelo://app?vid=d86d6404-53b1-4461-808f-1f212739deab","ios":"levelo://app?vid=d86d6404-53b1-4461-808f-1f212739deab"},"vehicle_type_id":"4","last_reported":1751144935,"current_range_meters":0,"station_id":"ce4bgvh2rcd13ifvqcs0","pricing_plan_id":"cebpf4jnsgd1na2vs0mg"},{"bike_id":"073bcfdd-2e8e-4b3e-a182-bb11fc22ec04","system_id":"levelo_inurba_marseille","lat":43.316839,"lon":5.404786,"is_reserved":false,"is_disabled":true,"rental_uris":{"android":"levelo://app?vid=073bcfdd-2e8e-4b3e-a182-bb11fc22ec04","ios":"levelo://app?vid=073bcfdd-2e8e-4b3e-a182-bb11fc22ec04"},"vehicle_type_id":"4","last_reported":1751144935,"current_range_meters":0,"station_id":"ce4bh012rcd13ifvqd00","pricing_plan_id":"cebpf4jnsgd1na2vs0mg"},{"bike_id":"6b622642-3bcb-4cbf-9751-aad933c29b48","system_id":"levelo_inurba_marseille","lat":43.26558,"lon":5.3728,"is_reserved":false,"is_disabled":true,"rental_uris":{"android":"levelo://app?vid=6b622642-3bcb-4cbf-9751-aad933c29b48","ios":"levelo://app?vid=6b622642-3bcb-4cbf-9751-aad933c29b48"},"vehicle_type_id":"4","last_reported":1751144935,"current_range_meters":0,"station_id":"ce4bhg12rcd13ifvqf70","pricing_plan_id":"cebpf4jnsgd1na2vs0mg"},{"bike_id":"d0d7cc43-521b-4cec-b4c1-a87ba601603e","system_id":"levelo_inurba_marseille","lat":43.26214,"lon":5.37432,"is_reserved":false,"is_disabled":true,"rental_uris":{"android":"levelo://app?vid=d0d7cc43-521b-4cec-b4c1-a87ba601603e","ios":"levelo://app?vid=d0d7cc43-521b-4cec-b4c1-a87ba601603e"},"vehicle_type_id":"4","last_reported":1751144935,"current_range_meters":0,"station_id":"ce4bhgp2rcd13ifvqfc0","pricing_plan_id":"cebpf4jnsgd1na2vs0mg"},{"bike_id":"a5af2057-cf52-4a3e-9bf2-662d03d4929c","system_id":"levelo_inurba_marseille","lat":43.27842,"lon":5.39212,"is_reserved":false,"is_disabled":true,"rental_uris":{"android":"levelo://app?vid=a5af2057-cf52-4a3e-9bf2-662d03d4929c","ios":"levelo://app?vid=a5af2057-cf52-4a3e-9bf2-662d03d4929c"},"vehicle_type_id":"4","last_reported":1751144935,"current_range_meters":0,"station_id":"ce4bhjp2rcd13ifvqga0","pricing_plan_id":"cebpf4jnsgd1na2vs0mg"},{"bike_id":"ddf7ea66-efd0-456b-a139-fcb3ce0f5444","system_id":"levelo_inurba_marseille","lat":43.27048,"lon":5.40269,"is_reserved":false,"is_disabled":true,"rental_uris":{"android":"levelo://app?vid=ddf7ea66-efd0-456b-a139-fcb3ce0f5444","ios":"levelo://app?vid=ddf7ea66-efd0-456b-a139-fcb3ce0f5444"},"vehicle_type_id":"4","last_reported":1751144935,"current_range_meters":0,"station_id":"ce4bhk92rcd13ifvqgc0","pricing_plan_id":"cebpf4jnsgd1na2vs0mg"},{"bike_id":"45f6a544-af4f-49c1-b2ea-cdef510d91ce","system_id":"levelo_inurba_marseille","lat":43.27946,"lon":5.4105,"is_reserved":false,"is_disabled":true,"rental_uris":{"android":"levelo://app?vid=45f6a544-af4f-49c1-b2ea-cdef510d91ce","ios":"levelo://app?vid=45f6a544-af4f-49c1-b2ea-cdef510d91ce"},"vehicle_type_id":"4","last_reported":1751144935,"current_range_meters":0,"station_id":"ce4bhnp2rcd13ifvqh0g","pricing_plan_id":"cebpf4jnsgd1na2vs0mg"},{"bike_id":"0dd74537-1eda-4a45-9817-024db8ba2a24","system_id":"levelo_inurba_marseille","lat":43.27987,"lon":5.41666,"is_reserved":false,"is_disabled":true,"rental_uris":{"android":"levelo://app?vid=0dd74537-1eda-4a45-9817-024db8ba2a24","ios":"levelo://app?vid=0dd74537-1eda-4a45-9817-024db8ba2a24"},"vehicle_type_id":"4","last_reported":1751144935,"current_range_meters":0,"station_id":"ce4bho12rcd13ifvqh1g","pricing_plan_id":"cebpf4jnsgd1na2vs0mg"},{"bike_id":"92d3bb11-4cf3-47e6-bc0f-ff80eea58ad1","system_id":"levelo_inurba_marseille","lat":43.30383,"lon":5.42477,"is_reserved":false,"is_disabled":true,"rental_uris":{"android":"levelo://app?vid=92d3bb11-4cf3-47e6-bc0f-ff80eea58ad1","ios":"levelo://app?vid=92d3bb11-4cf3-47e6-bc0f-ff80eea58ad1"},"vehicle_type_id":"4","last_reported":1751144935,"current_range_meters":0,"station_id":"ce4bhoh2rcd13ifvqh6g","pricing_plan_id":"cebpf4jnsgd1na2vs0mg"},{"bike_id":"c8ce0351-fe68-40b1-beb5-45d8ee0eed11","system_id":"levelo_inurba_marseille","lat":43.30383,"lon":5.42485,"is_reserved":false,"is_disabled":true,"rental_uris":{"android":"levelo://app?vid=c8ce0351-fe68-40b1-beb5-45d8ee0eed11","ios":"levelo://app?vid=c8ce0351-fe68-40b1-beb5-45d8ee0eed11"},"vehicle_type_id":"4","last_reported":1751144935,"current_range_meters":0,"station_id":"ce4bhoh2rcd13ifvqh6g","pricing_plan_id":"cebpf4jnsgd1na2vs0mg"},{"bike_id":"38d01765-5414-4f3d-b96c-a482eae367ca","system_id":"levelo_inurba_marseille","lat":43.217555,"lon":5.346042,"is_reserved":false,"is_disabled":true,"rental_uris":{"android":"levelo://app?vid=38d01765-5414-4f3d-b96c-a482eae367ca","ios":"levelo://app?vid=38d01765-5414-4f3d-b96c-a482eae367ca"},"vehicle_type_id":"4","last_reported":1751144935,"current_range_meters":0,"station_id":"st_cvj6r9ubvosntc0bgbag","pricing_plan_id":"cebpf4jnsgd1na2vs0mg"},{"bike_id":"070a5204-3e73-4cf5-9fda-520c8795969f","system_id":"levelo_inurba_marseille","lat":43.21779,"lon":5.34592,"is_reserved":false,"is_disabled":true,"rental_uris":{"android":"levelo://app?vid=070a5204-3e73-4cf5-9fda-520c8795969f","ios":"levelo://app?vid=070a5204-3e73-4cf5-9fda-520c8795969f"},"vehicle_type_id":"4","last_reported":1751144935,"current_range_meters":0,"station_id":"st_cvj6r9ubvosntc0bgbag","pricing_plan_id":"cebpf4jnsgd1na2vs0mg"},{"bike_id":"9ad4f58d-90c6-4f98-9852-ac5d3f204c6a","system_id":"levelo_inurba_marseille","lat":43.29793,"lon":5.3808,"is_reserved":false,"is_disabled":true,"rental_uris":{"android":"levelo://app?vid=9ad4f58d-90c6-4f98-9852-ac5d3f204c6a","ios":"levelo://app?vid=9ad4f58d-90c6-4f98-9852-ac5d3f204c6a"},"vehicle_type_id":"4","last_reported":1751144935,"current_range_meters":400,"station_id":"ce4bgip2rcd13ifvqbb0","pricing_plan_id":"cebpf4jnsgd1na2vs0mg"},{"bike_id":"53f760d9-2926-4c0b-9078-ae8706c81b5c","system_id":"levelo_inurba_marseille","lat":43.21722,"lon":5.34619,"is_reserved":false,"is_disabled":true,"rental_uris":{"android":"levelo://app?vid=53f760d9-2926-4c0b-9078-ae8706c81b5c","ios":"levelo://app?vid=53f760d9-2926-4c0b-9078-ae8706c81b5c"},"vehicle_type_id":"4","last_reported":1751144935,"current_range_meters":400,"station_id":"st_cvj6r9ubvosntc0bgbag","pricing_plan_id":"cebpf4jnsgd1na2vs0mg"},{"bike_id":"3ed97791-4fd1-4beb-9e6b-4998740d59d9","system_id":"levelo_inurba_marseille","lat":43.271719,"lon":5.410008,"is_reserved":false,"is_disabled":true,"rental_uris":{"android":"levelo://app?vid=3ed97791-4fd1-4beb-9e6b-4998740d59d9","ios":"levelo://app?vid=3ed97791-4fd1-4beb-9e6b-4998740d59d9"},"vehicle_type_id":"4","last_reported":1751144935,"current_range_meters":800,"station_id":"","pricing_plan_id":"cebpf4jnsgd1na2vs0mg"},{"bike_id":"7d8e6877-a9cb-433d-88e4-69ce31574ef0","system_id":"levelo_inurba_marseille","lat":43.27918,"lon":5.39575,"is_reserved":false,"is_disabled":true,"rental_uris":{"android":"levelo://app?vid=7d8e6877-a9cb-433d-88e4-69ce31574ef0","ios":"levelo://app?vid=7d8e6877-a9cb-433d-88e4-69ce31574ef0"},"vehicle_type_id":"4","last_reported":1751144935,"current_range_meters":800,"station_id":"ce4bhf92rcd13ifvqf40","pricing_plan_id":"cebpf4jnsgd1na2vs0mg"},{"bike_id":"a8a3bc36-e5a3-4fb8-a368-7dc24cc902bc","system_id":"levelo_inurba_marseille","lat":43.26221,"lon":5.37461,"is_reserved":false,"is_disabled":true,"rental_uris":{"android":"levelo://app?vid=a8a3bc36-e5a3-4fb8-a368-7dc24cc902bc","ios":"levelo://app?vid=a8a3bc36-e5a3-4fb8-a368-7dc24cc902bc"},"vehicle_type_id":"4","last_reported":1751144935,"current_range_meters":800,"station_id":"ce4bhgp2rcd13ifvqfc0","pricing_plan_id":"cebpf4jnsgd1na2vs0mg"},{"bike_id":"d362d02d-128e-4cca-a1a9-f3b988a32336","system_id":"levelo_inurba_marseille","lat":43.22911,"lon":5.35394,"is_reserved":false,"is_disabled":true,"rental_uris":{"android":"levelo://app?vid=d362d02d-128e-4cca-a1a9-f3b988a32336","ios":"levelo://app?vid=d362d02d-128e-4cca-a1a9-f3b988a32336"},"vehicle_type_id":"4","last_reported":1751144935,"current_range_meters":800,"station_id":"cpo3532slgdg3j2ikp40","pricing_plan_id":"cebpf4jnsgd1na2vs0mg"},{"bike_id":"d91e7bb0-a291-4df0-86ce-38afac617fd6","system_id":"levelo_inurba_marseille","lat":43.313585,"lon":5.367175,"is_reserved":false,"is_disabled":true,"rental_uris":{"android":"levelo://app?vid=d91e7bb0-a291-4df0-86ce-38afac617fd6","ios":"levelo://app?vid=d91e7bb0-a291-4df0-86ce-38afac617fd6"},"vehicle_type_id":"4","last_reported":1751144935,"current_range_meters":1600,"station_id":"ce4bgr92rcd13ifvqc6g","pricing_plan_id":"cebpf4jnsgd1na2vs0mg"},{"bike_id":"aaef30a0-0621-495c-9f36-168c802b4cf1","system_id":"levelo_inurba_marseille","lat":43.26504,"lon":5.39537,"is_reserved":false,"is_disabled":true,"rental_uris":{"android":"levelo://app?vid=aaef30a0-0621-495c-9f36-168c802b4cf1","ios":"levelo://app?vid=aaef30a0-0621-495c-9f36-168c802b4cf1"},"vehicle_type_id":"4","last_reported":1751144935,"current_range_meters":1600,"station_id":"ce4bhi12rcd13ifvqfq0","pricing_plan_id":"cebpf4jnsgd1na2vs0mg"},{"bike_id":"7c4b24a6-74e0-4139-a951-20f07aa1b949","system_id":"levelo_inurba_marseille","lat":43.30677,"lon":5.40027,"is_reserved":false,"is_disabled":true,"rental_uris":{"android":"levelo://app?vid=7c4b24a6-74e0-4139-a951-20f07aa1b949","ios":"levelo://app?vid=7c4b24a6-74e0-4139-a951-20f07aa1b949"},"vehicle_type_id":"4","last_reported":1751144935,"current_range_meters":2000,"station_id":"","pricing_plan_id":"cebpf4jnsgd1na2vs0mg"},{"bike_id":"f3704f67-b4b1-49be-9573-0a4b495c4608","system_id":"levelo_inurba_marseille","lat":43.26209,"lon":5.37437,"is_reserved":false,"is_disabled":true,"rental_uris":{"android":"levelo://app?vid=f3704f67-b4b1-49be-9573-0a4b495c4608","ios":"levelo://app?vid=f3704f67-b4b1-49be-9573-0a4b495c4608"},"vehicle_type_id":"4","last_reported":1751144935,"current_range_meters":2000,"station_id":"ce4bhgp2rcd13ifvqfc0","pricing_plan_id":"cebpf4jnsgd1na2vs0mg"},{"bike_id":"a5ca25dd-864c-4247-8718-327d2c5c82cf","system_id":"levelo_inurba_marseille","lat":43.30604,"lon":5.3722,"is_reserved":false,"is_disabled":true,"rental_uris":{"android":"levelo://app?vid=a5ca25dd-864c-4247-8718-327d2c5c82cf","ios":"levelo://app?vid=a5ca25dd-864c-4247-8718-327d2c5c82cf"},"vehicle_type_id":"4","last_reported":1751144935,"current_range_meters":2800,"station_id":"ce4bgqh2rcd13ifvqc4g","pricing_plan_id":"cebpf4jnsgd1na2vs0mg"},{"bike_id":"f61ecb11-b4ba-454c-964a-a5f3dae6c852","system_id":"levelo_inurba_marseille","lat":43.29887,"lon":5.38895,"is_reserved":false,"is_disabled":false,"rental_uris":{"android":"levelo://app?vid=f61ecb11-b4ba-454c-964a-a5f3dae6c852","ios":"levelo://app?vid=f61ecb11-b4ba-454c-964a-a5f3dae6c852"},"vehicle_type_id":"4","last_reported":1751144935,"current_range_meters":4000,"station_id":"ce4bh392rcd13ifvqdl0","pricing_plan_id":"cebpf4jnsgd1na2vs0mg"},{"bike_id":"73a03650-973e-42b0-bad4-545481e15f73","system_id":"levelo_inurba_marseille","lat":43.31233,"lon":5.39063,"is_reserved":false,"is_disabled":false,"rental_uris":{"android":"levelo://app?vid=73a03650-973e-42b0-bad4-545481e15f73","ios":"levelo://app?vid=73a03650-973e-42b0-bad4-545481e15f73"},"vehicle_type_id":"4","last_reported":1751144935,"current_range_meters":4400,"station_id":"","pricing_plan_id":"cebpf4jnsgd1na2vs0mg"},{"bike_id":"bb8962de-981f-454e-aa70-24faaf71f12b","system_id":"levelo_inurba_marseille","lat":43.29967,"lon":5.38494,"is_reserved":false,"is_disabled":false,"rental_uris":{"android":"levelo://app?vid=bb8962de-981f-454e-aa70-24faaf71f12b","ios":"levelo://app?vid=bb8962de-981f-454e-aa70-24faaf71f12b"},"vehicle_type_id":"4","last_reported":1751144935,"current_range_meters":4400,"station_id":"ce4bgj92rcd13ifvqbd0","pricing_plan_id":"cebpf4jnsgd1na2vs0mg"},{"bike_id":"89da4245-cca7-4b98-bfc0-199cce3026ab","system_id":"levelo_inurba_marseille","lat":43.217425,"lon":5.346034,"is_reserved":false,"is_disabled":false,"rental_uris":{"android":"levelo://app?vid=89da4245-cca7-4b98-bfc0-199cce3026ab","ios":"levelo://app?vid=89da4245-cca7-4b98-bfc0-199cce3026ab"},"vehicle_type_id":"4","last_reported":1751144935,"current_range_meters":4800,"station_id":"","pricing_plan_id":"cebpf4jnsgd1na2vs0mg"},{"bike_id":"9eeb7994-befc-45f1-9be8-9adc34c7147a","system_id":"levelo_inurba_marseille","lat":43.289299,"lon":5.366452,"is_reserved":false,"is_disabled":false,"rental_uris":{"android":"levelo://app?vid=9eeb7994-befc-45f1-9be8-9adc34c7147a","ios":"levelo://app?vid=9eeb7994-befc-45f1-9be8-9adc34c7147a"},"vehicle_type_id":"4","last_reported":1751144935,"current_range_meters":4800,"station_id":"ce4bhap2rcd13ifvqek0","pricing_plan_id":"cebpf4jnsgd1na2vs0mg"},{"bike_id":"a440f2f6-8cf8-4348-9ba1-e21002a18a07","system_id":"levelo_inurba_marseille","lat":43.32119,"lon":5.36765,"is_reserved":false,"is_disabled":false,"rental_uris":{"android":"levelo://app?vid=a440f2f6-8cf8-4348-9ba1-e21002a18a07","ios":"levelo://app?vid=a440f2f6-8cf8-4348-9ba1-e21002a18a07"},"vehicle_type_id":"4","last_reported":1751144935,"current_range_meters":5600,"station_id":"ce4bhrh2rcd13ifvqhug","pricing_plan_id":"cebpf4jnsgd1na2vs0mg"},{"bike_id":"e2b323d4-e32d-41de-bbc0-c9c5775ee17e","system_id":"levelo_inurba_marseille","lat":43.30964,"lon":5.39034,"is_reserved":false,"is_disabled":false,"rental_uris":{"android":"levelo://app?vid=e2b323d4-e32d-41de-bbc0-c9c5775ee17e","ios":"levelo://app?vid=e2b323d4-e32d-41de-bbc0-c9c5775ee17e"},"vehicle_type_id":"4","last_reported":1751144935,"current_range_meters":6000,"station_id":"ce4bgup2rcd13ifvqco0","pricing_plan_id":"cebpf4jnsgd1na2vs0mg"},{"bike_id":"452c6f96-de9d-446d-bf16-dd00300b57f2","system_id":"levelo_inurba_marseille","lat":43.294409,"lon":5.397428,"is_reserved":false,"is_disabled":false,"rental_uris":{"android":"levelo://app?vid=452c6f96-de9d-446d-bf16-dd00300b57f2","ios":"levelo://app?vid=452c6f96-de9d-446d-bf16-dd00300b57f2"},"vehicle_type_id":"4","last_reported":1751144935,"current_range_meters":6000,"station_id":"ce4bh3h2rcd13ifvqdo0","pricing_plan_id":"cebpf4jnsgd1na2vs0mg"},{"bike_id":"281c06c7-9aa7-4543-95f4-878f7926a0e9","system_id":"levelo_inurba_marseille","lat":43.25925,"lon":5.40891,"is_reserved":false,"is_disabled":false,"rental_uris":{"android":"levelo://app?vid=281c06c7-9aa7-4543-95f4-878f7926a0e9","ios":"levelo://app?vid=281c06c7-9aa7-4543-95f4-878f7926a0e9"},"vehicle_type_id":"4","last_reported":1751144935,"current_range_meters":6000,"station_id":"ce4bhm92rcd13ifvqglg","pricing_plan_id":"cebpf4jnsgd1na2vs0mg"},{"bike_id":"d93518a7-acea-49d1-8b1d-66917831e25a","system_id":"levelo_inurba_marseille","lat":43.28345,"lon":5.39572,"is_reserved":false,"is_disabled":false,"rental_uris":{"android":"levelo://app?vid=d93518a7-acea-49d1-8b1d-66917831e25a","ios":"levelo://app?vid=d93518a7-acea-49d1-8b1d-66917831e25a"},"vehicle_type_id":"4","last_reported":1751144935,"current_range_meters":6400,"station_id":"","pricing_plan_id":"cebpf4jnsgd1na2vs0mg"},{"bike_id":"b87c2270-9908-4bd1-a583-0da2d0f7eff7","system_id":"levelo_inurba_marseille","lat":43.2846,"lon":5.359,"is_reserved":false,"is_disabled":false,"rental_uris":{"android":"levelo://app?vid=b87c2270-9908-4bd1-a583-0da2d0f7eff7","ios":"levelo://app?vid=b87c2270-9908-4bd1-a583-0da2d0f7eff7"},"vehicle_type_id":"4","last_reported":1751144935,"current_range_meters":6800,"station_id":"ce4bhah2rcd13ifvqei0","pricing_plan_id":"cebpf4jnsgd1na2vs0mg"},{"bike_id":"0ea9a5fa-dfe3-4435-8521-628911f3c041","system_id":"levelo_inurba_marseille","lat":43.23187,"lon":5.35556,"is_reserved":false,"is_disabled":false,"rental_uris":{"android":"levelo://app?vid=0ea9a5fa-dfe3-4435-8521-628911f3c041","ios":"levelo://app?vid=0ea9a5fa-dfe3-4435-8521-628911f3c041"},"vehicle_type_id":"4","last_reported":1751144935,"current_range_meters":6800,"station_id":"ce4bhu92rcd13ifvqi70","pricing_plan_id":"cebpf4jnsgd1na2vs0mg"},{"bike_id":"7991db7f-6230-4ac0-a025-53b04856df95","system_id":"levelo_inurba_marseille","lat":43.22919,"lon":5.35387,"is_reserved":false,"is_disabled":false,"rental_uris":{"android":"levelo://app?vid=7991db7f-6230-4ac0-a025-53b04856df95","ios":"levelo://app?vid=7991db7f-6230-4ac0-a025-53b04856df95"},"vehicle_type_id":"4","last_reported":1751144935,"current_range_meters":6800,"station_id":"cpo3532slgdg3j2ikp40","pricing_plan_id":"cebpf4jnsgd1na2vs0mg"},{"bike_id":"27af4a07-b378-4076-805b-3f43a7bdf98e","system_id":"levelo_inurba_marseille","lat":43.27322,"lon":5.39123,"is_reserved":false,"is_disabled":false,"rental_uris":{"android":"levelo://app?vid=27af4a07-b378-4076-805b-3f43a7bdf98e","ios":"levelo://app?vid=27af4a07-b378-4076-805b-3f43a7bdf98e"},"vehicle_type_id":"4","last_reported":1751144935,"current_range_meters":7200,"station_id":"ce4bhgp2rcd13ifvqfe0","pricing_plan_id":"cebpf4jnsgd1na2vs0mg"},{"bike_id":"44607553-0560-4c94-89f4-01d362ad0104","system_id":"levelo_inurba_marseille","lat":43.32355,"lon":5.38881,"is_reserved":false,"is_disabled":false,"rental_uris":{"android":"levelo://app?vid=44607553-0560-4c94-89f4-01d362ad0104","ios":"levelo://app?vid=44607553-0560-4c94-89f4-01d362ad0104"},"vehicle_type_id":"4","last_reported":1751144935,"current_range_meters":7200,"station_id":"ce4bhqp2rcd13ifvqhog","pricing_plan_id":"cebpf4jnsgd1na2vs0mg"},{"bike_id":"1c8ab180-05fd-405f-9922-b2b2c2d5142f","system_id":"levelo_inurba_marseille","lat":43.32089,"lon":5.36806,"is_reserved":false,"is_disabled":false,"rental_uris":{"android":"levelo://app?vid=1c8ab180-05fd-405f-9922-b2b2c2d5142f","ios":"levelo://app?vid=1c8ab180-05fd-405f-9922-b2b2c2d5142f"},"vehicle_type_id":"4","last_reported":1751144935,"current_range_meters":7200,"station_id":"ce4bhrh2rcd13ifvqhug","pricing_plan_id":"cebpf4jnsgd1na2vs0mg"},{"bike_id":"b9c284bb-85a3-4e0e-893b-566989df9f45","system_id":"levelo_inurba_marseille","lat":43.32496,"lon":5.3655,"is_reserved":false,"is_disabled":false,"rental_uris":{"android":"levelo://app?vid=b9c284bb-85a3-4e0e-893b-566989df9f45","ios":"levelo://app?vid=b9c284bb-85a3-4e0e-893b-566989df9f45"},"vehicle_type_id":"4","last_reported":1751144935,"current_range_meters":7200,"station_id":"ce4bhs12rcd13ifvqhvg","pricing_plan_id":"cebpf4jnsgd1na2vs0mg"},{"bike_id":"454488ea-c8aa-45ee-aeec-e74b301efc9a","system_id":"levelo_inurba_marseille","lat":43.30948,"lon":5.3903,"is_reserved":false,"is_disabled":false,"rental_uris":{"android":"levelo://app?vid=454488ea-c8aa-45ee-aeec-e74b301efc9a","ios":"levelo://app?vid=454488ea-c8aa-45ee-aeec-e74b301efc9a"},"vehicle_type_id":"4","last_reported":1751144935,"current_range_meters":8000,"station_id":"ce4bgup2rcd13ifvqco0","pricing_plan_id":"cebpf4jnsgd1na2vs0mg"},{"bike_id":"001fdb65-7adf-45d8-b172-ccc00924ec85","system_id":"levelo_inurba_marseille","lat":43.2417,"lon":5.36384,"is_reserved":false,"is_disabled":false,"rental_uris":{"android":"levelo://app?vid=001fdb65-7adf-45d8-b172-ccc00924ec85","ios":"levelo://app?vid=001fdb65-7adf-45d8-b172-ccc00924ec85"},"vehicle_type_id":"4","last_reported":1751144935,"current_range_meters":8000,"station_id":"cpo36qri1sfpv3e86is0","pricing_plan_id":"cebpf4jnsgd1na2vs0mg"},{"bike_id":"3a9ca7a2-ebd2-4e5a-9897-913108346e31","system_id":"levelo_inurba_marseille","lat":43.23965,"lon":5.36631,"is_reserved":false,"is_disabled":false,"rental_uris":{"android":"levelo://app?vid=3a9ca7a2-ebd2-4e5a-9897-913108346e31","ios":"levelo://app?vid=3a9ca7a2-ebd2-4e5a-9897-913108346e31"},"vehicle_type_id":"4","last_reported":1751144935,"current_range_meters":8400,"station_id":"ce4bhi12rcd13ifvqfp0","pricing_plan_id":"cebpf4jnsgd1na2vs0mg"},{"bike_id":"a6b8dee1-fa21-496b-918d-908eb6a95ebe","system_id":"levelo_inurba_marseille","lat":43.32657,"lon":5.40988,"is_reserved":false,"is_disabled":false,"rental_uris":{"android":"levelo://app?vid=a6b8dee1-fa21-496b-918d-908eb6a95ebe","ios":"levelo://app?vid=a6b8dee1-fa21-496b-918d-908eb6a95ebe"},"vehicle_type_id":"4","last_reported":1751144935,"current_range_meters":8400,"station_id":"ce4bhpp2rcd13ifvqhgg","pricing_plan_id":"cebpf4jnsgd1na2vs0mg"},{"bike_id":"ff7b050d-8f96-47e0-9ee4-ee887945ed8e","system_id":"levelo_inurba_marseille","lat":43.311123,"lon":5.384423,"is_reserved":false,"is_disabled":false,"rental_uris":{"android":"levelo://app?vid=ff7b050d-8f96-47e0-9ee4-ee887945ed8e","ios":"levelo://app?vid=ff7b050d-8f96-47e0-9ee4-ee887945ed8e"},"vehicle_type_id":"4","last_reported":1751144935,"current_range_meters":8800,"station_id":"","pricing_plan_id":"cebpf4jnsgd1na2vs0mg"},{"bike_id":"5285971f-a60d-4bb6-a928-38856b3aa436","system_id":"levelo_inurba_marseille","lat":43.27525,"lon":5.42392,"is_reserved":false,"is_disabled":false,"rental_uris":{"android":"levelo://app?vid=5285971f-a60d-4bb6-a928-38856b3aa436","ios":"levelo://app?vid=5285971f-a60d-4bb6-a928-38856b3aa436"},"vehicle_type_id":"4","last_reported":1751144935,"current_range_meters":8800,"station_id":"","pricing_plan_id":"cebpf4jnsgd1na2vs0mg"},{"bike_id":"d5e70777-ad97-4594-91b6-43ede9611b14","system_id":"levelo_inurba_marseille","lat":43.32146,"lon":5.36792,"is_reserved":false,"is_disabled":false,"rental_uris":{"android":"levelo://app?vid=d5e70777-ad97-4594-91b6-43ede9611b14","ios":"levelo://app?vid=d5e70777-ad97-4594-91b6-43ede9611b14"},"vehicle_type_id":"4","last_reported":1751144935,"current_range_meters":8800,"station_id":"","pricing_plan_id":"cebpf4jnsgd1na2vs0mg"},{"bike_id":"6ba3c878-96df-47b8-a9d1-e6780e7e3171","system_id":"levelo_inurba_marseille","lat":43.31103,"lon":5.37791,"is_reserved":false,"is_disabled":false,"rental_uris":{"android":"levelo://app?vid=6ba3c878-96df-47b8-a9d1-e6780e7e3171","ios":"levelo://app?vid=6ba3c878-96df-47b8-a9d1-e6780e7e3171"},"vehicle_type_id":"4","last_reported":1751144935,"current_range_meters":8800,"station_id":"ce4bgt92rcd13ifvqcg0","pricing_plan_id":"cebpf4jnsgd1na2vs0mg"},{"bike_id":"a5267c44-1ca3-4b98-aa6b-169664a36ce3","system_id":"levelo_inurba_marseille","lat":43.30954,"lon":5.39046,"is_reserved":false,"is_disabled":false,"rental_uris":{"android":"levelo://app?vid=a5267c44-1ca3-4b98-aa6b-169664a36ce3","ios":"levelo://app?vid=a5267c44-1ca3-4b98-aa6b-169664a36ce3"},"vehicle_type_id":"4","last_reported":1751144935,"current_range_meters":8800,"station_id":"ce4bgup2rcd13ifvqco0","pricing_plan_id":"cebpf4jnsgd1na2vs0mg"},{"bike_id":"4c0c46a1-c15e-4f3b-bbfd-a823f1bd6e24","system_id":"levelo_inurba_marseille","lat":43.286648,"lon":5.38672,"is_reserved":false,"is_disabled":false,"rental_uris":{"android":"levelo://app?vid=4c0c46a1-c15e-4f3b-bbfd-a823f1bd6e24","ios":"levelo://app?vid=4c0c46a1-c15e-4f3b-bbfd-a823f1bd6e24"},"vehicle_type_id":"4","last_reported":1751144935,"current_range_meters":8800,"station_id":"ce4bh492rcd13ifvqdug","pricing_plan_id":"cebpf4jnsgd1na2vs0mg"},{"bike_id":"a2ab9822-d9a2-4205-bed9-7bece2521d87","system_id":"levelo_inurba_marseille","lat":43.27207,"lon":5.39182,"is_reserved":false,"is_disabled":false,"rental_uris":{"android":"levelo://app?vid=a2ab9822-d9a2-4205-bed9-7bece2521d87","ios":"levelo://app?vid=a2ab9822-d9a2-4205-bed9-7bece2521d87"},"vehicle_type_id":"4","last_reported":1751144935,"current_range_meters":8800,"station_id":"ce4bhhp2rcd13ifvqfm0","pricing_plan_id":"cebpf4jnsgd1na2vs0mg"},{"bike_id":"d8a97814-f7b2-4fe8-89cc-19b809e7e23f","system_id":"levelo_inurba_marseille","lat":43.317614,"lon":5.390065,"is_reserved":false,"is_disabled":false,"rental_uris":{"android":"levelo://app?vid=d8a97814-f7b2-4fe8-89cc-19b809e7e23f","ios":"levelo://app?vid=d8a97814-f7b2-4fe8-89cc-19b809e7e23f"},"vehicle_type_id":"4","last_reported":1751144935,"current_range_meters":8800,"station_id":"ce4bhqp2rcd13ifvqhng","pricing_plan_id":"cebpf4jnsgd1na2vs0mg"},{"bike_id":"4d80f981-cab8-4f2b-b447-a854294c2278","system_id":"levelo_inurba_marseille","lat":43.311176,"lon":5.377612,"is_reserved":false,"is_disabled":false,"rental_uris":{"android":"levelo://app?vid=4d80f981-cab8-4f2b-b447-a854294c2278","ios":"levelo://app?vid=4d80f981-cab8-4f2b-b447-a854294c2278"},"vehicle_type_id":"4","last_reported":1751144935,"current_range_meters":9200,"station_id":"ce4bgt92rcd13ifvqcg0","pricing_plan_id":"cebpf4jnsgd1na2vs0mg"},{"bike_id":"a66cd8fa-3527-4dc5-8ba5-410dc16c2168","system_id":"levelo_inurba_marseille","lat":43.29068,"lon":5.37176,"is_reserved":false,"is_disabled":false,"rental_uris":{"android":"levelo://app?vid=a66cd8fa-3527-4dc5-8ba5-410dc16c2168","ios":"levelo://app?vid=a66cd8fa-3527-4dc5-8ba5-410dc16c2168"},"vehicle_type_id":"4","last_reported":1751144935,"current_range_meters":9200,"station_id":"ce4bh5p2rcd13ifvqe4g","pricing_plan_id":"cebpf4jnsgd1na2vs0mg"},{"bike_id":"8dd70c90-ab14-4738-8281-f0ac06e3f78c","system_id":"levelo_inurba_marseille","lat":43.26682,"lon":5.3826,"is_reserved":false,"is_disabled":false,"rental_uris":{"android":"levelo://app?vid=8dd70c90-ab14-4738-8281-f0ac06e3f78c","ios":"levelo://app?vid=8dd70c90-ab14-4738-8281-f0ac06e3f78c"},"vehicle_type_id":"4","last_reported":1751144935,"current_range_meters":9200,"station_id":"ce4bhg92rcd13ifvqf90","pricing_plan_id":"cebpf4jnsgd1na2vs0mg"},{"bike_id":"5706406e-9b77-4233-8b67-d72ef2f4152d","system_id":"levelo_inurba_marseille","lat":43.2602,"lon":5.37567,"is_reserved":false,"is_disabled":false,"rental_uris":{"android":"levelo://app?vid=5706406e-9b77-4233-8b67-d72ef2f4152d","ios":"levelo://app?vid=5706406e-9b77-4233-8b67-d72ef2f4152d"},"vehicle_type_id":"4","last_reported":1751144935,"current_range_meters":9200,"station_id":"ce4bhgh2rcd13ifvqfa0","pricing_plan_id":"cebpf4jnsgd1na2vs0mg"},{"bike_id":"a33042c5-f64c-48c9-8100-cbcc3ee4bdb9","system_id":"levelo_inurba_marseille","lat":43.24811,"lon":5.37454,"is_reserved":false,"is_disabled":false,"rental_uris":{"android":"levelo://app?vid=a33042c5-f64c-48c9-8100-cbcc3ee4bdb9","ios":"levelo://app?vid=a33042c5-f64c-48c9-8100-cbcc3ee4bdb9"},"vehicle_type_id":"4","last_reported":1751144935,"current_range_meters":9200,"station_id":"ce4bhgh2rcd13ifvqfb0","pricing_plan_id":"cebpf4jnsgd1na2vs0mg"},{"bike_id":"b42ea0c2-d9b6-4da1-8944-8baf9807963e","system_id":"levelo_inurba_marseille","lat":43.262123,"lon":5.374407,"is_reserved":false,"is_disabled":false,"rental_uris":{"android":"levelo://app?vid=b42ea0c2-d9b6-4da1-8944-8baf9807963e","ios":"levelo://app?vid=b42ea0c2-d9b6-4da1-8944-8baf9807963e"},"vehicle_type_id":"4","last_reported":1751144935,"current_range_meters":9200,"station_id":"ce4bhgp2rcd13ifvqfc0","pricing_plan_id":"cebpf4jnsgd1na2vs0mg"},{"bike_id":"a262b0ea-69a7-4e8d-854e-8e63afa111e4","system_id":"levelo_inurba_marseille","lat":43.24166,"lon":5.36388,"is_reserved":false,"is_disabled":false,"rental_uris":{"android":"levelo://app?vid=a262b0ea-69a7-4e8d-854e-8e63afa111e4","ios":"levelo://app?vid=a262b0ea-69a7-4e8d-854e-8e63afa111e4"},"vehicle_type_id":"4","last_reported":1751144935,"current_range_meters":9200,"station_id":"cpo36qri1sfpv3e86is0","pricing_plan_id":"cebpf4jnsgd1na2vs0mg"},{"bike_id":"e6ce70f7-9138-485c-a4db-2c9174614cff","system_id":"levelo_inurba_marseille","lat":43.31776,"lon":5.36844,"is_reserved":false,"is_disabled":false,"rental_uris":{"android":"levelo://app?vid=e6ce70f7-9138-485c-a4db-2c9174614cff","ios":"levelo://app?vid=e6ce70f7-9138-485c-a4db-2c9174614cff"},"vehicle_type_id":"4","last_reported":1751144935,"current_range_meters":9600,"station_id":"","pricing_plan_id":"cebpf4jnsgd1na2vs0mg"},{"bike_id":"bbc4a376-bee7-4ad5-a49a-1022d27c1489","system_id":"levelo_inurba_marseille","lat":43.32052,"lon":5.36802,"is_reserved":false,"is_disabled":false,"rental_uris":{"android":"levelo://app?vid=bbc4a376-bee7-4ad5-a49a-1022d27c1489","ios":"levelo://app?vid=bbc4a376-bee7-4ad5-a49a-1022d27c1489"},"vehicle_type_id":"4","last_reported":1751144935,"current_range_meters":9600,"station_id":"","pricing_plan_id":"cebpf4jnsgd1na2vs0mg"},{"bike_id":"968c63f7-cb0f-402e-81c7-69fe353a1372","system_id":"levelo_inurba_marseille","lat":43.309335,"lon":5.390408,"is_reserved":false,"is_disabled":false,"rental_uris":{"android":"levelo://app?vid=968c63f7-cb0f-402e-81c7-69fe353a1372","ios":"levelo://app?vid=968c63f7-cb0f-402e-81c7-69fe353a1372"},"vehicle_type_id":"4","last_reported":1751144935,"current_range_meters":9600,"station_id":"ce4bgup2rcd13ifvqco0","pricing_plan_id":"cebpf4jnsgd1na2vs0mg"},{"bike_id":"909f6574-fc05-4763-81b6-140892a682ea","system_id":"levelo_inurba_marseille","lat":43.31075,"lon":5.38349,"is_reserved":false,"is_disabled":false,"rental_uris":{"android":"levelo://app?vid=909f6574-fc05-4763-81b6-140892a682ea","ios":"levelo://app?vid=909f6574-fc05-4763-81b6-140892a682ea"},"vehicle_type_id":"4","last_reported":1751144935,"current_range_meters":9600,"station_id":"ce4bgv92rcd13ifvqcr0","pricing_plan_id":"cebpf4jnsgd1na2vs0mg"},{"bike_id":"42b6f9cf-8722-4df0-9487-1709586295f8","system_id":"levelo_inurba_marseille","lat":43.28036,"lon":5.3695,"is_reserved":false,"is_disabled":false,"rental_uris":{"android":"levelo://app?vid=42b6f9cf-8722-4df0-9487-1709586295f8","ios":"levelo://app?vid=42b6f9cf-8722-4df0-9487-1709586295f8"},"vehicle_type_id":"4","last_reported":1751144935,"current_range_meters":9600,"station_id":"ce4bha12rcd13ifvqef0","pricing_plan_id":"cebpf4jnsgd1na2vs0mg"},{"bike_id":"1c8538ae-ee59-4003-84ed-9fafd179dbf3","system_id":"levelo_inurba_marseille","lat":43.29169,"lon":5.37162,"is_reserved":false,"is_disabled":false,"rental_uris":{"android":"levelo://app?vid=1c8538ae-ee59-4003-84ed-9fafd179dbf3","ios":"levelo://app?vid=1c8538ae-ee59-4003-84ed-9fafd179dbf3"},"vehicle_type_id":"4","last_reported":1751144935,"current_range_meters":9600,"station_id":"ce4bha92rcd13ifvqeh0","pricing_plan_id":"cebpf4jnsgd1na2vs0mg"},{"bike_id":"873facc6-e7b7-4624-96bf-88db65f80e31","system_id":"levelo_inurba_marseille","lat":43.26559,"lon":5.37279,"is_reserved":false,"is_disabled":false,"rental_uris":{"android":"levelo://app?vid=873facc6-e7b7-4624-96bf-88db65f80e31","ios":"levelo://app?vid=873facc6-e7b7-4624-96bf-88db65f80e31"},"vehicle_type_id":"4","last_reported":1751144935,"current_range_meters":9600,"station_id":"ce4bhg12rcd13ifvqf70","pricing_plan_id":"cebpf4jnsgd1na2vs0mg"},{"bike_id":"579ee661-ccf3-4fea-b854-553310655910","system_id":"levelo_inurba_marseille","lat":43.27313,"lon":5.39096,"is_reserved":false,"is_disabled":false,"rental_uris":{"android":"levelo://app?vid=579ee661-ccf3-4fea-b854-553310655910","ios":"levelo://app?vid=579ee661-ccf3-4fea-b854-553310655910"},"vehicle_type_id":"4","last_reported":1751144935,"current_range_meters":9600,"station_id":"ce4bhgp2rcd13ifvqfe0","pricing_plan_id":"cebpf4jnsgd1na2vs0mg"},{"bike_id":"702d722a-f871-4eef-a9e9-3fa56f10a781","system_id":"levelo_inurba_marseille","lat":43.25499,"lon":5.3765,"is_reserved":false,"is_disabled":false,"rental_uris":{"android":"levelo://app?vid=702d722a-f871-4eef-a9e9-3fa56f10a781","ios":"levelo://app?vid=702d722a-f871-4eef-a9e9-3fa56f10a781"},"vehicle_type_id":"4","last_reported":1751144935,"current_range_meters":9600,"station_id":"ce4bhh12rcd13ifvqff0","pricing_plan_id":"cebpf4jnsgd1na2vs0mg"},{"bike_id":"afd6e774-29f8-4928-9b0e-b3dcf4448abd","system_id":"levelo_inurba_marseille","lat":43.24549,"lon":5.39523,"is_reserved":false,"is_disabled":false,"rental_uris":{"android":"levelo://app?vid=afd6e774-29f8-4928-9b0e-b3dcf4448abd","ios":"levelo://app?vid=afd6e774-29f8-4928-9b0e-b3dcf4448abd"},"vehicle_type_id":"4","last_reported":1751144935,"current_range_meters":9600,"station_id":"ce4bhlp2rcd13ifvqgjg","pricing_plan_id":"cebpf4jnsgd1na2vs0mg"},{"bike_id":"78251f3f-e94c-4386-907a-18bf54dc8d3d","system_id":"levelo_inurba_marseille","lat":43.28154,"lon":5.42646,"is_reserved":false,"is_disabled":false,"rental_uris":{"android":"levelo://app?vid=78251f3f-e94c-4386-907a-18bf54dc8d3d","ios":"levelo://app?vid=78251f3f-e94c-4386-907a-18bf54dc8d3d"},"vehicle_type_id":"4","last_reported":1751144935,"current_range_meters":9600,"station_id":"ce4bhnh2rcd13ifvqgug","pricing_plan_id":"cebpf4jnsgd1na2vs0mg"},{"bike_id":"502720d8-e1e4-4497-9d26-60f41883627b","system_id":"levelo_inurba_marseille","lat":43.28715,"lon":5.3739,"is_reserved":false,"is_disabled":false,"rental_uris":{"android":"levelo://app?vid=502720d8-e1e4-4497-9d26-60f41883627b","ios":"levelo://app?vid=502720d8-e1e4-4497-9d26-60f41883627b"},"vehicle_type_id":"4","last_reported":1751144935,"current_range_meters":10000,"station_id":"ce4bh3p2rcd13ifvqdq0","pricing_plan_id":"cebpf4jnsgd1na2vs0mg"},{"bike_id":"ace1cb08-417f-41c4-a9c1-32e38bd713e1","system_id":"levelo_inurba_marseille","lat":43.26031,"lon":5.37535,"is_reserved":false,"is_disabled":false,"rental_uris":{"android":"levelo://app?vid=ace1cb08-417f-41c4-a9c1-32e38bd713e1","ios":"levelo://app?vid=ace1cb08-417f-41c4-a9c1-32e38bd713e1"},"vehicle_type_id":"4","last_reported":1751144935,"current_range_meters":10000,"station_id":"ce4bhgh2rcd13ifvqfa0","pricing_plan_id":"cebpf4jnsgd1na2vs0mg"},{"bike_id":"13726ea4-91b3-4b24-87ce-db653217d50c","system_id":"levelo_inurba_marseille","lat":43.32157,"lon":5.36781,"is_reserved":false,"is_disabled":false,"rental_uris":{"android":"levelo://app?vid=13726ea4-91b3-4b24-87ce-db653217d50c","ios":"levelo://app?vid=13726ea4-91b3-4b24-87ce-db653217d50c"},"vehicle_type_id":"4","last_reported":1751144935,"current_range_meters":10000,"station_id":"ce4bhrh2rcd13ifvqhug","pricing_plan_id":"cebpf4jnsgd1na2vs0mg"},{"bike_id":"44b677c8-76ed-4eac-8888-58151f9d5d6e","system_id":"levelo_inurba_marseille","lat":43.31959,"lon":5.36758,"is_reserved":false,"is_disabled":false,"rental_uris":{"android":"levelo://app?vid=44b677c8-76ed-4eac-8888-58151f9d5d6e","ios":"levelo://app?vid=44b677c8-76ed-4eac-8888-58151f9d5d6e"},"vehicle_type_id":"4","last_reported":1751144935,"current_range_meters":10800,"station_id":"","pricing_plan_id":"cebpf4jnsgd1na2vs0mg"},{"bike_id":"778a54bb-0cdb-4406-a43d-04dcbdbf1c24","system_id":"levelo_inurba_marseille","lat":43.29538,"lon":5.392347,"is_reserved":false,"is_disabled":false,"rental_uris":{"android":"levelo://app?vid=778a54bb-0cdb-4406-a43d-04dcbdbf1c24","ios":"levelo://app?vid=778a54bb-0cdb-4406-a43d-04dcbdbf1c24"},"vehicle_type_id":"4","last_reported":1751144935,"current_range_meters":10800,"station_id":"ce4bh0h2rcd13ifvqd60","pricing_plan_id":"cebpf4jnsgd1na2vs0mg"},{"bike_id":"f1e9bf0e-7951-482a-abda-2e91998c7c8b","system_id":"levelo_inurba_marseille","lat":43.28711,"lon":5.37377,"is_reserved":false,"is_disabled":false,"rental_uris":{"android":"levelo://app?vid=f1e9bf0e-7951-482a-abda-2e91998c7c8b","ios":"levelo://app?vid=f1e9bf0e-7951-482a-abda-2e91998c7c8b"},"vehicle_type_id":"4","last_reported":1751144935,"current_range_meters":10800,"station_id":"ce4bh3p2rcd13ifvqdq0","pricing_plan_id":"cebpf4jnsgd1na2vs0mg"},{"bike_id":"ddc32f42-6c6b-4efd-b624-808533ea3c9e","system_id":"levelo_inurba_marseille","lat":43.26202,"lon":5.37434,"is_reserved":false,"is_disabled":false,"rental_uris":{"android":"levelo://app?vid=ddc32f42-6c6b-4efd-b624-808533ea3c9e","ios":"levelo://app?vid=ddc32f42-6c6b-4efd-b624-808533ea3c9e"},"vehicle_type_id":"4","last_reported":1751144935,"current_range_meters":10800,"station_id":"ce4bhgp2rcd13ifvqfc0","pricing_plan_id":"cebpf4jnsgd1na2vs0mg"},{"bike_id":"afc5db3e-0ec2-4fcc-8e74-cd2c8402cc54","system_id":"levelo_inurba_marseille","lat":43.287253,"lon":5.36097,"is_reserved":false,"is_disabled":false,"rental_uris":{"android":"levelo://app?vid=afc5db3e-0ec2-4fcc-8e74-cd2c8402cc54","ios":"levelo://app?vid=afc5db3e-0ec2-4fcc-8e74-cd2c8402cc54"},"vehicle_type_id":"4","last_reported":1751144935,"current_range_meters":10800,"station_id":"cki0cbj6b192h4jlfktg","pricing_plan_id":"cebpf4jnsgd1na2vs0mg"},{"bike_id":"fcc46504-cca5-4295-a4f6-1c02e2e46c6a","system_id":"levelo_inurba_marseille","lat":43.262073,"lon":5.374455,"is_reserved":false,"is_disabled":false,"rental_uris":{"android":"levelo://app?vid=fcc46504-cca5-4295-a4f6-1c02e2e46c6a","ios":"levelo://app?vid=fcc46504-cca5-4295-a4f6-1c02e2e46c6a"},"vehicle_type_id":"4","last_reported":1751144935,"current_range_meters":11200,"station_id":"","pricing_plan_id":"cebpf4jnsgd1na2vs0mg"},{"bike_id":"07b3984a-2889-4253-99cf-c5ef4530e935","system_id":"levelo_inurba_marseille","lat":43.29416,"lon":5.386098,"is_reserved":false,"is_disabled":false,"rental_uris":{"android":"levelo://app?vid=07b3984a-2889-4253-99cf-c5ef4530e935","ios":"levelo://app?vid=07b3984a-2889-4253-99cf-c5ef4530e935"},"vehicle_type_id":"4","last_reported":1751144935,"current_range_meters":11200,"station_id":"ce4bh2h2rcd13ifvqdh0","pricing_plan_id":"cebpf4jnsgd1na2vs0mg"},{"bike_id":"478815ad-e68f-4462-89a1-9ff6feffddc9","system_id":"levelo_inurba_marseille","lat":43.29252,"lon":5.38438,"is_reserved":false,"is_disabled":false,"rental_uris":{"android":"levelo://app?vid=478815ad-e68f-4462-89a1-9ff6feffddc9","ios":"levelo://app?vid=478815ad-e68f-4462-89a1-9ff6feffddc9"},"vehicle_type_id":"4","last_reported":1751144935,"current_range_meters":11200,"station_id":"ce4bh692rcd13ifvqea0","pricing_plan_id":"cebpf4jnsgd1na2vs0mg"},{"bike_id":"c6240266-1b1a-408e-aa67-c6560b60d809","system_id":"levelo_inurba_marseille","lat":43.23961,"lon":5.36623,"is_reserved":false,"is_disabled":false,"rental_uris":{"android":"levelo://app?vid=c6240266-1b1a-408e-aa67-c6560b60d809","ios":"levelo://app?vid=c6240266-1b1a-408e-aa67-c6560b60d809"},"vehicle_type_id":"4","last_reported":1751144935,"current_range_meters":11200,"station_id":"ce4bhi12rcd13ifvqfp0","pricing_plan_id":"cebpf4jnsgd1na2vs0mg"},{"bike_id":"873ce198-d36d-4815-8778-b72bd2ca0116","system_id":"levelo_inurba_marseille","lat":43.32124,"lon":5.36769,"is_reserved":false,"is_disabled":false,"rental_uris":{"android":"levelo://app?vid=873ce198-d36d-4815-8778-b72bd2ca0116","ios":"levelo://app?vid=873ce198-d36d-4815-8778-b72bd2ca0116"},"vehicle_type_id":"4","last_reported":1751144935,"current_range_meters":11200,"station_id":"ce4bhrh2rcd13ifvqhug","pricing_plan_id":"cebpf4jnsgd1na2vs0mg"},{"bike_id":"962af267-d53f-46b3-80f5-26c7fbd343ce","system_id":"levelo_inurba_marseille","lat":43.225,"lon":5.34794,"is_reserved":false,"is_disabled":false,"rental_uris":{"android":"levelo://app?vid=962af267-d53f-46b3-80f5-26c7fbd343ce","ios":"levelo://app?vid=962af267-d53f-46b3-80f5-26c7fbd343ce"},"vehicle_type_id":"4","last_reported":1751144935,"current_range_meters":11200,"station_id":"st_cvj5dfep6f1abm77gieg","pricing_plan_id":"cebpf4jnsgd1na2vs0mg"},{"bike_id":"13fabc0f-5bfd-4dc8-9136-84b1659cd66b","system_id":"levelo_inurba_marseille","lat":43.211869,"lon":5.350487,"is_reserved":false,"is_disabled":false,"rental_uris":{"android":"levelo://app?vid=13fabc0f-5bfd-4dc8-9136-84b1659cd66b","ios":"levelo://app?vid=13fabc0f-5bfd-4dc8-9136-84b1659cd66b"},"vehicle_type_id":"4","last_reported":1751144935,"current_range_meters":11200,"station_id":"st_cvj6sg6p6f1abm77japg","pricing_plan_id":"cebpf4jnsgd1na2vs0mg"},{"bike_id":"12c7fc9f-7c7b-4185-9b2f-badd0c17e36b","system_id":"levelo_inurba_marseille","lat":43.24737,"lon":5.37447,"is_reserved":false,"is_disabled":false,"rental_uris":{"android":"levelo://app?vid=12c7fc9f-7c7b-4185-9b2f-badd0c17e36b","ios":"levelo://app?vid=12c7fc9f-7c7b-4185-9b2f-badd0c17e36b"},"vehicle_type_id":"4","last_reported":1751144935,"current_range_meters":11600,"station_id":"","pricing_plan_id":"cebpf4jnsgd1na2vs0mg"},{"bike_id":"721165c1-ef6f-40cc-8d33-af3a7999864b","system_id":"levelo_inurba_marseille","lat":43.326032,"lon":5.378654,"is_reserved":false,"is_disabled":false,"rental_uris":{"android":"levelo://app?vid=721165c1-ef6f-40cc-8d33-af3a7999864b","ios":"levelo://app?vid=721165c1-ef6f-40cc-8d33-af3a7999864b"},"vehicle_type_id":"4","last_reported":1751144935,"current_range_meters":11600,"station_id":"","pricing_plan_id":"cebpf4jnsgd1na2vs0mg"},{"bike_id":"f0b8e7db-d8dd-4574-b97e-3971706fcdfd","system_id":"levelo_inurba_marseille","lat":43.31122,"lon":5.37763,"is_reserved":false,"is_disabled":false,"rental_uris":{"android":"levelo://app?vid=f0b8e7db-d8dd-4574-b97e-3971706fcdfd","ios":"levelo://app?vid=f0b8e7db-d8dd-4574-b97e-3971706fcdfd"},"vehicle_type_id":"4","last_reported":1751144935,"current_range_meters":11600,"station_id":"ce4bgt92rcd13ifvqcg0","pricing_plan_id":"cebpf4jnsgd1na2vs0mg"},{"bike_id":"a63f8bfa-3fba-4d8c-bbb0-738faae29dff","system_id":"levelo_inurba_marseille","lat":43.29385,"lon":5.38631,"is_reserved":false,"is_disabled":false,"rental_uris":{"android":"levelo://app?vid=a63f8bfa-3fba-4d8c-bbb0-738faae29dff","ios":"levelo://app?vid=a63f8bfa-3fba-4d8c-bbb0-738faae29dff"},"vehicle_type_id":"4","last_reported":1751144935,"current_range_meters":11600,"station_id":"ce4bh2h2rcd13ifvqdh0","pricing_plan_id":"cebpf4jnsgd1na2vs0mg"},{"bike_id":"071d9ad8-79e9-447b-b25c-0a0463116df8","system_id":"levelo_inurba_marseille","lat":43.23841,"lon":5.36556,"is_reserved":false,"is_disabled":false,"rental_uris":{"android":"levelo://app?vid=071d9ad8-79e9-447b-b25c-0a0463116df8","ios":"levelo://app?vid=071d9ad8-79e9-447b-b25c-0a0463116df8"},"vehicle_type_id":"4","last_reported":1751144935,"current_range_meters":12000,"station_id":"","pricing_plan_id":"cebpf4jnsgd1na2vs0mg"},{"bike_id":"b6c17596-c221-4b1a-ad78-66aca16ace4c","system_id":"levelo_inurba_marseille","lat":43.29205,"lon":5.3932,"is_reserved":false,"is_disabled":false,"rental_uris":{"android":"levelo://app?vid=b6c17596-c221-4b1a-ad78-66aca16ace4c","ios":"levelo://app?vid=b6c17596-c221-4b1a-ad78-66aca16ace4c"},"vehicle_type_id":"4","last_reported":1751144935,"current_range_meters":12000,"station_id":"ce4bh192rcd13ifvqdd0","pricing_plan_id":"cebpf4jnsgd1na2vs0mg"},{"bike_id":"14e8ef37-e834-4d76-9946-e98f7a083a2f","system_id":"levelo_inurba_marseille","lat":43.21188,"lon":5.35075,"is_reserved":false,"is_disabled":false,"rental_uris":{"android":"levelo://app?vid=14e8ef37-e834-4d76-9946-e98f7a083a2f","ios":"levelo://app?vid=14e8ef37-e834-4d76-9946-e98f7a083a2f"},"vehicle_type_id":"4","last_reported":1751144935,"current_range_meters":12000,"station_id":"st_cvj6sg6p6f1abm77japg","pricing_plan_id":"cebpf4jnsgd1na2vs0mg"},{"bike_id":"9ed47e43-f340-44f7-be71-f80b2c913341","system_id":"levelo_inurba_marseille","lat":43.292649,"lon":5.384092,"is_reserved":false,"is_disabled":false,"rental_uris":{"android":"levelo://app?vid=9ed47e43-f340-44f7-be71-f80b2c913341","ios":"levelo://app?vid=9ed47e43-f340-44f7-be71-f80b2c913341"},"vehicle_type_id":"4","last_reported":1751144935,"current_range_meters":12400,"station_id":"","pricing_plan_id":"cebpf4jnsgd1na2vs0mg"},{"bike_id":"87b27205-4efd-4ab2-ad05-e3c3ea2dd5da","system_id":"levelo_inurba_marseille","lat":43.30431,"lon":5.38883,"is_reserved":false,"is_disabled":false,"rental_uris":{"android":"levelo://app?vid=87b27205-4efd-4ab2-ad05-e3c3ea2dd5da","ios":"levelo://app?vid=87b27205-4efd-4ab2-ad05-e3c3ea2dd5da"},"vehicle_type_id":"4","last_reported":1751144935,"current_range_meters":12400,"station_id":"ce4bgk12rcd13ifvqbi0","pricing_plan_id":"cebpf4jnsgd1na2vs0mg"},{"bike_id":"71c8b17a-46db-4e23-a6c9-8e1431beeb56","system_id":"levelo_inurba_marseille","lat":43.30953,"lon":5.3903,"is_reserved":false,"is_disabled":false,"rental_uris":{"android":"levelo://app?vid=71c8b17a-46db-4e23-a6c9-8e1431beeb56","ios":"levelo://app?vid=71c8b17a-46db-4e23-a6c9-8e1431beeb56"},"vehicle_type_id":"4","last_reported":1751144935,"current_range_meters":12400,"station_id":"ce4bgup2rcd13ifvqco0","pricing_plan_id":"cebpf4jnsgd1na2vs0mg"},{"bike_id":"cb3e2143-c3f5-4240-b015-69f3f2bd439a","system_id":"levelo_inurba_marseille","lat":43.3095,"lon":5.39026,"is_reserved":false,"is_disabled":false,"rental_uris":{"android":"levelo://app?vid=cb3e2143-c3f5-4240-b015-69f3f2bd439a","ios":"levelo://app?vid=cb3e2143-c3f5-4240-b015-69f3f2bd439a"},"vehicle_type_id":"4","last_reported":1751144935,"current_range_meters":12400,"station_id":"ce4bgup2rcd13ifvqco0","pricing_plan_id":"cebpf4jnsgd1na2vs0mg"},{"bike_id":"00e3de77-849e-4da6-b812-4c472810f698","system_id":"levelo_inurba_marseille","lat":43.26204,"lon":5.37409,"is_reserved":false,"is_disabled":false,"rental_uris":{"android":"levelo://app?vid=00e3de77-849e-4da6-b812-4c472810f698","ios":"levelo://app?vid=00e3de77-849e-4da6-b812-4c472810f698"},"vehicle_type_id":"4","last_reported":1751144935,"current_range_meters":12400,"station_id":"ce4bhgp2rcd13ifvqfc0","pricing_plan_id":"cebpf4jnsgd1na2vs0mg"},{"bike_id":"a7883090-0e10-4075-944b-a3cca54bc544","system_id":"levelo_inurba_marseille","lat":43.225066,"lon":5.347826,"is_reserved":false,"is_disabled":false,"rental_uris":{"android":"levelo://app?vid=a7883090-0e10-4075-944b-a3cca54bc544","ios":"levelo://app?vid=a7883090-0e10-4075-944b-a3cca54bc544"},"vehicle_type_id":"4","last_reported":1751144935,"current_range_meters":12400,"station_id":"st_cvj5dfep6f1abm77gieg","pricing_plan_id":"cebpf4jnsgd1na2vs0mg"},{"bike_id":"762acdc5-9b99-47a0-bda1-ee8060271245","system_id":"levelo_inurba_marseille","lat":43.21208,"lon":5.351,"is_reserved":false,"is_disabled":false,"rental_uris":{"android":"levelo://app?vid=762acdc5-9b99-47a0-bda1-ee8060271245","ios":"levelo://app?vid=762acdc5-9b99-47a0-bda1-ee8060271245"},"vehicle_type_id":"4","last_reported":1751144935,"current_range_meters":12400,"station_id":"st_cvj6sg6p6f1abm77japg","pricing_plan_id":"cebpf4jnsgd1na2vs0mg"},{"bike_id":"57a97505-7bdd-4ec0-8723-93a1abc5220f","system_id":"levelo_inurba_marseille","lat":43.29913,"lon":5.37469,"is_reserved":false,"is_disabled":false,"rental_uris":{"android":"levelo://app?vid=57a97505-7bdd-4ec0-8723-93a1abc5220f","ios":"levelo://app?vid=57a97505-7bdd-4ec0-8723-93a1abc5220f"},"vehicle_type_id":"4","last_reported":1751144935,"current_range_meters":12800,"station_id":"ce4bgjh2rcd13ifvqbg0","pricing_plan_id":"cebpf4jnsgd1na2vs0mg"},{"bike_id":"939be693-a370-48b7-b180-8f2ad16a27e1","system_id":"levelo_inurba_marseille","lat":43.30308,"lon":5.36896,"is_reserved":false,"is_disabled":false,"rental_uris":{"android":"levelo://app?vid=939be693-a370-48b7-b180-8f2ad16a27e1","ios":"levelo://app?vid=939be693-a370-48b7-b180-8f2ad16a27e1"},"vehicle_type_id":"4","last_reported":1751144935,"current_range_meters":12800,"station_id":"ce4bgqh2rcd13ifvqc5g","pricing_plan_id":"cebpf4jnsgd1na2vs0mg"},{"bike_id":"1c350623-61f7-4641-af5f-5335359a1062","system_id":"levelo_inurba_marseille","lat":43.30946,"lon":5.39069,"is_reserved":false,"is_disabled":false,"rental_uris":{"android":"levelo://app?vid=1c350623-61f7-4641-af5f-5335359a1062","ios":"levelo://app?vid=1c350623-61f7-4641-af5f-5335359a1062"},"vehicle_type_id":"4","last_reported":1751144935,"current_range_meters":12800,"station_id":"ce4bgup2rcd13ifvqco0","pricing_plan_id":"cebpf4jnsgd1na2vs0mg"},{"bike_id":"37d112bb-e09d-4d12-a713-d08975e85879","system_id":"levelo_inurba_marseille","lat":43.29274,"lon":5.3845,"is_reserved":false,"is_disabled":false,"rental_uris":{"android":"levelo://app?vid=37d112bb-e09d-4d12-a713-d08975e85879","ios":"levelo://app?vid=37d112bb-e09d-4d12-a713-d08975e85879"},"vehicle_type_id":"4","last_reported":1751144935,"current_range_meters":12800,"station_id":"ce4bh692rcd13ifvqea0","pricing_plan_id":"cebpf4jnsgd1na2vs0mg"},{"bike_id":"2d9685d4-c859-4936-8905-0013a0b2f613","system_id":"levelo_inurba_marseille","lat":43.27432,"lon":5.39398,"is_reserved":false,"is_disabled":false,"rental_uris":{"android":"levelo://app?vid=2d9685d4-c859-4936-8905-0013a0b2f613","ios":"levelo://app?vid=2d9685d4-c859-4936-8905-0013a0b2f613"},"vehicle_type_id":"4","last_reported":1751144935,"current_range_meters":12800,"station_id":"ce4bhdp2rcd13ifvqf20","pricing_plan_id":"cebpf4jnsgd1na2vs0mg"},{"bike_id":"c61e3ab8-a881-4f8f-b520-a6f9f0d2eab0","system_id":"levelo_inurba_marseille","lat":43.27972,"lon":5.38741,"is_reserved":false,"is_disabled":false,"rental_uris":{"android":"levelo://app?vid=c61e3ab8-a881-4f8f-b520-a6f9f0d2eab0","ios":"levelo://app?vid=c61e3ab8-a881-4f8f-b520-a6f9f0d2eab0"},"vehicle_type_id":"4","last_reported":1751144935,"current_range_meters":12800,"station_id":"ce4bhg12rcd13ifvqf80","pricing_plan_id":"cebpf4jnsgd1na2vs0mg"},{"bike_id":"70903204-ae86-43c8-b28d-586cf241437d","system_id":"levelo_inurba_marseille","lat":43.29793,"lon":5.39348,"is_reserved":false,"is_disabled":false,"rental_uris":{"android":"levelo://app?vid=70903204-ae86-43c8-b28d-586cf241437d","ios":"levelo://app?vid=70903204-ae86-43c8-b28d-586cf241437d"},"vehicle_type_id":"4","last_reported":1751144935,"current_range_meters":12800,"station_id":"chh1huq6cuj3fo74tm60","pricing_plan_id":"cebpf4jnsgd1na2vs0mg"},{"bike_id":"58611ab4-fb06-4bf9-b9c0-c58e28a5a150","system_id":"levelo_inurba_marseille","lat":43.27419,"lon":5.39415,"is_reserved":false,"is_disabled":false,"rental_uris":{"android":"levelo://app?vid=58611ab4-fb06-4bf9-b9c0-c58e28a5a150","ios":"levelo://app?vid=58611ab4-fb06-4bf9-b9c0-c58e28a5a150"},"vehicle_type_id":"4","last_reported":1751144935,"current_range_meters":13600,"station_id":"ce4bhdp2rcd13ifvqf20","pricing_plan_id":"cebpf4jnsgd1na2vs0mg"},{"bike_id":"870e5fb9-c097-4e97-8f15-9764e3c0937f","system_id":"levelo_inurba_marseille","lat":43.27975,"lon":5.38727,"is_reserved":false,"is_disabled":false,"rental_uris":{"android":"levelo://app?vid=870e5fb9-c097-4e97-8f15-9764e3c0937f","ios":"levelo://app?vid=870e5fb9-c097-4e97-8f15-9764e3c0937f"},"vehicle_type_id":"4","last_reported":1751144935,"current_range_meters":13600,"station_id":"ce4bhg12rcd13ifvqf80","pricing_plan_id":"cebpf4jnsgd1na2vs0mg"},{"bike_id":"c4e23027-fb76-4e12-a17a-e866f2d0c4a5","system_id":"levelo_inurba_marseille","lat":43.26021,"lon":5.37543,"is_reserved":false,"is_disabled":false,"rental_uris":{"android":"levelo://app?vid=c4e23027-fb76-4e12-a17a-e866f2d0c4a5","ios":"levelo://app?vid=c4e23027-fb76-4e12-a17a-e866f2d0c4a5"},"vehicle_type_id":"4","last_reported":1751144935,"current_range_meters":13600,"station_id":"ce4bhgh2rcd13ifvqfa0","pricing_plan_id":"cebpf4jnsgd1na2vs0mg"},{"bike_id":"42274c6b-04c6-47ee-bf8a-4ba54b8c42cd","system_id":"levelo_inurba_marseille","lat":43.27323,"lon":5.39054,"is_reserved":false,"is_disabled":false,"rental_uris":{"android":"levelo://app?vid=42274c6b-04c6-47ee-bf8a-4ba54b8c42cd","ios":"levelo://app?vid=42274c6b-04c6-47ee-bf8a-4ba54b8c42cd"},"vehicle_type_id":"4","last_reported":1751144935,"current_range_meters":13600,"station_id":"ce4bhgp2rcd13ifvqfe0","pricing_plan_id":"cebpf4jnsgd1na2vs0mg"},{"bike_id":"91b65e10-0e4e-418a-bcf7-105b8872a5de","system_id":"levelo_inurba_marseille","lat":43.23085,"lon":5.35471,"is_reserved":false,"is_disabled":false,"rental_uris":{"android":"levelo://app?vid=91b65e10-0e4e-418a-bcf7-105b8872a5de","ios":"levelo://app?vid=91b65e10-0e4e-418a-bcf7-105b8872a5de"},"vehicle_type_id":"4","last_reported":1751144935,"current_range_meters":13600,"station_id":"cpo3342slgdg3j2ifvpg","pricing_plan_id":"cebpf4jnsgd1na2vs0mg"},{"bike_id":"f5d1a581-a011-4eaa-8b84-1fa06ced825e","system_id":"levelo_inurba_marseille","lat":43.22936,"lon":5.35376,"is_reserved":false,"is_disabled":false,"rental_uris":{"android":"levelo://app?vid=f5d1a581-a011-4eaa-8b84-1fa06ced825e","ios":"levelo://app?vid=f5d1a581-a011-4eaa-8b84-1fa06ced825e"},"vehicle_type_id":"4","last_reported":1751144935,"current_range_meters":13600,"station_id":"cpo3532slgdg3j2ikp40","pricing_plan_id":"cebpf4jnsgd1na2vs0mg"},{"bike_id":"8e9b1b73-5a6a-41a3-b49b-32feab56bfb3","system_id":"levelo_inurba_marseille","lat":43.29275,"lon":5.40112,"is_reserved":false,"is_disabled":false,"rental_uris":{"android":"levelo://app?vid=8e9b1b73-5a6a-41a3-b49b-32feab56bfb3","ios":"levelo://app?vid=8e9b1b73-5a6a-41a3-b49b-32feab56bfb3"},"vehicle_type_id":"4","last_reported":1751144935,"current_range_meters":14000,"station_id":"ce4bh312rcd13ifvqdk0","pricing_plan_id":"cebpf4jnsgd1na2vs0mg"},{"bike_id":"e9931aff-891f-4ab2-80de-abfe09343716","system_id":"levelo_inurba_marseille","lat":43.26027,"lon":5.37548,"is_reserved":false,"is_disabled":false,"rental_uris":{"android":"levelo://app?vid=e9931aff-891f-4ab2-80de-abfe09343716","ios":"levelo://app?vid=e9931aff-891f-4ab2-80de-abfe09343716"},"vehicle_type_id":"4","last_reported":1751144935,"current_range_meters":14000,"station_id":"ce4bhgh2rcd13ifvqfa0","pricing_plan_id":"cebpf4jnsgd1na2vs0mg"},{"bike_id":"c0a2de0a-20e3-4e62-848e-f0dbd6b2e588","system_id":"levelo_inurba_marseille","lat":43.2251,"lon":5.34788,"is_reserved":false,"is_disabled":false,"rental_uris":{"android":"levelo://app?vid=c0a2de0a-20e3-4e62-848e-f0dbd6b2e588","ios":"levelo://app?vid=c0a2de0a-20e3-4e62-848e-f0dbd6b2e588"},"vehicle_type_id":"4","last_reported":1751144935,"current_range_meters":14000,"station_id":"st_cvj5dfep6f1abm77gieg","pricing_plan_id":"cebpf4jnsgd1na2vs0mg"},{"bike_id":"c46bd16e-2440-4d3e-ae3a-f4e61a47e669","system_id":"levelo_inurba_marseille","lat":43.29032,"lon":5.38638,"is_reserved":false,"is_disabled":false,"rental_uris":{"android":"levelo://app?vid=c46bd16e-2440-4d3e-ae3a-f4e61a47e669","ios":"levelo://app?vid=c46bd16e-2440-4d3e-ae3a-f4e61a47e669"},"vehicle_type_id":"4","last_reported":1751144935,"current_range_meters":14400,"station_id":"ce4bh4p2rcd13ifvqe0g","pricing_plan_id":"cebpf4jnsgd1na2vs0mg"},{"bike_id":"1b37dd08-9f3b-4ce7-80e5-dd07b9bd8321","system_id":"levelo_inurba_marseille","lat":43.28007,"lon":5.36948,"is_reserved":false,"is_disabled":false,"rental_uris":{"android":"levelo://app?vid=1b37dd08-9f3b-4ce7-80e5-dd07b9bd8321","ios":"levelo://app?vid=1b37dd08-9f3b-4ce7-80e5-dd07b9bd8321"},"vehicle_type_id":"4","last_reported":1751144935,"current_range_meters":14400,"station_id":"ce4bha12rcd13ifvqef0","pricing_plan_id":"cebpf4jnsgd1na2vs0mg"},{"bike_id":"520109ea-3531-4f2f-9586-48ad5a45fb14","system_id":"levelo_inurba_marseille","lat":43.33606,"lon":5.41033,"is_reserved":false,"is_disabled":false,"rental_uris":{"android":"levelo://app?vid=520109ea-3531-4f2f-9586-48ad5a45fb14","ios":"levelo://app?vid=520109ea-3531-4f2f-9586-48ad5a45fb14"},"vehicle_type_id":"4","last_reported":1751144935,"current_range_meters":14400,"station_id":"ce4bhqh2rcd13ifvqhmg","pricing_plan_id":"cebpf4jnsgd1na2vs0mg"},{"bike_id":"f810be2a-3c00-446f-9ba1-1f3840ce349d","system_id":"levelo_inurba_marseille","lat":43.32109,"lon":5.36777,"is_reserved":false,"is_disabled":false,"rental_uris":{"android":"levelo://app?vid=f810be2a-3c00-446f-9ba1-1f3840ce349d","ios":"levelo://app?vid=f810be2a-3c00-446f-9ba1-1f3840ce349d"},"vehicle_type_id":"4","last_reported":1751144935,"current_range_meters":14400,"station_id":"ce4bhrh2rcd13ifvqhug","pricing_plan_id":"cebpf4jnsgd1na2vs0mg"},{"bike_id":"a42812b6-bc78-4157-a520-01ba99a08551","system_id":"levelo_inurba_marseille","lat":43.24166,"lon":5.36401,"is_reserved":false,"is_disabled":false,"rental_uris":{"android":"levelo://app?vid=a42812b6-bc78-4157-a520-01ba99a08551","ios":"levelo://app?vid=a42812b6-bc78-4157-a520-01ba99a08551"},"vehicle_type_id":"4","last_reported":1751144935,"current_range_meters":14400,"station_id":"cpo36qri1sfpv3e86is0","pricing_plan_id":"cebpf4jnsgd1na2vs0mg"},{"bike_id":"2a9a5366-8dad-42f1-bee6-ffb042c54776","system_id":"levelo_inurba_marseille","lat":43.21195,"lon":5.35078,"is_reserved":false,"is_disabled":false,"rental_uris":{"android":"levelo://app?vid=2a9a5366-8dad-42f1-bee6-ffb042c54776","ios":"levelo://app?vid=2a9a5366-8dad-42f1-bee6-ffb042c54776"},"vehicle_type_id":"4","last_reported":1751144935,"current_range_meters":14400,"station_id":"st_cvj6sg6p6f1abm77japg","pricing_plan_id":"cebpf4jnsgd1na2vs0mg"},{"bike_id":"e5e9e78b-4730-43b1-8651-5c571c638bbb","system_id":"levelo_inurba_marseille","lat":43.21184,"lon":5.35075,"is_reserved":false,"is_disabled":false,"rental_uris":{"android":"levelo://app?vid=e5e9e78b-4730-43b1-8651-5c571c638bbb","ios":"levelo://app?vid=e5e9e78b-4730-43b1-8651-5c571c638bbb"},"vehicle_type_id":"4","last_reported":1751144935,"current_range_meters":14400,"station_id":"st_cvj6sg6p6f1abm77japg","pricing_plan_id":"cebpf4jnsgd1na2vs0mg"},{"bike_id":"363aa73f-7334-4817-84bf-a699823a3c47","system_id":"levelo_inurba_marseille","lat":43.292984,"lon":5.374469,"is_reserved":false,"is_disabled":false,"rental_uris":{"android":"levelo://app?vid=363aa73f-7334-4817-84bf-a699823a3c47","ios":"levelo://app?vid=363aa73f-7334-4817-84bf-a699823a3c47"},"vehicle_type_id":"4","last_reported":1751144935,"current_range_meters":14800,"station_id":"ce4bgrp2rcd13ifvqc9g","pricing_plan_id":"cebpf4jnsgd1na2vs0mg"},{"bike_id":"afc9fa3a-d0be-4e85-b952-c5bc8fd276c6","system_id":"levelo_inurba_marseille","lat":43.31076,"lon":5.38352,"is_reserved":false,"is_disabled":false,"rental_uris":{"android":"levelo://app?vid=afc9fa3a-d0be-4e85-b952-c5bc8fd276c6","ios":"levelo://app?vid=afc9fa3a-d0be-4e85-b952-c5bc8fd276c6"},"vehicle_type_id":"4","last_reported":1751144935,"current_range_meters":14800,"station_id":"ce4bgv92rcd13ifvqcr0","pricing_plan_id":"cebpf4jnsgd1na2vs0mg"},{"bike_id":"c9727364-02b0-4b88-8668-56db49153198","system_id":"levelo_inurba_marseille","lat":43.26753,"lon":5.39409,"is_reserved":false,"is_disabled":false,"rental_uris":{"android":"levelo://app?vid=c9727364-02b0-4b88-8668-56db49153198","ios":"levelo://app?vid=c9727364-02b0-4b88-8668-56db49153198"},"vehicle_type_id":"4","last_reported":1751144935,"current_range_meters":14800,"station_id":"ce4bhh12rcd13ifvqfg0","pricing_plan_id":"cebpf4jnsgd1na2vs0mg"},{"bike_id":"d7eec7f3-1a9b-4ae0-9227-3d3f8b6a93e2","system_id":"levelo_inurba_marseille","lat":43.27059,"lon":5.4228,"is_reserved":false,"is_disabled":false,"rental_uris":{"android":"levelo://app?vid=d7eec7f3-1a9b-4ae0-9227-3d3f8b6a93e2","ios":"levelo://app?vid=d7eec7f3-1a9b-4ae0-9227-3d3f8b6a93e2"},"vehicle_type_id":"4","last_reported":1751144935,"current_range_meters":14800,"station_id":"ce4bhk92rcd13ifvqgb0","pricing_plan_id":"cebpf4jnsgd1na2vs0mg"},{"bike_id":"4f7da216-f811-4c57-9e64-cdee7467bddd","system_id":"levelo_inurba_marseille","lat":43.22505,"lon":5.34784,"is_reserved":false,"is_disabled":false,"rental_uris":{"android":"levelo://app?vid=4f7da216-f811-4c57-9e64-cdee7467bddd","ios":"levelo://app?vid=4f7da216-f811-4c57-9e64-cdee7467bddd"},"vehicle_type_id":"4","last_reported":1751144935,"current_range_meters":14800,"station_id":"st_cvj5dfep6f1abm77gieg","pricing_plan_id":"cebpf4jnsgd1na2vs0mg"},{"bike_id":"5ce69dd2-d017-41fb-9193-ab3e097b4e8d","system_id":"levelo_inurba_marseille","lat":43.29536,"lon":5.38541,"is_reserved":false,"is_disabled":false,"rental_uris":{"android":"levelo://app?vid=5ce69dd2-d017-41fb-9193-ab3e097b4e8d","ios":"levelo://app?vid=5ce69dd2-d017-41fb-9193-ab3e097b4e8d"},"vehicle_type_id":"4","last_reported":1751144935,"current_range_meters":15200,"station_id":"ce4bgih2rcd13ifvqba0","pricing_plan_id":"cebpf4jnsgd1na2vs0mg"},{"bike_id":"c4679d1d-0e3d-46b0-9c6a-cf5defdaaf93","system_id":"levelo_inurba_marseille","lat":43.316864,"lon":5.404875,"is_reserved":false,"is_disabled":false,"rental_uris":{"android":"levelo://app?vid=c4679d1d-0e3d-46b0-9c6a-cf5defdaaf93","ios":"levelo://app?vid=c4679d1d-0e3d-46b0-9c6a-cf5defdaaf93"},"vehicle_type_id":"4","last_reported":1751144935,"current_range_meters":15200,"station_id":"ce4bh012rcd13ifvqd00","pricing_plan_id":"cebpf4jnsgd1na2vs0mg"},{"bike_id":"fefa174c-3439-453c-bc29-f58fdce41de6","system_id":"levelo_inurba_marseille","lat":43.27317,"lon":5.39123,"is_reserved":false,"is_disabled":false,"rental_uris":{"android":"levelo://app?vid=fefa174c-3439-453c-bc29-f58fdce41de6","ios":"levelo://app?vid=fefa174c-3439-453c-bc29-f58fdce41de6"},"vehicle_type_id":"4","last_reported":1751144935,"current_range_meters":15200,"station_id":"ce4bhgp2rcd13ifvqfe0","pricing_plan_id":"cebpf4jnsgd1na2vs0mg"},{"bike_id":"d83be15c-239d-410c-9374-2954b9783857","system_id":"levelo_inurba_marseille","lat":43.21208,"lon":5.35029,"is_reserved":false,"is_disabled":false,"rental_uris":{"android":"levelo://app?vid=d83be15c-239d-410c-9374-2954b9783857","ios":"levelo://app?vid=d83be15c-239d-410c-9374-2954b9783857"},"vehicle_type_id":"4","last_reported":1751144935,"current_range_meters":16000,"station_id":"","pricing_plan_id":"cebpf4jnsgd1na2vs0mg"},{"bike_id":"735fb3ec-51d3-42a0-b0e0-35a6ef148211","system_id":"levelo_inurba_marseille","lat":43.31277,"lon":5.37304,"is_reserved":false,"is_disabled":false,"rental_uris":{"android":"levelo://app?vid=735fb3ec-51d3-42a0-b0e0-35a6ef148211","ios":"levelo://app?vid=735fb3ec-51d3-42a0-b0e0-35a6ef148211"},"vehicle_type_id":"4","last_reported":1751144935,"current_range_meters":16000,"station_id":"","pricing_plan_id":"cebpf4jnsgd1na2vs0mg"},{"bike_id":"07ca4d32-f8d4-4205-8a35-c7ff63def9dc","system_id":"levelo_inurba_marseille","lat":43.22502,"lon":5.34788,"is_reserved":false,"is_disabled":false,"rental_uris":{"android":"levelo://app?vid=07ca4d32-f8d4-4205-8a35-c7ff63def9dc","ios":"levelo://app?vid=07ca4d32-f8d4-4205-8a35-c7ff63def9dc"},"vehicle_type_id":"4","last_reported":1751144935,"current_range_meters":16000,"station_id":"","pricing_plan_id":"cebpf4jnsgd1na2vs0mg"},{"bike_id":"d308c658-b19c-49c0-8014-5506ff26f69a","system_id":"levelo_inurba_marseille","lat":43.23081,"lon":5.40501,"is_reserved":false,"is_disabled":false,"rental_uris":{"android":"levelo://app?vid=d308c658-b19c-49c0-8014-5506ff26f69a","ios":"levelo://app?vid=d308c658-b19c-49c0-8014-5506ff26f69a"},"vehicle_type_id":"4","last_reported":1751144935,"current_range_meters":16000,"station_id":"","pricing_plan_id":"cebpf4jnsgd1na2vs0mg"},{"bike_id":"00594b10-a4a4-406b-ab16-efca5af471d8","system_id":"levelo_inurba_marseille","lat":43.30141,"lon":5.38775,"is_reserved":false,"is_disabled":false,"rental_uris":{"android":"levelo://app?vid=00594b10-a4a4-406b-ab16-efca5af471d8","ios":"levelo://app?vid=00594b10-a4a4-406b-ab16-efca5af471d8"},"vehicle_type_id":"4","last_reported":1751144935,"current_range_meters":16000,"station_id":"ce4bghh2rcd13ifvqb60","pricing_plan_id":"cebpf4jnsgd1na2vs0mg"},{"bike_id":"e934a84d-46b6-4c35-8ff1-af1cfdbd5790","system_id":"levelo_inurba_marseille","lat":43.31675,"lon":5.40433,"is_reserved":false,"is_disabled":false,"rental_uris":{"android":"levelo://app?vid=e934a84d-46b6-4c35-8ff1-af1cfdbd5790","ios":"levelo://app?vid=e934a84d-46b6-4c35-8ff1-af1cfdbd5790"},"vehicle_type_id":"4","last_reported":1751144935,"current_range_meters":16000,"station_id":"ce4bh012rcd13ifvqd00","pricing_plan_id":"cebpf4jnsgd1na2vs0mg"},{"bike_id":"b489781e-949e-4c51-988c-8e26a37eae34","system_id":"levelo_inurba_marseille","lat":43.3042,"lon":5.39747,"is_reserved":false,"is_disabled":false,"rental_uris":{"android":"levelo://app?vid=b489781e-949e-4c51-988c-8e26a37eae34","ios":"levelo://app?vid=b489781e-949e-4c51-988c-8e26a37eae34"},"vehicle_type_id":"4","last_reported":1751144935,"current_range_meters":16000,"station_id":"ce4bh092rcd13ifvqd20","pricing_plan_id":"cebpf4jnsgd1na2vs0mg"},{"bike_id":"04b41d92-c050-4e7b-a0ed-c8f53aa54aa5","system_id":"levelo_inurba_marseille","lat":43.28941,"lon":5.36638,"is_reserved":false,"is_disabled":false,"rental_uris":{"android":"levelo://app?vid=04b41d92-c050-4e7b-a0ed-c8f53aa54aa5","ios":"levelo://app?vid=04b41d92-c050-4e7b-a0ed-c8f53aa54aa5"},"vehicle_type_id":"4","last_reported":1751144935,"current_range_meters":16000,"station_id":"ce4bhap2rcd13ifvqek0","pricing_plan_id":"cebpf4jnsgd1na2vs0mg"},{"bike_id":"dc52be52-60b5-448c-b8e7-30f1c07b993e","system_id":"levelo_inurba_marseille","lat":43.25098,"lon":5.40321,"is_reserved":false,"is_disabled":false,"rental_uris":{"android":"levelo://app?vid=dc52be52-60b5-448c-b8e7-30f1c07b993e","ios":"levelo://app?vid=dc52be52-60b5-448c-b8e7-30f1c07b993e"},"vehicle_type_id":"4","last_reported":1751144935,"current_range_meters":16000,"station_id":"ce4bhlh2rcd13ifvqgig","pricing_plan_id":"cebpf4jnsgd1na2vs0mg"},{"bike_id":"064e1b75-6456-473b-9a83-8a42db06b827","system_id":"levelo_inurba_marseille","lat":43.26185,"lon":5.40464,"is_reserved":false,"is_disabled":false,"rental_uris":{"android":"levelo://app?vid=064e1b75-6456-473b-9a83-8a42db06b827","ios":"levelo://app?vid=064e1b75-6456-473b-9a83-8a42db06b827"},"vehicle_type_id":"4","last_reported":1751144935,"current_range_meters":16000,"station_id":"ce4bhmh2rcd13ifvqgmg","pricing_plan_id":"cebpf4jnsgd1na2vs0mg"},{"bike_id":"b636965d-7db1-47cd-adbf-cfced905006a","system_id":"levelo_inurba_marseille","lat":43.2119,"lon":5.3507,"is_reserved":false,"is_disabled":false,"rental_uris":{"android":"levelo://app?vid=b636965d-7db1-47cd-adbf-cfced905006a","ios":"levelo://app?vid=b636965d-7db1-47cd-adbf-cfced905006a"},"vehicle_type_id":"4","last_reported":1751144935,"current_range_meters":16000,"station_id":"st_cvj6sg6p6f1abm77japg","pricing_plan_id":"cebpf4jnsgd1na2vs0mg"},{"bike_id":"5d5e13a4-10cc-485c-a362-06d02242e666","system_id":"levelo_inurba_marseille","lat":43.21179,"lon":5.35081,"is_reserved":false,"is_disabled":false,"rental_uris":{"android":"levelo://app?vid=5d5e13a4-10cc-485c-a362-06d02242e666","ios":"levelo://app?vid=5d5e13a4-10cc-485c-a362-06d02242e666"},"vehicle_type_id":"4","last_reported":1751144935,"current_range_meters":16000,"station_id":"st_cvj6sg6p6f1abm77japg","pricing_plan_id":"cebpf4jnsgd1na2vs0mg"},{"bike_id":"b13877a6-4825-4d82-b46b-67fa8ad66c5d","system_id":"levelo_inurba_marseille","lat":43.21183,"lon":5.35073,"is_reserved":false,"is_disabled":false,"rental_uris":{"android":"levelo://app?vid=b13877a6-4825-4d82-b46b-67fa8ad66c5d","ios":"levelo://app?vid=b13877a6-4825-4d82-b46b-67fa8ad66c5d"},"vehicle_type_id":"4","last_reported":1751144935,"current_range_meters":16000,"station_id":"st_cvj6sg6p6f1abm77japg","pricing_plan_id":"cebpf4jnsgd1na2vs0mg"},{"bike_id":"34ab7980-c5e9-4b76-87bd-8333976bca9d","system_id":"levelo_inurba_marseille","lat":43.21752,"lon":5.34595,"is_reserved":false,"is_disabled":false,"rental_uris":{"android":"levelo://app?vid=34ab7980-c5e9-4b76-87bd-8333976bca9d","ios":"levelo://app?vid=34ab7980-c5e9-4b76-87bd-8333976bca9d"},"vehicle_type_id":"4","last_reported":1751144935,"current_range_meters":16400,"station_id":"","pricing_plan_id":"cebpf4jnsgd1na2vs0mg"},{"bike_id":"66abb35b-0e37-4ddd-bf66-70dc62e8f63c","system_id":"levelo_inurba_marseille","lat":43.22836,"lon":5.3512,"is_reserved":false,"is_disabled":false,"rental_uris":{"android":"levelo://app?vid=66abb35b-0e37-4ddd-bf66-70dc62e8f63c","ios":"levelo://app?vid=66abb35b-0e37-4ddd-bf66-70dc62e8f63c"},"vehicle_type_id":"4","last_reported":1751144935,"current_range_meters":16400,"station_id":"","pricing_plan_id":"cebpf4jnsgd1na2vs0mg"},{"bike_id":"439b2ddb-c287-4cd6-808e-0f35923f5621","system_id":"levelo_inurba_marseille","lat":43.28124,"lon":5.35195,"is_reserved":false,"is_disabled":false,"rental_uris":{"android":"levelo://app?vid=439b2ddb-c287-4cd6-808e-0f35923f5621","ios":"levelo://app?vid=439b2ddb-c287-4cd6-808e-0f35923f5621"},"vehicle_type_id":"4","last_reported":1751144935,"current_range_meters":16400,"station_id":"","pricing_plan_id":"cebpf4jnsgd1na2vs0mg"},{"bike_id":"8396458f-c5e8-43e6-bdb1-56999b8de8d6","system_id":"levelo_inurba_marseille","lat":43.29537,"lon":5.38545,"is_reserved":false,"is_disabled":false,"rental_uris":{"android":"levelo://app?vid=8396458f-c5e8-43e6-bdb1-56999b8de8d6","ios":"levelo://app?vid=8396458f-c5e8-43e6-bdb1-56999b8de8d6"},"vehicle_type_id":"4","last_reported":1751144935,"current_range_meters":16400,"station_id":"ce4bgih2rcd13ifvqba0","pricing_plan_id":"cebpf4jnsgd1na2vs0mg"},{"bike_id":"5f124578-9903-4ce0-aef2-0313526aed53","system_id":"levelo_inurba_marseille","lat":43.29529,"lon":5.38541,"is_reserved":false,"is_disabled":false,"rental_uris":{"android":"levelo://app?vid=5f124578-9903-4ce0-aef2-0313526aed53","ios":"levelo://app?vid=5f124578-9903-4ce0-aef2-0313526aed53"},"vehicle_type_id":"4","last_reported":1751144935,"current_range_meters":16400,"station_id":"ce4bgih2rcd13ifvqba0","pricing_plan_id":"cebpf4jnsgd1na2vs0mg"},{"bike_id":"0f4b787f-8f82-4760-a0c1-d69d223295c0","system_id":"levelo_inurba_marseille","lat":43.283241,"lon":5.381151,"is_reserved":false,"is_disabled":false,"rental_uris":{"android":"levelo://app?vid=0f4b787f-8f82-4760-a0c1-d69d223295c0","ios":"levelo://app?vid=0f4b787f-8f82-4760-a0c1-d69d223295c0"},"vehicle_type_id":"4","last_reported":1751144935,"current_range_meters":16400,"station_id":"ce4bh412rcd13ifvqdr0","pricing_plan_id":"cebpf4jnsgd1na2vs0mg"},{"bike_id":"4007ac8e-0282-4f93-ac82-000894855e59","system_id":"levelo_inurba_marseille","lat":43.27811,"lon":5.40703,"is_reserved":false,"is_disabled":false,"rental_uris":{"android":"levelo://app?vid=4007ac8e-0282-4f93-ac82-000894855e59","ios":"levelo://app?vid=4007ac8e-0282-4f93-ac82-000894855e59"},"vehicle_type_id":"4","last_reported":1751144935,"current_range_meters":16400,"station_id":"ce4bhnh2rcd13ifvqgtg","pricing_plan_id":"cebpf4jnsgd1na2vs0mg"},{"bike_id":"8d1e10f3-20fd-463c-a408-0a21083b0c6f","system_id":"levelo_inurba_marseille","lat":43.21195,"lon":5.35091,"is_reserved":false,"is_disabled":false,"rental_uris":{"android":"levelo://app?vid=8d1e10f3-20fd-463c-a408-0a21083b0c6f","ios":"levelo://app?vid=8d1e10f3-20fd-463c-a408-0a21083b0c6f"},"vehicle_type_id":"4","last_reported":1751144935,"current_range_meters":16400,"station_id":"st_cvj6sg6p6f1abm77japg","pricing_plan_id":"cebpf4jnsgd1na2vs0mg"},{"bike_id":"9fc6b39a-5532-40ac-8f58-975bced56a19","system_id":"levelo_inurba_marseille","lat":43.32613,"lon":5.40389,"is_reserved":false,"is_disabled":false,"rental_uris":{"android":"levelo://app?vid=9fc6b39a-5532-40ac-8f58-975bced56a19","ios":"levelo://app?vid=9fc6b39a-5532-40ac-8f58-975bced56a19"},"vehicle_type_id":"4","last_reported":1751144935,"current_range_meters":16800,"station_id":"","pricing_plan_id":"cebpf4jnsgd1na2vs0mg"},{"bike_id":"bca121d6-7dac-4f14-a296-ce2249d7aad2","system_id":"levelo_inurba_marseille","lat":43.28152,"lon":5.44344,"is_reserved":false,"is_disabled":false,"rental_uris":{"android":"levelo://app?vid=bca121d6-7dac-4f14-a296-ce2249d7aad2","ios":"levelo://app?vid=bca121d6-7dac-4f14-a296-ce2249d7aad2"},"vehicle_type_id":"4","last_reported":1751144935,"current_range_meters":16800,"station_id":"","pricing_plan_id":"cebpf4jnsgd1na2vs0mg"},{"bike_id":"c595d0e1-c778-4abe-9c79-a9dd74f54e27","system_id":"levelo_inurba_marseille","lat":43.2445,"lon":5.37238,"is_reserved":false,"is_disabled":false,"rental_uris":{"android":"levelo://app?vid=c595d0e1-c778-4abe-9c79-a9dd74f54e27","ios":"levelo://app?vid=c595d0e1-c778-4abe-9c79-a9dd74f54e27"},"vehicle_type_id":"4","last_reported":1751144935,"current_range_meters":16800,"station_id":"","pricing_plan_id":"cebpf4jnsgd1na2vs0mg"},{"bike_id":"8984a5e8-0397-4f2c-aff2-507a9137161b","system_id":"levelo_inurba_marseille","lat":43.29726,"lon":5.36622,"is_reserved":false,"is_disabled":false,"rental_uris":{"android":"levelo://app?vid=8984a5e8-0397-4f2c-aff2-507a9137161b","ios":"levelo://app?vid=8984a5e8-0397-4f2c-aff2-507a9137161b"},"vehicle_type_id":"4","last_reported":1751144935,"current_range_meters":16800,"station_id":"ce4bgn12rcd13ifvqbt0","pricing_plan_id":"cebpf4jnsgd1na2vs0mg"},{"bike_id":"6c501e77-84fb-4325-9f00-05268e4c597f","system_id":"levelo_inurba_marseille","lat":43.31116,"lon":5.3777,"is_reserved":false,"is_disabled":false,"rental_uris":{"android":"levelo://app?vid=6c501e77-84fb-4325-9f00-05268e4c597f","ios":"levelo://app?vid=6c501e77-84fb-4325-9f00-05268e4c597f"},"vehicle_type_id":"4","last_reported":1751144935,"current_range_meters":16800,"station_id":"ce4bgt92rcd13ifvqcg0","pricing_plan_id":"cebpf4jnsgd1na2vs0mg"},{"bike_id":"9348a4fc-cbd5-4a42-a17a-1b36111c8c16","system_id":"levelo_inurba_marseille","lat":43.30953,"lon":5.39019,"is_reserved":false,"is_disabled":false,"rental_uris":{"android":"levelo://app?vid=9348a4fc-cbd5-4a42-a17a-1b36111c8c16","ios":"levelo://app?vid=9348a4fc-cbd5-4a42-a17a-1b36111c8c16"},"vehicle_type_id":"4","last_reported":1751144935,"current_range_meters":16800,"station_id":"ce4bgup2rcd13ifvqco0","pricing_plan_id":"cebpf4jnsgd1na2vs0mg"},{"bike_id":"3b9ece1d-7198-4632-8e2f-12ebf93377c0","system_id":"levelo_inurba_marseille","lat":43.29608,"lon":5.40618,"is_reserved":false,"is_disabled":false,"rental_uris":{"android":"levelo://app?vid=3b9ece1d-7198-4632-8e2f-12ebf93377c0","ios":"levelo://app?vid=3b9ece1d-7198-4632-8e2f-12ebf93377c0"},"vehicle_type_id":"4","last_reported":1751144935,"current_range_meters":16800,"station_id":"ce4bh0h2rcd13ifvqd60","pricing_plan_id":"cebpf4jnsgd1na2vs0mg"},{"bike_id":"9c91028a-ce01-44b0-9471-2a22b24113e2","system_id":"levelo_inurba_marseille","lat":43.26219,"lon":5.37435,"is_reserved":false,"is_disabled":false,"rental_uris":{"android":"levelo://app?vid=9c91028a-ce01-44b0-9471-2a22b24113e2","ios":"levelo://app?vid=9c91028a-ce01-44b0-9471-2a22b24113e2"},"vehicle_type_id":"4","last_reported":1751144935,"current_range_meters":16800,"station_id":"ce4bhgp2rcd13ifvqfc0","pricing_plan_id":"cebpf4jnsgd1na2vs0mg"},{"bike_id":"dd120774-56f3-4f0e-889e-d2083da7033b","system_id":"levelo_inurba_marseille","lat":43.27941,"lon":5.41044,"is_reserved":false,"is_disabled":false,"rental_uris":{"android":"levelo://app?vid=dd120774-56f3-4f0e-889e-d2083da7033b","ios":"levelo://app?vid=dd120774-56f3-4f0e-889e-d2083da7033b"},"vehicle_type_id":"4","last_reported":1751144935,"current_range_meters":16800,"station_id":"ce4bhnp2rcd13ifvqh0g","pricing_plan_id":"cebpf4jnsgd1na2vs0mg"},{"bike_id":"30428c3c-6c1e-4ce4-8e0a-d633937e9efb","system_id":"levelo_inurba_marseille","lat":43.29305,"lon":5.37463,"is_reserved":false,"is_disabled":false,"rental_uris":{"android":"levelo://app?vid=30428c3c-6c1e-4ce4-8e0a-d633937e9efb","ios":"levelo://app?vid=30428c3c-6c1e-4ce4-8e0a-d633937e9efb"},"vehicle_type_id":"4","last_reported":1751144935,"current_range_meters":17200,"station_id":"","pricing_plan_id":"cebpf4jnsgd1na2vs0mg"},{"bike_id":"706791be-79ff-4961-85f9-10b00214ce8a","system_id":"levelo_inurba_marseille","lat":43.3305,"lon":5.39516,"is_reserved":false,"is_disabled":false,"rental_uris":{"android":"levelo://app?vid=706791be-79ff-4961-85f9-10b00214ce8a","ios":"levelo://app?vid=706791be-79ff-4961-85f9-10b00214ce8a"},"vehicle_type_id":"4","last_reported":1751144935,"current_range_meters":17200,"station_id":"","pricing_plan_id":"cebpf4jnsgd1na2vs0mg"},{"bike_id":"2183b5e4-83fc-48e6-88b5-14ec39b15c42","system_id":"levelo_inurba_marseille","lat":43.30947,"lon":5.38993,"is_reserved":false,"is_disabled":false,"rental_uris":{"android":"levelo://app?vid=2183b5e4-83fc-48e6-88b5-14ec39b15c42","ios":"levelo://app?vid=2183b5e4-83fc-48e6-88b5-14ec39b15c42"},"vehicle_type_id":"4","last_reported":1751144935,"current_range_meters":17200,"station_id":"ce4bgup2rcd13ifvqco0","pricing_plan_id":"cebpf4jnsgd1na2vs0mg"},{"bike_id":"564a3224-d339-4165-abe1-2668415aad41","system_id":"levelo_inurba_marseille","lat":43.29229,"lon":5.36053,"is_reserved":false,"is_disabled":false,"rental_uris":{"android":"levelo://app?vid=564a3224-d339-4165-abe1-2668415aad41","ios":"levelo://app?vid=564a3224-d339-4165-abe1-2668415aad41"},"vehicle_type_id":"4","last_reported":1751144935,"current_range_meters":17200,"station_id":"ce4bhbh2rcd13ifvqeqg","pricing_plan_id":"cebpf4jnsgd1na2vs0mg"},{"bike_id":"87c7181b-706f-4ecc-bcb3-6dddc0ba4ffe","system_id":"levelo_inurba_marseille","lat":43.273135,"lon":5.390842,"is_reserved":false,"is_disabled":false,"rental_uris":{"android":"levelo://app?vid=87c7181b-706f-4ecc-bcb3-6dddc0ba4ffe","ios":"levelo://app?vid=87c7181b-706f-4ecc-bcb3-6dddc0ba4ffe"},"vehicle_type_id":"4","last_reported":1751144935,"current_range_meters":17200,"station_id":"ce4bhgp2rcd13ifvqfe0","pricing_plan_id":"cebpf4jnsgd1na2vs0mg"},{"bike_id":"bd5539a2-4edc-4199-b3c4-e7678f753941","system_id":"levelo_inurba_marseille","lat":43.31881,"lon":5.40728,"is_reserved":false,"is_disabled":false,"rental_uris":{"android":"levelo://app?vid=bd5539a2-4edc-4199-b3c4-e7678f753941","ios":"levelo://app?vid=bd5539a2-4edc-4199-b3c4-e7678f753941"},"vehicle_type_id":"4","last_reported":1751144935,"current_range_meters":17600,"station_id":"ce4bhq12rcd13ifvqhig","pricing_plan_id":"cebpf4jnsgd1na2vs0mg"},{"bike_id":"5ef1cf77-d643-435c-bb6f-cf11c9839adb","system_id":"levelo_inurba_marseille","lat":43.32046,"lon":5.41548,"is_reserved":false,"is_disabled":false,"rental_uris":{"android":"levelo://app?vid=5ef1cf77-d643-435c-bb6f-cf11c9839adb","ios":"levelo://app?vid=5ef1cf77-d643-435c-bb6f-cf11c9839adb"},"vehicle_type_id":"4","last_reported":1751144935,"current_range_meters":17600,"station_id":"ce4bhq92rcd13ifvqhkg","pricing_plan_id":"cebpf4jnsgd1na2vs0mg"},{"bike_id":"3e82f598-9d1d-4257-8afa-a4dc7305de09","system_id":"levelo_inurba_marseille","lat":43.212138,"lon":5.350404,"is_reserved":false,"is_disabled":false,"rental_uris":{"android":"levelo://app?vid=3e82f598-9d1d-4257-8afa-a4dc7305de09","ios":"levelo://app?vid=3e82f598-9d1d-4257-8afa-a4dc7305de09"},"vehicle_type_id":"4","last_reported":1751144935,"current_range_meters":18000,"station_id":"","pricing_plan_id":"cebpf4jnsgd1na2vs0mg"},{"bike_id":"3b5673a8-7954-48a9-9d7a-5cc5ce88aff3","system_id":"levelo_inurba_marseille","lat":43.30606,"lon":5.37224,"is_reserved":false,"is_disabled":false,"rental_uris":{"android":"levelo://app?vid=3b5673a8-7954-48a9-9d7a-5cc5ce88aff3","ios":"levelo://app?vid=3b5673a8-7954-48a9-9d7a-5cc5ce88aff3"},"vehicle_type_id":"4","last_reported":1751144935,"current_range_meters":18000,"station_id":"ce4bgqh2rcd13ifvqc4g","pricing_plan_id":"cebpf4jnsgd1na2vs0mg"},{"bike_id":"fa9b461f-2910-4162-8637-dedabeee80a4","system_id":"levelo_inurba_marseille","lat":43.2987,"lon":5.39721,"is_reserved":false,"is_disabled":false,"rental_uris":{"android":"levelo://app?vid=fa9b461f-2910-4162-8637-dedabeee80a4","ios":"levelo://app?vid=fa9b461f-2910-4162-8637-dedabeee80a4"},"vehicle_type_id":"4","last_reported":1751144935,"current_range_meters":18000,"station_id":"ce4bh0h2rcd13ifvqd50","pricing_plan_id":"cebpf4jnsgd1na2vs0mg"},{"bike_id":"2d6a83db-53e6-4367-8772-7f2c1d42c5f8","system_id":"levelo_inurba_marseille","lat":43.294223,"lon":5.386148,"is_reserved":false,"is_disabled":false,"rental_uris":{"android":"levelo://app?vid=2d6a83db-53e6-4367-8772-7f2c1d42c5f8","ios":"levelo://app?vid=2d6a83db-53e6-4367-8772-7f2c1d42c5f8"},"vehicle_type_id":"4","last_reported":1751144935,"current_range_meters":18000,"station_id":"ce4bh2h2rcd13ifvqdh0","pricing_plan_id":"cebpf4jnsgd1na2vs0mg"},{"bike_id":"99ca9887-e45c-4be7-8677-ce67700789ec","system_id":"levelo_inurba_marseille","lat":43.24808,"lon":5.37464,"is_reserved":false,"is_disabled":false,"rental_uris":{"android":"levelo://app?vid=99ca9887-e45c-4be7-8677-ce67700789ec","ios":"levelo://app?vid=99ca9887-e45c-4be7-8677-ce67700789ec"},"vehicle_type_id":"4","last_reported":1751144935,"current_range_meters":18000,"station_id":"ce4bhgh2rcd13ifvqfb0","pricing_plan_id":"cebpf4jnsgd1na2vs0mg"},{"bike_id":"94d2b6e9-2efb-4344-a5f1-7eddcabe152b","system_id":"levelo_inurba_marseille","lat":43.2844,"lon":5.39183,"is_reserved":false,"is_disabled":false,"rental_uris":{"android":"levelo://app?vid=94d2b6e9-2efb-4344-a5f1-7eddcabe152b","ios":"levelo://app?vid=94d2b6e9-2efb-4344-a5f1-7eddcabe152b"},"vehicle_type_id":"4","last_reported":1751144935,"current_range_meters":18000,"station_id":"ce4bhoh2rcd13ifvqh5g","pricing_plan_id":"cebpf4jnsgd1na2vs0mg"},{"bike_id":"7cd73daf-6410-4b72-a872-e5224e9d29ff","system_id":"levelo_inurba_marseille","lat":43.274126,"lon":5.411691,"is_reserved":false,"is_disabled":false,"rental_uris":{"android":"levelo://app?vid=7cd73daf-6410-4b72-a872-e5224e9d29ff","ios":"levelo://app?vid=7cd73daf-6410-4b72-a872-e5224e9d29ff"},"vehicle_type_id":"4","last_reported":1751144935,"current_range_meters":18800,"station_id":"","pricing_plan_id":"cebpf4jnsgd1na2vs0mg"},{"bike_id":"6e53ad1f-d4f5-4de6-9418-67b290ec993f","system_id":"levelo_inurba_marseille","lat":43.30941,"lon":5.4103,"is_reserved":false,"is_disabled":false,"rental_uris":{"android":"levelo://app?vid=6e53ad1f-d4f5-4de6-9418-67b290ec993f","ios":"levelo://app?vid=6e53ad1f-d4f5-4de6-9418-67b290ec993f"},"vehicle_type_id":"4","last_reported":1751144935,"current_range_meters":18800,"station_id":"","pricing_plan_id":"cebpf4jnsgd1na2vs0mg"},{"bike_id":"48b96c76-923a-4239-8b31-f81d99951f58","system_id":"levelo_inurba_marseille","lat":43.29911,"lon":5.38378,"is_reserved":false,"is_disabled":false,"rental_uris":{"android":"levelo://app?vid=48b96c76-923a-4239-8b31-f81d99951f58","ios":"levelo://app?vid=48b96c76-923a-4239-8b31-f81d99951f58"},"vehicle_type_id":"4","last_reported":1751144935,"current_range_meters":18800,"station_id":"","pricing_plan_id":"cebpf4jnsgd1na2vs0mg"},{"bike_id":"a50c24d5-9e7f-4518-b53b-3553d0cdfd58","system_id":"levelo_inurba_marseille","lat":43.29962,"lon":5.38508,"is_reserved":false,"is_disabled":false,"rental_uris":{"android":"levelo://app?vid=a50c24d5-9e7f-4518-b53b-3553d0cdfd58","ios":"levelo://app?vid=a50c24d5-9e7f-4518-b53b-3553d0cdfd58"},"vehicle_type_id":"4","last_reported":1751144935,"current_range_meters":18800,"station_id":"ce4bgj92rcd13ifvqbd0","pricing_plan_id":"cebpf4jnsgd1na2vs0mg"},{"bike_id":"9dee4328-f5fd-4e61-a54e-558109a99176","system_id":"levelo_inurba_marseille","lat":43.309504,"lon":5.39021,"is_reserved":false,"is_disabled":false,"rental_uris":{"android":"levelo://app?vid=9dee4328-f5fd-4e61-a54e-558109a99176","ios":"levelo://app?vid=9dee4328-f5fd-4e61-a54e-558109a99176"},"vehicle_type_id":"4","last_reported":1751144935,"current_range_meters":18800,"station_id":"ce4bgup2rcd13ifvqco0","pricing_plan_id":"cebpf4jnsgd1na2vs0mg"},{"bike_id":"45ccb7a4-a3fb-4b57-bc48-8b56463b935b","system_id":"levelo_inurba_marseille","lat":43.31061,"lon":5.38355,"is_reserved":false,"is_disabled":false,"rental_uris":{"android":"levelo://app?vid=45ccb7a4-a3fb-4b57-bc48-8b56463b935b","ios":"levelo://app?vid=45ccb7a4-a3fb-4b57-bc48-8b56463b935b"},"vehicle_type_id":"4","last_reported":1751144935,"current_range_meters":18800,"station_id":"ce4bgv92rcd13ifvqcr0","pricing_plan_id":"cebpf4jnsgd1na2vs0mg"},{"bike_id":"8a73d86a-7065-40d5-98d3-35d606225561","system_id":"levelo_inurba_marseille","lat":43.262205,"lon":5.374316,"is_reserved":false,"is_disabled":false,"rental_uris":{"android":"levelo://app?vid=8a73d86a-7065-40d5-98d3-35d606225561","ios":"levelo://app?vid=8a73d86a-7065-40d5-98d3-35d606225561"},"vehicle_type_id":"4","last_reported":1751144935,"current_range_meters":18800,"station_id":"ce4bhgp2rcd13ifvqfc0","pricing_plan_id":"cebpf4jnsgd1na2vs0mg"},{"bike_id":"bf24b26e-7f51-4120-9a48-54c87edaa2f7","system_id":"levelo_inurba_marseille","lat":43.21196,"lon":5.35067,"is_reserved":false,"is_disabled":false,"rental_uris":{"android":"levelo://app?vid=bf24b26e-7f51-4120-9a48-54c87edaa2f7","ios":"levelo://app?vid=bf24b26e-7f51-4120-9a48-54c87edaa2f7"},"vehicle_type_id":"4","last_reported":1751144935,"current_range_meters":18800,"station_id":"st_cvj6sg6p6f1abm77japg","pricing_plan_id":"cebpf4jnsgd1na2vs0mg"},{"bike_id":"6147fb86-afb7-4e83-83f2-09caada1a915","system_id":"levelo_inurba_marseille","lat":43.29528,"lon":5.38544,"is_reserved":false,"is_disabled":false,"rental_uris":{"android":"levelo://app?vid=6147fb86-afb7-4e83-83f2-09caada1a915","ios":"levelo://app?vid=6147fb86-afb7-4e83-83f2-09caada1a915"},"vehicle_type_id":"4","last_reported":1751144935,"current_range_meters":19200,"station_id":"ce4bgih2rcd13ifvqba0","pricing_plan_id":"cebpf4jnsgd1na2vs0mg"},{"bike_id":"a1478fb5-d709-462b-a48b-9e40e4ddfe17","system_id":"levelo_inurba_marseille","lat":43.29039,"lon":5.38659,"is_reserved":false,"is_disabled":false,"rental_uris":{"android":"levelo://app?vid=a1478fb5-d709-462b-a48b-9e40e4ddfe17","ios":"levelo://app?vid=a1478fb5-d709-462b-a48b-9e40e4ddfe17"},"vehicle_type_id":"4","last_reported":1751144935,"current_range_meters":19200,"station_id":"ce4bh4p2rcd13ifvqe0g","pricing_plan_id":"cebpf4jnsgd1na2vs0mg"},{"bike_id":"0b442d38-0a82-4acd-b40c-00a1a8295fbe","system_id":"levelo_inurba_marseille","lat":43.29039,"lon":5.37572,"is_reserved":false,"is_disabled":false,"rental_uris":{"android":"levelo://app?vid=0b442d38-0a82-4acd-b40c-00a1a8295fbe","ios":"levelo://app?vid=0b442d38-0a82-4acd-b40c-00a1a8295fbe"},"vehicle_type_id":"4","last_reported":1751144935,"current_range_meters":19200,"station_id":"ce4bh692rcd13ifvqe90","pricing_plan_id":"cebpf4jnsgd1na2vs0mg"},{"bike_id":"a9e12f5e-dcc1-4736-b993-0bbb27a8b7c8","system_id":"levelo_inurba_marseille","lat":43.30539,"lon":5.36718,"is_reserved":false,"is_disabled":false,"rental_uris":{"android":"levelo://app?vid=a9e12f5e-dcc1-4736-b993-0bbb27a8b7c8","ios":"levelo://app?vid=a9e12f5e-dcc1-4736-b993-0bbb27a8b7c8"},"vehicle_type_id":"4","last_reported":1751144935,"current_range_meters":19600,"station_id":"ce4bgrp2rcd13ifvqc9g","pricing_plan_id":"cebpf4jnsgd1na2vs0mg"},{"bike_id":"e7641e58-176f-485d-9342-129003cdc52b","system_id":"levelo_inurba_marseille","lat":43.32121,"lon":5.36766,"is_reserved":false,"is_disabled":false,"rental_uris":{"android":"levelo://app?vid=e7641e58-176f-485d-9342-129003cdc52b","ios":"levelo://app?vid=e7641e58-176f-485d-9342-129003cdc52b"},"vehicle_type_id":"4","last_reported":1751144935,"current_range_meters":19600,"station_id":"ce4bhrh2rcd13ifvqhug","pricing_plan_id":"cebpf4jnsgd1na2vs0mg"},{"bike_id":"9586eaa6-f8c2-459b-a688-f6f1075eb8df","system_id":"levelo_inurba_marseille","lat":43.30529,"lon":5.3843,"is_reserved":false,"is_disabled":false,"rental_uris":{"android":"levelo://app?vid=9586eaa6-f8c2-459b-a688-f6f1075eb8df","ios":"levelo://app?vid=9586eaa6-f8c2-459b-a688-f6f1075eb8df"},"vehicle_type_id":"4","last_reported":1751144935,"current_range_meters":20000,"station_id":"ce4bgg92rcd13ifvqb30","pricing_plan_id":"cebpf4jnsgd1na2vs0mg"},{"bike_id":"c61e4b36-5e4f-48e1-a549-d6fa812b0545","system_id":"levelo_inurba_marseille","lat":43.30915,"lon":5.36847,"is_reserved":false,"is_disabled":false,"rental_uris":{"android":"levelo://app?vid=c61e4b36-5e4f-48e1-a549-d6fa812b0545","ios":"levelo://app?vid=c61e4b36-5e4f-48e1-a549-d6fa812b0545"},"vehicle_type_id":"4","last_reported":1751144935,"current_range_meters":20000,"station_id":"ce4bgn92rcd13ifvqbvg","pricing_plan_id":"cebpf4jnsgd1na2vs0mg"},{"bike_id":"de97ae83-a34a-46b4-9b85-ba831d130b16","system_id":"levelo_inurba_marseille","lat":43.29805,"lon":5.40395,"is_reserved":false,"is_disabled":false,"rental_uris":{"android":"levelo://app?vid=de97ae83-a34a-46b4-9b85-ba831d130b16","ios":"levelo://app?vid=de97ae83-a34a-46b4-9b85-ba831d130b16"},"vehicle_type_id":"4","last_reported":1751144935,"current_range_meters":20000,"station_id":"ce4bh112rcd13ifvqd90","pricing_plan_id":"cebpf4jnsgd1na2vs0mg"},{"bike_id":"1c668f18-b61c-4c4e-8f2f-1dc74dbc0288","system_id":"levelo_inurba_marseille","lat":43.24392,"lon":5.37064,"is_reserved":false,"is_disabled":false,"rental_uris":{"android":"levelo://app?vid=1c668f18-b61c-4c4e-8f2f-1dc74dbc0288","ios":"levelo://app?vid=1c668f18-b61c-4c4e-8f2f-1dc74dbc0288"},"vehicle_type_id":"4","last_reported":1751144935,"current_range_meters":20000,"station_id":"ce4bhhh2rcd13ifvqfk0","pricing_plan_id":"cebpf4jnsgd1na2vs0mg"},{"bike_id":"54e6c144-89e2-4352-bee4-0bc5a4da8819","system_id":"levelo_inurba_marseille","lat":43.32677,"lon":5.40999,"is_reserved":false,"is_disabled":false,"rental_uris":{"android":"levelo://app?vid=54e6c144-89e2-4352-bee4-0bc5a4da8819","ios":"levelo://app?vid=54e6c144-89e2-4352-bee4-0bc5a4da8819"},"vehicle_type_id":"4","last_reported":1751144935,"current_range_meters":20000,"station_id":"ce4bhpp2rcd13ifvqhgg","pricing_plan_id":"cebpf4jnsgd1na2vs0mg"},{"bike_id":"9dc29fb8-e3fb-41f8-a3ad-c2c6c5e7fe8f","system_id":"levelo_inurba_marseille","lat":43.32667,"lon":5.4096,"is_reserved":false,"is_disabled":false,"rental_uris":{"android":"levelo://app?vid=9dc29fb8-e3fb-41f8-a3ad-c2c6c5e7fe8f","ios":"levelo://app?vid=9dc29fb8-e3fb-41f8-a3ad-c2c6c5e7fe8f"},"vehicle_type_id":"4","last_reported":1751144935,"current_range_meters":20000,"station_id":"ce4bhpp2rcd13ifvqhgg","pricing_plan_id":"cebpf4jnsgd1na2vs0mg"},{"bike_id":"7a9ed77c-f1cd-4001-9e41-61ecd996cfdf","system_id":"levelo_inurba_marseille","lat":43.21195,"lon":5.35067,"is_reserved":false,"is_disabled":false,"rental_uris":{"android":"levelo://app?vid=7a9ed77c-f1cd-4001-9e41-61ecd996cfdf","ios":"levelo://app?vid=7a9ed77c-f1cd-4001-9e41-61ecd996cfdf"},"vehicle_type_id":"4","last_reported":1751144935,"current_range_meters":20000,"station_id":"st_cvj6sg6p6f1abm77japg","pricing_plan_id":"cebpf4jnsgd1na2vs0mg"},{"bike_id":"2a7d4522-b0dd-48c1-8653-7a6d0e58cc43","system_id":"levelo_inurba_marseille","lat":43.32064,"lon":5.40131,"is_reserved":false,"is_disabled":false,"rental_uris":{"android":"levelo://app?vid=2a7d4522-b0dd-48c1-8653-7a6d0e58cc43","ios":"levelo://app?vid=2a7d4522-b0dd-48c1-8653-7a6d0e58cc43"},"vehicle_type_id":"4","last_reported":1751144935,"current_range_meters":20400,"station_id":"","pricing_plan_id":"cebpf4jnsgd1na2vs0mg"},{"bike_id":"7e091221-4229-4112-a379-c44d616917f7","system_id":"levelo_inurba_marseille","lat":43.2951,"lon":5.38545,"is_reserved":false,"is_disabled":false,"rental_uris":{"android":"levelo://app?vid=7e091221-4229-4112-a379-c44d616917f7","ios":"levelo://app?vid=7e091221-4229-4112-a379-c44d616917f7"},"vehicle_type_id":"4","last_reported":1751144935,"current_range_meters":20400,"station_id":"ce4bgih2rcd13ifvqba0","pricing_plan_id":"cebpf4jnsgd1na2vs0mg"},{"bike_id":"1063a889-1c6d-476b-9814-ef967c3ee5f1","system_id":"levelo_inurba_marseille","lat":43.29534,"lon":5.38551,"is_reserved":false,"is_disabled":false,"rental_uris":{"android":"levelo://app?vid=1063a889-1c6d-476b-9814-ef967c3ee5f1","ios":"levelo://app?vid=1063a889-1c6d-476b-9814-ef967c3ee5f1"},"vehicle_type_id":"4","last_reported":1751144935,"current_range_meters":20400,"station_id":"ce4bgih2rcd13ifvqba0","pricing_plan_id":"cebpf4jnsgd1na2vs0mg"},{"bike_id":"de7a54b4-82b8-432b-a93e-d77ea0ac1c74","system_id":"levelo_inurba_marseille","lat":43.31073,"lon":5.38351,"is_reserved":false,"is_disabled":false,"rental_uris":{"android":"levelo://app?vid=de7a54b4-82b8-432b-a93e-d77ea0ac1c74","ios":"levelo://app?vid=de7a54b4-82b8-432b-a93e-d77ea0ac1c74"},"vehicle_type_id":"4","last_reported":1751144935,"current_range_meters":20400,"station_id":"ce4bgv92rcd13ifvqcr0","pricing_plan_id":"cebpf4jnsgd1na2vs0mg"},{"bike_id":"4b3b15de-8fd9-48f5-ae8e-6dec807628a5","system_id":"levelo_inurba_marseille","lat":43.2835,"lon":5.381,"is_reserved":false,"is_disabled":false,"rental_uris":{"android":"levelo://app?vid=4b3b15de-8fd9-48f5-ae8e-6dec807628a5","ios":"levelo://app?vid=4b3b15de-8fd9-48f5-ae8e-6dec807628a5"},"vehicle_type_id":"4","last_reported":1751144935,"current_range_meters":20400,"station_id":"ce4bh412rcd13ifvqdr0","pricing_plan_id":"cebpf4jnsgd1na2vs0mg"},{"bike_id":"9252dfa9-aecd-4141-a529-e61f991bad40","system_id":"levelo_inurba_marseille","lat":43.26197,"lon":5.3744,"is_reserved":false,"is_disabled":false,"rental_uris":{"android":"levelo://app?vid=9252dfa9-aecd-4141-a529-e61f991bad40","ios":"levelo://app?vid=9252dfa9-aecd-4141-a529-e61f991bad40"},"vehicle_type_id":"4","last_reported":1751144935,"current_range_meters":20400,"station_id":"ce4bhgp2rcd13ifvqfc0","pricing_plan_id":"cebpf4jnsgd1na2vs0mg"},{"bike_id":"f5bbbcd2-1cbd-4243-b85c-f689c8c39f38","system_id":"levelo_inurba_marseille","lat":43.31709,"lon":5.43712,"is_reserved":false,"is_disabled":false,"rental_uris":{"android":"levelo://app?vid=f5bbbcd2-1cbd-4243-b85c-f689c8c39f38","ios":"levelo://app?vid=f5bbbcd2-1cbd-4243-b85c-f689c8c39f38"},"vehicle_type_id":"4","last_reported":1751144935,"current_range_meters":20400,"station_id":"ce4bhp92rcd13ifvqhcg","pricing_plan_id":"cebpf4jnsgd1na2vs0mg"},{"bike_id":"c27e9686-37ee-4b09-a3df-7607c051cba0","system_id":"levelo_inurba_marseille","lat":43.305374,"lon":5.384212,"is_reserved":false,"is_disabled":false,"rental_uris":{"android":"levelo://app?vid=c27e9686-37ee-4b09-a3df-7607c051cba0","ios":"levelo://app?vid=c27e9686-37ee-4b09-a3df-7607c051cba0"},"vehicle_type_id":"4","last_reported":1751144935,"current_range_meters":20800,"station_id":"ce4bgg92rcd13ifvqb30","pricing_plan_id":"cebpf4jnsgd1na2vs0mg"},{"bike_id":"c370f775-1dd5-4a0f-9900-c97aa6ca464d","system_id":"levelo_inurba_marseille","lat":43.30956,"lon":5.39037,"is_reserved":false,"is_disabled":false,"rental_uris":{"android":"levelo://app?vid=c370f775-1dd5-4a0f-9900-c97aa6ca464d","ios":"levelo://app?vid=c370f775-1dd5-4a0f-9900-c97aa6ca464d"},"vehicle_type_id":"4","last_reported":1751144935,"current_range_meters":20800,"station_id":"ce4bgup2rcd13ifvqco0","pricing_plan_id":"cebpf4jnsgd1na2vs0mg"},{"bike_id":"09b8d8f7-8338-48dc-af45-1df2d712f7b5","system_id":"levelo_inurba_marseille","lat":43.27321,"lon":5.39113,"is_reserved":false,"is_disabled":false,"rental_uris":{"android":"levelo://app?vid=09b8d8f7-8338-48dc-af45-1df2d712f7b5","ios":"levelo://app?vid=09b8d8f7-8338-48dc-af45-1df2d712f7b5"},"vehicle_type_id":"4","last_reported":1751144935,"current_range_meters":20800,"station_id":"ce4bhgp2rcd13ifvqfe0","pricing_plan_id":"cebpf4jnsgd1na2vs0mg"},{"bike_id":"3eabe1e2-f9f5-41cb-a4ed-73ca7f909c5c","system_id":"levelo_inurba_marseille","lat":43.21203,"lon":5.35056,"is_reserved":false,"is_disabled":false,"rental_uris":{"android":"levelo://app?vid=3eabe1e2-f9f5-41cb-a4ed-73ca7f909c5c","ios":"levelo://app?vid=3eabe1e2-f9f5-41cb-a4ed-73ca7f909c5c"},"vehicle_type_id":"4","last_reported":1751144935,"current_range_meters":20800,"station_id":"st_cvj6sg6p6f1abm77japg","pricing_plan_id":"cebpf4jnsgd1na2vs0mg"},{"bike_id":"ba926bfc-9632-4680-b0ed-32a040d6fb83","system_id":"levelo_inurba_marseille","lat":43.21176,"lon":5.35064,"is_reserved":false,"is_disabled":false,"rental_uris":{"android":"levelo://app?vid=ba926bfc-9632-4680-b0ed-32a040d6fb83","ios":"levelo://app?vid=ba926bfc-9632-4680-b0ed-32a040d6fb83"},"vehicle_type_id":"4","last_reported":1751144935,"current_range_meters":20800,"station_id":"st_cvj6sg6p6f1abm77japg","pricing_plan_id":"cebpf4jnsgd1na2vs0mg"},{"bike_id":"452e8211-4f44-45d0-814a-3e9e25b8c44e","system_id":"levelo_inurba_marseille","lat":43.21174,"lon":5.35079,"is_reserved":false,"is_disabled":false,"rental_uris":{"android":"levelo://app?vid=452e8211-4f44-45d0-814a-3e9e25b8c44e","ios":"levelo://app?vid=452e8211-4f44-45d0-814a-3e9e25b8c44e"},"vehicle_type_id":"4","last_reported":1751144935,"current_range_meters":20800,"station_id":"st_cvj6sg6p6f1abm77japg","pricing_plan_id":"cebpf4jnsgd1na2vs0mg"},{"bike_id":"93bfaf97-ed2a-4e22-bf8e-ae8244f15aa4","system_id":"levelo_inurba_marseille","lat":43.30913,"lon":5.37875,"is_reserved":false,"is_disabled":false,"rental_uris":{"android":"levelo://app?vid=93bfaf97-ed2a-4e22-bf8e-ae8244f15aa4","ios":"levelo://app?vid=93bfaf97-ed2a-4e22-bf8e-ae8244f15aa4"},"vehicle_type_id":"4","last_reported":1751144935,"current_range_meters":21600,"station_id":"","pricing_plan_id":"cebpf4jnsgd1na2vs0mg"},{"bike_id":"1ac664aa-f2a4-4b75-879f-dcb93272d133","system_id":"levelo_inurba_marseille","lat":43.32038,"lon":5.40937,"is_reserved":false,"is_disabled":false,"rental_uris":{"android":"levelo://app?vid=1ac664aa-f2a4-4b75-879f-dcb93272d133","ios":"levelo://app?vid=1ac664aa-f2a4-4b75-879f-dcb93272d133"},"vehicle_type_id":"4","last_reported":1751144935,"current_range_meters":21600,"station_id":"","pricing_plan_id":"cebpf4jnsgd1na2vs0mg"},{"bike_id":"a1addb81-1554-45e0-bce6-04b48d8e4968","system_id":"levelo_inurba_marseille","lat":43.29872,"lon":5.39729,"is_reserved":false,"is_disabled":false,"rental_uris":{"android":"levelo://app?vid=a1addb81-1554-45e0-bce6-04b48d8e4968","ios":"levelo://app?vid=a1addb81-1554-45e0-bce6-04b48d8e4968"},"vehicle_type_id":"4","last_reported":1751144935,"current_range_meters":21600,"station_id":"ce4bh0h2rcd13ifvqd50","pricing_plan_id":"cebpf4jnsgd1na2vs0mg"},{"bike_id":"cbe30b34-5475-488d-bddd-476535008035","system_id":"levelo_inurba_marseille","lat":43.29199,"lon":5.39315,"is_reserved":false,"is_disabled":false,"rental_uris":{"android":"levelo://app?vid=cbe30b34-5475-488d-bddd-476535008035","ios":"levelo://app?vid=cbe30b34-5475-488d-bddd-476535008035"},"vehicle_type_id":"4","last_reported":1751144935,"current_range_meters":21600,"station_id":"ce4bh192rcd13ifvqdd0","pricing_plan_id":"cebpf4jnsgd1na2vs0mg"},{"bike_id":"d8c41ec2-907c-4945-bb5c-cc0a47df366e","system_id":"levelo_inurba_marseille","lat":43.29421,"lon":5.38608,"is_reserved":false,"is_disabled":false,"rental_uris":{"android":"levelo://app?vid=d8c41ec2-907c-4945-bb5c-cc0a47df366e","ios":"levelo://app?vid=d8c41ec2-907c-4945-bb5c-cc0a47df366e"},"vehicle_type_id":"4","last_reported":1751144935,"current_range_meters":21600,"station_id":"ce4bh2h2rcd13ifvqdh0","pricing_plan_id":"cebpf4jnsgd1na2vs0mg"},{"bike_id":"a1c58918-c199-42a3-9fdd-8c4f0d81a70e","system_id":"levelo_inurba_marseille","lat":43.273187,"lon":5.390938,"is_reserved":false,"is_disabled":false,"rental_uris":{"android":"levelo://app?vid=a1c58918-c199-42a3-9fdd-8c4f0d81a70e","ios":"levelo://app?vid=a1c58918-c199-42a3-9fdd-8c4f0d81a70e"},"vehicle_type_id":"4","last_reported":1751144935,"current_range_meters":21600,"station_id":"ce4bhgp2rcd13ifvqfe0","pricing_plan_id":"cebpf4jnsgd1na2vs0mg"},{"bike_id":"220c7014-5f85-4b27-8a9e-905f229bb12e","system_id":"levelo_inurba_marseille","lat":43.31718,"lon":5.43707,"is_reserved":false,"is_disabled":false,"rental_uris":{"android":"levelo://app?vid=220c7014-5f85-4b27-8a9e-905f229bb12e","ios":"levelo://app?vid=220c7014-5f85-4b27-8a9e-905f229bb12e"},