{"last_updated":1760771308,"ttl":60,"version":"2.2","data":{"bikes":[{"bike_id":"a794a8d7-b0f4-4816-9567-10e9d8cf2529","system_id":"levelo_inurba_marseille","lat":43.27347,"lon":5.39091,"is_reserved":false,"is_disabled":false,"rental_uris":{"android":"levelo://app?vid=a794a8d7-b0f4-4816-9567-10e9d8cf2529","ios":"levelo://app?vid=a794a8d7-b0f4-4816-9567-10e9d8cf2529"},"vehicle_type_id":"4","last_reported":1760771309,"current_range_meters":2800,"station_id":"","pricing_plan_id":"cebpf4jnsgd1na2vs0mg"},{"bike_id":"1eddefb6-66a2-41de-a8ff-6be70c0103d8","system_id":"levelo_inurba_marseille","lat":43.309276,"lon":5.401447,"is_reserved":false,"is_disabled":false,"rental_uris":{"android":"levelo://app?vid=1eddefb6-66a2-41de-a8ff-6be70c0103d8","ios":"levelo://app?vid=1eddefb6-66a2-41de-a8ff-6be70c0103d8"},"vehicle_type_id":"4","last_reported":1760771309,"current_range_meters":2800,"station_id":"ce4bgvp2rcd13ifvqct0","pricing_plan_id":"cebpf4jnsgd1na2vs0mg"},{"bike_id":"7a63795d-d6ae-4db3-866d-c16b2af002f1","system_id":"levelo_inurba_marseille","lat":43.29962,"lon":5.37539,"is_reserved":false,"is_disabled":false,"rental_uris":{"android":"levelo://app?vid=7a63795d-d6ae-4db3-866d-c16b2af002f1","ios":"levelo://app?vid=7a63795d-d6ae-4db3-866d-c16b2af002f1"},"vehicle_type_id":"4","last_reported":1760771309,"current_range_meters":2800,"station_id":"","pricing_plan_id":"cebpf4jnsgd1na2vs0mg"},{"bike_id":"8f4e5143-1127-445c-9078-6d62b4c56745","system_id":"levelo_inurba_marseille","lat":43.31199,"lon":5.37963,"is_reserved":false,"is_disabled":false,"rental_uris":{"android":"levelo://app?vid=8f4e5143-1127-445c-9078-6d62b4c56745","ios":"levelo://app?vid=8f4e5143-1127-445c-9078-6d62b4c56745"},"vehicle_type_id":"4","last_reported":1760771309,"current_range_meters":2800,"station_id":"","pricing_plan_id":"cebpf4jnsgd1na2vs0mg"},{"bike_id":"1dc3768d-0b4e-4859-817c-5a4ee299d7ad","system_id":"levelo_inurba_marseille","lat":43.29728,"lon":5.378607,"is_reserved":false,"is_disabled":false,"rental_uris":{"android":"levelo://app?vid=1dc3768d-0b4e-4859-817c-5a4ee299d7ad","ios":"levelo://app?vid=1dc3768d-0b4e-4859-817c-5a4ee299d7ad"},"vehicle_type_id":"4","last_reported":1760771309,"current_range_meters":2800,"station_id":"","pricing_plan_id":"cebpf4jnsgd1na2vs0mg"},{"bike_id":"7509f86a-ef87-4049-86d6-6d0145ce684c","system_id":"levelo_inurba_marseille","lat":43.31338,"lon":5.39685,"is_reserved":false,"is_disabled":false,"rental_uris":{"android":"levelo://app?vid=7509f86a-ef87-4049-86d6-6d0145ce684c","ios":"levelo://app?vid=7509f86a-ef87-4049-86d6-6d0145ce684c"},"vehicle_type_id":"4","last_reported":1760771309,"current_range_meters":3200,"station_id":"ce4bgvp2rcd13ifvqcu0","pricing_plan_id":"cebpf4jnsgd1na2vs0mg"},{"bike_id":"775855e7-b64e-4338-8428-941426edb111","system_id":"levelo_inurba_marseille","lat":43.249522,"lon":5.404896,"is_reserved":false,"is_disabled":false,"rental_uris":{"android":"levelo://app?vid=775855e7-b64e-4338-8428-941426edb111","ios":"levelo://app?vid=775855e7-b64e-4338-8428-941426edb111"},"vehicle_type_id":"4","last_reported":1760771309,"current_range_meters":3600,"station_id":"st_d2ngiaodas8pm72gd1h0","pricing_plan_id":"cebpf4jnsgd1na2vs0mg"},{"bike_id":"51d41abb-857c-4477-b0b3-23f94139a6ad","system_id":"levelo_inurba_marseille","lat":43.2953,"lon":5.37511,"is_reserved":false,"is_disabled":false,"rental_uris":{"android":"levelo://app?vid=51d41abb-857c-4477-b0b3-23f94139a6ad","ios":"levelo://app?vid=51d41abb-857c-4477-b0b3-23f94139a6ad"},"vehicle_type_id":"4","last_reported":1760771309,"current_range_meters":4000,"station_id":"ce4bgkp2rcd13ifvqbmg","pricing_plan_id":"cebpf4jnsgd1na2vs0mg"},{"bike_id":"be1c4bc2-ea26-4165-ae2c-40ac4665f215","system_id":"levelo_inurba_marseille","lat":43.294331,"lon":5.42869,"is_reserved":false,"is_disabled":true,"rental_uris":{"android":"levelo://app?vid=be1c4bc2-ea26-4165-ae2c-40ac4665f215","ios":"levelo://app?vid=be1c4bc2-ea26-4165-ae2c-40ac4665f215"},"vehicle_type_id":"4","last_reported":1760771309,"current_range_meters":4000,"station_id":"","pricing_plan_id":"cebpf4jnsgd1na2vs0mg"},{"bike_id":"41a9b4d4-7dea-4755-ba51-3e5186d4f690","system_id":"levelo_inurba_marseille","lat":43.23181,"lon":5.40001,"is_reserved":false,"is_disabled":false,"rental_uris":{"android":"levelo://app?vid=41a9b4d4-7dea-4755-ba51-3e5186d4f690","ios":"levelo://app?vid=41a9b4d4-7dea-4755-ba51-3e5186d4f690"},"vehicle_type_id":"4","last_reported":1760771309,"current_range_meters":4000,"station_id":"ce4bhn12rcd13ifvqgqg","pricing_plan_id":"cebpf4jnsgd1na2vs0mg"},{"bike_id":"319ca0b6-643b-48b4-abfd-ce9e2dffe92f","system_id":"levelo_inurba_marseille","lat":43.22564,"lon":5.41625,"is_reserved":false,"is_disabled":false,"rental_uris":{"android":"levelo://app?vid=319ca0b6-643b-48b4-abfd-ce9e2dffe92f","ios":"levelo://app?vid=319ca0b6-643b-48b4-abfd-ce9e2dffe92f"},"vehicle_type_id":"4","last_reported":1760771309,"current_range_meters":4800,"station_id":"st_d2o4gvlbi1j2169b742g","pricing_plan_id":"cebpf4jnsgd1na2vs0mg"},{"bike_id":"26416dae-68db-465d-ba83-72f605f27523","system_id":"levelo_inurba_marseille","lat":43.3376,"lon":5.37432,"is_reserved":false,"is_disabled":false,"rental_uris":{"android":"levelo://app?vid=26416dae-68db-465d-ba83-72f605f27523","ios":"levelo://app?vid=26416dae-68db-465d-ba83-72f605f27523"},"vehicle_type_id":"4","last_reported":1760771309,"current_range_meters":4800,"station_id":"","pricing_plan_id":"cebpf4jnsgd1na2vs0mg"},{"bike_id":"28ed5361-c5fc-4025-a8fc-80a4352943da","system_id":"levelo_inurba_marseille","lat":43.239375,"lon":5.37601,"is_reserved":false,"is_disabled":false,"rental_uris":{"android":"levelo://app?vid=28ed5361-c5fc-4025-a8fc-80a4352943da","ios":"levelo://app?vid=28ed5361-c5fc-4025-a8fc-80a4352943da"},"vehicle_type_id":"4","last_reported":1760771309,"current_range_meters":4800,"station_id":"","pricing_plan_id":"cebpf4jnsgd1na2vs0mg"},{"bike_id":"395314b9-fea3-4a4a-8145-cf7ab2d4c961","system_id":"levelo_inurba_marseille","lat":43.32354,"lon":5.36791,"is_reserved":false,"is_disabled":false,"rental_uris":{"android":"levelo://app?vid=395314b9-fea3-4a4a-8145-cf7ab2d4c961","ios":"levelo://app?vid=395314b9-fea3-4a4a-8145-cf7ab2d4c961"},"vehicle_type_id":"4","last_reported":1760771309,"current_range_meters":4800,"station_id":"ce4bhsh2rcd13ifvqi2g","pricing_plan_id":"cebpf4jnsgd1na2vs0mg"},{"bike_id":"c183448e-5e7e-4b6d-acca-855a698a47d9","system_id":"levelo_inurba_marseille","lat":43.317026,"lon":5.376838,"is_reserved":false,"is_disabled":false,"rental_uris":{"android":"levelo://app?vid=c183448e-5e7e-4b6d-acca-855a698a47d9","ios":"levelo://app?vid=c183448e-5e7e-4b6d-acca-855a698a47d9"},"vehicle_type_id":"4","last_reported":1760771309,"current_range_meters":4800,"station_id":"ce4bgth2rcd13ifvqch0","pricing_plan_id":"cebpf4jnsgd1na2vs0mg"},{"bike_id":"47b6a661-48b8-461f-9827-f48295e67bbf","system_id":"levelo_inurba_marseille","lat":43.263019,"lon":5.398308,"is_reserved":false,"is_disabled":false,"rental_uris":{"android":"levelo://app?vid=47b6a661-48b8-461f-9827-f48295e67bbf","ios":"levelo://app?vid=47b6a661-48b8-461f-9827-f48295e67bbf"},"vehicle_type_id":"4","last_reported":1760771309,"current_range_meters":5600,"station_id":"","pricing_plan_id":"cebpf4jnsgd1na2vs0mg"},{"bike_id":"121f55c8-5a85-4142-a96c-bf52eb873442","system_id":"levelo_inurba_marseille","lat":43.30453,"lon":5.36927,"is_reserved":false,"is_disabled":false,"rental_uris":{"android":"levelo://app?vid=121f55c8-5a85-4142-a96c-bf52eb873442","ios":"levelo://app?vid=121f55c8-5a85-4142-a96c-bf52eb873442"},"vehicle_type_id":"4","last_reported":1760771309,"current_range_meters":5600,"station_id":"","pricing_plan_id":"cebpf4jnsgd1na2vs0mg"},{"bike_id":"132895aa-365f-4792-891c-14da94450e47","system_id":"levelo_inurba_marseille","lat":43.29875,"lon":5.39735,"is_reserved":false,"is_disabled":false,"rental_uris":{"android":"levelo://app?vid=132895aa-365f-4792-891c-14da94450e47","ios":"levelo://app?vid=132895aa-365f-4792-891c-14da94450e47"},"vehicle_type_id":"4","last_reported":1760771309,"current_range_meters":5600,"station_id":"ce4bh0h2rcd13ifvqd50","pricing_plan_id":"cebpf4jnsgd1na2vs0mg"},{"bike_id":"e257a5c9-b99e-4af1-ac4f-b017f1c8b418","system_id":"levelo_inurba_marseille","lat":43.33759,"lon":5.37438,"is_reserved":false,"is_disabled":false,"rental_uris":{"android":"levelo://app?vid=e257a5c9-b99e-4af1-ac4f-b017f1c8b418","ios":"levelo://app?vid=e257a5c9-b99e-4af1-ac4f-b017f1c8b418"},"vehicle_type_id":"4","last_reported":1760771309,"current_range_meters":6000,"station_id":"","pricing_plan_id":"cebpf4jnsgd1na2vs0mg"},{"bike_id":"d0746721-6cc5-46ef-975e-517a267a86cb","system_id":"levelo_inurba_marseille","lat":43.28821,"lon":5.35856,"is_reserved":false,"is_disabled":false,"rental_uris":{"android":"levelo://app?vid=d0746721-6cc5-46ef-975e-517a267a86cb","ios":"levelo://app?vid=d0746721-6cc5-46ef-975e-517a267a86cb"},"vehicle_type_id":"4","last_reported":1760771309,"current_range_meters":6000,"station_id":"ce4bhb12rcd13ifvqem0","pricing_plan_id":"cebpf4jnsgd1na2vs0mg"},{"bike_id":"8c0736f4-4e7b-40be-bc46-4e11d824cccc","system_id":"levelo_inurba_marseille","lat":43.31068,"lon":5.38367,"is_reserved":false,"is_disabled":false,"rental_uris":{"android":"levelo://app?vid=8c0736f4-4e7b-40be-bc46-4e11d824cccc","ios":"levelo://app?vid=8c0736f4-4e7b-40be-bc46-4e11d824cccc"},"vehicle_type_id":"4","last_reported":1760771309,"current_range_meters":6000,"station_id":"ce4bgv92rcd13ifvqcr0","pricing_plan_id":"cebpf4jnsgd1na2vs0mg"},{"bike_id":"0670def4-b15a-4c00-8829-0cd906a61bcb","system_id":"levelo_inurba_marseille","lat":43.33779,"lon":5.37432,"is_reserved":false,"is_disabled":false,"rental_uris":{"android":"levelo://app?vid=0670def4-b15a-4c00-8829-0cd906a61bcb","ios":"levelo://app?vid=0670def4-b15a-4c00-8829-0cd906a61bcb"},"vehicle_type_id":"4","last_reported":1760771309,"current_range_meters":6000,"station_id":"","pricing_plan_id":"cebpf4jnsgd1na2vs0mg"},{"bike_id":"9e5c29b4-2e94-4386-a80a-c9e3548d9126","system_id":"levelo_inurba_marseille","lat":43.29782,"lon":5.37131,"is_reserved":false,"is_disabled":true,"rental_uris":{"android":"levelo://app?vid=9e5c29b4-2e94-4386-a80a-c9e3548d9126","ios":"levelo://app?vid=9e5c29b4-2e94-4386-a80a-c9e3548d9126"},"vehicle_type_id":"4","last_reported":1760771309,"current_range_meters":6000,"station_id":"ce4bgop2rcd13ifvqc1g","pricing_plan_id":"cebpf4jnsgd1na2vs0mg"},{"bike_id":"d548e8b4-4450-4119-bb47-014455495e81","system_id":"levelo_inurba_marseille","lat":43.23962,"lon":5.36622,"is_reserved":false,"is_disabled":false,"rental_uris":{"android":"levelo://app?vid=d548e8b4-4450-4119-bb47-014455495e81","ios":"levelo://app?vid=d548e8b4-4450-4119-bb47-014455495e81"},"vehicle_type_id":"4","last_reported":1760771309,"current_range_meters":6400,"station_id":"ce4bhi12rcd13ifvqfp0","pricing_plan_id":"cebpf4jnsgd1na2vs0mg"},{"bike_id":"7fec0b5b-d93f-4c56-bebd-71a3a1762852","system_id":"levelo_inurba_marseille","lat":43.237809,"lon":5.36629,"is_reserved":false,"is_disabled":false,"rental_uris":{"android":"levelo://app?vid=7fec0b5b-d93f-4c56-bebd-71a3a1762852","ios":"levelo://app?vid=7fec0b5b-d93f-4c56-bebd-71a3a1762852"},"vehicle_type_id":"4","last_reported":1760771309,"current_range_meters":6400,"station_id":"st_d3nk18o9ro0c73en2l3g","pricing_plan_id":"cebpf4jnsgd1na2vs0mg"},{"bike_id":"6ccca793-e486-451c-81e2-3a43d89b1123","system_id":"levelo_inurba_marseille","lat":43.286976,"lon":5.373849,"is_reserved":false,"is_disabled":false,"rental_uris":{"android":"levelo://app?vid=6ccca793-e486-451c-81e2-3a43d89b1123","ios":"levelo://app?vid=6ccca793-e486-451c-81e2-3a43d89b1123"},"vehicle_type_id":"4","last_reported":1760771309,"current_range_meters":6400,"station_id":"ce4bh3p2rcd13ifvqdq0","pricing_plan_id":"cebpf4jnsgd1na2vs0mg"},{"bike_id":"33c31183-3e7d-43be-aab7-5330cf445369","system_id":"levelo_inurba_marseille","lat":43.312715,"lon":5.401684,"is_reserved":false,"is_disabled":false,"rental_uris":{"android":"levelo://app?vid=33c31183-3e7d-43be-aab7-5330cf445369","ios":"levelo://app?vid=33c31183-3e7d-43be-aab7-5330cf445369"},"vehicle_type_id":"4","last_reported":1760771309,"current_range_meters":6400,"station_id":"ce4bh092rcd13ifvqd30","pricing_plan_id":"cebpf4jnsgd1na2vs0mg"},{"bike_id":"3805b333-f388-46ee-97f7-6f0629d42a74","system_id":"levelo_inurba_marseille","lat":43.30145,"lon":5.3988,"is_reserved":false,"is_disabled":false,"rental_uris":{"android":"levelo://app?vid=3805b333-f388-46ee-97f7-6f0629d42a74","ios":"levelo://app?vid=3805b333-f388-46ee-97f7-6f0629d42a74"},"vehicle_type_id":"4","last_reported":1760771309,"current_range_meters":6400,"station_id":"ce4bh0h2rcd13ifvqd40","pricing_plan_id":"cebpf4jnsgd1na2vs0mg"},{"bike_id":"239d16d8-88c7-4aee-8506-4f55eb58b91f","system_id":"levelo_inurba_marseille","lat":43.30802,"lon":5.4352,"is_reserved":false,"is_disabled":true,"rental_uris":{"android":"levelo://app?vid=239d16d8-88c7-4aee-8506-4f55eb58b91f","ios":"levelo://app?vid=239d16d8-88c7-4aee-8506-4f55eb58b91f"},"vehicle_type_id":"4","last_reported":1760771309,"current_range_meters":6400,"station_id":"ce4bhph2rcd13ifvqheg","pricing_plan_id":"cebpf4jnsgd1na2vs0mg"},{"bike_id":"bea4f58e-0c1c-43e7-ac8d-9ab23ddf3c09","system_id":"levelo_inurba_marseille","lat":43.292292,"lon":5.360538,"is_reserved":false,"is_disabled":false,"rental_uris":{"android":"levelo://app?vid=bea4f58e-0c1c-43e7-ac8d-9ab23ddf3c09","ios":"levelo://app?vid=bea4f58e-0c1c-43e7-ac8d-9ab23ddf3c09"},"vehicle_type_id":"4","last_reported":1760771309,"current_range_meters":6400,"station_id":"ce4bhbh2rcd13ifvqeqg","pricing_plan_id":"cebpf4jnsgd1na2vs0mg"},{"bike_id":"2fd42711-d66b-45fb-9dd9-970ee051ffe8","system_id":"levelo_inurba_marseille","lat":43.25,"lon":5.38919,"is_reserved":false,"is_disabled":false,"rental_uris":{"android":"levelo://app?vid=2fd42711-d66b-45fb-9dd9-970ee051ffe8","ios":"levelo://app?vid=2fd42711-d66b-45fb-9dd9-970ee051ffe8"},"vehicle_type_id":"4","last_reported":1760771309,"current_range_meters":6400,"station_id":"ce4bhgp2rcd13ifvqfd0","pricing_plan_id":"cebpf4jnsgd1na2vs0mg"},{"bike_id":"465eb355-3a95-4dc2-9312-064deb2ce881","system_id":"levelo_inurba_marseille","lat":43.24061,"lon":5.37766,"is_reserved":false,"is_disabled":false,"rental_uris":{"android":"levelo://app?vid=465eb355-3a95-4dc2-9312-064deb2ce881","ios":"levelo://app?vid=465eb355-3a95-4dc2-9312-064deb2ce881"},"vehicle_type_id":"4","last_reported":1760771309,"current_range_meters":6800,"station_id":"ce4bhnp2rcd13ifvqgvg","pricing_plan_id":"cebpf4jnsgd1na2vs0mg"},{"bike_id":"837692bb-f932-46c7-ab0c-6d7fd45b8f82","system_id":"levelo_inurba_marseille","lat":43.235751,"lon":5.374511,"is_reserved":false,"is_disabled":false,"rental_uris":{"android":"levelo://app?vid=837692bb-f932-46c7-ab0c-6d7fd45b8f82","ios":"levelo://app?vid=837692bb-f932-46c7-ab0c-6d7fd45b8f82"},"vehicle_type_id":"4","last_reported":1760771309,"current_range_meters":6800,"station_id":"","pricing_plan_id":"cebpf4jnsgd1na2vs0mg"},{"bike_id":"24d82d64-1145-442f-a9f5-19238b0b39ef","system_id":"levelo_inurba_marseille","lat":43.272133,"lon":5.391866,"is_reserved":false,"is_disabled":false,"rental_uris":{"android":"levelo://app?vid=24d82d64-1145-442f-a9f5-19238b0b39ef","ios":"levelo://app?vid=24d82d64-1145-442f-a9f5-19238b0b39ef"},"vehicle_type_id":"4","last_reported":1760771309,"current_range_meters":7200,"station_id":"","pricing_plan_id":"cebpf4jnsgd1na2vs0mg"},{"bike_id":"7e444206-20cf-47e2-a819-82c6ab3d59a7","system_id":"levelo_inurba_marseille","lat":43.33742,"lon":5.40681,"is_reserved":false,"is_disabled":false,"rental_uris":{"android":"levelo://app?vid=7e444206-20cf-47e2-a819-82c6ab3d59a7","ios":"levelo://app?vid=7e444206-20cf-47e2-a819-82c6ab3d59a7"},"vehicle_type_id":"4","last_reported":1760771309,"current_range_meters":7200,"station_id":"","pricing_plan_id":"cebpf4jnsgd1na2vs0mg"},{"bike_id":"e41ecc10-3126-40da-a5ae-4a215c92fe08","system_id":"levelo_inurba_marseille","lat":43.28459,"lon":5.35878,"is_reserved":false,"is_disabled":false,"rental_uris":{"android":"levelo://app?vid=e41ecc10-3126-40da-a5ae-4a215c92fe08","ios":"levelo://app?vid=e41ecc10-3126-40da-a5ae-4a215c92fe08"},"vehicle_type_id":"4","last_reported":1760771309,"current_range_meters":7200,"station_id":"ce4bhah2rcd13ifvqei0","pricing_plan_id":"cebpf4jnsgd1na2vs0mg"},{"bike_id":"e87b71c7-895a-4869-8c40-bac209ca98c2","system_id":"levelo_inurba_marseille","lat":43.29807,"lon":5.37908,"is_reserved":false,"is_disabled":false,"rental_uris":{"android":"levelo://app?vid=e87b71c7-895a-4869-8c40-bac209ca98c2","ios":"levelo://app?vid=e87b71c7-895a-4869-8c40-bac209ca98c2"},"vehicle_type_id":"4","last_reported":1760771309,"current_range_meters":7200,"station_id":"","pricing_plan_id":"cebpf4jnsgd1na2vs0mg"},{"bike_id":"b198fdae-a02e-4380-b40a-23fa0f5e4197","system_id":"levelo_inurba_marseille","lat":43.28609,"lon":5.40707,"is_reserved":false,"is_disabled":false,"rental_uris":{"android":"levelo://app?vid=b198fdae-a02e-4380-b40a-23fa0f5e4197","ios":"levelo://app?vid=b198fdae-a02e-4380-b40a-23fa0f5e4197"},"vehicle_type_id":"4","last_reported":1760771309,"current_range_meters":7200,"station_id":"","pricing_plan_id":"cebpf4jnsgd1na2vs0mg"},{"bike_id":"87e63646-fd62-4383-b90e-ad9c8b2eb381","system_id":"levelo_inurba_marseille","lat":43.309299,"lon":5.401598,"is_reserved":false,"is_disabled":false,"rental_uris":{"android":"levelo://app?vid=87e63646-fd62-4383-b90e-ad9c8b2eb381","ios":"levelo://app?vid=87e63646-fd62-4383-b90e-ad9c8b2eb381"},"vehicle_type_id":"4","last_reported":1760771309,"current_range_meters":7200,"station_id":"ce4bgvp2rcd13ifvqct0","pricing_plan_id":"cebpf4jnsgd1na2vs0mg"},{"bike_id":"d8a1900a-8678-4dcb-b3e4-07a8d4075ca2","system_id":"levelo_inurba_marseille","lat":43.27331,"lon":5.39077,"is_reserved":false,"is_disabled":false,"rental_uris":{"android":"levelo://app?vid=d8a1900a-8678-4dcb-b3e4-07a8d4075ca2","ios":"levelo://app?vid=d8a1900a-8678-4dcb-b3e4-07a8d4075ca2"},"vehicle_type_id":"4","last_reported":1760771309,"current_range_meters":8000,"station_id":"ce4bhgp2rcd13ifvqfe0","pricing_plan_id":"cebpf4jnsgd1na2vs0mg"},{"bike_id":"2837e537-82d5-4a45-8769-1010a029403b","system_id":"levelo_inurba_marseille","lat":43.3014,"lon":5.38784,"is_reserved":false,"is_disabled":false,"rental_uris":{"android":"levelo://app?vid=2837e537-82d5-4a45-8769-1010a029403b","ios":"levelo://app?vid=2837e537-82d5-4a45-8769-1010a029403b"},"vehicle_type_id":"4","last_reported":1760771309,"current_range_meters":8000,"station_id":"ce4bghh2rcd13ifvqb60","pricing_plan_id":"cebpf4jnsgd1na2vs0mg"},{"bike_id":"edc2b540-f4d1-424e-9002-80823ed0b6b2","system_id":"levelo_inurba_marseille","lat":43.2838,"lon":5.37039,"is_reserved":false,"is_disabled":false,"rental_uris":{"android":"levelo://app?vid=edc2b540-f4d1-424e-9002-80823ed0b6b2","ios":"levelo://app?vid=edc2b540-f4d1-424e-9002-80823ed0b6b2"},"vehicle_type_id":"4","last_reported":1760771309,"current_range_meters":8000,"station_id":"","pricing_plan_id":"cebpf4jnsgd1na2vs0mg"},{"bike_id":"17266aff-8a59-4bd1-a91d-49e08e53d11c","system_id":"levelo_inurba_marseille","lat":43.29451,"lon":5.40925,"is_reserved":false,"is_disabled":false,"rental_uris":{"android":"levelo://app?vid=17266aff-8a59-4bd1-a91d-49e08e53d11c","ios":"levelo://app?vid=17266aff-8a59-4bd1-a91d-49e08e53d11c"},"vehicle_type_id":"4","last_reported":1760771309,"current_range_meters":8000,"station_id":"","pricing_plan_id":"cebpf4jnsgd1na2vs0mg"},{"bike_id":"cfb3fcf1-7d43-4247-8d54-ff93bd89ba87","system_id":"levelo_inurba_marseille","lat":43.307053,"lon":5.397177,"is_reserved":false,"is_disabled":false,"rental_uris":{"android":"levelo://app?vid=cfb3fcf1-7d43-4247-8d54-ff93bd89ba87","ios":"levelo://app?vid=cfb3fcf1-7d43-4247-8d54-ff93bd89ba87"},"vehicle_type_id":"4","last_reported":1760771309,"current_range_meters":8000,"station_id":"","pricing_plan_id":"cebpf4jnsgd1na2vs0mg"},{"bike_id":"e7810fe4-f9d6-4b54-b2ca-6e00239baeeb","system_id":"levelo_inurba_marseille","lat":43.24362,"lon":5.370564,"is_reserved":false,"is_disabled":false,"rental_uris":{"android":"levelo://app?vid=e7810fe4-f9d6-4b54-b2ca-6e00239baeeb","ios":"levelo://app?vid=e7810fe4-f9d6-4b54-b2ca-6e00239baeeb"},"vehicle_type_id":"4","last_reported":1760771309,"current_range_meters":8400,"station_id":"ce4bhhh2rcd13ifvqfk0","pricing_plan_id":"cebpf4jnsgd1na2vs0mg"},{"bike_id":"7ecb8780-a7d7-43a7-8f54-506a5df0e322","system_id":"levelo_inurba_marseille","lat":43.25023,"lon":5.38907,"is_reserved":false,"is_disabled":false,"rental_uris":{"android":"levelo://app?vid=7ecb8780-a7d7-43a7-8f54-506a5df0e322","ios":"levelo://app?vid=7ecb8780-a7d7-43a7-8f54-506a5df0e322"},"vehicle_type_id":"4","last_reported":1760771309,"current_range_meters":8400,"station_id":"ce4bhgp2rcd13ifvqfd0","pricing_plan_id":"cebpf4jnsgd1na2vs0mg"},{"bike_id":"1d5e9adf-5572-42ac-a6cb-950838d4ad9e","system_id":"levelo_inurba_marseille","lat":43.27044,"lon":5.40263,"is_reserved":false,"is_disabled":false,"rental_uris":{"android":"levelo://app?vid=1d5e9adf-5572-42ac-a6cb-950838d4ad9e","ios":"levelo://app?vid=1d5e9adf-5572-42ac-a6cb-950838d4ad9e"},"vehicle_type_id":"4","last_reported":1760771309,"current_range_meters":8400,"station_id":"ce4bhk92rcd13ifvqgc0","pricing_plan_id":"cebpf4jnsgd1na2vs0mg"},{"bike_id":"0be93fcb-396b-4f52-b498-8f7029181a63","system_id":"levelo_inurba_marseille","lat":43.24057,"lon":5.40696,"is_reserved":false,"is_disabled":false,"rental_uris":{"android":"levelo://app?vid=0be93fcb-396b-4f52-b498-8f7029181a63","ios":"levelo://app?vid=0be93fcb-396b-4f52-b498-8f7029181a63"},"vehicle_type_id":"4","last_reported":1760771309,"current_range_meters":8400,"station_id":"","pricing_plan_id":"cebpf4jnsgd1na2vs0mg"},{"bike_id":"39579a07-a0cd-4be2-9dae-877b846a7eac","system_id":"levelo_inurba_marseille","lat":43.265533,"lon":5.39067,"is_reserved":false,"is_disabled":false,"rental_uris":{"android":"levelo://app?vid=39579a07-a0cd-4be2-9dae-877b846a7eac","ios":"levelo://app?vid=39579a07-a0cd-4be2-9dae-877b846a7eac"},"vehicle_type_id":"4","last_reported":1760771309,"current_range_meters":8400,"station_id":"","pricing_plan_id":"cebpf4jnsgd1na2vs0mg"},{"bike_id":"0c01c257-728d-46a3-a07a-b79f81ce023c","system_id":"levelo_inurba_marseille","lat":43.29974,"lon":5.3861,"is_reserved":false,"is_disabled":false,"rental_uris":{"android":"levelo://app?vid=0c01c257-728d-46a3-a07a-b79f81ce023c","ios":"levelo://app?vid=0c01c257-728d-46a3-a07a-b79f81ce023c"},"vehicle_type_id":"4","last_reported":1760771309,"current_range_meters":8400,"station_id":"","pricing_plan_id":"cebpf4jnsgd1na2vs0mg"},{"bike_id":"416f580b-31c7-4ade-8604-dbd86eb8155f","system_id":"levelo_inurba_marseille","lat":43.28164,"lon":5.42124,"is_reserved":false,"is_disabled":false,"rental_uris":{"android":"levelo://app?vid=416f580b-31c7-4ade-8604-dbd86eb8155f","ios":"levelo://app?vid=416f580b-31c7-4ade-8604-dbd86eb8155f"},"vehicle_type_id":"4","last_reported":1760771309,"current_range_meters":8400,"station_id":"","pricing_plan_id":"cebpf4jnsgd1na2vs0mg"},{"bike_id":"9a83225c-e267-4180-8748-8047f127f103","system_id":"levelo_inurba_marseille","lat":43.26925,"lon":5.38914,"is_reserved":false,"is_disabled":false,"rental_uris":{"android":"levelo://app?vid=9a83225c-e267-4180-8748-8047f127f103","ios":"levelo://app?vid=9a83225c-e267-4180-8748-8047f127f103"},"vehicle_type_id":"4","last_reported":1760771309,"current_range_meters":8400,"station_id":"ce4bhhh2rcd13ifvqfl0","pricing_plan_id":"cebpf4jnsgd1na2vs0mg"},{"bike_id":"81ae8444-c97f-4cf0-b3bd-72621a4c78da","system_id":"levelo_inurba_marseille","lat":43.27926,"lon":5.39581,"is_reserved":false,"is_disabled":false,"rental_uris":{"android":"levelo://app?vid=81ae8444-c97f-4cf0-b3bd-72621a4c78da","ios":"levelo://app?vid=81ae8444-c97f-4cf0-b3bd-72621a4c78da"},"vehicle_type_id":"4","last_reported":1760771309,"current_range_meters":8400,"station_id":"ce4bhf92rcd13ifvqf40","pricing_plan_id":"cebpf4jnsgd1na2vs0mg"},{"bike_id":"6c5ea294-cf2b-454e-a626-99b4a47a0f8f","system_id":"levelo_inurba_marseille","lat":43.2927,"lon":5.40144,"is_reserved":false,"is_disabled":false,"rental_uris":{"android":"levelo://app?vid=6c5ea294-cf2b-454e-a626-99b4a47a0f8f","ios":"levelo://app?vid=6c5ea294-cf2b-454e-a626-99b4a47a0f8f"},"vehicle_type_id":"4","last_reported":1760771309,"current_range_meters":8400,"station_id":"ce4bh312rcd13ifvqdk0","pricing_plan_id":"cebpf4jnsgd1na2vs0mg"},{"bike_id":"9dd1d8fe-c2a8-4a70-a175-61f5f9fe7fd2","system_id":"levelo_inurba_marseille","lat":43.32129,"lon":5.38708,"is_reserved":false,"is_disabled":false,"rental_uris":{"android":"levelo://app?vid=9dd1d8fe-c2a8-4a70-a175-61f5f9fe7fd2","ios":"levelo://app?vid=9dd1d8fe-c2a8-4a70-a175-61f5f9fe7fd2"},"vehicle_type_id":"4","last_reported":1760771309,"current_range_meters":8800,"station_id":"","pricing_plan_id":"cebpf4jnsgd1na2vs0mg"},{"bike_id":"0f9c20ae-f80b-4bc4-a84d-e94070c41d3b","system_id":"levelo_inurba_marseille","lat":43.22564,"lon":5.41638,"is_reserved":false,"is_disabled":false,"rental_uris":{"android":"levelo://app?vid=0f9c20ae-f80b-4bc4-a84d-e94070c41d3b","ios":"levelo://app?vid=0f9c20ae-f80b-4bc4-a84d-e94070c41d3b"},"vehicle_type_id":"4","last_reported":1760771309,"current_range_meters":8800,"station_id":"st_d2o4gvlbi1j2169b742g","pricing_plan_id":"cebpf4jnsgd1na2vs0mg"},{"bike_id":"2fad9211-819b-4892-bf52-014fbefdb6cb","system_id":"levelo_inurba_marseille","lat":43.301519,"lon":5.373953,"is_reserved":false,"is_disabled":false,"rental_uris":{"android":"levelo://app?vid=2fad9211-819b-4892-bf52-014fbefdb6cb","ios":"levelo://app?vid=2fad9211-819b-4892-bf52-014fbefdb6cb"},"vehicle_type_id":"4","last_reported":1760771309,"current_range_meters":8800,"station_id":"ce4bgs92rcd13ifvqcc0","pricing_plan_id":"cebpf4jnsgd1na2vs0mg"},{"bike_id":"5fe6e873-dba1-40dd-bc65-77de126f2710","system_id":"levelo_inurba_marseille","lat":43.332893,"lon":5.395256,"is_reserved":false,"is_disabled":false,"rental_uris":{"android":"levelo://app?vid=5fe6e873-dba1-40dd-bc65-77de126f2710","ios":"levelo://app?vid=5fe6e873-dba1-40dd-bc65-77de126f2710"},"vehicle_type_id":"4","last_reported":1760771309,"current_range_meters":8800,"station_id":"","pricing_plan_id":"cebpf4jnsgd1na2vs0mg"},{"bike_id":"3b42f45b-b150-41aa-b8dc-a999999ab10a","system_id":"levelo_inurba_marseille","lat":43.26547,"lon":5.37305,"is_reserved":false,"is_disabled":false,"rental_uris":{"android":"levelo://app?vid=3b42f45b-b150-41aa-b8dc-a999999ab10a","ios":"levelo://app?vid=3b42f45b-b150-41aa-b8dc-a999999ab10a"},"vehicle_type_id":"4","last_reported":1760771309,"current_range_meters":8800,"station_id":"ce4bhg12rcd13ifvqf70","pricing_plan_id":"cebpf4jnsgd1na2vs0mg"},{"bike_id":"c5e45447-2956-450f-bd7e-88aaf308c04d","system_id":"levelo_inurba_marseille","lat":43.29009,"lon":5.36526,"is_reserved":false,"is_disabled":false,"rental_uris":{"android":"levelo://app?vid=c5e45447-2956-450f-bd7e-88aaf308c04d","ios":"levelo://app?vid=c5e45447-2956-450f-bd7e-88aaf308c04d"},"vehicle_type_id":"4","last_reported":1760771309,"current_range_meters":9200,"station_id":"","pricing_plan_id":"cebpf4jnsgd1na2vs0mg"},{"bike_id":"ee8b3b0c-84ef-4970-9eea-09cde78c8100","system_id":"levelo_inurba_marseille","lat":43.32289,"lon":5.38269,"is_reserved":false,"is_disabled":false,"rental_uris":{"android":"levelo://app?vid=ee8b3b0c-84ef-4970-9eea-09cde78c8100","ios":"levelo://app?vid=ee8b3b0c-84ef-4970-9eea-09cde78c8100"},"vehicle_type_id":"4","last_reported":1760771309,"current_range_meters":9200,"station_id":"ce4bhr12rcd13ifvqhqg","pricing_plan_id":"cebpf4jnsgd1na2vs0mg"},{"bike_id":"6070bb89-4216-4b75-a351-fbabcb0847eb","system_id":"levelo_inurba_marseille","lat":43.27193,"lon":5.39181,"is_reserved":false,"is_disabled":false,"rental_uris":{"android":"levelo://app?vid=6070bb89-4216-4b75-a351-fbabcb0847eb","ios":"levelo://app?vid=6070bb89-4216-4b75-a351-fbabcb0847eb"},"vehicle_type_id":"4","last_reported":1760771309,"current_range_meters":9200,"station_id":"ce4bhhp2rcd13ifvqfm0","pricing_plan_id":"cebpf4jnsgd1na2vs0mg"},{"bike_id":"54e42865-c498-40bb-b84c-9a543fdfb506","system_id":"levelo_inurba_marseille","lat":43.30284,"lon":5.37712,"is_reserved":false,"is_disabled":false,"rental_uris":{"android":"levelo://app?vid=54e42865-c498-40bb-b84c-9a543fdfb506","ios":"levelo://app?vid=54e42865-c498-40bb-b84c-9a543fdfb506"},"vehicle_type_id":"4","last_reported":1760771309,"current_range_meters":9200,"station_id":"ce4bguh2rcd13ifvqcj0","pricing_plan_id":"cebpf4jnsgd1na2vs0mg"},{"bike_id":"a817b630-bbed-48d3-97f4-9bd571b9ebab","system_id":"levelo_inurba_marseille","lat":43.29994,"lon":5.37355,"is_reserved":false,"is_disabled":false,"rental_uris":{"android":"levelo://app?vid=a817b630-bbed-48d3-97f4-9bd571b9ebab","ios":"levelo://app?vid=a817b630-bbed-48d3-97f4-9bd571b9ebab"},"vehicle_type_id":"4","last_reported":1760771309,"current_range_meters":9200,"station_id":"","pricing_plan_id":"cebpf4jnsgd1na2vs0mg"},{"bike_id":"aa97a038-de4a-498d-a4b4-8ec99e18be3a","system_id":"levelo_inurba_marseille","lat":43.308833,"lon":5.39648,"is_reserved":false,"is_disabled":true,"rental_uris":{"android":"levelo://app?vid=aa97a038-de4a-498d-a4b4-8ec99e18be3a","ios":"levelo://app?vid=aa97a038-de4a-498d-a4b4-8ec99e18be3a"},"vehicle_type_id":"4","last_reported":1760771309,"current_range_meters":9200,"station_id":"ce4bh012rcd13ifvqcv0","pricing_plan_id":"cebpf4jnsgd1na2vs0mg"},{"bike_id":"887ae0cd-852b-4c3e-8383-09da22b1d71d","system_id":"levelo_inurba_marseille","lat":43.24036,"lon":5.37798,"is_reserved":false,"is_disabled":false,"rental_uris":{"android":"levelo://app?vid=887ae0cd-852b-4c3e-8383-09da22b1d71d","ios":"levelo://app?vid=887ae0cd-852b-4c3e-8383-09da22b1d71d"},"vehicle_type_id":"4","last_reported":1760771309,"current_range_meters":9600,"station_id":"ce4bhnp2rcd13ifvqgvg","pricing_plan_id":"cebpf4jnsgd1na2vs0mg"},{"bike_id":"ba2479bd-5a5a-46c2-83c3-00588f4cf74a","system_id":"levelo_inurba_marseille","lat":43.29779,"lon":5.36464,"is_reserved":false,"is_disabled":false,"rental_uris":{"android":"levelo://app?vid=ba2479bd-5a5a-46c2-83c3-00588f4cf74a","ios":"levelo://app?vid=ba2479bd-5a5a-46c2-83c3-00588f4cf74a"},"vehicle_type_id":"4","last_reported":1760771309,"current_range_meters":9600,"station_id":"","pricing_plan_id":"cebpf4jnsgd1na2vs0mg"},{"bike_id":"eee6fc5a-a5e6-4f0c-a6a4-97824048b485","system_id":"levelo_inurba_marseille","lat":43.2396,"lon":5.36631,"is_reserved":false,"is_disabled":false,"rental_uris":{"android":"levelo://app?vid=eee6fc5a-a5e6-4f0c-a6a4-97824048b485","ios":"levelo://app?vid=eee6fc5a-a5e6-4f0c-a6a4-97824048b485"},"vehicle_type_id":"4","last_reported":1760771309,"current_range_meters":9600,"station_id":"ce4bhi12rcd13ifvqfp0","pricing_plan_id":"cebpf4jnsgd1na2vs0mg"},{"bike_id":"7be8991a-8b83-424f-bd28-a57ce3027e7c","system_id":"levelo_inurba_marseille","lat":43.3059,"lon":5.3936,"is_reserved":false,"is_disabled":false,"rental_uris":{"android":"levelo://app?vid=7be8991a-8b83-424f-bd28-a57ce3027e7c","ios":"levelo://app?vid=7be8991a-8b83-424f-bd28-a57ce3027e7c"},"vehicle_type_id":"4","last_reported":1760771309,"current_range_meters":9600,"station_id":"ce4bh0p2rcd13ifvqd80","pricing_plan_id":"cebpf4jnsgd1na2vs0mg"},{"bike_id":"c0f9d72c-9323-4fec-a3c2-2fc47601f4af","system_id":"levelo_inurba_marseille","lat":43.29265,"lon":5.400176,"is_reserved":false,"is_disabled":false,"rental_uris":{"android":"levelo://app?vid=c0f9d72c-9323-4fec-a3c2-2fc47601f4af","ios":"levelo://app?vid=c0f9d72c-9323-4fec-a3c2-2fc47601f4af"},"vehicle_type_id":"4","last_reported":1760771309,"current_range_meters":9600,"station_id":"ce4bh312rcd13ifvqdk0","pricing_plan_id":"cebpf4jnsgd1na2vs0mg"},{"bike_id":"245a030c-0c43-41f8-a4cc-088d55252b06","system_id":"levelo_inurba_marseille","lat":43.24477,"lon":5.36933,"is_reserved":false,"is_disabled":false,"rental_uris":{"android":"levelo://app?vid=245a030c-0c43-41f8-a4cc-088d55252b06","ios":"levelo://app?vid=245a030c-0c43-41f8-a4cc-088d55252b06"},"vehicle_type_id":"4","last_reported":1760771309,"current_range_meters":9600,"station_id":"","pricing_plan_id":"cebpf4jnsgd1na2vs0mg"},{"bike_id":"ea883585-d0e4-4bcb-922c-57b2a3efdeac","system_id":"levelo_inurba_marseille","lat":43.30522,"lon":5.36859,"is_reserved":false,"is_disabled":false,"rental_uris":{"android":"levelo://app?vid=ea883585-d0e4-4bcb-922c-57b2a3efdeac","ios":"levelo://app?vid=ea883585-d0e4-4bcb-922c-57b2a3efdeac"},"vehicle_type_id":"4","last_reported":1760771309,"current_range_meters":9600,"station_id":"","pricing_plan_id":"cebpf4jnsgd1na2vs0mg"},{"bike_id":"53e45f66-6c88-47d1-a739-fad578ecef73","system_id":"levelo_inurba_marseille","lat":43.23775,"lon":5.36639,"is_reserved":false,"is_disabled":false,"rental_uris":{"android":"levelo://app?vid=53e45f66-6c88-47d1-a739-fad578ecef73","ios":"levelo://app?vid=53e45f66-6c88-47d1-a739-fad578ecef73"},"vehicle_type_id":"4","last_reported":1760771309,"current_range_meters":9600,"station_id":"st_d3nk18o9ro0c73en2l3g","pricing_plan_id":"cebpf4jnsgd1na2vs0mg"},{"bike_id":"808568d5-4c4d-41fc-9055-393ce02b7d1d","system_id":"levelo_inurba_marseille","lat":43.237867,"lon":5.366293,"is_reserved":false,"is_disabled":false,"rental_uris":{"android":"levelo://app?vid=808568d5-4c4d-41fc-9055-393ce02b7d1d","ios":"levelo://app?vid=808568d5-4c4d-41fc-9055-393ce02b7d1d"},"vehicle_type_id":"4","last_reported":1760771309,"current_range_meters":9600,"station_id":"st_d3nk18o9ro0c73en2l3g","pricing_plan_id":"cebpf4jnsgd1na2vs0mg"},{"bike_id":"39a6d961-57e5-499b-800b-2ae80babcb9c","system_id":"levelo_inurba_marseille","lat":43.312238,"lon":5.368624,"is_reserved":false,"is_disabled":false,"rental_uris":{"android":"levelo://app?vid=39a6d961-57e5-499b-800b-2ae80babcb9c","ios":"levelo://app?vid=39a6d961-57e5-499b-800b-2ae80babcb9c"},"vehicle_type_id":"4","last_reported":1760771309,"current_range_meters":9600,"station_id":"","pricing_plan_id":"cebpf4jnsgd1na2vs0mg"},{"bike_id":"4f37cbdf-50f6-4652-be3d-de913cc1cf6e","system_id":"levelo_inurba_marseille","lat":43.21766,"lon":5.34591,"is_reserved":false,"is_disabled":false,"rental_uris":{"android":"levelo://app?vid=4f37cbdf-50f6-4652-be3d-de913cc1cf6e","ios":"levelo://app?vid=4f37cbdf-50f6-4652-be3d-de913cc1cf6e"},"vehicle_type_id":"4","last_reported":1760771309,"current_range_meters":10000,"station_id":"st_cvj6r9ubvosntc0bgbag","pricing_plan_id":"cebpf4jnsgd1na2vs0mg"},{"bike_id":"3e89b6f0-0116-4457-9063-c82f50c7d29c","system_id":"levelo_inurba_marseille","lat":43.231943,"lon":5.355513,"is_reserved":false,"is_disabled":false,"rental_uris":{"android":"levelo://app?vid=3e89b6f0-0116-4457-9063-c82f50c7d29c","ios":"levelo://app?vid=3e89b6f0-0116-4457-9063-c82f50c7d29c"},"vehicle_type_id":"4","last_reported":1760771309,"current_range_meters":10000,"station_id":"ce4bhu92rcd13ifvqi70","pricing_plan_id":"cebpf4jnsgd1na2vs0mg"},{"bike_id":"257bcc48-c85f-474a-ae18-eb59a5b65050","system_id":"levelo_inurba_marseille","lat":43.29583,"lon":5.38114,"is_reserved":false,"is_disabled":false,"rental_uris":{"android":"levelo://app?vid=257bcc48-c85f-474a-ae18-eb59a5b65050","ios":"levelo://app?vid=257bcc48-c85f-474a-ae18-eb59a5b65050"},"vehicle_type_id":"4","last_reported":1760771309,"current_range_meters":10000,"station_id":"ce4bgl12rcd13ifvqbo0","pricing_plan_id":"cebpf4jnsgd1na2vs0mg"},{"bike_id":"1ea58d06-2bc8-43e6-9700-ceffc676d32c","system_id":"levelo_inurba_marseille","lat":43.21758,"lon":5.34614,"is_reserved":false,"is_disabled":false,"rental_uris":{"android":"levelo://app?vid=1ea58d06-2bc8-43e6-9700-ceffc676d32c","ios":"levelo://app?vid=1ea58d06-2bc8-43e6-9700-ceffc676d32c"},"vehicle_type_id":"4","last_reported":1760771309,"current_range_meters":10000,"station_id":"cpo36qri1sfpv3e86is0","pricing_plan_id":"cebpf4jnsgd1na2vs0mg"},{"bike_id":"61ae11d1-3fd0-4a44-bd9a-cb6b3f463a03","system_id":"levelo_inurba_marseille","lat":43.3013,"lon":5.43093,"is_reserved":false,"is_disabled":false,"rental_uris":{"android":"levelo://app?vid=61ae11d1-3fd0-4a44-bd9a-cb6b3f463a03","ios":"levelo://app?vid=61ae11d1-3fd0-4a44-bd9a-cb6b3f463a03"},"vehicle_type_id":"4","last_reported":1760771309,"current_range_meters":10000,"station_id":"st_d3js3co5814s73ftftug","pricing_plan_id":"cebpf4jnsgd1na2vs0mg"},{"bike_id":"e510749c-463c-4436-a8a8-9d6e88d3a39e","system_id":"levelo_inurba_marseille","lat":43.29841,"lon":5.36272,"is_reserved":false,"is_disabled":false,"rental_uris":{"android":"levelo://app?vid=e510749c-463c-4436-a8a8-9d6e88d3a39e","ios":"levelo://app?vid=e510749c-463c-4436-a8a8-9d6e88d3a39e"},"vehicle_type_id":"4","last_reported":1760771309,"current_range_meters":10000,"station_id":"ce4bgpp2rcd13ifvqc3g","pricing_plan_id":"cebpf4jnsgd1na2vs0mg"},{"bike_id":"fb806b2c-b68e-4116-9a5a-982906460941","system_id":"levelo_inurba_marseille","lat":43.26784,"lon":5.39409,"is_reserved":false,"is_disabled":false,"rental_uris":{"android":"levelo://app?vid=fb806b2c-b68e-4116-9a5a-982906460941","ios":"levelo://app?vid=fb806b2c-b68e-4116-9a5a-982906460941"},"vehicle_type_id":"4","last_reported":1760771309,"current_range_meters":10000,"station_id":"ce4bhh12rcd13ifvqfg0","pricing_plan_id":"cebpf4jnsgd1na2vs0mg"},{"bike_id":"ab8dbe06-49f3-423b-99b1-2274be7ed343","system_id":"levelo_inurba_marseille","lat":43.29711,"lon":5.36611,"is_reserved":false,"is_disabled":true,"rental_uris":{"android":"levelo://app?vid=ab8dbe06-49f3-423b-99b1-2274be7ed343","ios":"levelo://app?vid=ab8dbe06-49f3-423b-99b1-2274be7ed343"},"vehicle_type_id":"4","last_reported":1760771309,"current_range_meters":10000,"station_id":"ce4bgn12rcd13ifvqbt0","pricing_plan_id":"cebpf4jnsgd1na2vs0mg"},{"bike_id":"e2f1a5a7-28c1-454d-aa88-fd2ac4240f4b","system_id":"levelo_inurba_marseille","lat":43.319938,"lon":5.381533,"is_reserved":false,"is_disabled":false,"rental_uris":{"android":"levelo://app?vid=e2f1a5a7-28c1-454d-aa88-fd2ac4240f4b","ios":"levelo://app?vid=e2f1a5a7-28c1-454d-aa88-fd2ac4240f4b"},"vehicle_type_id":"4","last_reported":1760771309,"current_range_meters":10800,"station_id":"ce4bhr12rcd13ifvqhpg","pricing_plan_id":"cebpf4jnsgd1na2vs0mg"},{"bike_id":"295c3f86-f4b7-4466-bd2e-b1ad1cf1a43f","system_id":"levelo_inurba_marseille","lat":43.3132,"lon":5.39709,"is_reserved":false,"is_disabled":false,"rental_uris":{"android":"levelo://app?vid=295c3f86-f4b7-4466-bd2e-b1ad1cf1a43f","ios":"levelo://app?vid=295c3f86-f4b7-4466-bd2e-b1ad1cf1a43f"},"vehicle_type_id":"4","last_reported":1760771309,"current_range_meters":10800,"station_id":"ce4bgvp2rcd13ifvqcu0","pricing_plan_id":"cebpf4jnsgd1na2vs0mg"},{"bike_id":"13b1b8dd-4c34-4298-bcfc-5942513d26b6","system_id":"levelo_inurba_marseille","lat":43.30794,"lon":5.37648,"is_reserved":false,"is_disabled":false,"rental_uris":{"android":"levelo://app?vid=13b1b8dd-4c34-4298-bcfc-5942513d26b6","ios":"levelo://app?vid=13b1b8dd-4c34-4298-bcfc-5942513d26b6"},"vehicle_type_id":"4","last_reported":1760771309,"current_range_meters":10800,"station_id":"ce4bgv92rcd13ifvqcq0","pricing_plan_id":"cebpf4jnsgd1na2vs0mg"},{"bike_id":"4c435c82-0bc4-4369-80cf-ae9046a83658","system_id":"levelo_inurba_marseille","lat":43.24162,"lon":5.36389,"is_reserved":false,"is_disabled":false,"rental_uris":{"android":"levelo://app?vid=4c435c82-0bc4-4369-80cf-ae9046a83658","ios":"levelo://app?vid=4c435c82-0bc4-4369-80cf-ae9046a83658"},"vehicle_type_id":"4","last_reported":1760771309,"current_range_meters":10800,"station_id":"cpo36qri1sfpv3e86is0","pricing_plan_id":"cebpf4jnsgd1na2vs0mg"},{"bike_id":"0b3efce5-4367-4a2d-8203-9e5cc1cb3dcd","system_id":"levelo_inurba_marseille","lat":43.27926,"lon":5.39603,"is_reserved":false,"is_disabled":false,"rental_uris":{"android":"levelo://app?vid=0b3efce5-4367-4a2d-8203-9e5cc1cb3dcd","ios":"levelo://app?vid=0b3efce5-4367-4a2d-8203-9e5cc1cb3dcd"},"vehicle_type_id":"4","last_reported":1760771309,"current_range_meters":10800,"station_id":"ce4bhf92rcd13ifvqf40","pricing_plan_id":"cebpf4jnsgd1na2vs0mg"},{"bike_id":"80e20963-8876-4ea3-a033-4ce8fc3c5578","system_id":"levelo_inurba_marseille","lat":43.27999,"lon":5.41652,"is_reserved":false,"is_disabled":false,"rental_uris":{"android":"levelo://app?vid=80e20963-8876-4ea3-a033-4ce8fc3c5578","ios":"levelo://app?vid=80e20963-8876-4ea3-a033-4ce8fc3c5578"},"vehicle_type_id":"4","last_reported":1760771309,"current_range_meters":11200,"station_id":"ce4bho12rcd13ifvqh1g","pricing_plan_id":"cebpf4jnsgd1na2vs0mg"},{"bike_id":"a1328e73-0d5e-4d41-b9e6-12ac8514a499","system_id":"levelo_inurba_marseille","lat":43.280288,"lon":5.416782,"is_reserved":false,"is_disabled":true,"rental_uris":{"android":"levelo://app?vid=a1328e73-0d5e-4d41-b9e6-12ac8514a499","ios":"levelo://app?vid=a1328e73-0d5e-4d41-b9e6-12ac8514a499"},"vehicle_type_id":"4","last_reported":1760771309,"current_range_meters":11200,"station_id":"ce4bho12rcd13ifvqh1g","pricing_plan_id":"cebpf4jnsgd1na2vs0mg"},{"bike_id":"b3edc609-7782-46af-831c-544f1d118f47","system_id":"levelo_inurba_marseille","lat":43.30798,"lon":5.435295,"is_reserved":false,"is_disabled":false,"rental_uris":{"android":"levelo://app?vid=b3edc609-7782-46af-831c-544f1d118f47","ios":"levelo://app?vid=b3edc609-7782-46af-831c-544f1d118f47"},"vehicle_type_id":"4","last_reported":1760771309,"current_range_meters":11200,"station_id":"ce4bhph2rcd13ifvqheg","pricing_plan_id":"cebpf4jnsgd1na2vs0mg"},{"bike_id":"01570a4d-a9eb-4055-9356-4cb4ef5a5280","system_id":"levelo_inurba_marseille","lat":43.24169,"lon":5.39703,"is_reserved":false,"is_disabled":false,"rental_uris":{"android":"levelo://app?vid=01570a4d-a9eb-4055-9356-4cb4ef5a5280","ios":"levelo://app?vid=01570a4d-a9eb-4055-9356-4cb4ef5a5280"},"vehicle_type_id":"4","last_reported":1760771309,"current_range_meters":11200,"station_id":"ce4bhn12rcd13ifvqgpg","pricing_plan_id":"cebpf4jnsgd1na2vs0mg"},{"bike_id":"513bc67a-4802-48ce-98cd-ce6257048ec6","system_id":"levelo_inurba_marseille","lat":43.29961,"lon":5.37201,"is_reserved":false,"is_disabled":false,"rental_uris":{"android":"levelo://app?vid=513bc67a-4802-48ce-98cd-ce6257048ec6","ios":"levelo://app?vid=513bc67a-4802-48ce-98cd-ce6257048ec6"},"vehicle_type_id":"4","last_reported":1760771309,"current_range_meters":11200,"station_id":"ce4bgr92rcd13ifvqc7g","pricing_plan_id":"cebpf4jnsgd1na2vs0mg"},{"bike_id":"8aa3ec83-557d-4118-b42f-7e9ff74932f2","system_id":"levelo_inurba_marseille","lat":43.241645,"lon":5.364142,"is_reserved":false,"is_disabled":false,"rental_uris":{"android":"levelo://app?vid=8aa3ec83-557d-4118-b42f-7e9ff74932f2","ios":"levelo://app?vid=8aa3ec83-557d-4118-b42f-7e9ff74932f2"},"vehicle_type_id":"4","last_reported":1760771309,"current_range_meters":11200,"station_id":"cpo36qri1sfpv3e86is0","pricing_plan_id":"cebpf4jnsgd1na2vs0mg"},{"bike_id":"4b676340-84a1-434f-989d-aa20b878ac5e","system_id":"levelo_inurba_marseille","lat":43.267392,"lon":5.429544,"is_reserved":false,"is_disabled":false,"rental_uris":{"android":"levelo://app?vid=4b676340-84a1-434f-989d-aa20b878ac5e","ios":"levelo://app?vid=4b676340-84a1-434f-989d-aa20b878ac5e"},"vehicle_type_id":"4","last_reported":1760771309,"current_range_meters":11200,"station_id":"","pricing_plan_id":"cebpf4jnsgd1na2vs0mg"},{"bike_id":"11922d31-bde2-462a-9db4-eb8de273010c","system_id":"levelo_inurba_marseille","lat":43.28416,"lon":5.37511,"is_reserved":false,"is_disabled":false,"rental_uris":{"android":"levelo://app?vid=11922d31-bde2-462a-9db4-eb8de273010c","ios":"levelo://app?vid=11922d31-bde2-462a-9db4-eb8de273010c"},"vehicle_type_id":"4","last_reported":1760771309,"current_range_meters":11200,"station_id":"ce4bh412rcd13ifvqds0","pricing_plan_id":"cebpf4jnsgd1na2vs0mg"},{"bike_id":"e430d0a8-fc97-491b-8ac4-36d8a3bc3396","system_id":"levelo_inurba_marseille","lat":43.29298,"lon":5.3719,"is_reserved":false,"is_disabled":false,"rental_uris":{"android":"levelo://app?vid=e430d0a8-fc97-491b-8ac4-36d8a3bc3396","ios":"levelo://app?vid=e430d0a8-fc97-491b-8ac4-36d8a3bc3396"},"vehicle_type_id":"4","last_reported":1760771309,"current_range_meters":11600,"station_id":"ce4bgh92rcd13ifvqb40","pricing_plan_id":"cebpf4jnsgd1na2vs0mg"},{"bike_id":"924ac669-be8b-47aa-9a8e-6f22baf815eb","system_id":"levelo_inurba_marseille","lat":43.337692,"lon":5.374734,"is_reserved":false,"is_disabled":false,"rental_uris":{"android":"levelo://app?vid=924ac669-be8b-47aa-9a8e-6f22baf815eb","ios":"levelo://app?vid=924ac669-be8b-47aa-9a8e-6f22baf815eb"},"vehicle_type_id":"4","last_reported":1760771309,"current_range_meters":11600,"station_id":"","pricing_plan_id":"cebpf4jnsgd1na2vs0mg"},{"bike_id":"0190f17d-7bed-4fc1-be22-c6bd783e3bc5","system_id":"levelo_inurba_marseille","lat":43.319945,"lon":5.381406,"is_reserved":false,"is_disabled":false,"rental_uris":{"android":"levelo://app?vid=0190f17d-7bed-4fc1-be22-c6bd783e3bc5","ios":"levelo://app?vid=0190f17d-7bed-4fc1-be22-c6bd783e3bc5"},"vehicle_type_id":"4","last_reported":1760771309,"current_range_meters":11600,"station_id":"ce4bhr12rcd13ifvqhpg","pricing_plan_id":"cebpf4jnsgd1na2vs0mg"},{"bike_id":"04840a0b-8038-4469-a660-12b2e779f50d","system_id":"levelo_inurba_marseille","lat":43.27318,"lon":5.3907,"is_reserved":false,"is_disabled":false,"rental_uris":{"android":"levelo://app?vid=04840a0b-8038-4469-a660-12b2e779f50d","ios":"levelo://app?vid=04840a0b-8038-4469-a660-12b2e779f50d"},"vehicle_type_id":"4","last_reported":1760771309,"current_range_meters":11600,"station_id":"ce4bhgp2rcd13ifvqfe0","pricing_plan_id":"cebpf4jnsgd1na2vs0mg"},{"bike_id":"db9eb4d8-9a2b-46c1-a1f6-c52c955ee60f","system_id":"levelo_inurba_marseille","lat":43.28497,"lon":5.38533,"is_reserved":false,"is_disabled":false,"rental_uris":{"android":"levelo://app?vid=db9eb4d8-9a2b-46c1-a1f6-c52c955ee60f","ios":"levelo://app?vid=db9eb4d8-9a2b-46c1-a1f6-c52c955ee60f"},"vehicle_type_id":"4","last_reported":1760771309,"current_range_meters":11600,"station_id":"ce4bh8p2rcd13ifvqeb0","pricing_plan_id":"cebpf4jnsgd1na2vs0mg"},{"bike_id":"0d606d05-af65-4f79-b8d7-fdd4ebd8e89b","system_id":"levelo_inurba_marseille","lat":43.303143,"lon":5.368862,"is_reserved":false,"is_disabled":false,"rental_uris":{"android":"levelo://app?vid=0d606d05-af65-4f79-b8d7-fdd4ebd8e89b","ios":"levelo://app?vid=0d606d05-af65-4f79-b8d7-fdd4ebd8e89b"},"vehicle_type_id":"4","last_reported":1760771309,"current_range_meters":11600,"station_id":"ce4bgqh2rcd13ifvqc5g","pricing_plan_id":"cebpf4jnsgd1na2vs0mg"},{"bike_id":"5ac40018-0ca3-4d87-8a35-61cacaf40107","system_id":"levelo_inurba_marseille","lat":43.28443,"lon":5.3591,"is_reserved":false,"is_disabled":false,"rental_uris":{"android":"levelo://app?vid=5ac40018-0ca3-4d87-8a35-61cacaf40107","ios":"levelo://app?vid=5ac40018-0ca3-4d87-8a35-61cacaf40107"},"vehicle_type_id":"4","last_reported":1760771309,"current_range_meters":12000,"station_id":"ce4bhah2rcd13ifvqei0","pricing_plan_id":"cebpf4jnsgd1na2vs0mg"},{"bike_id":"4b08cfe7-5df1-4e29-905e-03a9992f8dfa","system_id":"levelo_inurba_marseille","lat":43.33775,"lon":5.37429,"is_reserved":false,"is_disabled":false,"rental_uris":{"android":"levelo://app?vid=4b08cfe7-5df1-4e29-905e-03a9992f8dfa","ios":"levelo://app?vid=4b08cfe7-5df1-4e29-905e-03a9992f8dfa"},"vehicle_type_id":"4","last_reported":1760771309,"current_range_meters":12000,"station_id":"","pricing_plan_id":"cebpf4jnsgd1na2vs0mg"},{"bike_id":"c33f97a9-0ab3-4619-86a9-592cd9477db8","system_id":"levelo_inurba_marseille","lat":43.267,"lon":5.38274,"is_reserved":false,"is_disabled":true,"rental_uris":{"android":"levelo://app?vid=c33f97a9-0ab3-4619-86a9-592cd9477db8","ios":"levelo://app?vid=c33f97a9-0ab3-4619-86a9-592cd9477db8"},"vehicle_type_id":"4","last_reported":1760771309,"current_range_meters":12000,"station_id":"ce4bhg92rcd13ifvqf90","pricing_plan_id":"cebpf4jnsgd1na2vs0mg"},{"bike_id":"d87dc221-0a06-465e-b090-1456faa21f4d","system_id":"levelo_inurba_marseille","lat":43.309273,"lon":5.401496,"is_reserved":false,"is_disabled":false,"rental_uris":{"android":"levelo://app?vid=d87dc221-0a06-465e-b090-1456faa21f4d","ios":"levelo://app?vid=d87dc221-0a06-465e-b090-1456faa21f4d"},"vehicle_type_id":"4","last_reported":1760771309,"current_range_meters":12400,"station_id":"ce4bgvp2rcd13ifvqct0","pricing_plan_id":"cebpf4jnsgd1na2vs0mg"},{"bike_id":"135d35e3-d1c2-4543-9455-bbe32cb54f9a","system_id":"levelo_inurba_marseille","lat":43.248031,"lon":5.37456,"is_reserved":false,"is_disabled":false,"rental_uris":{"android":"levelo://app?vid=135d35e3-d1c2-4543-9455-bbe32cb54f9a","ios":"levelo://app?vid=135d35e3-d1c2-4543-9455-bbe32cb54f9a"},"vehicle_type_id":"4","last_reported":1760771309,"current_range_meters":12400,"station_id":"ce4bhgh2rcd13ifvqfb0","pricing_plan_id":"cebpf4jnsgd1na2vs0mg"},{"bike_id":"0165677e-89fb-49f7-aae1-bb33a9ce42dd","system_id":"levelo_inurba_marseille","lat":43.289648,"lon":5.365117,"is_reserved":false,"is_disabled":false,"rental_uris":{"android":"levelo://app?vid=0165677e-89fb-49f7-aae1-bb33a9ce42dd","ios":"levelo://app?vid=0165677e-89fb-49f7-aae1-bb33a9ce42dd"},"vehicle_type_id":"4","last_reported":1760771309,"current_range_meters":12400,"station_id":"ce4bhc92rcd13ifvqetg","pricing_plan_id":"cebpf4jnsgd1na2vs0mg"},{"bike_id":"ce4d2ee2-a08a-4b2c-9151-e3fd491c87c9","system_id":"levelo_inurba_marseille","lat":43.28476,"lon":5.35871,"is_reserved":false,"is_disabled":false,"rental_uris":{"android":"levelo://app?vid=ce4d2ee2-a08a-4b2c-9151-e3fd491c87c9","ios":"levelo://app?vid=ce4d2ee2-a08a-4b2c-9151-e3fd491c87c9"},"vehicle_type_id":"4","last_reported":1760771309,"current_range_meters":12400,"station_id":"ce4bhah2rcd13ifvqei0","pricing_plan_id":"cebpf4jnsgd1na2vs0mg"},{"bike_id":"13602366-f220-4faa-adc2-56e0b4a84c9c","system_id":"levelo_inurba_marseille","lat":43.299008,"lon":5.436615,"is_reserved":false,"is_disabled":true,"rental_uris":{"android":"levelo://app?vid=13602366-f220-4faa-adc2-56e0b4a84c9c","ios":"levelo://app?vid=13602366-f220-4faa-adc2-56e0b4a84c9c"},"vehicle_type_id":"4","last_reported":1760771309,"current_range_meters":12400,"station_id":"ce4bhpp2rcd13ifvqhfg","pricing_plan_id":"cebpf4jnsgd1na2vs0mg"},{"bike_id":"e082eb77-dff0-4841-8bc1-1b3492c0d507","system_id":"levelo_inurba_marseille","lat":43.27998,"lon":5.41664,"is_reserved":false,"is_disabled":false,"rental_uris":{"android":"levelo://app?vid=e082eb77-dff0-4841-8bc1-1b3492c0d507","ios":"levelo://app?vid=e082eb77-dff0-4841-8bc1-1b3492c0d507"},"vehicle_type_id":"4","last_reported":1760771309,"current_range_meters":12400,"station_id":"ce4bho12rcd13ifvqh1g","pricing_plan_id":"cebpf4jnsgd1na2vs0mg"},{"bike_id":"75b02a51-1325-435e-9661-29bb451a696a","system_id":"levelo_inurba_marseille","lat":43.31448,"lon":5.38488,"is_reserved":false,"is_disabled":false,"rental_uris":{"android":"levelo://app?vid=75b02a51-1325-435e-9661-29bb451a696a","ios":"levelo://app?vid=75b02a51-1325-435e-9661-29bb451a696a"},"vehicle_type_id":"4","last_reported":1760771309,"current_range_meters":12400,"station_id":"","pricing_plan_id":"cebpf4jnsgd1na2vs0mg"},{"bike_id":"b3de5f35-da94-4965-b940-8cd14144ea0b","system_id":"levelo_inurba_marseille","lat":43.285378,"lon":5.44106,"is_reserved":false,"is_disabled":false,"rental_uris":{"android":"levelo://app?vid=b3de5f35-da94-4965-b940-8cd14144ea0b","ios":"levelo://app?vid=b3de5f35-da94-4965-b940-8cd14144ea0b"},"vehicle_type_id":"4","last_reported":1760771309,"current_range_meters":12400,"station_id":"st_d3j3df2ikq2c7380ej80","pricing_plan_id":"cebpf4jnsgd1na2vs0mg"},{"bike_id":"4702d9d2-8b80-4474-a658-ff37921cb742","system_id":"levelo_inurba_marseille","lat":43.29186,"lon":5.38866,"is_reserved":false,"is_disabled":false,"rental_uris":{"android":"levelo://app?vid=4702d9d2-8b80-4474-a658-ff37921cb742","ios":"levelo://app?vid=4702d9d2-8b80-4474-a658-ff37921cb742"},"vehicle_type_id":"4","last_reported":1760771309,"current_range_meters":12400,"station_id":"","pricing_plan_id":"cebpf4jnsgd1na2vs0mg"},{"bike_id":"97e4c7d5-16c4-46cb-a802-8e57bf6edfec","system_id":"levelo_inurba_marseille","lat":43.23069,"lon":5.43855,"is_reserved":false,"is_disabled":false,"rental_uris":{"android":"levelo://app?vid=97e4c7d5-16c4-46cb-a802-8e57bf6edfec","ios":"levelo://app?vid=97e4c7d5-16c4-46cb-a802-8e57bf6edfec"},"vehicle_type_id":"4","last_reported":1760771309,"current_range_meters":12400,"station_id":"","pricing_plan_id":"cebpf4jnsgd1na2vs0mg"},{"bike_id":"46c9d7dd-8052-4c10-9b21-65765469d1bb","system_id":"levelo_inurba_marseille","lat":43.272075,"lon":5.391827,"is_reserved":false,"is_disabled":false,"rental_uris":{"android":"levelo://app?vid=46c9d7dd-8052-4c10-9b21-65765469d1bb","ios":"levelo://app?vid=46c9d7dd-8052-4c10-9b21-65765469d1bb"},"vehicle_type_id":"4","last_reported":1760771309,"current_range_meters":12400,"station_id":"ce4bhhp2rcd13ifvqfm0","pricing_plan_id":"cebpf4jnsgd1na2vs0mg"},{"bike_id":"433d8492-2df2-47a3-a8b5-4d7357079b49","system_id":"levelo_inurba_marseille","lat":43.30935,"lon":5.40134,"is_reserved":false,"is_disabled":false,"rental_uris":{"android":"levelo://app?vid=433d8492-2df2-47a3-a8b5-4d7357079b49","ios":"levelo://app?vid=433d8492-2df2-47a3-a8b5-4d7357079b49"},"vehicle_type_id":"4","last_reported":1760771309,"current_range_meters":12800,"station_id":"ce4bgvp2rcd13ifvqct0","pricing_plan_id":"cebpf4jnsgd1na2vs0mg"},{"bike_id":"20d19a5d-8551-4b08-954c-c269d6e81e1e","system_id":"levelo_inurba_marseille","lat":43.283482,"lon":5.381134,"is_reserved":false,"is_disabled":false,"rental_uris":{"android":"levelo://app?vid=20d19a5d-8551-4b08-954c-c269d6e81e1e","ios":"levelo://app?vid=20d19a5d-8551-4b08-954c-c269d6e81e1e"},"vehicle_type_id":"4","last_reported":1760771309,"current_range_meters":12800,"station_id":"ce4bh412rcd13ifvqdr0","pricing_plan_id":"cebpf4jnsgd1na2vs0mg"},{"bike_id":"c1bb4105-3f45-4990-9383-88dd5075d230","system_id":"levelo_inurba_marseille","lat":43.30157,"lon":5.3809,"is_reserved":false,"is_disabled":false,"rental_uris":{"android":"levelo://app?vid=c1bb4105-3f45-4990-9383-88dd5075d230","ios":"levelo://app?vid=c1bb4105-3f45-4990-9383-88dd5075d230"},"vehicle_type_id":"4","last_reported":1760771309,"current_range_meters":12800,"station_id":"ce4bgjp2rcd13ifvqbh0","pricing_plan_id":"cebpf4jnsgd1na2vs0mg"},{"bike_id":"0b170382-a38a-48fc-b060-b901de311f1a","system_id":"levelo_inurba_marseille","lat":43.33047,"lon":5.39024,"is_reserved":false,"is_disabled":false,"rental_uris":{"android":"levelo://app?vid=0b170382-a38a-48fc-b060-b901de311f1a","ios":"levelo://app?vid=0b170382-a38a-48fc-b060-b901de311f1a"},"vehicle_type_id":"4","last_reported":1760771309,"current_range_meters":13600,"station_id":"ce4bhr92rcd13ifvqhrg","pricing_plan_id":"cebpf4jnsgd1na2vs0mg"},{"bike_id":"69529aab-cd7d-4adf-b8cd-38d28cd23ece","system_id":"levelo_inurba_marseille","lat":43.27812,"lon":5.40757,"is_reserved":false,"is_disabled":false,"rental_uris":{"android":"levelo://app?vid=69529aab-cd7d-4adf-b8cd-38d28cd23ece","ios":"levelo://app?vid=69529aab-cd7d-4adf-b8cd-38d28cd23ece"},"vehicle_type_id":"4","last_reported":1760771309,"current_range_meters":13600,"station_id":"ce4bhnh2rcd13ifvqgtg","pricing_plan_id":"cebpf4jnsgd1na2vs0mg"},{"bike_id":"b725caa4-f872-4e77-8c5e-f9f59098fcef","system_id":"levelo_inurba_marseille","lat":43.29259,"lon":5.40874,"is_reserved":false,"is_disabled":false,"rental_uris":{"android":"levelo://app?vid=b725caa4-f872-4e77-8c5e-f9f59098fcef","ios":"levelo://app?vid=b725caa4-f872-4e77-8c5e-f9f59098fcef"},"vehicle_type_id":"4","last_reported":1760771309,"current_range_meters":13600,"station_id":"ce4bh192rcd13ifvqdc0","pricing_plan_id":"cebpf4jnsgd1na2vs0mg"},{"bike_id":"ce3e0131-8fad-464b-b0d2-ed253e25e52c","system_id":"levelo_inurba_marseille","lat":43.278965,"lon":5.396186,"is_reserved":false,"is_disabled":false,"rental_uris":{"android":"levelo://app?vid=ce3e0131-8fad-464b-b0d2-ed253e25e52c","ios":"levelo://app?vid=ce3e0131-8fad-464b-b0d2-ed253e25e52c"},"vehicle_type_id":"4","last_reported":1760771309,"current_range_meters":13600,"station_id":"ce4bhf92rcd13ifvqf40","pricing_plan_id":"cebpf4jnsgd1na2vs0mg"},{"bike_id":"8c30526d-4d62-49e0-92a1-2ed039e24496","system_id":"levelo_inurba_marseille","lat":43.28706,"lon":5.38302,"is_reserved":false,"is_disabled":false,"rental_uris":{"android":"levelo://app?vid=8c30526d-4d62-49e0-92a1-2ed039e24496","ios":"levelo://app?vid=8c30526d-4d62-49e0-92a1-2ed039e24496"},"vehicle_type_id":"4","last_reported":1760771309,"current_range_meters":13600,"station_id":"","pricing_plan_id":"cebpf4jnsgd1na2vs0mg"},{"bike_id":"e080673c-3273-4735-82d7-e21ea147fa66","system_id":"levelo_inurba_marseille","lat":43.306548,"lon":5.400818,"is_reserved":false,"is_disabled":false,"rental_uris":{"android":"levelo://app?vid=e080673c-3273-4735-82d7-e21ea147fa66","ios":"levelo://app?vid=e080673c-3273-4735-82d7-e21ea147fa66"},"vehicle_type_id":"4","last_reported":1760771309,"current_range_meters":13600,"station_id":"ce4bh112rcd13ifvqda0","pricing_plan_id":"cebpf4jnsgd1na2vs0mg"},{"bike_id":"cdba3967-fed7-4933-af52-b7d3ed0fceea","system_id":"levelo_inurba_marseille","lat":43.30887,"lon":5.37197,"is_reserved":false,"is_disabled":false,"rental_uris":{"android":"levelo://app?vid=cdba3967-fed7-4933-af52-b7d3ed0fceea","ios":"levelo://app?vid=cdba3967-fed7-4933-af52-b7d3ed0fceea"},"vehicle_type_id":"4","last_reported":1760771309,"current_range_meters":13600,"station_id":"ce4bguh2rcd13ifvqckg","pricing_plan_id":"cebpf4jnsgd1na2vs0mg"},{"bike_id":"51363703-4677-4f55-8a17-702decca8eed","system_id":"levelo_inurba_marseille","lat":43.31256,"lon":5.40189,"is_reserved":false,"is_disabled":false,"rental_uris":{"android":"levelo://app?vid=51363703-4677-4f55-8a17-702decca8eed","ios":"levelo://app?vid=51363703-4677-4f55-8a17-702decca8eed"},"vehicle_type_id":"4","last_reported":1760771309,"current_range_meters":13600,"station_id":"ce4bh092rcd13ifvqd30","pricing_plan_id":"cebpf4jnsgd1na2vs0mg"},{"bike_id":"10016a10-06c9-440f-a456-6a26a5cd8dfd","system_id":"levelo_inurba_marseille","lat":43.23962,"lon":5.36625,"is_reserved":false,"is_disabled":false,"rental_uris":{"android":"levelo://app?vid=10016a10-06c9-440f-a456-6a26a5cd8dfd","ios":"levelo://app?vid=10016a10-06c9-440f-a456-6a26a5cd8dfd"},"vehicle_type_id":"4","last_reported":1760771309,"current_range_meters":14000,"station_id":"ce4bhi12rcd13ifvqfp0","pricing_plan_id":"cebpf4jnsgd1na2vs0mg"},{"bike_id":"1d4b6109-0a93-41a9-b70b-514a233df11a","system_id":"levelo_inurba_marseille","lat":43.291872,"lon":5.35815,"is_reserved":false,"is_disabled":false,"rental_uris":{"android":"levelo://app?vid=1d4b6109-0a93-41a9-b70b-514a233df11a","ios":"levelo://app?vid=1d4b6109-0a93-41a9-b70b-514a233df11a"},"vehicle_type_id":"4","last_reported":1760771309,"current_range_meters":14000,"station_id":"","pricing_plan_id":"cebpf4jnsgd1na2vs0mg"},{"bike_id":"c578a7fe-e980-49e7-9f7f-10f529f07bb3","system_id":"levelo_inurba_marseille","lat":43.249474,"lon":5.404948,"is_reserved":false,"is_disabled":false,"rental_uris":{"android":"levelo://app?vid=c578a7fe-e980-49e7-9f7f-10f529f07bb3","ios":"levelo://app?vid=c578a7fe-e980-49e7-9f7f-10f529f07bb3"},"vehicle_type_id":"4","last_reported":1760771309,"current_range_meters":14000,"station_id":"st_d2ngiaodas8pm72gd1h0","pricing_plan_id":"cebpf4jnsgd1na2vs0mg"},{"bike_id":"7e98c73c-0daf-470c-8187-471fc9a15ebd","system_id":"levelo_inurba_marseille","lat":43.24157,"lon":5.36397,"is_reserved":false,"is_disabled":false,"rental_uris":{"android":"levelo://app?vid=7e98c73c-0daf-470c-8187-471fc9a15ebd","ios":"levelo://app?vid=7e98c73c-0daf-470c-8187-471fc9a15ebd"},"vehicle_type_id":"4","last_reported":1760771309,"current_range_meters":14000,"station_id":"cpo36qri1sfpv3e86is0","pricing_plan_id":"cebpf4jnsgd1na2vs0mg"},{"bike_id":"2f8b46cc-b439-4688-9ef3-9ea8d1a54d31","system_id":"levelo_inurba_marseille","lat":43.30149,"lon":5.38084,"is_reserved":false,"is_disabled":false,"rental_uris":{"android":"levelo://app?vid=2f8b46cc-b439-4688-9ef3-9ea8d1a54d31","ios":"levelo://app?vid=2f8b46cc-b439-4688-9ef3-9ea8d1a54d31"},"vehicle_type_id":"4","last_reported":1760771309,"current_range_meters":14000,"station_id":"ce4bgjp2rcd13ifvqbh0","pricing_plan_id":"cebpf4jnsgd1na2vs0mg"},{"bike_id":"0a414463-fe1a-4833-8a11-178a3c2c879a","system_id":"levelo_inurba_marseille","lat":43.29852,"lon":5.37897,"is_reserved":false,"is_disabled":false,"rental_uris":{"android":"levelo://app?vid=0a414463-fe1a-4833-8a11-178a3c2c879a","ios":"levelo://app?vid=0a414463-fe1a-4833-8a11-178a3c2c879a"},"vehicle_type_id":"4","last_reported":1760771309,"current_range_meters":14400,"station_id":"","pricing_plan_id":"cebpf4jnsgd1na2vs0mg"},{"bike_id":"32bda420-621a-43a3-846a-f7b361ee1d51","system_id":"levelo_inurba_marseille","lat":43.301471,"lon":5.380859,"is_reserved":false,"is_disabled":false,"rental_uris":{"android":"levelo://app?vid=32bda420-621a-43a3-846a-f7b361ee1d51","ios":"levelo://app?vid=32bda420-621a-43a3-846a-f7b361ee1d51"},"vehicle_type_id":"4","last_reported":1760771309,"current_range_meters":14400,"station_id":"ce4bgjp2rcd13ifvqbh0","pricing_plan_id":"cebpf4jnsgd1na2vs0mg"},{"bike_id":"e9b42dd2-63ad-4090-b4e1-d0798255957c","system_id":"levelo_inurba_marseille","lat":43.239554,"lon":5.366318,"is_reserved":false,"is_disabled":false,"rental_uris":{"android":"levelo://app?vid=e9b42dd2-63ad-4090-b4e1-d0798255957c","ios":"levelo://app?vid=e9b42dd2-63ad-4090-b4e1-d0798255957c"},"vehicle_type_id":"4","last_reported":1760771309,"current_range_meters":14400,"station_id":"ce4bhi12rcd13ifvqfp0","pricing_plan_id":"cebpf4jnsgd1na2vs0mg"},{"bike_id":"97701e11-e594-4a29-8c3f-8a1ed84e46c8","system_id":"levelo_inurba_marseille","lat":43.28005,"lon":5.41654,"is_reserved":false,"is_disabled":false,"rental_uris":{"android":"levelo://app?vid=97701e11-e594-4a29-8c3f-8a1ed84e46c8","ios":"levelo://app?vid=97701e11-e594-4a29-8c3f-8a1ed84e46c8"},"vehicle_type_id":"4","last_reported":1760771309,"current_range_meters":14400,"station_id":"ce4bho12rcd13ifvqh1g","pricing_plan_id":"cebpf4jnsgd1na2vs0mg"},{"bike_id":"df2d3d6e-26dc-4145-b74c-60aa297416fb","system_id":"levelo_inurba_marseille","lat":43.27661,"lon":5.38887,"is_reserved":false,"is_disabled":false,"rental_uris":{"android":"levelo://app?vid=df2d3d6e-26dc-4145-b74c-60aa297416fb","ios":"levelo://app?vid=df2d3d6e-26dc-4145-b74c-60aa297416fb"},"vehicle_type_id":"4","last_reported":1760771309,"current_range_meters":14400,"station_id":"ce4bhi12rcd13ifvqfo0","pricing_plan_id":"cebpf4jnsgd1na2vs0mg"},{"bike_id":"d414b289-5cc2-4a85-92e2-d89ed29bf121","system_id":"levelo_inurba_marseille","lat":43.299051,"lon":5.436577,"is_reserved":false,"is_disabled":false,"rental_uris":{"android":"levelo://app?vid=d414b289-5cc2-4a85-92e2-d89ed29bf121","ios":"levelo://app?vid=d414b289-5cc2-4a85-92e2-d89ed29bf121"},"vehicle_type_id":"4","last_reported":1760771309,"current_range_meters":14400,"station_id":"ce4bhpp2rcd13ifvqhfg","pricing_plan_id":"cebpf4jnsgd1na2vs0mg"},{"bike_id":"b35843bb-8826-4f0d-a706-15255e94599e","system_id":"levelo_inurba_marseille","lat":43.27931,"lon":5.40394,"is_reserved":false,"is_disabled":false,"rental_uris":{"android":"levelo://app?vid=b35843bb-8826-4f0d-a706-15255e94599e","ios":"levelo://app?vid=b35843bb-8826-4f0d-a706-15255e94599e"},"vehicle_type_id":"4","last_reported":1760771309,"current_range_meters":14400,"station_id":"","pricing_plan_id":"cebpf4jnsgd1na2vs0mg"},{"bike_id":"fbe8ed1f-1d60-4924-bae7-19e6e404e0f9","system_id":"levelo_inurba_marseille","lat":43.30114,"lon":5.43115,"is_reserved":false,"is_disabled":false,"rental_uris":{"android":"levelo://app?vid=fbe8ed1f-1d60-4924-bae7-19e6e404e0f9","ios":"levelo://app?vid=fbe8ed1f-1d60-4924-bae7-19e6e404e0f9"},"vehicle_type_id":"4","last_reported":1760771309,"current_range_meters":14400,"station_id":"st_d3js3co5814s73ftftug","pricing_plan_id":"cebpf4jnsgd1na2vs0mg"},{"bike_id":"a966d4b9-ce79-4e8a-936f-b23887d4be25","system_id":"levelo_inurba_marseille","lat":43.28862,"lon":5.42534,"is_reserved":false,"is_disabled":false,"rental_uris":{"android":"levelo://app?vid=a966d4b9-ce79-4e8a-936f-b23887d4be25","ios":"levelo://app?vid=a966d4b9-ce79-4e8a-936f-b23887d4be25"},"vehicle_type_id":"4","last_reported":1760771309,"current_range_meters":14400,"station_id":"st_d3b462108ojc7389ooeg","pricing_plan_id":"cebpf4jnsgd1na2vs0mg"},{"bike_id":"da443b2f-264b-4d99-89ea-5228fb70a1f9","system_id":"levelo_inurba_marseille","lat":43.29534,"lon":5.39391,"is_reserved":false,"is_disabled":false,"rental_uris":{"android":"levelo://app?vid=da443b2f-264b-4d99-89ea-5228fb70a1f9","ios":"levelo://app?vid=da443b2f-264b-4d99-89ea-5228fb70a1f9"},"vehicle_type_id":"4","last_reported":1760771309,"current_range_meters":14800,"station_id":"ce4bh292rcd13ifvqdf0","pricing_plan_id":"cebpf4jnsgd1na2vs0mg"},{"bike_id":"d74de6df-0030-470d-bfc0-0759cd3deb92","system_id":"levelo_inurba_marseille","lat":43.306413,"lon":5.400943,"is_reserved":false,"is_disabled":false,"rental_uris":{"android":"levelo://app?vid=d74de6df-0030-470d-bfc0-0759cd3deb92","ios":"levelo://app?vid=d74de6df-0030-470d-bfc0-0759cd3deb92"},"vehicle_type_id":"4","last_reported":1760771309,"current_range_meters":14800,"station_id":"ce4bh112rcd13ifvqda0","pricing_plan_id":"cebpf4jnsgd1na2vs0mg"},{"bike_id":"4b150ed4-2a96-4f05-bf50-dde36c31ec68","system_id":"levelo_inurba_marseille","lat":43.3396,"lon":5.40605,"is_reserved":false,"is_disabled":false,"rental_uris":{"android":"levelo://app?vid=4b150ed4-2a96-4f05-bf50-dde36c31ec68","ios":"levelo://app?vid=4b150ed4-2a96-4f05-bf50-dde36c31ec68"},"vehicle_type_id":"4","last_reported":1760771309,"current_range_meters":14800,"station_id":"","pricing_plan_id":"cebpf4jnsgd1na2vs0mg"},{"bike_id":"d6dc35ca-d60e-489f-a9fd-83abfefb737f","system_id":"levelo_inurba_marseille","lat":43.31121,"lon":5.37762,"is_reserved":false,"is_disabled":false,"rental_uris":{"android":"levelo://app?vid=d6dc35ca-d60e-489f-a9fd-83abfefb737f","ios":"levelo://app?vid=d6dc35ca-d60e-489f-a9fd-83abfefb737f"},"vehicle_type_id":"4","last_reported":1760771309,"current_range_meters":15200,"station_id":"ce4bgt92rcd13ifvqcg0","pricing_plan_id":"cebpf4jnsgd1na2vs0mg"},{"bike_id":"b1db1391-3474-48f3-85bd-dfc79b190eda","system_id":"levelo_inurba_marseille","lat":43.29277,"lon":5.3612,"is_reserved":false,"is_disabled":false,"rental_uris":{"android":"levelo://app?vid=b1db1391-3474-48f3-85bd-dfc79b190eda","ios":"levelo://app?vid=b1db1391-3474-48f3-85bd-dfc79b190eda"},"vehicle_type_id":"4","last_reported":1760771309,"current_range_meters":15200,"station_id":"","pricing_plan_id":"cebpf4jnsgd1na2vs0mg"},{"bike_id":"ae6eb0f2-4874-4ceb-8d8c-7385a8266f58","system_id":"levelo_inurba_marseille","lat":43.295234,"lon":5.379137,"is_reserved":false,"is_disabled":false,"rental_uris":{"android":"levelo://app?vid=ae6eb0f2-4874-4ceb-8d8c-7385a8266f58","ios":"levelo://app?vid=ae6eb0f2-4874-4ceb-8d8c-7385a8266f58"},"vehicle_type_id":"4","last_reported":1760771309,"current_range_meters":15200,"station_id":"","pricing_plan_id":"cebpf4jnsgd1na2vs0mg"},{"bike_id":"25bd64c9-91bc-4c74-b712-6d069cdfe34d","system_id":"levelo_inurba_marseille","lat":43.321011,"lon":5.367664,"is_reserved":false,"is_disabled":false,"rental_uris":{"android":"levelo://app?vid=25bd64c9-91bc-4c74-b712-6d069cdfe34d","ios":"levelo://app?vid=25bd64c9-91bc-4c74-b712-6d069cdfe34d"},"vehicle_type_id":"4","last_reported":1760771309,"current_range_meters":16000,"station_id":"ce4bhrh2rcd13ifvqhug","pricing_plan_id":"cebpf4jnsgd1na2vs0mg"},{"bike_id":"b5384ef3-f722-490e-a099-66d8c4d1cd6b","system_id":"levelo_inurba_marseille","lat":43.28553,"lon":5.44077,"is_reserved":false,"is_disabled":false,"rental_uris":{"android":"levelo://app?vid=b5384ef3-f722-490e-a099-66d8c4d1cd6b","ios":"levelo://app?vid=b5384ef3-f722-490e-a099-66d8c4d1cd6b"},"vehicle_type_id":"4","last_reported":1760771309,"current_range_meters":16000,"station_id":"st_d3j3df2ikq2c7380ej80","pricing_plan_id":"cebpf4jnsgd1na2vs0mg"},{"bike_id":"44b15c40-8c0b-4c11-9695-a734f320e3aa","system_id":"levelo_inurba_marseille","lat":43.23185,"lon":5.39997,"is_reserved":false,"is_disabled":false,"rental_uris":{"android":"levelo://app?vid=44b15c40-8c0b-4c11-9695-a734f320e3aa","ios":"levelo://app?vid=44b15c40-8c0b-4c11-9695-a734f320e3aa"},"vehicle_type_id":"4","last_reported":1760771309,"current_range_meters":16000,"station_id":"ce4bhn12rcd13ifvqgqg","pricing_plan_id":"cebpf4jnsgd1na2vs0mg"},{"bike_id":"fa68b210-55bb-4a86-a8f5-f651a77004e6","system_id":"levelo_inurba_marseille","lat":43.23206,"lon":5.35564,"is_reserved":false,"is_disabled":false,"rental_uris":{"android":"levelo://app?vid=fa68b210-55bb-4a86-a8f5-f651a77004e6","ios":"levelo://app?vid=fa68b210-55bb-4a86-a8f5-f651a77004e6"},"vehicle_type_id":"4","last_reported":1760771309,"current_range_meters":16000,"station_id":"ce4bhu92rcd13ifvqi70","pricing_plan_id":"cebpf4jnsgd1na2vs0mg"},{"bike_id":"e427aaaf-ebc8-4540-808e-fa07955f06df","system_id":"levelo_inurba_marseille","lat":43.25881,"lon":5.39424,"is_reserved":false,"is_disabled":false,"rental_uris":{"android":"levelo://app?vid=e427aaaf-ebc8-4540-808e-fa07955f06df","ios":"levelo://app?vid=e427aaaf-ebc8-4540-808e-fa07955f06df"},"vehicle_type_id":"4","last_reported":1760771309,"current_range_meters":16000,"station_id":"","pricing_plan_id":"cebpf4jnsgd1na2vs0mg"},{"bike_id":"f65099c1-0e05-4f4a-bc25-f79f6d385828","system_id":"levelo_inurba_marseille","lat":43.31318,"lon":5.39729,"is_reserved":false,"is_disabled":false,"rental_uris":{"android":"levelo://app?vid=f65099c1-0e05-4f4a-bc25-f79f6d385828","ios":"levelo://app?vid=f65099c1-0e05-4f4a-bc25-f79f6d385828"},"vehicle_type_id":"4","last_reported":1760771309,"current_range_meters":16000,"station_id":"ce4bgvp2rcd13ifvqcu0","pricing_plan_id":"cebpf4jnsgd1na2vs0mg"},{"bike_id":"1809805c-95aa-4c2a-bbce-f895cc33ff5e","system_id":"levelo_inurba_marseille","lat":43.27947,"lon":5.38769,"is_reserved":false,"is_disabled":false,"rental_uris":{"android":"levelo://app?vid=1809805c-95aa-4c2a-bbce-f895cc33ff5e","ios":"levelo://app?vid=1809805c-95aa-4c2a-bbce-f895cc33ff5e"},"vehicle_type_id":"4","last_reported":1760771309,"current_range_meters":16000,"station_id":"ce4bhg12rcd13ifvqf80","pricing_plan_id":"cebpf4jnsgd1na2vs0mg"},{"bike_id":"c3acb9dc-3178-4e4f-8a89-24595d17b881","system_id":"levelo_inurba_marseille","lat":43.33963,"lon":5.40646,"is_reserved":false,"is_disabled":false,"rental_uris":{"android":"levelo://app?vid=c3acb9dc-3178-4e4f-8a89-24595d17b881","ios":"levelo://app?vid=c3acb9dc-3178-4e4f-8a89-24595d17b881"},"vehicle_type_id":"4","last_reported":1760771309,"current_range_meters":16000,"station_id":"","pricing_plan_id":"cebpf4jnsgd1na2vs0mg"},{"bike_id":"f4d65dd5-afcd-456b-8ddb-3a830e9ff7d4","system_id":"levelo_inurba_marseille","lat":43.30458,"lon":5.37912,"is_reserved":false,"is_disabled":false,"rental_uris":{"android":"levelo://app?vid=f4d65dd5-afcd-456b-8ddb-3a830e9ff7d4","ios":"levelo://app?vid=f4d65dd5-afcd-456b-8ddb-3a830e9ff7d4"},"vehicle_type_id":"4","last_reported":1760771309,"current_range_meters":16000,"station_id":"ce4bgup2rcd13ifvqcn0","pricing_plan_id":"cebpf4jnsgd1na2vs0mg"},{"bike_id":"72ab309b-b3fe-4848-a7c5-aa685c3c47b8","system_id":"levelo_inurba_marseille","lat":43.31898,"lon":5.43888,"is_reserved":false,"is_disabled":false,"rental_uris":{"android":"levelo://app?vid=72ab309b-b3fe-4848-a7c5-aa685c3c47b8","ios":"levelo://app?vid=72ab309b-b3fe-4848-a7c5-aa685c3c47b8"},"vehicle_type_id":"4","last_reported":1760771309,"current_range_meters":16000,"station_id":"","pricing_plan_id":"cebpf4jnsgd1na2vs0mg"},{"bike_id":"e1e89638-5f7a-442d-811d-ac61051deda5","system_id":"levelo_inurba_marseille","lat":43.30949,"lon":5.39052,"is_reserved":false,"is_disabled":false,"rental_uris":{"android":"levelo://app?vid=e1e89638-5f7a-442d-811d-ac61051deda5","ios":"levelo://app?vid=e1e89638-5f7a-442d-811d-ac61051deda5"},"vehicle_type_id":"4","last_reported":1760771309,"current_range_meters":16400,"station_id":"ce4bgup2rcd13ifvqco0","pricing_plan_id":"cebpf4jnsgd1na2vs0mg"},{"bike_id":"5de922bc-2c1c-4fbd-8edd-47ecbe4bc272","system_id":"levelo_inurba_marseille","lat":43.31497,"lon":5.373,"is_reserved":false,"is_disabled":false,"rental_uris":{"android":"levelo://app?vid=5de922bc-2c1c-4fbd-8edd-47ecbe4bc272","ios":"levelo://app?vid=5de922bc-2c1c-4fbd-8edd-47ecbe4bc272"},"vehicle_type_id":"4","last_reported":1760771309,"current_range_meters":16400,"station_id":"ce4bgt12rcd13ifvqcd0","pricing_plan_id":"cebpf4jnsgd1na2vs0mg"},{"bike_id":"6426e4fa-7f79-410d-acfa-0a51b3b2658a","system_id":"levelo_inurba_marseille","lat":43.31252,"lon":5.4041,"is_reserved":false,"is_disabled":false,"rental_uris":{"android":"levelo://app?vid=6426e4fa-7f79-410d-acfa-0a51b3b2658a","ios":"levelo://app?vid=6426e4fa-7f79-410d-acfa-0a51b3b2658a"},"vehicle_type_id":"4","last_reported":1760771309,"current_range_meters":16400,"station_id":"","pricing_plan_id":"cebpf4jnsgd1na2vs0mg"},{"bike_id":"f3529c2a-6c87-4a36-8bf3-b49277a3073f","system_id":"levelo_inurba_marseille","lat":43.24655,"lon":5.38898,"is_reserved":false,"is_disabled":false,"rental_uris":{"android":"levelo://app?vid=f3529c2a-6c87-4a36-8bf3-b49277a3073f","ios":"levelo://app?vid=f3529c2a-6c87-4a36-8bf3-b49277a3073f"},"vehicle_type_id":"4","last_reported":1760771309,"current_range_meters":16400,"station_id":"ce4bhg12rcd13ifvqf60","pricing_plan_id":"cebpf4jnsgd1na2vs0mg"},{"bike_id":"81e2005e-24eb-402b-92c9-ffb66a9802cc","system_id":"levelo_inurba_marseille","lat":43.21201,"lon":5.35076,"is_reserved":false,"is_disabled":false,"rental_uris":{"android":"levelo://app?vid=81e2005e-24eb-402b-92c9-ffb66a9802cc","ios":"levelo://app?vid=81e2005e-24eb-402b-92c9-ffb66a9802cc"},"vehicle_type_id":"4","last_reported":1760771309,"current_range_meters":16400,"station_id":"","pricing_plan_id":"cebpf4jnsgd1na2vs0mg"},{"bike_id":"266f95d8-c383-4636-b974-cab689153602","system_id":"levelo_inurba_marseille","lat":43.272066,"lon":5.391822,"is_reserved":false,"is_disabled":false,"rental_uris":{"android":"levelo://app?vid=266f95d8-c383-4636-b974-cab689153602","ios":"levelo://app?vid=266f95d8-c383-4636-b974-cab689153602"},"vehicle_type_id":"4","last_reported":1760771309,"current_range_meters":16400,"station_id":"ce4bhhp2rcd13ifvqfm0","pricing_plan_id":"cebpf4jnsgd1na2vs0mg"},{"bike_id":"c8e7e487-2046-4072-98bc-53764ffcd62b","system_id":"levelo_inurba_marseille","lat":43.258262,"lon":5.394319,"is_reserved":false,"is_disabled":true,"rental_uris":{"android":"levelo://app?vid=c8e7e487-2046-4072-98bc-53764ffcd62b","ios":"levelo://app?vid=c8e7e487-2046-4072-98bc-53764ffcd62b"},"vehicle_type_id":"4","last_reported":1760771309,"current_range_meters":16400,"station_id":"ce4bhip2rcd13ifvqft0","pricing_plan_id":"cebpf4jnsgd1na2vs0mg"},{"bike_id":"ac6d2c4d-74a8-443d-a9f9-0d9807feacda","system_id":"levelo_inurba_marseille","lat":43.33772,"lon":5.37469,"is_reserved":false,"is_disabled":false,"rental_uris":{"android":"levelo://app?vid=ac6d2c4d-74a8-443d-a9f9-0d9807feacda","ios":"levelo://app?vid=ac6d2c4d-74a8-443d-a9f9-0d9807feacda"},"vehicle_type_id":"4","last_reported":1760771309,"current_range_meters":16400,"station_id":"","pricing_plan_id":"cebpf4jnsgd1na2vs0mg"},{"bike_id":"ac814815-bfe4-4017-a194-859ea124ab1b","system_id":"levelo_inurba_marseille","lat":43.27202,"lon":5.39191,"is_reserved":false,"is_disabled":false,"rental_uris":{"android":"levelo://app?vid=ac814815-bfe4-4017-a194-859ea124ab1b","ios":"levelo://app?vid=ac814815-bfe4-4017-a194-859ea124ab1b"},"vehicle_type_id":"4","last_reported":1760771309,"current_range_meters":16400,"station_id":"ce4bhhp2rcd13ifvqfm0","pricing_plan_id":"cebpf4jnsgd1na2vs0mg"},{"bike_id":"84b8d7f2-4ff9-49b0-8331-bb126f5bf38f","system_id":"levelo_inurba_marseille","lat":43.28712,"lon":5.37385,"is_reserved":false,"is_disabled":false,"rental_uris":{"android":"levelo://app?vid=84b8d7f2-4ff9-49b0-8331-bb126f5bf38f","ios":"levelo://app?vid=84b8d7f2-4ff9-49b0-8331-bb126f5bf38f"},"vehicle_type_id":"4","last_reported":1760771309,"current_range_meters":16400,"station_id":"ce4bh3p2rcd13ifvqdq0","pricing_plan_id":"cebpf4jnsgd1na2vs0mg"},{"bike_id":"568ff1ca-6992-424a-a90c-3cbe8840a57e","system_id":"levelo_inurba_marseille","lat":43.312778,"lon":5.401727,"is_reserved":false,"is_disabled":false,"rental_uris":{"android":"levelo://app?vid=568ff1ca-6992-424a-a90c-3cbe8840a57e","ios":"levelo://app?vid=568ff1ca-6992-424a-a90c-3cbe8840a57e"},"vehicle_type_id":"4","last_reported":1760771309,"current_range_meters":16400,"station_id":"ce4bh092rcd13ifvqd30","pricing_plan_id":"cebpf4jnsgd1na2vs0mg"},{"bike_id":"b994cf1c-cc36-4e3f-b564-9df39d9348b8","system_id":"levelo_inurba_marseille","lat":43.28576,"lon":5.39472,"is_reserved":false,"is_disabled":false,"rental_uris":{"android":"levelo://app?vid=b994cf1c-cc36-4e3f-b564-9df39d9348b8","ios":"levelo://app?vid=b994cf1c-cc36-4e3f-b564-9df39d9348b8"},"vehicle_type_id":"4","last_reported":1760771309,"current_range_meters":16800,"station_id":"ce4bh292rcd13ifvqdg0","pricing_plan_id":"cebpf4jnsgd1na2vs0mg"},{"bike_id":"074be791-6c38-4f2f-8dd0-b227e073e27e","system_id":"levelo_inurba_marseille","lat":43.241622,"lon":5.364133,"is_reserved":false,"is_disabled":false,"rental_uris":{"android":"levelo://app?vid=074be791-6c38-4f2f-8dd0-b227e073e27e","ios":"levelo://app?vid=074be791-6c38-4f2f-8dd0-b227e073e27e"},"vehicle_type_id":"4","last_reported":1760771309,"current_range_meters":16800,"station_id":"cpo36qri1sfpv3e86is0","pricing_plan_id":"cebpf4jnsgd1na2vs0mg"},{"bike_id":"05be6c66-e1b2-4e90-9074-f509a58707f5","system_id":"levelo_inurba_marseille","lat":43.28997,"lon":5.37166,"is_reserved":false,"is_disabled":false,"rental_uris":{"android":"levelo://app?vid=05be6c66-e1b2-4e90-9074-f509a58707f5","ios":"levelo://app?vid=05be6c66-e1b2-4e90-9074-f509a58707f5"},"vehicle_type_id":"4","last_reported":1760771309,"current_range_meters":16800,"station_id":"","pricing_plan_id":"cebpf4jnsgd1na2vs0mg"},{"bike_id":"365b1110-8604-4b2d-ad9b-3263b8a258f2","system_id":"levelo_inurba_marseille","lat":43.28655,"lon":5.3634,"is_reserved":false,"is_disabled":false,"rental_uris":{"android":"levelo://app?vid=365b1110-8604-4b2d-ad9b-3263b8a258f2","ios":"levelo://app?vid=365b1110-8604-4b2d-ad9b-3263b8a258f2"},"vehicle_type_id":"4","last_reported":1760771309,"current_range_meters":16800,"station_id":"ce4bhah2rcd13ifvqej0","pricing_plan_id":"cebpf4jnsgd1na2vs0mg"},{"bike_id":"bf2c3617-0e72-4f4a-8585-0c63bcbc4fce","system_id":"levelo_inurba_marseille","lat":43.28612,"lon":5.35103,"is_reserved":false,"is_disabled":true,"rental_uris":{"android":"levelo://app?vid=bf2c3617-0e72-4f4a-8585-0c63bcbc4fce","ios":"levelo://app?vid=bf2c3617-0e72-4f4a-8585-0c63bcbc4fce"},"vehicle_type_id":"4","last_reported":1760771309,"current_range_meters":16800,"station_id":"ce4bhch2rcd13ifvqeug","pricing_plan_id":"cebpf4jnsgd1na2vs0mg"},{"bike_id":"d712d0ff-3096-41ad-87d0-b640167ff060","system_id":"levelo_inurba_marseille","lat":43.31541,"lon":5.38512,"is_reserved":false,"is_disabled":false,"rental_uris":{"android":"levelo://app?vid=d712d0ff-3096-41ad-87d0-b640167ff060","ios":"levelo://app?vid=d712d0ff-3096-41ad-87d0-b640167ff060"},"vehicle_type_id":"4","last_reported":1760771309,"current_range_meters":16800,"station_id":"","pricing_plan_id":"cebpf4jnsgd1na2vs0mg"},{"bike_id":"8b76c960-b3fb-4b76-9aa4-4dc644255689","system_id":"levelo_inurba_marseille","lat":43.323556,"lon":5.388906,"is_reserved":false,"is_disabled":false,"rental_uris":{"android":"levelo://app?vid=8b76c960-b3fb-4b76-9aa4-4dc644255689","ios":"levelo://app?vid=8b76c960-b3fb-4b76-9aa4-4dc644255689"},"vehicle_type_id":"4","last_reported":1760771309,"current_range_meters":16800,"station_id":"ce4bhqp2rcd13ifvqhog","pricing_plan_id":"cebpf4jnsgd1na2vs0mg"},{"bike_id":"da58e801-ec4e-4799-bc09-03beb3e2e71a","system_id":"levelo_inurba_marseille","lat":43.25939,"lon":5.40904,"is_reserved":false,"is_disabled":false,"rental_uris":{"android":"levelo://app?vid=da58e801-ec4e-4799-bc09-03beb3e2e71a","ios":"levelo://app?vid=da58e801-ec4e-4799-bc09-03beb3e2e71a"},"vehicle_type_id":"4","last_reported":1760771309,"current_range_meters":16800,"station_id":"ce4bhm92rcd13ifvqglg","pricing_plan_id":"cebpf4jnsgd1na2vs0mg"},{"bike_id":"3e9130f7-2dc2-48e9-a6a6-56327ea869ab","system_id":"levelo_inurba_marseille","lat":43.24161,"lon":5.36424,"is_reserved":false,"is_disabled":false,"rental_uris":{"android":"levelo://app?vid=3e9130f7-2dc2-48e9-a6a6-56327ea869ab","ios":"levelo://app?vid=3e9130f7-2dc2-48e9-a6a6-56327ea869ab"},"vehicle_type_id":"4","last_reported":1760771309,"current_range_meters":16800,"station_id":"cpo36qri1sfpv3e86is0","pricing_plan_id":"cebpf4jnsgd1na2vs0mg"},{"bike_id":"298cb3e4-a3b8-451c-a0be-cba9f0a50a4b","system_id":"levelo_inurba_marseille","lat":43.2857,"lon":5.39505,"is_reserved":false,"is_disabled":false,"rental_uris":{"android":"levelo://app?vid=298cb3e4-a3b8-451c-a0be-cba9f0a50a4b","ios":"levelo://app?vid=298cb3e4-a3b8-451c-a0be-cba9f0a50a4b"},"vehicle_type_id":"4","last_reported":1760771309,"current_range_meters":16800,"station_id":"ce4bh292rcd13ifvqdg0","pricing_plan_id":"cebpf4jnsgd1na2vs0mg"},{"bike_id":"5de1ae63-bb90-453a-aa0f-05f0328c815d","system_id":"levelo_inurba_marseille","lat":43.28471,"lon":5.38433,"is_reserved":false,"is_disabled":false,"rental_uris":{"android":"levelo://app?vid=5de1ae63-bb90-453a-aa0f-05f0328c815d","ios":"levelo://app?vid=5de1ae63-bb90-453a-aa0f-05f0328c815d"},"vehicle_type_id":"4","last_reported":1760771309,"current_range_meters":16800,"station_id":"ce4bh512rcd13ifvqe3g","pricing_plan_id":"cebpf4jnsgd1na2vs0mg"},{"bike_id":"7303d285-ddce-4ed4-9b43-efee1d571c3e","system_id":"levelo_inurba_marseille","lat":43.30163,"lon":5.38071,"is_reserved":false,"is_disabled":false,"rental_uris":{"android":"levelo://app?vid=7303d285-ddce-4ed4-9b43-efee1d571c3e","ios":"levelo://app?vid=7303d285-ddce-4ed4-9b43-efee1d571c3e"},"vehicle_type_id":"4","last_reported":1760771309,"current_range_meters":16800,"station_id":"ce4bgjp2rcd13ifvqbh0","pricing_plan_id":"cebpf4jnsgd1na2vs0mg"},{"bike_id":"18c84fc8-c548-427e-b416-fdac4caceccf","system_id":"levelo_inurba_marseille","lat":43.28847,"lon":5.35834,"is_reserved":false,"is_disabled":false,"rental_uris":{"android":"levelo://app?vid=18c84fc8-c548-427e-b416-fdac4caceccf","ios":"levelo://app?vid=18c84fc8-c548-427e-b416-fdac4caceccf"},"vehicle_type_id":"4","last_reported":1760771309,"current_range_meters":16800,"station_id":"ce4bhb12rcd13ifvqem0","pricing_plan_id":"cebpf4jnsgd1na2vs0mg"},{"bike_id":"edcb744a-1021-4493-86cd-94aad7a8dbc8","system_id":"levelo_inurba_marseille","lat":43.30566,"lon":5.37451,"is_reserved":false,"is_disabled":false,"rental_uris":{"android":"levelo://app?vid=edcb744a-1021-4493-86cd-94aad7a8dbc8","ios":"levelo://app?vid=edcb744a-1021-4493-86cd-94aad7a8dbc8"},"vehicle_type_id":"4","last_reported":1760771309,"current_range_meters":16800,"station_id":"","pricing_plan_id":"cebpf4jnsgd1na2vs0mg"},{"bike_id":"74e3e01c-66c4-481d-b08c-6c10af99936d","system_id":"levelo_inurba_marseille","lat":43.34202,"lon":5.40118,"is_reserved":false,"is_disabled":false,"rental_uris":{"android":"levelo://app?vid=74e3e01c-66c4-481d-b08c-6c10af99936d","ios":"levelo://app?vid=74e3e01c-66c4-481d-b08c-6c10af99936d"},"vehicle_type_id":"4","last_reported":1760771309,"current_range_meters":16800,"station_id":"","pricing_plan_id":"cebpf4jnsgd1na2vs0mg"},{"bike_id":"74466a52-bd98-4f97-baa7-7db937f0eda4","system_id":"levelo_inurba_marseille","lat":43.279975,"lon":5.416714,"is_reserved":false,"is_disabled":false,"rental_uris":{"android":"levelo://app?vid=74466a52-bd98-4f97-baa7-7db937f0eda4","ios":"levelo://app?vid=74466a52-bd98-4f97-baa7-7db937f0eda4"},"vehicle_type_id":"4","last_reported":1760771309,"current_range_meters":17200,"station_id":"ce4bho12rcd13ifvqh1g","pricing_plan_id":"cebpf4jnsgd1na2vs0mg"},{"bike_id":"838aa66d-6981-4ac9-b6c1-d770c4877fde","system_id":"levelo_inurba_marseille","lat":43.27202,"lon":5.39174,"is_reserved":false,"is_disabled":false,"rental_uris":{"android":"levelo://app?vid=838aa66d-6981-4ac9-b6c1-d770c4877fde","ios":"levelo://app?vid=838aa66d-6981-4ac9-b6c1-d770c4877fde"},"vehicle_type_id":"4","last_reported":1760771309,"current_range_meters":17200,"station_id":"ce4bhhp2rcd13ifvqfm0","pricing_plan_id":"cebpf4jnsgd1na2vs0mg"},{"bike_id":"eaba2c97-430a-4e05-9a18-9c7e7e2fdd5a","system_id":"levelo_inurba_marseille","lat":43.28731,"lon":5.36078,"is_reserved":false,"is_disabled":false,"rental_uris":{"android":"levelo://app?vid=eaba2c97-430a-4e05-9a18-9c7e7e2fdd5a","ios":"levelo://app?vid=eaba2c97-430a-4e05-9a18-9c7e7e2fdd5a"},"vehicle_type_id":"4","last_reported":1760771309,"current_range_meters":17200,"station_id":"cki0cbj6b192h4jlfktg","pricing_plan_id":"cebpf4jnsgd1na2vs0mg"},{"bike_id":"ec652428-0eb3-4b1d-b413-723b569c8457","system_id":"levelo_inurba_marseille","lat":43.26957,"lon":5.38631,"is_reserved":false,"is_disabled":false,"rental_uris":{"android":"levelo://app?vid=ec652428-0eb3-4b1d-b413-723b569c8457","ios":"levelo://app?vid=ec652428-0eb3-4b1d-b413-723b569c8457"},"vehicle_type_id":"4","last_reported":1760771309,"current_range_meters":17200,"station_id":"ce4bhh92rcd13ifvqfh0","pricing_plan_id":"cebpf4jnsgd1na2vs0mg"},{"bike_id":"cf4c14bf-7635-4f96-a4b6-ee6481db3804","system_id":"levelo_inurba_marseille","lat":43.32293,"lon":5.38287,"is_reserved":false,"is_disabled":false,"rental_uris":{"android":"levelo://app?vid=cf4c14bf-7635-4f96-a4b6-ee6481db3804","ios":"levelo://app?vid=cf4c14bf-7635-4f96-a4b6-ee6481db3804"},"vehicle_type_id":"4","last_reported":1760771309,"current_range_meters":17200,"station_id":"ce4bhr12rcd13ifvqhqg","pricing_plan_id":"cebpf4jnsgd1na2vs0mg"},{"bike_id":"a7b3764b-b896-4840-bd7e-9880973af195","system_id":"levelo_inurba_marseille","lat":43.292287,"lon":5.360602,"is_reserved":false,"is_disabled":false,"rental_uris":{"android":"levelo://app?vid=a7b3764b-b896-4840-bd7e-9880973af195","ios":"levelo://app?vid=a7b3764b-b896-4840-bd7e-9880973af195"},"vehicle_type_id":"4","last_reported":1760771309,"current_range_meters":17200,"station_id":"","pricing_plan_id":"cebpf4jnsgd1na2vs0mg"},{"bike_id":"a8eb8b37-0b4a-43bc-a495-28131b905b81","system_id":"levelo_inurba_marseille","lat":43.30928,"lon":5.40142,"is_reserved":false,"is_disabled":false,"rental_uris":{"android":"levelo://app?vid=a8eb8b37-0b4a-43bc-a495-28131b905b81","ios":"levelo://app?vid=a8eb8b37-0b4a-43bc-a495-28131b905b81"},"vehicle_type_id":"4","last_reported":1760771309,"current_range_meters":17200,"station_id":"ce4bgvp2rcd13ifvqct0","pricing_plan_id":"cebpf4jnsgd1na2vs0mg"},{"bike_id":"f4b21278-7a88-4f1e-8b50-4cb4a181722f","system_id":"levelo_inurba_marseille","lat":43.28531,"lon":5.441,"is_reserved":false,"is_disabled":false,"rental_uris":{"android":"levelo://app?vid=f4b21278-7a88-4f1e-8b50-4cb4a181722f","ios":"levelo://app?vid=f4b21278-7a88-4f1e-8b50-4cb4a181722f"},"vehicle_type_id":"4","last_reported":1760771309,"current_range_meters":17200,"station_id":"st_d3j3df2ikq2c7380ej80","pricing_plan_id":"cebpf4jnsgd1na2vs0mg"},{"bike_id":"90f31a8f-be74-4e1e-a1b3-f6a943ddc5af","system_id":"levelo_inurba_marseille","lat":43.29916,"lon":5.38128,"is_reserved":false,"is_disabled":false,"rental_uris":{"android":"levelo://app?vid=90f31a8f-be74-4e1e-a1b3-f6a943ddc5af","ios":"levelo://app?vid=90f31a8f-be74-4e1e-a1b3-f6a943ddc5af"},"vehicle_type_id":"4","last_reported":1760771309,"current_range_meters":17200,"station_id":"ce4bgj12rcd13ifvqbc0","pricing_plan_id":"cebpf4jnsgd1na2vs0mg"},{"bike_id":"173e1d70-c718-4a46-b20e-873a702ef8ad","system_id":"levelo_inurba_marseille","lat":43.30921,"lon":5.40143,"is_reserved":false,"is_disabled":false,"rental_uris":{"android":"levelo://app?vid=173e1d70-c718-4a46-b20e-873a702ef8ad","ios":"levelo://app?vid=173e1d70-c718-4a46-b20e-873a702ef8ad"},"vehicle_type_id":"4","last_reported":1760771309,"current_range_meters":17200,"station_id":"ce4bgvp2rcd13ifvqct0","pricing_plan_id":"cebpf4jnsgd1na2vs0mg"},{"bike_id":"8b47997b-03f3-49a4-97c1-260ad9eaaf57","system_id":"levelo_inurba_marseille","lat":43.29892,"lon":5.43668,"is_reserved":false,"is_disabled":false,"rental_uris":{"android":"levelo://app?vid=8b47997b-03f3-49a4-97c1-260ad9eaaf57","ios":"levelo://app?vid=8b47997b-03f3-49a4-97c1-260ad9eaaf57"},"vehicle_type_id":"4","last_reported":1760771309,"current_range_meters":17600,"station_id":"ce4bhpp2rcd13ifvqhfg","pricing_plan_id":"cebpf4jnsgd1na2vs0mg"},{"bike_id":"36a54c16-5204-42d0-8ba8-cc8c48683cf0","system_id":"levelo_inurba_marseille","lat":43.24675,"lon":5.38148,"is_reserved":false,"is_disabled":false,"rental_uris":{"android":"levelo://app?vid=36a54c16-5204-42d0-8ba8-cc8c48683cf0","ios":"levelo://app?vid=36a54c16-5204-42d0-8ba8-cc8c48683cf0"},"vehicle_type_id":"4","last_reported":1760771309,"current_range_meters":17600,"station_id":"ce4bhih2rcd13ifvqfr0","pricing_plan_id":"cebpf4jnsgd1na2vs0mg"},{"bike_id":"1613a613-e467-4cc1-8bde-06abce3405f6","system_id":"levelo_inurba_marseille","lat":43.27613,"lon":5.36105,"is_reserved":false,"is_disabled":false,"rental_uris":{"android":"levelo://app?vid=1613a613-e467-4cc1-8bde-06abce3405f6","ios":"levelo://app?vid=1613a613-e467-4cc1-8bde-06abce3405f6"},"vehicle_type_id":"4","last_reported":1760771309,"current_range_meters":17600,"station_id":"ce4bgj92rcd13ifvqbe0","pricing_plan_id":"cebpf4jnsgd1na2vs0mg"},{"bike_id":"8bdd8fc1-625b-4b8f-b180-7ca8b1af0597","system_id":"levelo_inurba_marseille","lat":43.2815,"lon":5.42639,"is_reserved":false,"is_disabled":false,"rental_uris":{"android":"levelo://app?vid=8bdd8fc1-625b-4b8f-b180-7ca8b1af0597","ios":"levelo://app?vid=8bdd8fc1-625b-4b8f-b180-7ca8b1af0597"},"vehicle_type_id":"4","last_reported":1760771309,"current_range_meters":17600,"station_id":"ce4bhnh2rcd13ifvqgug","pricing_plan_id":"cebpf4jnsgd1na2vs0mg"},{"bike_id":"cab26d3f-f350-4830-85b5-903f1536b9e5","system_id":"levelo_inurba_marseille","lat":43.309231,"lon":5.40146,"is_reserved":false,"is_disabled":false,"rental_uris":{"android":"levelo://app?vid=cab26d3f-f350-4830-85b5-903f1536b9e5","ios":"levelo://app?vid=cab26d3f-f350-4830-85b5-903f1536b9e5"},"vehicle_type_id":"4","last_reported":1760771309,"current_range_meters":17600,"station_id":"ce4bgvp2rcd13ifvqct0","pricing_plan_id":"cebpf4jnsgd1na2vs0mg"},{"bike_id":"f832281a-4b5b-4a71-bf44-8c8cbd183bd9","system_id":"levelo_inurba_marseille","lat":43.28516,"lon":5.44107,"is_reserved":false,"is_disabled":false,"rental_uris":{"android":"levelo://app?vid=f832281a-4b5b-4a71-bf44-8c8cbd183bd9","ios":"levelo://app?vid=f832281a-4b5b-4a71-bf44-8c8cbd183bd9"},"vehicle_type_id":"4","last_reported":1760771309,"current_range_meters":17600,"station_id":"st_d3j3df2ikq2c7380ej80","pricing_plan_id":"cebpf4jnsgd1na2vs0mg"},{"bike_id":"87e1f573-5b61-4618-be41-a82c32c5af86","system_id":"levelo_inurba_marseille","lat":43.2872,"lon":5.39999,"is_reserved":false,"is_disabled":false,"rental_uris":{"android":"levelo://app?vid=87e1f573-5b61-4618-be41-a82c32c5af86","ios":"levelo://app?vid=87e1f573-5b61-4618-be41-a82c32c5af86"},"vehicle_type_id":"4","last_reported":1760771309,"current_range_meters":18000,"station_id":"ce4bho92rcd13ifvqh3g","pricing_plan_id":"cebpf4jnsgd1na2vs0mg"},{"bike_id":"67ed1bfa-6aa8-4f38-9a82-9de9966e47c3","system_id":"levelo_inurba_marseille","lat":43.3133,"lon":5.39683,"is_reserved":false,"is_disabled":false,"rental_uris":{"android":"levelo://app?vid=67ed1bfa-6aa8-4f38-9a82-9de9966e47c3","ios":"levelo://app?vid=67ed1bfa-6aa8-4f38-9a82-9de9966e47c3"},"vehicle_type_id":"4","last_reported":1760771309,"current_range_meters":18000,"station_id":"ce4bgvp2rcd13ifvqcu0","pricing_plan_id":"cebpf4jnsgd1na2vs0mg"},{"bike_id":"109ac308-54fd-47d6-af56-fc67913ab9d0","system_id":"levelo_inurba_marseille","lat":43.30128,"lon":5.43106,"is_reserved":false,"is_disabled":false,"rental_uris":{"android":"levelo://app?vid=109ac308-54fd-47d6-af56-fc67913ab9d0","ios":"levelo://app?vid=109ac308-54fd-47d6-af56-fc67913ab9d0"},"vehicle_type_id":"4","last_reported":1760771309,"current_range_meters":18000,"station_id":"st_d3js3co5814s73ftftug","pricing_plan_id":"cebpf4jnsgd1na2vs0mg"},{"bike_id":"c71eb113-4d35-4018-a1da-74dbb9bb0d5c","system_id":"levelo_inurba_marseille","lat":43.29269,"lon":5.3685,"is_reserved":false,"is_disabled":false,"rental_uris":{"android":"levelo://app?vid=c71eb113-4d35-4018-a1da-74dbb9bb0d5c","ios":"levelo://app?vid=c71eb113-4d35-4018-a1da-74dbb9bb0d5c"},"vehicle_type_id":"4","last_reported":1760771309,"current_range_meters":18800,"station_id":"ce4bhbp2rcd13ifvqesg","pricing_plan_id":"cebpf4jnsgd1na2vs0mg"},{"bike_id":"0e00e978-bcc9-4a6a-ae98-86cfe30ea05f","system_id":"levelo_inurba_marseille","lat":43.309298,"lon":5.401397,"is_reserved":false,"is_disabled":false,"rental_uris":{"android":"levelo://app?vid=0e00e978-bcc9-4a6a-ae98-86cfe30ea05f","ios":"levelo://app?vid=0e00e978-bcc9-4a6a-ae98-86cfe30ea05f"},"vehicle_type_id":"4","last_reported":1760771309,"current_range_meters":18800,"station_id":"ce4bgvp2rcd13ifvqct0","pricing_plan_id":"cebpf4jnsgd1na2vs0mg"},{"bike_id":"8cd818e3-a9e2-4f48-92b2-26306f507696","system_id":"levelo_inurba_marseille","lat":43.31349,"lon":5.37913,"is_reserved":false,"is_disabled":false,"rental_uris":{"android":"levelo://app?vid=8cd818e3-a9e2-4f48-92b2-26306f507696","ios":"levelo://app?vid=8cd818e3-a9e2-4f48-92b2-26306f507696"},"vehicle_type_id":"4","last_reported":1760771309,"current_range_meters":18800,"station_id":"","pricing_plan_id":"cebpf4jnsgd1na2vs0mg"},{"bike_id":"d3df3d50-48e8-4902-a642-108fd77511ac","system_id":"levelo_inurba_marseille","lat":43.24071,"lon":5.37756,"is_reserved":false,"is_disabled":false,"rental_uris":{"android":"levelo://app?vid=d3df3d50-48e8-4902-a642-108fd77511ac","ios":"levelo://app?vid=d3df3d50-48e8-4902-a642-108fd77511ac"},"vehicle_type_id":"4","last_reported":1760771309,"current_range_meters":18800,"station_id":"ce4bhnp2rcd13ifvqgvg","pricing_plan_id":"cebpf4jnsgd1na2vs0mg"},{"bike_id":"2dbded88-3432-4e73-8c87-a33e0701dd50","system_id":"levelo_inurba_marseille","lat":43.32075,"lon":5.36779,"is_reserved":false,"is_disabled":false,"rental_uris":{"android":"levelo://app?vid=2dbded88-3432-4e73-8c87-a33e0701dd50","ios":"levelo://app?vid=2dbded88-3432-4e73-8c87-a33e0701dd50"},"vehicle_type_id":"4","last_reported":1760771309,"current_range_meters":18800,"station_id":"ce4bhrh2rcd13ifvqhug","pricing_plan_id":"cebpf4jnsgd1na2vs0mg"},{"bike_id":"f750575e-c00b-41e9-b514-317beaacd156","system_id":"levelo_inurba_marseille","lat":43.309272,"lon":5.401509,"is_reserved":false,"is_disabled":false,"rental_uris":{"android":"levelo://app?vid=f750575e-c00b-41e9-b514-317beaacd156","ios":"levelo://app?vid=f750575e-c00b-41e9-b514-317beaacd156"},"vehicle_type_id":"4","last_reported":1760771309,"current_range_meters":18800,"station_id":"ce4bgvp2rcd13ifvqct0","pricing_plan_id":"cebpf4jnsgd1na2vs0mg"},{"bike_id":"a3bea987-4c2d-47e9-ab2e-048f59a06e29","system_id":"levelo_inurba_marseille","lat":43.323655,"lon":5.367532,"is_reserved":false,"is_disabled":false,"rental_uris":{"android":"levelo://app?vid=a3bea987-4c2d-47e9-ab2e-048f59a06e29","ios":"levelo://app?vid=a3bea987-4c2d-47e9-ab2e-048f59a06e29"},"vehicle_type_id":"4","last_reported":1760771309,"current_range_meters":18800,"station_id":"ce4bhsh2rcd13ifvqi2g","pricing_plan_id":"cebpf4jnsgd1na2vs0mg"},{"bike_id":"0f787efd-37ca-4060-a03d-15d3c3ce389f","system_id":"levelo_inurba_marseille","lat":43.299964,"lon":5.373623,"is_reserved":false,"is_disabled":false,"rental_uris":{"android":"levelo://app?vid=0f787efd-37ca-4060-a03d-15d3c3ce389f","ios":"levelo://app?vid=0f787efd-37ca-4060-a03d-15d3c3ce389f"},"vehicle_type_id":"4","last_reported":1760771309,"current_range_meters":18800,"station_id":"","pricing_plan_id":"cebpf4jnsgd1na2vs0mg"},{"bike_id":"af806066-d313-4142-a8aa-4cd0a99a2538","system_id":"levelo_inurba_marseille","lat":43.272074,"lon":5.391814,"is_reserved":false,"is_disabled":false,"rental_uris":{"android":"levelo://app?vid=af806066-d313-4142-a8aa-4cd0a99a2538","ios":"levelo://app?vid=af806066-d313-4142-a8aa-4cd0a99a2538"},"vehicle_type_id":"4","last_reported":1760771309,"current_range_meters":19200,"station_id":"ce4bhhp2rcd13ifvqfm0","pricing_plan_id":"cebpf4jnsgd1na2vs0mg"},{"bike_id":"84868a3a-d739-4fcb-aa91-5b15e5ce2f6d","system_id":"levelo_inurba_marseille","lat":43.32321,"lon":5.44029,"is_reserved":false,"is_disabled":false,"rental_uris":{"android":"levelo://app?vid=84868a3a-d739-4fcb-aa91-5b15e5ce2f6d","ios":"levelo://app?vid=84868a3a-d739-4fcb-aa91-5b15e5ce2f6d"},"vehicle_type_id":"4","last_reported":1760771309,"current_range_meters":19200,"station_id":"","pricing_plan_id":"cebpf4jnsgd1na2vs0mg"},{"bike_id":"50b0c317-2203-48dc-b972-8f39b38a376e","system_id":"levelo_inurba_marseille","lat":43.30127,"lon":5.39883,"is_reserved":false,"is_disabled":true,"rental_uris":{"android":"levelo://app?vid=50b0c317-2203-48dc-b972-8f39b38a376e","ios":"levelo://app?vid=50b0c317-2203-48dc-b972-8f39b38a376e"},"vehicle_type_id":"4","last_reported":1760771309,"current_range_meters":19200,"station_id":"ce4bh0h2rcd13ifvqd40","pricing_plan_id":"cebpf4jnsgd1na2vs0mg"},{"bike_id":"05a0dc8d-4b2b-418d-bb27-9c44089bd9d9","system_id":"levelo_inurba_marseille","lat":43.24383,"lon":5.37066,"is_reserved":false,"is_disabled":false,"rental_uris":{"android":"levelo://app?vid=05a0dc8d-4b2b-418d-bb27-9c44089bd9d9","ios":"levelo://app?vid=05a0dc8d-4b2b-418d-bb27-9c44089bd9d9"},"vehicle_type_id":"4","last_reported":1760771309,"current_range_meters":19200,"station_id":"ce4bhhh2rcd13ifvqfk0","pricing_plan_id":"cebpf4jnsgd1na2vs0mg"},{"bike_id":"86ce52f8-f590-4694-90e1-216ddc477b29","system_id":"levelo_inurba_marseille","lat":43.30968,"lon":5.3812,"is_reserved":false,"is_disabled":false,"rental_uris":{"android":"levelo://app?vid=86ce52f8-f590-4694-90e1-216ddc477b29","ios":"levelo://app?vid=86ce52f8-f590-4694-90e1-216ddc477b29"},"vehicle_type_id":"4","last_reported":1760771309,"current_range_meters":19200,"station_id":"","pricing_plan_id":"cebpf4jnsgd1na2vs0mg"},{"bike_id":"d14adc6c-aa5c-42e1-9dbc-77f3ce1a47fe","system_id":"levelo_inurba_marseille","lat":43.29275,"lon":5.36838,"is_reserved":false,"is_disabled":false,"rental_uris":{"android":"levelo://app?vid=d14adc6c-aa5c-42e1-9dbc-77f3ce1a47fe","ios":"levelo://app?vid=d14adc6c-aa5c-42e1-9dbc-77f3ce1a47fe"},"vehicle_type_id":"4","last_reported":1760771309,"current_range_meters":19200,"station_id":"ce4bhbp2rcd13ifvqesg","pricing_plan_id":"cebpf4jnsgd1na2vs0mg"},{"bike_id":"a3096fc5-d212-433e-b899-0482f70eca22","system_id":"levelo_inurba_marseille","lat":43.290719,"lon":5.399751,"is_reserved":false,"is_disabled":false,"rental_uris":{"android":"levelo://app?vid=a3096fc5-d212-433e-b899-0482f70eca22","ios":"levelo://app?vid=a3096fc5-d212-433e-b899-0482f70eca22"},"vehicle_type_id":"4","last_reported":1760771309,"current_range_meters":19200,"station_id":"ce4bh392rcd13ifvqdm0","pricing_plan_id":"cebpf4jnsgd1na2vs0mg"},{"bike_id":"ec9b3e09-59b2-46f5-b30e-4f6e4b4da5d0","system_id":"levelo_inurba_marseille","lat":43.23793,"lon":5.36621,"is_reserved":false,"is_disabled":false,"rental_uris":{"android":"levelo://app?vid=ec9b3e09-59b2-46f5-b30e-4f6e4b4da5d0","ios":"levelo://app?vid=ec9b3e09-59b2-46f5-b30e-4f6e4b4da5d0"},"vehicle_type_id":"4","last_reported":1760771309,"current_range_meters":19200,"station_id":"st_d3nk18o9ro0c73en2l3g","pricing_plan_id":"cebpf4jnsgd1na2vs0mg"},{"bike_id":"967e4b65-604d-4b8d-ac1d-2fa3794e8cb2","system_id":"levelo_inurba_marseille","lat":43.31119,"lon":5.37747,"is_reserved":false,"is_disabled":false,"rental_uris":{"android":"levelo://app?vid=967e4b65-604d-4b8d-ac1d-2fa3794e8cb2","ios":"levelo://app?vid=967e4b65-604d-4b8d-ac1d-2fa3794e8cb2"},"vehicle_type_id":"4","last_reported":1760771309,"current_range_meters":19200,"station_id":"ce4bgt92rcd13ifvqcg0","pricing_plan_id":"cebpf4jnsgd1na2vs0mg"},{"bike_id":"7b4102bf-aba1-447f-93de-ffef7042242e","system_id":"levelo_inurba_marseille","lat":43.27762,"lon":5.37599,"is_reserved":false,"is_disabled":false,"rental_uris":{"android":"levelo://app?vid=7b4102bf-aba1-447f-93de-ffef7042242e","ios":"levelo://app?vid=7b4102bf-aba1-447f-93de-ffef7042242e"},"vehicle_type_id":"4","last_reported":1760771309,"current_range_meters":19600,"station_id":"","pricing_plan_id":"cebpf4jnsgd1na2vs0mg"},{"bike_id":"8f6c99a9-2111-4ea5-ba4d-4bb0a3b06aa1","system_id":"levelo_inurba_marseille","lat":43.29812,"lon":5.44064,"is_reserved":false,"is_disabled":false,"rental_uris":{"android":"levelo://app?vid=8f6c99a9-2111-4ea5-ba4d-4bb0a3b06aa1","ios":"levelo://app?vid=8f6c99a9-2111-4ea5-ba4d-4bb0a3b06aa1"},"vehicle_type_id":"4","last_reported":1760771309,"current_range_meters":19600,"station_id":"st_d3jp68qikq2c7381ktn0","pricing_plan_id":"cebpf4jnsgd1na2vs0mg"},