{"last_updated":1726567782,"ttl":30,"version":"2.2","data":{"bikes":[{"bike_id":"4dae9236-ecc4-4097-86b5-07cbb0554035","system_id":"levelo_inurba_marseille","lat":43.31384,"lon":5.36705,"is_reserved":false,"is_disabled":false,"rental_uris":{"android":"levelo://app?vid=4dae9236-ecc4-4097-86b5-07cbb0554035","ios":"levelo://app?vid=4dae9236-ecc4-4097-86b5-07cbb0554035"},"vehicle_type_id":"4","last_reported":1726567782,"current_range_meters":38800,"station_id":"ce4bgr92rcd13ifvqc6g","pricing_plan_id":"cebpf4jnsgd1na2vs0mg"},{"bike_id":"00680850-50d0-4792-883e-8a72362dcd4a","system_id":"levelo_inurba_marseille","lat":43.27488,"lon":5.42455,"is_reserved":false,"is_disabled":false,"rental_uris":{"android":"levelo://app?vid=00680850-50d0-4792-883e-8a72362dcd4a","ios":"levelo://app?vid=00680850-50d0-4792-883e-8a72362dcd4a"},"vehicle_type_id":"4","last_reported":1726567782,"current_range_meters":36000,"station_id":"ce4bhn92rcd13ifvqgrg","pricing_plan_id":"cebpf4jnsgd1na2vs0mg"},{"bike_id":"9d80d423-6bb3-493c-9cb5-3d322829f416","system_id":"levelo_inurba_marseille","lat":43.32474,"lon":5.36569,"is_reserved":false,"is_disabled":false,"rental_uris":{"android":"levelo://app?vid=9d80d423-6bb3-493c-9cb5-3d322829f416","ios":"levelo://app?vid=9d80d423-6bb3-493c-9cb5-3d322829f416"},"vehicle_type_id":"4","last_reported":1726567782,"current_range_meters":17600,"station_id":"ce4bhs12rcd13ifvqhvg","pricing_plan_id":"cebpf4jnsgd1na2vs0mg"},{"bike_id":"cf5b0f72-4e3e-4b93-9c28-7947369b5199","system_id":"levelo_inurba_marseille","lat":43.33727,"lon":5.39183,"is_reserved":false,"is_disabled":false,"rental_uris":{"android":"levelo://app?vid=cf5b0f72-4e3e-4b93-9c28-7947369b5199","ios":"levelo://app?vid=cf5b0f72-4e3e-4b93-9c28-7947369b5199"},"vehicle_type_id":"4","last_reported":1726567782,"current_range_meters":30400,"station_id":"ce4bhr92rcd13ifvqhsg","pricing_plan_id":"cebpf4jnsgd1na2vs0mg"},{"bike_id":"e58e4e10-994d-474f-afcc-7b41ddc63dfe","system_id":"levelo_inurba_marseille","lat":43.28151,"lon":5.42642,"is_reserved":false,"is_disabled":false,"rental_uris":{"android":"levelo://app?vid=e58e4e10-994d-474f-afcc-7b41ddc63dfe","ios":"levelo://app?vid=e58e4e10-994d-474f-afcc-7b41ddc63dfe"},"vehicle_type_id":"4","last_reported":1726567782,"current_range_meters":38400,"station_id":"ce4bhnh2rcd13ifvqgug","pricing_plan_id":"cebpf4jnsgd1na2vs0mg"},{"bike_id":"43176770-eaee-4996-86c7-d408161e4ce6","system_id":"levelo_inurba_marseille","lat":43.29899,"lon":5.4366,"is_reserved":false,"is_disabled":false,"rental_uris":{"android":"levelo://app?vid=43176770-eaee-4996-86c7-d408161e4ce6","ios":"levelo://app?vid=43176770-eaee-4996-86c7-d408161e4ce6"},"vehicle_type_id":"4","last_reported":1726567782,"current_range_meters":6800,"station_id":"ce4bhpp2rcd13ifvqhfg","pricing_plan_id":"cebpf4jnsgd1na2vs0mg"},{"bike_id":"44424f09-133d-4ff3-8c34-8bb853d2401b","system_id":"levelo_inurba_marseille","lat":43.29837,"lon":5.36285,"is_reserved":false,"is_disabled":false,"rental_uris":{"android":"levelo://app?vid=44424f09-133d-4ff3-8c34-8bb853d2401b","ios":"levelo://app?vid=44424f09-133d-4ff3-8c34-8bb853d2401b"},"vehicle_type_id":"4","last_reported":1726567782,"current_range_meters":12400,"station_id":"ce4bgpp2rcd13ifvqc3g","pricing_plan_id":"cebpf4jnsgd1na2vs0mg"},{"bike_id":"890751e9-6443-44e6-8ec9-7ee283e40beb","system_id":"levelo_inurba_marseille","lat":43.27807,"lon":5.40708,"is_reserved":false,"is_disabled":false,"rental_uris":{"android":"levelo://app?vid=890751e9-6443-44e6-8ec9-7ee283e40beb","ios":"levelo://app?vid=890751e9-6443-44e6-8ec9-7ee283e40beb"},"vehicle_type_id":"4","last_reported":1726567782,"current_range_meters":38800,"station_id":"ce4bhnh2rcd13ifvqgtg","pricing_plan_id":"cebpf4jnsgd1na2vs0mg"},{"bike_id":"03820252-4f2f-4552-906f-4e8148d03816","system_id":"levelo_inurba_marseille","lat":43.30353,"lon":5.41886,"is_reserved":false,"is_disabled":false,"rental_uris":{"android":"levelo://app?vid=03820252-4f2f-4552-906f-4e8148d03816","ios":"levelo://app?vid=03820252-4f2f-4552-906f-4e8148d03816"},"vehicle_type_id":"4","last_reported":1726567782,"current_range_meters":38800,"station_id":"ce4bhop2rcd13ifvqh7g","pricing_plan_id":"cebpf4jnsgd1na2vs0mg"},{"bike_id":"5a567a26-d9cf-4db5-9a45-0cc60399f6f1","system_id":"levelo_inurba_marseille","lat":43.30304,"lon":5.368932,"is_reserved":false,"is_disabled":false,"rental_uris":{"android":"levelo://app?vid=5a567a26-d9cf-4db5-9a45-0cc60399f6f1","ios":"levelo://app?vid=5a567a26-d9cf-4db5-9a45-0cc60399f6f1"},"vehicle_type_id":"4","last_reported":1726567782,"current_range_meters":31200,"station_id":"ce4bgqh2rcd13ifvqc5g","pricing_plan_id":"cebpf4jnsgd1na2vs0mg"},{"bike_id":"13ec4916-f0ea-4897-8afc-596425b42c42","system_id":"levelo_inurba_marseille","lat":43.23188,"lon":5.35559,"is_reserved":false,"is_disabled":false,"rental_uris":{"android":"levelo://app?vid=13ec4916-f0ea-4897-8afc-596425b42c42","ios":"levelo://app?vid=13ec4916-f0ea-4897-8afc-596425b42c42"},"vehicle_type_id":"4","last_reported":1726567782,"current_range_meters":10000,"station_id":"ce4bhu92rcd13ifvqi70","pricing_plan_id":"cebpf4jnsgd1na2vs0mg"},{"bike_id":"9d243943-f186-4f8f-b775-710d28fca1e0","system_id":"levelo_inurba_marseille","lat":43.32533,"lon":5.41458,"is_reserved":false,"is_disabled":false,"rental_uris":{"android":"levelo://app?vid=9d243943-f186-4f8f-b775-710d28fca1e0","ios":"levelo://app?vid=9d243943-f186-4f8f-b775-710d28fca1e0"},"vehicle_type_id":"4","last_reported":1726567782,"current_range_meters":33600,"station_id":"ce4bhq12rcd13ifvqhhg","pricing_plan_id":"cebpf4jnsgd1na2vs0mg"},{"bike_id":"e9775e14-f56e-4d3d-841e-e82a160f742a","system_id":"levelo_inurba_marseille","lat":43.30557,"lon":5.36542,"is_reserved":false,"is_disabled":false,"rental_uris":{"android":"levelo://app?vid=e9775e14-f56e-4d3d-841e-e82a160f742a","ios":"levelo://app?vid=e9775e14-f56e-4d3d-841e-e82a160f742a"},"vehicle_type_id":"4","last_reported":1726567782,"current_range_meters":33600,"station_id":"ce4bgs12rcd13ifvqcag","pricing_plan_id":"cebpf4jnsgd1na2vs0mg"},{"bike_id":"b6c63c96-bb07-4744-b2b1-9b60ef810e56","system_id":"levelo_inurba_marseille","lat":43.24651,"lon":5.38892,"is_reserved":false,"is_disabled":false,"rental_uris":{"android":"levelo://app?vid=b6c63c96-bb07-4744-b2b1-9b60ef810e56","ios":"levelo://app?vid=b6c63c96-bb07-4744-b2b1-9b60ef810e56"},"vehicle_type_id":"4","last_reported":1726567782,"current_range_meters":32800,"station_id":"ce4bhg12rcd13ifvqf60","pricing_plan_id":"cebpf4jnsgd1na2vs0mg"},{"bike_id":"c142123f-476f-488f-b9a7-8d5b908217c3","system_id":"levelo_inurba_marseille","lat":43.33758,"lon":5.37451,"is_reserved":false,"is_disabled":false,"rental_uris":{"android":"levelo://app?vid=c142123f-476f-488f-b9a7-8d5b908217c3","ios":"levelo://app?vid=c142123f-476f-488f-b9a7-8d5b908217c3"},"vehicle_type_id":"4","last_reported":1726567782,"current_range_meters":34800,"station_id":"","pricing_plan_id":"cebpf4jnsgd1na2vs0mg"},{"bike_id":"ebbcefaf-20d5-462a-9932-6512ad59f94f","system_id":"levelo_inurba_marseille","lat":43.29846,"lon":5.36274,"is_reserved":false,"is_disabled":false,"rental_uris":{"android":"levelo://app?vid=ebbcefaf-20d5-462a-9932-6512ad59f94f","ios":"levelo://app?vid=ebbcefaf-20d5-462a-9932-6512ad59f94f"},"vehicle_type_id":"4","last_reported":1726567782,"current_range_meters":20000,"station_id":"ce4bgpp2rcd13ifvqc3g","pricing_plan_id":"cebpf4jnsgd1na2vs0mg"},{"bike_id":"ea49f2d9-bfd5-4257-b7f7-aa8b31eb1590","system_id":"levelo_inurba_marseille","lat":43.287004,"lon":5.431715,"is_reserved":false,"is_disabled":false,"rental_uris":{"android":"levelo://app?vid=ea49f2d9-bfd5-4257-b7f7-aa8b31eb1590","ios":"levelo://app?vid=ea49f2d9-bfd5-4257-b7f7-aa8b31eb1590"},"vehicle_type_id":"4","last_reported":1726567782,"current_range_meters":12000,"station_id":"ce4bhi12rcd13ifvqfo0","pricing_plan_id":"cebpf4jnsgd1na2vs0mg"},{"bike_id":"e6217ac4-3950-4deb-9faf-a5e2098ab581","system_id":"levelo_inurba_marseille","lat":43.290092,"lon":5.35612,"is_reserved":false,"is_disabled":false,"rental_uris":{"android":"levelo://app?vid=e6217ac4-3950-4deb-9faf-a5e2098ab581","ios":"levelo://app?vid=e6217ac4-3950-4deb-9faf-a5e2098ab581"},"vehicle_type_id":"4","last_reported":1726567782,"current_range_meters":16400,"station_id":"ce4bhb92rcd13ifvqen0","pricing_plan_id":"cebpf4jnsgd1na2vs0mg"},{"bike_id":"f7ba75b6-9e74-43ff-abae-9f7d376ca3c4","system_id":"levelo_inurba_marseille","lat":43.32541,"lon":5.41438,"is_reserved":false,"is_disabled":false,"rental_uris":{"android":"levelo://app?vid=f7ba75b6-9e74-43ff-abae-9f7d376ca3c4","ios":"levelo://app?vid=f7ba75b6-9e74-43ff-abae-9f7d376ca3c4"},"vehicle_type_id":"4","last_reported":1726567782,"current_range_meters":38000,"station_id":"ce4bhq12rcd13ifvqhhg","pricing_plan_id":"cebpf4jnsgd1na2vs0mg"},{"bike_id":"d2d186e6-a364-4f4a-8275-6e166876e5d7","system_id":"levelo_inurba_marseille","lat":43.32533,"lon":5.41464,"is_reserved":false,"is_disabled":false,"rental_uris":{"android":"levelo://app?vid=d2d186e6-a364-4f4a-8275-6e166876e5d7","ios":"levelo://app?vid=d2d186e6-a364-4f4a-8275-6e166876e5d7"},"vehicle_type_id":"4","last_reported":1726567782,"current_range_meters":21600,"station_id":"ce4bhq12rcd13ifvqhhg","pricing_plan_id":"cebpf4jnsgd1na2vs0mg"},{"bike_id":"dbd298e0-a382-4414-92ca-00d7d938bcff","system_id":"levelo_inurba_marseille","lat":43.23199,"lon":5.35552,"is_reserved":false,"is_disabled":false,"rental_uris":{"android":"levelo://app?vid=dbd298e0-a382-4414-92ca-00d7d938bcff","ios":"levelo://app?vid=dbd298e0-a382-4414-92ca-00d7d938bcff"},"vehicle_type_id":"4","last_reported":1726567782,"current_range_meters":37600,"station_id":"ce4bhu92rcd13ifvqi70","pricing_plan_id":"cebpf4jnsgd1na2vs0mg"},{"bike_id":"1b24ddd4-ab20-4266-8863-b02d660ee211","system_id":"levelo_inurba_marseille","lat":43.28613,"lon":5.35103,"is_reserved":false,"is_disabled":false,"rental_uris":{"android":"levelo://app?vid=1b24ddd4-ab20-4266-8863-b02d660ee211","ios":"levelo://app?vid=1b24ddd4-ab20-4266-8863-b02d660ee211"},"vehicle_type_id":"4","last_reported":1726567782,"current_range_meters":32400,"station_id":"ce4bhch2rcd13ifvqeug","pricing_plan_id":"cebpf4jnsgd1na2vs0mg"},{"bike_id":"1346c169-c994-47c0-84a5-36e635e57f55","system_id":"levelo_inurba_marseille","lat":43.31497,"lon":5.37294,"is_reserved":false,"is_disabled":false,"rental_uris":{"android":"levelo://app?vid=1346c169-c994-47c0-84a5-36e635e57f55","ios":"levelo://app?vid=1346c169-c994-47c0-84a5-36e635e57f55"},"vehicle_type_id":"4","last_reported":1726567782,"current_range_meters":38000,"station_id":"ce4bgt12rcd13ifvqcd0","pricing_plan_id":"cebpf4jnsgd1na2vs0mg"},{"bike_id":"6fba4958-f94f-47ce-8849-67a1a7acd095","system_id":"levelo_inurba_marseille","lat":43.29843,"lon":5.36267,"is_reserved":false,"is_disabled":false,"rental_uris":{"android":"levelo://app?vid=6fba4958-f94f-47ce-8849-67a1a7acd095","ios":"levelo://app?vid=6fba4958-f94f-47ce-8849-67a1a7acd095"},"vehicle_type_id":"4","last_reported":1726567782,"current_range_meters":18800,"station_id":"ce4bgpp2rcd13ifvqc3g","pricing_plan_id":"cebpf4jnsgd1na2vs0mg"},{"bike_id":"8911eb2d-7b08-435f-8143-91d9c6dfff38","system_id":"levelo_inurba_marseille","lat":43.25937,"lon":5.40913,"is_reserved":false,"is_disabled":false,"rental_uris":{"android":"levelo://app?vid=8911eb2d-7b08-435f-8143-91d9c6dfff38","ios":"levelo://app?vid=8911eb2d-7b08-435f-8143-91d9c6dfff38"},"vehicle_type_id":"4","last_reported":1726567782,"current_range_meters":16800,"station_id":"ce4bhm92rcd13ifvqglg","pricing_plan_id":"cebpf4jnsgd1na2vs0mg"},{"bike_id":"d75e86d4-1d99-453f-b31b-6f37e177d16e","system_id":"levelo_inurba_marseille","lat":43.29976,"lon":5.37186,"is_reserved":false,"is_disabled":false,"rental_uris":{"android":"levelo://app?vid=d75e86d4-1d99-453f-b31b-6f37e177d16e","ios":"levelo://app?vid=d75e86d4-1d99-453f-b31b-6f37e177d16e"},"vehicle_type_id":"4","last_reported":1726567782,"current_range_meters":35200,"station_id":"ce4bgr92rcd13ifvqc7g","pricing_plan_id":"cebpf4jnsgd1na2vs0mg"},{"bike_id":"dc0e8642-f4f3-411c-ac96-84bd636032e0","system_id":"levelo_inurba_marseille","lat":43.26783,"lon":5.39383,"is_reserved":false,"is_disabled":false,"rental_uris":{"android":"levelo://app?vid=dc0e8642-f4f3-411c-ac96-84bd636032e0","ios":"levelo://app?vid=dc0e8642-f4f3-411c-ac96-84bd636032e0"},"vehicle_type_id":"4","last_reported":1726567782,"current_range_meters":38800,"station_id":"","pricing_plan_id":"cebpf4jnsgd1na2vs0mg"},{"bike_id":"bf6ebc20-06fd-452e-9221-0b7884e47e6b","system_id":"levelo_inurba_marseille","lat":43.31169,"lon":5.38722,"is_reserved":false,"is_disabled":false,"rental_uris":{"android":"levelo://app?vid=bf6ebc20-06fd-452e-9221-0b7884e47e6b","ios":"levelo://app?vid=bf6ebc20-06fd-452e-9221-0b7884e47e6b"},"vehicle_type_id":"4","last_reported":1726567782,"current_range_meters":5600,"station_id":"ce4bgv12rcd13ifvqcp0","pricing_plan_id":"cebpf4jnsgd1na2vs0mg"},{"bike_id":"9f196b73-842d-40f2-b8ac-7394222622b2","system_id":"levelo_inurba_marseille","lat":43.28608,"lon":5.351,"is_reserved":false,"is_disabled":false,"rental_uris":{"android":"levelo://app?vid=9f196b73-842d-40f2-b8ac-7394222622b2","ios":"levelo://app?vid=9f196b73-842d-40f2-b8ac-7394222622b2"},"vehicle_type_id":"4","last_reported":1726567782,"current_range_meters":16800,"station_id":"ce4bhch2rcd13ifvqeug","pricing_plan_id":"cebpf4jnsgd1na2vs0mg"},{"bike_id":"2a5808e5-1612-4dc1-a62b-b9c71459256c","system_id":"levelo_inurba_marseille","lat":43.3409,"lon":5.39116,"is_reserved":false,"is_disabled":false,"rental_uris":{"android":"levelo://app?vid=2a5808e5-1612-4dc1-a62b-b9c71459256c","ios":"levelo://app?vid=2a5808e5-1612-4dc1-a62b-b9c71459256c"},"vehicle_type_id":"4","last_reported":1726567782,"current_range_meters":11600,"station_id":"","pricing_plan_id":"cebpf4jnsgd1na2vs0mg"},{"bike_id":"e75bdf37-6017-4dd9-8183-f2edc970ca06","system_id":"levelo_inurba_marseille","lat":43.23192,"lon":5.35555,"is_reserved":false,"is_disabled":false,"rental_uris":{"android":"levelo://app?vid=e75bdf37-6017-4dd9-8183-f2edc970ca06","ios":"levelo://app?vid=e75bdf37-6017-4dd9-8183-f2edc970ca06"},"vehicle_type_id":"4","last_reported":1726567782,"current_range_meters":30800,"station_id":"ce4bhu92rcd13ifvqi70","pricing_plan_id":"cebpf4jnsgd1na2vs0mg"},{"bike_id":"ecd30124-f488-45fb-8dc0-f29fdf262c93","system_id":"levelo_inurba_marseille","lat":43.27068,"lon":5.42267,"is_reserved":false,"is_disabled":false,"rental_uris":{"android":"levelo://app?vid=ecd30124-f488-45fb-8dc0-f29fdf262c93","ios":"levelo://app?vid=ecd30124-f488-45fb-8dc0-f29fdf262c93"},"vehicle_type_id":"4","last_reported":1726567782,"current_range_meters":36400,"station_id":"ce4bhk92rcd13ifvqgb0","pricing_plan_id":"cebpf4jnsgd1na2vs0mg"},{"bike_id":"476089e5-799c-47e5-805d-f56efc84cd72","system_id":"levelo_inurba_marseille","lat":43.29622,"lon":5.37719,"is_reserved":false,"is_disabled":false,"rental_uris":{"android":"levelo://app?vid=476089e5-799c-47e5-805d-f56efc84cd72","ios":"levelo://app?vid=476089e5-799c-47e5-805d-f56efc84cd72"},"vehicle_type_id":"4","last_reported":1726567782,"current_range_meters":32800,"station_id":"ce4bgi92rcd13ifvqb90","pricing_plan_id":"cebpf4jnsgd1na2vs0mg"},{"bike_id":"854ef71a-b0ce-4b7e-853e-bc9e44a683bb","system_id":"levelo_inurba_marseille","lat":43.25936,"lon":5.40913,"is_reserved":false,"is_disabled":false,"rental_uris":{"android":"levelo://app?vid=854ef71a-b0ce-4b7e-853e-bc9e44a683bb","ios":"levelo://app?vid=854ef71a-b0ce-4b7e-853e-bc9e44a683bb"},"vehicle_type_id":"4","last_reported":1726567782,"current_range_meters":10800,"station_id":"ce4bhm92rcd13ifvqglg","pricing_plan_id":"cebpf4jnsgd1na2vs0mg"},{"bike_id":"7c6ba5cc-2704-4805-854b-7576f920d4e3","system_id":"levelo_inurba_marseille","lat":43.261728,"lon":5.375191,"is_reserved":false,"is_disabled":false,"rental_uris":{"android":"levelo://app?vid=7c6ba5cc-2704-4805-854b-7576f920d4e3","ios":"levelo://app?vid=7c6ba5cc-2704-4805-854b-7576f920d4e3"},"vehicle_type_id":"4","last_reported":1726567782,"current_range_meters":38400,"station_id":"ce4bhgp2rcd13ifvqfc0","pricing_plan_id":"cebpf4jnsgd1na2vs0mg"},{"bike_id":"c52e4848-dd66-46b8-a132-9836b7620028","system_id":"levelo_inurba_marseille","lat":43.25933,"lon":5.40911,"is_reserved":false,"is_disabled":false,"rental_uris":{"android":"levelo://app?vid=c52e4848-dd66-46b8-a132-9836b7620028","ios":"levelo://app?vid=c52e4848-dd66-46b8-a132-9836b7620028"},"vehicle_type_id":"4","last_reported":1726567782,"current_range_meters":19200,"station_id":"ce4bhm92rcd13ifvqglg","pricing_plan_id":"cebpf4jnsgd1na2vs0mg"},{"bike_id":"26ba68ce-9abf-45c1-9160-ad0d48c72a28","system_id":"levelo_inurba_marseille","lat":43.3055,"lon":5.36536,"is_reserved":false,"is_disabled":false,"rental_uris":{"android":"levelo://app?vid=26ba68ce-9abf-45c1-9160-ad0d48c72a28","ios":"levelo://app?vid=26ba68ce-9abf-45c1-9160-ad0d48c72a28"},"vehicle_type_id":"4","last_reported":1726567782,"current_range_meters":35200,"station_id":"ce4bgs12rcd13ifvqcag","pricing_plan_id":"cebpf4jnsgd1na2vs0mg"},{"bike_id":"838ed078-905d-41a0-83c1-3cfe8ad6bc74","system_id":"levelo_inurba_marseille","lat":43.28663,"lon":5.36348,"is_reserved":false,"is_disabled":false,"rental_uris":{"android":"levelo://app?vid=838ed078-905d-41a0-83c1-3cfe8ad6bc74","ios":"levelo://app?vid=838ed078-905d-41a0-83c1-3cfe8ad6bc74"},"vehicle_type_id":"4","last_reported":1726567782,"current_range_meters":23200,"station_id":"ce4bhah2rcd13ifvqej0","pricing_plan_id":"cebpf4jnsgd1na2vs0mg"},{"bike_id":"67b7d6fd-68e0-4974-9720-e2f4b2c8e265","system_id":"levelo_inurba_marseille","lat":43.24993,"lon":5.38937,"is_reserved":false,"is_disabled":false,"rental_uris":{"android":"levelo://app?vid=67b7d6fd-68e0-4974-9720-e2f4b2c8e265","ios":"levelo://app?vid=67b7d6fd-68e0-4974-9720-e2f4b2c8e265"},"vehicle_type_id":"4","last_reported":1726567782,"current_range_meters":12800,"station_id":"ce4bhgp2rcd13ifvqfd0","pricing_plan_id":"cebpf4jnsgd1na2vs0mg"},{"bike_id":"256a8a67-73e5-4619-b54c-93545b41129b","system_id":"levelo_inurba_marseille","lat":43.31361,"lon":5.38499,"is_reserved":false,"is_disabled":false,"rental_uris":{"android":"levelo://app?vid=256a8a67-73e5-4619-b54c-93545b41129b","ios":"levelo://app?vid=256a8a67-73e5-4619-b54c-93545b41129b"},"vehicle_type_id":"4","last_reported":1726567782,"current_range_meters":10000,"station_id":"ce4bgt92rcd13ifvqcf0","pricing_plan_id":"cebpf4jnsgd1na2vs0mg"},{"bike_id":"bad9e710-7ce0-48c4-b66d-1c47c52b95d4","system_id":"levelo_inurba_marseille","lat":43.23966,"lon":5.36643,"is_reserved":false,"is_disabled":false,"rental_uris":{"android":"levelo://app?vid=bad9e710-7ce0-48c4-b66d-1c47c52b95d4","ios":"levelo://app?vid=bad9e710-7ce0-48c4-b66d-1c47c52b95d4"},"vehicle_type_id":"4","last_reported":1726567782,"current_range_meters":17600,"station_id":"ce4bhi12rcd13ifvqfp0","pricing_plan_id":"cebpf4jnsgd1na2vs0mg"},{"bike_id":"3fe87b82-dda3-4c17-9a46-a862dce92604","system_id":"levelo_inurba_marseille","lat":43.24986,"lon":5.38932,"is_reserved":false,"is_disabled":false,"rental_uris":{"android":"levelo://app?vid=3fe87b82-dda3-4c17-9a46-a862dce92604","ios":"levelo://app?vid=3fe87b82-dda3-4c17-9a46-a862dce92604"},"vehicle_type_id":"4","last_reported":1726567782,"current_range_meters":32400,"station_id":"ce4bhgp2rcd13ifvqfd0","pricing_plan_id":"cebpf4jnsgd1na2vs0mg"},{"bike_id":"6fcb671c-f04a-47fc-8948-e59988d81a5e","system_id":"levelo_inurba_marseille","lat":43.24078,"lon":5.37756,"is_reserved":false,"is_disabled":false,"rental_uris":{"android":"levelo://app?vid=6fcb671c-f04a-47fc-8948-e59988d81a5e","ios":"levelo://app?vid=6fcb671c-f04a-47fc-8948-e59988d81a5e"},"vehicle_type_id":"4","last_reported":1726567782,"current_range_meters":36800,"station_id":"ce4bhnp2rcd13ifvqgvg","pricing_plan_id":"cebpf4jnsgd1na2vs0mg"},{"bike_id":"14a183b3-c7e0-4cae-a643-ca622530fef0","system_id":"levelo_inurba_marseille","lat":43.29525,"lon":5.39716,"is_reserved":false,"is_disabled":false,"rental_uris":{"android":"levelo://app?vid=14a183b3-c7e0-4cae-a643-ca622530fef0","ios":"levelo://app?vid=14a183b3-c7e0-4cae-a643-ca622530fef0"},"vehicle_type_id":"4","last_reported":1726567782,"current_range_meters":12000,"station_id":"","pricing_plan_id":"cebpf4jnsgd1na2vs0mg"},{"bike_id":"882e327a-d92c-4bd6-b42d-19c69c8b050c","system_id":"levelo_inurba_marseille","lat":43.30548,"lon":5.3671,"is_reserved":false,"is_disabled":false,"rental_uris":{"android":"levelo://app?vid=882e327a-d92c-4bd6-b42d-19c69c8b050c","ios":"levelo://app?vid=882e327a-d92c-4bd6-b42d-19c69c8b050c"},"vehicle_type_id":"4","last_reported":1726567782,"current_range_meters":37600,"station_id":"ce4bgrp2rcd13ifvqc9g","pricing_plan_id":"cebpf4jnsgd1na2vs0mg"},{"bike_id":"c64ce81c-efb7-4e4f-a72e-062617e35471","system_id":"levelo_inurba_marseille","lat":43.28857,"lon":5.37125,"is_reserved":false,"is_disabled":false,"rental_uris":{"android":"levelo://app?vid=c64ce81c-efb7-4e4f-a72e-062617e35471","ios":"levelo://app?vid=c64ce81c-efb7-4e4f-a72e-062617e35471"},"vehicle_type_id":"4","last_reported":1726567782,"current_range_meters":19200,"station_id":"","pricing_plan_id":"cebpf4jnsgd1na2vs0mg"},{"bike_id":"b01f7f0e-9e5f-4a30-a5cc-cb2410536525","system_id":"levelo_inurba_marseille","lat":43.24666,"lon":5.38154,"is_reserved":false,"is_disabled":false,"rental_uris":{"android":"levelo://app?vid=b01f7f0e-9e5f-4a30-a5cc-cb2410536525","ios":"levelo://app?vid=b01f7f0e-9e5f-4a30-a5cc-cb2410536525"},"vehicle_type_id":"4","last_reported":1726567782,"current_range_meters":32800,"station_id":"ce4bhih2rcd13ifvqfr0","pricing_plan_id":"cebpf4jnsgd1na2vs0mg"},{"bike_id":"f409a27c-3291-4d9b-ac57-9e74e75d80d1","system_id":"levelo_inurba_marseille","lat":43.32365,"lon":5.38892,"is_reserved":false,"is_disabled":false,"rental_uris":{"android":"levelo://app?vid=f409a27c-3291-4d9b-ac57-9e74e75d80d1","ios":"levelo://app?vid=f409a27c-3291-4d9b-ac57-9e74e75d80d1"},"vehicle_type_id":"4","last_reported":1726567782,"current_range_meters":15200,"station_id":"ce4bhqp2rcd13ifvqhog","pricing_plan_id":"cebpf4jnsgd1na2vs0mg"},{"bike_id":"56e6b080-c2bc-4b18-bb88-714f0e1a6c6f","system_id":"levelo_inurba_marseille","lat":43.29913,"lon":5.37476,"is_reserved":false,"is_disabled":false,"rental_uris":{"android":"levelo://app?vid=56e6b080-c2bc-4b18-bb88-714f0e1a6c6f","ios":"levelo://app?vid=56e6b080-c2bc-4b18-bb88-714f0e1a6c6f"},"vehicle_type_id":"4","last_reported":1726567782,"current_range_meters":39200,"station_id":"ce4bgjh2rcd13ifvqbg0","pricing_plan_id":"cebpf4jnsgd1na2vs0mg"},{"bike_id":"b49672c8-10d8-4a5b-98b6-06e99d47cba4","system_id":"levelo_inurba_marseille","lat":43.30062,"lon":5.38663,"is_reserved":false,"is_disabled":false,"rental_uris":{"android":"levelo://app?vid=b49672c8-10d8-4a5b-98b6-06e99d47cba4","ios":"levelo://app?vid=b49672c8-10d8-4a5b-98b6-06e99d47cba4"},"vehicle_type_id":"4","last_reported":1726567782,"current_range_meters":36400,"station_id":"","pricing_plan_id":"cebpf4jnsgd1na2vs0mg"},{"bike_id":"e2411f7b-eeb7-4469-921e-195ed607de33","system_id":"levelo_inurba_marseille","lat":43.30553,"lon":5.36544,"is_reserved":false,"is_disabled":false,"rental_uris":{"android":"levelo://app?vid=e2411f7b-eeb7-4469-921e-195ed607de33","ios":"levelo://app?vid=e2411f7b-eeb7-4469-921e-195ed607de33"},"vehicle_type_id":"4","last_reported":1726567782,"current_range_meters":33600,"station_id":"ce4bgs12rcd13ifvqcag","pricing_plan_id":"cebpf4jnsgd1na2vs0mg"},{"bike_id":"4232e9d2-5cc7-4941-99f6-12282f5a71a2","system_id":"levelo_inurba_marseille","lat":43.27494,"lon":5.42462,"is_reserved":false,"is_disabled":false,"rental_uris":{"android":"levelo://app?vid=4232e9d2-5cc7-4941-99f6-12282f5a71a2","ios":"levelo://app?vid=4232e9d2-5cc7-4941-99f6-12282f5a71a2"},"vehicle_type_id":"4","last_reported":1726567782,"current_range_meters":27600,"station_id":"ce4bhn92rcd13ifvqgrg","pricing_plan_id":"cebpf4jnsgd1na2vs0mg"},{"bike_id":"30ce5f9d-e14d-4ee7-b9f8-22f7215e3c5f","system_id":"levelo_inurba_marseille","lat":43.23152,"lon":5.43723,"is_reserved":false,"is_disabled":false,"rental_uris":{"android":"levelo://app?vid=30ce5f9d-e14d-4ee7-b9f8-22f7215e3c5f","ios":"levelo://app?vid=30ce5f9d-e14d-4ee7-b9f8-22f7215e3c5f"},"vehicle_type_id":"4","last_reported":1726567782,"current_range_meters":23200,"station_id":"ce4bhmp2rcd13ifvqgog","pricing_plan_id":"cebpf4jnsgd1na2vs0mg"},{"bike_id":"cd1d4c55-2cbb-4b85-a1be-a7235ca53de6","system_id":"levelo_inurba_marseille","lat":43.32483,"lon":5.3657,"is_reserved":false,"is_disabled":false,"rental_uris":{"android":"levelo://app?vid=cd1d4c55-2cbb-4b85-a1be-a7235ca53de6","ios":"levelo://app?vid=cd1d4c55-2cbb-4b85-a1be-a7235ca53de6"},"vehicle_type_id":"4","last_reported":1726567782,"current_range_meters":24800,"station_id":"ce4bhs12rcd13ifvqhvg","pricing_plan_id":"cebpf4jnsgd1na2vs0mg"},{"bike_id":"c7f93bf2-2b30-4c5c-aa72-447b3f4a28ea","system_id":"levelo_inurba_marseille","lat":43.29896,"lon":5.43664,"is_reserved":false,"is_disabled":false,"rental_uris":{"android":"levelo://app?vid=c7f93bf2-2b30-4c5c-aa72-447b3f4a28ea","ios":"levelo://app?vid=c7f93bf2-2b30-4c5c-aa72-447b3f4a28ea"},"vehicle_type_id":"4","last_reported":1726567782,"current_range_meters":9200,"station_id":"ce4bhpp2rcd13ifvqhfg","pricing_plan_id":"cebpf4jnsgd1na2vs0mg"},{"bike_id":"3f3e4cf2-31cf-46cd-9408-2befa544f944","system_id":"levelo_inurba_marseille","lat":43.29359,"lon":5.37847,"is_reserved":false,"is_disabled":false,"rental_uris":{"android":"levelo://app?vid=3f3e4cf2-31cf-46cd-9408-2befa544f944","ios":"levelo://app?vid=3f3e4cf2-31cf-46cd-9408-2befa544f944"},"vehicle_type_id":"4","last_reported":1726567782,"current_range_meters":28400,"station_id":"ce4bgjh2rcd13ifvqbf0","pricing_plan_id":"cebpf4jnsgd1na2vs0mg"},{"bike_id":"22a588b1-cfec-4a63-9499-3cf933091fed","system_id":"levelo_inurba_marseille","lat":43.30546,"lon":5.3671,"is_reserved":false,"is_disabled":false,"rental_uris":{"android":"levelo://app?vid=22a588b1-cfec-4a63-9499-3cf933091fed","ios":"levelo://app?vid=22a588b1-cfec-4a63-9499-3cf933091fed"},"vehicle_type_id":"4","last_reported":1726567782,"current_range_meters":39200,"station_id":"ce4bgrp2rcd13ifvqc9g","pricing_plan_id":"cebpf4jnsgd1na2vs0mg"},{"bike_id":"853de9f7-a6d2-470f-96cd-b0e4ac7971cb","system_id":"levelo_inurba_marseille","lat":43.31359,"lon":5.38489,"is_reserved":false,"is_disabled":false,"rental_uris":{"android":"levelo://app?vid=853de9f7-a6d2-470f-96cd-b0e4ac7971cb","ios":"levelo://app?vid=853de9f7-a6d2-470f-96cd-b0e4ac7971cb"},"vehicle_type_id":"4","last_reported":1726567782,"current_range_meters":12000,"station_id":"ce4bgt92rcd13ifvqcf0","pricing_plan_id":"cebpf4jnsgd1na2vs0mg"},{"bike_id":"128ec406-53f9-4071-b496-4e5020ff87f3","system_id":"levelo_inurba_marseille","lat":43.25935,"lon":5.40911,"is_reserved":false,"is_disabled":false,"rental_uris":{"android":"levelo://app?vid=128ec406-53f9-4071-b496-4e5020ff87f3","ios":"levelo://app?vid=128ec406-53f9-4071-b496-4e5020ff87f3"},"vehicle_type_id":"4","last_reported":1726567782,"current_range_meters":9200,"station_id":"ce4bhm92rcd13ifvqglg","pricing_plan_id":"cebpf4jnsgd1na2vs0mg"},{"bike_id":"9aa1a99f-a63b-480e-955f-bb461fb4380e","system_id":"levelo_inurba_marseille","lat":43.25937,"lon":5.40912,"is_reserved":false,"is_disabled":false,"rental_uris":{"android":"levelo://app?vid=9aa1a99f-a63b-480e-955f-bb461fb4380e","ios":"levelo://app?vid=9aa1a99f-a63b-480e-955f-bb461fb4380e"},"vehicle_type_id":"4","last_reported":1726567782,"current_range_meters":12400,"station_id":"ce4bhm92rcd13ifvqglg","pricing_plan_id":"cebpf4jnsgd1na2vs0mg"},{"bike_id":"53313a0f-0ff9-4a1a-bc65-ab4aa9b534f5","system_id":"levelo_inurba_marseille","lat":43.25929,"lon":5.40907,"is_reserved":false,"is_disabled":false,"rental_uris":{"android":"levelo://app?vid=53313a0f-0ff9-4a1a-bc65-ab4aa9b534f5","ios":"levelo://app?vid=53313a0f-0ff9-4a1a-bc65-ab4aa9b534f5"},"vehicle_type_id":"4","last_reported":1726567782,"current_range_meters":24800,"station_id":"ce4bhm92rcd13ifvqglg","pricing_plan_id":"cebpf4jnsgd1na2vs0mg"},{"bike_id":"e6e348ac-5fd1-4dc2-8897-e797d2b67797","system_id":"levelo_inurba_marseille","lat":43.29516,"lon":5.37506,"is_reserved":false,"is_disabled":false,"rental_uris":{"android":"levelo://app?vid=e6e348ac-5fd1-4dc2-8897-e797d2b67797","ios":"levelo://app?vid=e6e348ac-5fd1-4dc2-8897-e797d2b67797"},"vehicle_type_id":"4","last_reported":1726567782,"current_range_meters":30000,"station_id":"ce4bgkp2rcd13ifvqbmg","pricing_plan_id":"cebpf4jnsgd1na2vs0mg"},{"bike_id":"f17d9004-0826-4528-837c-473445834739","system_id":"levelo_inurba_marseille","lat":43.27812,"lon":5.40708,"is_reserved":false,"is_disabled":false,"rental_uris":{"android":"levelo://app?vid=f17d9004-0826-4528-837c-473445834739","ios":"levelo://app?vid=f17d9004-0826-4528-837c-473445834739"},"vehicle_type_id":"4","last_reported":1726567782,"current_range_meters":12800,"station_id":"ce4bhnh2rcd13ifvqgtg","pricing_plan_id":"cebpf4jnsgd1na2vs0mg"},{"bike_id":"3fc1e5ab-3ac7-40e1-b247-3d0c2928ea75","system_id":"levelo_inurba_marseille","lat":43.28699,"lon":5.39998,"is_reserved":false,"is_disabled":false,"rental_uris":{"android":"levelo://app?vid=3fc1e5ab-3ac7-40e1-b247-3d0c2928ea75","ios":"levelo://app?vid=3fc1e5ab-3ac7-40e1-b247-3d0c2928ea75"},"vehicle_type_id":"4","last_reported":1726567782,"current_range_meters":11200,"station_id":"ce4bho92rcd13ifvqh3g","pricing_plan_id":"cebpf4jnsgd1na2vs0mg"},{"bike_id":"520eac66-b4e4-4443-93aa-c781e05cefcc","system_id":"levelo_inurba_marseille","lat":43.272,"lon":5.39191,"is_reserved":false,"is_disabled":false,"rental_uris":{"android":"levelo://app?vid=520eac66-b4e4-4443-93aa-c781e05cefcc","ios":"levelo://app?vid=520eac66-b4e4-4443-93aa-c781e05cefcc"},"vehicle_type_id":"4","last_reported":1726567782,"current_range_meters":32800,"station_id":"ce4bhhp2rcd13ifvqfm0","pricing_plan_id":"cebpf4jnsgd1na2vs0mg"},{"bike_id":"fdb2b13a-11cd-42ca-8a52-92bcabd171a0","system_id":"levelo_inurba_marseille","lat":43.30459,"lon":5.37902,"is_reserved":false,"is_disabled":false,"rental_uris":{"android":"levelo://app?vid=fdb2b13a-11cd-42ca-8a52-92bcabd171a0","ios":"levelo://app?vid=fdb2b13a-11cd-42ca-8a52-92bcabd171a0"},"vehicle_type_id":"4","last_reported":1726567782,"current_range_meters":39200,"station_id":"ce4bgup2rcd13ifvqcn0","pricing_plan_id":"cebpf4jnsgd1na2vs0mg"},{"bike_id":"d6eebb13-4e24-484b-9f23-c1bdef9ca7ff","system_id":"levelo_inurba_marseille","lat":43.28614,"lon":5.35109,"is_reserved":false,"is_disabled":false,"rental_uris":{"android":"levelo://app?vid=d6eebb13-4e24-484b-9f23-c1bdef9ca7ff","ios":"levelo://app?vid=d6eebb13-4e24-484b-9f23-c1bdef9ca7ff"},"vehicle_type_id":"4","last_reported":1726567782,"current_range_meters":24000,"station_id":"ce4bhch2rcd13ifvqeug","pricing_plan_id":"cebpf4jnsgd1na2vs0mg"},{"bike_id":"fff088d6-5bf0-4957-8149-65e833cfcc42","system_id":"levelo_inurba_marseille","lat":43.31273,"lon":5.40168,"is_reserved":false,"is_disabled":false,"rental_uris":{"android":"levelo://app?vid=fff088d6-5bf0-4957-8149-65e833cfcc42","ios":"levelo://app?vid=fff088d6-5bf0-4957-8149-65e833cfcc42"},"vehicle_type_id":"4","last_reported":1726567782,"current_range_meters":37600,"station_id":"ce4bh092rcd13ifvqd30","pricing_plan_id":"cebpf4jnsgd1na2vs0mg"},{"bike_id":"51959f30-7b38-47b6-a61e-6b688ea21bee","system_id":"levelo_inurba_marseille","lat":43.29268,"lon":5.36846,"is_reserved":false,"is_disabled":false,"rental_uris":{"android":"levelo://app?vid=51959f30-7b38-47b6-a61e-6b688ea21bee","ios":"levelo://app?vid=51959f30-7b38-47b6-a61e-6b688ea21bee"},"vehicle_type_id":"4","last_reported":1726567782,"current_range_meters":24400,"station_id":"ce4bhbp2rcd13ifvqesg","pricing_plan_id":"cebpf4jnsgd1na2vs0mg"},{"bike_id":"8cb592d9-f82f-4171-894f-8d7ffa6525e5","system_id":"levelo_inurba_marseille","lat":43.23186,"lon":5.35555,"is_reserved":false,"is_disabled":false,"rental_uris":{"android":"levelo://app?vid=8cb592d9-f82f-4171-894f-8d7ffa6525e5","ios":"levelo://app?vid=8cb592d9-f82f-4171-894f-8d7ffa6525e5"},"vehicle_type_id":"4","last_reported":1726567782,"current_range_meters":20000,"station_id":"ce4bhu92rcd13ifvqi70","pricing_plan_id":"cebpf4jnsgd1na2vs0mg"},{"bike_id":"e3a9032f-fb7b-4836-b360-07bb6414514f","system_id":"levelo_inurba_marseille","lat":43.29527,"lon":5.37513,"is_reserved":false,"is_disabled":false,"rental_uris":{"android":"levelo://app?vid=e3a9032f-fb7b-4836-b360-07bb6414514f","ios":"levelo://app?vid=e3a9032f-fb7b-4836-b360-07bb6414514f"},"vehicle_type_id":"4","last_reported":1726567782,"current_range_meters":6400,"station_id":"ce4bgkp2rcd13ifvqbmg","pricing_plan_id":"cebpf4jnsgd1na2vs0mg"},{"bike_id":"285e7841-204a-4b8e-8658-4da9bd95684e","system_id":"levelo_inurba_marseille","lat":43.32482,"lon":5.36568,"is_reserved":false,"is_disabled":false,"rental_uris":{"android":"levelo://app?vid=285e7841-204a-4b8e-8658-4da9bd95684e","ios":"levelo://app?vid=285e7841-204a-4b8e-8658-4da9bd95684e"},"vehicle_type_id":"4","last_reported":1726567782,"current_range_meters":27200,"station_id":"ce4bhs12rcd13ifvqhvg","pricing_plan_id":"cebpf4jnsgd1na2vs0mg"},{"bike_id":"20a4a91d-8541-4958-9b2e-4e75165c8a2a","system_id":"levelo_inurba_marseille","lat":43.30799,"lon":5.43518,"is_reserved":false,"is_disabled":false,"rental_uris":{"android":"levelo://app?vid=20a4a91d-8541-4958-9b2e-4e75165c8a2a","ios":"levelo://app?vid=20a4a91d-8541-4958-9b2e-4e75165c8a2a"},"vehicle_type_id":"4","last_reported":1726567782,"current_range_meters":15200,"station_id":"ce4bhph2rcd13ifvqheg","pricing_plan_id":"cebpf4jnsgd1na2vs0mg"},{"bike_id":"540340dc-54db-4e2c-80a3-46d2015bd618","system_id":"levelo_inurba_marseille","lat":43.29532,"lon":5.3854,"is_reserved":false,"is_disabled":false,"rental_uris":{"android":"levelo://app?vid=540340dc-54db-4e2c-80a3-46d2015bd618","ios":"levelo://app?vid=540340dc-54db-4e2c-80a3-46d2015bd618"},"vehicle_type_id":"4","last_reported":1726567782,"current_range_meters":34000,"station_id":"ce4bgih2rcd13ifvqba0","pricing_plan_id":"cebpf4jnsgd1na2vs0mg"},{"bike_id":"98423397-6ca8-42e5-a37f-8c0a10ec54bc","system_id":"levelo_inurba_marseille","lat":43.30425,"lon":5.3888,"is_reserved":false,"is_disabled":false,"rental_uris":{"android":"levelo://app?vid=98423397-6ca8-42e5-a37f-8c0a10ec54bc","ios":"levelo://app?vid=98423397-6ca8-42e5-a37f-8c0a10ec54bc"},"vehicle_type_id":"4","last_reported":1726567782,"current_range_meters":32400,"station_id":"ce4bgk12rcd13ifvqbi0","pricing_plan_id":"cebpf4jnsgd1na2vs0mg"},{"bike_id":"c3bcca86-6294-4639-9d07-9722d40f464e","system_id":"levelo_inurba_marseille","lat":43.29901,"lon":5.43669,"is_reserved":false,"is_disabled":false,"rental_uris":{"android":"levelo://app?vid=c3bcca86-6294-4639-9d07-9722d40f464e","ios":"levelo://app?vid=c3bcca86-6294-4639-9d07-9722d40f464e"},"vehicle_type_id":"4","last_reported":1726567782,"current_range_meters":36400,"station_id":"ce4bhpp2rcd13ifvqhfg","pricing_plan_id":"cebpf4jnsgd1na2vs0mg"},{"bike_id":"b8575011-8302-48a4-8af4-a59ce79d4a2f","system_id":"levelo_inurba_marseille","lat":43.3108,"lon":5.42436,"is_reserved":false,"is_disabled":false,"rental_uris":{"android":"levelo://app?vid=b8575011-8302-48a4-8af4-a59ce79d4a2f","ios":"levelo://app?vid=b8575011-8302-48a4-8af4-a59ce79d4a2f"},"vehicle_type_id":"4","last_reported":1726567782,"current_range_meters":32000,"station_id":"ce4bhp92rcd13ifvqhag","pricing_plan_id":"cebpf4jnsgd1na2vs0mg"},{"bike_id":"d28d3363-fdfb-4e28-8d05-0c2b2facfdcc","system_id":"levelo_inurba_marseille","lat":43.30435,"lon":5.38888,"is_reserved":false,"is_disabled":false,"rental_uris":{"android":"levelo://app?vid=d28d3363-fdfb-4e28-8d05-0c2b2facfdcc","ios":"levelo://app?vid=d28d3363-fdfb-4e28-8d05-0c2b2facfdcc"},"vehicle_type_id":"4","last_reported":1726567782,"current_range_meters":38800,"station_id":"ce4bgk12rcd13ifvqbi0","pricing_plan_id":"cebpf4jnsgd1na2vs0mg"},{"bike_id":"8a14e327-f1ba-4fa7-932f-68c0a0975b98","system_id":"levelo_inurba_marseille","lat":43.33615,"lon":5.4103,"is_reserved":false,"is_disabled":false,"rental_uris":{"android":"levelo://app?vid=8a14e327-f1ba-4fa7-932f-68c0a0975b98","ios":"levelo://app?vid=8a14e327-f1ba-4fa7-932f-68c0a0975b98"},"vehicle_type_id":"4","last_reported":1726567782,"current_range_meters":38800,"station_id":"ce4bhqh2rcd13ifvqhmg","pricing_plan_id":"cebpf4jnsgd1na2vs0mg"},{"bike_id":"947e8763-2c0b-456d-8eb4-e149edd0b197","system_id":"levelo_inurba_marseille","lat":43.25495,"lon":5.37645,"is_reserved":false,"is_disabled":false,"rental_uris":{"android":"levelo://app?vid=947e8763-2c0b-456d-8eb4-e149edd0b197","ios":"levelo://app?vid=947e8763-2c0b-456d-8eb4-e149edd0b197"},"vehicle_type_id":"4","last_reported":1726567782,"current_range_meters":15200,"station_id":"ce4bhh12rcd13ifvqff0","pricing_plan_id":"cebpf4jnsgd1na2vs0mg"},{"bike_id":"c38cc822-8a7c-4c1b-af0a-acaa151e2dad","system_id":"levelo_inurba_marseille","lat":43.33724,"lon":5.3918,"is_reserved":false,"is_disabled":false,"rental_uris":{"android":"levelo://app?vid=c38cc822-8a7c-4c1b-af0a-acaa151e2dad","ios":"levelo://app?vid=c38cc822-8a7c-4c1b-af0a-acaa151e2dad"},"vehicle_type_id":"4","last_reported":1726567782,"current_range_meters":38800,"station_id":"ce4bhr92rcd13ifvqhsg","pricing_plan_id":"cebpf4jnsgd1na2vs0mg"},{"bike_id":"b1db6496-7d7b-4acc-a88c-e5406d38e100","system_id":"levelo_inurba_marseille","lat":43.23194,"lon":5.35557,"is_reserved":false,"is_disabled":false,"rental_uris":{"android":"levelo://app?vid=b1db6496-7d7b-4acc-a88c-e5406d38e100","ios":"levelo://app?vid=b1db6496-7d7b-4acc-a88c-e5406d38e100"},"vehicle_type_id":"4","last_reported":1726567782,"current_range_meters":27600,"station_id":"ce4bhu92rcd13ifvqi70","pricing_plan_id":"cebpf4jnsgd1na2vs0mg"},{"bike_id":"f6f0e2c8-673d-48b4-abc3-e59aaeafdfd6","system_id":"levelo_inurba_marseille","lat":43.27492,"lon":5.42459,"is_reserved":false,"is_disabled":false,"rental_uris":{"android":"levelo://app?vid=f6f0e2c8-673d-48b4-abc3-e59aaeafdfd6","ios":"levelo://app?vid=f6f0e2c8-673d-48b4-abc3-e59aaeafdfd6"},"vehicle_type_id":"4","last_reported":1726567782,"current_range_meters":28400,"station_id":"ce4bhn92rcd13ifvqgrg","pricing_plan_id":"cebpf4jnsgd1na2vs0mg"},{"bike_id":"c69cdd71-b25b-4600-bcd7-4a8738c494ae","system_id":"levelo_inurba_marseille","lat":43.30192,"lon":5.36621,"is_reserved":false,"is_disabled":false,"rental_uris":{"android":"levelo://app?vid=c69cdd71-b25b-4600-bcd7-4a8738c494ae","ios":"levelo://app?vid=c69cdd71-b25b-4600-bcd7-4a8738c494ae"},"vehicle_type_id":"4","last_reported":1726567782,"current_range_meters":38800,"station_id":"ce4bgrh2rcd13ifvqc8g","pricing_plan_id":"cebpf4jnsgd1na2vs0mg"},{"bike_id":"733e4865-3357-4a1f-819b-4a724885d4e3","system_id":"levelo_inurba_marseille","lat":43.26924,"lon":5.38638,"is_reserved":false,"is_disabled":false,"rental_uris":{"android":"levelo://app?vid=733e4865-3357-4a1f-819b-4a724885d4e3","ios":"levelo://app?vid=733e4865-3357-4a1f-819b-4a724885d4e3"},"vehicle_type_id":"4","last_reported":1726567782,"current_range_meters":32800,"station_id":"ce4bhh92rcd13ifvqfh0","pricing_plan_id":"cebpf4jnsgd1na2vs0mg"},{"bike_id":"5cf4c2f1-f092-4550-b8cf-369099ebc3bc","system_id":"levelo_inurba_marseille","lat":43.24564,"lon":5.41556,"is_reserved":false,"is_disabled":false,"rental_uris":{"android":"levelo://app?vid=5cf4c2f1-f092-4550-b8cf-369099ebc3bc","ios":"levelo://app?vid=5cf4c2f1-f092-4550-b8cf-369099ebc3bc"},"vehicle_type_id":"4","last_reported":1726567782,"current_range_meters":2800,"station_id":"ce4bhlh2rcd13ifvqgig","pricing_plan_id":"cebpf4jnsgd1na2vs0mg"},{"bike_id":"46617874-6777-4620-8f96-2d9ffa2549bc","system_id":"levelo_inurba_marseille","lat":43.27484,"lon":5.42467,"is_reserved":false,"is_disabled":false,"rental_uris":{"android":"levelo://app?vid=46617874-6777-4620-8f96-2d9ffa2549bc","ios":"levelo://app?vid=46617874-6777-4620-8f96-2d9ffa2549bc"},"vehicle_type_id":"4","last_reported":1726567782,"current_range_meters":3200,"station_id":"ce4bhn92rcd13ifvqgrg","pricing_plan_id":"cebpf4jnsgd1na2vs0mg"},{"bike_id":"cc3b8af5-922b-47a4-9520-14c9cfb481c6","system_id":"levelo_inurba_marseille","lat":43.27495,"lon":5.4245,"is_reserved":false,"is_disabled":false,"rental_uris":{"android":"levelo://app?vid=cc3b8af5-922b-47a4-9520-14c9cfb481c6","ios":"levelo://app?vid=cc3b8af5-922b-47a4-9520-14c9cfb481c6"},"vehicle_type_id":"4","last_reported":1726567782,"current_range_meters":8800,"station_id":"ce4bhn92rcd13ifvqgrg","pricing_plan_id":"cebpf4jnsgd1na2vs0mg"},{"bike_id":"3b681a69-ea2d-4b25-80f1-b35c7e2f3ed7","system_id":"levelo_inurba_marseille","lat":43.26938,"lon":5.38922,"is_reserved":false,"is_disabled":false,"rental_uris":{"android":"levelo://app?vid=3b681a69-ea2d-4b25-80f1-b35c7e2f3ed7","ios":"levelo://app?vid=3b681a69-ea2d-4b25-80f1-b35c7e2f3ed7"},"vehicle_type_id":"4","last_reported":1726567782,"current_range_meters":20000,"station_id":"ce4bhhh2rcd13ifvqfl0","pricing_plan_id":"cebpf4jnsgd1na2vs0mg"},{"bike_id":"ee42ec50-f048-4e2d-92af-8806b4bde04b","system_id":"levelo_inurba_marseille","lat":43.279785,"lon":5.387443,"is_reserved":false,"is_disabled":false,"rental_uris":{"android":"levelo://app?vid=ee42ec50-f048-4e2d-92af-8806b4bde04b","ios":"levelo://app?vid=ee42ec50-f048-4e2d-92af-8806b4bde04b"},"vehicle_type_id":"4","last_reported":1726567782,"current_range_meters":38400,"station_id":"ce4bhg12rcd13ifvqf80","pricing_plan_id":"cebpf4jnsgd1na2vs0mg"},{"bike_id":"b70c60e6-4481-428d-9a63-dd18edf4cccd","system_id":"levelo_inurba_marseille","lat":43.25813,"lon":5.39433,"is_reserved":false,"is_disabled":false,"rental_uris":{"android":"levelo://app?vid=b70c60e6-4481-428d-9a63-dd18edf4cccd","ios":"levelo://app?vid=b70c60e6-4481-428d-9a63-dd18edf4cccd"},"vehicle_type_id":"4","last_reported":1726567782,"current_range_meters":4000,"station_id":"ce4bhip2rcd13ifvqft0","pricing_plan_id":"cebpf4jnsgd1na2vs0mg"},{"bike_id":"b645ac77-0d58-4fa9-8ad3-947af8bdb1d9","system_id":"levelo_inurba_marseille","lat":43.29897,"lon":5.43669,"is_reserved":false,"is_disabled":false,"rental_uris":{"android":"levelo://app?vid=b645ac77-0d58-4fa9-8ad3-947af8bdb1d9","ios":"levelo://app?vid=b645ac77-0d58-4fa9-8ad3-947af8bdb1d9"},"vehicle_type_id":"4","last_reported":1726567782,"current_range_meters":25200,"station_id":"ce4bhpp2rcd13ifvqhfg","pricing_plan_id":"cebpf4jnsgd1na2vs0mg"},{"bike_id":"dfd2b010-d2fb-4362-b034-681d537287af","system_id":"levelo_inurba_marseille","lat":43.24994,"lon":5.38936,"is_reserved":false,"is_disabled":false,"rental_uris":{"android":"levelo://app?vid=dfd2b010-d2fb-4362-b034-681d537287af","ios":"levelo://app?vid=dfd2b010-d2fb-4362-b034-681d537287af"},"vehicle_type_id":"4","last_reported":1726567782,"current_range_meters":36400,"station_id":"ce4bhgp2rcd13ifvqfd0","pricing_plan_id":"cebpf4jnsgd1na2vs0mg"},{"bike_id":"40ae4ba6-e4b2-425a-9345-02ecf86ccb52","system_id":"levelo_inurba_marseille","lat":43.337444,"lon":5.374475,"is_reserved":false,"is_disabled":false,"rental_uris":{"android":"levelo://app?vid=40ae4ba6-e4b2-425a-9345-02ecf86ccb52","ios":"levelo://app?vid=40ae4ba6-e4b2-425a-9345-02ecf86ccb52"},"vehicle_type_id":"4","last_reported":1726567782,"current_range_meters":35200,"station_id":"ce4bhbh2rcd13ifvqepg","pricing_plan_id":"cebpf4jnsgd1na2vs0mg"},{"bike_id":"7da75b31-fd18-489b-8479-2c728fb5aeb6","system_id":"levelo_inurba_marseille","lat":43.34142,"lon":5.40902,"is_reserved":false,"is_disabled":false,"rental_uris":{"android":"levelo://app?vid=7da75b31-fd18-489b-8479-2c728fb5aeb6","ios":"levelo://app?vid=7da75b31-fd18-489b-8479-2c728fb5aeb6"},"vehicle_type_id":"4","last_reported":1726567782,"current_range_meters":16400,"station_id":"ce4bhqh2rcd13ifvqhlg","pricing_plan_id":"cebpf4jnsgd1na2vs0mg"},{"bike_id":"d07510fb-c4f4-4c85-81e3-a462d20e3255","system_id":"levelo_inurba_marseille","lat":43.23152,"lon":5.43712,"is_reserved":false,"is_disabled":false,"rental_uris":{"android":"levelo://app?vid=d07510fb-c4f4-4c85-81e3-a462d20e3255","ios":"levelo://app?vid=d07510fb-c4f4-4c85-81e3-a462d20e3255"},"vehicle_type_id":"4","last_reported":1726567782,"current_range_meters":30000,"station_id":"ce4bhmp2rcd13ifvqgog","pricing_plan_id":"cebpf4jnsgd1na2vs0mg"},{"bike_id":"408c5749-702c-43ea-9058-5bebe1ea2111","system_id":"levelo_inurba_marseille","lat":43.27485,"lon":5.42472,"is_reserved":false,"is_disabled":false,"rental_uris":{"android":"levelo://app?vid=408c5749-702c-43ea-9058-5bebe1ea2111","ios":"levelo://app?vid=408c5749-702c-43ea-9058-5bebe1ea2111"},"vehicle_type_id":"4","last_reported":1726567782,"current_range_meters":16000,"station_id":"ce4bhn92rcd13ifvqgrg","pricing_plan_id":"cebpf4jnsgd1na2vs0mg"},{"bike_id":"677498c9-746b-4650-9a8e-2c7479635944","system_id":"levelo_inurba_marseille","lat":43.33026,"lon":5.39046,"is_reserved":false,"is_disabled":false,"rental_uris":{"android":"levelo://app?vid=677498c9-746b-4650-9a8e-2c7479635944","ios":"levelo://app?vid=677498c9-746b-4650-9a8e-2c7479635944"},"vehicle_type_id":"4","last_reported":1726567782,"current_range_meters":22800,"station_id":"ce4bhr92rcd13ifvqhrg","pricing_plan_id":"cebpf4jnsgd1na2vs0mg"},{"bike_id":"8ad1dd61-51a6-4b68-afa7-87ebac0fe573","system_id":"levelo_inurba_marseille","lat":43.30463,"lon":5.37896,"is_reserved":false,"is_disabled":false,"rental_uris":{"android":"levelo://app?vid=8ad1dd61-51a6-4b68-afa7-87ebac0fe573","ios":"levelo://app?vid=8ad1dd61-51a6-4b68-afa7-87ebac0fe573"},"vehicle_type_id":"4","last_reported":1726567782,"current_range_meters":25600,"station_id":"ce4bgup2rcd13ifvqcn0","pricing_plan_id":"cebpf4jnsgd1na2vs0mg"},{"bike_id":"5877f5a1-01b6-4e2c-98eb-dcefb31f7801","system_id":"levelo_inurba_marseille","lat":43.2955,"lon":5.39993,"is_reserved":false,"is_disabled":false,"rental_uris":{"android":"levelo://app?vid=5877f5a1-01b6-4e2c-98eb-dcefb31f7801","ios":"levelo://app?vid=5877f5a1-01b6-4e2c-98eb-dcefb31f7801"},"vehicle_type_id":"4","last_reported":1726567782,"current_range_meters":16000,"station_id":"","pricing_plan_id":"cebpf4jnsgd1na2vs0mg"},{"bike_id":"cfdd7f2b-7cdc-462c-b938-3a6fa0739934","system_id":"levelo_inurba_marseille","lat":43.296157,"lon":5.371674,"is_reserved":false,"is_disabled":false,"rental_uris":{"android":"levelo://app?vid=cfdd7f2b-7cdc-462c-b938-3a6fa0739934","ios":"levelo://app?vid=cfdd7f2b-7cdc-462c-b938-3a6fa0739934"},"vehicle_type_id":"4","last_reported":1726567782,"current_range_meters":32400,"station_id":"ce4bgnh2rcd13ifvqc0g","pricing_plan_id":"cebpf4jnsgd1na2vs0mg"},{"bike_id":"7ba5a0d3-87f5-4dbc-8dc8-0d67d795da41","system_id":"levelo_inurba_marseille","lat":43.30908,"lon":5.36859,"is_reserved":false,"is_disabled":false,"rental_uris":{"android":"levelo://app?vid=7ba5a0d3-87f5-4dbc-8dc8-0d67d795da41","ios":"levelo://app?vid=7ba5a0d3-87f5-4dbc-8dc8-0d67d795da41"},"vehicle_type_id":"4","last_reported":1726567782,"current_range_meters":39200,"station_id":"ce4bgn92rcd13ifvqbvg","pricing_plan_id":"cebpf4jnsgd1na2vs0mg"},{"bike_id":"6260c9e2-2847-46c5-8035-546628157dac","system_id":"levelo_inurba_marseille","lat":43.29522,"lon":5.37502,"is_reserved":false,"is_disabled":false,"rental_uris":{"android":"levelo://app?vid=6260c9e2-2847-46c5-8035-546628157dac","ios":"levelo://app?vid=6260c9e2-2847-46c5-8035-546628157dac"},"vehicle_type_id":"4","last_reported":1726567782,"current_range_meters":20000,"station_id":"ce4bgkp2rcd13ifvqbmg","pricing_plan_id":"cebpf4jnsgd1na2vs0mg"},{"bike_id":"8f7fc6a7-4fbd-41bd-9def-6cfc44bc5fc4","system_id":"levelo_inurba_marseille","lat":43.24998,"lon":5.38929,"is_reserved":false,"is_disabled":false,"rental_uris":{"android":"levelo://app?vid=8f7fc6a7-4fbd-41bd-9def-6cfc44bc5fc4","ios":"levelo://app?vid=8f7fc6a7-4fbd-41bd-9def-6cfc44bc5fc4"},"vehicle_type_id":"4","last_reported":1726567782,"current_range_meters":19600,"station_id":"ce4bhgp2rcd13ifvqfd0","pricing_plan_id":"cebpf4jnsgd1na2vs0mg"},{"bike_id":"bdab53d1-6c0d-4e22-ae92-62ac99d9be2f","system_id":"levelo_inurba_marseille","lat":43.31223,"lon":5.36858,"is_reserved":false,"is_disabled":false,"rental_uris":{"android":"levelo://app?vid=bdab53d1-6c0d-4e22-ae92-62ac99d9be2f","ios":"levelo://app?vid=bdab53d1-6c0d-4e22-ae92-62ac99d9be2f"},"vehicle_type_id":"4","last_reported":1726567782,"current_range_meters":30800,"station_id":"ce4bgl92rcd13ifvqbq0","pricing_plan_id":"cebpf4jnsgd1na2vs0mg"},{"bike_id":"4e220293-bbb6-489e-aebe-999ef5d2a6b1","system_id":"levelo_inurba_marseille","lat":43.28414,"lon":5.34989,"is_reserved":false,"is_disabled":false,"rental_uris":{"android":"levelo://app?vid=4e220293-bbb6-489e-aebe-999ef5d2a6b1","ios":"levelo://app?vid=4e220293-bbb6-489e-aebe-999ef5d2a6b1"},"vehicle_type_id":"4","last_reported":1726567782,"current_range_meters":36000,"station_id":"ce4bhbh2rcd13ifvqepg","pricing_plan_id":"cebpf4jnsgd1na2vs0mg"},{"bike_id":"1b4b0920-5098-492d-8f45-9d74a5f1adcd","system_id":"levelo_inurba_marseille","lat":43.25442,"lon":5.40143,"is_reserved":false,"is_disabled":false,"rental_uris":{"android":"levelo://app?vid=1b4b0920-5098-492d-8f45-9d74a5f1adcd","ios":"levelo://app?vid=1b4b0920-5098-492d-8f45-9d74a5f1adcd"},"vehicle_type_id":"4","last_reported":1726567782,"current_range_meters":38800,"station_id":"","pricing_plan_id":"cebpf4jnsgd1na2vs0mg"},{"bike_id":"249431ce-1671-486d-ac50-b617448622dc","system_id":"levelo_inurba_marseille","lat":43.29577,"lon":5.36744,"is_reserved":false,"is_disabled":false,"rental_uris":{"android":"levelo://app?vid=249431ce-1671-486d-ac50-b617448622dc","ios":"levelo://app?vid=249431ce-1671-486d-ac50-b617448622dc"},"vehicle_type_id":"4","last_reported":1726567782,"current_range_meters":39200,"station_id":"ce4bgph2rcd13ifvqc2g","pricing_plan_id":"cebpf4jnsgd1na2vs0mg"},{"bike_id":"8439e686-9d50-4e26-910f-47ed3bd51e0d","system_id":"levelo_inurba_marseille","lat":43.32339,"lon":5.4063,"is_reserved":false,"is_disabled":false,"rental_uris":{"android":"levelo://app?vid=8439e686-9d50-4e26-910f-47ed3bd51e0d","ios":"levelo://app?vid=8439e686-9d50-4e26-910f-47ed3bd51e0d"},"vehicle_type_id":"4","last_reported":1726567782,"current_range_meters":31200,"station_id":"ce4bhq92rcd13ifvqhjg","pricing_plan_id":"cebpf4jnsgd1na2vs0mg"},{"bike_id":"69fc45f7-dd19-4407-a454-e92646802611","system_id":"levelo_inurba_marseille","lat":43.24993,"lon":5.38935,"is_reserved":false,"is_disabled":false,"rental_uris":{"android":"levelo://app?vid=69fc45f7-dd19-4407-a454-e92646802611","ios":"levelo://app?vid=69fc45f7-dd19-4407-a454-e92646802611"},"vehicle_type_id":"4","last_reported":1726567782,"current_range_meters":13600,"station_id":"ce4bhgp2rcd13ifvqfd0","pricing_plan_id":"cebpf4jnsgd1na2vs0mg"},{"bike_id":"99684f50-b398-427b-a4e9-7ca0a0382c79","system_id":"levelo_inurba_marseille","lat":43.2319,"lon":5.35548,"is_reserved":false,"is_disabled":false,"rental_uris":{"android":"levelo://app?vid=99684f50-b398-427b-a4e9-7ca0a0382c79","ios":"levelo://app?vid=99684f50-b398-427b-a4e9-7ca0a0382c79"},"vehicle_type_id":"4","last_reported":1726567782,"current_range_meters":39200,"station_id":"ce4bhu92rcd13ifvqi70","pricing_plan_id":"cebpf4jnsgd1na2vs0mg"},{"bike_id":"ebef2083-d54c-43a1-b23d-c9c8bde40d72","system_id":"levelo_inurba_marseille","lat":43.30183,"lon":5.36613,"is_reserved":false,"is_disabled":false,"rental_uris":{"android":"levelo://app?vid=ebef2083-d54c-43a1-b23d-c9c8bde40d72","ios":"levelo://app?vid=ebef2083-d54c-43a1-b23d-c9c8bde40d72"},"vehicle_type_id":"4","last_reported":1726567782,"current_range_meters":32000,"station_id":"ce4bgrh2rcd13ifvqc8g","pricing_plan_id":"cebpf4jnsgd1na2vs0mg"},{"bike_id":"34195e9b-fc36-4b98-a05c-c2c2aad12108","system_id":"levelo_inurba_marseille","lat":43.24084,"lon":5.37746,"is_reserved":false,"is_disabled":false,"rental_uris":{"android":"levelo://app?vid=34195e9b-fc36-4b98-a05c-c2c2aad12108","ios":"levelo://app?vid=34195e9b-fc36-4b98-a05c-c2c2aad12108"},"vehicle_type_id":"4","last_reported":1726567782,"current_range_meters":27200,"station_id":"ce4bhnp2rcd13ifvqgvg","pricing_plan_id":"cebpf4jnsgd1na2vs0mg"},{"bike_id":"fcf97093-637c-4342-854a-02e456b30eed","system_id":"levelo_inurba_marseille","lat":43.31496,"lon":5.37305,"is_reserved":false,"is_disabled":false,"rental_uris":{"android":"levelo://app?vid=fcf97093-637c-4342-854a-02e456b30eed","ios":"levelo://app?vid=fcf97093-637c-4342-854a-02e456b30eed"},"vehicle_type_id":"4","last_reported":1726567782,"current_range_meters":38800,"station_id":"ce4bgt12rcd13ifvqcd0","pricing_plan_id":"cebpf4jnsgd1na2vs0mg"},{"bike_id":"02024611-646a-4180-b53c-eee37ec4a066","system_id":"levelo_inurba_marseille","lat":43.26948,"lon":5.38637,"is_reserved":false,"is_disabled":false,"rental_uris":{"android":"levelo://app?vid=02024611-646a-4180-b53c-eee37ec4a066","ios":"levelo://app?vid=02024611-646a-4180-b53c-eee37ec4a066"},"vehicle_type_id":"4","last_reported":1726567782,"current_range_meters":38400,"station_id":"ce4bhh92rcd13ifvqfh0","pricing_plan_id":"cebpf4jnsgd1na2vs0mg"},{"bike_id":"4bf182d1-03a1-4590-ab4d-2ac21ab51967","system_id":"levelo_inurba_marseille","lat":43.23191,"lon":5.35559,"is_reserved":false,"is_disabled":false,"rental_uris":{"android":"levelo://app?vid=4bf182d1-03a1-4590-ab4d-2ac21ab51967","ios":"levelo://app?vid=4bf182d1-03a1-4590-ab4d-2ac21ab51967"},"vehicle_type_id":"4","last_reported":1726567782,"current_range_meters":36400,"station_id":"ce4bhu92rcd13ifvqi70","pricing_plan_id":"cebpf4jnsgd1na2vs0mg"},{"bike_id":"ad722464-32b1-4125-bf35-54f1e4aed3dd","system_id":"levelo_inurba_marseille","lat":43.24076,"lon":5.37759,"is_reserved":false,"is_disabled":false,"rental_uris":{"android":"levelo://app?vid=ad722464-32b1-4125-bf35-54f1e4aed3dd","ios":"levelo://app?vid=ad722464-32b1-4125-bf35-54f1e4aed3dd"},"vehicle_type_id":"4","last_reported":1726567782,"current_range_meters":6400,"station_id":"ce4bhnp2rcd13ifvqgvg","pricing_plan_id":"cebpf4jnsgd1na2vs0mg"},{"bike_id":"040704b3-2c1b-4498-a526-5fa515dc1006","system_id":"levelo_inurba_marseille","lat":43.23214,"lon":5.35553,"is_reserved":false,"is_disabled":false,"rental_uris":{"android":"levelo://app?vid=040704b3-2c1b-4498-a526-5fa515dc1006","ios":"levelo://app?vid=040704b3-2c1b-4498-a526-5fa515dc1006"},"vehicle_type_id":"4","last_reported":1726567782,"current_range_meters":38800,"station_id":"ce4bhu92rcd13ifvqi70","pricing_plan_id":"cebpf4jnsgd1na2vs0mg"},{"bike_id":"e2760e15-1677-40ec-98bc-2409bd1cec8e","system_id":"levelo_inurba_marseille","lat":43.30316,"lon":5.36905,"is_reserved":false,"is_disabled":false,"rental_uris":{"android":"levelo://app?vid=e2760e15-1677-40ec-98bc-2409bd1cec8e","ios":"levelo://app?vid=e2760e15-1677-40ec-98bc-2409bd1cec8e"},"vehicle_type_id":"4","last_reported":1726567782,"current_range_meters":37600,"station_id":"ce4bgqh2rcd13ifvqc5g","pricing_plan_id":"cebpf4jnsgd1na2vs0mg"},{"bike_id":"9b3676f6-40b8-4626-a24e-9f6938d7c399","system_id":"levelo_inurba_marseille","lat":43.28565,"lon":5.39496,"is_reserved":false,"is_disabled":false,"rental_uris":{"android":"levelo://app?vid=9b3676f6-40b8-4626-a24e-9f6938d7c399","ios":"levelo://app?vid=9b3676f6-40b8-4626-a24e-9f6938d7c399"},"vehicle_type_id":"4","last_reported":1726567782,"current_range_meters":38000,"station_id":"ce4bh292rcd13ifvqdg0","pricing_plan_id":"cebpf4jnsgd1na2vs0mg"},{"bike_id":"fed25c85-b3e7-4093-a992-a9eacb54e345","system_id":"levelo_inurba_marseille","lat":43.23196,"lon":5.35551,"is_reserved":false,"is_disabled":false,"rental_uris":{"android":"levelo://app?vid=fed25c85-b3e7-4093-a992-a9eacb54e345","ios":"levelo://app?vid=fed25c85-b3e7-4093-a992-a9eacb54e345"},"vehicle_type_id":"4","last_reported":1726567782,"current_range_meters":38000,"station_id":"ce4bhu92rcd13ifvqi70","pricing_plan_id":"cebpf4jnsgd1na2vs0mg"},{"bike_id":"f1cae6a9-a8df-4cec-b9d2-e0b8f2e6a820","system_id":"levelo_inurba_marseille","lat":43.32367,"lon":5.38882,"is_reserved":false,"is_disabled":false,"rental_uris":{"android":"levelo://app?vid=f1cae6a9-a8df-4cec-b9d2-e0b8f2e6a820","ios":"levelo://app?vid=f1cae6a9-a8df-4cec-b9d2-e0b8f2e6a820"},"vehicle_type_id":"4","last_reported":1726567782,"current_range_meters":38400,"station_id":"ce4bhqp2rcd13ifvqhog","pricing_plan_id":"cebpf4jnsgd1na2vs0mg"},{"bike_id":"d9e1365d-cbba-49ff-af7f-f14e9ffcd288","system_id":"levelo_inurba_marseille","lat":43.30145,"lon":5.3808,"is_reserved":false,"is_disabled":false,"rental_uris":{"android":"levelo://app?vid=d9e1365d-cbba-49ff-af7f-f14e9ffcd288","ios":"levelo://app?vid=d9e1365d-cbba-49ff-af7f-f14e9ffcd288"},"vehicle_type_id":"4","last_reported":1726567782,"current_range_meters":37600,"station_id":"ce4bgjp2rcd13ifvqbh0","pricing_plan_id":"cebpf4jnsgd1na2vs0mg"},{"bike_id":"c2516ed1-b830-4dab-bdac-4f7616e57d14","system_id":"levelo_inurba_marseille","lat":43.29914,"lon":5.37473,"is_reserved":false,"is_disabled":false,"rental_uris":{"android":"levelo://app?vid=c2516ed1-b830-4dab-bdac-4f7616e57d14","ios":"levelo://app?vid=c2516ed1-b830-4dab-bdac-4f7616e57d14"},"vehicle_type_id":"4","last_reported":1726567782,"current_range_meters":30400,"station_id":"ce4bgjh2rcd13ifvqbg0","pricing_plan_id":"cebpf4jnsgd1na2vs0mg"},{"bike_id":"255def12-1a7e-4787-b2e4-a6a54888a394","system_id":"levelo_inurba_marseille","lat":43.3247,"lon":5.36578,"is_reserved":false,"is_disabled":false,"rental_uris":{"android":"levelo://app?vid=255def12-1a7e-4787-b2e4-a6a54888a394","ios":"levelo://app?vid=255def12-1a7e-4787-b2e4-a6a54888a394"},"vehicle_type_id":"4","last_reported":1726567782,"current_range_meters":8000,"station_id":"ce4bhs12rcd13ifvqhvg","pricing_plan_id":"cebpf4jnsgd1na2vs0mg"},{"bike_id":"6ad2fe94-195b-4d58-9ac6-d3a9675a4c80","system_id":"levelo_inurba_marseille","lat":43.23193,"lon":5.35571,"is_reserved":false,"is_disabled":false,"rental_uris":{"android":"levelo://app?vid=6ad2fe94-195b-4d58-9ac6-d3a9675a4c80","ios":"levelo://app?vid=6ad2fe94-195b-4d58-9ac6-d3a9675a4c80"},"vehicle_type_id":"4","last_reported":1726567782,"current_range_meters":11200,"station_id":"ce4bhu92rcd13ifvqi70","pricing_plan_id":"cebpf4jnsgd1na2vs0mg"},{"bike_id":"6dd17a2f-59bb-4453-859d-2c09ab795824","system_id":"levelo_inurba_marseille","lat":43.33024,"lon":5.39043,"is_reserved":false,"is_disabled":false,"rental_uris":{"android":"levelo://app?vid=6dd17a2f-59bb-4453-859d-2c09ab795824","ios":"levelo://app?vid=6dd17a2f-59bb-4453-859d-2c09ab795824"},"vehicle_type_id":"4","last_reported":1726567782,"current_range_meters":31200,"station_id":"ce4bhr92rcd13ifvqhrg","pricing_plan_id":"cebpf4jnsgd1na2vs0mg"},{"bike_id":"24a7081b-0c0e-42c5-9b09-5f8c51ac08d7","system_id":"levelo_inurba_marseille","lat":43.29905,"lon":5.38142,"is_reserved":false,"is_disabled":false,"rental_uris":{"android":"levelo://app?vid=24a7081b-0c0e-42c5-9b09-5f8c51ac08d7","ios":"levelo://app?vid=24a7081b-0c0e-42c5-9b09-5f8c51ac08d7"},"vehicle_type_id":"4","last_reported":1726567782,"current_range_meters":10800,"station_id":"ce4bgj12rcd13ifvqbc0","pricing_plan_id":"cebpf4jnsgd1na2vs0mg"},{"bike_id":"c2ecb147-8ee1-4803-aa1c-5a9b13d8ea1c","system_id":"levelo_inurba_marseille","lat":43.23153,"lon":5.43711,"is_reserved":false,"is_disabled":false,"rental_uris":{"android":"levelo://app?vid=c2ecb147-8ee1-4803-aa1c-5a9b13d8ea1c","ios":"levelo://app?vid=c2ecb147-8ee1-4803-aa1c-5a9b13d8ea1c"},"vehicle_type_id":"4","last_reported":1726567782,"current_range_meters":39200,"station_id":"ce4bhmp2rcd13ifvqgog","pricing_plan_id":"cebpf4jnsgd1na2vs0mg"},{"bike_id":"8ac17af3-1087-4030-8684-fc752197666e","system_id":"levelo_inurba_marseille","lat":43.32368,"lon":5.3888,"is_reserved":false,"is_disabled":false,"rental_uris":{"android":"levelo://app?vid=8ac17af3-1087-4030-8684-fc752197666e","ios":"levelo://app?vid=8ac17af3-1087-4030-8684-fc752197666e"},"vehicle_type_id":"4","last_reported":1726567782,"current_range_meters":18800,"station_id":"ce4bhqp2rcd13ifvqhog","pricing_plan_id":"cebpf4jnsgd1na2vs0mg"},{"bike_id":"a0da9788-6ad0-4bd2-9978-72c1654ca4ea","system_id":"levelo_inurba_marseille","lat":43.32366,"lon":5.38896,"is_reserved":false,"is_disabled":false,"rental_uris":{"android":"levelo://app?vid=a0da9788-6ad0-4bd2-9978-72c1654ca4ea","ios":"levelo://app?vid=a0da9788-6ad0-4bd2-9978-72c1654ca4ea"},"vehicle_type_id":"4","last_reported":1726567782,"current_range_meters":16000,"station_id":"ce4bhqp2rcd13ifvqhog","pricing_plan_id":"cebpf4jnsgd1na2vs0mg"},{"bike_id":"f11293b9-5944-418c-9cea-2087ec8521d3","system_id":"levelo_inurba_marseille","lat":43.31212,"lon":5.36863,"is_reserved":false,"is_disabled":false,"rental_uris":{"android":"levelo://app?vid=f11293b9-5944-418c-9cea-2087ec8521d3","ios":"levelo://app?vid=f11293b9-5944-418c-9cea-2087ec8521d3"},"vehicle_type_id":"4","last_reported":1726567782,"current_range_meters":16000,"station_id":"ce4bgl92rcd13ifvqbq0","pricing_plan_id":"cebpf4jnsgd1na2vs0mg"},{"bike_id":"9c1d8de5-6046-4334-981d-a121f5c0d3ac","system_id":"levelo_inurba_marseille","lat":43.29248,"lon":5.38446,"is_reserved":false,"is_disabled":false,"rental_uris":{"android":"levelo://app?vid=9c1d8de5-6046-4334-981d-a121f5c0d3ac","ios":"levelo://app?vid=9c1d8de5-6046-4334-981d-a121f5c0d3ac"},"vehicle_type_id":"4","last_reported":1726567782,"current_range_meters":16800,"station_id":"ce4bh692rcd13ifvqea0","pricing_plan_id":"cebpf4jnsgd1na2vs0mg"},{"bike_id":"d00ef931-ca94-46a5-a153-d39e1f7651c4","system_id":"levelo_inurba_marseille","lat":43.24647,"lon":5.38892,"is_reserved":false,"is_disabled":false,"rental_uris":{"android":"levelo://app?vid=d00ef931-ca94-46a5-a153-d39e1f7651c4","ios":"levelo://app?vid=d00ef931-ca94-46a5-a153-d39e1f7651c4"},"vehicle_type_id":"4","last_reported":1726567782,"current_range_meters":4400,"station_id":"ce4bhg12rcd13ifvqf60","pricing_plan_id":"cebpf4jnsgd1na2vs0mg"},{"bike_id":"ee2a6f6f-8fd5-4be5-b404-f76250f2e4dc","system_id":"levelo_inurba_marseille","lat":43.27496,"lon":5.42457,"is_reserved":false,"is_disabled":false,"rental_uris":{"android":"levelo://app?vid=ee2a6f6f-8fd5-4be5-b404-f76250f2e4dc","ios":"levelo://app?vid=ee2a6f6f-8fd5-4be5-b404-f76250f2e4dc"},"vehicle_type_id":"4","last_reported":1726567782,"current_range_meters":38400,"station_id":"ce4bhn92rcd13ifvqgrg","pricing_plan_id":"cebpf4jnsgd1na2vs0mg"},{"bike_id":"5fcce6cb-4cdf-428a-a03a-e73e25b2b70b","system_id":"levelo_inurba_marseille","lat":43.24174,"lon":5.39725,"is_reserved":false,"is_disabled":false,"rental_uris":{"android":"levelo://app?vid=5fcce6cb-4cdf-428a-a03a-e73e25b2b70b","ios":"levelo://app?vid=5fcce6cb-4cdf-428a-a03a-e73e25b2b70b"},"vehicle_type_id":"4","last_reported":1726567782,"current_range_meters":28000,"station_id":"ce4bhn12rcd13ifvqgpg","pricing_plan_id":"cebpf4jnsgd1na2vs0mg"},{"bike_id":"222a1a2d-f0e6-47de-a52e-233920578f0c","system_id":"levelo_inurba_marseille","lat":43.337444,"lon":5.374475,"is_reserved":false,"is_disabled":false,"rental_uris":{"android":"levelo://app?vid=222a1a2d-f0e6-47de-a52e-233920578f0c","ios":"levelo://app?vid=222a1a2d-f0e6-47de-a52e-233920578f0c"},"vehicle_type_id":"4","last_reported":1726567782,"current_range_meters":24000,"station_id":"ce4bgnh2rcd13ifvqc0g","pricing_plan_id":"cebpf4jnsgd1na2vs0mg"},{"bike_id":"6588fdea-4e2f-421b-8e16-5049896a76f9","system_id":"levelo_inurba_marseille","lat":43.2927,"lon":5.36851,"is_reserved":false,"is_disabled":false,"rental_uris":{"android":"levelo://app?vid=6588fdea-4e2f-421b-8e16-5049896a76f9","ios":"levelo://app?vid=6588fdea-4e2f-421b-8e16-5049896a76f9"},"vehicle_type_id":"4","last_reported":1726567782,"current_range_meters":38400,"station_id":"ce4bhbp2rcd13ifvqesg","pricing_plan_id":"cebpf4jnsgd1na2vs0mg"},{"bike_id":"53654262-50b9-4de6-a87f-ca134fe5cbaf","system_id":"levelo_inurba_marseille","lat":43.34141,"lon":5.409,"is_reserved":false,"is_disabled":false,"rental_uris":{"android":"levelo://app?vid=53654262-50b9-4de6-a87f-ca134fe5cbaf","ios":"levelo://app?vid=53654262-50b9-4de6-a87f-ca134fe5cbaf"},"vehicle_type_id":"4","last_reported":1726567782,"current_range_meters":24000,"station_id":"ce4bhqh2rcd13ifvqhlg","pricing_plan_id":"cebpf4jnsgd1na2vs0mg"},{"bike_id":"0d830da1-088f-410f-befa-e68ac04cbdf5","system_id":"levelo_inurba_marseille","lat":43.24077,"lon":5.37761,"is_reserved":false,"is_disabled":false,"rental_uris":{"android":"levelo://app?vid=0d830da1-088f-410f-befa-e68ac04cbdf5","ios":"levelo://app?vid=0d830da1-088f-410f-befa-e68ac04cbdf5"},"vehicle_type_id":"4","last_reported":1726567782,"current_range_meters":30800,"station_id":"ce4bhnp2rcd13ifvqgvg","pricing_plan_id":"cebpf4jnsgd1na2vs0mg"},{"bike_id":"65eecb51-7024-4f30-af20-d65f809bce2b","system_id":"levelo_inurba_marseille","lat":43.31464,"lon":5.38396,"is_reserved":false,"is_disabled":false,"rental_uris":{"android":"levelo://app?vid=65eecb51-7024-4f30-af20-d65f809bce2b","ios":"levelo://app?vid=65eecb51-7024-4f30-af20-d65f809bce2b"},"vehicle_type_id":"4","last_reported":1726567782,"current_range_meters":8400,"station_id":"ce4bgvp2rcd13ifvqcu0","pricing_plan_id":"cebpf4jnsgd1na2vs0mg"},{"bike_id":"c034b2d4-b5bc-412f-bc1e-4b54e7a2ef44","system_id":"levelo_inurba_marseille","lat":43.27487,"lon":5.42458,"is_reserved":false,"is_disabled":false,"rental_uris":{"android":"levelo://app?vid=c034b2d4-b5bc-412f-bc1e-4b54e7a2ef44","ios":"levelo://app?vid=c034b2d4-b5bc-412f-bc1e-4b54e7a2ef44"},"vehicle_type_id":"4","last_reported":1726567782,"current_range_meters":38000,"station_id":"ce4bhn92rcd13ifvqgrg","pricing_plan_id":"cebpf4jnsgd1na2vs0mg"},{"bike_id":"714bd286-0914-421a-ac78-a8aec3d8de06","system_id":"levelo_inurba_marseille","lat":43.31715,"lon":5.43713,"is_reserved":false,"is_disabled":false,"rental_uris":{"android":"levelo://app?vid=714bd286-0914-421a-ac78-a8aec3d8de06","ios":"levelo://app?vid=714bd286-0914-421a-ac78-a8aec3d8de06"},"vehicle_type_id":"4","last_reported":1726567782,"current_range_meters":4800,"station_id":"ce4bhp92rcd13ifvqhcg","pricing_plan_id":"cebpf4jnsgd1na2vs0mg"},{"bike_id":"9e6acc5e-94a7-4e9f-94a9-f4362cac3b04","system_id":"levelo_inurba_marseille","lat":43.30906,"lon":5.36847,"is_reserved":false,"is_disabled":false,"rental_uris":{"android":"levelo://app?vid=9e6acc5e-94a7-4e9f-94a9-f4362cac3b04","ios":"levelo://app?vid=9e6acc5e-94a7-4e9f-94a9-f4362cac3b04"},"vehicle_type_id":"4","last_reported":1726567782,"current_range_meters":38800,"station_id":"ce4bgn92rcd13ifvqbvg","pricing_plan_id":"cebpf4jnsgd1na2vs0mg"},{"bike_id":"f5c0e1e2-2d50-430f-b096-cc74d6ddc37d","system_id":"levelo_inurba_marseille","lat":43.27494,"lon":5.4245,"is_reserved":false,"is_disabled":false,"rental_uris":{"android":"levelo://app?vid=f5c0e1e2-2d50-430f-b096-cc74d6ddc37d","ios":"levelo://app?vid=f5c0e1e2-2d50-430f-b096-cc74d6ddc37d"},"vehicle_type_id":"4","last_reported":1726567782,"current_range_meters":38800,"station_id":"ce4bhn92rcd13ifvqgrg","pricing_plan_id":"cebpf4jnsgd1na2vs0mg"},{"bike_id":"23dd0c20-fce0-40ea-aaa2-cab4c3dedbd9","system_id":"levelo_inurba_marseille","lat":43.23146,"lon":5.43726,"is_reserved":false,"is_disabled":false,"rental_uris":{"android":"levelo://app?vid=23dd0c20-fce0-40ea-aaa2-cab4c3dedbd9","ios":"levelo://app?vid=23dd0c20-fce0-40ea-aaa2-cab4c3dedbd9"},"vehicle_type_id":"4","last_reported":1726567782,"current_range_meters":10000,"station_id":"ce4bhmp2rcd13ifvqgog","pricing_plan_id":"cebpf4jnsgd1na2vs0mg"},{"bike_id":"1a72562e-4a87-4b67-a557-27799b4d5715","system_id":"levelo_inurba_marseille","lat":43.30914,"lon":5.36862,"is_reserved":false,"is_disabled":false,"rental_uris":{"android":"levelo://app?vid=1a72562e-4a87-4b67-a557-27799b4d5715","ios":"levelo://app?vid=1a72562e-4a87-4b67-a557-27799b4d5715"},"vehicle_type_id":"4","last_reported":1726567782,"current_range_meters":25200,"station_id":"ce4bgn92rcd13ifvqbvg","pricing_plan_id":"cebpf4jnsgd1na2vs0mg"},{"bike_id":"fb389055-f66c-4e32-b271-86411d587f5d","system_id":"levelo_inurba_marseille","lat":43.30309,"lon":5.36894,"is_reserved":false,"is_disabled":false,"rental_uris":{"android":"levelo://app?vid=fb389055-f66c-4e32-b271-86411d587f5d","ios":"levelo://app?vid=fb389055-f66c-4e32-b271-86411d587f5d"},"vehicle_type_id":"4","last_reported":1726567782,"current_range_meters":38800,"station_id":"ce4bgqh2rcd13ifvqc5g","pricing_plan_id":"cebpf4jnsgd1na2vs0mg"},{"bike_id":"811d12b6-62df-45b0-8a39-5b260fd2bf96","system_id":"levelo_inurba_marseille","lat":43.24082,"lon":5.37754,"is_reserved":false,"is_disabled":false,"rental_uris":{"android":"levelo://app?vid=811d12b6-62df-45b0-8a39-5b260fd2bf96","ios":"levelo://app?vid=811d12b6-62df-45b0-8a39-5b260fd2bf96"},"vehicle_type_id":"4","last_reported":1726567782,"current_range_meters":33600,"station_id":"ce4bhnp2rcd13ifvqgvg","pricing_plan_id":"cebpf4jnsgd1na2vs0mg"},{"bike_id":"9aff3f9f-e176-43ae-9e12-492612b7ce95","system_id":"levelo_inurba_marseille","lat":43.27487,"lon":5.42469,"is_reserved":false,"is_disabled":false,"rental_uris":{"android":"levelo://app?vid=9aff3f9f-e176-43ae-9e12-492612b7ce95","ios":"levelo://app?vid=9aff3f9f-e176-43ae-9e12-492612b7ce95"},"vehicle_type_id":"4","last_reported":1726567782,"current_range_meters":7200,"station_id":"ce4bhn92rcd13ifvqgrg","pricing_plan_id":"cebpf4jnsgd1na2vs0mg"},{"bike_id":"7dd25116-4b08-418f-b59a-2cd52163c135","system_id":"levelo_inurba_marseille","lat":43.24082,"lon":5.37753,"is_reserved":false,"is_disabled":false,"rental_uris":{"android":"levelo://app?vid=7dd25116-4b08-418f-b59a-2cd52163c135","ios":"levelo://app?vid=7dd25116-4b08-418f-b59a-2cd52163c135"},"vehicle_type_id":"4","last_reported":1726567782,"current_range_meters":28800,"station_id":"ce4bhnp2rcd13ifvqgvg","pricing_plan_id":"cebpf4jnsgd1na2vs0mg"},{"bike_id":"8ea79706-33c2-4140-a630-4d917dade742","system_id":"levelo_inurba_marseille","lat":43.2315,"lon":5.43725,"is_reserved":false,"is_disabled":false,"rental_uris":{"android":"levelo://app?vid=8ea79706-33c2-4140-a630-4d917dade742","ios":"levelo://app?vid=8ea79706-33c2-4140-a630-4d917dade742"},"vehicle_type_id":"4","last_reported":1726567782,"current_range_meters":17600,"station_id":"ce4bhmp2rcd13ifvqgog","pricing_plan_id":"cebpf4jnsgd1na2vs0mg"},{"bike_id":"1f38c15a-9705-4563-aafc-3c0e4b2a60f8","system_id":"levelo_inurba_marseille","lat":43.29845,"lon":5.36269,"is_reserved":false,"is_disabled":false,"rental_uris":{"android":"levelo://app?vid=1f38c15a-9705-4563-aafc-3c0e4b2a60f8","ios":"levelo://app?vid=1f38c15a-9705-4563-aafc-3c0e4b2a60f8"},"vehicle_type_id":"4","last_reported":1726567782,"current_range_meters":39200,"station_id":"ce4bgpp2rcd13ifvqc3g","pricing_plan_id":"cebpf4jnsgd1na2vs0mg"},{"bike_id":"1a82d4ed-21ba-4ad1-b954-65f5435cefec","system_id":"levelo_inurba_marseille","lat":43.29571,"lon":5.37526,"is_reserved":false,"is_disabled":false,"rental_uris":{"android":"levelo://app?vid=1a82d4ed-21ba-4ad1-b954-65f5435cefec","ios":"levelo://app?vid=1a82d4ed-21ba-4ad1-b954-65f5435cefec"},"vehicle_type_id":"4","last_reported":1726567782,"current_range_meters":22000,"station_id":"ce4bgh92rcd13ifvqb50","pricing_plan_id":"cebpf4jnsgd1na2vs0mg"},{"bike_id":"908731c5-e847-4d32-af47-ade684662a4c","system_id":"levelo_inurba_marseille","lat":43.293,"lon":5.37457,"is_reserved":false,"is_disabled":false,"rental_uris":{"android":"levelo://app?vid=908731c5-e847-4d32-af47-ade684662a4c","ios":"levelo://app?vid=908731c5-e847-4d32-af47-ade684662a4c"},"vehicle_type_id":"4","last_reported":1726567782,"current_range_meters":12000,"station_id":"ce4bgi12rcd13ifvqb70","pricing_plan_id":"cebpf4jnsgd1na2vs0mg"},{"bike_id":"a0227d82-64c2-4d0c-8d37-bf8ad5aa88a0","system_id":"levelo_inurba_marseille","lat":43.24077,"lon":5.3774,"is_reserved":false,"is_disabled":false,"rental_uris":{"android":"levelo://app?vid=a0227d82-64c2-4d0c-8d37-bf8ad5aa88a0","ios":"levelo://app?vid=a0227d82-64c2-4d0c-8d37-bf8ad5aa88a0"},"vehicle_type_id":"4","last_reported":1726567782,"current_range_meters":8400,"station_id":"ce4bhnp2rcd13ifvqgvg","pricing_plan_id":"cebpf4jnsgd1na2vs0mg"},{"bike_id":"de07479c-fa1e-4fa6-8f8a-d7163c7b679b","system_id":"levelo_inurba_marseille","lat":43.28419,"lon":5.34989,"is_reserved":false,"is_disabled":false,"rental_uris":{"android":"levelo://app?vid=de07479c-fa1e-4fa6-8f8a-d7163c7b679b","ios":"levelo://app?vid=de07479c-fa1e-4fa6-8f8a-d7163c7b679b"},"vehicle_type_id":"4","last_reported":1726567782,"current_range_meters":36400,"station_id":"ce4bhbh2rcd13ifvqepg","pricing_plan_id":"cebpf4jnsgd1na2vs0mg"},{"bike_id":"33b6c908-b316-43f1-9bed-2df4987833c0","system_id":"levelo_inurba_marseille","lat":43.30918,"lon":5.36855,"is_reserved":false,"is_disabled":false,"rental_uris":{"android":"levelo://app?vid=33b6c908-b316-43f1-9bed-2df4987833c0","ios":"levelo://app?vid=33b6c908-b316-43f1-9bed-2df4987833c0"},"vehicle_type_id":"4","last_reported":1726567782,"current_range_meters":28400,"station_id":"ce4bgn92rcd13ifvqbvg","pricing_plan_id":"cebpf4jnsgd1na2vs0mg"},{"bike_id":"1e3e380d-7a8e-48c9-9805-8e655604bee6","system_id":"levelo_inurba_marseille","lat":43.26607,"lon":5.42421,"is_reserved":false,"is_disabled":false,"rental_uris":{"android":"levelo://app?vid=1e3e380d-7a8e-48c9-9805-8e655604bee6","ios":"levelo://app?vid=1e3e380d-7a8e-48c9-9805-8e655604bee6"},"vehicle_type_id":"4","last_reported":1726567782,"current_range_meters":33600,"station_id":"ce4bhk92rcd13ifvqgb0","pricing_plan_id":"cebpf4jnsgd1na2vs0mg"},{"bike_id":"fee3d5bb-6253-48da-96ac-cce5fd5baf46","system_id":"levelo_inurba_marseille","lat":43.30559,"lon":5.3654,"is_reserved":false,"is_disabled":false,"rental_uris":{"android":"levelo://app?vid=fee3d5bb-6253-48da-96ac-cce5fd5baf46","ios":"levelo://app?vid=fee3d5bb-6253-48da-96ac-cce5fd5baf46"},"vehicle_type_id":"4","last_reported":1726567782,"current_range_meters":40000,"station_id":"ce4bgs12rcd13ifvqcag","pricing_plan_id":"cebpf4jnsgd1na2vs0mg"},{"bike_id":"54a39329-f575-4727-ac1f-a5a4ccac54db","system_id":"levelo_inurba_marseille","lat":43.33613,"lon":5.41026,"is_reserved":false,"is_disabled":false,"rental_uris":{"android":"levelo://app?vid=54a39329-f575-4727-ac1f-a5a4ccac54db","ios":"levelo://app?vid=54a39329-f575-4727-ac1f-a5a4ccac54db"},"vehicle_type_id":"4","last_reported":1726567782,"current_range_meters":39200,"station_id":"ce4bhqh2rcd13ifvqhmg","pricing_plan_id":"cebpf4jnsgd1na2vs0mg"},{"bike_id":"cbaf03bf-0340-4293-a424-18d0ef0b595f","system_id":"levelo_inurba_marseille","lat":43.299,"lon":5.43666,"is_reserved":false,"is_disabled":false,"rental_uris":{"android":"levelo://app?vid=cbaf03bf-0340-4293-a424-18d0ef0b595f","ios":"levelo://app?vid=cbaf03bf-0340-4293-a424-18d0ef0b595f"},"vehicle_type_id":"4","last_reported":1726567782,"current_range_meters":22400,"station_id":"ce4bhpp2rcd13ifvqhfg","pricing_plan_id":"cebpf4jnsgd1na2vs0mg"},{"bike_id":"4db50d13-63f4-4275-a13f-6d1f342ac8c6","system_id":"levelo_inurba_marseille","lat":43.28612,"lon":5.35103,"is_reserved":false,"is_disabled":false,"rental_uris":{"android":"levelo://app?vid=4db50d13-63f4-4275-a13f-6d1f342ac8c6","ios":"levelo://app?vid=4db50d13-63f4-4275-a13f-6d1f342ac8c6"},"vehicle_type_id":"4","last_reported":1726567782,"current_range_meters":38800,"station_id":"ce4bhch2rcd13ifvqeug","pricing_plan_id":"cebpf4jnsgd1na2vs0mg"},{"bike_id":"a7dc542c-b9d5-41da-8365-4e8ef96b9645","system_id":"levelo_inurba_marseille","lat":43.28622,"lon":5.35106,"is_reserved":false,"is_disabled":false,"rental_uris":{"android":"levelo://app?vid=a7dc542c-b9d5-41da-8365-4e8ef96b9645","ios":"levelo://app?vid=a7dc542c-b9d5-41da-8365-4e8ef96b9645"},"vehicle_type_id":"4","last_reported":1726567782,"current_range_meters":36400,"station_id":"ce4bhch2rcd13ifvqeug","pricing_plan_id":"cebpf4jnsgd1na2vs0mg"},{"bike_id":"49e200ca-be2e-44c1-88e1-5c0a88694170","system_id":"levelo_inurba_marseille","lat":43.30553,"lon":5.36539,"is_reserved":false,"is_disabled":false,"rental_uris":{"android":"levelo://app?vid=49e200ca-be2e-44c1-88e1-5c0a88694170","ios":"levelo://app?vid=49e200ca-be2e-44c1-88e1-5c0a88694170"},"vehicle_type_id":"4","last_reported":1726567782,"current_range_meters":34800,"station_id":"ce4bgs12rcd13ifvqcag","pricing_plan_id":"cebpf4jnsgd1na2vs0mg"},{"bike_id":"36bea050-cc1e-454a-9f4a-c3b28aca3c65","system_id":"levelo_inurba_marseille","lat":43.24071,"lon":5.37757,"is_reserved":false,"is_disabled":false,"rental_uris":{"android":"levelo://app?vid=36bea050-cc1e-454a-9f4a-c3b28aca3c65","ios":"levelo://app?vid=36bea050-cc1e-454a-9f4a-c3b28aca3c65"},"vehicle_type_id":"4","last_reported":1726567782,"current_range_meters":3600,"station_id":"ce4bhnp2rcd13ifvqgvg","pricing_plan_id":"cebpf4jnsgd1na2vs0mg"},{"bike_id":"2d51df09-9df3-4cae-807f-f2a6b52c4ca4","system_id":"levelo_inurba_marseille","lat":43.26211,"lon":5.37917,"is_reserved":false,"is_disabled":false,"rental_uris":{"android":"levelo://app?vid=2d51df09-9df3-4cae-807f-f2a6b52c4ca4","ios":"levelo://app?vid=2d51df09-9df3-4cae-807f-f2a6b52c4ca4"},"vehicle_type_id":"4","last_reported":1726567782,"current_range_meters":22000,"station_id":"ce4bhjp2rcd13ifvqg90","pricing_plan_id":"cebpf4jnsgd1na2vs0mg"},{"bike_id":"fb565720-ce64-47db-a019-92c82ed81490","system_id":"levelo_inurba_marseille","lat":43.23961,"lon":5.36632,"is_reserved":false,"is_disabled":false,"rental_uris":{"android":"levelo://app?vid=fb565720-ce64-47db-a019-92c82ed81490","ios":"levelo://app?vid=fb565720-ce64-47db-a019-92c82ed81490"},"vehicle_type_id":"4","last_reported":1726567782,"current_range_meters":14000,"station_id":"ce4bhi12rcd13ifvqfp0","pricing_plan_id":"cebpf4jnsgd1na2vs0mg"},{"bike_id":"f78ec244-0aef-4b6c-a1be-b01f3523a44d","system_id":"levelo_inurba_marseille","lat":43.2749,"lon":5.42457,"is_reserved":false,"is_disabled":false,"rental_uris":{"android":"levelo://app?vid=f78ec244-0aef-4b6c-a1be-b01f3523a44d","ios":"levelo://app?vid=f78ec244-0aef-4b6c-a1be-b01f3523a44d"},"vehicle_type_id":"4","last_reported":1726567782,"current_range_meters":33200,"station_id":"ce4bhn92rcd13ifvqgrg","pricing_plan_id":"cebpf4jnsgd1na2vs0mg"},{"bike_id":"b71de538-a719-49bb-8773-2331356ccc3c","system_id":"levelo_inurba_marseille","lat":43.32291,"lon":5.38267,"is_reserved":false,"is_disabled":false,"rental_uris":{"android":"levelo://app?vid=b71de538-a719-49bb-8773-2331356ccc3c","ios":"levelo://app?vid=b71de538-a719-49bb-8773-2331356ccc3c"},"vehicle_type_id":"4","last_reported":1726567782,"current_range_meters":38000,"station_id":"ce4bhr12rcd13ifvqhqg","pricing_plan_id":"cebpf4jnsgd1na2vs0mg"},{"bike_id":"31d7628c-a98b-4127-881d-92022a3abc84","system_id":"levelo_inurba_marseille","lat":43.25938,"lon":5.4091,"is_reserved":false,"is_disabled":false,"rental_uris":{"android":"levelo://app?vid=31d7628c-a98b-4127-881d-92022a3abc84","ios":"levelo://app?vid=31d7628c-a98b-4127-881d-92022a3abc84"},"vehicle_type_id":"4","last_reported":1726567782,"current_range_meters":28800,"station_id":"ce4bhm92rcd13ifvqglg","pricing_plan_id":"cebpf4jnsgd1na2vs0mg"},{"bike_id":"2abcf827-653f-496c-864d-15aea8c5fd8d","system_id":"levelo_inurba_marseille","lat":43.28726,"lon":5.36082,"is_reserved":false,"is_disabled":false,"rental_uris":{"android":"levelo://app?vid=2abcf827-653f-496c-864d-15aea8c5fd8d","ios":"levelo://app?vid=2abcf827-653f-496c-864d-15aea8c5fd8d"},"vehicle_type_id":"4","last_reported":1726567782,"current_range_meters":30400,"station_id":"cki0cbj6b192h4jlfktg","pricing_plan_id":"cebpf4jnsgd1na2vs0mg"},{"bike_id":"a3dc66ac-ec81-47a5-8dc4-56011c5e10db","system_id":"levelo_inurba_marseille","lat":43.3122,"lon":5.36886,"is_reserved":false,"is_disabled":false,"rental_uris":{"android":"levelo://app?vid=a3dc66ac-ec81-47a5-8dc4-56011c5e10db","ios":"levelo://app?vid=a3dc66ac-ec81-47a5-8dc4-56011c5e10db"},"vehicle_type_id":"4","last_reported":1726567782,"current_range_meters":32800,"station_id":"ce4bgl92rcd13ifvqbq0","pricing_plan_id":"cebpf4jnsgd1na2vs0mg"},{"bike_id":"fb6b2e20-1181-4228-aab7-94d05e809797","system_id":"levelo_inurba_marseille","lat":43.30915,"lon":5.36865,"is_reserved":false,"is_disabled":false,"rental_uris":{"android":"levelo://app?vid=fb6b2e20-1181-4228-aab7-94d05e809797","ios":"levelo://app?vid=fb6b2e20-1181-4228-aab7-94d05e809797"},"vehicle_type_id":"4","last_reported":1726567782,"current_range_meters":38800,"station_id":"ce4bgn92rcd13ifvqbvg","pricing_plan_id":"cebpf4jnsgd1na2vs0mg"},{"bike_id":"599bb63f-0cfe-491c-8f61-e641ac2d101a","system_id":"levelo_inurba_marseille","lat":43.23152,"lon":5.43711,"is_reserved":false,"is_disabled":false,"rental_uris":{"android":"levelo://app?vid=599bb63f-0cfe-491c-8f61-e641ac2d101a","ios":"levelo://app?vid=599bb63f-0cfe-491c-8f61-e641ac2d101a"},"vehicle_type_id":"4","last_reported":1726567782,"current_range_meters":10800,"station_id":"ce4bhmp2rcd13ifvqgog","pricing_plan_id":"cebpf4jnsgd1na2vs0mg"},{"bike_id":"00c7851d-2d42-4484-b507-4ccb9976659d","system_id":"levelo_inurba_marseille","lat":43.26493,"lon":5.39536,"is_reserved":false,"is_disabled":false,"rental_uris":{"android":"levelo://app?vid=00c7851d-2d42-4484-b507-4ccb9976659d","ios":"levelo://app?vid=00c7851d-2d42-4484-b507-4ccb9976659d"},"vehicle_type_id":"4","last_reported":1726567782,"current_range_meters":38800,"station_id":"ce4bhi12rcd13ifvqfq0","pricing_plan_id":"cebpf4jnsgd1na2vs0mg"},{"bike_id":"bb11e736-9a98-4d68-b71f-9421365485ff","system_id":"levelo_inurba_marseille","lat":43.29841,"lon":5.3627,"is_reserved":false,"is_disabled":false,"rental_uris":{"android":"levelo://app?vid=bb11e736-9a98-4d68-b71f-9421365485ff","ios":"levelo://app?vid=bb11e736-9a98-4d68-b71f-9421365485ff"},"vehicle_type_id":"4","last_reported":1726567782,"current_range_meters":23200,"station_id":"ce4bgpp2rcd13ifvqc3g","pricing_plan_id":"cebpf4jnsgd1na2vs0mg"},{"bike_id":"764492cd-7476-4794-9106-061c8cb03c80","system_id":"levelo_inurba_marseille","lat":43.27494,"lon":5.424245,"is_reserved":false,"is_disabled":false,"rental_uris":{"android":"levelo://app?vid=764492cd-7476-4794-9106-061c8cb03c80","ios":"levelo://app?vid=764492cd-7476-4794-9106-061c8cb03c80"},"vehicle_type_id":"4","last_reported":1726567782,"current_range_meters":30000,"station_id":"ce4bhn92rcd13ifvqgrg","pricing_plan_id":"cebpf4jnsgd1na2vs0mg"},{"bike_id":"d050d7b7-e817-42dd-99e2-bc8a4864acf7","system_id":"levelo_inurba_marseille","lat":43.33619,"lon":5.4103,"is_reserved":false,"is_disabled":false,"rental_uris":{"android":"levelo://app?vid=d050d7b7-e817-42dd-99e2-bc8a4864acf7","ios":"levelo://app?vid=d050d7b7-e817-42dd-99e2-bc8a4864acf7"},"vehicle_type_id":"4","last_reported":1726567782,"current_range_meters":38400,"station_id":"ce4bhqh2rcd13ifvqhmg","pricing_plan_id":"cebpf4jnsgd1na2vs0mg"},{"bike_id":"328d45f9-980e-4811-97c0-47d761861509","system_id":"levelo_inurba_marseille","lat":43.29847,"lon":5.37836,"is_reserved":false,"is_disabled":false,"rental_uris":{"android":"levelo://app?vid=328d45f9-980e-4811-97c0-47d761861509","ios":"levelo://app?vid=328d45f9-980e-4811-97c0-47d761861509"},"vehicle_type_id":"4","last_reported":1726567782,"current_range_meters":17600,"station_id":"ce4bgkh2rcd13ifvqbl0","pricing_plan_id":"cebpf4jnsgd1na2vs0mg"},{"bike_id":"673b8916-42d3-4e91-8399-bca8c5f40f45","system_id":"levelo_inurba_marseille","lat":43.26798,"lon":5.40267,"is_reserved":false,"is_disabled":false,"rental_uris":{"android":"levelo://app?vid=673b8916-42d3-4e91-8399-bca8c5f40f45","ios":"levelo://app?vid=673b8916-42d3-4e91-8399-bca8c5f40f45"},"vehicle_type_id":"4","last_reported":1726567782,"current_range_meters":38400,"station_id":"ce501612rcd8frsf0b60","pricing_plan_id":"cebpf4jnsgd1na2vs0mg"},{"bike_id":"89fdb62e-6f6d-4d93-8aea-bbb35b60addf","system_id":"levelo_inurba_marseille","lat":43.30541,"lon":5.38421,"is_reserved":false,"is_disabled":false,"rental_uris":{"android":"levelo://app?vid=89fdb62e-6f6d-4d93-8aea-bbb35b60addf","ios":"levelo://app?vid=89fdb62e-6f6d-4d93-8aea-bbb35b60addf"},"vehicle_type_id":"4","last_reported":1726567782,"current_range_meters":18800,"station_id":"ce4bgg92rcd13ifvqb30","pricing_plan_id":"cebpf4jnsgd1na2vs0mg"},{"bike_id":"d84d461a-0f80-4d5c-8030-45ef5ea64552","system_id":"levelo_inurba_marseille","lat":43.26215,"lon":5.37433,"is_reserved":false,"is_disabled":false,"rental_uris":{"android":"levelo://app?vid=d84d461a-0f80-4d5c-8030-45ef5ea64552","ios":"levelo://app?vid=d84d461a-0f80-4d5c-8030-45ef5ea64552"},"vehicle_type_id":"4","last_reported":1726567782,"current_range_meters":38800,"station_id":"ce4bhgp2rcd13ifvqfc0","pricing_plan_id":"cebpf4jnsgd1na2vs0mg"},{"bike_id":"00337d7f-40a9-4d5f-9f2d-ca76070ef21f","system_id":"levelo_inurba_marseille","lat":43.28606,"lon":5.35108,"is_reserved":false,"is_disabled":false,"rental_uris":{"android":"levelo://app?vid=00337d7f-40a9-4d5f-9f2d-ca76070ef21f","ios":"levelo://app?vid=00337d7f-40a9-4d5f-9f2d-ca76070ef21f"},"vehicle_type_id":"4","last_reported":1726567782,"current_range_meters":38000,"station_id":"ce4bhch2rcd13ifvqeug","pricing_plan_id":"cebpf4jnsgd1na2vs0mg"},{"bike_id":"fa690805-233a-4a70-a9f3-33f1b67cdb1f","system_id":"levelo_inurba_marseille","lat":43.32287,"lon":5.3828,"is_reserved":false,"is_disabled":false,"rental_uris":{"android":"levelo://app?vid=fa690805-233a-4a70-a9f3-33f1b67cdb1f","ios":"levelo://app?vid=fa690805-233a-4a70-a9f3-33f1b67cdb1f"},"vehicle_type_id":"4","last_reported":1726567782,"current_range_meters":33200,"station_id":"ce4bhr12rcd13ifvqhqg","pricing_plan_id":"cebpf4jnsgd1na2vs0mg"},{"bike_id":"8b608b96-fedf-4511-8d4b-09bad2606e1a","system_id":"levelo_inurba_marseille","lat":43.27726,"lon":5.41129,"is_reserved":false,"is_disabled":false,"rental_uris":{"android":"levelo://app?vid=8b608b96-fedf-4511-8d4b-09bad2606e1a","ios":"levelo://app?vid=8b608b96-fedf-4511-8d4b-09bad2606e1a"},"vehicle_type_id":"4","last_reported":1726567782,"current_range_meters":10000,"station_id":"","pricing_plan_id":"cebpf4jnsgd1na2vs0mg"},{"bike_id":"874f1a80-ae3a-4775-b2d6-184508f8658e","system_id":"levelo_inurba_marseille","lat":43.29563,"lon":5.37524,"is_reserved":false,"is_disabled":false,"rental_uris":{"android":"levelo://app?vid=874f1a80-ae3a-4775-b2d6-184508f8658e","ios":"levelo://app?vid=874f1a80-ae3a-4775-b2d6-184508f8658e"},"vehicle_type_id":"4","last_reported":1726567782,"current_range_meters":12800,"station_id":"ce4bgh92rcd13ifvqb50","pricing_plan_id":"cebpf4jnsgd1na2vs0mg"},{"bike_id":"2fd20e8c-8e33-413e-9486-26b4cea28154","system_id":"levelo_inurba_marseille","lat":43.32369,"lon":5.38883,"is_reserved":false,"is_disabled":false,"rental_uris":{"android":"levelo://app?vid=2fd20e8c-8e33-413e-9486-26b4cea28154","ios":"levelo://app?vid=2fd20e8c-8e33-413e-9486-26b4cea28154"},"vehicle_type_id":"4","last_reported":1726567782,"current_range_meters":8000,"station_id":"ce4bhqp2rcd13ifvqhog","pricing_plan_id":"cebpf4jnsgd1na2vs0mg"},{"bike_id":"57be3ded-1ee9-42c1-b39d-7196fdda9743","system_id":"levelo_inurba_marseille","lat":43.32291,"lon":5.38268,"is_reserved":false,"is_disabled":false,"rental_uris":{"android":"levelo://app?vid=57be3ded-1ee9-42c1-b39d-7196fdda9743","ios":"levelo://app?vid=57be3ded-1ee9-42c1-b39d-7196fdda9743"},"vehicle_type_id":"4","last_reported":1726567782,"current_range_meters":37600,"station_id":"ce4bhr12rcd13ifvqhqg","pricing_plan_id":"cebpf4jnsgd1na2vs0mg"},{"bike_id":"31bcb3f4-1e66-422e-9329-ebc9baae8120","system_id":"levelo_inurba_marseille","lat":43.28706,"lon":5.37389,"is_reserved":false,"is_disabled":false,"rental_uris":{"android":"levelo://app?vid=31bcb3f4-1e66-422e-9329-ebc9baae8120","ios":"levelo://app?vid=31bcb3f4-1e66-422e-9329-ebc9baae8120"},"vehicle_type_id":"4","last_reported":1726567782,"current_range_meters":13600,"station_id":"ce4bh3p2rcd13ifvqdq0","pricing_plan_id":"cebpf4jnsgd1na2vs0mg"},{"bike_id":"6a7c150c-5126-491b-914e-1635e2b12a7d","system_id":"levelo_inurba_marseille","lat":43.28946,"lon":5.39973,"is_reserved":false,"is_disabled":false,"rental_uris":{"android":"levelo://app?vid=6a7c150c-5126-491b-914e-1635e2b12a7d","ios":"levelo://app?vid=6a7c150c-5126-491b-914e-1635e2b12a7d"},"vehicle_type_id":"4","last_reported":1726567782,"current_range_meters":20800,"station_id":"","pricing_plan_id":"cebpf4jnsgd1na2vs0mg"},{"bike_id":"14b531e8-b12c-4159-8665-b7478b53ec35","system_id":"levelo_inurba_marseille","lat":43.29945,"lon":5.36553,"is_reserved":false,"is_disabled":false,"rental_uris":{"android":"levelo://app?vid=14b531e8-b12c-4159-8665-b7478b53ec35","ios":"levelo://app?vid=14b531e8-b12c-4159-8665-b7478b53ec35"},"vehicle_type_id":"4","last_reported":1726567782,"current_range_meters":10000,"station_id":"ce4bgm92rcd13ifvqbr0","pricing_plan_id":"cebpf4jnsgd1na2vs0mg"},{"bike_id":"8c9bdf96-35c6-49be-9c44-e19edfe902c1","system_id":"levelo_inurba_marseille","lat":43.32485,"lon":5.36562,"is_reserved":false,"is_disabled":false,"rental_uris":{"android":"levelo://app?vid=8c9bdf96-35c6-49be-9c44-e19edfe902c1","ios":"levelo://app?vid=8c9bdf96-35c6-49be-9c44-e19edfe902c1"},"vehicle_type_id":"4","last_reported":1726567782,"current_range_meters":39200,"station_id":"ce4bhs12rcd13ifvqhvg","pricing_plan_id":"cebpf4jnsgd1na2vs0mg"},{"bike_id":"f4538dd0-eb00-41b3-b578-281dfa164128","system_id":"levelo_inurba_marseille","lat":43.30547,"lon":5.36708,"is_reserved":false,"is_disabled":false,"rental_uris":{"android":"levelo://app?vid=f4538dd0-eb00-41b3-b578-281dfa164128","ios":"levelo://app?vid=f4538dd0-eb00-41b3-b578-281dfa164128"},"vehicle_type_id":"4","last_reported":1726567782,"current_range_meters":29600,"station_id":"ce4bgrp2rcd13ifvqc9g","pricing_plan_id":"cebpf4jnsgd1na2vs0mg"},{"bike_id":"b3164448-6881-41b4-9ecc-7c3a87c544b2","system_id":"levelo_inurba_marseille","lat":43.28643,"lon":5.3688,"is_reserved":false,"is_disabled":false,"rental_uris":{"android":"levelo://app?vid=b3164448-6881-41b4-9ecc-7c3a87c544b2","ios":"levelo://app?vid=b3164448-6881-41b4-9ecc-7c3a87c544b2"},"vehicle_type_id":"4","last_reported":1726567782,"current_range_meters":26000,"station_id":"","pricing_plan_id":"cebpf4jnsgd1na2vs0mg"},{"bike_id":"9ce0da63-c6ce-46f3-91fd-247e0bc7ad47","system_id":"levelo_inurba_marseille","lat":43.27969,"lon":5.38734,"is_reserved":false,"is_disabled":false,"rental_uris":{"android":"levelo://app?vid=9ce0da63-c6ce-46f3-91fd-247e0bc7ad47","ios":"levelo://app?vid=9ce0da63-c6ce-46f3-91fd-247e0bc7ad47"},"vehicle_type_id":"4","last_reported":1726567782,"current_range_meters":14000,"station_id":"ce4bhg12rcd13ifvqf80","pricing_plan_id":"cebpf4jnsgd1na2vs0mg"},{"bike_id":"4794a437-9232-4ded-ada9-c1413dd4f781","system_id":"levelo_inurba_marseille","lat":43.25937,"lon":5.40895,"is_reserved":false,"is_disabled":false,"rental_uris":{"android":"levelo://app?vid=4794a437-9232-4ded-ada9-c1413dd4f781","ios":"levelo://app?vid=4794a437-9232-4ded-ada9-c1413dd4f781"},"vehicle_type_id":"4","last_reported":1726567782,"current_range_meters":37600,"station_id":"ce4bhm92rcd13ifvqglg","pricing_plan_id":"cebpf4jnsgd1na2vs0mg"},{"bike_id":"6a17dbc5-669f-49b8-907a-20140dfc9536","system_id":"levelo_inurba_marseille","lat":43.31344,"lon":5.36706,"is_reserved":false,"is_disabled":false,"rental_uris":{"android":"levelo://app?vid=6a17dbc5-669f-49b8-907a-20140dfc9536","ios":"levelo://app?vid=6a17dbc5-669f-49b8-907a-20140dfc9536"},"vehicle_type_id":"4","last_reported":1726567782,"current_range_meters":39200,"station_id":"ce4bgr92rcd13ifvqc6g","pricing_plan_id":"cebpf4jnsgd1na2vs0mg"},{"bike_id":"4b394aa0-badd-4da3-ba61-c6931a19c974","system_id":"levelo_inurba_marseille","lat":43.28365,"lon":5.38622,"is_reserved":false,"is_disabled":false,"rental_uris":{"android":"levelo://app?vid=4b394aa0-badd-4da3-ba61-c6931a19c974","ios":"levelo://app?vid=4b394aa0-badd-4da3-ba61-c6931a19c974"},"vehicle_type_id":"4","last_reported":1726567782,"current_range_meters":24400,"station_id":"ce4bh492rcd13ifvqdvg","pricing_plan_id":"cebpf4jnsgd1na2vs0mg"},{"bike_id":"e4ff2716-efaa-4292-b77b-693be63bb373","system_id":"levelo_inurba_marseille","lat":43.23199,"lon":5.35552,"is_reserved":false,"is_disabled":false,"rental_uris":{"android":"levelo://app?vid=e4ff2716-efaa-4292-b77b-693be63bb373","ios":"levelo://app?vid=e4ff2716-efaa-4292-b77b-693be63bb373"},"vehicle_type_id":"4","last_reported":1726567782,"current_range_meters":36800,"station_id":"ce4bhu92rcd13ifvqi70","pricing_plan_id":"cebpf4jnsgd1na2vs0mg"},{"bike_id":"53b3d481-1eb6-4835-8542-14432fea4de8","system_id":"levelo_inurba_marseille","lat":43.33026,"lon":5.3903,"is_reserved":false,"is_disabled":false,"rental_uris":{"android":"levelo://app?vid=53b3d481-1eb6-4835-8542-14432fea4de8","ios":"levelo://app?vid=53b3d481-1eb6-4835-8542-14432fea4de8"},"vehicle_type_id":"4","last_reported":1726567782,"current_range_meters":37600,"station_id":"ce4bhr92rcd13ifvqhrg","pricing_plan_id":"cebpf4jnsgd1na2vs0mg"},{"bike_id":"1d779386-8736-4203-8042-e8a090dbfdc4","system_id":"levelo_inurba_marseille","lat":43.30536,"lon":5.36553,"is_reserved":false,"is_disabled":false,"rental_uris":{"android":"levelo://app?vid=1d779386-8736-4203-8042-e8a090dbfdc4","ios":"levelo://app?vid=1d779386-8736-4203-8042-e8a090dbfdc4"},"vehicle_type_id":"4","last_reported":1726567782,"current_range_meters":33600,"station_id":"ce4bgs12rcd13ifvqcag","pricing_plan_id":"cebpf4jnsgd1na2vs0mg"},{"bike_id":"9ff17fa9-e34e-497c-b6c4-0fe62a198728","system_id":"levelo_inurba_marseille","lat":43.23966,"lon":5.36632,"is_reserved":false,"is_disabled":false,"rental_uris":{"android":"levelo://app?vid=9ff17fa9-e34e-497c-b6c4-0fe62a198728","ios":"levelo://app?vid=9ff17fa9-e34e-497c-b6c4-0fe62a198728"},"vehicle_type_id":"4","last_reported":1726567782,"current_range_meters":40000,"station_id":"ce4bhi12rcd13ifvqfp0","pricing_plan_id":"cebpf4jnsgd1na2vs0mg"},{"bike_id":"63cd9448-5780-47f8-b45d-80244953bd71","system_id":"levelo_inurba_marseille","lat":43.26946,"lon":5.38636,"is_reserved":false,"is_disabled":false,"rental_uris":{"android":"levelo://app?vid=63cd9448-5780-47f8-b45d-80244953bd71","ios":"levelo://app?vid=63cd9448-5780-47f8-b45d-80244953bd71"},"vehicle_type_id":"4","last_reported":1726567782,"current_range_meters":29600,"station_id":"ce4bhh92rcd13ifvqfh0","pricing_plan_id":"cebpf4jnsgd1na2vs0mg"},{"bike_id":"e1a51395-7ad7-4724-8a2f-34b9ae6c009c","system_id":"levelo_inurba_marseille","lat":43.25002,"lon":5.38917,"is_reserved":false,"is_disabled":false,"rental_uris":{"android":"levelo://app?vid=e1a51395-7ad7-4724-8a2f-34b9ae6c009c","ios":"levelo://app?vid=e1a51395-7ad7-4724-8a2f-34b9ae6c009c"},"vehicle_type_id":"4","last_reported":1726567782,"current_range_meters":39200,"station_id":"ce4bhgp2rcd13ifvqfd0","pricing_plan_id":"cebpf4jnsgd1na2vs0mg"},{"bike_id":"84add3de-db1b-4764-9176-778559fde457","system_id":"levelo_inurba_marseille","lat":43.27996,"lon":5.41658,"is_reserved":false,"is_disabled":false,"rental_uris":{"android":"levelo://app?vid=84add3de-db1b-4764-9176-778559fde457","ios":"levelo://app?vid=84add3de-db1b-4764-9176-778559fde457"},"vehicle_type_id":"4","last_reported":1726567782,"current_range_meters":35200,"station_id":"ce4bho12rcd13ifvqh1g","pricing_plan_id":"cebpf4jnsgd1na2vs0mg"},{"bike_id":"79aae6c9-2353-4e66-b227-d1a2adcc2132","system_id":"levelo_inurba_marseille","lat":43.24647,"lon":5.3889,"is_reserved":false,"is_disabled":false,"rental_uris":{"android":"levelo://app?vid=79aae6c9-2353-4e66-b227-d1a2adcc2132","ios":"levelo://app?vid=79aae6c9-2353-4e66-b227-d1a2adcc2132"},"vehicle_type_id":"4","last_reported":1726567782,"current_range_meters":27600,"station_id":"ce4bhg12rcd13ifvqf60","pricing_plan_id":"cebpf4jnsgd1na2vs0mg"},{"bike_id":"d73a3536-6eae-4521-9e80-6d4c53ea2adc","system_id":"levelo_inurba_marseille","lat":43.29005,"lon":5.35605,"is_reserved":false,"is_disabled":false,"rental_uris":{"android":"levelo://app?vid=d73a3536-6eae-4521-9e80-6d4c53ea2adc","ios":"levelo://app?vid=d73a3536-6eae-4521-9e80-6d4c53ea2adc"},"vehicle_type_id":"4","last_reported":1726567782,"current_range_meters":27600,"station_id":"ce4bhb92rcd13ifvqen0","pricing_plan_id":"cebpf4jnsgd1na2vs0mg"},{"bike_id":"0152fc23-6914-421d-aff9-87b734d538d3","system_id":"levelo_inurba_marseille","lat":43.24077,"lon":5.37762,"is_reserved":false,"is_disabled":false,"rental_uris":{"android":"levelo://app?vid=0152fc23-6914-421d-aff9-87b734d538d3","ios":"levelo://app?vid=0152fc23-6914-421d-aff9-87b734d538d3"},"vehicle_type_id":"4","last_reported":1726567782,"current_range_meters":21600,"station_id":"ce4bhnp2rcd13ifvqgvg","pricing_plan_id":"cebpf4jnsgd1na2vs0mg"},{"bike_id":"67646596-a7b1-4bd1-94f4-620aab62e5cb","system_id":"levelo_inurba_marseille","lat":43.30468,"lon":5.37892,"is_reserved":false,"is_disabled":false,"rental_uris":{"android":"levelo://app?vid=67646596-a7b1-4bd1-94f4-620aab62e5cb","ios":"levelo://app?vid=67646596-a7b1-4bd1-94f4-620aab62e5cb"},"vehicle_type_id":"4","last_reported":1726567782,"current_range_meters":8800,"station_id":"ce4bgup2rcd13ifvqcn0","pricing_plan_id":"cebpf4jnsgd1na2vs0mg"},{"bike_id":"d641fc5c-8e2f-4d73-8232-b7b73060c3c7","system_id":"levelo_inurba_marseille","lat":43.320134,"lon":5.408547,"is_reserved":false,"is_disabled":false,"rental_uris":{"android":"levelo://app?vid=d641fc5c-8e2f-4d73-8232-b7b73060c3c7","ios":"levelo://app?vid=d641fc5c-8e2f-4d73-8232-b7b73060c3c7"},"vehicle_type_id":"4","last_reported":1726567782,"current_range_meters":24800,"station_id":"ce4bhq12rcd13ifvqhig","pricing_plan_id":"cebpf4jnsgd1na2vs0mg"},{"bike_id":"8e924bff-6d44-40c3-bf5b-4fee24c59ef6","system_id":"levelo_inurba_marseille","lat":43.23148,"lon":5.43722,"is_reserved":false,"is_disabled":false,"rental_uris":{"android":"levelo://app?vid=8e924bff-6d44-40c3-bf5b-4fee24c59ef6","ios":"levelo://app?vid=8e924bff-6d44-40c3-bf5b-4fee24c59ef6"},"vehicle_type_id":"4","last_reported":1726567782,"current_range_meters":38800,"station_id":"ce4bhmp2rcd13ifvqgog","pricing_plan_id":"cebpf4jnsgd1na2vs0mg"},{"bike_id":"9b7e2048-2e64-43c1-830d-77cbb2fc0fe1","system_id":"levelo_inurba_marseille","lat":43.25953,"lon":5.409,"is_reserved":false,"is_disabled":false,"rental_uris":{"android":"levelo://app?vid=9b7e2048-2e64-43c1-830d-77cbb2fc0fe1","ios":"levelo://app?vid=9b7e2048-2e64-43c1-830d-77cbb2fc0fe1"},"vehicle_type_id":"4","last_reported":1726567782,"current_range_meters":30400,"station_id":"ce4bhm92rcd13ifvqglg","pricing_plan_id":"cebpf4jnsgd1na2vs0mg"},{"bike_id":"72a5067a-b7f8-4573-afd6-2dddee53c352","system_id":"levelo_inurba_marseille","lat":43.2827,"lon":5.35056,"is_reserved":false,"is_disabled":false,"rental_uris":{"android":"levelo://app?vid=72a5067a-b7f8-4573-afd6-2dddee53c352","ios":"levelo://app?vid=72a5067a-b7f8-4573-afd6-2dddee53c352"},"vehicle_type_id":"4","last_reported":1726567782,"current_range_meters":30800,"station_id":"ce4bhbp2rcd13ifvqerg","pricing_plan_id":"cebpf4jnsgd1na2vs0mg"},{"bike_id":"d43a426c-9a99-47e4-a03d-ab01e52c4bcc","system_id":"levelo_inurba_marseille","lat":43.337444,"lon":5.374475,"is_reserved":false,"is_disabled":false,"rental_uris":{"android":"levelo://app?vid=d43a426c-9a99-47e4-a03d-ab01e52c4bcc","ios":"levelo://app?vid=d43a426c-9a99-47e4-a03d-ab01e52c4bcc"},"vehicle_type_id":"4","last_reported":1726567782,"current_range_meters":33600,"station_id":"ce4bh0h2rcd13ifvqd40","pricing_plan_id":"cebpf4jnsgd1na2vs0mg"},{"bike_id":"6f387a41-1a28-4619-ac86-26875678b81b","system_id":"levelo_inurba_marseille","lat":43.29899,"lon":5.43672,"is_reserved":false,"is_disabled":false,"rental_uris":{"android":"levelo://app?vid=6f387a41-1a28-4619-ac86-26875678b81b","ios":"levelo://app?vid=6f387a41-1a28-4619-ac86-26875678b81b"},"vehicle_type_id":"4","last_reported":1726567782,"current_range_meters":22400,"station_id":"ce4bhpp2rcd13ifvqhfg","pricing_plan_id":"cebpf4jnsgd1na2vs0mg"},{"bike_id":"9bab8e2f-4901-4f02-8d19-973a7dd11af6","system_id":"levelo_inurba_marseille","lat":43.23152,"lon":5.43712,"is_reserved":false,"is_disabled":false,"rental_uris":{"android":"levelo://app?vid=9bab8e2f-4901-4f02-8d19-973a7dd11af6","ios":"levelo://app?vid=9bab8e2f-4901-4f02-8d19-973a7dd11af6"},"vehicle_type_id":"4","last_reported":1726567782,"current_range_meters":8400,"station_id":"ce4bhmp2rcd13ifvqgog","pricing_plan_id":"cebpf4jnsgd1na2vs0mg"},{"bike_id":"ab2d364b-f3fd-4fbe-833b-e85a95033905","system_id":"levelo_inurba_marseille","lat":43.29265,"lon":5.36853,"is_reserved":false,"is_disabled":false,"rental_uris":{"android":"levelo://app?vid=ab2d364b-f3fd-4fbe-833b-e85a95033905","ios":"levelo://app?vid=ab2d364b-f3fd-4fbe-833b-e85a95033905"},"vehicle_type_id":"4","last_reported":1726567782,"current_range_meters":25200,"station_id":"ce4bhbp2rcd13ifvqesg","pricing_plan_id":"cebpf4jnsgd1na2vs0mg"},{"bike_id":"3c23ca04-0c66-4aec-8b86-28e81244eae7","system_id":"levelo_inurba_marseille","lat":43.24177,"lon":5.3973,"is_reserved":false,"is_disabled":false,"rental_uris":{"android":"levelo://app?vid=3c23ca04-0c66-4aec-8b86-28e81244eae7","ios":"levelo://app?vid=3c23ca04-0c66-4aec-8b86-28e81244eae7"},"vehicle_type_id":"4","last_reported":1726567782,"current_range_meters":3200,"station_id":"ce4bhn12rcd13ifvqgpg","pricing_plan_id":"cebpf4jnsgd1na2vs0mg"},