{"last_updated":1699135532,"ttl":30,"version":"2.2","data":{"bikes":[{"bike_id":"3d30e7cf-bbc7-49f6-b46d-c3ad8f3b4631","system_id":"levelo_inurba_marseille","lat":43.314811,"lon":5.373104,"is_reserved":false,"is_disabled":false,"rental_uris":{"android":"levelo://app?vid=3d30e7cf-bbc7-49f6-b46d-c3ad8f3b4631","ios":"levelo://app?vid=3d30e7cf-bbc7-49f6-b46d-c3ad8f3b4631"},"vehicle_type_id":"4","last_reported":1699135532,"current_range_meters":27600,"station_id":"ce4bgt12rcd13ifvqcd0","pricing_plan_id":"free"},{"bike_id":"b593343a-d96d-4e27-bbb5-245e99fc449c","system_id":"levelo_inurba_marseille","lat":43.314811,"lon":5.373103,"is_reserved":false,"is_disabled":false,"rental_uris":{"android":"levelo://app?vid=b593343a-d96d-4e27-bbb5-245e99fc449c","ios":"levelo://app?vid=b593343a-d96d-4e27-bbb5-245e99fc449c"},"vehicle_type_id":"4","last_reported":1699135532,"current_range_meters":4400,"station_id":"ce4bgt12rcd13ifvqcd0","pricing_plan_id":"free"},{"bike_id":"ecf5d389-efcd-455f-8933-f827b55f37db","system_id":"levelo_inurba_marseille","lat":43.314811,"lon":5.373103,"is_reserved":false,"is_disabled":false,"rental_uris":{"android":"levelo://app?vid=ecf5d389-efcd-455f-8933-f827b55f37db","ios":"levelo://app?vid=ecf5d389-efcd-455f-8933-f827b55f37db"},"vehicle_type_id":"4","last_reported":1699135532,"current_range_meters":6000,"station_id":"ce4bgt12rcd13ifvqcd0","pricing_plan_id":"free"},{"bike_id":"7a654ead-3448-4684-87f0-4fd250f53afa","system_id":"levelo_inurba_marseille","lat":43.314811,"lon":5.373103,"is_reserved":false,"is_disabled":false,"rental_uris":{"android":"levelo://app?vid=7a654ead-3448-4684-87f0-4fd250f53afa","ios":"levelo://app?vid=7a654ead-3448-4684-87f0-4fd250f53afa"},"vehicle_type_id":"4","last_reported":1699135532,"current_range_meters":18800,"station_id":"ce4bgt12rcd13ifvqcd0","pricing_plan_id":"free"},{"bike_id":"d1462378-7170-45b4-bc67-27e5075800f4","system_id":"levelo_inurba_marseille","lat":43.314811,"lon":5.373103,"is_reserved":false,"is_disabled":false,"rental_uris":{"android":"levelo://app?vid=d1462378-7170-45b4-bc67-27e5075800f4","ios":"levelo://app?vid=d1462378-7170-45b4-bc67-27e5075800f4"},"vehicle_type_id":"4","last_reported":1699135532,"current_range_meters":13200,"station_id":"ce4bgt12rcd13ifvqcd0","pricing_plan_id":"free"},{"bike_id":"4af69141-dc58-45fa-aec8-bc82cb0a1c88","system_id":"levelo_inurba_marseille","lat":43.31488,"lon":5.37309,"is_reserved":false,"is_disabled":false,"rental_uris":{"android":"levelo://app?vid=4af69141-dc58-45fa-aec8-bc82cb0a1c88","ios":"levelo://app?vid=4af69141-dc58-45fa-aec8-bc82cb0a1c88"},"vehicle_type_id":"4","last_reported":1699135532,"current_range_meters":18400,"station_id":"ce4bgt12rcd13ifvqcd0","pricing_plan_id":"free"},{"bike_id":"29a67d7e-e3fb-45a4-b66b-65cdbe35ed92","system_id":"levelo_inurba_marseille","lat":43.314811,"lon":5.373104,"is_reserved":false,"is_disabled":false,"rental_uris":{"android":"levelo://app?vid=29a67d7e-e3fb-45a4-b66b-65cdbe35ed92","ios":"levelo://app?vid=29a67d7e-e3fb-45a4-b66b-65cdbe35ed92"},"vehicle_type_id":"4","last_reported":1699135532,"current_range_meters":14400,"station_id":"ce4bgt12rcd13ifvqcd0","pricing_plan_id":"free"},{"bike_id":"7654d496-15f6-460d-8aaa-7eaa097202e7","system_id":"levelo_inurba_marseille","lat":43.318185,"lon":5.369194,"is_reserved":false,"is_disabled":false,"rental_uris":{"android":"levelo://app?vid=7654d496-15f6-460d-8aaa-7eaa097202e7","ios":"levelo://app?vid=7654d496-15f6-460d-8aaa-7eaa097202e7"},"vehicle_type_id":"4","last_reported":1699135532,"current_range_meters":21600,"station_id":"","pricing_plan_id":"free"},{"bike_id":"7f6d1821-d960-4aa5-81c2-8064a10d310c","system_id":"levelo_inurba_marseille","lat":43.31885,"lon":5.370823,"is_reserved":false,"is_disabled":false,"rental_uris":{"android":"levelo://app?vid=7f6d1821-d960-4aa5-81c2-8064a10d310c","ios":"levelo://app?vid=7f6d1821-d960-4aa5-81c2-8064a10d310c"},"vehicle_type_id":"4","last_reported":1699135532,"current_range_meters":8000,"station_id":"","pricing_plan_id":"free"},{"bike_id":"770aa8b0-74e4-477c-8cc4-fd5d552902a6","system_id":"levelo_inurba_marseille","lat":43.31669,"lon":5.37533,"is_reserved":false,"is_disabled":false,"rental_uris":{"android":"levelo://app?vid=770aa8b0-74e4-477c-8cc4-fd5d552902a6","ios":"levelo://app?vid=770aa8b0-74e4-477c-8cc4-fd5d552902a6"},"vehicle_type_id":"4","last_reported":1699135532,"current_range_meters":11600,"station_id":"","pricing_plan_id":"free"},{"bike_id":"f252b071-dddd-4e5f-ad07-506846af6d1a","system_id":"levelo_inurba_marseille","lat":43.305714,"lon":5.365633,"is_reserved":false,"is_disabled":false,"rental_uris":{"android":"levelo://app?vid=f252b071-dddd-4e5f-ad07-506846af6d1a","ios":"levelo://app?vid=f252b071-dddd-4e5f-ad07-506846af6d1a"},"vehicle_type_id":"4","last_reported":1699135532,"current_range_meters":30000,"station_id":"ce4bgs12rcd13ifvqcag","pricing_plan_id":"free"},{"bike_id":"60cf8c58-8af3-46ca-9b92-fa87bc2389cd","system_id":"levelo_inurba_marseille","lat":43.305989,"lon":5.37225,"is_reserved":false,"is_disabled":false,"rental_uris":{"android":"levelo://app?vid=60cf8c58-8af3-46ca-9b92-fa87bc2389cd","ios":"levelo://app?vid=60cf8c58-8af3-46ca-9b92-fa87bc2389cd"},"vehicle_type_id":"4","last_reported":1699135532,"current_range_meters":28400,"station_id":"ce4bgqh2rcd13ifvqc4g","pricing_plan_id":"free"},{"bike_id":"b07edc0a-15b7-4d92-a673-b73467be1ec1","system_id":"levelo_inurba_marseille","lat":43.30605,"lon":5.37227,"is_reserved":false,"is_disabled":false,"rental_uris":{"android":"levelo://app?vid=b07edc0a-15b7-4d92-a673-b73467be1ec1","ios":"levelo://app?vid=b07edc0a-15b7-4d92-a673-b73467be1ec1"},"vehicle_type_id":"4","last_reported":1699135532,"current_range_meters":18800,"station_id":"ce4bgqh2rcd13ifvqc4g","pricing_plan_id":"free"},{"bike_id":"c423a1ab-f5b1-4b36-b1f8-bbb795816d2f","system_id":"levelo_inurba_marseille","lat":43.311193,"lon":5.377612,"is_reserved":false,"is_disabled":false,"rental_uris":{"android":"levelo://app?vid=c423a1ab-f5b1-4b36-b1f8-bbb795816d2f","ios":"levelo://app?vid=c423a1ab-f5b1-4b36-b1f8-bbb795816d2f"},"vehicle_type_id":"4","last_reported":1699135532,"current_range_meters":0,"station_id":"ce4bgt92rcd13ifvqcg0","pricing_plan_id":"free"},{"bike_id":"9fbf07fa-0ea4-43d6-8ed6-82424e129746","system_id":"levelo_inurba_marseille","lat":43.320102,"lon":5.37217,"is_reserved":false,"is_disabled":false,"rental_uris":{"android":"levelo://app?vid=9fbf07fa-0ea4-43d6-8ed6-82424e129746","ios":"levelo://app?vid=9fbf07fa-0ea4-43d6-8ed6-82424e129746"},"vehicle_type_id":"4","last_reported":1699135532,"current_range_meters":4800,"station_id":"","pricing_plan_id":"free"},{"bike_id":"aae067d6-1e5e-4e1f-8bf6-dc4fbb2489db","system_id":"levelo_inurba_marseille","lat":43.307945,"lon":5.376487,"is_reserved":false,"is_disabled":false,"rental_uris":{"android":"levelo://app?vid=aae067d6-1e5e-4e1f-8bf6-dc4fbb2489db","ios":"levelo://app?vid=aae067d6-1e5e-4e1f-8bf6-dc4fbb2489db"},"vehicle_type_id":"4","last_reported":1699135532,"current_range_meters":20400,"station_id":"ce4bgv92rcd13ifvqcq0","pricing_plan_id":"free"},{"bike_id":"f2b1471d-61aa-454b-a759-7ac59047e33f","system_id":"levelo_inurba_marseille","lat":43.317075,"lon":5.377367,"is_reserved":false,"is_disabled":false,"rental_uris":{"android":"levelo://app?vid=f2b1471d-61aa-454b-a759-7ac59047e33f","ios":"levelo://app?vid=f2b1471d-61aa-454b-a759-7ac59047e33f"},"vehicle_type_id":"4","last_reported":1699135532,"current_range_meters":5600,"station_id":"ce4bgth2rcd13ifvqch0","pricing_plan_id":"free"},{"bike_id":"50f1378d-8771-414d-bcb8-53155a9081af","system_id":"levelo_inurba_marseille","lat":43.317075,"lon":5.377367,"is_reserved":false,"is_disabled":false,"rental_uris":{"android":"levelo://app?vid=50f1378d-8771-414d-bcb8-53155a9081af","ios":"levelo://app?vid=50f1378d-8771-414d-bcb8-53155a9081af"},"vehicle_type_id":"4","last_reported":1699135532,"current_range_meters":25200,"station_id":"ce4bgth2rcd13ifvqch0","pricing_plan_id":"free"},{"bike_id":"f8f41fa9-4280-45b4-835d-50bd11793926","system_id":"levelo_inurba_marseille","lat":43.30804,"lon":5.381427,"is_reserved":false,"is_disabled":false,"rental_uris":{"android":"levelo://app?vid=f8f41fa9-4280-45b4-835d-50bd11793926","ios":"levelo://app?vid=f8f41fa9-4280-45b4-835d-50bd11793926"},"vehicle_type_id":"4","last_reported":1699135532,"current_range_meters":4000,"station_id":"ce4bgt12rcd13ifvqce0","pricing_plan_id":"free"},{"bike_id":"7b67c1ef-27df-42bc-9089-6b10e1932d56","system_id":"levelo_inurba_marseille","lat":43.30797,"lon":5.38156,"is_reserved":false,"is_disabled":false,"rental_uris":{"android":"levelo://app?vid=7b67c1ef-27df-42bc-9089-6b10e1932d56","ios":"levelo://app?vid=7b67c1ef-27df-42bc-9089-6b10e1932d56"},"vehicle_type_id":"4","last_reported":1699135532,"current_range_meters":21600,"station_id":"ce4bgt12rcd13ifvqce0","pricing_plan_id":"free"},{"bike_id":"caa1777c-e273-4e92-aecb-a506369ae59f","system_id":"levelo_inurba_marseille","lat":43.308012,"lon":5.381511,"is_reserved":false,"is_disabled":false,"rental_uris":{"android":"levelo://app?vid=caa1777c-e273-4e92-aecb-a506369ae59f","ios":"levelo://app?vid=caa1777c-e273-4e92-aecb-a506369ae59f"},"vehicle_type_id":"4","last_reported":1699135532,"current_range_meters":18400,"station_id":"ce4bgt12rcd13ifvqce0","pricing_plan_id":"free"},{"bike_id":"4417582d-c2ca-40fe-a249-37e4da6d0b93","system_id":"levelo_inurba_marseille","lat":43.304606,"lon":5.379026,"is_reserved":false,"is_disabled":false,"rental_uris":{"android":"levelo://app?vid=4417582d-c2ca-40fe-a249-37e4da6d0b93","ios":"levelo://app?vid=4417582d-c2ca-40fe-a249-37e4da6d0b93"},"vehicle_type_id":"4","last_reported":1699135532,"current_range_meters":31200,"station_id":"ce4bgup2rcd13ifvqcn0","pricing_plan_id":"free"},{"bike_id":"e1fb9cb5-7800-48c3-9c1e-04e0402a52bd","system_id":"levelo_inurba_marseille","lat":43.324769,"lon":5.365553,"is_reserved":false,"is_disabled":false,"rental_uris":{"android":"levelo://app?vid=e1fb9cb5-7800-48c3-9c1e-04e0402a52bd","ios":"levelo://app?vid=e1fb9cb5-7800-48c3-9c1e-04e0402a52bd"},"vehicle_type_id":"4","last_reported":1699135532,"current_range_meters":21600,"station_id":"ce4bhs12rcd13ifvqhvg","pricing_plan_id":"free"},{"bike_id":"e8584f7f-3a22-4191-9ecd-5314ed574e4e","system_id":"levelo_inurba_marseille","lat":43.303586,"lon":5.377754,"is_reserved":false,"is_disabled":false,"rental_uris":{"android":"levelo://app?vid=e8584f7f-3a22-4191-9ecd-5314ed574e4e","ios":"levelo://app?vid=e8584f7f-3a22-4191-9ecd-5314ed574e4e"},"vehicle_type_id":"4","last_reported":1699135532,"current_range_meters":18000,"station_id":"","pricing_plan_id":"free"},{"bike_id":"0abc3a07-439b-4627-b7fe-577c3a686269","system_id":"levelo_inurba_marseille","lat":43.324796,"lon":5.365605,"is_reserved":false,"is_disabled":false,"rental_uris":{"android":"levelo://app?vid=0abc3a07-439b-4627-b7fe-577c3a686269","ios":"levelo://app?vid=0abc3a07-439b-4627-b7fe-577c3a686269"},"vehicle_type_id":"4","last_reported":1699135532,"current_range_meters":24800,"station_id":"ce4bhs12rcd13ifvqhvg","pricing_plan_id":"free"},{"bike_id":"c37a60ff-8992-4e74-8e8e-b094339c7ef0","system_id":"levelo_inurba_marseille","lat":43.32482,"lon":5.36575,"is_reserved":false,"is_disabled":false,"rental_uris":{"android":"levelo://app?vid=c37a60ff-8992-4e74-8e8e-b094339c7ef0","ios":"levelo://app?vid=c37a60ff-8992-4e74-8e8e-b094339c7ef0"},"vehicle_type_id":"4","last_reported":1699135532,"current_range_meters":17600,"station_id":"ce4bhs12rcd13ifvqhvg","pricing_plan_id":"free"},{"bike_id":"1561669a-0d1a-4eb7-98bb-dffd6d601ee5","system_id":"levelo_inurba_marseille","lat":43.32482,"lon":5.36566,"is_reserved":false,"is_disabled":false,"rental_uris":{"android":"levelo://app?vid=1561669a-0d1a-4eb7-98bb-dffd6d601ee5","ios":"levelo://app?vid=1561669a-0d1a-4eb7-98bb-dffd6d601ee5"},"vehicle_type_id":"4","last_reported":1699135532,"current_range_meters":3200,"station_id":"ce4bhs12rcd13ifvqhvg","pricing_plan_id":"free"},{"bike_id":"43b4afb6-742e-4852-9cfb-8c3678d7d688","system_id":"levelo_inurba_marseille","lat":43.302908,"lon":5.376979,"is_reserved":false,"is_disabled":false,"rental_uris":{"android":"levelo://app?vid=43b4afb6-742e-4852-9cfb-8c3678d7d688","ios":"levelo://app?vid=43b4afb6-742e-4852-9cfb-8c3678d7d688"},"vehicle_type_id":"4","last_reported":1699135532,"current_range_meters":28400,"station_id":"ce4bguh2rcd13ifvqcj0","pricing_plan_id":"free"},{"bike_id":"44278700-4370-4f7e-955a-34cba2f251b7","system_id":"levelo_inurba_marseille","lat":43.32172,"lon":5.37888,"is_reserved":false,"is_disabled":false,"rental_uris":{"android":"levelo://app?vid=44278700-4370-4f7e-955a-34cba2f251b7","ios":"levelo://app?vid=44278700-4370-4f7e-955a-34cba2f251b7"},"vehicle_type_id":"4","last_reported":1699135532,"current_range_meters":12400,"station_id":"ce4bhqp2rcd13ifvqhog","pricing_plan_id":"free"},{"bike_id":"cde09343-cb34-42b4-bd82-ba3dc99ca7a9","system_id":"levelo_inurba_marseille","lat":43.31541,"lon":5.38404,"is_reserved":false,"is_disabled":false,"rental_uris":{"android":"levelo://app?vid=cde09343-cb34-42b4-bd82-ba3dc99ca7a9","ios":"levelo://app?vid=cde09343-cb34-42b4-bd82-ba3dc99ca7a9"},"vehicle_type_id":"4","last_reported":1699135532,"current_range_meters":10800,"station_id":"ce4bhqp2rcd13ifvqhng","pricing_plan_id":"free"},{"bike_id":"3f2c2093-4a23-4121-b50d-71f37016ef76","system_id":"levelo_inurba_marseille","lat":43.314811,"lon":5.373103,"is_reserved":false,"is_disabled":false,"rental_uris":{"android":"levelo://app?vid=3f2c2093-4a23-4121-b50d-71f37016ef76","ios":"levelo://app?vid=3f2c2093-4a23-4121-b50d-71f37016ef76"},"vehicle_type_id":"4","last_reported":1699135532,"current_range_meters":22400,"station_id":"ce4bgt12rcd13ifvqcd0","pricing_plan_id":"free"},{"bike_id":"d0bf0c20-045d-4510-9acb-20cf3c31dec1","system_id":"levelo_inurba_marseille","lat":43.319957,"lon":5.381559,"is_reserved":false,"is_disabled":false,"rental_uris":{"android":"levelo://app?vid=d0bf0c20-045d-4510-9acb-20cf3c31dec1","ios":"levelo://app?vid=d0bf0c20-045d-4510-9acb-20cf3c31dec1"},"vehicle_type_id":"4","last_reported":1699135532,"current_range_meters":25200,"station_id":"ce4bhr12rcd13ifvqhpg","pricing_plan_id":"free"},{"bike_id":"26ba97eb-fe02-49db-9208-364e22877589","system_id":"levelo_inurba_marseille","lat":43.32005,"lon":5.38158,"is_reserved":false,"is_disabled":false,"rental_uris":{"android":"levelo://app?vid=26ba97eb-fe02-49db-9208-364e22877589","ios":"levelo://app?vid=26ba97eb-fe02-49db-9208-364e22877589"},"vehicle_type_id":"4","last_reported":1699135532,"current_range_meters":0,"station_id":"ce4bhr12rcd13ifvqhpg","pricing_plan_id":"free"},{"bike_id":"d4fde68d-313b-4708-a891-c9ab7c6dca2e","system_id":"levelo_inurba_marseille","lat":43.313571,"lon":5.384829,"is_reserved":false,"is_disabled":false,"rental_uris":{"android":"levelo://app?vid=d4fde68d-313b-4708-a891-c9ab7c6dca2e","ios":"levelo://app?vid=d4fde68d-313b-4708-a891-c9ab7c6dca2e"},"vehicle_type_id":"4","last_reported":1699135532,"current_range_meters":11600,"station_id":"ce4bgt92rcd13ifvqcf0","pricing_plan_id":"free"},{"bike_id":"fd859085-28a6-4d57-8a15-d418cab3b5e2","system_id":"levelo_inurba_marseille","lat":43.313571,"lon":5.384829,"is_reserved":false,"is_disabled":false,"rental_uris":{"android":"levelo://app?vid=fd859085-28a6-4d57-8a15-d418cab3b5e2","ios":"levelo://app?vid=fd859085-28a6-4d57-8a15-d418cab3b5e2"},"vehicle_type_id":"4","last_reported":1699135532,"current_range_meters":400,"station_id":"ce4bgt92rcd13ifvqcf0","pricing_plan_id":"free"},{"bike_id":"0d85b41b-4af0-43b6-bdb2-016ebf13a0e6","system_id":"levelo_inurba_marseille","lat":43.313571,"lon":5.384829,"is_reserved":false,"is_disabled":false,"rental_uris":{"android":"levelo://app?vid=0d85b41b-4af0-43b6-bdb2-016ebf13a0e6","ios":"levelo://app?vid=0d85b41b-4af0-43b6-bdb2-016ebf13a0e6"},"vehicle_type_id":"4","last_reported":1699135532,"current_range_meters":14000,"station_id":"ce4bgt92rcd13ifvqcf0","pricing_plan_id":"free"},{"bike_id":"790e3476-672e-4d0d-a828-38f5974b1996","system_id":"levelo_inurba_marseille","lat":43.313571,"lon":5.384829,"is_reserved":false,"is_disabled":false,"rental_uris":{"android":"levelo://app?vid=790e3476-672e-4d0d-a828-38f5974b1996","ios":"levelo://app?vid=790e3476-672e-4d0d-a828-38f5974b1996"},"vehicle_type_id":"4","last_reported":1699135532,"current_range_meters":24800,"station_id":"ce4bgt92rcd13ifvqcf0","pricing_plan_id":"free"},{"bike_id":"92285031-ad3f-4afa-825b-c2afd5dc93a7","system_id":"levelo_inurba_marseille","lat":43.313571,"lon":5.384829,"is_reserved":false,"is_disabled":false,"rental_uris":{"android":"levelo://app?vid=92285031-ad3f-4afa-825b-c2afd5dc93a7","ios":"levelo://app?vid=92285031-ad3f-4afa-825b-c2afd5dc93a7"},"vehicle_type_id":"4","last_reported":1699135532,"current_range_meters":23600,"station_id":"ce4bgt92rcd13ifvqcf0","pricing_plan_id":"free"},{"bike_id":"edc4e89c-7fed-4faa-bb0f-d206d66c1463","system_id":"levelo_inurba_marseille","lat":43.313571,"lon":5.384829,"is_reserved":false,"is_disabled":false,"rental_uris":{"android":"levelo://app?vid=edc4e89c-7fed-4faa-bb0f-d206d66c1463","ios":"levelo://app?vid=edc4e89c-7fed-4faa-bb0f-d206d66c1463"},"vehicle_type_id":"4","last_reported":1699135532,"current_range_meters":4800,"station_id":"ce4bgt92rcd13ifvqcf0","pricing_plan_id":"free"},{"bike_id":"a229adbb-a3fa-4e90-a57a-b4e289f240d4","system_id":"levelo_inurba_marseille","lat":43.299852,"lon":5.371833,"is_reserved":false,"is_disabled":false,"rental_uris":{"android":"levelo://app?vid=a229adbb-a3fa-4e90-a57a-b4e289f240d4","ios":"levelo://app?vid=a229adbb-a3fa-4e90-a57a-b4e289f240d4"},"vehicle_type_id":"4","last_reported":1699135532,"current_range_meters":14800,"station_id":"ce4bgh92rcd13ifvqb50","pricing_plan_id":"free"},{"bike_id":"10919331-8d60-4351-8332-63658c62f88c","system_id":"levelo_inurba_marseille","lat":43.299222,"lon":5.365554,"is_reserved":false,"is_disabled":false,"rental_uris":{"android":"levelo://app?vid=10919331-8d60-4351-8332-63658c62f88c","ios":"levelo://app?vid=10919331-8d60-4351-8332-63658c62f88c"},"vehicle_type_id":"4","last_reported":1699135532,"current_range_meters":2800,"station_id":"ce4bgm92rcd13ifvqbr0","pricing_plan_id":"free"},{"bike_id":"1c2c73ff-4601-4f33-b97f-da95bc589609","system_id":"levelo_inurba_marseille","lat":43.32148,"lon":5.38202,"is_reserved":false,"is_disabled":false,"rental_uris":{"android":"levelo://app?vid=1c2c73ff-4601-4f33-b97f-da95bc589609","ios":"levelo://app?vid=1c2c73ff-4601-4f33-b97f-da95bc589609"},"vehicle_type_id":"4","last_reported":1699135532,"current_range_meters":19200,"station_id":"","pricing_plan_id":"free"},{"bike_id":"cffe800b-8e46-4367-92e9-d9a0f2cba0f2","system_id":"levelo_inurba_marseille","lat":43.299626,"lon":5.375372,"is_reserved":false,"is_disabled":false,"rental_uris":{"android":"levelo://app?vid=cffe800b-8e46-4367-92e9-d9a0f2cba0f2","ios":"levelo://app?vid=cffe800b-8e46-4367-92e9-d9a0f2cba0f2"},"vehicle_type_id":"4","last_reported":1699135532,"current_range_meters":24800,"station_id":"ce4bgjh2rcd13ifvqbg0","pricing_plan_id":"free"},{"bike_id":"9144896c-5e61-4e3c-a154-47857038a0bc","system_id":"levelo_inurba_marseille","lat":43.298433,"lon":5.362774,"is_reserved":false,"is_disabled":false,"rental_uris":{"android":"levelo://app?vid=9144896c-5e61-4e3c-a154-47857038a0bc","ios":"levelo://app?vid=9144896c-5e61-4e3c-a154-47857038a0bc"},"vehicle_type_id":"4","last_reported":1699135532,"current_range_meters":3600,"station_id":"ce4bgpp2rcd13ifvqc3g","pricing_plan_id":"free"},{"bike_id":"a34f0846-22cb-4a44-bfe9-4e8a1395acb1","system_id":"levelo_inurba_marseille","lat":43.305364,"lon":5.384119,"is_reserved":false,"is_disabled":false,"rental_uris":{"android":"levelo://app?vid=a34f0846-22cb-4a44-bfe9-4e8a1395acb1","ios":"levelo://app?vid=a34f0846-22cb-4a44-bfe9-4e8a1395acb1"},"vehicle_type_id":"4","last_reported":1699135532,"current_range_meters":400,"station_id":"ce4bgg92rcd13ifvqb30","pricing_plan_id":"free"},{"bike_id":"cedde44d-d44e-4be4-85ec-6d21a5cdb010","system_id":"levelo_inurba_marseille","lat":43.305364,"lon":5.384119,"is_reserved":false,"is_disabled":false,"rental_uris":{"android":"levelo://app?vid=cedde44d-d44e-4be4-85ec-6d21a5cdb010","ios":"levelo://app?vid=cedde44d-d44e-4be4-85ec-6d21a5cdb010"},"vehicle_type_id":"4","last_reported":1699135532,"current_range_meters":16400,"station_id":"ce4bgg92rcd13ifvqb30","pricing_plan_id":"free"},{"bike_id":"72d4f86f-73ae-4243-8c09-bf86e6d8b2be","system_id":"levelo_inurba_marseille","lat":43.298433,"lon":5.362774,"is_reserved":false,"is_disabled":false,"rental_uris":{"android":"levelo://app?vid=72d4f86f-73ae-4243-8c09-bf86e6d8b2be","ios":"levelo://app?vid=72d4f86f-73ae-4243-8c09-bf86e6d8b2be"},"vehicle_type_id":"4","last_reported":1699135532,"current_range_meters":28800,"station_id":"ce4bgpp2rcd13ifvqc3g","pricing_plan_id":"free"},{"bike_id":"3f792c02-e0d0-4aac-a136-3586b6fe6f67","system_id":"levelo_inurba_marseille","lat":43.298433,"lon":5.362774,"is_reserved":false,"is_disabled":false,"rental_uris":{"android":"levelo://app?vid=3f792c02-e0d0-4aac-a136-3586b6fe6f67","ios":"levelo://app?vid=3f792c02-e0d0-4aac-a136-3586b6fe6f67"},"vehicle_type_id":"4","last_reported":1699135532,"current_range_meters":27600,"station_id":"ce4bgpp2rcd13ifvqc3g","pricing_plan_id":"free"},{"bike_id":"f0dde5d8-ab7b-4e58-ad90-cbf6e3a5f82e","system_id":"levelo_inurba_marseille","lat":43.311722,"lon":5.387247,"is_reserved":false,"is_disabled":false,"rental_uris":{"android":"levelo://app?vid=f0dde5d8-ab7b-4e58-ad90-cbf6e3a5f82e","ios":"levelo://app?vid=f0dde5d8-ab7b-4e58-ad90-cbf6e3a5f82e"},"vehicle_type_id":"4","last_reported":1699135532,"current_range_meters":10800,"station_id":"ce4bgv12rcd13ifvqcp0","pricing_plan_id":"free"},{"bike_id":"7d8e9fc7-08bc-475a-8635-9ec58daeaa38","system_id":"levelo_inurba_marseille","lat":43.311722,"lon":5.387247,"is_reserved":false,"is_disabled":false,"rental_uris":{"android":"levelo://app?vid=7d8e9fc7-08bc-475a-8635-9ec58daeaa38","ios":"levelo://app?vid=7d8e9fc7-08bc-475a-8635-9ec58daeaa38"},"vehicle_type_id":"4","last_reported":1699135532,"current_range_meters":19600,"station_id":"ce4bgv12rcd13ifvqcp0","pricing_plan_id":"free"},{"bike_id":"ee04e5cc-451d-44b6-bca0-cfc749a45964","system_id":"levelo_inurba_marseille","lat":43.322872,"lon":5.382756,"is_reserved":false,"is_disabled":false,"rental_uris":{"android":"levelo://app?vid=ee04e5cc-451d-44b6-bca0-cfc749a45964","ios":"levelo://app?vid=ee04e5cc-451d-44b6-bca0-cfc749a45964"},"vehicle_type_id":"4","last_reported":1699135532,"current_range_meters":27600,"station_id":"ce4bhr12rcd13ifvqhqg","pricing_plan_id":"free"},{"bike_id":"3d07706a-9aac-42e1-baa4-4e129dd27e78","system_id":"levelo_inurba_marseille","lat":43.322872,"lon":5.382756,"is_reserved":false,"is_disabled":false,"rental_uris":{"android":"levelo://app?vid=3d07706a-9aac-42e1-baa4-4e129dd27e78","ios":"levelo://app?vid=3d07706a-9aac-42e1-baa4-4e129dd27e78"},"vehicle_type_id":"4","last_reported":1699135532,"current_range_meters":12000,"station_id":"ce4bhr12rcd13ifvqhqg","pricing_plan_id":"free"},{"bike_id":"7af947a6-cf45-4409-8f3d-3cecf979aa00","system_id":"levelo_inurba_marseille","lat":43.322872,"lon":5.382756,"is_reserved":false,"is_disabled":false,"rental_uris":{"android":"levelo://app?vid=7af947a6-cf45-4409-8f3d-3cecf979aa00","ios":"levelo://app?vid=7af947a6-cf45-4409-8f3d-3cecf979aa00"},"vehicle_type_id":"4","last_reported":1699135532,"current_range_meters":16000,"station_id":"ce4bhr12rcd13ifvqhqg","pricing_plan_id":"free"},{"bike_id":"62a36822-f960-421c-87ff-6a7d6c9e1351","system_id":"levelo_inurba_marseille","lat":43.322872,"lon":5.382756,"is_reserved":false,"is_disabled":false,"rental_uris":{"android":"levelo://app?vid=62a36822-f960-421c-87ff-6a7d6c9e1351","ios":"levelo://app?vid=62a36822-f960-421c-87ff-6a7d6c9e1351"},"vehicle_type_id":"4","last_reported":1699135532,"current_range_meters":31600,"station_id":"ce4bhr12rcd13ifvqhqg","pricing_plan_id":"free"},{"bike_id":"04d0d730-0d72-4b77-bea7-5e49897a16f5","system_id":"levelo_inurba_marseille","lat":43.322872,"lon":5.382756,"is_reserved":false,"is_disabled":false,"rental_uris":{"android":"levelo://app?vid=04d0d730-0d72-4b77-bea7-5e49897a16f5","ios":"levelo://app?vid=04d0d730-0d72-4b77-bea7-5e49897a16f5"},"vehicle_type_id":"4","last_reported":1699135532,"current_range_meters":18000,"station_id":"ce4bhr12rcd13ifvqhqg","pricing_plan_id":"free"},{"bike_id":"c9428514-9197-4976-812b-d61139ef9187","system_id":"levelo_inurba_marseille","lat":43.318846,"lon":5.386473,"is_reserved":false,"is_disabled":false,"rental_uris":{"android":"levelo://app?vid=c9428514-9197-4976-812b-d61139ef9187","ios":"levelo://app?vid=c9428514-9197-4976-812b-d61139ef9187"},"vehicle_type_id":"4","last_reported":1699135532,"current_range_meters":7600,"station_id":"","pricing_plan_id":"free"},{"bike_id":"5e23671e-c794-40d1-b294-e98d77f3dc0a","system_id":"levelo_inurba_marseille","lat":43.328275,"lon":5.366918,"is_reserved":false,"is_disabled":false,"rental_uris":{"android":"levelo://app?vid=5e23671e-c794-40d1-b294-e98d77f3dc0a","ios":"levelo://app?vid=5e23671e-c794-40d1-b294-e98d77f3dc0a"},"vehicle_type_id":"4","last_reported":1699135532,"current_range_meters":11600,"station_id":"ce4bhs92rcd13ifvqi0g","pricing_plan_id":"free"},{"bike_id":"6b16d2be-585d-43cf-8fdc-d22349c28d9d","system_id":"levelo_inurba_marseille","lat":43.32829,"lon":5.36671,"is_reserved":false,"is_disabled":false,"rental_uris":{"android":"levelo://app?vid=6b16d2be-585d-43cf-8fdc-d22349c28d9d","ios":"levelo://app?vid=6b16d2be-585d-43cf-8fdc-d22349c28d9d"},"vehicle_type_id":"4","last_reported":1699135532,"current_range_meters":29600,"station_id":"ce4bhs92rcd13ifvqi0g","pricing_plan_id":"free"},{"bike_id":"42177561-1db9-409f-84e1-0e1afcd8aeb3","system_id":"levelo_inurba_marseille","lat":43.32832,"lon":5.36683,"is_reserved":false,"is_disabled":false,"rental_uris":{"android":"levelo://app?vid=42177561-1db9-409f-84e1-0e1afcd8aeb3","ios":"levelo://app?vid=42177561-1db9-409f-84e1-0e1afcd8aeb3"},"vehicle_type_id":"4","last_reported":1699135532,"current_range_meters":24800,"station_id":"ce4bhs92rcd13ifvqi0g","pricing_plan_id":"free"},{"bike_id":"bbd1880c-75ee-4cd6-a747-3e00db1b758b","system_id":"levelo_inurba_marseille","lat":43.328323,"lon":5.366765,"is_reserved":false,"is_disabled":false,"rental_uris":{"android":"levelo://app?vid=bbd1880c-75ee-4cd6-a747-3e00db1b758b","ios":"levelo://app?vid=bbd1880c-75ee-4cd6-a747-3e00db1b758b"},"vehicle_type_id":"4","last_reported":1699135532,"current_range_meters":4000,"station_id":"ce4bhs92rcd13ifvqi0g","pricing_plan_id":"free"},{"bike_id":"8ddce3be-8c56-444b-96e9-566f4ce84b5b","system_id":"levelo_inurba_marseille","lat":43.328509,"lon":5.366776,"is_reserved":false,"is_disabled":false,"rental_uris":{"android":"levelo://app?vid=8ddce3be-8c56-444b-96e9-566f4ce84b5b","ios":"levelo://app?vid=8ddce3be-8c56-444b-96e9-566f4ce84b5b"},"vehicle_type_id":"4","last_reported":1699135532,"current_range_meters":0,"station_id":"ce4bhs92rcd13ifvqi0g","pricing_plan_id":"free"},{"bike_id":"67bb7dbe-50ea-4249-bc98-d0ad4814b4a6","system_id":"levelo_inurba_marseille","lat":43.321453,"lon":5.385595,"is_reserved":false,"is_disabled":false,"rental_uris":{"android":"levelo://app?vid=67bb7dbe-50ea-4249-bc98-d0ad4814b4a6","ios":"levelo://app?vid=67bb7dbe-50ea-4249-bc98-d0ad4814b4a6"},"vehicle_type_id":"4","last_reported":1699135532,"current_range_meters":17200,"station_id":"","pricing_plan_id":"free"},{"bike_id":"ac64cfce-5505-455a-9537-62af5dd3a90a","system_id":"levelo_inurba_marseille","lat":43.32355,"lon":5.38416,"is_reserved":false,"is_disabled":false,"rental_uris":{"android":"levelo://app?vid=ac64cfce-5505-455a-9537-62af5dd3a90a","ios":"levelo://app?vid=ac64cfce-5505-455a-9537-62af5dd3a90a"},"vehicle_type_id":"4","last_reported":1699135532,"current_range_meters":19200,"station_id":"","pricing_plan_id":"free"},{"bike_id":"f4f1112f-25d1-4f54-991e-442fac6eee83","system_id":"levelo_inurba_marseille","lat":43.296131,"lon":5.370791,"is_reserved":false,"is_disabled":false,"rental_uris":{"android":"levelo://app?vid=f4f1112f-25d1-4f54-991e-442fac6eee83","ios":"levelo://app?vid=f4f1112f-25d1-4f54-991e-442fac6eee83"},"vehicle_type_id":"4","last_reported":1699135532,"current_range_meters":18400,"station_id":"ce4bgnh2rcd13ifvqc0g","pricing_plan_id":"free"},{"bike_id":"5a3e4389-a6dc-483b-abd6-709292f6e071","system_id":"levelo_inurba_marseille","lat":43.295873,"lon":5.367139,"is_reserved":false,"is_disabled":false,"rental_uris":{"android":"levelo://app?vid=5a3e4389-a6dc-483b-abd6-709292f6e071","ios":"levelo://app?vid=5a3e4389-a6dc-483b-abd6-709292f6e071"},"vehicle_type_id":"4","last_reported":1699135532,"current_range_meters":13600,"station_id":"ce4bgph2rcd13ifvqc2g","pricing_plan_id":"free"},{"bike_id":"b9771263-9118-4157-bc74-7f738c7e9dd8","system_id":"levelo_inurba_marseille","lat":43.296131,"lon":5.370773,"is_reserved":false,"is_disabled":false,"rental_uris":{"android":"levelo://app?vid=b9771263-9118-4157-bc74-7f738c7e9dd8","ios":"levelo://app?vid=b9771263-9118-4157-bc74-7f738c7e9dd8"},"vehicle_type_id":"4","last_reported":1699135532,"current_range_meters":28400,"station_id":"ce4bgnh2rcd13ifvqc0g","pricing_plan_id":"free"},{"bike_id":"ebc830f4-f3bb-4542-b5df-749f8257a03b","system_id":"levelo_inurba_marseille","lat":43.309589,"lon":5.390258,"is_reserved":false,"is_disabled":false,"rental_uris":{"android":"levelo://app?vid=ebc830f4-f3bb-4542-b5df-749f8257a03b","ios":"levelo://app?vid=ebc830f4-f3bb-4542-b5df-749f8257a03b"},"vehicle_type_id":"4","last_reported":1699135532,"current_range_meters":31200,"station_id":"ce4bgup2rcd13ifvqco0","pricing_plan_id":"free"},{"bike_id":"4115c1b0-d9bf-420c-829c-3f024b7fb140","system_id":"levelo_inurba_marseille","lat":43.309589,"lon":5.390258,"is_reserved":false,"is_disabled":false,"rental_uris":{"android":"levelo://app?vid=4115c1b0-d9bf-420c-829c-3f024b7fb140","ios":"levelo://app?vid=4115c1b0-d9bf-420c-829c-3f024b7fb140"},"vehicle_type_id":"4","last_reported":1699135532,"current_range_meters":17600,"station_id":"ce4bgup2rcd13ifvqco0","pricing_plan_id":"free"},{"bike_id":"abfa4507-08c6-4745-b06d-9027d786d36e","system_id":"levelo_inurba_marseille","lat":43.317557,"lon":5.390173,"is_reserved":false,"is_disabled":false,"rental_uris":{"android":"levelo://app?vid=abfa4507-08c6-4745-b06d-9027d786d36e","ios":"levelo://app?vid=abfa4507-08c6-4745-b06d-9027d786d36e"},"vehicle_type_id":"4","last_reported":1699135532,"current_range_meters":28800,"station_id":"ce4bhqp2rcd13ifvqhng","pricing_plan_id":"free"},{"bike_id":"cdcacba5-daa9-47a6-9479-8d83e7d3cd5a","system_id":"levelo_inurba_marseille","lat":43.297972,"lon":5.380903,"is_reserved":false,"is_disabled":false,"rental_uris":{"android":"levelo://app?vid=cdcacba5-daa9-47a6-9479-8d83e7d3cd5a","ios":"levelo://app?vid=cdcacba5-daa9-47a6-9479-8d83e7d3cd5a"},"vehicle_type_id":"4","last_reported":1699135532,"current_range_meters":12000,"station_id":"ce4bgip2rcd13ifvqbb0","pricing_plan_id":"free"},{"bike_id":"e536cd18-f265-422b-a0b7-b32e552c1541","system_id":"levelo_inurba_marseille","lat":43.2958,"lon":5.375033,"is_reserved":false,"is_disabled":false,"rental_uris":{"android":"levelo://app?vid=e536cd18-f265-422b-a0b7-b32e552c1541","ios":"levelo://app?vid=e536cd18-f265-422b-a0b7-b32e552c1541"},"vehicle_type_id":"4","last_reported":1699135532,"current_range_meters":0,"station_id":"ce4bgh92rcd13ifvqb50","pricing_plan_id":"free"},{"bike_id":"34373ca6-4312-4e03-8d8e-1db748c58418","system_id":"levelo_inurba_marseille","lat":43.304274,"lon":5.388873,"is_reserved":false,"is_disabled":false,"rental_uris":{"android":"levelo://app?vid=34373ca6-4312-4e03-8d8e-1db748c58418","ios":"levelo://app?vid=34373ca6-4312-4e03-8d8e-1db748c58418"},"vehicle_type_id":"4","last_reported":1699135532,"current_range_meters":5200,"station_id":"ce4bgk12rcd13ifvqbi0","pricing_plan_id":"free"},{"bike_id":"604b66f2-3885-4c72-b2b5-68468e6634d6","system_id":"levelo_inurba_marseille","lat":43.304278,"lon":5.388868,"is_reserved":false,"is_disabled":false,"rental_uris":{"android":"levelo://app?vid=604b66f2-3885-4c72-b2b5-68468e6634d6","ios":"levelo://app?vid=604b66f2-3885-4c72-b2b5-68468e6634d6"},"vehicle_type_id":"4","last_reported":1699135532,"current_range_meters":21600,"station_id":"ce4bgk12rcd13ifvqbi0","pricing_plan_id":"free"},{"bike_id":"5a9d742f-8571-40d9-9e74-4e16e76d3425","system_id":"levelo_inurba_marseille","lat":43.296069,"lon":5.377161,"is_reserved":false,"is_disabled":false,"rental_uris":{"android":"levelo://app?vid=5a9d742f-8571-40d9-9e74-4e16e76d3425","ios":"levelo://app?vid=5a9d742f-8571-40d9-9e74-4e16e76d3425"},"vehicle_type_id":"4","last_reported":1699135532,"current_range_meters":0,"station_id":"ce4bgi92rcd13ifvqb90","pricing_plan_id":"free"},{"bike_id":"1b41df22-fd68-4bfd-8dfd-770969b5071f","system_id":"levelo_inurba_marseille","lat":43.299724,"lon":5.384848,"is_reserved":false,"is_disabled":false,"rental_uris":{"android":"levelo://app?vid=1b41df22-fd68-4bfd-8dfd-770969b5071f","ios":"levelo://app?vid=1b41df22-fd68-4bfd-8dfd-770969b5071f"},"vehicle_type_id":"4","last_reported":1699135532,"current_range_meters":2800,"station_id":"ce4bgj92rcd13ifvqbd0","pricing_plan_id":"free"},{"bike_id":"ae68a53f-76b8-453b-94d2-5a4c17529369","system_id":"levelo_inurba_marseille","lat":43.299717,"lon":5.384845,"is_reserved":false,"is_disabled":false,"rental_uris":{"android":"levelo://app?vid=ae68a53f-76b8-453b-94d2-5a4c17529369","ios":"levelo://app?vid=ae68a53f-76b8-453b-94d2-5a4c17529369"},"vehicle_type_id":"4","last_reported":1699135532,"current_range_meters":16000,"station_id":"ce4bgj92rcd13ifvqbd0","pricing_plan_id":"free"},{"bike_id":"d1c8e341-7c68-4d0a-94c7-5c4be06ab1f8","system_id":"levelo_inurba_marseille","lat":43.299717,"lon":5.384845,"is_reserved":false,"is_disabled":false,"rental_uris":{"android":"levelo://app?vid=d1c8e341-7c68-4d0a-94c7-5c4be06ab1f8","ios":"levelo://app?vid=d1c8e341-7c68-4d0a-94c7-5c4be06ab1f8"},"vehicle_type_id":"4","last_reported":1699135532,"current_range_meters":13600,"station_id":"ce4bgj92rcd13ifvqbd0","pricing_plan_id":"free"},{"bike_id":"1f580447-7b2c-4630-9a51-33e28281b372","system_id":"levelo_inurba_marseille","lat":43.329065,"lon":5.379814,"is_reserved":false,"is_disabled":false,"rental_uris":{"android":"levelo://app?vid=1f580447-7b2c-4630-9a51-33e28281b372","ios":"levelo://app?vid=1f580447-7b2c-4630-9a51-33e28281b372"},"vehicle_type_id":"4","last_reported":1699135532,"current_range_meters":14400,"station_id":"","pricing_plan_id":"free"},{"bike_id":"ecf94d7b-2238-4a61-8042-e3febbffae63","system_id":"levelo_inurba_marseille","lat":43.299323,"lon":5.385518,"is_reserved":false,"is_disabled":false,"rental_uris":{"android":"levelo://app?vid=ecf94d7b-2238-4a61-8042-e3febbffae63","ios":"levelo://app?vid=ecf94d7b-2238-4a61-8042-e3febbffae63"},"vehicle_type_id":"4","last_reported":1699135532,"current_range_meters":26800,"station_id":"","pricing_plan_id":"free"},{"bike_id":"63431ec2-229a-4699-b315-44ffac446618","system_id":"levelo_inurba_marseille","lat":43.323672,"lon":5.388841,"is_reserved":false,"is_disabled":false,"rental_uris":{"android":"levelo://app?vid=63431ec2-229a-4699-b315-44ffac446618","ios":"levelo://app?vid=63431ec2-229a-4699-b315-44ffac446618"},"vehicle_type_id":"4","last_reported":1699135532,"current_range_meters":14000,"station_id":"ce4bhqp2rcd13ifvqhog","pricing_plan_id":"free"},{"bike_id":"547a7cfc-5b52-446d-9105-ee3d3597290f","system_id":"levelo_inurba_marseille","lat":43.33055,"lon":5.37881,"is_reserved":false,"is_disabled":false,"rental_uris":{"android":"levelo://app?vid=547a7cfc-5b52-446d-9105-ee3d3597290f","ios":"levelo://app?vid=547a7cfc-5b52-446d-9105-ee3d3597290f"},"vehicle_type_id":"4","last_reported":1699135532,"current_range_meters":24800,"station_id":"","pricing_plan_id":"free"},{"bike_id":"3112e0a2-40a1-4d8b-b016-c2984427f828","system_id":"levelo_inurba_marseille","lat":43.305994,"lon":5.393687,"is_reserved":false,"is_disabled":false,"rental_uris":{"android":"levelo://app?vid=3112e0a2-40a1-4d8b-b016-c2984427f828","ios":"levelo://app?vid=3112e0a2-40a1-4d8b-b016-c2984427f828"},"vehicle_type_id":"4","last_reported":1699135532,"current_range_meters":6800,"station_id":"ce4bh0p2rcd13ifvqd80","pricing_plan_id":"free"},{"bike_id":"95b38f76-361d-45af-93a5-4380100f8206","system_id":"levelo_inurba_marseille","lat":43.305994,"lon":5.393687,"is_reserved":false,"is_disabled":false,"rental_uris":{"android":"levelo://app?vid=95b38f76-361d-45af-93a5-4380100f8206","ios":"levelo://app?vid=95b38f76-361d-45af-93a5-4380100f8206"},"vehicle_type_id":"4","last_reported":1699135532,"current_range_meters":31600,"station_id":"ce4bh0p2rcd13ifvqd80","pricing_plan_id":"free"},{"bike_id":"f3136d95-032b-4647-aef9-cc6f9d338e23","system_id":"levelo_inurba_marseille","lat":43.305994,"lon":5.393687,"is_reserved":false,"is_disabled":false,"rental_uris":{"android":"levelo://app?vid=f3136d95-032b-4647-aef9-cc6f9d338e23","ios":"levelo://app?vid=f3136d95-032b-4647-aef9-cc6f9d338e23"},"vehicle_type_id":"4","last_reported":1699135532,"current_range_meters":20800,"station_id":"ce4bh0p2rcd13ifvqd80","pricing_plan_id":"free"},{"bike_id":"7276a6d1-0321-48b8-b11a-de1b0a79fbea","system_id":"levelo_inurba_marseille","lat":43.302992,"lon":5.392136,"is_reserved":false,"is_disabled":false,"rental_uris":{"android":"levelo://app?vid=7276a6d1-0321-48b8-b11a-de1b0a79fbea","ios":"levelo://app?vid=7276a6d1-0321-48b8-b11a-de1b0a79fbea"},"vehicle_type_id":"4","last_reported":1699135532,"current_range_meters":3600,"station_id":"ce4bgkh2rcd13ifvqbk0","pricing_plan_id":"free"},{"bike_id":"1f6d0e6a-8990-4558-8076-65ec62e1662e","system_id":"levelo_inurba_marseille","lat":43.302992,"lon":5.392136,"is_reserved":false,"is_disabled":false,"rental_uris":{"android":"levelo://app?vid=1f6d0e6a-8990-4558-8076-65ec62e1662e","ios":"levelo://app?vid=1f6d0e6a-8990-4558-8076-65ec62e1662e"},"vehicle_type_id":"4","last_reported":1699135532,"current_range_meters":24800,"station_id":"ce4bgkh2rcd13ifvqbk0","pricing_plan_id":"free"},{"bike_id":"ecd5fcfb-e675-41c4-803e-df009ca85e60","system_id":"levelo_inurba_marseille","lat":43.309833,"lon":5.395443,"is_reserved":false,"is_disabled":false,"rental_uris":{"android":"levelo://app?vid=ecd5fcfb-e675-41c4-803e-df009ca85e60","ios":"levelo://app?vid=ecd5fcfb-e675-41c4-803e-df009ca85e60"},"vehicle_type_id":"4","last_reported":1699135532,"current_range_meters":12000,"station_id":"","pricing_plan_id":"free"},{"bike_id":"1575422b-f99f-4525-ab00-681f712b3765","system_id":"levelo_inurba_marseille","lat":43.3331,"lon":5.35949,"is_reserved":false,"is_disabled":false,"rental_uris":{"android":"levelo://app?vid=1575422b-f99f-4525-ab00-681f712b3765","ios":"levelo://app?vid=1575422b-f99f-4525-ab00-681f712b3765"},"vehicle_type_id":"4","last_reported":1699135532,"current_range_meters":11600,"station_id":"","pricing_plan_id":"free"},{"bike_id":"d797f1e6-f3ca-4ad7-8b56-5ed6191da53c","system_id":"levelo_inurba_marseille","lat":43.292663,"lon":5.376389,"is_reserved":false,"is_disabled":false,"rental_uris":{"android":"levelo://app?vid=d797f1e6-f3ca-4ad7-8b56-5ed6191da53c","ios":"levelo://app?vid=d797f1e6-f3ca-4ad7-8b56-5ed6191da53c"},"vehicle_type_id":"4","last_reported":1699135532,"current_range_meters":31200,"station_id":"ce4bgi12rcd13ifvqb80","pricing_plan_id":"free"},{"bike_id":"0e8233d2-0d57-470f-8c07-e9f753046a4f","system_id":"levelo_inurba_marseille","lat":43.33217,"lon":5.3788,"is_reserved":false,"is_disabled":false,"rental_uris":{"android":"levelo://app?vid=0e8233d2-0d57-470f-8c07-e9f753046a4f","ios":"levelo://app?vid=0e8233d2-0d57-470f-8c07-e9f753046a4f"},"vehicle_type_id":"4","last_reported":1699135532,"current_range_meters":11600,"station_id":"","pricing_plan_id":"free"},{"bike_id":"f89b81c5-519d-4bd3-89f7-340d161ecb20","system_id":"levelo_inurba_marseille","lat":43.29881,"lon":5.38911,"is_reserved":false,"is_disabled":false,"rental_uris":{"android":"levelo://app?vid=f89b81c5-519d-4bd3-89f7-340d161ecb20","ios":"levelo://app?vid=f89b81c5-519d-4bd3-89f7-340d161ecb20"},"vehicle_type_id":"4","last_reported":1699135532,"current_range_meters":12800,"station_id":"ce4bh392rcd13ifvqdl0","pricing_plan_id":"free"},{"bike_id":"e310adfe-22ba-4a94-baac-846d3a77e139","system_id":"levelo_inurba_marseille","lat":43.298764,"lon":5.388973,"is_reserved":false,"is_disabled":false,"rental_uris":{"android":"levelo://app?vid=e310adfe-22ba-4a94-baac-846d3a77e139","ios":"levelo://app?vid=e310adfe-22ba-4a94-baac-846d3a77e139"},"vehicle_type_id":"4","last_reported":1699135532,"current_range_meters":12000,"station_id":"ce4bh392rcd13ifvqdl0","pricing_plan_id":"free"},{"bike_id":"501a4244-9ecd-4c7a-b0aa-cc138e4722d8","system_id":"levelo_inurba_marseille","lat":43.298764,"lon":5.388973,"is_reserved":false,"is_disabled":false,"rental_uris":{"android":"levelo://app?vid=501a4244-9ecd-4c7a-b0aa-cc138e4722d8","ios":"levelo://app?vid=501a4244-9ecd-4c7a-b0aa-cc138e4722d8"},"vehicle_type_id":"4","last_reported":1699135532,"current_range_meters":0,"station_id":"ce4bh392rcd13ifvqdl0","pricing_plan_id":"free"},{"bike_id":"b7c445bd-1382-4704-a4af-15f55f997746","system_id":"levelo_inurba_marseille","lat":43.298764,"lon":5.388973,"is_reserved":false,"is_disabled":false,"rental_uris":{"android":"levelo://app?vid=b7c445bd-1382-4704-a4af-15f55f997746","ios":"levelo://app?vid=b7c445bd-1382-4704-a4af-15f55f997746"},"vehicle_type_id":"4","last_reported":1699135532,"current_range_meters":21600,"station_id":"ce4bh392rcd13ifvqdl0","pricing_plan_id":"free"},{"bike_id":"c9243cd0-db52-4472-a3bb-f1b6a21b6cec","system_id":"levelo_inurba_marseille","lat":43.292642,"lon":5.384254,"is_reserved":false,"is_disabled":false,"rental_uris":{"android":"levelo://app?vid=c9243cd0-db52-4472-a3bb-f1b6a21b6cec","ios":"levelo://app?vid=c9243cd0-db52-4472-a3bb-f1b6a21b6cec"},"vehicle_type_id":"4","last_reported":1699135532,"current_range_meters":20400,"station_id":"ce4bh692rcd13ifvqea0","pricing_plan_id":"free"},{"bike_id":"260c645f-b280-4251-8fb9-e89c0f995509","system_id":"levelo_inurba_marseille","lat":43.332121,"lon":5.379996,"is_reserved":false,"is_disabled":false,"rental_uris":{"android":"levelo://app?vid=260c645f-b280-4251-8fb9-e89c0f995509","ios":"levelo://app?vid=260c645f-b280-4251-8fb9-e89c0f995509"},"vehicle_type_id":"4","last_reported":1699135532,"current_range_meters":9600,"station_id":"ce4bhs92rcd13ifvqi0g","pricing_plan_id":"free"},{"bike_id":"c61e9814-ddeb-4d02-b877-44315dd5fa14","system_id":"levelo_inurba_marseille","lat":43.295876,"lon":5.385947,"is_reserved":false,"is_disabled":false,"rental_uris":{"android":"levelo://app?vid=c61e9814-ddeb-4d02-b877-44315dd5fa14","ios":"levelo://app?vid=c61e9814-ddeb-4d02-b877-44315dd5fa14"},"vehicle_type_id":"4","last_reported":1699135532,"current_range_meters":21200,"station_id":"","pricing_plan_id":"free"},{"bike_id":"270ea1e6-0a12-4b41-92e4-a9372938277f","system_id":"levelo_inurba_marseille","lat":43.31324,"lon":5.39692,"is_reserved":false,"is_disabled":false,"rental_uris":{"android":"levelo://app?vid=270ea1e6-0a12-4b41-92e4-a9372938277f","ios":"levelo://app?vid=270ea1e6-0a12-4b41-92e4-a9372938277f"},"vehicle_type_id":"4","last_reported":1699135532,"current_range_meters":10800,"station_id":"ce4bgvp2rcd13ifvqcu0","pricing_plan_id":"free"},{"bike_id":"09fbff16-60e3-45c7-95e5-a9ab6e42ac36","system_id":"levelo_inurba_marseille","lat":43.3133,"lon":5.39693,"is_reserved":false,"is_disabled":false,"rental_uris":{"android":"levelo://app?vid=09fbff16-60e3-45c7-95e5-a9ab6e42ac36","ios":"levelo://app?vid=09fbff16-60e3-45c7-95e5-a9ab6e42ac36"},"vehicle_type_id":"4","last_reported":1699135532,"current_range_meters":20400,"station_id":"ce4bgvp2rcd13ifvqcu0","pricing_plan_id":"free"},{"bike_id":"314b2e8b-2dfc-4000-8aea-ddc2bb554fcf","system_id":"levelo_inurba_marseille","lat":43.309038,"lon":5.396546,"is_reserved":false,"is_disabled":false,"rental_uris":{"android":"levelo://app?vid=314b2e8b-2dfc-4000-8aea-ddc2bb554fcf","ios":"levelo://app?vid=314b2e8b-2dfc-4000-8aea-ddc2bb554fcf"},"vehicle_type_id":"4","last_reported":1699135532,"current_range_meters":6000,"station_id":"ce4bh012rcd13ifvqcv0","pricing_plan_id":"free"},{"bike_id":"29e769c1-d255-4ed7-978f-470090ffb35f","system_id":"levelo_inurba_marseille","lat":43.313233,"lon":5.39701,"is_reserved":false,"is_disabled":false,"rental_uris":{"android":"levelo://app?vid=29e769c1-d255-4ed7-978f-470090ffb35f","ios":"levelo://app?vid=29e769c1-d255-4ed7-978f-470090ffb35f"},"vehicle_type_id":"4","last_reported":1699135532,"current_range_meters":13600,"station_id":"ce4bgvp2rcd13ifvqcu0","pricing_plan_id":"free"},{"bike_id":"af8242b6-53bb-437c-84b1-2e68c8c52d99","system_id":"levelo_inurba_marseille","lat":43.31332,"lon":5.39701,"is_reserved":false,"is_disabled":false,"rental_uris":{"android":"levelo://app?vid=af8242b6-53bb-437c-84b1-2e68c8c52d99","ios":"levelo://app?vid=af8242b6-53bb-437c-84b1-2e68c8c52d99"},"vehicle_type_id":"4","last_reported":1699135532,"current_range_meters":5200,"station_id":"ce4bgvp2rcd13ifvqcu0","pricing_plan_id":"free"},{"bike_id":"4dd79a7c-39da-4ff0-a584-470a6a4af57e","system_id":"levelo_inurba_marseille","lat":43.309038,"lon":5.396546,"is_reserved":false,"is_disabled":false,"rental_uris":{"android":"levelo://app?vid=4dd79a7c-39da-4ff0-a584-470a6a4af57e","ios":"levelo://app?vid=4dd79a7c-39da-4ff0-a584-470a6a4af57e"},"vehicle_type_id":"4","last_reported":1699135532,"current_range_meters":8400,"station_id":"ce4bh012rcd13ifvqcv0","pricing_plan_id":"free"},{"bike_id":"fd55432a-71b5-4831-a1fc-e2a5c4ad41d9","system_id":"levelo_inurba_marseille","lat":43.29534,"lon":5.38546,"is_reserved":false,"is_disabled":false,"rental_uris":{"android":"levelo://app?vid=fd55432a-71b5-4831-a1fc-e2a5c4ad41d9","ios":"levelo://app?vid=fd55432a-71b5-4831-a1fc-e2a5c4ad41d9"},"vehicle_type_id":"4","last_reported":1699135532,"current_range_meters":22400,"station_id":"ce4bgih2rcd13ifvqba0","pricing_plan_id":"free"},{"bike_id":"21426a0d-604c-4933-9dde-aad2feebdc38","system_id":"levelo_inurba_marseille","lat":43.33274,"lon":5.37964,"is_reserved":false,"is_disabled":false,"rental_uris":{"android":"levelo://app?vid=21426a0d-604c-4933-9dde-aad2feebdc38","ios":"levelo://app?vid=21426a0d-604c-4933-9dde-aad2feebdc38"},"vehicle_type_id":"4","last_reported":1699135532,"current_range_meters":0,"station_id":"ce4bhs92rcd13ifvqi0g","pricing_plan_id":"free"},{"bike_id":"207d12d0-1999-42ca-9040-d9912293b9fc","system_id":"levelo_inurba_marseille","lat":43.29529,"lon":5.385581,"is_reserved":false,"is_disabled":false,"rental_uris":{"android":"levelo://app?vid=207d12d0-1999-42ca-9040-d9912293b9fc","ios":"levelo://app?vid=207d12d0-1999-42ca-9040-d9912293b9fc"},"vehicle_type_id":"4","last_reported":1699135532,"current_range_meters":17200,"station_id":"ce4bgih2rcd13ifvqba0","pricing_plan_id":"free"},{"bike_id":"c152c55a-ced7-4251-8d3b-3509ec542d1e","system_id":"levelo_inurba_marseille","lat":43.290779,"lon":5.371482,"is_reserved":false,"is_disabled":false,"rental_uris":{"android":"levelo://app?vid=c152c55a-ced7-4251-8d3b-3509ec542d1e","ios":"levelo://app?vid=c152c55a-ced7-4251-8d3b-3509ec542d1e"},"vehicle_type_id":"4","last_reported":1699135532,"current_range_meters":18800,"station_id":"ce4bh5p2rcd13ifvqe4g","pricing_plan_id":"free"},{"bike_id":"4f4656bd-c708-4cf7-ba6e-b28ab94b6ed4","system_id":"levelo_inurba_marseille","lat":43.296263,"lon":5.40601,"is_reserved":false,"is_disabled":false,"rental_uris":{"android":"levelo://app?vid=4f4656bd-c708-4cf7-ba6e-b28ab94b6ed4","ios":"levelo://app?vid=4f4656bd-c708-4cf7-ba6e-b28ab94b6ed4"},"vehicle_type_id":"4","last_reported":1699135532,"current_range_meters":0,"station_id":"ce4bh0h2rcd13ifvqd60","pricing_plan_id":"free"},{"bike_id":"861e74fa-7a06-4ea1-8774-2b8c3dbca107","system_id":"levelo_inurba_marseille","lat":43.302008,"lon":5.394694,"is_reserved":false,"is_disabled":false,"rental_uris":{"android":"levelo://app?vid=861e74fa-7a06-4ea1-8774-2b8c3dbca107","ios":"levelo://app?vid=861e74fa-7a06-4ea1-8774-2b8c3dbca107"},"vehicle_type_id":"4","last_reported":1699135532,"current_range_meters":28000,"station_id":"ce4bh0p2rcd13ifvqd70","pricing_plan_id":"free"},{"bike_id":"2f654957-0c66-4d26-991e-7cc378b384cb","system_id":"levelo_inurba_marseille","lat":43.302008,"lon":5.394694,"is_reserved":false,"is_disabled":false,"rental_uris":{"android":"levelo://app?vid=2f654957-0c66-4d26-991e-7cc378b384cb","ios":"levelo://app?vid=2f654957-0c66-4d26-991e-7cc378b384cb"},"vehicle_type_id":"4","last_reported":1699135532,"current_range_meters":31200,"station_id":"ce4bh0p2rcd13ifvqd70","pricing_plan_id":"free"},{"bike_id":"1a581f99-6ab8-4811-a338-c248445ce5ed","system_id":"levelo_inurba_marseille","lat":43.302008,"lon":5.394694,"is_reserved":false,"is_disabled":false,"rental_uris":{"android":"levelo://app?vid=1a581f99-6ab8-4811-a338-c248445ce5ed","ios":"levelo://app?vid=1a581f99-6ab8-4811-a338-c248445ce5ed"},"vehicle_type_id":"4","last_reported":1699135532,"current_range_meters":0,"station_id":"ce4bh0p2rcd13ifvqd70","pricing_plan_id":"free"},{"bike_id":"7c5df81f-ff8e-4762-a1b6-5a2df2e22b6c","system_id":"levelo_inurba_marseille","lat":43.290327,"lon":5.375711,"is_reserved":false,"is_disabled":false,"rental_uris":{"android":"levelo://app?vid=7c5df81f-ff8e-4762-a1b6-5a2df2e22b6c","ios":"levelo://app?vid=7c5df81f-ff8e-4762-a1b6-5a2df2e22b6c"},"vehicle_type_id":"4","last_reported":1699135532,"current_range_meters":23600,"station_id":"ce4bh692rcd13ifvqe90","pricing_plan_id":"free"},{"bike_id":"a90b64e4-e6aa-4932-9885-23dbca6d1c00","system_id":"levelo_inurba_marseille","lat":43.290327,"lon":5.375711,"is_reserved":false,"is_disabled":false,"rental_uris":{"android":"levelo://app?vid=a90b64e4-e6aa-4932-9885-23dbca6d1c00","ios":"levelo://app?vid=a90b64e4-e6aa-4932-9885-23dbca6d1c00"},"vehicle_type_id":"4","last_reported":1699135532,"current_range_meters":15600,"station_id":"ce4bh692rcd13ifvqe90","pricing_plan_id":"free"},{"bike_id":"ea01dfb3-8c59-4e57-b803-f7b6dc63a953","system_id":"levelo_inurba_marseille","lat":43.294162,"lon":5.386292,"is_reserved":false,"is_disabled":false,"rental_uris":{"android":"levelo://app?vid=ea01dfb3-8c59-4e57-b803-f7b6dc63a953","ios":"levelo://app?vid=ea01dfb3-8c59-4e57-b803-f7b6dc63a953"},"vehicle_type_id":"4","last_reported":1699135532,"current_range_meters":24800,"station_id":"ce4bh2h2rcd13ifvqdh0","pricing_plan_id":"free"},{"bike_id":"f62124ff-1e41-4ef3-ab6a-4ba9efd71607","system_id":"levelo_inurba_marseille","lat":43.294162,"lon":5.386292,"is_reserved":false,"is_disabled":false,"rental_uris":{"android":"levelo://app?vid=f62124ff-1e41-4ef3-ab6a-4ba9efd71607","ios":"levelo://app?vid=f62124ff-1e41-4ef3-ab6a-4ba9efd71607"},"vehicle_type_id":"4","last_reported":1699135532,"current_range_meters":31200,"station_id":"ce4bh2h2rcd13ifvqdh0","pricing_plan_id":"free"},{"bike_id":"a4337f97-6283-4792-a82c-311e45c705fd","system_id":"levelo_inurba_marseille","lat":43.294162,"lon":5.386292,"is_reserved":false,"is_disabled":false,"rental_uris":{"android":"levelo://app?vid=a4337f97-6283-4792-a82c-311e45c705fd","ios":"levelo://app?vid=a4337f97-6283-4792-a82c-311e45c705fd"},"vehicle_type_id":"4","last_reported":1699135532,"current_range_meters":31600,"station_id":"ce4bh2h2rcd13ifvqdh0","pricing_plan_id":"free"},{"bike_id":"0bc80ba1-f3f5-44cc-b2ec-01589360c9ee","system_id":"levelo_inurba_marseille","lat":43.289415,"lon":5.366437,"is_reserved":false,"is_disabled":false,"rental_uris":{"android":"levelo://app?vid=0bc80ba1-f3f5-44cc-b2ec-01589360c9ee","ios":"levelo://app?vid=0bc80ba1-f3f5-44cc-b2ec-01589360c9ee"},"vehicle_type_id":"4","last_reported":1699135532,"current_range_meters":4800,"station_id":"","pricing_plan_id":"free"},{"bike_id":"7891d6ef-f322-4a65-b3b7-6c2b212ddd4c","system_id":"levelo_inurba_marseille","lat":43.289184,"lon":5.366408,"is_reserved":false,"is_disabled":false,"rental_uris":{"android":"levelo://app?vid=7891d6ef-f322-4a65-b3b7-6c2b212ddd4c","ios":"levelo://app?vid=7891d6ef-f322-4a65-b3b7-6c2b212ddd4c"},"vehicle_type_id":"4","last_reported":1699135532,"current_range_meters":24400,"station_id":"ce4bhap2rcd13ifvqek0","pricing_plan_id":"free"},{"bike_id":"ebd54f93-4e63-40dd-9aca-cc7fff35c976","system_id":"levelo_inurba_marseille","lat":43.289184,"lon":5.366408,"is_reserved":false,"is_disabled":false,"rental_uris":{"android":"levelo://app?vid=ebd54f93-4e63-40dd-9aca-cc7fff35c976","ios":"levelo://app?vid=ebd54f93-4e63-40dd-9aca-cc7fff35c976"},"vehicle_type_id":"4","last_reported":1699135532,"current_range_meters":16800,"station_id":"ce4bhap2rcd13ifvqek0","pricing_plan_id":"free"},{"bike_id":"e80cc71f-4aff-4358-a05a-0710232bf361","system_id":"levelo_inurba_marseille","lat":43.292644,"lon":5.384257,"is_reserved":false,"is_disabled":false,"rental_uris":{"android":"levelo://app?vid=e80cc71f-4aff-4358-a05a-0710232bf361","ios":"levelo://app?vid=e80cc71f-4aff-4358-a05a-0710232bf361"},"vehicle_type_id":"4","last_reported":1699135532,"current_range_meters":31600,"station_id":"ce4bh692rcd13ifvqea0","pricing_plan_id":"free"},{"bike_id":"6463f5ec-f742-4e75-b8d4-a00883fca39a","system_id":"levelo_inurba_marseille","lat":43.292644,"lon":5.384257,"is_reserved":false,"is_disabled":false,"rental_uris":{"android":"levelo://app?vid=6463f5ec-f742-4e75-b8d4-a00883fca39a","ios":"levelo://app?vid=6463f5ec-f742-4e75-b8d4-a00883fca39a"},"vehicle_type_id":"4","last_reported":1699135532,"current_range_meters":21200,"station_id":"ce4bh692rcd13ifvqea0","pricing_plan_id":"free"},{"bike_id":"e0320791-5353-4d88-8128-04c00865e529","system_id":"levelo_inurba_marseille","lat":43.292642,"lon":5.384254,"is_reserved":false,"is_disabled":false,"rental_uris":{"android":"levelo://app?vid=e0320791-5353-4d88-8128-04c00865e529","ios":"levelo://app?vid=e0320791-5353-4d88-8128-04c00865e529"},"vehicle_type_id":"4","last_reported":1699135532,"current_range_meters":15600,"station_id":"ce4bh692rcd13ifvqea0","pricing_plan_id":"free"},{"bike_id":"dd83c28d-2a30-44e8-927e-6485b1b4a3b5","system_id":"levelo_inurba_marseille","lat":43.29263,"lon":5.3844,"is_reserved":false,"is_disabled":false,"rental_uris":{"android":"levelo://app?vid=dd83c28d-2a30-44e8-927e-6485b1b4a3b5","ios":"levelo://app?vid=dd83c28d-2a30-44e8-927e-6485b1b4a3b5"},"vehicle_type_id":"4","last_reported":1699135532,"current_range_meters":18800,"station_id":"ce4bh692rcd13ifvqea0","pricing_plan_id":"free"},{"bike_id":"a1abb416-6b7e-449d-8f1c-a07617fed5de","system_id":"levelo_inurba_marseille","lat":43.292644,"lon":5.384257,"is_reserved":false,"is_disabled":false,"rental_uris":{"android":"levelo://app?vid=a1abb416-6b7e-449d-8f1c-a07617fed5de","ios":"levelo://app?vid=a1abb416-6b7e-449d-8f1c-a07617fed5de"},"vehicle_type_id":"4","last_reported":1699135532,"current_range_meters":19600,"station_id":"ce4bh692rcd13ifvqea0","pricing_plan_id":"free"},{"bike_id":"972bc82a-7075-438b-ae1c-55213dfde763","system_id":"levelo_inurba_marseille","lat":43.292644,"lon":5.384257,"is_reserved":false,"is_disabled":false,"rental_uris":{"android":"levelo://app?vid=972bc82a-7075-438b-ae1c-55213dfde763","ios":"levelo://app?vid=972bc82a-7075-438b-ae1c-55213dfde763"},"vehicle_type_id":"4","last_reported":1699135532,"current_range_meters":31600,"station_id":"ce4bh692rcd13ifvqea0","pricing_plan_id":"free"},{"bike_id":"79b645eb-4f91-4f34-921f-dcd9ee3d1be0","system_id":"levelo_inurba_marseille","lat":43.292644,"lon":5.384257,"is_reserved":false,"is_disabled":false,"rental_uris":{"android":"levelo://app?vid=79b645eb-4f91-4f34-921f-dcd9ee3d1be0","ios":"levelo://app?vid=79b645eb-4f91-4f34-921f-dcd9ee3d1be0"},"vehicle_type_id":"4","last_reported":1699135532,"current_range_meters":31600,"station_id":"ce4bh692rcd13ifvqea0","pricing_plan_id":"free"},{"bike_id":"30d90db7-6f8c-4938-ab47-18c38281c561","system_id":"levelo_inurba_marseille","lat":43.292644,"lon":5.384257,"is_reserved":false,"is_disabled":false,"rental_uris":{"android":"levelo://app?vid=30d90db7-6f8c-4938-ab47-18c38281c561","ios":"levelo://app?vid=30d90db7-6f8c-4938-ab47-18c38281c561"},"vehicle_type_id":"4","last_reported":1699135532,"current_range_meters":10800,"station_id":"ce4bh692rcd13ifvqea0","pricing_plan_id":"free"},{"bike_id":"fd376d68-dc06-4a0f-8699-e8b33a6d7183","system_id":"levelo_inurba_marseille","lat":43.29259,"lon":5.3844,"is_reserved":false,"is_disabled":false,"rental_uris":{"android":"levelo://app?vid=fd376d68-dc06-4a0f-8699-e8b33a6d7183","ios":"levelo://app?vid=fd376d68-dc06-4a0f-8699-e8b33a6d7183"},"vehicle_type_id":"4","last_reported":1699135532,"current_range_meters":20400,"station_id":"ce4bh692rcd13ifvqea0","pricing_plan_id":"free"},{"bike_id":"745a6976-3f82-4652-b1a0-3758e595b13a","system_id":"levelo_inurba_marseille","lat":43.29259,"lon":5.384407,"is_reserved":false,"is_disabled":false,"rental_uris":{"android":"levelo://app?vid=745a6976-3f82-4652-b1a0-3758e595b13a","ios":"levelo://app?vid=745a6976-3f82-4652-b1a0-3758e595b13a"},"vehicle_type_id":"4","last_reported":1699135532,"current_range_meters":0,"station_id":"ce4bh692rcd13ifvqea0","pricing_plan_id":"free"},{"bike_id":"8d2f7ce5-a68e-46ee-b3f3-5b7360da5f56","system_id":"levelo_inurba_marseille","lat":43.292553,"lon":5.384403,"is_reserved":false,"is_disabled":false,"rental_uris":{"android":"levelo://app?vid=8d2f7ce5-a68e-46ee-b3f3-5b7360da5f56","ios":"levelo://app?vid=8d2f7ce5-a68e-46ee-b3f3-5b7360da5f56"},"vehicle_type_id":"4","last_reported":1699135532,"current_range_meters":31200,"station_id":"ce4bh692rcd13ifvqea0","pricing_plan_id":"free"},{"bike_id":"6d20a883-81db-4710-9031-61ead7a5aa9d","system_id":"levelo_inurba_marseille","lat":43.292644,"lon":5.384257,"is_reserved":false,"is_disabled":false,"rental_uris":{"android":"levelo://app?vid=6d20a883-81db-4710-9031-61ead7a5aa9d","ios":"levelo://app?vid=6d20a883-81db-4710-9031-61ead7a5aa9d"},"vehicle_type_id":"4","last_reported":1699135532,"current_range_meters":14800,"station_id":"ce4bh692rcd13ifvqea0","pricing_plan_id":"free"},{"bike_id":"14915d60-bfa1-47a0-a1a6-0628dccdfb20","system_id":"levelo_inurba_marseille","lat":43.290103,"lon":5.356114,"is_reserved":false,"is_disabled":false,"rental_uris":{"android":"levelo://app?vid=14915d60-bfa1-47a0-a1a6-0628dccdfb20","ios":"levelo://app?vid=14915d60-bfa1-47a0-a1a6-0628dccdfb20"},"vehicle_type_id":"4","last_reported":1699135532,"current_range_meters":13200,"station_id":"ce4bhb92rcd13ifvqen0","pricing_plan_id":"free"},{"bike_id":"75801a39-59d1-473c-8c01-a84fe5fc1817","system_id":"levelo_inurba_marseille","lat":43.33049,"lon":5.38916,"is_reserved":false,"is_disabled":false,"rental_uris":{"android":"levelo://app?vid=75801a39-59d1-473c-8c01-a84fe5fc1817","ios":"levelo://app?vid=75801a39-59d1-473c-8c01-a84fe5fc1817"},"vehicle_type_id":"4","last_reported":1699135532,"current_range_meters":13200,"station_id":"","pricing_plan_id":"free"},{"bike_id":"ac26c4b6-af51-4373-981e-f5a36f4d1a31","system_id":"levelo_inurba_marseille","lat":43.290103,"lon":5.356114,"is_reserved":false,"is_disabled":false,"rental_uris":{"android":"levelo://app?vid=ac26c4b6-af51-4373-981e-f5a36f4d1a31","ios":"levelo://app?vid=ac26c4b6-af51-4373-981e-f5a36f4d1a31"},"vehicle_type_id":"4","last_reported":1699135532,"current_range_meters":19200,"station_id":"ce4bhb92rcd13ifvqen0","pricing_plan_id":"free"},{"bike_id":"64015230-fcd2-4e6a-bcb9-4dcb1abddfeb","system_id":"levelo_inurba_marseille","lat":43.33051,"lon":5.38914,"is_reserved":false,"is_disabled":false,"rental_uris":{"android":"levelo://app?vid=64015230-fcd2-4e6a-bcb9-4dcb1abddfeb","ios":"levelo://app?vid=64015230-fcd2-4e6a-bcb9-4dcb1abddfeb"},"vehicle_type_id":"4","last_reported":1699135532,"current_range_meters":14000,"station_id":"ce4bhr92rcd13ifvqhrg","pricing_plan_id":"free"},{"bike_id":"e0d713cd-ec81-44ec-8ba4-571dd76a2b05","system_id":"levelo_inurba_marseille","lat":43.295169,"lon":5.390426,"is_reserved":false,"is_disabled":false,"rental_uris":{"android":"levelo://app?vid=e0d713cd-ec81-44ec-8ba4-571dd76a2b05","ios":"levelo://app?vid=e0d713cd-ec81-44ec-8ba4-571dd76a2b05"},"vehicle_type_id":"4","last_reported":1699135532,"current_range_meters":0,"station_id":"ce4bh3p2rcd13ifvqdp0","pricing_plan_id":"free"},{"bike_id":"56b9e9da-ba00-4ad0-a879-6db51464d4a9","system_id":"levelo_inurba_marseille","lat":43.297869,"lon":5.393417,"is_reserved":false,"is_disabled":false,"rental_uris":{"android":"levelo://app?vid=56b9e9da-ba00-4ad0-a879-6db51464d4a9","ios":"levelo://app?vid=56b9e9da-ba00-4ad0-a879-6db51464d4a9"},"vehicle_type_id":"4","last_reported":1699135532,"current_range_meters":9200,"station_id":"chh1huq6cuj3fo74tm60","pricing_plan_id":"free"},{"bike_id":"61dcc87e-de14-4899-b867-4698a2fb5c3d","system_id":"levelo_inurba_marseille","lat":43.295169,"lon":5.390426,"is_reserved":false,"is_disabled":false,"rental_uris":{"android":"levelo://app?vid=61dcc87e-de14-4899-b867-4698a2fb5c3d","ios":"levelo://app?vid=61dcc87e-de14-4899-b867-4698a2fb5c3d"},"vehicle_type_id":"4","last_reported":1699135532,"current_range_meters":18400,"station_id":"ce4bh3p2rcd13ifvqdp0","pricing_plan_id":"free"},{"bike_id":"81ab7a38-f215-40a3-a463-e14c97a75443","system_id":"levelo_inurba_marseille","lat":43.295169,"lon":5.390426,"is_reserved":false,"is_disabled":false,"rental_uris":{"android":"levelo://app?vid=81ab7a38-f215-40a3-a463-e14c97a75443","ios":"levelo://app?vid=81ab7a38-f215-40a3-a463-e14c97a75443"},"vehicle_type_id":"4","last_reported":1699135532,"current_range_meters":9200,"station_id":"ce4bh3p2rcd13ifvqdp0","pricing_plan_id":"free"},{"bike_id":"2998cb27-43da-476d-9bf4-6c46f9f57885","system_id":"levelo_inurba_marseille","lat":43.295169,"lon":5.390426,"is_reserved":false,"is_disabled":false,"rental_uris":{"android":"levelo://app?vid=2998cb27-43da-476d-9bf4-6c46f9f57885","ios":"levelo://app?vid=2998cb27-43da-476d-9bf4-6c46f9f57885"},"vehicle_type_id":"4","last_reported":1699135532,"current_range_meters":24400,"station_id":"ce4bh3p2rcd13ifvqdp0","pricing_plan_id":"free"},{"bike_id":"4ded8e7a-76aa-49a8-acba-4eb470a169d3","system_id":"levelo_inurba_marseille","lat":43.289741,"lon":5.378306,"is_reserved":false,"is_disabled":false,"rental_uris":{"android":"levelo://app?vid=4ded8e7a-76aa-49a8-acba-4eb470a169d3","ios":"levelo://app?vid=4ded8e7a-76aa-49a8-acba-4eb470a169d3"},"vehicle_type_id":"4","last_reported":1699135532,"current_range_meters":10000,"station_id":"ce4bh9p2rcd13ifvqed0","pricing_plan_id":"free"},{"bike_id":"260e46d3-d171-4cfb-86fb-8295d682b146","system_id":"levelo_inurba_marseille","lat":43.305323,"lon":5.399073,"is_reserved":false,"is_disabled":false,"rental_uris":{"android":"levelo://app?vid=260e46d3-d171-4cfb-86fb-8295d682b146","ios":"levelo://app?vid=260e46d3-d171-4cfb-86fb-8295d682b146"},"vehicle_type_id":"4","last_reported":1699135532,"current_range_meters":10400,"station_id":"","pricing_plan_id":"free"},{"bike_id":"c23670c7-aefe-4c5b-8349-931a7a97a9b3","system_id":"levelo_inurba_marseille","lat":43.28856,"lon":5.358371,"is_reserved":false,"is_disabled":false,"rental_uris":{"android":"levelo://app?vid=c23670c7-aefe-4c5b-8349-931a7a97a9b3","ios":"levelo://app?vid=c23670c7-aefe-4c5b-8349-931a7a97a9b3"},"vehicle_type_id":"4","last_reported":1699135532,"current_range_meters":20400,"station_id":"ce4bhb12rcd13ifvqem0","pricing_plan_id":"free"},{"bike_id":"21bbb98b-9256-415b-b50c-b6bd0ed46cc8","system_id":"levelo_inurba_marseille","lat":43.31276,"lon":5.40166,"is_reserved":false,"is_disabled":false,"rental_uris":{"android":"levelo://app?vid=21bbb98b-9256-415b-b50c-b6bd0ed46cc8","ios":"levelo://app?vid=21bbb98b-9256-415b-b50c-b6bd0ed46cc8"},"vehicle_type_id":"4","last_reported":1699135532,"current_range_meters":4000,"station_id":"ce4bh092rcd13ifvqd30","pricing_plan_id":"free"},{"bike_id":"7f632203-8901-4931-8d4f-fb52de02b899","system_id":"levelo_inurba_marseille","lat":43.309371,"lon":5.401449,"is_reserved":false,"is_disabled":false,"rental_uris":{"android":"levelo://app?vid=7f632203-8901-4931-8d4f-fb52de02b899","ios":"levelo://app?vid=7f632203-8901-4931-8d4f-fb52de02b899"},"vehicle_type_id":"4","last_reported":1699135532,"current_range_meters":0,"station_id":"ce4bgvp2rcd13ifvqct0","pricing_plan_id":"free"},{"bike_id":"039364a7-555a-4b9f-a5f1-23d32b80a875","system_id":"levelo_inurba_marseille","lat":43.30933,"lon":5.40142,"is_reserved":false,"is_disabled":false,"rental_uris":{"android":"levelo://app?vid=039364a7-555a-4b9f-a5f1-23d32b80a875","ios":"levelo://app?vid=039364a7-555a-4b9f-a5f1-23d32b80a875"},"vehicle_type_id":"4","last_reported":1699135532,"current_range_meters":3600,"station_id":"ce4bgvp2rcd13ifvqct0","pricing_plan_id":"free"},{"bike_id":"a8654dcd-e492-4c3c-97c4-8d16859d7118","system_id":"levelo_inurba_marseille","lat":43.309371,"lon":5.401449,"is_reserved":false,"is_disabled":false,"rental_uris":{"android":"levelo://app?vid=a8654dcd-e492-4c3c-97c4-8d16859d7118","ios":"levelo://app?vid=a8654dcd-e492-4c3c-97c4-8d16859d7118"},"vehicle_type_id":"4","last_reported":1699135532,"current_range_meters":800,"station_id":"ce4bgvp2rcd13ifvqct0","pricing_plan_id":"free"},{"bike_id":"f9f75764-7446-4119-a740-04fac1c0489a","system_id":"levelo_inurba_marseille","lat":43.30929,"lon":5.40149,"is_reserved":false,"is_disabled":false,"rental_uris":{"android":"levelo://app?vid=f9f75764-7446-4119-a740-04fac1c0489a","ios":"levelo://app?vid=f9f75764-7446-4119-a740-04fac1c0489a"},"vehicle_type_id":"4","last_reported":1699135532,"current_range_meters":22400,"station_id":"ce4bgvp2rcd13ifvqct0","pricing_plan_id":"free"},{"bike_id":"3bc87fbd-a495-4c84-9cce-8d1707aeb066","system_id":"levelo_inurba_marseille","lat":43.30642,"lon":5.401031,"is_reserved":false,"is_disabled":false,"rental_uris":{"android":"levelo://app?vid=3bc87fbd-a495-4c84-9cce-8d1707aeb066","ios":"levelo://app?vid=3bc87fbd-a495-4c84-9cce-8d1707aeb066"},"vehicle_type_id":"4","last_reported":1699135532,"current_range_meters":17200,"station_id":"ce4bh112rcd13ifvqda0","pricing_plan_id":"free"},{"bike_id":"eb18dcdf-d6b8-4d69-ab87-e717dcc63b93","system_id":"levelo_inurba_marseille","lat":43.30642,"lon":5.401031,"is_reserved":false,"is_disabled":false,"rental_uris":{"android":"levelo://app?vid=eb18dcdf-d6b8-4d69-ab87-e717dcc63b93","ios":"levelo://app?vid=eb18dcdf-d6b8-4d69-ab87-e717dcc63b93"},"vehicle_type_id":"4","last_reported":1699135532,"current_range_meters":14000,"station_id":"ce4bh112rcd13ifvqda0","pricing_plan_id":"free"},{"bike_id":"3c572c3f-cc4c-4d3a-a0f0-73ed1ad39fef","system_id":"levelo_inurba_marseille","lat":43.33031,"lon":5.392311,"is_reserved":false,"is_disabled":false,"rental_uris":{"android":"levelo://app?vid=3c572c3f-cc4c-4d3a-a0f0-73ed1ad39fef","ios":"levelo://app?vid=3c572c3f-cc4c-4d3a-a0f0-73ed1ad39fef"},"vehicle_type_id":"4","last_reported":1699135532,"current_range_meters":8000,"station_id":"","pricing_plan_id":"free"},{"bike_id":"c8ef962e-65ea-43dd-bafc-6bea85b3fb5a","system_id":"levelo_inurba_marseille","lat":43.301424,"lon":5.398738,"is_reserved":false,"is_disabled":false,"rental_uris":{"android":"levelo://app?vid=c8ef962e-65ea-43dd-bafc-6bea85b3fb5a","ios":"levelo://app?vid=c8ef962e-65ea-43dd-bafc-6bea85b3fb5a"},"vehicle_type_id":"4","last_reported":1699135532,"current_range_meters":5200,"station_id":"ce4bh0h2rcd13ifvqd40","pricing_plan_id":"free"},{"bike_id":"2a0be0a7-ecdd-4c57-a826-b40ab5e79410","system_id":"levelo_inurba_marseille","lat":43.28727,"lon":5.36078,"is_reserved":false,"is_disabled":false,"rental_uris":{"android":"levelo://app?vid=2a0be0a7-ecdd-4c57-a826-b40ab5e79410","ios":"levelo://app?vid=2a0be0a7-ecdd-4c57-a826-b40ab5e79410"},"vehicle_type_id":"4","last_reported":1699135532,"current_range_meters":23200,"station_id":"cki0cbj6b192h4jlfktg","pricing_plan_id":"free"},{"bike_id":"628f1db5-41bd-4710-8ac7-dc2f95d641d2","system_id":"levelo_inurba_marseille","lat":43.286961,"lon":5.373785,"is_reserved":false,"is_disabled":false,"rental_uris":{"android":"levelo://app?vid=628f1db5-41bd-4710-8ac7-dc2f95d641d2","ios":"levelo://app?vid=628f1db5-41bd-4710-8ac7-dc2f95d641d2"},"vehicle_type_id":"4","last_reported":1699135532,"current_range_meters":24800,"station_id":"ce4bh3p2rcd13ifvqdq0","pricing_plan_id":"free"},{"bike_id":"75b535f2-9045-45dd-89c9-2012f37b0c4f","system_id":"levelo_inurba_marseille","lat":43.286593,"lon":5.363346,"is_reserved":false,"is_disabled":false,"rental_uris":{"android":"levelo://app?vid=75b535f2-9045-45dd-89c9-2012f37b0c4f","ios":"levelo://app?vid=75b535f2-9045-45dd-89c9-2012f37b0c4f"},"vehicle_type_id":"4","last_reported":1699135532,"current_range_meters":29200,"station_id":"ce4bhah2rcd13ifvqej0","pricing_plan_id":"free"},{"bike_id":"abaea5fc-c514-4ec8-bed7-421ae54ee841","system_id":"levelo_inurba_marseille","lat":43.286961,"lon":5.373785,"is_reserved":false,"is_disabled":false,"rental_uris":{"android":"levelo://app?vid=abaea5fc-c514-4ec8-bed7-421ae54ee841","ios":"levelo://app?vid=abaea5fc-c514-4ec8-bed7-421ae54ee841"},"vehicle_type_id":"4","last_reported":1699135532,"current_range_meters":25200,"station_id":"ce4bh3p2rcd13ifvqdq0","pricing_plan_id":"free"},{"bike_id":"f78b626a-6274-43b6-9a48-42c4412070e0","system_id":"levelo_inurba_marseille","lat":43.286591,"lon":5.363346,"is_reserved":false,"is_disabled":false,"rental_uris":{"android":"levelo://app?vid=f78b626a-6274-43b6-9a48-42c4412070e0","ios":"levelo://app?vid=f78b626a-6274-43b6-9a48-42c4412070e0"},"vehicle_type_id":"4","last_reported":1699135532,"current_range_meters":29200,"station_id":"ce4bhah2rcd13ifvqej0","pricing_plan_id":"free"},{"bike_id":"873d9983-1431-4af9-8cdf-8b9ef844ba51","system_id":"levelo_inurba_marseille","lat":43.298668,"lon":5.397286,"is_reserved":false,"is_disabled":false,"rental_uris":{"android":"levelo://app?vid=873d9983-1431-4af9-8cdf-8b9ef844ba51","ios":"levelo://app?vid=873d9983-1431-4af9-8cdf-8b9ef844ba51"},"vehicle_type_id":"4","last_reported":1699135532,"current_range_meters":14400,"station_id":"ce4bh0h2rcd13ifvqd50","pricing_plan_id":"free"},{"bike_id":"7135e1b8-54f6-47b0-aaf9-6192ba6189d3","system_id":"levelo_inurba_marseille","lat":43.286961,"lon":5.373785,"is_reserved":false,"is_disabled":false,"rental_uris":{"android":"levelo://app?vid=7135e1b8-54f6-47b0-aaf9-6192ba6189d3","ios":"levelo://app?vid=7135e1b8-54f6-47b0-aaf9-6192ba6189d3"},"vehicle_type_id":"4","last_reported":1699135532,"current_range_meters":10000,"station_id":"ce4bh3p2rcd13ifvqdq0","pricing_plan_id":"free"},{"bike_id":"781a82a7-2c57-4492-8842-27cfd2aff5c1","system_id":"levelo_inurba_marseille","lat":43.286961,"lon":5.373785,"is_reserved":false,"is_disabled":false,"rental_uris":{"android":"levelo://app?vid=781a82a7-2c57-4492-8842-27cfd2aff5c1","ios":"levelo://app?vid=781a82a7-2c57-4492-8842-27cfd2aff5c1"},"vehicle_type_id":"4","last_reported":1699135532,"current_range_meters":27600,"station_id":"ce4bh3p2rcd13ifvqdq0","pricing_plan_id":"free"},{"bike_id":"930b2ede-04e5-407f-916e-12f0725020fa","system_id":"levelo_inurba_marseille","lat":43.28727,"lon":5.36078,"is_reserved":false,"is_disabled":false,"rental_uris":{"android":"levelo://app?vid=930b2ede-04e5-407f-916e-12f0725020fa","ios":"levelo://app?vid=930b2ede-04e5-407f-916e-12f0725020fa"},"vehicle_type_id":"4","last_reported":1699135532,"current_range_meters":10800,"station_id":"cki0cbj6b192h4jlfktg","pricing_plan_id":"free"},{"bike_id":"2285e0e8-5839-4661-9f37-74cd497a933a","system_id":"levelo_inurba_marseille","lat":43.298681,"lon":5.397225,"is_reserved":false,"is_disabled":false,"rental_uris":{"android":"levelo://app?vid=2285e0e8-5839-4661-9f37-74cd497a933a","ios":"levelo://app?vid=2285e0e8-5839-4661-9f37-74cd497a933a"},"vehicle_type_id":"4","last_reported":1699135532,"current_range_meters":20000,"station_id":"ce4bh0h2rcd13ifvqd50","pricing_plan_id":"free"},{"bike_id":"605ae121-4b72-4c23-bd00-0843daf49046","system_id":"levelo_inurba_marseille","lat":43.295194,"lon":5.39397,"is_reserved":false,"is_disabled":false,"rental_uris":{"android":"levelo://app?vid=605ae121-4b72-4c23-bd00-0843daf49046","ios":"levelo://app?vid=605ae121-4b72-4c23-bd00-0843daf49046"},"vehicle_type_id":"4","last_reported":1699135532,"current_range_meters":6800,"station_id":"ce4bh292rcd13ifvqdf0","pricing_plan_id":"free"},{"bike_id":"2c7681df-eba4-4a5b-bdb2-0aba93fbd2ad","system_id":"levelo_inurba_marseille","lat":43.295194,"lon":5.39397,"is_reserved":false,"is_disabled":false,"rental_uris":{"android":"levelo://app?vid=2c7681df-eba4-4a5b-bdb2-0aba93fbd2ad","ios":"levelo://app?vid=2c7681df-eba4-4a5b-bdb2-0aba93fbd2ad"},"vehicle_type_id":"4","last_reported":1699135532,"current_range_meters":22800,"station_id":"ce4bh292rcd13ifvqdf0","pricing_plan_id":"free"},{"bike_id":"c06ea0d2-caa2-4e56-9645-4d5d5f909452","system_id":"levelo_inurba_marseille","lat":43.302759,"lon":5.400793,"is_reserved":false,"is_disabled":false,"rental_uris":{"android":"levelo://app?vid=c06ea0d2-caa2-4e56-9645-4d5d5f909452","ios":"levelo://app?vid=c06ea0d2-caa2-4e56-9645-4d5d5f909452"},"vehicle_type_id":"4","last_reported":1699135532,"current_range_meters":12800,"station_id":"ce4bgvh2rcd13ifvqcs0","pricing_plan_id":"free"},{"bike_id":"e9a3dc75-20e6-4b42-85e5-fe87576f40fb","system_id":"levelo_inurba_marseille","lat":43.29031,"lon":5.38637,"is_reserved":false,"is_disabled":false,"rental_uris":{"android":"levelo://app?vid=e9a3dc75-20e6-4b42-85e5-fe87576f40fb","ios":"levelo://app?vid=e9a3dc75-20e6-4b42-85e5-fe87576f40fb"},"vehicle_type_id":"4","last_reported":1699135532,"current_range_meters":22000,"station_id":"ce4bh4p2rcd13ifvqe0g","pricing_plan_id":"free"},{"bike_id":"967fc874-c28a-499f-abe1-3adf4015e12a","system_id":"levelo_inurba_marseille","lat":43.290341,"lon":5.386448,"is_reserved":false,"is_disabled":false,"rental_uris":{"android":"levelo://app?vid=967fc874-c28a-499f-abe1-3adf4015e12a","ios":"levelo://app?vid=967fc874-c28a-499f-abe1-3adf4015e12a"},"vehicle_type_id":"4","last_reported":1699135532,"current_range_meters":0,"station_id":"","pricing_plan_id":"free"},{"bike_id":"186aa378-48e1-48f2-ba19-6d0acf3db80b","system_id":"levelo_inurba_marseille","lat":43.302759,"lon":5.400793,"is_reserved":false,"is_disabled":false,"rental_uris":{"android":"levelo://app?vid=186aa378-48e1-48f2-ba19-6d0acf3db80b","ios":"levelo://app?vid=186aa378-48e1-48f2-ba19-6d0acf3db80b"},"vehicle_type_id":"4","last_reported":1699135532,"current_range_meters":2800,"station_id":"ce4bgvh2rcd13ifvqcs0","pricing_plan_id":"free"},{"bike_id":"3c163fb6-d331-44b7-85a1-692957d77f4a","system_id":"levelo_inurba_marseille","lat":43.30257,"lon":5.40081,"is_reserved":false,"is_disabled":false,"rental_uris":{"android":"levelo://app?vid=3c163fb6-d331-44b7-85a1-692957d77f4a","ios":"levelo://app?vid=3c163fb6-d331-44b7-85a1-692957d77f4a"},"vehicle_type_id":"4","last_reported":1699135532,"current_range_meters":20000,"station_id":"ce4bgvh2rcd13ifvqcs0","pricing_plan_id":"free"},{"bike_id":"65c6c2c1-4759-42be-a179-5e86f2f70d29","system_id":"levelo_inurba_marseille","lat":43.3025,"lon":5.4008,"is_reserved":false,"is_disabled":false,"rental_uris":{"android":"levelo://app?vid=65c6c2c1-4759-42be-a179-5e86f2f70d29","ios":"levelo://app?vid=65c6c2c1-4759-42be-a179-5e86f2f70d29"},"vehicle_type_id":"4","last_reported":1699135532,"current_range_meters":26400,"station_id":"ce4bgvh2rcd13ifvqcs0","pricing_plan_id":"free"},{"bike_id":"65dd663c-183d-402d-a3a0-7044d319fb05","system_id":"levelo_inurba_marseille","lat":43.30249,"lon":5.40085,"is_reserved":false,"is_disabled":false,"rental_uris":{"android":"levelo://app?vid=65dd663c-183d-402d-a3a0-7044d319fb05","ios":"levelo://app?vid=65dd663c-183d-402d-a3a0-7044d319fb05"},"vehicle_type_id":"4","last_reported":1699135532,"current_range_meters":8000,"station_id":"ce4bgvh2rcd13ifvqcs0","pricing_plan_id":"free"},{"bike_id":"0f395e23-c73b-4e43-a3b9-0179f0029c73","system_id":"levelo_inurba_marseille","lat":43.286109,"lon":5.370674,"is_reserved":false,"is_disabled":false,"rental_uris":{"android":"levelo://app?vid=0f395e23-c73b-4e43-a3b9-0179f0029c73","ios":"levelo://app?vid=0f395e23-c73b-4e43-a3b9-0179f0029c73"},"vehicle_type_id":"4","last_reported":1699135532,"current_range_meters":22000,"station_id":"ce4bht12rcd13ifvqi60","pricing_plan_id":"free"},{"bike_id":"e5ebeda3-958f-4477-a301-3e74febe7910","system_id":"levelo_inurba_marseille","lat":43.31648,"lon":5.40441,"is_reserved":false,"is_disabled":false,"rental_uris":{"android":"levelo://app?vid=e5ebeda3-958f-4477-a301-3e74febe7910","ios":"levelo://app?vid=e5ebeda3-958f-4477-a301-3e74febe7910"},"vehicle_type_id":"4","last_reported":1699135532,"current_range_meters":18000,"station_id":"ce4bh012rcd13ifvqd00","pricing_plan_id":"free"},{"bike_id":"ffce60d9-b3b2-4663-96a0-b2b8c5a3c3d7","system_id":"levelo_inurba_marseille","lat":43.28935,"lon":5.38721,"is_reserved":false,"is_disabled":false,"rental_uris":{"android":"levelo://app?vid=ffce60d9-b3b2-4663-96a0-b2b8c5a3c3d7","ios":"levelo://app?vid=ffce60d9-b3b2-4663-96a0-b2b8c5a3c3d7"},"vehicle_type_id":"4","last_reported":1699135532,"current_range_meters":9600,"station_id":"","pricing_plan_id":"free"},{"bike_id":"ccb8c974-7f1d-488e-ad6f-b8694d5c2aba","system_id":"levelo_inurba_marseille","lat":43.328576,"lon":5.398841,"is_reserved":false,"is_disabled":false,"rental_uris":{"android":"levelo://app?vid=ccb8c974-7f1d-488e-ad6f-b8694d5c2aba","ios":"levelo://app?vid=ccb8c974-7f1d-488e-ad6f-b8694d5c2aba"},"vehicle_type_id":"4","last_reported":1699135532,"current_range_meters":26000,"station_id":"","pricing_plan_id":"free"},{"bike_id":"d8828b79-e9ab-46e2-851b-91f599637a42","system_id":"levelo_inurba_marseille","lat":43.291994,"lon":5.392907,"is_reserved":false,"is_disabled":false,"rental_uris":{"android":"levelo://app?vid=d8828b79-e9ab-46e2-851b-91f599637a42","ios":"levelo://app?vid=d8828b79-e9ab-46e2-851b-91f599637a42"},"vehicle_type_id":"4","last_reported":1699135532,"current_range_meters":23600,"station_id":"ce4bh192rcd13ifvqdd0","pricing_plan_id":"free"},{"bike_id":"2933aa25-7704-4d93-b00b-1667f46561e0","system_id":"levelo_inurba_marseille","lat":43.29194,"lon":5.39321,"is_reserved":false,"is_disabled":false,"rental_uris":{"android":"levelo://app?vid=2933aa25-7704-4d93-b00b-1667f46561e0","ios":"levelo://app?vid=2933aa25-7704-4d93-b00b-1667f46561e0"},"vehicle_type_id":"4","last_reported":1699135532,"current_range_meters":26400,"station_id":"ce4bh192rcd13ifvqdd0","pricing_plan_id":"free"},{"bike_id":"334fca6f-1a81-4597-a1a5-18bc109e01b4","system_id":"levelo_inurba_marseille","lat":43.28467,"lon":5.359,"is_reserved":false,"is_disabled":false,"rental_uris":{"android":"levelo://app?vid=334fca6f-1a81-4597-a1a5-18bc109e01b4","ios":"levelo://app?vid=334fca6f-1a81-4597-a1a5-18bc109e01b4"},"vehicle_type_id":"4","last_reported":1699135532,"current_range_meters":16000,"station_id":"ce4bhah2rcd13ifvqei0","pricing_plan_id":"free"},{"bike_id":"a2632baa-2b08-4a7a-9f55-3f218c7cafe6","system_id":"levelo_inurba_marseille","lat":43.2846,"lon":5.35882,"is_reserved":false,"is_disabled":false,"rental_uris":{"android":"levelo://app?vid=a2632baa-2b08-4a7a-9f55-3f218c7cafe6","ios":"levelo://app?vid=a2632baa-2b08-4a7a-9f55-3f218c7cafe6"},"vehicle_type_id":"4","last_reported":1699135532,"current_range_meters":29200,"station_id":"ce4bhah2rcd13ifvqei0","pricing_plan_id":"free"},{"bike_id":"0b805e1b-c82d-4322-8dc7-8c07c6c4fcae","system_id":"levelo_inurba_marseille","lat":43.2846,"lon":5.35881,"is_reserved":false,"is_disabled":false,"rental_uris":{"android":"levelo://app?vid=0b805e1b-c82d-4322-8dc7-8c07c6c4fcae","ios":"levelo://app?vid=0b805e1b-c82d-4322-8dc7-8c07c6c4fcae"},"vehicle_type_id":"4","last_reported":1699135532,"current_range_meters":6400,"station_id":"ce4bhah2rcd13ifvqei0","pricing_plan_id":"free"},{"bike_id":"a954dce6-bafe-40fb-a845-e63e2d909bb3","system_id":"levelo_inurba_marseille","lat":43.294314,"lon":5.397498,"is_reserved":false,"is_disabled":false,"rental_uris":{"android":"levelo://app?vid=a954dce6-bafe-40fb-a845-e63e2d909bb3","ios":"levelo://app?vid=a954dce6-bafe-40fb-a845-e63e2d909bb3"},"vehicle_type_id":"4","last_reported":1699135532,"current_range_meters":11600,"station_id":"ce4bh3h2rcd13ifvqdo0","pricing_plan_id":"free"},{"bike_id":"9f8ec25d-7026-43f6-b963-db9cf5a44761","system_id":"levelo_inurba_marseille","lat":43.294314,"lon":5.397498,"is_reserved":false,"is_disabled":false,"rental_uris":{"android":"levelo://app?vid=9f8ec25d-7026-43f6-b963-db9cf5a44761","ios":"levelo://app?vid=9f8ec25d-7026-43f6-b963-db9cf5a44761"},"vehicle_type_id":"4","last_reported":1699135532,"current_range_meters":19600,"station_id":"ce4bh3h2rcd13ifvqdo0","pricing_plan_id":"free"},{"bike_id":"9469da6e-ab42-475d-9ea1-edf325742d7b","system_id":"levelo_inurba_marseille","lat":43.294314,"lon":5.397498,"is_reserved":false,"is_disabled":false,"rental_uris":{"android":"levelo://app?vid=9469da6e-ab42-475d-9ea1-edf325742d7b","ios":"levelo://app?vid=9469da6e-ab42-475d-9ea1-edf325742d7b"},"vehicle_type_id":"4","last_reported":1699135532,"current_range_meters":5200,"station_id":"ce4bh3h2rcd13ifvqdo0","pricing_plan_id":"free"},{"bike_id":"c21cccd7-05b3-4b24-8dc8-64365cc75f24","system_id":"levelo_inurba_marseille","lat":43.28415,"lon":5.37499,"is_reserved":false,"is_disabled":false,"rental_uris":{"android":"levelo://app?vid=c21cccd7-05b3-4b24-8dc8-64365cc75f24","ios":"levelo://app?vid=c21cccd7-05b3-4b24-8dc8-64365cc75f24"},"vehicle_type_id":"4","last_reported":1699135532,"current_range_meters":27600,"station_id":"ce4bh412rcd13ifvqds0","pricing_plan_id":"free"},{"bike_id":"e6410516-f55c-4d49-accc-9ba0807fac66","system_id":"levelo_inurba_marseille","lat":43.28416,"lon":5.3751,"is_reserved":false,"is_disabled":false,"rental_uris":{"android":"levelo://app?vid=e6410516-f55c-4d49-accc-9ba0807fac66","ios":"levelo://app?vid=e6410516-f55c-4d49-accc-9ba0807fac66"},"vehicle_type_id":"4","last_reported":1699135532,"current_range_meters":4800,"station_id":"ce4bh412rcd13ifvqds0","pricing_plan_id":"free"},{"bike_id":"d8fd9fdf-5ef2-4952-a704-c9f20a4a86d3","system_id":"levelo_inurba_marseille","lat":43.308012,"lon":5.381511,"is_reserved":false,"is_disabled":false,"rental_uris":{"android":"levelo://app?vid=d8fd9fdf-5ef2-4952-a704-c9f20a4a86d3","ios":"levelo://app?vid=d8fd9fdf-5ef2-4952-a704-c9f20a4a86d3"},"vehicle_type_id":"4","last_reported":1699135532,"current_range_meters":2400,"station_id":"ce4bgt12rcd13ifvqce0","pricing_plan_id":"free"},{"bike_id":"91b3623d-4f7b-4b41-bc3a-2fa716f16d74","system_id":"levelo_inurba_marseille","lat":43.283998,"lon":5.375062,"is_reserved":false,"is_disabled":false,"rental_uris":{"android":"levelo://app?vid=91b3623d-4f7b-4b41-bc3a-2fa716f16d74","ios":"levelo://app?vid=91b3623d-4f7b-4b41-bc3a-2fa716f16d74"},"vehicle_type_id":"4","last_reported":1699135532,"current_range_meters":28800,"station_id":"ce4bh412rcd13ifvqds0","pricing_plan_id":"free"},{"bike_id":"18818fd0-93ea-4c5d-8baa-4b5c98852063","system_id":"levelo_inurba_marseille","lat":43.283998,"lon":5.375062,"is_reserved":false,"is_disabled":false,"rental_uris":{"android":"levelo://app?vid=18818fd0-93ea-4c5d-8baa-4b5c98852063","ios":"levelo://app?vid=18818fd0-93ea-4c5d-8baa-4b5c98852063"},"vehicle_type_id":"4","last_reported":1699135532,"current_range_meters":22400,"station_id":"ce4bh412rcd13ifvqds0","pricing_plan_id":"free"},{"bike_id":"c201768f-7252-481d-b596-3e20955cf087","system_id":"levelo_inurba_marseille","lat":43.286595,"lon":5.386795,"is_reserved":false,"is_disabled":false,"rental_uris":{"android":"levelo://app?vid=c201768f-7252-481d-b596-3e20955cf087","ios":"levelo://app?vid=c201768f-7252-481d-b596-3e20955cf087"},"vehicle_type_id":"4","last_reported":1699135532,"current_range_meters":2400,"station_id":"ce4bh492rcd13ifvqdug","pricing_plan_id":"free"},{"bike_id":"78ba86fd-ea7b-4c78-ac30-b76839f9d2a9","system_id":"levelo_inurba_marseille","lat":43.33717,"lon":5.391857,"is_reserved":false,"is_disabled":false,"rental_uris":{"android":"levelo://app?vid=78ba86fd-ea7b-4c78-ac30-b76839f9d2a9","ios":"levelo://app?vid=78ba86fd-ea7b-4c78-ac30-b76839f9d2a9"},"vehicle_type_id":"4","last_reported":1699135532,"current_range_meters":1200,"station_id":"ce4bhr92rcd13ifvqhsg","pricing_plan_id":"free"},{"bike_id":"4a0076e1-65de-4d33-a33b-f4a716e7808c","system_id":"levelo_inurba_marseille","lat":43.32335,"lon":5.40626,"is_reserved":false,"is_disabled":false,"rental_uris":{"android":"levelo://app?vid=4a0076e1-65de-4d33-a33b-f4a716e7808c","ios":"levelo://app?vid=4a0076e1-65de-4d33-a33b-f4a716e7808c"},"vehicle_type_id":"4","last_reported":1699135532,"current_range_meters":19200,"station_id":"ce4bhq92rcd13ifvqhjg","pricing_plan_id":"free"},{"bike_id":"a8db2404-5e79-4eb1-afb6-de1d08360b61","system_id":"levelo_inurba_marseille","lat":43.288501,"lon":5.393087,"is_reserved":false,"is_disabled":false,"rental_uris":{"android":"levelo://app?vid=a8db2404-5e79-4eb1-afb6-de1d08360b61","ios":"levelo://app?vid=a8db2404-5e79-4eb1-afb6-de1d08360b61"},"vehicle_type_id":"4","last_reported":1699135532,"current_range_meters":19200,"station_id":"ce4bh2p2rcd13ifvqdi0","pricing_plan_id":"free"},{"bike_id":"d00c55db-8e21-40c0-8ba9-eca86c6518b9","system_id":"levelo_inurba_marseille","lat":43.288505,"lon":5.39314,"is_reserved":false,"is_disabled":false,"rental_uris":{"android":"levelo://app?vid=d00c55db-8e21-40c0-8ba9-eca86c6518b9","ios":"levelo://app?vid=d00c55db-8e21-40c0-8ba9-eca86c6518b9"},"vehicle_type_id":"4","last_reported":1699135532,"current_range_meters":27200,"station_id":"ce4bh2p2rcd13ifvqdi0","pricing_plan_id":"free"},{"bike_id":"f00b7ca1-8404-4df2-af63-ca82aa64f18a","system_id":"levelo_inurba_marseille","lat":43.29801,"lon":5.40421,"is_reserved":false,"is_disabled":false,"rental_uris":{"android":"levelo://app?vid=f00b7ca1-8404-4df2-af63-ca82aa64f18a","ios":"levelo://app?vid=f00b7ca1-8404-4df2-af63-ca82aa64f18a"},"vehicle_type_id":"4","last_reported":1699135532,"current_range_meters":26000,"station_id":"ce4bh112rcd13ifvqd90","pricing_plan_id":"free"},{"bike_id":"a5ace8df-fae3-4a10-96cb-b582c3fd5f84","system_id":"levelo_inurba_marseille","lat":43.283494,"lon":5.380945,"is_reserved":false,"is_disabled":false,"rental_uris":{"android":"levelo://app?vid=a5ace8df-fae3-4a10-96cb-b582c3fd5f84","ios":"levelo://app?vid=a5ace8df-fae3-4a10-96cb-b582c3fd5f84"},"vehicle_type_id":"4","last_reported":1699135532,"current_range_meters":27600,"station_id":"ce4bh412rcd13ifvqdr0","pricing_plan_id":"free"},{"bike_id":"8564ed6e-6245-4f0d-9a58-b76965a83c2f","system_id":"levelo_inurba_marseille","lat":43.283503,"lon":5.380993,"is_reserved":false,"is_disabled":false,"rental_uris":{"android":"levelo://app?vid=8564ed6e-6245-4f0d-9a58-b76965a83c2f","ios":"levelo://app?vid=8564ed6e-6245-4f0d-9a58-b76965a83c2f"},"vehicle_type_id":"4","last_reported":1699135532,"current_range_meters":21600,"station_id":"ce4bh412rcd13ifvqdr0","pricing_plan_id":"free"},{"bike_id":"9b9bd45f-908b-4668-99d8-ea4457ed625f","system_id":"levelo_inurba_marseille","lat":43.283498,"lon":5.380948,"is_reserved":false,"is_disabled":false,"rental_uris":{"android":"levelo://app?vid=9b9bd45f-908b-4668-99d8-ea4457ed625f","ios":"levelo://app?vid=9b9bd45f-908b-4668-99d8-ea4457ed625f"},"vehicle_type_id":"4","last_reported":1699135532,"current_range_meters":25200,"station_id":"ce4bh412rcd13ifvqdr0","pricing_plan_id":"free"},{"bike_id":"9f2bd97d-990b-4766-96d1-6a09db940b01","system_id":"levelo_inurba_marseille","lat":43.324121,"lon":5.406649,"is_reserved":false,"is_disabled":false,"rental_uris":{"android":"levelo://app?vid=9f2bd97d-990b-4766-96d1-6a09db940b01","ios":"levelo://app?vid=9f2bd97d-990b-4766-96d1-6a09db940b01"},"vehicle_type_id":"4","last_reported":1699135532,"current_range_meters":24400,"station_id":"","pricing_plan_id":"free"},{"bike_id":"59710ad0-e863-4121-a1b5-0c82c367ea42","system_id":"levelo_inurba_marseille","lat":43.283498,"lon":5.380948,"is_reserved":false,"is_disabled":false,"rental_uris":{"android":"levelo://app?vid=59710ad0-e863-4121-a1b5-0c82c367ea42","ios":"levelo://app?vid=59710ad0-e863-4121-a1b5-0c82c367ea42"},"vehicle_type_id":"4","last_reported":1699135532,"current_range_meters":25200,"station_id":"ce4bh412rcd13ifvqdr0","pricing_plan_id":"free"},{"bike_id":"00cdcca0-fb24-4099-a3f4-78c82ef40757","system_id":"levelo_inurba_marseille","lat":43.342333,"lon":5.380949,"is_reserved":false,"is_disabled":false,"rental_uris":{"android":"levelo://app?vid=00cdcca0-fb24-4099-a3f4-78c82ef40757","ios":"levelo://app?vid=00cdcca0-fb24-4099-a3f4-78c82ef40757"},"vehicle_type_id":"4","last_reported":1699135532,"current_range_meters":30400,"station_id":"ce4bhr92rcd13ifvqhrg","pricing_plan_id":"free"},{"bike_id":"75b0cb16-2c74-4aa2-9145-ab9f818b8299","system_id":"levelo_inurba_marseille","lat":43.289363,"lon":5.396322,"is_reserved":false,"is_disabled":false,"rental_uris":{"android":"levelo://app?vid=75b0cb16-2c74-4aa2-9145-ab9f818b8299","ios":"levelo://app?vid=75b0cb16-2c74-4aa2-9145-ab9f818b8299"},"vehicle_type_id":"4","last_reported":1699135532,"current_range_meters":30000,"station_id":"ce4bh3h2rcd13ifvqdn0","pricing_plan_id":"free"},{"bike_id":"97912064-1120-40e5-ac00-dad4a4242407","system_id":"levelo_inurba_marseille","lat":43.292724,"lon":5.401131,"is_reserved":false,"is_disabled":false,"rental_uris":{"android":"levelo://app?vid=97912064-1120-40e5-ac00-dad4a4242407","ios":"levelo://app?vid=97912064-1120-40e5-ac00-dad4a4242407"},"vehicle_type_id":"4","last_reported":1699135532,"current_range_meters":28800,"station_id":"ce4bh312rcd13ifvqdk0","pricing_plan_id":"free"},{"bike_id":"8b3316d7-b9c9-405b-9ce0-72d963803f23","system_id":"levelo_inurba_marseille","lat":43.292724,"lon":5.401131,"is_reserved":false,"is_disabled":false,"rental_uris":{"android":"levelo://app?vid=8b3316d7-b9c9-405b-9ce0-72d963803f23","ios":"levelo://app?vid=8b3316d7-b9c9-405b-9ce0-72d963803f23"},"vehicle_type_id":"4","last_reported":1699135532,"current_range_meters":16000,"station_id":"ce4bh312rcd13ifvqdk0","pricing_plan_id":"free"},{"bike_id":"874836c6-bbf3-4288-96cf-5291092e69d1","system_id":"levelo_inurba_marseille","lat":43.29274,"lon":5.40108,"is_reserved":false,"is_disabled":false,"rental_uris":{"android":"levelo://app?vid=874836c6-bbf3-4288-96cf-5291092e69d1","ios":"levelo://app?vid=874836c6-bbf3-4288-96cf-5291092e69d1"},"vehicle_type_id":"4","last_reported":1699135532,"current_range_meters":25200,"station_id":"ce4bh312rcd13ifvqdk0","pricing_plan_id":"free"},{"bike_id":"4c8e2ce9-daea-4954-8fa4-2db2f3a32b65","system_id":"levelo_inurba_marseille","lat":43.292724,"lon":5.401131,"is_reserved":false,"is_disabled":false,"rental_uris":{"android":"levelo://app?vid=4c8e2ce9-daea-4954-8fa4-2db2f3a32b65","ios":"levelo://app?vid=4c8e2ce9-daea-4954-8fa4-2db2f3a32b65"},"vehicle_type_id":"4","last_reported":1699135532,"current_range_meters":24400,"station_id":"ce4bh312rcd13ifvqdk0","pricing_plan_id":"free"},{"bike_id":"edd159fb-3c1e-4164-84b5-a4a1316e4a89","system_id":"levelo_inurba_marseille","lat":43.282744,"lon":5.350533,"is_reserved":false,"is_disabled":false,"rental_uris":{"android":"levelo://app?vid=edd159fb-3c1e-4164-84b5-a4a1316e4a89","ios":"levelo://app?vid=edd159fb-3c1e-4164-84b5-a4a1316e4a89"},"vehicle_type_id":"4","last_reported":1699135532,"current_range_meters":16800,"station_id":"ce4bhbp2rcd13ifvqerg","pricing_plan_id":"free"},{"bike_id":"7298d8f5-f72c-4fbe-9ee6-b2af425f2120","system_id":"levelo_inurba_marseille","lat":43.283502,"lon":5.386471,"is_reserved":false,"is_disabled":false,"rental_uris":{"android":"levelo://app?vid=7298d8f5-f72c-4fbe-9ee6-b2af425f2120","ios":"levelo://app?vid=7298d8f5-f72c-4fbe-9ee6-b2af425f2120"},"vehicle_type_id":"4","last_reported":1699135532,"current_range_meters":3200,"station_id":"ce4bh492rcd13ifvqdvg","pricing_plan_id":"free"},{"bike_id":"10e970e4-b7f1-46c8-acb5-d32850b8cc3b","system_id":"levelo_inurba_marseille","lat":43.28039,"lon":5.369297,"is_reserved":false,"is_disabled":false,"rental_uris":{"android":"levelo://app?vid=10e970e4-b7f1-46c8-acb5-d32850b8cc3b","ios":"levelo://app?vid=10e970e4-b7f1-46c8-acb5-d32850b8cc3b"},"vehicle_type_id":"4","last_reported":1699135532,"current_range_meters":29200,"station_id":"ce4bha12rcd13ifvqef0","pricing_plan_id":"free"},{"bike_id":"34910a11-2868-4b52-a178-dcb68287d0a5","system_id":"levelo_inurba_marseille","lat":43.281044,"lon":5.378308,"is_reserved":false,"is_disabled":false,"rental_uris":{"android":"levelo://app?vid=34910a11-2868-4b52-a178-dcb68287d0a5","ios":"levelo://app?vid=34910a11-2868-4b52-a178-dcb68287d0a5"},"vehicle_type_id":"4","last_reported":1699135532,"current_range_meters":9200,"station_id":"ce4bha12rcd13ifvqee0","pricing_plan_id":"free"},{"bike_id":"9da65b6c-379e-48a4-ba7f-fdda8560ea6a","system_id":"levelo_inurba_marseille","lat":43.281,"lon":5.37841,"is_reserved":false,"is_disabled":false,"rental_uris":{"android":"levelo://app?vid=9da65b6c-379e-48a4-ba7f-fdda8560ea6a","ios":"levelo://app?vid=9da65b6c-379e-48a4-ba7f-fdda8560ea6a"},"vehicle_type_id":"4","last_reported":1699135532,"current_range_meters":0,"station_id":"ce4bha12rcd13ifvqee0","pricing_plan_id":"free"},{"bike_id":"43ca9145-8127-4e55-8b1e-ccf4201eb436","system_id":"levelo_inurba_marseille","lat":43.281044,"lon":5.378308,"is_reserved":false,"is_disabled":false,"rental_uris":{"android":"levelo://app?vid=43ca9145-8127-4e55-8b1e-ccf4201eb436","ios":"levelo://app?vid=43ca9145-8127-4e55-8b1e-ccf4201eb436"},"vehicle_type_id":"4","last_reported":1699135532,"current_range_meters":20400,"station_id":"ce4bha12rcd13ifvqee0","pricing_plan_id":"free"},{"bike_id":"4b67c47c-181f-48fe-89f5-357ebd001ca5","system_id":"levelo_inurba_marseille","lat":43.296263,"lon":5.40601,"is_reserved":false,"is_disabled":false,"rental_uris":{"android":"levelo://app?vid=4b67c47c-181f-48fe-89f5-357ebd001ca5","ios":"levelo://app?vid=4b67c47c-181f-48fe-89f5-357ebd001ca5"},"vehicle_type_id":"4","last_reported":1699135532,"current_range_meters":22800,"station_id":"ce4bh0h2rcd13ifvqd60","pricing_plan_id":"free"},{"bike_id":"d445e7dc-8f39-4198-8d15-1838ad42556e","system_id":"levelo_inurba_marseille","lat":43.29632,"lon":5.40608,"is_reserved":false,"is_disabled":false,"rental_uris":{"android":"levelo://app?vid=d445e7dc-8f39-4198-8d15-1838ad42556e","ios":"levelo://app?vid=d445e7dc-8f39-4198-8d15-1838ad42556e"},"vehicle_type_id":"4","last_reported":1699135532,"current_range_meters":22400,"station_id":"ce4bh0h2rcd13ifvqd60","pricing_plan_id":"free"},{"bike_id":"1ca242fe-6084-4f9b-8b54-35d465872844","system_id":"levelo_inurba_marseille","lat":43.29041,"lon":5.399634,"is_reserved":false,"is_disabled":false,"rental_uris":{"android":"levelo://app?vid=1ca242fe-6084-4f9b-8b54-35d465872844","ios":"levelo://app?vid=1ca242fe-6084-4f9b-8b54-35d465872844"},"vehicle_type_id":"4","last_reported":1699135532,"current_range_meters":20000,"station_id":"ce4bh392rcd13ifvqdm0","pricing_plan_id":"free"},{"bike_id":"9a917a16-7adc-4bb0-be1e-82f66ce73a3d","system_id":"levelo_inurba_marseille","lat":43.323447,"lon":5.41003,"is_reserved":false,"is_disabled":false,"rental_uris":{"android":"levelo://app?vid=9a917a16-7adc-4bb0-be1e-82f66ce73a3d","ios":"levelo://app?vid=9a917a16-7adc-4bb0-be1e-82f66ce73a3d"},"vehicle_type_id":"4","last_reported":1699135532,"current_range_meters":30800,"station_id":"","pricing_plan_id":"free"},{"bike_id":"b960f9c4-37cc-4d88-b7b2-f74d3fe59335","system_id":"levelo_inurba_marseille","lat":43.285742,"lon":5.395004,"is_reserved":false,"is_disabled":false,"rental_uris":{"android":"levelo://app?vid=b960f9c4-37cc-4d88-b7b2-f74d3fe59335","ios":"levelo://app?vid=b960f9c4-37cc-4d88-b7b2-f74d3fe59335"},"vehicle_type_id":"4","last_reported":1699135532,"current_range_meters":0,"station_id":"ce4bh292rcd13ifvqdg0","pricing_plan_id":"free"},{"bike_id":"3694f81b-be98-41a9-9b7d-d1834ee71703","system_id":"levelo_inurba_marseille","lat":43.285742,"lon":5.395004,"is_reserved":false,"is_disabled":false,"rental_uris":{"android":"levelo://app?vid=3694f81b-be98-41a9-9b7d-d1834ee71703","ios":"levelo://app?vid=3694f81b-be98-41a9-9b7d-d1834ee71703"},"vehicle_type_id":"4","last_reported":1699135532,"current_range_meters":28000,"station_id":"ce4bh292rcd13ifvqdg0","pricing_plan_id":"free"},{"bike_id":"95b495d8-eda0-447c-8a00-0503001bad57","system_id":"levelo_inurba_marseille","lat":43.285697,"lon":5.395003,"is_reserved":false,"is_disabled":false,"rental_uris":{"android":"levelo://app?vid=95b495d8-eda0-447c-8a00-0503001bad57","ios":"levelo://app?vid=95b495d8-eda0-447c-8a00-0503001bad57"},"vehicle_type_id":"4","last_reported":1699135532,"current_range_meters":23200,"station_id":"ce4bh292rcd13ifvqdg0","pricing_plan_id":"free"},{"bike_id":"ebf2dbed-c1f0-4acb-ace3-94b138584ab5","system_id":"levelo_inurba_marseille","lat":43.28568,"lon":5.39498,"is_reserved":false,"is_disabled":false,"rental_uris":{"android":"levelo://app?vid=ebf2dbed-c1f0-4acb-ace3-94b138584ab5","ios":"levelo://app?vid=ebf2dbed-c1f0-4acb-ace3-94b138584ab5"},"vehicle_type_id":"4","last_reported":1699135532,"current_range_meters":4400,"station_id":"ce4bh292rcd13ifvqdg0","pricing_plan_id":"free"},{"bike_id":"0b6d9230-8f2d-4b34-b0d6-d8b386fa0b19","system_id":"levelo_inurba_marseille","lat":43.32657,"lon":5.40991,"is_reserved":false,"is_disabled":false,"rental_uris":{"android":"levelo://app?vid=0b6d9230-8f2d-4b34-b0d6-d8b386fa0b19","ios":"levelo://app?vid=0b6d9230-8f2d-4b34-b0d6-d8b386fa0b19"},"vehicle_type_id":"4","last_reported":1699135532,"current_range_meters":29200,"station_id":"ce4bhpp2rcd13ifvqhgg","pricing_plan_id":"free"},{"bike_id":"fbd74325-47fc-4391-a47a-9b8508859759","system_id":"levelo_inurba_marseille","lat":43.304188,"lon":5.412904,"is_reserved":false,"is_disabled":false,"rental_uris":{"android":"levelo://app?vid=fbd74325-47fc-4391-a47a-9b8508859759","ios":"levelo://app?vid=fbd74325-47fc-4391-a47a-9b8508859759"},"vehicle_type_id":"4","last_reported":1699135532,"current_range_meters":11600,"station_id":"ce4bhop2rcd13ifvqh8g","pricing_plan_id":"free"},{"bike_id":"41d2c74d-3552-42f6-83f2-dbef9cea1754","system_id":"levelo_inurba_marseille","lat":43.304188,"lon":5.412904,"is_reserved":false,"is_disabled":false,"rental_uris":{"android":"levelo://app?vid=41d2c74d-3552-42f6-83f2-dbef9cea1754","ios":"levelo://app?vid=41d2c74d-3552-42f6-83f2-dbef9cea1754"},"vehicle_type_id":"4","last_reported":1699135532,"current_range_meters":16400,"station_id":"ce4bhop2rcd13ifvqh8g","pricing_plan_id":"free"},{"bike_id":"08cd5a41-f784-4b29-ad2a-40b47a5359b5","system_id":"levelo_inurba_marseille","lat":43.304188,"lon":5.412904,"is_reserved":false,"is_disabled":false,"rental_uris":{"android":"levelo://app?vid=08cd5a41-f784-4b29-ad2a-40b47a5359b5","ios":"levelo://app?vid=08cd5a41-f784-4b29-ad2a-40b47a5359b5"},"vehicle_type_id":"4","last_reported":1699135532,"current_range_meters":20400,"station_id":"ce4bhop2rcd13ifvqh8g","pricing_plan_id":"free"},{"bike_id":"0676efb1-cc4a-4ffb-a868-bc149d280e8a","system_id":"levelo_inurba_marseille","lat":43.28698,"lon":5.39981,"is_reserved":false,"is_disabled":false,"rental_uris":{"android":"levelo://app?vid=0676efb1-cc4a-4ffb-a868-bc149d280e8a","ios":"levelo://app?vid=0676efb1-cc4a-4ffb-a868-bc149d280e8a"},"vehicle_type_id":"4","last_reported":1699135532,"current_range_meters":28800,"station_id":"ce4bho92rcd13ifvqh3g","pricing_plan_id":"free"},{"bike_id":"6a99399f-02c9-4d64-884f-4e7682907288","system_id":"levelo_inurba_marseille","lat":43.287154,"lon":5.399979,"is_reserved":false,"is_disabled":false,"rental_uris":{"android":"levelo://app?vid=6a99399f-02c9-4d64-884f-4e7682907288","ios":"levelo://app?vid=6a99399f-02c9-4d64-884f-4e7682907288"},"vehicle_type_id":"4","last_reported":1699135532,"current_range_meters":21600,"station_id":"ce4bho92rcd13ifvqh3g","pricing_plan_id":"free"},{"bike_id":"c6ee88a3-9bfb-4edd-9d42-451953ff55b1","system_id":"levelo_inurba_marseille","lat":43.287154,"lon":5.399979,"is_reserved":false,"is_disabled":false,"rental_uris":{"android":"levelo://app?vid=c6ee88a3-9bfb-4edd-9d42-451953ff55b1","ios":"levelo://app?vid=c6ee88a3-9bfb-4edd-9d42-451953ff55b1"},"vehicle_type_id":"4","last_reported":1699135532,"current_range_meters":8000,"station_id":"ce4bho92rcd13ifvqh3g","pricing_plan_id":"free"},{"bike_id":"f565aa2b-bbd8-4038-86c2-e74603a6e71f","system_id":"levelo_inurba_marseille","lat":43.281291,"lon":5.390495,"is_reserved":false,"is_disabled":false,"rental_uris":{"android":"levelo://app?vid=f565aa2b-bbd8-4038-86c2-e74603a6e71f","ios":"levelo://app?vid=f565aa2b-bbd8-4038-86c2-e74603a6e71f"},"vehicle_type_id":"4","last_reported":1699135532,"current_range_meters":0,"station_id":"","pricing_plan_id":"free"},