{"last_updated":1767965465,"ttl":60,"version":"2.2","data":{"bikes":[{"bike_id":"9cfeff17-a54a-4b3c-baa8-c7ed795fc5f2","system_id":"levelo_inurba_marseille","lat":43.24215,"lon":5.36403,"is_reserved":false,"is_disabled":false,"rental_uris":{"android":"levelo://app?vid=9cfeff17-a54a-4b3c-baa8-c7ed795fc5f2","ios":"levelo://app?vid=9cfeff17-a54a-4b3c-baa8-c7ed795fc5f2"},"vehicle_type_id":"4","last_reported":1767965465,"current_range_meters":2800,"station_id":"cpo36qri1sfpv3e86is0","pricing_plan_id":"cebpf4jnsgd1na2vs0mg"},{"bike_id":"bfd65873-308f-48f0-a29e-b49d69f37a2f","system_id":"levelo_inurba_marseille","lat":43.25582,"lon":5.38238,"is_reserved":false,"is_disabled":false,"rental_uris":{"android":"levelo://app?vid=bfd65873-308f-48f0-a29e-b49d69f37a2f","ios":"levelo://app?vid=bfd65873-308f-48f0-a29e-b49d69f37a2f"},"vehicle_type_id":"4","last_reported":1767965465,"current_range_meters":2800,"station_id":"ce4bhih2rcd13ifvqfs0","pricing_plan_id":"cebpf4jnsgd1na2vs0mg"},{"bike_id":"662b526c-8c27-4d2d-b35e-6a1cdf3512ce","system_id":"levelo_inurba_marseille","lat":43.24816,"lon":5.37449,"is_reserved":false,"is_disabled":false,"rental_uris":{"android":"levelo://app?vid=662b526c-8c27-4d2d-b35e-6a1cdf3512ce","ios":"levelo://app?vid=662b526c-8c27-4d2d-b35e-6a1cdf3512ce"},"vehicle_type_id":"4","last_reported":1767965465,"current_range_meters":2800,"station_id":"ce4bhgh2rcd13ifvqfb0","pricing_plan_id":"cebpf4jnsgd1na2vs0mg"},{"bike_id":"b041f73e-24b2-45dc-94b4-d3fa21cc46b4","system_id":"levelo_inurba_marseille","lat":43.24807,"lon":5.37462,"is_reserved":false,"is_disabled":false,"rental_uris":{"android":"levelo://app?vid=b041f73e-24b2-45dc-94b4-d3fa21cc46b4","ios":"levelo://app?vid=b041f73e-24b2-45dc-94b4-d3fa21cc46b4"},"vehicle_type_id":"4","last_reported":1767965465,"current_range_meters":2800,"station_id":"ce4bhgh2rcd13ifvqfb0","pricing_plan_id":"cebpf4jnsgd1na2vs0mg"},{"bike_id":"b7f3c4cb-f031-4c24-997a-59db73970d75","system_id":"levelo_inurba_marseille","lat":43.262267,"lon":5.404495,"is_reserved":false,"is_disabled":false,"rental_uris":{"android":"levelo://app?vid=b7f3c4cb-f031-4c24-997a-59db73970d75","ios":"levelo://app?vid=b7f3c4cb-f031-4c24-997a-59db73970d75"},"vehicle_type_id":"4","last_reported":1767965465,"current_range_meters":2800,"station_id":"","pricing_plan_id":"cebpf4jnsgd1na2vs0mg"},{"bike_id":"ac85bb10-c7ee-4643-b359-aaaae092715f","system_id":"levelo_inurba_marseille","lat":43.27995,"lon":5.416657,"is_reserved":false,"is_disabled":false,"rental_uris":{"android":"levelo://app?vid=ac85bb10-c7ee-4643-b359-aaaae092715f","ios":"levelo://app?vid=ac85bb10-c7ee-4643-b359-aaaae092715f"},"vehicle_type_id":"4","last_reported":1767965465,"current_range_meters":2800,"station_id":"ce4bho12rcd13ifvqh1g","pricing_plan_id":"cebpf4jnsgd1na2vs0mg"},{"bike_id":"d1503492-6ffa-488d-8734-2a5894ac221c","system_id":"levelo_inurba_marseille","lat":43.289372,"lon":5.387241,"is_reserved":false,"is_disabled":false,"rental_uris":{"android":"levelo://app?vid=d1503492-6ffa-488d-8734-2a5894ac221c","ios":"levelo://app?vid=d1503492-6ffa-488d-8734-2a5894ac221c"},"vehicle_type_id":"4","last_reported":1767965465,"current_range_meters":2800,"station_id":"ce4bh4p2rcd13ifvqe0g","pricing_plan_id":"cebpf4jnsgd1na2vs0mg"},{"bike_id":"357563d8-d33e-4f70-862e-8fab05436ef0","system_id":"levelo_inurba_marseille","lat":43.289776,"lon":5.378228,"is_reserved":false,"is_disabled":false,"rental_uris":{"android":"levelo://app?vid=357563d8-d33e-4f70-862e-8fab05436ef0","ios":"levelo://app?vid=357563d8-d33e-4f70-862e-8fab05436ef0"},"vehicle_type_id":"4","last_reported":1767965465,"current_range_meters":2800,"station_id":"","pricing_plan_id":"cebpf4jnsgd1na2vs0mg"},{"bike_id":"b7959f4b-7839-4fd4-a063-14ae8719d80d","system_id":"levelo_inurba_marseille","lat":43.29982,"lon":5.38487,"is_reserved":false,"is_disabled":false,"rental_uris":{"android":"levelo://app?vid=b7959f4b-7839-4fd4-a063-14ae8719d80d","ios":"levelo://app?vid=b7959f4b-7839-4fd4-a063-14ae8719d80d"},"vehicle_type_id":"4","last_reported":1767965465,"current_range_meters":2800,"station_id":"ce4bgj92rcd13ifvqbd0","pricing_plan_id":"cebpf4jnsgd1na2vs0mg"},{"bike_id":"03cfdbe3-43e3-422a-89c2-619c7a5fa13f","system_id":"levelo_inurba_marseille","lat":43.2872,"lon":5.37922,"is_reserved":false,"is_disabled":false,"rental_uris":{"android":"levelo://app?vid=03cfdbe3-43e3-422a-89c2-619c7a5fa13f","ios":"levelo://app?vid=03cfdbe3-43e3-422a-89c2-619c7a5fa13f"},"vehicle_type_id":"4","last_reported":1767965465,"current_range_meters":3200,"station_id":"ce4bh9p2rcd13ifvqec0","pricing_plan_id":"cebpf4jnsgd1na2vs0mg"},{"bike_id":"efcbda51-62e1-4f07-ab6b-7f654193639e","system_id":"levelo_inurba_marseille","lat":43.26072,"lon":5.39396,"is_reserved":false,"is_disabled":false,"rental_uris":{"android":"levelo://app?vid=efcbda51-62e1-4f07-ab6b-7f654193639e","ios":"levelo://app?vid=efcbda51-62e1-4f07-ab6b-7f654193639e"},"vehicle_type_id":"4","last_reported":1767965465,"current_range_meters":3200,"station_id":"ce4bhh92rcd13ifvqfj0","pricing_plan_id":"cebpf4jnsgd1na2vs0mg"},{"bike_id":"04bf5792-c844-4c60-a16f-72ff5bd359e2","system_id":"levelo_inurba_marseille","lat":43.28141,"lon":5.42629,"is_reserved":false,"is_disabled":false,"rental_uris":{"android":"levelo://app?vid=04bf5792-c844-4c60-a16f-72ff5bd359e2","ios":"levelo://app?vid=04bf5792-c844-4c60-a16f-72ff5bd359e2"},"vehicle_type_id":"4","last_reported":1767965465,"current_range_meters":3200,"station_id":"ce4bhnh2rcd13ifvqgug","pricing_plan_id":"cebpf4jnsgd1na2vs0mg"},{"bike_id":"e9fbb55b-45ea-4b51-8726-aff775b6f253","system_id":"levelo_inurba_marseille","lat":43.22925,"lon":5.35376,"is_reserved":false,"is_disabled":false,"rental_uris":{"android":"levelo://app?vid=e9fbb55b-45ea-4b51-8726-aff775b6f253","ios":"levelo://app?vid=e9fbb55b-45ea-4b51-8726-aff775b6f253"},"vehicle_type_id":"4","last_reported":1767965465,"current_range_meters":3200,"station_id":"cpo3532slgdg3j2ikp40","pricing_plan_id":"cebpf4jnsgd1na2vs0mg"},{"bike_id":"83baf7ef-456e-4c72-9805-22aa4846a1b3","system_id":"levelo_inurba_marseille","lat":43.28534,"lon":5.441117,"is_reserved":false,"is_disabled":false,"rental_uris":{"android":"levelo://app?vid=83baf7ef-456e-4c72-9805-22aa4846a1b3","ios":"levelo://app?vid=83baf7ef-456e-4c72-9805-22aa4846a1b3"},"vehicle_type_id":"4","last_reported":1767965465,"current_range_meters":3200,"station_id":"st_d3j3df2ikq2c7380ej80","pricing_plan_id":"cebpf4jnsgd1na2vs0mg"},{"bike_id":"79544bb9-349f-409e-b2bb-723f19511937","system_id":"levelo_inurba_marseille","lat":43.28532,"lon":5.44111,"is_reserved":false,"is_disabled":false,"rental_uris":{"android":"levelo://app?vid=79544bb9-349f-409e-b2bb-723f19511937","ios":"levelo://app?vid=79544bb9-349f-409e-b2bb-723f19511937"},"vehicle_type_id":"4","last_reported":1767965465,"current_range_meters":3200,"station_id":"st_d3j3df2ikq2c7380ej80","pricing_plan_id":"cebpf4jnsgd1na2vs0mg"},{"bike_id":"fd172d07-e62e-4e89-83ff-b73ffdf2df2c","system_id":"levelo_inurba_marseille","lat":43.26593,"lon":5.39034,"is_reserved":false,"is_disabled":false,"rental_uris":{"android":"levelo://app?vid=fd172d07-e62e-4e89-83ff-b73ffdf2df2c","ios":"levelo://app?vid=fd172d07-e62e-4e89-83ff-b73ffdf2df2c"},"vehicle_type_id":"4","last_reported":1767965465,"current_range_meters":3200,"station_id":"ce4bhe12rcd13ifvqf30","pricing_plan_id":"cebpf4jnsgd1na2vs0mg"},{"bike_id":"c76e1a9d-c320-4303-a52d-555dbef28da8","system_id":"levelo_inurba_marseille","lat":43.29756,"lon":5.3809,"is_reserved":false,"is_disabled":false,"rental_uris":{"android":"levelo://app?vid=c76e1a9d-c320-4303-a52d-555dbef28da8","ios":"levelo://app?vid=c76e1a9d-c320-4303-a52d-555dbef28da8"},"vehicle_type_id":"4","last_reported":1767965465,"current_range_meters":3200,"station_id":"","pricing_plan_id":"cebpf4jnsgd1na2vs0mg"},{"bike_id":"e80c0ac0-3141-4e6b-b923-2cb708d253df","system_id":"levelo_inurba_marseille","lat":43.302338,"lon":5.376842,"is_reserved":false,"is_disabled":false,"rental_uris":{"android":"levelo://app?vid=e80c0ac0-3141-4e6b-b923-2cb708d253df","ios":"levelo://app?vid=e80c0ac0-3141-4e6b-b923-2cb708d253df"},"vehicle_type_id":"4","last_reported":1767965465,"current_range_meters":3600,"station_id":"ce4bguh2rcd13ifvqcj0","pricing_plan_id":"cebpf4jnsgd1na2vs0mg"},{"bike_id":"38d3baf1-ccb2-4f59-80bf-ce61dff31413","system_id":"levelo_inurba_marseille","lat":43.24808,"lon":5.37461,"is_reserved":false,"is_disabled":false,"rental_uris":{"android":"levelo://app?vid=38d3baf1-ccb2-4f59-80bf-ce61dff31413","ios":"levelo://app?vid=38d3baf1-ccb2-4f59-80bf-ce61dff31413"},"vehicle_type_id":"4","last_reported":1767965465,"current_range_meters":3600,"station_id":"ce4bhgh2rcd13ifvqfb0","pricing_plan_id":"cebpf4jnsgd1na2vs0mg"},{"bike_id":"9e9feb43-bdb3-4a4f-a605-8ba95ec090d2","system_id":"levelo_inurba_marseille","lat":43.26209,"lon":5.37438,"is_reserved":false,"is_disabled":false,"rental_uris":{"android":"levelo://app?vid=9e9feb43-bdb3-4a4f-a605-8ba95ec090d2","ios":"levelo://app?vid=9e9feb43-bdb3-4a4f-a605-8ba95ec090d2"},"vehicle_type_id":"4","last_reported":1767965465,"current_range_meters":3600,"station_id":"ce4bhgp2rcd13ifvqfc0","pricing_plan_id":"cebpf4jnsgd1na2vs0mg"},{"bike_id":"ff952794-f6da-4471-9ec2-f667cbadd91a","system_id":"levelo_inurba_marseille","lat":43.2404,"lon":5.3776,"is_reserved":false,"is_disabled":false,"rental_uris":{"android":"levelo://app?vid=ff952794-f6da-4471-9ec2-f667cbadd91a","ios":"levelo://app?vid=ff952794-f6da-4471-9ec2-f667cbadd91a"},"vehicle_type_id":"4","last_reported":1767965465,"current_range_meters":3600,"station_id":"ce4bhnp2rcd13ifvqgvg","pricing_plan_id":"cebpf4jnsgd1na2vs0mg"},{"bike_id":"a9c6d546-b01e-4f1f-9ee6-93cac570bf9c","system_id":"levelo_inurba_marseille","lat":43.28612,"lon":5.35104,"is_reserved":false,"is_disabled":false,"rental_uris":{"android":"levelo://app?vid=a9c6d546-b01e-4f1f-9ee6-93cac570bf9c","ios":"levelo://app?vid=a9c6d546-b01e-4f1f-9ee6-93cac570bf9c"},"vehicle_type_id":"4","last_reported":1767965465,"current_range_meters":3600,"station_id":"ce4bhch2rcd13ifvqeug","pricing_plan_id":"cebpf4jnsgd1na2vs0mg"},{"bike_id":"8ddd903e-4b58-445b-933d-a20697560094","system_id":"levelo_inurba_marseille","lat":43.33441,"lon":5.40055,"is_reserved":false,"is_disabled":false,"rental_uris":{"android":"levelo://app?vid=8ddd903e-4b58-445b-933d-a20697560094","ios":"levelo://app?vid=8ddd903e-4b58-445b-933d-a20697560094"},"vehicle_type_id":"4","last_reported":1767965465,"current_range_meters":3600,"station_id":"","pricing_plan_id":"cebpf4jnsgd1na2vs0mg"},{"bike_id":"d1da6efe-850d-40dc-ab1a-ce4ecb2d89c2","system_id":"levelo_inurba_marseille","lat":43.23191,"lon":5.399917,"is_reserved":false,"is_disabled":false,"rental_uris":{"android":"levelo://app?vid=d1da6efe-850d-40dc-ab1a-ce4ecb2d89c2","ios":"levelo://app?vid=d1da6efe-850d-40dc-ab1a-ce4ecb2d89c2"},"vehicle_type_id":"4","last_reported":1767965465,"current_range_meters":3600,"station_id":"ce4bhn12rcd13ifvqgqg","pricing_plan_id":"cebpf4jnsgd1na2vs0mg"},{"bike_id":"900d2393-ff11-44b4-b386-70a93cd35e61","system_id":"levelo_inurba_marseille","lat":43.2587,"lon":5.39895,"is_reserved":false,"is_disabled":false,"rental_uris":{"android":"levelo://app?vid=900d2393-ff11-44b4-b386-70a93cd35e61","ios":"levelo://app?vid=900d2393-ff11-44b4-b386-70a93cd35e61"},"vehicle_type_id":"4","last_reported":1767965465,"current_range_meters":3600,"station_id":"ce4bhl92rcd13ifvqghg","pricing_plan_id":"cebpf4jnsgd1na2vs0mg"},{"bike_id":"16ce7594-dcb6-43ef-aed8-d7494da4c228","system_id":"levelo_inurba_marseille","lat":43.24993,"lon":5.38938,"is_reserved":false,"is_disabled":false,"rental_uris":{"android":"levelo://app?vid=16ce7594-dcb6-43ef-aed8-d7494da4c228","ios":"levelo://app?vid=16ce7594-dcb6-43ef-aed8-d7494da4c228"},"vehicle_type_id":"4","last_reported":1767965465,"current_range_meters":3600,"station_id":"ce4bhgp2rcd13ifvqfd0","pricing_plan_id":"cebpf4jnsgd1na2vs0mg"},{"bike_id":"36c3097c-2122-4b98-a149-c16b13fb82b9","system_id":"levelo_inurba_marseille","lat":43.26002,"lon":5.39359,"is_reserved":false,"is_disabled":false,"rental_uris":{"android":"levelo://app?vid=36c3097c-2122-4b98-a149-c16b13fb82b9","ios":"levelo://app?vid=36c3097c-2122-4b98-a149-c16b13fb82b9"},"vehicle_type_id":"4","last_reported":1767965465,"current_range_meters":3600,"station_id":"","pricing_plan_id":"cebpf4jnsgd1na2vs0mg"},{"bike_id":"3ada1a6b-6031-458a-b05a-7b349030768e","system_id":"levelo_inurba_marseille","lat":43.30528,"lon":5.36848,"is_reserved":false,"is_disabled":false,"rental_uris":{"android":"levelo://app?vid=3ada1a6b-6031-458a-b05a-7b349030768e","ios":"levelo://app?vid=3ada1a6b-6031-458a-b05a-7b349030768e"},"vehicle_type_id":"4","last_reported":1767965465,"current_range_meters":3600,"station_id":"","pricing_plan_id":"cebpf4jnsgd1na2vs0mg"},{"bike_id":"4f1dc90b-cff7-46e2-a76e-9c90db8de340","system_id":"levelo_inurba_marseille","lat":43.31481,"lon":5.37262,"is_reserved":false,"is_disabled":false,"rental_uris":{"android":"levelo://app?vid=4f1dc90b-cff7-46e2-a76e-9c90db8de340","ios":"levelo://app?vid=4f1dc90b-cff7-46e2-a76e-9c90db8de340"},"vehicle_type_id":"4","last_reported":1767965465,"current_range_meters":3600,"station_id":"ce4bgt12rcd13ifvqcd0","pricing_plan_id":"cebpf4jnsgd1na2vs0mg"},{"bike_id":"ae4ea6af-ac8e-4f9d-acb8-d08926e47bb1","system_id":"levelo_inurba_marseille","lat":43.33122,"lon":5.37852,"is_reserved":false,"is_disabled":false,"rental_uris":{"android":"levelo://app?vid=ae4ea6af-ac8e-4f9d-acb8-d08926e47bb1","ios":"levelo://app?vid=ae4ea6af-ac8e-4f9d-acb8-d08926e47bb1"},"vehicle_type_id":"4","last_reported":1767965465,"current_range_meters":4000,"station_id":"","pricing_plan_id":"cebpf4jnsgd1na2vs0mg"},{"bike_id":"37012085-0727-4da7-ad89-b505785fdcf5","system_id":"levelo_inurba_marseille","lat":43.29043,"lon":5.39958,"is_reserved":false,"is_disabled":false,"rental_uris":{"android":"levelo://app?vid=37012085-0727-4da7-ad89-b505785fdcf5","ios":"levelo://app?vid=37012085-0727-4da7-ad89-b505785fdcf5"},"vehicle_type_id":"4","last_reported":1767965465,"current_range_meters":4000,"station_id":"ce4bh392rcd13ifvqdm0","pricing_plan_id":"cebpf4jnsgd1na2vs0mg"},{"bike_id":"34bdaf2f-5a72-4bb9-90ad-0bef4b8c6c07","system_id":"levelo_inurba_marseille","lat":43.27985,"lon":5.41687,"is_reserved":false,"is_disabled":false,"rental_uris":{"android":"levelo://app?vid=34bdaf2f-5a72-4bb9-90ad-0bef4b8c6c07","ios":"levelo://app?vid=34bdaf2f-5a72-4bb9-90ad-0bef4b8c6c07"},"vehicle_type_id":"4","last_reported":1767965465,"current_range_meters":4000,"station_id":"ce4bho12rcd13ifvqh1g","pricing_plan_id":"cebpf4jnsgd1na2vs0mg"},{"bike_id":"8f870c12-c0c3-4b7a-8d0a-24f628ad1788","system_id":"levelo_inurba_marseille","lat":43.31004,"lon":5.37963,"is_reserved":false,"is_disabled":false,"rental_uris":{"android":"levelo://app?vid=8f870c12-c0c3-4b7a-8d0a-24f628ad1788","ios":"levelo://app?vid=8f870c12-c0c3-4b7a-8d0a-24f628ad1788"},"vehicle_type_id":"4","last_reported":1767965465,"current_range_meters":4000,"station_id":"","pricing_plan_id":"cebpf4jnsgd1na2vs0mg"},{"bike_id":"c8e24aea-453f-4d30-9492-339a817afb22","system_id":"levelo_inurba_marseille","lat":43.24389,"lon":5.3707,"is_reserved":false,"is_disabled":false,"rental_uris":{"android":"levelo://app?vid=c8e24aea-453f-4d30-9492-339a817afb22","ios":"levelo://app?vid=c8e24aea-453f-4d30-9492-339a817afb22"},"vehicle_type_id":"4","last_reported":1767965465,"current_range_meters":4000,"station_id":"ce4bhhh2rcd13ifvqfk0","pricing_plan_id":"cebpf4jnsgd1na2vs0mg"},{"bike_id":"919b15c7-f6dc-4085-8719-a8f579d2184e","system_id":"levelo_inurba_marseille","lat":43.273693,"lon":5.362554,"is_reserved":false,"is_disabled":false,"rental_uris":{"android":"levelo://app?vid=919b15c7-f6dc-4085-8719-a8f579d2184e","ios":"levelo://app?vid=919b15c7-f6dc-4085-8719-a8f579d2184e"},"vehicle_type_id":"4","last_reported":1767965465,"current_range_meters":4000,"station_id":"ce4bhbh2rcd13ifvqeo0","pricing_plan_id":"cebpf4jnsgd1na2vs0mg"},{"bike_id":"5407fece-b1e5-43a9-86e2-b54a7e31d89d","system_id":"levelo_inurba_marseille","lat":43.26203,"lon":5.3743,"is_reserved":false,"is_disabled":false,"rental_uris":{"android":"levelo://app?vid=5407fece-b1e5-43a9-86e2-b54a7e31d89d","ios":"levelo://app?vid=5407fece-b1e5-43a9-86e2-b54a7e31d89d"},"vehicle_type_id":"4","last_reported":1767965465,"current_range_meters":4000,"station_id":"ce4bhgp2rcd13ifvqfc0","pricing_plan_id":"cebpf4jnsgd1na2vs0mg"},{"bike_id":"7daf9ada-91d7-4414-9c61-96e031f37952","system_id":"levelo_inurba_marseille","lat":43.26547,"lon":5.37296,"is_reserved":false,"is_disabled":false,"rental_uris":{"android":"levelo://app?vid=7daf9ada-91d7-4414-9c61-96e031f37952","ios":"levelo://app?vid=7daf9ada-91d7-4414-9c61-96e031f37952"},"vehicle_type_id":"4","last_reported":1767965465,"current_range_meters":4000,"station_id":"ce4bhg12rcd13ifvqf70","pricing_plan_id":"cebpf4jnsgd1na2vs0mg"},{"bike_id":"dea4b3f3-7c96-4284-aea9-03d918bcdf80","system_id":"levelo_inurba_marseille","lat":43.30812,"lon":5.38149,"is_reserved":false,"is_disabled":false,"rental_uris":{"android":"levelo://app?vid=dea4b3f3-7c96-4284-aea9-03d918bcdf80","ios":"levelo://app?vid=dea4b3f3-7c96-4284-aea9-03d918bcdf80"},"vehicle_type_id":"4","last_reported":1767965465,"current_range_meters":4000,"station_id":"ce4bgt12rcd13ifvqce0","pricing_plan_id":"cebpf4jnsgd1na2vs0mg"},{"bike_id":"7079bdb2-fe45-4309-a762-84cee8c3e4fd","system_id":"levelo_inurba_marseille","lat":43.265518,"lon":5.373124,"is_reserved":false,"is_disabled":false,"rental_uris":{"android":"levelo://app?vid=7079bdb2-fe45-4309-a762-84cee8c3e4fd","ios":"levelo://app?vid=7079bdb2-fe45-4309-a762-84cee8c3e4fd"},"vehicle_type_id":"4","last_reported":1767965465,"current_range_meters":4000,"station_id":"ce4bhg12rcd13ifvqf70","pricing_plan_id":"cebpf4jnsgd1na2vs0mg"},{"bike_id":"fa99c4ad-c02a-4d08-a929-1ee6d535f8ed","system_id":"levelo_inurba_marseille","lat":43.27368,"lon":5.36256,"is_reserved":false,"is_disabled":false,"rental_uris":{"android":"levelo://app?vid=fa99c4ad-c02a-4d08-a929-1ee6d535f8ed","ios":"levelo://app?vid=fa99c4ad-c02a-4d08-a929-1ee6d535f8ed"},"vehicle_type_id":"4","last_reported":1767965465,"current_range_meters":4000,"station_id":"ce4bhbh2rcd13ifvqeo0","pricing_plan_id":"cebpf4jnsgd1na2vs0mg"},{"bike_id":"e412bd1f-9559-40df-baea-da06ff8409ea","system_id":"levelo_inurba_marseille","lat":43.31035,"lon":5.37189,"is_reserved":false,"is_disabled":false,"rental_uris":{"android":"levelo://app?vid=e412bd1f-9559-40df-baea-da06ff8409ea","ios":"levelo://app?vid=e412bd1f-9559-40df-baea-da06ff8409ea"},"vehicle_type_id":"4","last_reported":1767965465,"current_range_meters":4000,"station_id":"st_d4kl2rp97mjs73e7tdfg","pricing_plan_id":"cebpf4jnsgd1na2vs0mg"},{"bike_id":"79b97f79-7230-4403-8e37-be984ceb75fd","system_id":"levelo_inurba_marseille","lat":43.30553,"lon":5.36706,"is_reserved":false,"is_disabled":false,"rental_uris":{"android":"levelo://app?vid=79b97f79-7230-4403-8e37-be984ceb75fd","ios":"levelo://app?vid=79b97f79-7230-4403-8e37-be984ceb75fd"},"vehicle_type_id":"4","last_reported":1767965465,"current_range_meters":4400,"station_id":"ce4bgrp2rcd13ifvqc9g","pricing_plan_id":"cebpf4jnsgd1na2vs0mg"},{"bike_id":"8b0501c8-11e5-44ca-92c5-eb8f94ba6bf6","system_id":"levelo_inurba_marseille","lat":43.29647,"lon":5.378,"is_reserved":false,"is_disabled":false,"rental_uris":{"android":"levelo://app?vid=8b0501c8-11e5-44ca-92c5-eb8f94ba6bf6","ios":"levelo://app?vid=8b0501c8-11e5-44ca-92c5-eb8f94ba6bf6"},"vehicle_type_id":"4","last_reported":1767965465,"current_range_meters":4400,"station_id":"","pricing_plan_id":"cebpf4jnsgd1na2vs0mg"},{"bike_id":"35bc93a6-6f9c-416a-8b7f-3420f66213d3","system_id":"levelo_inurba_marseille","lat":43.24164,"lon":5.36405,"is_reserved":false,"is_disabled":false,"rental_uris":{"android":"levelo://app?vid=35bc93a6-6f9c-416a-8b7f-3420f66213d3","ios":"levelo://app?vid=35bc93a6-6f9c-416a-8b7f-3420f66213d3"},"vehicle_type_id":"4","last_reported":1767965465,"current_range_meters":4400,"station_id":"cpo36qri1sfpv3e86is0","pricing_plan_id":"cebpf4jnsgd1na2vs0mg"},{"bike_id":"00bf2578-c2e7-4693-bdfc-aa0da096cebc","system_id":"levelo_inurba_marseille","lat":43.2533,"lon":5.42162,"is_reserved":false,"is_disabled":false,"rental_uris":{"android":"levelo://app?vid=00bf2578-c2e7-4693-bdfc-aa0da096cebc","ios":"levelo://app?vid=00bf2578-c2e7-4693-bdfc-aa0da096cebc"},"vehicle_type_id":"4","last_reported":1767965465,"current_range_meters":4400,"station_id":"st_d2m65c5bi1j21697t3ng","pricing_plan_id":"cebpf4jnsgd1na2vs0mg"},{"bike_id":"e41d8bea-ffd2-440d-b446-b472b1d04e4d","system_id":"levelo_inurba_marseille","lat":43.23956,"lon":5.3663,"is_reserved":false,"is_disabled":false,"rental_uris":{"android":"levelo://app?vid=e41d8bea-ffd2-440d-b446-b472b1d04e4d","ios":"levelo://app?vid=e41d8bea-ffd2-440d-b446-b472b1d04e4d"},"vehicle_type_id":"4","last_reported":1767965465,"current_range_meters":4400,"station_id":"ce4bhi12rcd13ifvqfp0","pricing_plan_id":"cebpf4jnsgd1na2vs0mg"},{"bike_id":"88436fbc-a867-41fd-9af6-6ae673233f14","system_id":"levelo_inurba_marseille","lat":43.24557,"lon":5.39548,"is_reserved":false,"is_disabled":false,"rental_uris":{"android":"levelo://app?vid=88436fbc-a867-41fd-9af6-6ae673233f14","ios":"levelo://app?vid=88436fbc-a867-41fd-9af6-6ae673233f14"},"vehicle_type_id":"4","last_reported":1767965465,"current_range_meters":4400,"station_id":"ce4bhlp2rcd13ifvqgjg","pricing_plan_id":"cebpf4jnsgd1na2vs0mg"},{"bike_id":"617ca6f2-1481-4c5f-a165-87db9947444a","system_id":"levelo_inurba_marseille","lat":43.28477,"lon":5.48387,"is_reserved":false,"is_disabled":false,"rental_uris":{"android":"levelo://app?vid=617ca6f2-1481-4c5f-a165-87db9947444a","ios":"levelo://app?vid=617ca6f2-1481-4c5f-a165-87db9947444a"},"vehicle_type_id":"4","last_reported":1767965465,"current_range_meters":4400,"station_id":"st_d3svhcjqgbts73a3dn0g","pricing_plan_id":"cebpf4jnsgd1na2vs0mg"},{"bike_id":"18afe1b5-d903-471c-9912-7f7a549b58cf","system_id":"levelo_inurba_marseille","lat":43.32122,"lon":5.36796,"is_reserved":false,"is_disabled":false,"rental_uris":{"android":"levelo://app?vid=18afe1b5-d903-471c-9912-7f7a549b58cf","ios":"levelo://app?vid=18afe1b5-d903-471c-9912-7f7a549b58cf"},"vehicle_type_id":"4","last_reported":1767965465,"current_range_meters":4400,"station_id":"ce4bhrh2rcd13ifvqhug","pricing_plan_id":"cebpf4jnsgd1na2vs0mg"},{"bike_id":"94a6901e-f050-4dbd-8990-b774d466a29a","system_id":"levelo_inurba_marseille","lat":43.32104,"lon":5.36751,"is_reserved":false,"is_disabled":false,"rental_uris":{"android":"levelo://app?vid=94a6901e-f050-4dbd-8990-b774d466a29a","ios":"levelo://app?vid=94a6901e-f050-4dbd-8990-b774d466a29a"},"vehicle_type_id":"4","last_reported":1767965465,"current_range_meters":4400,"station_id":"ce4bhrh2rcd13ifvqhug","pricing_plan_id":"cebpf4jnsgd1na2vs0mg"},{"bike_id":"bc854750-ead4-40b5-8c17-8c8e2cbd8638","system_id":"levelo_inurba_marseille","lat":43.23185,"lon":5.39988,"is_reserved":false,"is_disabled":false,"rental_uris":{"android":"levelo://app?vid=bc854750-ead4-40b5-8c17-8c8e2cbd8638","ios":"levelo://app?vid=bc854750-ead4-40b5-8c17-8c8e2cbd8638"},"vehicle_type_id":"4","last_reported":1767965465,"current_range_meters":4400,"station_id":"ce4bhn12rcd13ifvqgqg","pricing_plan_id":"cebpf4jnsgd1na2vs0mg"},{"bike_id":"1ec94ba1-41d1-4288-80e5-6a131d1cb21d","system_id":"levelo_inurba_marseille","lat":43.253322,"lon":5.421714,"is_reserved":false,"is_disabled":false,"rental_uris":{"android":"levelo://app?vid=1ec94ba1-41d1-4288-80e5-6a131d1cb21d","ios":"levelo://app?vid=1ec94ba1-41d1-4288-80e5-6a131d1cb21d"},"vehicle_type_id":"4","last_reported":1767965465,"current_range_meters":4400,"station_id":"st_d2m65c5bi1j21697t3ng","pricing_plan_id":"cebpf4jnsgd1na2vs0mg"},{"bike_id":"c2ca26f3-1471-41ea-bc02-7dd562ebc1e4","system_id":"levelo_inurba_marseille","lat":43.240562,"lon":5.37766,"is_reserved":false,"is_disabled":false,"rental_uris":{"android":"levelo://app?vid=c2ca26f3-1471-41ea-bc02-7dd562ebc1e4","ios":"levelo://app?vid=c2ca26f3-1471-41ea-bc02-7dd562ebc1e4"},"vehicle_type_id":"4","last_reported":1767965465,"current_range_meters":4400,"station_id":"ce4bhnp2rcd13ifvqgvg","pricing_plan_id":"cebpf4jnsgd1na2vs0mg"},{"bike_id":"7aa6b2fd-a438-4229-9046-b18f7724704d","system_id":"levelo_inurba_marseille","lat":43.28715,"lon":5.37924,"is_reserved":false,"is_disabled":false,"rental_uris":{"android":"levelo://app?vid=7aa6b2fd-a438-4229-9046-b18f7724704d","ios":"levelo://app?vid=7aa6b2fd-a438-4229-9046-b18f7724704d"},"vehicle_type_id":"4","last_reported":1767965465,"current_range_meters":4400,"station_id":"ce4bh9p2rcd13ifvqec0","pricing_plan_id":"cebpf4jnsgd1na2vs0mg"},{"bike_id":"4012ce00-ac2e-455d-a7e9-96fa5e4f97af","system_id":"levelo_inurba_marseille","lat":43.27921,"lon":5.41057,"is_reserved":false,"is_disabled":false,"rental_uris":{"android":"levelo://app?vid=4012ce00-ac2e-455d-a7e9-96fa5e4f97af","ios":"levelo://app?vid=4012ce00-ac2e-455d-a7e9-96fa5e4f97af"},"vehicle_type_id":"4","last_reported":1767965465,"current_range_meters":4400,"station_id":"ce4bhnp2rcd13ifvqh0g","pricing_plan_id":"cebpf4jnsgd1na2vs0mg"},{"bike_id":"df8ff779-90c8-4b65-a5d0-99687c060dae","system_id":"levelo_inurba_marseille","lat":43.32349,"lon":5.36681,"is_reserved":false,"is_disabled":false,"rental_uris":{"android":"levelo://app?vid=df8ff779-90c8-4b65-a5d0-99687c060dae","ios":"levelo://app?vid=df8ff779-90c8-4b65-a5d0-99687c060dae"},"vehicle_type_id":"4","last_reported":1767965465,"current_range_meters":4400,"station_id":"ce4bhsh2rcd13ifvqi2g","pricing_plan_id":"cebpf4jnsgd1na2vs0mg"},{"bike_id":"565afa6a-1e1c-486d-9add-b33d272ea1a5","system_id":"levelo_inurba_marseille","lat":43.29933,"lon":5.36542,"is_reserved":false,"is_disabled":false,"rental_uris":{"android":"levelo://app?vid=565afa6a-1e1c-486d-9add-b33d272ea1a5","ios":"levelo://app?vid=565afa6a-1e1c-486d-9add-b33d272ea1a5"},"vehicle_type_id":"4","last_reported":1767965465,"current_range_meters":4400,"station_id":"ce4bgm92rcd13ifvqbr0","pricing_plan_id":"cebpf4jnsgd1na2vs0mg"},{"bike_id":"362f309d-8dd6-4bdf-80f5-648165384441","system_id":"levelo_inurba_marseille","lat":43.246663,"lon":5.381809,"is_reserved":false,"is_disabled":false,"rental_uris":{"android":"levelo://app?vid=362f309d-8dd6-4bdf-80f5-648165384441","ios":"levelo://app?vid=362f309d-8dd6-4bdf-80f5-648165384441"},"vehicle_type_id":"4","last_reported":1767965465,"current_range_meters":4400,"station_id":"ce4bh092rcd13ifvqd20","pricing_plan_id":"cebpf4jnsgd1na2vs0mg"},{"bike_id":"8f534fd0-7f8b-4187-886f-11cc12338923","system_id":"levelo_inurba_marseille","lat":43.25122,"lon":5.40323,"is_reserved":false,"is_disabled":false,"rental_uris":{"android":"levelo://app?vid=8f534fd0-7f8b-4187-886f-11cc12338923","ios":"levelo://app?vid=8f534fd0-7f8b-4187-886f-11cc12338923"},"vehicle_type_id":"4","last_reported":1767965465,"current_range_meters":4400,"station_id":"ce4bhlh2rcd13ifvqgig","pricing_plan_id":"cebpf4jnsgd1na2vs0mg"},{"bike_id":"3dfd7a97-de5e-4152-a949-b9742b420d57","system_id":"levelo_inurba_marseille","lat":43.30216,"lon":5.39474,"is_reserved":false,"is_disabled":false,"rental_uris":{"android":"levelo://app?vid=3dfd7a97-de5e-4152-a949-b9742b420d57","ios":"levelo://app?vid=3dfd7a97-de5e-4152-a949-b9742b420d57"},"vehicle_type_id":"4","last_reported":1767965465,"current_range_meters":4800,"station_id":"ce4bh0p2rcd13ifvqd70","pricing_plan_id":"cebpf4jnsgd1na2vs0mg"},{"bike_id":"52c545a6-4990-49e9-b5f1-ef579ddc71f3","system_id":"levelo_inurba_marseille","lat":43.25566,"lon":5.38231,"is_reserved":false,"is_disabled":false,"rental_uris":{"android":"levelo://app?vid=52c545a6-4990-49e9-b5f1-ef579ddc71f3","ios":"levelo://app?vid=52c545a6-4990-49e9-b5f1-ef579ddc71f3"},"vehicle_type_id":"4","last_reported":1767965465,"current_range_meters":4800,"station_id":"ce4bhih2rcd13ifvqfs0","pricing_plan_id":"cebpf4jnsgd1na2vs0mg"},{"bike_id":"9490b0a7-c0e4-4b73-bab8-6508165586af","system_id":"levelo_inurba_marseille","lat":43.24948,"lon":5.4051,"is_reserved":false,"is_disabled":true,"rental_uris":{"android":"levelo://app?vid=9490b0a7-c0e4-4b73-bab8-6508165586af","ios":"levelo://app?vid=9490b0a7-c0e4-4b73-bab8-6508165586af"},"vehicle_type_id":"4","last_reported":1767965465,"current_range_meters":4800,"station_id":"st_d2ngiaodas8pm72gd1h0","pricing_plan_id":"cebpf4jnsgd1na2vs0mg"},{"bike_id":"4e488904-5429-40a3-bc83-0d628df377cf","system_id":"levelo_inurba_marseille","lat":43.24663,"lon":5.3817,"is_reserved":false,"is_disabled":false,"rental_uris":{"android":"levelo://app?vid=4e488904-5429-40a3-bc83-0d628df377cf","ios":"levelo://app?vid=4e488904-5429-40a3-bc83-0d628df377cf"},"vehicle_type_id":"4","last_reported":1767965465,"current_range_meters":4800,"station_id":"ce4bhih2rcd13ifvqfr0","pricing_plan_id":"cebpf4jnsgd1na2vs0mg"},{"bike_id":"571ac46c-c09d-448b-985a-7beda82b850e","system_id":"levelo_inurba_marseille","lat":43.25351,"lon":5.42179,"is_reserved":false,"is_disabled":false,"rental_uris":{"android":"levelo://app?vid=571ac46c-c09d-448b-985a-7beda82b850e","ios":"levelo://app?vid=571ac46c-c09d-448b-985a-7beda82b850e"},"vehicle_type_id":"4","last_reported":1767965465,"current_range_meters":4800,"station_id":"st_d2m65c5bi1j21697t3ng","pricing_plan_id":"cebpf4jnsgd1na2vs0mg"},{"bike_id":"caf7850f-d924-40e4-8be2-021e72014fb3","system_id":"levelo_inurba_marseille","lat":43.26571,"lon":5.39009,"is_reserved":false,"is_disabled":false,"rental_uris":{"android":"levelo://app?vid=caf7850f-d924-40e4-8be2-021e72014fb3","ios":"levelo://app?vid=caf7850f-d924-40e4-8be2-021e72014fb3"},"vehicle_type_id":"4","last_reported":1767965465,"current_range_meters":4800,"station_id":"ce4bhe12rcd13ifvqf30","pricing_plan_id":"cebpf4jnsgd1na2vs0mg"},{"bike_id":"8c90c973-d813-4351-b024-6a22ded6d260","system_id":"levelo_inurba_marseille","lat":43.32402,"lon":5.36846,"is_reserved":false,"is_disabled":false,"rental_uris":{"android":"levelo://app?vid=8c90c973-d813-4351-b024-6a22ded6d260","ios":"levelo://app?vid=8c90c973-d813-4351-b024-6a22ded6d260"},"vehicle_type_id":"4","last_reported":1767965465,"current_range_meters":4800,"station_id":"","pricing_plan_id":"cebpf4jnsgd1na2vs0mg"},{"bike_id":"d30bf556-011a-446a-9f84-5eddefbb6c69","system_id":"levelo_inurba_marseille","lat":43.31285,"lon":5.36832,"is_reserved":false,"is_disabled":false,"rental_uris":{"android":"levelo://app?vid=d30bf556-011a-446a-9f84-5eddefbb6c69","ios":"levelo://app?vid=d30bf556-011a-446a-9f84-5eddefbb6c69"},"vehicle_type_id":"4","last_reported":1767965465,"current_range_meters":4800,"station_id":"","pricing_plan_id":"cebpf4jnsgd1na2vs0mg"},{"bike_id":"845bee73-fea8-4b21-9671-09bb9a36c361","system_id":"levelo_inurba_marseille","lat":43.2509,"lon":5.39524,"is_reserved":false,"is_disabled":false,"rental_uris":{"android":"levelo://app?vid=845bee73-fea8-4b21-9671-09bb9a36c361","ios":"levelo://app?vid=845bee73-fea8-4b21-9671-09bb9a36c361"},"vehicle_type_id":"4","last_reported":1767965465,"current_range_meters":4800,"station_id":"ce4bhm12rcd13ifvqgkg","pricing_plan_id":"cebpf4jnsgd1na2vs0mg"},{"bike_id":"e0744795-6ae4-4383-b2fc-f08aa1e557ac","system_id":"levelo_inurba_marseille","lat":43.28987,"lon":5.37824,"is_reserved":false,"is_disabled":false,"rental_uris":{"android":"levelo://app?vid=e0744795-6ae4-4383-b2fc-f08aa1e557ac","ios":"levelo://app?vid=e0744795-6ae4-4383-b2fc-f08aa1e557ac"},"vehicle_type_id":"4","last_reported":1767965465,"current_range_meters":4800,"station_id":"ce4bh9p2rcd13ifvqed0","pricing_plan_id":"cebpf4jnsgd1na2vs0mg"},{"bike_id":"9f3e9d6a-f487-4bff-9d0a-d22bf26b89d2","system_id":"levelo_inurba_marseille","lat":43.290093,"lon":5.35641,"is_reserved":false,"is_disabled":false,"rental_uris":{"android":"levelo://app?vid=9f3e9d6a-f487-4bff-9d0a-d22bf26b89d2","ios":"levelo://app?vid=9f3e9d6a-f487-4bff-9d0a-d22bf26b89d2"},"vehicle_type_id":"4","last_reported":1767965465,"current_range_meters":4800,"station_id":"ce4bhb92rcd13ifvqen0","pricing_plan_id":"cebpf4jnsgd1na2vs0mg"},{"bike_id":"94e77782-72e3-40cc-98d0-c9c42f52af7a","system_id":"levelo_inurba_marseille","lat":43.31874,"lon":5.39989,"is_reserved":false,"is_disabled":false,"rental_uris":{"android":"levelo://app?vid=94e77782-72e3-40cc-98d0-c9c42f52af7a","ios":"levelo://app?vid=94e77782-72e3-40cc-98d0-c9c42f52af7a"},"vehicle_type_id":"4","last_reported":1767965465,"current_range_meters":4800,"station_id":"","pricing_plan_id":"cebpf4jnsgd1na2vs0mg"},{"bike_id":"9b21fb58-1ca0-4226-bc9d-2eb45c91c4c6","system_id":"levelo_inurba_marseille","lat":43.22553,"lon":5.41619,"is_reserved":false,"is_disabled":false,"rental_uris":{"android":"levelo://app?vid=9b21fb58-1ca0-4226-bc9d-2eb45c91c4c6","ios":"levelo://app?vid=9b21fb58-1ca0-4226-bc9d-2eb45c91c4c6"},"vehicle_type_id":"4","last_reported":1767965465,"current_range_meters":4800,"station_id":"st_d2o4gvlbi1j2169b742g","pricing_plan_id":"cebpf4jnsgd1na2vs0mg"},{"bike_id":"0be2933b-3376-4854-8e8b-e51b6e23ecc1","system_id":"levelo_inurba_marseille","lat":43.292265,"lon":5.360651,"is_reserved":false,"is_disabled":false,"rental_uris":{"android":"levelo://app?vid=0be2933b-3376-4854-8e8b-e51b6e23ecc1","ios":"levelo://app?vid=0be2933b-3376-4854-8e8b-e51b6e23ecc1"},"vehicle_type_id":"4","last_reported":1767965465,"current_range_meters":5600,"station_id":"ce4bhbh2rcd13ifvqeqg","pricing_plan_id":"cebpf4jnsgd1na2vs0mg"},{"bike_id":"4337ed02-8ddd-4686-ad4a-9a54d575d403","system_id":"levelo_inurba_marseille","lat":43.29973,"lon":5.385,"is_reserved":false,"is_disabled":false,"rental_uris":{"android":"levelo://app?vid=4337ed02-8ddd-4686-ad4a-9a54d575d403","ios":"levelo://app?vid=4337ed02-8ddd-4686-ad4a-9a54d575d403"},"vehicle_type_id":"4","last_reported":1767965465,"current_range_meters":5600,"station_id":"ce4bgj92rcd13ifvqbd0","pricing_plan_id":"cebpf4jnsgd1na2vs0mg"},{"bike_id":"07ce38ef-b77b-4e60-8d32-d85f5b3b47f2","system_id":"levelo_inurba_marseille","lat":43.32355,"lon":5.36694,"is_reserved":false,"is_disabled":false,"rental_uris":{"android":"levelo://app?vid=07ce38ef-b77b-4e60-8d32-d85f5b3b47f2","ios":"levelo://app?vid=07ce38ef-b77b-4e60-8d32-d85f5b3b47f2"},"vehicle_type_id":"4","last_reported":1767965465,"current_range_meters":5600,"station_id":"","pricing_plan_id":"cebpf4jnsgd1na2vs0mg"},{"bike_id":"6df19930-e3eb-4eb3-9a45-a01da3418078","system_id":"levelo_inurba_marseille","lat":43.25844,"lon":5.3943,"is_reserved":false,"is_disabled":false,"rental_uris":{"android":"levelo://app?vid=6df19930-e3eb-4eb3-9a45-a01da3418078","ios":"levelo://app?vid=6df19930-e3eb-4eb3-9a45-a01da3418078"},"vehicle_type_id":"4","last_reported":1767965465,"current_range_meters":5600,"station_id":"ce4bhip2rcd13ifvqft0","pricing_plan_id":"cebpf4jnsgd1na2vs0mg"},{"bike_id":"c3c1f2ac-afb8-4ee3-8aa5-6687f610d70e","system_id":"levelo_inurba_marseille","lat":43.29596,"lon":5.37623,"is_reserved":false,"is_disabled":false,"rental_uris":{"android":"levelo://app?vid=c3c1f2ac-afb8-4ee3-8aa5-6687f610d70e","ios":"levelo://app?vid=c3c1f2ac-afb8-4ee3-8aa5-6687f610d70e"},"vehicle_type_id":"4","last_reported":1767965465,"current_range_meters":5600,"station_id":"","pricing_plan_id":"cebpf4jnsgd1na2vs0mg"},{"bike_id":"ff627822-cab3-49d3-9044-a5bb00dd8624","system_id":"levelo_inurba_marseille","lat":43.30375,"lon":5.4249,"is_reserved":false,"is_disabled":false,"rental_uris":{"android":"levelo://app?vid=ff627822-cab3-49d3-9044-a5bb00dd8624","ios":"levelo://app?vid=ff627822-cab3-49d3-9044-a5bb00dd8624"},"vehicle_type_id":"4","last_reported":1767965465,"current_range_meters":5600,"station_id":"ce4bhoh2rcd13ifvqh6g","pricing_plan_id":"cebpf4jnsgd1na2vs0mg"},{"bike_id":"ce3cc1d9-9ec8-4064-92e2-4915f0b7e6ce","system_id":"levelo_inurba_marseille","lat":43.246277,"lon":5.431408,"is_reserved":false,"is_disabled":false,"rental_uris":{"android":"levelo://app?vid=ce3cc1d9-9ec8-4064-92e2-4915f0b7e6ce","ios":"levelo://app?vid=ce3cc1d9-9ec8-4064-92e2-4915f0b7e6ce"},"vehicle_type_id":"4","last_reported":1767965465,"current_range_meters":5600,"station_id":"st_d2m6c4gdas8pm72e190g","pricing_plan_id":"cebpf4jnsgd1na2vs0mg"},{"bike_id":"a76c3cca-0b55-4bb3-a27f-9c1202d23218","system_id":"levelo_inurba_marseille","lat":43.27824,"lon":5.4071,"is_reserved":false,"is_disabled":false,"rental_uris":{"android":"levelo://app?vid=a76c3cca-0b55-4bb3-a27f-9c1202d23218","ios":"levelo://app?vid=a76c3cca-0b55-4bb3-a27f-9c1202d23218"},"vehicle_type_id":"4","last_reported":1767965465,"current_range_meters":5600,"station_id":"ce4bhnh2rcd13ifvqgtg","pricing_plan_id":"cebpf4jnsgd1na2vs0mg"},{"bike_id":"bb0e890d-0506-44f5-a8d9-b29bad87de2a","system_id":"levelo_inurba_marseille","lat":43.24168,"lon":5.36395,"is_reserved":false,"is_disabled":false,"rental_uris":{"android":"levelo://app?vid=bb0e890d-0506-44f5-a8d9-b29bad87de2a","ios":"levelo://app?vid=bb0e890d-0506-44f5-a8d9-b29bad87de2a"},"vehicle_type_id":"4","last_reported":1767965465,"current_range_meters":5600,"station_id":"cpo36qri1sfpv3e86is0","pricing_plan_id":"cebpf4jnsgd1na2vs0mg"},{"bike_id":"755fddff-196e-4df8-9ed5-b269f8727526","system_id":"levelo_inurba_marseille","lat":43.271956,"lon":5.409911,"is_reserved":false,"is_disabled":false,"rental_uris":{"android":"levelo://app?vid=755fddff-196e-4df8-9ed5-b269f8727526","ios":"levelo://app?vid=755fddff-196e-4df8-9ed5-b269f8727526"},"vehicle_type_id":"4","last_reported":1767965465,"current_range_meters":5600,"station_id":"ce4bhl12rcd13ifvqgf0","pricing_plan_id":"cebpf4jnsgd1na2vs0mg"},{"bike_id":"cc37263c-1f2b-4059-a4a9-7faa4b647039","system_id":"levelo_inurba_marseille","lat":43.28717,"lon":5.37922,"is_reserved":false,"is_disabled":false,"rental_uris":{"android":"levelo://app?vid=cc37263c-1f2b-4059-a4a9-7faa4b647039","ios":"levelo://app?vid=cc37263c-1f2b-4059-a4a9-7faa4b647039"},"vehicle_type_id":"4","last_reported":1767965465,"current_range_meters":5600,"station_id":"ce4bh9p2rcd13ifvqec0","pricing_plan_id":"cebpf4jnsgd1na2vs0mg"},{"bike_id":"34539991-f53b-43a5-8c77-854b5607c8a3","system_id":"levelo_inurba_marseille","lat":43.279256,"lon":5.395733,"is_reserved":false,"is_disabled":false,"rental_uris":{"android":"levelo://app?vid=34539991-f53b-43a5-8c77-854b5607c8a3","ios":"levelo://app?vid=34539991-f53b-43a5-8c77-854b5607c8a3"},"vehicle_type_id":"4","last_reported":1767965465,"current_range_meters":5600,"station_id":"ce4bhf92rcd13ifvqf40","pricing_plan_id":"cebpf4jnsgd1na2vs0mg"},{"bike_id":"d564640e-8980-4d50-9141-d01b2d41a726","system_id":"levelo_inurba_marseille","lat":43.24136,"lon":5.3644,"is_reserved":false,"is_disabled":false,"rental_uris":{"android":"levelo://app?vid=d564640e-8980-4d50-9141-d01b2d41a726","ios":"levelo://app?vid=d564640e-8980-4d50-9141-d01b2d41a726"},"vehicle_type_id":"4","last_reported":1767965465,"current_range_meters":5600,"station_id":"cpo36qri1sfpv3e86is0","pricing_plan_id":"cebpf4jnsgd1na2vs0mg"},{"bike_id":"748e6a5e-97a9-489d-8fdc-20f62045411a","system_id":"levelo_inurba_marseille","lat":43.28901,"lon":5.396863,"is_reserved":false,"is_disabled":false,"rental_uris":{"android":"levelo://app?vid=748e6a5e-97a9-489d-8fdc-20f62045411a","ios":"levelo://app?vid=748e6a5e-97a9-489d-8fdc-20f62045411a"},"vehicle_type_id":"4","last_reported":1767965465,"current_range_meters":5600,"station_id":"","pricing_plan_id":"cebpf4jnsgd1na2vs0mg"},{"bike_id":"36770752-934c-4c50-a7c3-b3b6ce512cae","system_id":"levelo_inurba_marseille","lat":43.25943,"lon":5.40901,"is_reserved":false,"is_disabled":false,"rental_uris":{"android":"levelo://app?vid=36770752-934c-4c50-a7c3-b3b6ce512cae","ios":"levelo://app?vid=36770752-934c-4c50-a7c3-b3b6ce512cae"},"vehicle_type_id":"4","last_reported":1767965465,"current_range_meters":5600,"station_id":"ce4bhm92rcd13ifvqglg","pricing_plan_id":"cebpf4jnsgd1na2vs0mg"},{"bike_id":"5e975161-69ae-4ce0-931a-985b141cf42f","system_id":"levelo_inurba_marseille","lat":43.31339,"lon":5.39696,"is_reserved":false,"is_disabled":false,"rental_uris":{"android":"levelo://app?vid=5e975161-69ae-4ce0-931a-985b141cf42f","ios":"levelo://app?vid=5e975161-69ae-4ce0-931a-985b141cf42f"},"vehicle_type_id":"4","last_reported":1767965465,"current_range_meters":5600,"station_id":"ce4bgvp2rcd13ifvqcu0","pricing_plan_id":"cebpf4jnsgd1na2vs0mg"},{"bike_id":"8ff52944-c36c-46ee-b2b9-242f429aa86f","system_id":"levelo_inurba_marseille","lat":43.246657,"lon":5.381697,"is_reserved":false,"is_disabled":false,"rental_uris":{"android":"levelo://app?vid=8ff52944-c36c-46ee-b2b9-242f429aa86f","ios":"levelo://app?vid=8ff52944-c36c-46ee-b2b9-242f429aa86f"},"vehicle_type_id":"4","last_reported":1767965465,"current_range_meters":5600,"station_id":"","pricing_plan_id":"cebpf4jnsgd1na2vs0mg"},{"bike_id":"c69a2953-8667-448c-84b3-b8ec8eabaa91","system_id":"levelo_inurba_marseille","lat":43.21193,"lon":5.35076,"is_reserved":false,"is_disabled":false,"rental_uris":{"android":"levelo://app?vid=c69a2953-8667-448c-84b3-b8ec8eabaa91","ios":"levelo://app?vid=c69a2953-8667-448c-84b3-b8ec8eabaa91"},"vehicle_type_id":"4","last_reported":1767965465,"current_range_meters":5600,"station_id":"cpo3532slgdg3j2ikp40","pricing_plan_id":"cebpf4jnsgd1na2vs0mg"},{"bike_id":"547b6ce3-a7e3-473b-a29c-7c15822a1ecd","system_id":"levelo_inurba_marseille","lat":43.31116,"lon":5.37769,"is_reserved":false,"is_disabled":false,"rental_uris":{"android":"levelo://app?vid=547b6ce3-a7e3-473b-a29c-7c15822a1ecd","ios":"levelo://app?vid=547b6ce3-a7e3-473b-a29c-7c15822a1ecd"},"vehicle_type_id":"4","last_reported":1767965465,"current_range_meters":5600,"station_id":"ce4bgt92rcd13ifvqcg0","pricing_plan_id":"cebpf4jnsgd1na2vs0mg"},{"bike_id":"285e8055-62eb-4661-98d0-960fb00617b5","system_id":"levelo_inurba_marseille","lat":43.29788,"lon":5.3812,"is_reserved":false,"is_disabled":false,"rental_uris":{"android":"levelo://app?vid=285e8055-62eb-4661-98d0-960fb00617b5","ios":"levelo://app?vid=285e8055-62eb-4661-98d0-960fb00617b5"},"vehicle_type_id":"4","last_reported":1767965465,"current_range_meters":5600,"station_id":"ce4bgip2rcd13ifvqbb0","pricing_plan_id":"cebpf4jnsgd1na2vs0mg"},{"bike_id":"a947241a-d3af-4302-a18c-3fd572da3e9b","system_id":"levelo_inurba_marseille","lat":43.26019,"lon":5.37574,"is_reserved":false,"is_disabled":false,"rental_uris":{"android":"levelo://app?vid=a947241a-d3af-4302-a18c-3fd572da3e9b","ios":"levelo://app?vid=a947241a-d3af-4302-a18c-3fd572da3e9b"},"vehicle_type_id":"4","last_reported":1767965465,"current_range_meters":6000,"station_id":"ce4bhgh2rcd13ifvqfa0","pricing_plan_id":"cebpf4jnsgd1na2vs0mg"},{"bike_id":"528852f0-b3e1-4361-91fd-d35d5de704d7","system_id":"levelo_inurba_marseille","lat":43.2549,"lon":5.37638,"is_reserved":false,"is_disabled":false,"rental_uris":{"android":"levelo://app?vid=528852f0-b3e1-4361-91fd-d35d5de704d7","ios":"levelo://app?vid=528852f0-b3e1-4361-91fd-d35d5de704d7"},"vehicle_type_id":"4","last_reported":1767965465,"current_range_meters":6000,"station_id":"ce4bhh12rcd13ifvqff0","pricing_plan_id":"cebpf4jnsgd1na2vs0mg"},{"bike_id":"73cf9b17-5b19-458b-a83f-a386ca2d503d","system_id":"levelo_inurba_marseille","lat":43.30811,"lon":5.38139,"is_reserved":false,"is_disabled":false,"rental_uris":{"android":"levelo://app?vid=73cf9b17-5b19-458b-a83f-a386ca2d503d","ios":"levelo://app?vid=73cf9b17-5b19-458b-a83f-a386ca2d503d"},"vehicle_type_id":"4","last_reported":1767965465,"current_range_meters":6000,"station_id":"ce4bgt12rcd13ifvqce0","pricing_plan_id":"cebpf4jnsgd1na2vs0mg"},{"bike_id":"b2a3da8f-bf56-4eb9-9359-d00614059d44","system_id":"levelo_inurba_marseille","lat":43.29063,"lon":5.38089,"is_reserved":false,"is_disabled":false,"rental_uris":{"android":"levelo://app?vid=b2a3da8f-bf56-4eb9-9359-d00614059d44","ios":"levelo://app?vid=b2a3da8f-bf56-4eb9-9359-d00614059d44"},"vehicle_type_id":"4","last_reported":1767965465,"current_range_meters":6000,"station_id":"","pricing_plan_id":"cebpf4jnsgd1na2vs0mg"},{"bike_id":"7017533d-0e6f-4a91-bdf9-4569e8a4b13c","system_id":"levelo_inurba_marseille","lat":43.30967,"lon":5.39046,"is_reserved":false,"is_disabled":false,"rental_uris":{"android":"levelo://app?vid=7017533d-0e6f-4a91-bdf9-4569e8a4b13c","ios":"levelo://app?vid=7017533d-0e6f-4a91-bdf9-4569e8a4b13c"},"vehicle_type_id":"4","last_reported":1767965465,"current_range_meters":6000,"station_id":"ce4bgup2rcd13ifvqco0","pricing_plan_id":"cebpf4jnsgd1na2vs0mg"},{"bike_id":"cf1e2ca1-5b01-4a33-b7c9-e6aa3eb03802","system_id":"levelo_inurba_marseille","lat":43.27639,"lon":5.36112,"is_reserved":false,"is_disabled":false,"rental_uris":{"android":"levelo://app?vid=cf1e2ca1-5b01-4a33-b7c9-e6aa3eb03802","ios":"levelo://app?vid=cf1e2ca1-5b01-4a33-b7c9-e6aa3eb03802"},"vehicle_type_id":"4","last_reported":1767965465,"current_range_meters":6000,"station_id":"ce4bgj92rcd13ifvqbe0","pricing_plan_id":"cebpf4jnsgd1na2vs0mg"},{"bike_id":"cb54f6e5-9911-4432-98fa-33b8ae0da364","system_id":"levelo_inurba_marseille","lat":43.2657,"lon":5.39004,"is_reserved":false,"is_disabled":false,"rental_uris":{"android":"levelo://app?vid=cb54f6e5-9911-4432-98fa-33b8ae0da364","ios":"levelo://app?vid=cb54f6e5-9911-4432-98fa-33b8ae0da364"},"vehicle_type_id":"4","last_reported":1767965465,"current_range_meters":6000,"station_id":"ce4bhe12rcd13ifvqf30","pricing_plan_id":"cebpf4jnsgd1na2vs0mg"},{"bike_id":"577b404b-63b1-4b8e-82e8-29162d5c26c7","system_id":"levelo_inurba_marseille","lat":43.32552,"lon":5.36525,"is_reserved":false,"is_disabled":false,"rental_uris":{"android":"levelo://app?vid=577b404b-63b1-4b8e-82e8-29162d5c26c7","ios":"levelo://app?vid=577b404b-63b1-4b8e-82e8-29162d5c26c7"},"vehicle_type_id":"4","last_reported":1767965465,"current_range_meters":6000,"station_id":"","pricing_plan_id":"cebpf4jnsgd1na2vs0mg"},{"bike_id":"0d6a9a04-1891-48de-b8dc-a5fb353d9b7e","system_id":"levelo_inurba_marseille","lat":43.28975,"lon":5.35804,"is_reserved":false,"is_disabled":false,"rental_uris":{"android":"levelo://app?vid=0d6a9a04-1891-48de-b8dc-a5fb353d9b7e","ios":"levelo://app?vid=0d6a9a04-1891-48de-b8dc-a5fb353d9b7e"},"vehicle_type_id":"4","last_reported":1767965465,"current_range_meters":6000,"station_id":"","pricing_plan_id":"cebpf4jnsgd1na2vs0mg"},{"bike_id":"34ec595a-d544-461d-886e-dfdaf4bec49b","system_id":"levelo_inurba_marseille","lat":43.2572,"lon":5.41115,"is_reserved":false,"is_disabled":false,"rental_uris":{"android":"levelo://app?vid=34ec595a-d544-461d-886e-dfdaf4bec49b","ios":"levelo://app?vid=34ec595a-d544-461d-886e-dfdaf4bec49b"},"vehicle_type_id":"4","last_reported":1767965465,"current_range_meters":6000,"station_id":"ce4bhkp2rcd13ifvqgd0","pricing_plan_id":"cebpf4jnsgd1na2vs0mg"},{"bike_id":"e4b543e4-7198-4112-93ae-6c25b36bd4a3","system_id":"levelo_inurba_marseille","lat":43.23772,"lon":5.36618,"is_reserved":false,"is_disabled":false,"rental_uris":{"android":"levelo://app?vid=e4b543e4-7198-4112-93ae-6c25b36bd4a3","ios":"levelo://app?vid=e4b543e4-7198-4112-93ae-6c25b36bd4a3"},"vehicle_type_id":"4","last_reported":1767965465,"current_range_meters":6000,"station_id":"st_d3nk18o9ro0c73en2l3g","pricing_plan_id":"cebpf4jnsgd1na2vs0mg"},{"bike_id":"31447a0e-5f20-40ed-81c7-81b3e7eb8db6","system_id":"levelo_inurba_marseille","lat":43.31386,"lon":5.38572,"is_reserved":false,"is_disabled":false,"rental_uris":{"android":"levelo://app?vid=31447a0e-5f20-40ed-81c7-81b3e7eb8db6","ios":"levelo://app?vid=31447a0e-5f20-40ed-81c7-81b3e7eb8db6"},"vehicle_type_id":"4","last_reported":1767965465,"current_range_meters":6000,"station_id":"","pricing_plan_id":"cebpf4jnsgd1na2vs0mg"},{"bike_id":"ee6e2cb0-3438-450d-a7e5-bdd8563f0fbe","system_id":"levelo_inurba_marseille","lat":43.24808,"lon":5.37463,"is_reserved":false,"is_disabled":false,"rental_uris":{"android":"levelo://app?vid=ee6e2cb0-3438-450d-a7e5-bdd8563f0fbe","ios":"levelo://app?vid=ee6e2cb0-3438-450d-a7e5-bdd8563f0fbe"},"vehicle_type_id":"4","last_reported":1767965465,"current_range_meters":6000,"station_id":"ce4bhgh2rcd13ifvqfb0","pricing_plan_id":"cebpf4jnsgd1na2vs0mg"},{"bike_id":"57997491-6d3e-482c-9d76-5c92688e72f6","system_id":"levelo_inurba_marseille","lat":43.30468,"lon":5.3791,"is_reserved":false,"is_disabled":false,"rental_uris":{"android":"levelo://app?vid=57997491-6d3e-482c-9d76-5c92688e72f6","ios":"levelo://app?vid=57997491-6d3e-482c-9d76-5c92688e72f6"},"vehicle_type_id":"4","last_reported":1767965465,"current_range_meters":6000,"station_id":"ce4bgup2rcd13ifvqcn0","pricing_plan_id":"cebpf4jnsgd1na2vs0mg"},{"bike_id":"4e3c5496-40f0-4466-b324-afe548ce84a2","system_id":"levelo_inurba_marseille","lat":43.25585,"lon":5.38251,"is_reserved":false,"is_disabled":false,"rental_uris":{"android":"levelo://app?vid=4e3c5496-40f0-4466-b324-afe548ce84a2","ios":"levelo://app?vid=4e3c5496-40f0-4466-b324-afe548ce84a2"},"vehicle_type_id":"4","last_reported":1767965465,"current_range_meters":6000,"station_id":"ce4bhih2rcd13ifvqfs0","pricing_plan_id":"cebpf4jnsgd1na2vs0mg"},{"bike_id":"0c958f1e-94e1-40f0-8255-ea68171a6691","system_id":"levelo_inurba_marseille","lat":43.24657,"lon":5.38162,"is_reserved":false,"is_disabled":false,"rental_uris":{"android":"levelo://app?vid=0c958f1e-94e1-40f0-8255-ea68171a6691","ios":"levelo://app?vid=0c958f1e-94e1-40f0-8255-ea68171a6691"},"vehicle_type_id":"4","last_reported":1767965465,"current_range_meters":6000,"station_id":"ce4bhih2rcd13ifvqfr0","pricing_plan_id":"cebpf4jnsgd1na2vs0mg"},{"bike_id":"130281f8-4ff6-4377-934a-d51b59ac95ed","system_id":"levelo_inurba_marseille","lat":43.25119,"lon":5.40317,"is_reserved":false,"is_disabled":false,"rental_uris":{"android":"levelo://app?vid=130281f8-4ff6-4377-934a-d51b59ac95ed","ios":"levelo://app?vid=130281f8-4ff6-4377-934a-d51b59ac95ed"},"vehicle_type_id":"4","last_reported":1767965465,"current_range_meters":6000,"station_id":"ce4bhlh2rcd13ifvqgig","pricing_plan_id":"cebpf4jnsgd1na2vs0mg"},{"bike_id":"203901a8-7796-462c-b8ca-ce985701687f","system_id":"levelo_inurba_marseille","lat":43.28026,"lon":5.399,"is_reserved":false,"is_disabled":false,"rental_uris":{"android":"levelo://app?vid=203901a8-7796-462c-b8ca-ce985701687f","ios":"levelo://app?vid=203901a8-7796-462c-b8ca-ce985701687f"},"vehicle_type_id":"4","last_reported":1767965465,"current_range_meters":6000,"station_id":"","pricing_plan_id":"cebpf4jnsgd1na2vs0mg"},{"bike_id":"f8739a78-ccd5-4f03-b134-bacebcc9d5a7","system_id":"levelo_inurba_marseille","lat":43.3024,"lon":5.3942,"is_reserved":false,"is_disabled":false,"rental_uris":{"android":"levelo://app?vid=f8739a78-ccd5-4f03-b134-bacebcc9d5a7","ios":"levelo://app?vid=f8739a78-ccd5-4f03-b134-bacebcc9d5a7"},"vehicle_type_id":"4","last_reported":1767965465,"current_range_meters":6400,"station_id":"","pricing_plan_id":"cebpf4jnsgd1na2vs0mg"},{"bike_id":"30c1554a-5a63-48b6-a122-23d1d5bc5565","system_id":"levelo_inurba_marseille","lat":43.29628,"lon":5.37789,"is_reserved":false,"is_disabled":false,"rental_uris":{"android":"levelo://app?vid=30c1554a-5a63-48b6-a122-23d1d5bc5565","ios":"levelo://app?vid=30c1554a-5a63-48b6-a122-23d1d5bc5565"},"vehicle_type_id":"4","last_reported":1767965465,"current_range_meters":6400,"station_id":"","pricing_plan_id":"cebpf4jnsgd1na2vs0mg"},{"bike_id":"20506ba6-5698-4c8c-9176-c77dea2f7a96","system_id":"levelo_inurba_marseille","lat":43.24057,"lon":5.37764,"is_reserved":false,"is_disabled":false,"rental_uris":{"android":"levelo://app?vid=20506ba6-5698-4c8c-9176-c77dea2f7a96","ios":"levelo://app?vid=20506ba6-5698-4c8c-9176-c77dea2f7a96"},"vehicle_type_id":"4","last_reported":1767965465,"current_range_meters":6400,"station_id":"ce4bhnp2rcd13ifvqgvg","pricing_plan_id":"cebpf4jnsgd1na2vs0mg"},{"bike_id":"57aa5ac2-23db-4768-b571-1d1bb04178da","system_id":"levelo_inurba_marseille","lat":43.30987,"lon":5.37214,"is_reserved":false,"is_disabled":false,"rental_uris":{"android":"levelo://app?vid=57aa5ac2-23db-4768-b571-1d1bb04178da","ios":"levelo://app?vid=57aa5ac2-23db-4768-b571-1d1bb04178da"},"vehicle_type_id":"4","last_reported":1767965465,"current_range_meters":6400,"station_id":"","pricing_plan_id":"cebpf4jnsgd1na2vs0mg"},{"bike_id":"afbfc22c-0163-4e0f-bc46-9fcb146cdab6","system_id":"levelo_inurba_marseille","lat":43.26974,"lon":5.40256,"is_reserved":false,"is_disabled":false,"rental_uris":{"android":"levelo://app?vid=afbfc22c-0163-4e0f-bc46-9fcb146cdab6","ios":"levelo://app?vid=afbfc22c-0163-4e0f-bc46-9fcb146cdab6"},"vehicle_type_id":"4","last_reported":1767965465,"current_range_meters":6400,"station_id":"cjm6bp8fraef2m0cb0m0","pricing_plan_id":"cebpf4jnsgd1na2vs0mg"},{"bike_id":"bf5bb460-7461-4f2f-be04-05f7ad0bed37","system_id":"levelo_inurba_marseille","lat":43.301798,"lon":5.366255,"is_reserved":false,"is_disabled":false,"rental_uris":{"android":"levelo://app?vid=bf5bb460-7461-4f2f-be04-05f7ad0bed37","ios":"levelo://app?vid=bf5bb460-7461-4f2f-be04-05f7ad0bed37"},"vehicle_type_id":"4","last_reported":1767965465,"current_range_meters":6400,"station_id":"ce4bgrh2rcd13ifvqc8g","pricing_plan_id":"cebpf4jnsgd1na2vs0mg"},{"bike_id":"7873a432-75ba-46ba-a34c-4dc6ef756fe4","system_id":"levelo_inurba_marseille","lat":43.337444,"lon":5.374475,"is_reserved":false,"is_disabled":false,"rental_uris":{"android":"levelo://app?vid=7873a432-75ba-46ba-a34c-4dc6ef756fe4","ios":"levelo://app?vid=7873a432-75ba-46ba-a34c-4dc6ef756fe4"},"vehicle_type_id":"4","last_reported":1767965465,"current_range_meters":6400,"station_id":"","pricing_plan_id":"cebpf4jnsgd1na2vs0mg"},{"bike_id":"7a2db32e-cf3a-409e-bb36-047869209912","system_id":"levelo_inurba_marseille","lat":43.26202,"lon":5.37389,"is_reserved":false,"is_disabled":false,"rental_uris":{"android":"levelo://app?vid=7a2db32e-cf3a-409e-bb36-047869209912","ios":"levelo://app?vid=7a2db32e-cf3a-409e-bb36-047869209912"},"vehicle_type_id":"4","last_reported":1767965465,"current_range_meters":6400,"station_id":"ce4bhgp2rcd13ifvqfc0","pricing_plan_id":"cebpf4jnsgd1na2vs0mg"},{"bike_id":"0f77e299-92e2-4466-8bc3-8f804d19cd38","system_id":"levelo_inurba_marseille","lat":43.295723,"lon":5.375225,"is_reserved":false,"is_disabled":false,"rental_uris":{"android":"levelo://app?vid=0f77e299-92e2-4466-8bc3-8f804d19cd38","ios":"levelo://app?vid=0f77e299-92e2-4466-8bc3-8f804d19cd38"},"vehicle_type_id":"4","last_reported":1767965465,"current_range_meters":6400,"station_id":"ce4bgh92rcd13ifvqb50","pricing_plan_id":"cebpf4jnsgd1na2vs0mg"},{"bike_id":"c6c13c60-a4a2-4874-91a0-6e6a61fb368b","system_id":"levelo_inurba_marseille","lat":43.25924,"lon":5.40912,"is_reserved":false,"is_disabled":false,"rental_uris":{"android":"levelo://app?vid=c6c13c60-a4a2-4874-91a0-6e6a61fb368b","ios":"levelo://app?vid=c6c13c60-a4a2-4874-91a0-6e6a61fb368b"},"vehicle_type_id":"4","last_reported":1767965465,"current_range_meters":6400,"station_id":"ce4bhm92rcd13ifvqglg","pricing_plan_id":"cebpf4jnsgd1na2vs0mg"},{"bike_id":"db48f5d2-782d-4526-96cf-9084f926b628","system_id":"levelo_inurba_marseille","lat":43.30733,"lon":5.42441,"is_reserved":false,"is_disabled":false,"rental_uris":{"android":"levelo://app?vid=db48f5d2-782d-4526-96cf-9084f926b628","ios":"levelo://app?vid=db48f5d2-782d-4526-96cf-9084f926b628"},"vehicle_type_id":"4","last_reported":1767965465,"current_range_meters":6400,"station_id":"st_cvj6ca6bvosntc0bfgr0","pricing_plan_id":"cebpf4jnsgd1na2vs0mg"},{"bike_id":"49693813-6422-4c0b-883f-2f9444f40ff2","system_id":"levelo_inurba_marseille","lat":43.25493,"lon":5.37646,"is_reserved":false,"is_disabled":false,"rental_uris":{"android":"levelo://app?vid=49693813-6422-4c0b-883f-2f9444f40ff2","ios":"levelo://app?vid=49693813-6422-4c0b-883f-2f9444f40ff2"},"vehicle_type_id":"4","last_reported":1767965465,"current_range_meters":6400,"station_id":"ce4bhh12rcd13ifvqff0","pricing_plan_id":"cebpf4jnsgd1na2vs0mg"},{"bike_id":"84be322d-3f5a-42b3-b4ff-9332fdae0ce8","system_id":"levelo_inurba_marseille","lat":43.33152,"lon":5.37708,"is_reserved":false,"is_disabled":false,"rental_uris":{"android":"levelo://app?vid=84be322d-3f5a-42b3-b4ff-9332fdae0ce8","ios":"levelo://app?vid=84be322d-3f5a-42b3-b4ff-9332fdae0ce8"},"vehicle_type_id":"4","last_reported":1767965465,"current_range_meters":6400,"station_id":"st_d46cu089ee8s73dldbu0","pricing_plan_id":"cebpf4jnsgd1na2vs0mg"},{"bike_id":"0e99465e-2bb5-488d-b976-edf09fa35009","system_id":"levelo_inurba_marseille","lat":43.2499,"lon":5.38952,"is_reserved":false,"is_disabled":false,"rental_uris":{"android":"levelo://app?vid=0e99465e-2bb5-488d-b976-edf09fa35009","ios":"levelo://app?vid=0e99465e-2bb5-488d-b976-edf09fa35009"},"vehicle_type_id":"4","last_reported":1767965465,"current_range_meters":6400,"station_id":"ce4bhgp2rcd13ifvqfd0","pricing_plan_id":"cebpf4jnsgd1na2vs0mg"},{"bike_id":"4e41aa3b-9162-476b-82f4-857ae55d1a75","system_id":"levelo_inurba_marseille","lat":43.32361,"lon":5.36736,"is_reserved":false,"is_disabled":false,"rental_uris":{"android":"levelo://app?vid=4e41aa3b-9162-476b-82f4-857ae55d1a75","ios":"levelo://app?vid=4e41aa3b-9162-476b-82f4-857ae55d1a75"},"vehicle_type_id":"4","last_reported":1767965465,"current_range_meters":6400,"station_id":"ce4bhsh2rcd13ifvqi2g","pricing_plan_id":"cebpf4jnsgd1na2vs0mg"},{"bike_id":"0f003947-35f3-407d-841f-7fac78f83875","system_id":"levelo_inurba_marseille","lat":43.2798,"lon":5.41675,"is_reserved":false,"is_disabled":false,"rental_uris":{"android":"levelo://app?vid=0f003947-35f3-407d-841f-7fac78f83875","ios":"levelo://app?vid=0f003947-35f3-407d-841f-7fac78f83875"},"vehicle_type_id":"4","last_reported":1767965465,"current_range_meters":6400,"station_id":"ce4bho12rcd13ifvqh1g","pricing_plan_id":"cebpf4jnsgd1na2vs0mg"},{"bike_id":"9a84455d-66b0-4d3f-8c81-d289293761d8","system_id":"levelo_inurba_marseille","lat":43.241677,"lon":5.36401,"is_reserved":false,"is_disabled":false,"rental_uris":{"android":"levelo://app?vid=9a84455d-66b0-4d3f-8c81-d289293761d8","ios":"levelo://app?vid=9a84455d-66b0-4d3f-8c81-d289293761d8"},"vehicle_type_id":"4","last_reported":1767965465,"current_range_meters":6400,"station_id":"cpo36qri1sfpv3e86is0","pricing_plan_id":"cebpf4jnsgd1na2vs0mg"},{"bike_id":"30766c8d-7152-4f81-b59b-1c1a2aaa508d","system_id":"levelo_inurba_marseille","lat":43.30108,"lon":5.36673,"is_reserved":false,"is_disabled":false,"rental_uris":{"android":"levelo://app?vid=30766c8d-7152-4f81-b59b-1c1a2aaa508d","ios":"levelo://app?vid=30766c8d-7152-4f81-b59b-1c1a2aaa508d"},"vehicle_type_id":"4","last_reported":1767965465,"current_range_meters":6800,"station_id":"","pricing_plan_id":"cebpf4jnsgd1na2vs0mg"},{"bike_id":"0e7e919c-83a3-45be-90bf-dcf29db4b4ea","system_id":"levelo_inurba_marseille","lat":43.32343,"lon":5.36721,"is_reserved":false,"is_disabled":false,"rental_uris":{"android":"levelo://app?vid=0e7e919c-83a3-45be-90bf-dcf29db4b4ea","ios":"levelo://app?vid=0e7e919c-83a3-45be-90bf-dcf29db4b4ea"},"vehicle_type_id":"4","last_reported":1767965465,"current_range_meters":6800,"station_id":"ce4bhsh2rcd13ifvqi2g","pricing_plan_id":"cebpf4jnsgd1na2vs0mg"},{"bike_id":"b4702897-d3f0-43ef-959b-855897d2b5ad","system_id":"levelo_inurba_marseille","lat":43.26552,"lon":5.37297,"is_reserved":false,"is_disabled":false,"rental_uris":{"android":"levelo://app?vid=b4702897-d3f0-43ef-959b-855897d2b5ad","ios":"levelo://app?vid=b4702897-d3f0-43ef-959b-855897d2b5ad"},"vehicle_type_id":"4","last_reported":1767965465,"current_range_meters":6800,"station_id":"ce4bhg12rcd13ifvqf70","pricing_plan_id":"cebpf4jnsgd1na2vs0mg"},{"bike_id":"c1db0c61-732d-4354-b637-5805db36c4e1","system_id":"levelo_inurba_marseille","lat":43.30538,"lon":5.3656,"is_reserved":false,"is_disabled":false,"rental_uris":{"android":"levelo://app?vid=c1db0c61-732d-4354-b637-5805db36c4e1","ios":"levelo://app?vid=c1db0c61-732d-4354-b637-5805db36c4e1"},"vehicle_type_id":"4","last_reported":1767965465,"current_range_meters":6800,"station_id":"ce4bgs12rcd13ifvqcag","pricing_plan_id":"cebpf4jnsgd1na2vs0mg"},{"bike_id":"b7dddc8e-ff5d-458a-a8d3-88dc4e34e930","system_id":"levelo_inurba_marseille","lat":43.273723,"lon":5.362618,"is_reserved":false,"is_disabled":false,"rental_uris":{"android":"levelo://app?vid=b7dddc8e-ff5d-458a-a8d3-88dc4e34e930","ios":"levelo://app?vid=b7dddc8e-ff5d-458a-a8d3-88dc4e34e930"},"vehicle_type_id":"4","last_reported":1767965465,"current_range_meters":6800,"station_id":"ce4bhbh2rcd13ifvqeo0","pricing_plan_id":"cebpf4jnsgd1na2vs0mg"},{"bike_id":"19c90349-756f-4679-a530-ebef5565e237","system_id":"levelo_inurba_marseille","lat":43.3224,"lon":5.367,"is_reserved":false,"is_disabled":false,"rental_uris":{"android":"levelo://app?vid=19c90349-756f-4679-a530-ebef5565e237","ios":"levelo://app?vid=19c90349-756f-4679-a530-ebef5565e237"},"vehicle_type_id":"4","last_reported":1767965465,"current_range_meters":6800,"station_id":"","pricing_plan_id":"cebpf4jnsgd1na2vs0mg"},{"bike_id":"708fa082-0c9b-4653-ac5f-bf6a01c9e532","system_id":"levelo_inurba_marseille","lat":43.25934,"lon":5.40896,"is_reserved":false,"is_disabled":false,"rental_uris":{"android":"levelo://app?vid=708fa082-0c9b-4653-ac5f-bf6a01c9e532","ios":"levelo://app?vid=708fa082-0c9b-4653-ac5f-bf6a01c9e532"},"vehicle_type_id":"4","last_reported":1767965465,"current_range_meters":6800,"station_id":"ce4bhm92rcd13ifvqglg","pricing_plan_id":"cebpf4jnsgd1na2vs0mg"},{"bike_id":"59778b0c-dfa3-463a-837d-e252afe5b329","system_id":"levelo_inurba_marseille","lat":43.26375,"lon":5.41084,"is_reserved":false,"is_disabled":true,"rental_uris":{"android":"levelo://app?vid=59778b0c-dfa3-463a-837d-e252afe5b329","ios":"levelo://app?vid=59778b0c-dfa3-463a-837d-e252afe5b329"},"vehicle_type_id":"4","last_reported":1767965465,"current_range_meters":6800,"station_id":"st_d4e5ca6na9uc73bfl5fg","pricing_plan_id":"cebpf4jnsgd1na2vs0mg"},{"bike_id":"18afa7e5-a060-43b9-bd3e-ab224bbb7669","system_id":"levelo_inurba_marseille","lat":43.28864,"lon":5.42531,"is_reserved":false,"is_disabled":false,"rental_uris":{"android":"levelo://app?vid=18afa7e5-a060-43b9-bd3e-ab224bbb7669","ios":"levelo://app?vid=18afa7e5-a060-43b9-bd3e-ab224bbb7669"},"vehicle_type_id":"4","last_reported":1767965465,"current_range_meters":6800,"station_id":"st_d3b462108ojc7389ooeg","pricing_plan_id":"cebpf4jnsgd1na2vs0mg"},{"bike_id":"73311dd9-ce76-4424-880c-4c44988d4f09","system_id":"levelo_inurba_marseille","lat":43.2497,"lon":5.40497,"is_reserved":false,"is_disabled":false,"rental_uris":{"android":"levelo://app?vid=73311dd9-ce76-4424-880c-4c44988d4f09","ios":"levelo://app?vid=73311dd9-ce76-4424-880c-4c44988d4f09"},"vehicle_type_id":"4","last_reported":1767965465,"current_range_meters":6800,"station_id":"st_d2ngiaodas8pm72gd1h0","pricing_plan_id":"cebpf4jnsgd1na2vs0mg"},{"bike_id":"2ce5425d-5b38-4acd-a6e9-bb0d6532119b","system_id":"levelo_inurba_marseille","lat":43.29915,"lon":5.43646,"is_reserved":false,"is_disabled":false,"rental_uris":{"android":"levelo://app?vid=2ce5425d-5b38-4acd-a6e9-bb0d6532119b","ios":"levelo://app?vid=2ce5425d-5b38-4acd-a6e9-bb0d6532119b"},"vehicle_type_id":"4","last_reported":1767965465,"current_range_meters":6800,"station_id":"ce4bhpp2rcd13ifvqhfg","pricing_plan_id":"cebpf4jnsgd1na2vs0mg"},{"bike_id":"11ac8e34-fa0c-42fb-bf50-2cad487b19c1","system_id":"levelo_inurba_marseille","lat":43.275644,"lon":5.384203,"is_reserved":false,"is_disabled":false,"rental_uris":{"android":"levelo://app?vid=11ac8e34-fa0c-42fb-bf50-2cad487b19c1","ios":"levelo://app?vid=11ac8e34-fa0c-42fb-bf50-2cad487b19c1"},"vehicle_type_id":"4","last_reported":1767965465,"current_range_meters":6800,"station_id":"ce4bhh92rcd13ifvqfi0","pricing_plan_id":"cebpf4jnsgd1na2vs0mg"},{"bike_id":"dbbdcd3a-c41b-425f-ab5d-c82d533b87fa","system_id":"levelo_inurba_marseille","lat":43.314,"lon":5.36667,"is_reserved":false,"is_disabled":false,"rental_uris":{"android":"levelo://app?vid=dbbdcd3a-c41b-425f-ab5d-c82d533b87fa","ios":"levelo://app?vid=dbbdcd3a-c41b-425f-ab5d-c82d533b87fa"},"vehicle_type_id":"4","last_reported":1767965465,"current_range_meters":6800,"station_id":"ce4bgr92rcd13ifvqc6g","pricing_plan_id":"cebpf4jnsgd1na2vs0mg"},{"bike_id":"38f34c0b-018a-4a87-9b2b-2105aec61656","system_id":"levelo_inurba_marseille","lat":43.24168,"lon":5.39726,"is_reserved":false,"is_disabled":false,"rental_uris":{"android":"levelo://app?vid=38f34c0b-018a-4a87-9b2b-2105aec61656","ios":"levelo://app?vid=38f34c0b-018a-4a87-9b2b-2105aec61656"},"vehicle_type_id":"4","last_reported":1767965465,"current_range_meters":6800,"station_id":"ce4bhn12rcd13ifvqgpg","pricing_plan_id":"cebpf4jnsgd1na2vs0mg"},{"bike_id":"85ec619e-5ea0-4fca-a7de-dd41384f5c43","system_id":"levelo_inurba_marseille","lat":43.26573,"lon":5.37273,"is_reserved":false,"is_disabled":false,"rental_uris":{"android":"levelo://app?vid=85ec619e-5ea0-4fca-a7de-dd41384f5c43","ios":"levelo://app?vid=85ec619e-5ea0-4fca-a7de-dd41384f5c43"},"vehicle_type_id":"4","last_reported":1767965465,"current_range_meters":6800,"station_id":"ce4bhg12rcd13ifvqf70","pricing_plan_id":"cebpf4jnsgd1na2vs0mg"},{"bike_id":"baa1156a-155c-4625-a9d3-27c9511e7ffa","system_id":"levelo_inurba_marseille","lat":43.303328,"lon":5.37382,"is_reserved":false,"is_disabled":false,"rental_uris":{"android":"levelo://app?vid=baa1156a-155c-4625-a9d3-27c9511e7ffa","ios":"levelo://app?vid=baa1156a-155c-4625-a9d3-27c9511e7ffa"},"vehicle_type_id":"4","last_reported":1767965465,"current_range_meters":6800,"station_id":"","pricing_plan_id":"cebpf4jnsgd1na2vs0mg"},{"bike_id":"8a8a6b62-3816-4794-bab9-9801ae9f96b6","system_id":"levelo_inurba_marseille","lat":43.24078,"lon":5.37739,"is_reserved":false,"is_disabled":false,"rental_uris":{"android":"levelo://app?vid=8a8a6b62-3816-4794-bab9-9801ae9f96b6","ios":"levelo://app?vid=8a8a6b62-3816-4794-bab9-9801ae9f96b6"},"vehicle_type_id":"4","last_reported":1767965465,"current_range_meters":6800,"station_id":"ce4bhnp2rcd13ifvqgvg","pricing_plan_id":"cebpf4jnsgd1na2vs0mg"},{"bike_id":"d5c29c18-7a27-4023-8927-8003cd0b16af","system_id":"levelo_inurba_marseille","lat":43.26168,"lon":5.37495,"is_reserved":false,"is_disabled":false,"rental_uris":{"android":"levelo://app?vid=d5c29c18-7a27-4023-8927-8003cd0b16af","ios":"levelo://app?vid=d5c29c18-7a27-4023-8927-8003cd0b16af"},"vehicle_type_id":"4","last_reported":1767965465,"current_range_meters":6800,"station_id":"ce4bhgp2rcd13ifvqfc0","pricing_plan_id":"cebpf4jnsgd1na2vs0mg"},{"bike_id":"fab08092-cce9-4478-859e-e05fdc61134c","system_id":"levelo_inurba_marseille","lat":43.26563,"lon":5.37279,"is_reserved":false,"is_disabled":false,"rental_uris":{"android":"levelo://app?vid=fab08092-cce9-4478-859e-e05fdc61134c","ios":"levelo://app?vid=fab08092-cce9-4478-859e-e05fdc61134c"},"vehicle_type_id":"4","last_reported":1767965465,"current_range_meters":6800,"station_id":"ce4bhg12rcd13ifvqf70","pricing_plan_id":"cebpf4jnsgd1na2vs0mg"},{"bike_id":"eb809e38-a28d-4043-9e39-92f933e79a29","system_id":"levelo_inurba_marseille","lat":43.3013,"lon":5.37428,"is_reserved":false,"is_disabled":false,"rental_uris":{"android":"levelo://app?vid=eb809e38-a28d-4043-9e39-92f933e79a29","ios":"levelo://app?vid=eb809e38-a28d-4043-9e39-92f933e79a29"},"vehicle_type_id":"4","last_reported":1767965465,"current_range_meters":6800,"station_id":"ce4bgs92rcd13ifvqcc0","pricing_plan_id":"cebpf4jnsgd1na2vs0mg"},{"bike_id":"c103346d-3384-4b83-9ff8-dff851f4fdfe","system_id":"levelo_inurba_marseille","lat":43.31427,"lon":5.38094,"is_reserved":false,"is_disabled":false,"rental_uris":{"android":"levelo://app?vid=c103346d-3384-4b83-9ff8-dff851f4fdfe","ios":"levelo://app?vid=c103346d-3384-4b83-9ff8-dff851f4fdfe"},"vehicle_type_id":"4","last_reported":1767965465,"current_range_meters":6800,"station_id":"","pricing_plan_id":"cebpf4jnsgd1na2vs0mg"},{"bike_id":"e48a0a1d-139d-4eae-9bc8-4eb881e00720","system_id":"levelo_inurba_marseille","lat":43.32337,"lon":5.36707,"is_reserved":false,"is_disabled":false,"rental_uris":{"android":"levelo://app?vid=e48a0a1d-139d-4eae-9bc8-4eb881e00720","ios":"levelo://app?vid=e48a0a1d-139d-4eae-9bc8-4eb881e00720"},"vehicle_type_id":"4","last_reported":1767965465,"current_range_meters":6800,"station_id":"ce4bhsh2rcd13ifvqi2g","pricing_plan_id":"cebpf4jnsgd1na2vs0mg"},{"bike_id":"0300afac-912a-4bda-b7af-7e061ba01547","system_id":"levelo_inurba_marseille","lat":43.296616,"lon":5.375998,"is_reserved":false,"is_disabled":false,"rental_uris":{"android":"levelo://app?vid=0300afac-912a-4bda-b7af-7e061ba01547","ios":"levelo://app?vid=0300afac-912a-4bda-b7af-7e061ba01547"},"vehicle_type_id":"4","last_reported":1767965465,"current_range_meters":6800,"station_id":"","pricing_plan_id":"cebpf4jnsgd1na2vs0mg"},{"bike_id":"713202e1-eaed-4067-ab17-b43e53314e08","system_id":"levelo_inurba_marseille","lat":43.30152,"lon":5.38078,"is_reserved":false,"is_disabled":false,"rental_uris":{"android":"levelo://app?vid=713202e1-eaed-4067-ab17-b43e53314e08","ios":"levelo://app?vid=713202e1-eaed-4067-ab17-b43e53314e08"},"vehicle_type_id":"4","last_reported":1767965465,"current_range_meters":6800,"station_id":"ce4bgjp2rcd13ifvqbh0","pricing_plan_id":"cebpf4jnsgd1na2vs0mg"},{"bike_id":"569b0032-d7de-4ef5-ac08-24b2ac42db20","system_id":"levelo_inurba_marseille","lat":43.26498,"lon":5.37224,"is_reserved":false,"is_disabled":false,"rental_uris":{"android":"levelo://app?vid=569b0032-d7de-4ef5-ac08-24b2ac42db20","ios":"levelo://app?vid=569b0032-d7de-4ef5-ac08-24b2ac42db20"},"vehicle_type_id":"4","last_reported":1767965465,"current_range_meters":7200,"station_id":"ce4bhg12rcd13ifvqf70","pricing_plan_id":"cebpf4jnsgd1na2vs0mg"},{"bike_id":"aa186435-cc03-4095-aab3-165e1212d005","system_id":"levelo_inurba_marseille","lat":43.32359,"lon":5.36739,"is_reserved":false,"is_disabled":false,"rental_uris":{"android":"levelo://app?vid=aa186435-cc03-4095-aab3-165e1212d005","ios":"levelo://app?vid=aa186435-cc03-4095-aab3-165e1212d005"},"vehicle_type_id":"4","last_reported":1767965465,"current_range_meters":7200,"station_id":"ce4bhsh2rcd13ifvqi2g","pricing_plan_id":"cebpf4jnsgd1na2vs0mg"},{"bike_id":"51361a74-18bf-40d8-8af0-e8b3262e821a","system_id":"levelo_inurba_marseille","lat":43.262111,"lon":5.379378,"is_reserved":false,"is_disabled":false,"rental_uris":{"android":"levelo://app?vid=51361a74-18bf-40d8-8af0-e8b3262e821a","ios":"levelo://app?vid=51361a74-18bf-40d8-8af0-e8b3262e821a"},"vehicle_type_id":"4","last_reported":1767965465,"current_range_meters":7200,"station_id":"ce4bhjp2rcd13ifvqg90","pricing_plan_id":"cebpf4jnsgd1na2vs0mg"},{"bike_id":"b64e452a-bec0-47a7-9fd3-b6c2486866f5","system_id":"levelo_inurba_marseille","lat":43.28474,"lon":5.48397,"is_reserved":false,"is_disabled":false,"rental_uris":{"android":"levelo://app?vid=b64e452a-bec0-47a7-9fd3-b6c2486866f5","ios":"levelo://app?vid=b64e452a-bec0-47a7-9fd3-b6c2486866f5"},"vehicle_type_id":"4","last_reported":1767965465,"current_range_meters":7200,"station_id":"","pricing_plan_id":"cebpf4jnsgd1na2vs0mg"},{"bike_id":"e0338060-ce0a-4822-8d71-f2c1872544f8","system_id":"levelo_inurba_marseille","lat":43.28404,"lon":5.34979,"is_reserved":false,"is_disabled":false,"rental_uris":{"android":"levelo://app?vid=e0338060-ce0a-4822-8d71-f2c1872544f8","ios":"levelo://app?vid=e0338060-ce0a-4822-8d71-f2c1872544f8"},"vehicle_type_id":"4","last_reported":1767965465,"current_range_meters":7200,"station_id":"ce4bhbh2rcd13ifvqepg","pricing_plan_id":"cebpf4jnsgd1na2vs0mg"},{"bike_id":"e8237869-6bc1-4aff-8e00-c83ace1ecdfb","system_id":"levelo_inurba_marseille","lat":43.225335,"lon":5.348347,"is_reserved":false,"is_disabled":false,"rental_uris":{"android":"levelo://app?vid=e8237869-6bc1-4aff-8e00-c83ace1ecdfb","ios":"levelo://app?vid=e8237869-6bc1-4aff-8e00-c83ace1ecdfb"},"vehicle_type_id":"4","last_reported":1767965465,"current_range_meters":7200,"station_id":"","pricing_plan_id":"cebpf4jnsgd1na2vs0mg"},{"bike_id":"0eb5c5de-e526-4531-ad17-62b9b5ba50f9","system_id":"levelo_inurba_marseille","lat":43.23193,"lon":5.35561,"is_reserved":false,"is_disabled":false,"rental_uris":{"android":"levelo://app?vid=0eb5c5de-e526-4531-ad17-62b9b5ba50f9","ios":"levelo://app?vid=0eb5c5de-e526-4531-ad17-62b9b5ba50f9"},"vehicle_type_id":"4","last_reported":1767965465,"current_range_meters":7200,"station_id":"ce4bhu92rcd13ifvqi70","pricing_plan_id":"cebpf4jnsgd1na2vs0mg"},{"bike_id":"c15b3d8f-1fde-4cd7-938d-374662af78d6","system_id":"levelo_inurba_marseille","lat":43.30992,"lon":5.39036,"is_reserved":false,"is_disabled":false,"rental_uris":{"android":"levelo://app?vid=c15b3d8f-1fde-4cd7-938d-374662af78d6","ios":"levelo://app?vid=c15b3d8f-1fde-4cd7-938d-374662af78d6"},"vehicle_type_id":"4","last_reported":1767965465,"current_range_meters":7200,"station_id":"ce4bgup2rcd13ifvqco0","pricing_plan_id":"cebpf4jnsgd1na2vs0mg"},{"bike_id":"6fad9ca1-61fd-4cab-8c8e-75dda08e921f","system_id":"levelo_inurba_marseille","lat":43.319369,"lon":5.37339,"is_reserved":false,"is_disabled":false,"rental_uris":{"android":"levelo://app?vid=6fad9ca1-61fd-4cab-8c8e-75dda08e921f","ios":"levelo://app?vid=6fad9ca1-61fd-4cab-8c8e-75dda08e921f"},"vehicle_type_id":"4","last_reported":1767965465,"current_range_meters":7200,"station_id":"","pricing_plan_id":"cebpf4jnsgd1na2vs0mg"},{"bike_id":"3b0c044b-cff7-4737-b3af-017df77671fe","system_id":"levelo_inurba_marseille","lat":43.27992,"lon":5.41658,"is_reserved":false,"is_disabled":false,"rental_uris":{"android":"levelo://app?vid=3b0c044b-cff7-4737-b3af-017df77671fe","ios":"levelo://app?vid=3b0c044b-cff7-4737-b3af-017df77671fe"},"vehicle_type_id":"4","last_reported":1767965465,"current_range_meters":7200,"station_id":"ce4bho12rcd13ifvqh1g","pricing_plan_id":"cebpf4jnsgd1na2vs0mg"},{"bike_id":"911fe496-38a7-4a4f-92f2-ca45ed43770b","system_id":"levelo_inurba_marseille","lat":43.24661,"lon":5.38159,"is_reserved":false,"is_disabled":false,"rental_uris":{"android":"levelo://app?vid=911fe496-38a7-4a4f-92f2-ca45ed43770b","ios":"levelo://app?vid=911fe496-38a7-4a4f-92f2-ca45ed43770b"},"vehicle_type_id":"4","last_reported":1767965465,"current_range_meters":7200,"station_id":"ce4bhih2rcd13ifvqfr0","pricing_plan_id":"cebpf4jnsgd1na2vs0mg"},{"bike_id":"e58f24b3-ba31-40e0-a37e-750aa5dbacf9","system_id":"levelo_inurba_marseille","lat":43.337781,"lon":5.374232,"is_reserved":false,"is_disabled":false,"rental_uris":{"android":"levelo://app?vid=e58f24b3-ba31-40e0-a37e-750aa5dbacf9","ios":"levelo://app?vid=e58f24b3-ba31-40e0-a37e-750aa5dbacf9"},"vehicle_type_id":"4","last_reported":1767965465,"current_range_meters":7200,"station_id":"","pricing_plan_id":"cebpf4jnsgd1na2vs0mg"},{"bike_id":"a14ad7f9-bf16-4829-9533-365e7ac50c2f","system_id":"levelo_inurba_marseille","lat":43.321082,"lon":5.367783,"is_reserved":false,"is_disabled":false,"rental_uris":{"android":"levelo://app?vid=a14ad7f9-bf16-4829-9533-365e7ac50c2f","ios":"levelo://app?vid=a14ad7f9-bf16-4829-9533-365e7ac50c2f"},"vehicle_type_id":"4","last_reported":1767965465,"current_range_meters":7200,"station_id":"ce4bhrh2rcd13ifvqhug","pricing_plan_id":"cebpf4jnsgd1na2vs0mg"},{"bike_id":"ab60c2fc-90e6-4eb8-a77c-65affb14bc2e","system_id":"levelo_inurba_marseille","lat":43.265662,"lon":5.390226,"is_reserved":false,"is_disabled":false,"rental_uris":{"android":"levelo://app?vid=ab60c2fc-90e6-4eb8-a77c-65affb14bc2e","ios":"levelo://app?vid=ab60c2fc-90e6-4eb8-a77c-65affb14bc2e"},"vehicle_type_id":"4","last_reported":1767965465,"current_range_meters":7200,"station_id":"","pricing_plan_id":"cebpf4jnsgd1na2vs0mg"},{"bike_id":"262a8fec-bd27-46e9-aad8-6268adcdc681","system_id":"levelo_inurba_marseille","lat":43.212,"lon":5.35082,"is_reserved":false,"is_disabled":false,"rental_uris":{"android":"levelo://app?vid=262a8fec-bd27-46e9-aad8-6268adcdc681","ios":"levelo://app?vid=262a8fec-bd27-46e9-aad8-6268adcdc681"},"vehicle_type_id":"4","last_reported":1767965465,"current_range_meters":7200,"station_id":"st_cvj6sg6p6f1abm77japg","pricing_plan_id":"cebpf4jnsgd1na2vs0mg"},{"bike_id":"8f679fcc-ff8c-4af2-86fe-c8460158ab1c","system_id":"levelo_inurba_marseille","lat":43.28269,"lon":5.35089,"is_reserved":false,"is_disabled":false,"rental_uris":{"android":"levelo://app?vid=8f679fcc-ff8c-4af2-86fe-c8460158ab1c","ios":"levelo://app?vid=8f679fcc-ff8c-4af2-86fe-c8460158ab1c"},"vehicle_type_id":"4","last_reported":1767965465,"current_range_meters":7200,"station_id":"ce4bhbp2rcd13ifvqerg","pricing_plan_id":"cebpf4jnsgd1na2vs0mg"},{"bike_id":"f58d6f7b-cbb0-4399-a343-55040a73d9f6","system_id":"levelo_inurba_marseille","lat":43.25346,"lon":5.42176,"is_reserved":false,"is_disabled":false,"rental_uris":{"android":"levelo://app?vid=f58d6f7b-cbb0-4399-a343-55040a73d9f6","ios":"levelo://app?vid=f58d6f7b-cbb0-4399-a343-55040a73d9f6"},"vehicle_type_id":"4","last_reported":1767965465,"current_range_meters":7200,"station_id":"st_d2m65c5bi1j21697t3ng","pricing_plan_id":"cebpf4jnsgd1na2vs0mg"},{"bike_id":"6dbaeba9-9906-483b-9f9e-0c6f341267e8","system_id":"levelo_inurba_marseille","lat":43.26939,"lon":5.40259,"is_reserved":false,"is_disabled":false,"rental_uris":{"android":"levelo://app?vid=6dbaeba9-9906-483b-9f9e-0c6f341267e8","ios":"levelo://app?vid=6dbaeba9-9906-483b-9f9e-0c6f341267e8"},"vehicle_type_id":"4","last_reported":1767965465,"current_range_meters":7200,"station_id":"cjm6bp8fraef2m0cb0m0","pricing_plan_id":"cebpf4jnsgd1na2vs0mg"},{"bike_id":"d5b11fb8-6192-47fb-aadc-4bb75715f25d","system_id":"levelo_inurba_marseille","lat":43.26952,"lon":5.39835,"is_reserved":false,"is_disabled":false,"rental_uris":{"android":"levelo://app?vid=d5b11fb8-6192-47fb-aadc-4bb75715f25d","ios":"levelo://app?vid=d5b11fb8-6192-47fb-aadc-4bb75715f25d"},"vehicle_type_id":"4","last_reported":1767965465,"current_range_meters":7200,"station_id":"","pricing_plan_id":"cebpf4jnsgd1na2vs0mg"},{"bike_id":"7556ec87-ee82-453f-8a43-79b64208618a","system_id":"levelo_inurba_marseille","lat":43.21203,"lon":5.35052,"is_reserved":false,"is_disabled":false,"rental_uris":{"android":"levelo://app?vid=7556ec87-ee82-453f-8a43-79b64208618a","ios":"levelo://app?vid=7556ec87-ee82-453f-8a43-79b64208618a"},"vehicle_type_id":"4","last_reported":1767965465,"current_range_meters":7200,"station_id":"st_cvj6sg6p6f1abm77japg","pricing_plan_id":"cebpf4jnsgd1na2vs0mg"},{"bike_id":"563f06c7-aaae-463f-bd77-2a2b09c362dc","system_id":"levelo_inurba_marseille","lat":43.26566,"lon":5.37283,"is_reserved":false,"is_disabled":false,"rental_uris":{"android":"levelo://app?vid=563f06c7-aaae-463f-bd77-2a2b09c362dc","ios":"levelo://app?vid=563f06c7-aaae-463f-bd77-2a2b09c362dc"},"vehicle_type_id":"4","last_reported":1767965465,"current_range_meters":7200,"station_id":"ce4bhg12rcd13ifvqf70","pricing_plan_id":"cebpf4jnsgd1na2vs0mg"},{"bike_id":"d62b1dd7-04ea-48f5-a204-d6921ceaf13e","system_id":"levelo_inurba_marseille","lat":43.24225,"lon":5.36401,"is_reserved":false,"is_disabled":false,"rental_uris":{"android":"levelo://app?vid=d62b1dd7-04ea-48f5-a204-d6921ceaf13e","ios":"levelo://app?vid=d62b1dd7-04ea-48f5-a204-d6921ceaf13e"},"vehicle_type_id":"4","last_reported":1767965465,"current_range_meters":7200,"station_id":"cpo36qri1sfpv3e86is0","pricing_plan_id":"cebpf4jnsgd1na2vs0mg"},{"bike_id":"8b697a24-51a2-452a-93c9-5c0c040134d0","system_id":"levelo_inurba_marseille","lat":43.322224,"lon":5.394313,"is_reserved":false,"is_disabled":false,"rental_uris":{"android":"levelo://app?vid=8b697a24-51a2-452a-93c9-5c0c040134d0","ios":"levelo://app?vid=8b697a24-51a2-452a-93c9-5c0c040134d0"},"vehicle_type_id":"4","last_reported":1767965465,"current_range_meters":7200,"station_id":"","pricing_plan_id":"cebpf4jnsgd1na2vs0mg"},{"bike_id":"e11d069d-cc7d-4b1f-a7f9-e060ab894ff0","system_id":"levelo_inurba_marseille","lat":43.26366,"lon":5.41086,"is_reserved":false,"is_disabled":false,"rental_uris":{"android":"levelo://app?vid=e11d069d-cc7d-4b1f-a7f9-e060ab894ff0","ios":"levelo://app?vid=e11d069d-cc7d-4b1f-a7f9-e060ab894ff0"},"vehicle_type_id":"4","last_reported":1767965465,"current_range_meters":7200,"station_id":"st_d4e5ca6na9uc73bfl5fg","pricing_plan_id":"cebpf4jnsgd1na2vs0mg"},{"bike_id":"7d50baf1-e702-4bc4-8ad1-ca576e44cfe3","system_id":"levelo_inurba_marseille","lat":43.24664,"lon":5.43107,"is_reserved":false,"is_disabled":false,"rental_uris":{"android":"levelo://app?vid=7d50baf1-e702-4bc4-8ad1-ca576e44cfe3","ios":"levelo://app?vid=7d50baf1-e702-4bc4-8ad1-ca576e44cfe3"},"vehicle_type_id":"4","last_reported":1767965465,"current_range_meters":7200,"station_id":"st_d2m6c4gdas8pm72e190g","pricing_plan_id":"cebpf4jnsgd1na2vs0mg"},{"bike_id":"b15eea90-120e-46e1-bfc3-bc35a9b4ceee","system_id":"levelo_inurba_marseille","lat":43.27845,"lon":5.39199,"is_reserved":false,"is_disabled":false,"rental_uris":{"android":"levelo://app?vid=b15eea90-120e-46e1-bfc3-bc35a9b4ceee","ios":"levelo://app?vid=b15eea90-120e-46e1-bfc3-bc35a9b4ceee"},"vehicle_type_id":"4","last_reported":1767965465,"current_range_meters":7200,"station_id":"ce4bhjp2rcd13ifvqga0","pricing_plan_id":"cebpf4jnsgd1na2vs0mg"},{"bike_id":"e75e2c3e-d799-431c-b611-47c8636c7eba","system_id":"levelo_inurba_marseille","lat":43.30955,"lon":5.38626,"is_reserved":false,"is_disabled":false,"rental_uris":{"android":"levelo://app?vid=e75e2c3e-d799-431c-b611-47c8636c7eba","ios":"levelo://app?vid=e75e2c3e-d799-431c-b611-47c8636c7eba"},"vehicle_type_id":"4","last_reported":1767965465,"current_range_meters":8000,"station_id":"","pricing_plan_id":"cebpf4jnsgd1na2vs0mg"},{"bike_id":"bd78d29c-c760-450d-bc73-3e8bb1aa3e1f","system_id":"levelo_inurba_marseille","lat":43.32356,"lon":5.36749,"is_reserved":false,"is_disabled":false,"rental_uris":{"android":"levelo://app?vid=bd78d29c-c760-450d-bc73-3e8bb1aa3e1f","ios":"levelo://app?vid=bd78d29c-c760-450d-bc73-3e8bb1aa3e1f"},"vehicle_type_id":"4","last_reported":1767965465,"current_range_meters":8000,"station_id":"ce4bhsh2rcd13ifvqi2g","pricing_plan_id":"cebpf4jnsgd1na2vs0mg"},{"bike_id":"b01b28d2-3f19-4003-9ec3-2602e6f718f6","system_id":"levelo_inurba_marseille","lat":43.30418,"lon":5.37708,"is_reserved":false,"is_disabled":false,"rental_uris":{"android":"levelo://app?vid=b01b28d2-3f19-4003-9ec3-2602e6f718f6","ios":"levelo://app?vid=b01b28d2-3f19-4003-9ec3-2602e6f718f6"},"vehicle_type_id":"4","last_reported":1767965465,"current_range_meters":8000,"station_id":"","pricing_plan_id":"cebpf4jnsgd1na2vs0mg"},{"bike_id":"ff4d3f0c-f4ca-4e9d-a96d-386990436f7f","system_id":"levelo_inurba_marseille","lat":43.323529,"lon":5.367486,"is_reserved":false,"is_disabled":false,"rental_uris":{"android":"levelo://app?vid=ff4d3f0c-f4ca-4e9d-a96d-386990436f7f","ios":"levelo://app?vid=ff4d3f0c-f4ca-4e9d-a96d-386990436f7f"},"vehicle_type_id":"4","last_reported":1767965465,"current_range_meters":8000,"station_id":"ce4bhsh2rcd13ifvqi2g","pricing_plan_id":"cebpf4jnsgd1na2vs0mg"},{"bike_id":"ed27761f-ddf8-4ca6-ad7f-042a477fd7ea","system_id":"levelo_inurba_marseille","lat":43.2955,"lon":5.37417,"is_reserved":false,"is_disabled":false,"rental_uris":{"android":"levelo://app?vid=ed27761f-ddf8-4ca6-ad7f-042a477fd7ea","ios":"levelo://app?vid=ed27761f-ddf8-4ca6-ad7f-042a477fd7ea"},"vehicle_type_id":"4","last_reported":1767965465,"current_range_meters":8000,"station_id":"","pricing_plan_id":"cebpf4jnsgd1na2vs0mg"},{"bike_id":"acf9b465-5657-433f-abd2-b0a7dddb60bc","system_id":"levelo_inurba_marseille","lat":43.2655,"lon":5.37297,"is_reserved":false,"is_disabled":false,"rental_uris":{"android":"levelo://app?vid=acf9b465-5657-433f-abd2-b0a7dddb60bc","ios":"levelo://app?vid=acf9b465-5657-433f-abd2-b0a7dddb60bc"},"vehicle_type_id":"4","last_reported":1767965465,"current_range_meters":8000,"station_id":"ce4bhg12rcd13ifvqf70","pricing_plan_id":"cebpf4jnsgd1na2vs0mg"},{"bike_id":"56c55073-d594-4b78-b54f-11b692428f54","system_id":"levelo_inurba_marseille","lat":43.28702,"lon":5.39978,"is_reserved":false,"is_disabled":false,"rental_uris":{"android":"levelo://app?vid=56c55073-d594-4b78-b54f-11b692428f54","ios":"levelo://app?vid=56c55073-d594-4b78-b54f-11b692428f54"},"vehicle_type_id":"4","last_reported":1767965465,"current_range_meters":8000,"station_id":"ce4bho92rcd13ifvqh3g","pricing_plan_id":"cebpf4jnsgd1na2vs0mg"},{"bike_id":"ad32bf49-fc1c-427a-89fa-14100d98af66","system_id":"levelo_inurba_marseille","lat":43.28297,"lon":5.35089,"is_reserved":false,"is_disabled":false,"rental_uris":{"android":"levelo://app?vid=ad32bf49-fc1c-427a-89fa-14100d98af66","ios":"levelo://app?vid=ad32bf49-fc1c-427a-89fa-14100d98af66"},"vehicle_type_id":"4","last_reported":1767965465,"current_range_meters":8000,"station_id":"","pricing_plan_id":"cebpf4jnsgd1na2vs0mg"},{"bike_id":"82e5086e-97a4-4890-8bb5-efc43b4b7c7c","system_id":"levelo_inurba_marseille","lat":43.27068,"lon":5.42274,"is_reserved":false,"is_disabled":false,"rental_uris":{"android":"levelo://app?vid=82e5086e-97a4-4890-8bb5-efc43b4b7c7c","ios":"levelo://app?vid=82e5086e-97a4-4890-8bb5-efc43b4b7c7c"},"vehicle_type_id":"4","last_reported":1767965465,"current_range_meters":8000,"station_id":"ce4bhk92rcd13ifvqgb0","pricing_plan_id":"cebpf4jnsgd1na2vs0mg"},{"bike_id":"c7a48dbb-89e2-487f-8bd9-6263d9eb96a1","system_id":"levelo_inurba_marseille","lat":43.2693,"lon":5.38922,"is_reserved":false,"is_disabled":false,"rental_uris":{"android":"levelo://app?vid=c7a48dbb-89e2-487f-8bd9-6263d9eb96a1","ios":"levelo://app?vid=c7a48dbb-89e2-487f-8bd9-6263d9eb96a1"},"vehicle_type_id":"4","last_reported":1767965465,"current_range_meters":8000,"station_id":"ce4bhhh2rcd13ifvqfl0","pricing_plan_id":"cebpf4jnsgd1na2vs0mg"},{"bike_id":"e91c9b90-df96-48fd-9595-b7e34f785057","system_id":"levelo_inurba_marseille","lat":43.24993,"lon":5.38942,"is_reserved":false,"is_disabled":false,"rental_uris":{"android":"levelo://app?vid=e91c9b90-df96-48fd-9595-b7e34f785057","ios":"levelo://app?vid=e91c9b90-df96-48fd-9595-b7e34f785057"},"vehicle_type_id":"4","last_reported":1767965465,"current_range_meters":8000,"station_id":"ce4bhgp2rcd13ifvqfd0","pricing_plan_id":"cebpf4jnsgd1na2vs0mg"},{"bike_id":"6cdf7ceb-19d4-47ce-b08c-d34249cf4b72","system_id":"levelo_inurba_marseille","lat":43.32037,"lon":5.41546,"is_reserved":false,"is_disabled":false,"rental_uris":{"android":"levelo://app?vid=6cdf7ceb-19d4-47ce-b08c-d34249cf4b72","ios":"levelo://app?vid=6cdf7ceb-19d4-47ce-b08c-d34249cf4b72"},"vehicle_type_id":"4","last_reported":1767965465,"current_range_meters":8000,"station_id":"ce4bhq92rcd13ifvqhkg","pricing_plan_id":"cebpf4jnsgd1na2vs0mg"},{"bike_id":"bef98ff8-e15d-45ba-812b-84a58c5c1af3","system_id":"levelo_inurba_marseille","lat":43.25825,"lon":5.39422,"is_reserved":false,"is_disabled":false,"rental_uris":{"android":"levelo://app?vid=bef98ff8-e15d-45ba-812b-84a58c5c1af3","ios":"levelo://app?vid=bef98ff8-e15d-45ba-812b-84a58c5c1af3"},"vehicle_type_id":"4","last_reported":1767965465,"current_range_meters":8000,"station_id":"ce4bhip2rcd13ifvqft0","pricing_plan_id":"cebpf4jnsgd1na2vs0mg"},{"bike_id":"911094f3-75e2-45cf-b946-63a7c5515e3d","system_id":"levelo_inurba_marseille","lat":43.30086,"lon":5.39083,"is_reserved":false,"is_disabled":false,"rental_uris":{"android":"levelo://app?vid=911094f3-75e2-45cf-b946-63a7c5515e3d","ios":"levelo://app?vid=911094f3-75e2-45cf-b946-63a7c5515e3d"},"vehicle_type_id":"4","last_reported":1767965465,"current_range_meters":8000,"station_id":"ce4bh192rcd13ifvqdb0","pricing_plan_id":"cebpf4jnsgd1na2vs0mg"},{"bike_id":"6ac99317-2fff-404e-95fe-2a3e9d3870bd","system_id":"levelo_inurba_marseille","lat":43.26229,"lon":5.40425,"is_reserved":false,"is_disabled":false,"rental_uris":{"android":"levelo://app?vid=6ac99317-2fff-404e-95fe-2a3e9d3870bd","ios":"levelo://app?vid=6ac99317-2fff-404e-95fe-2a3e9d3870bd"},"vehicle_type_id":"4","last_reported":1767965465,"current_range_meters":8000,"station_id":"ce4bhmh2rcd13ifvqgmg","pricing_plan_id":"cebpf4jnsgd1na2vs0mg"},{"bike_id":"ca4c6a60-0f61-4f6d-ac20-4ded5e462329","system_id":"levelo_inurba_marseille","lat":43.30143,"lon":5.37404,"is_reserved":false,"is_disabled":false,"rental_uris":{"android":"levelo://app?vid=ca4c6a60-0f61-4f6d-ac20-4ded5e462329","ios":"levelo://app?vid=ca4c6a60-0f61-4f6d-ac20-4ded5e462329"},"vehicle_type_id":"4","last_reported":1767965465,"current_range_meters":8000,"station_id":"ce4bgs92rcd13ifvqcc0","pricing_plan_id":"cebpf4jnsgd1na2vs0mg"},{"bike_id":"ff012eda-200d-4d95-8552-9202de5433e2","system_id":"levelo_inurba_marseille","lat":43.29299,"lon":5.378,"is_reserved":false,"is_disabled":false,"rental_uris":{"android":"levelo://app?vid=ff012eda-200d-4d95-8552-9202de5433e2","ios":"levelo://app?vid=ff012eda-200d-4d95-8552-9202de5433e2"},"vehicle_type_id":"4","last_reported":1767965465,"current_range_meters":8000,"station_id":"","pricing_plan_id":"cebpf4jnsgd1na2vs0mg"},{"bike_id":"1e8843fa-ed9e-4f6c-ad7f-bb6efec177b1","system_id":"levelo_inurba_marseille","lat":43.26372,"lon":5.41085,"is_reserved":false,"is_disabled":false,"rental_uris":{"android":"levelo://app?vid=1e8843fa-ed9e-4f6c-ad7f-bb6efec177b1","ios":"levelo://app?vid=1e8843fa-ed9e-4f6c-ad7f-bb6efec177b1"},"vehicle_type_id":"4","last_reported":1767965465,"current_range_meters":8000,"station_id":"st_d4e5ca6na9uc73bfl5fg","pricing_plan_id":"cebpf4jnsgd1na2vs0mg"},{"bike_id":"f223966a-e2d1-4fed-bcd9-65f6310fb516","system_id":"levelo_inurba_marseille","lat":43.27692,"lon":5.3891,"is_reserved":false,"is_disabled":true,"rental_uris":{"android":"levelo://app?vid=f223966a-e2d1-4fed-bcd9-65f6310fb516","ios":"levelo://app?vid=f223966a-e2d1-4fed-bcd9-65f6310fb516"},"vehicle_type_id":"4","last_reported":1767965465,"current_range_meters":8000,"station_id":"ce4bhi12rcd13ifvqfo0","pricing_plan_id":"cebpf4jnsgd1na2vs0mg"},{"bike_id":"ed61a98b-4107-4b98-a611-e8b7c8a14855","system_id":"levelo_inurba_marseille","lat":43.32106,"lon":5.36799,"is_reserved":false,"is_disabled":false,"rental_uris":{"android":"levelo://app?vid=ed61a98b-4107-4b98-a611-e8b7c8a14855","ios":"levelo://app?vid=ed61a98b-4107-4b98-a611-e8b7c8a14855"},"vehicle_type_id":"4","last_reported":1767965465,"current_range_meters":8000,"station_id":"ce4bhrh2rcd13ifvqhug","pricing_plan_id":"cebpf4jnsgd1na2vs0mg"},{"bike_id":"85264b74-5b04-4dbe-94c6-abdbdfeafcf0","system_id":"levelo_inurba_marseille","lat":43.28466,"lon":5.48408,"is_reserved":false,"is_disabled":false,"rental_uris":{"android":"levelo://app?vid=85264b74-5b04-4dbe-94c6-abdbdfeafcf0","ios":"levelo://app?vid=85264b74-5b04-4dbe-94c6-abdbdfeafcf0"},"vehicle_type_id":"4","last_reported":1767965465,"current_range_meters":8000,"station_id":"st_d3svhcjqgbts73a3dn0g","pricing_plan_id":"cebpf4jnsgd1na2vs0mg"},{"bike_id":"cc6a42bd-dd7c-4c64-b69f-e5073a2adae2","system_id":"levelo_inurba_marseille","lat":43.21753,"lon":5.34603,"is_reserved":false,"is_disabled":false,"rental_uris":{"android":"levelo://app?vid=cc6a42bd-dd7c-4c64-b69f-e5073a2adae2","ios":"levelo://app?vid=cc6a42bd-dd7c-4c64-b69f-e5073a2adae2"},"vehicle_type_id":"4","last_reported":1767965465,"current_range_meters":8400,"station_id":"st_cvj6r9ubvosntc0bgbag","pricing_plan_id":"cebpf4jnsgd1na2vs0mg"},{"bike_id":"a45d1de9-3319-4f05-8330-0e81554cf06e","system_id":"levelo_inurba_marseille","lat":43.29961,"lon":5.38688,"is_reserved":false,"is_disabled":false,"rental_uris":{"android":"levelo://app?vid=a45d1de9-3319-4f05-8330-0e81554cf06e","ios":"levelo://app?vid=a45d1de9-3319-4f05-8330-0e81554cf06e"},"vehicle_type_id":"4","last_reported":1767965465,"current_range_meters":8400,"station_id":"","pricing_plan_id":"cebpf4jnsgd1na2vs0mg"},{"bike_id":"1b73e132-4bdf-446e-9f1f-44661a609d3c","system_id":"levelo_inurba_marseille","lat":43.2997,"lon":5.385,"is_reserved":false,"is_disabled":false,"rental_uris":{"android":"levelo://app?vid=1b73e132-4bdf-446e-9f1f-44661a609d3c","ios":"levelo://app?vid=1b73e132-4bdf-446e-9f1f-44661a609d3c"},"vehicle_type_id":"4","last_reported":1767965465,"current_range_meters":8400,"station_id":"ce4bgj92rcd13ifvqbd0","pricing_plan_id":"cebpf4jnsgd1na2vs0mg"},{"bike_id":"2a25e4b0-9eb0-415f-ad35-48839d4dacb7","system_id":"levelo_inurba_marseille","lat":43.28713,"lon":5.37389,"is_reserved":false,"is_disabled":false,"rental_uris":{"android":"levelo://app?vid=2a25e4b0-9eb0-415f-ad35-48839d4dacb7","ios":"levelo://app?vid=2a25e4b0-9eb0-415f-ad35-48839d4dacb7"},"vehicle_type_id":"4","last_reported":1767965465,"current_range_meters":8400,"station_id":"ce4bh3p2rcd13ifvqdq0","pricing_plan_id":"cebpf4jnsgd1na2vs0mg"},{"bike_id":"2f148a40-08c3-4821-bb26-bd90d7a0c233","system_id":"levelo_inurba_marseille","lat":43.243962,"lon":5.370747,"is_reserved":false,"is_disabled":false,"rental_uris":{"android":"levelo://app?vid=2f148a40-08c3-4821-bb26-bd90d7a0c233","ios":"levelo://app?vid=2f148a40-08c3-4821-bb26-bd90d7a0c233"},"vehicle_type_id":"4","last_reported":1767965465,"current_range_meters":8400,"station_id":"ce4bhhh2rcd13ifvqfk0","pricing_plan_id":"cebpf4jnsgd1na2vs0mg"},{"bike_id":"1ff0b55c-b588-498f-a02c-6cc6f114c4db","system_id":"levelo_inurba_marseille","lat":43.27982,"lon":5.41647,"is_reserved":false,"is_disabled":false,"rental_uris":{"android":"levelo://app?vid=1ff0b55c-b588-498f-a02c-6cc6f114c4db","ios":"levelo://app?vid=1ff0b55c-b588-498f-a02c-6cc6f114c4db"},"vehicle_type_id":"4","last_reported":1767965465,"current_range_meters":8400,"station_id":"ce4bho12rcd13ifvqh1g","pricing_plan_id":"cebpf4jnsgd1na2vs0mg"},{"bike_id":"d0c5aa26-d77a-4047-bf56-c6c68bc7105d","system_id":"levelo_inurba_marseille","lat":43.32093,"lon":5.36791,"is_reserved":false,"is_disabled":false,"rental_uris":{"android":"levelo://app?vid=d0c5aa26-d77a-4047-bf56-c6c68bc7105d","ios":"levelo://app?vid=d0c5aa26-d77a-4047-bf56-c6c68bc7105d"},"vehicle_type_id":"4","last_reported":1767965465,"current_range_meters":8400,"station_id":"ce4bhrh2rcd13ifvqhug","pricing_plan_id":"cebpf4jnsgd1na2vs0mg"},{"bike_id":"db6f44ee-3950-4228-ba6f-9b34da03d263","system_id":"levelo_inurba_marseille","lat":43.27079,"lon":5.42299,"is_reserved":false,"is_disabled":false,"rental_uris":{"android":"levelo://app?vid=db6f44ee-3950-4228-ba6f-9b34da03d263","ios":"levelo://app?vid=db6f44ee-3950-4228-ba6f-9b34da03d263"},"vehicle_type_id":"4","last_reported":1767965465,"current_range_meters":8400,"station_id":"ce4bhk92rcd13ifvqgb0","pricing_plan_id":"cebpf4jnsgd1na2vs0mg"},{"bike_id":"74990434-c437-43a6-99f6-74f0ce6556fa","system_id":"levelo_inurba_marseille","lat":43.26803,"lon":5.39475,"is_reserved":false,"is_disabled":true,"rental_uris":{"android":"levelo://app?vid=74990434-c437-43a6-99f6-74f0ce6556fa","ios":"levelo://app?vid=74990434-c437-43a6-99f6-74f0ce6556fa"},"vehicle_type_id":"4","last_reported":1767965465,"current_range_meters":8400,"station_id":"ce4bhh12rcd13ifvqfg0","pricing_plan_id":"cebpf4jnsgd1na2vs0mg"},{"bike_id":"2e9ca2da-7be4-48db-a85c-5ce44214e292","system_id":"levelo_inurba_marseille","lat":43.25563,"lon":5.38207,"is_reserved":false,"is_disabled":false,"rental_uris":{"android":"levelo://app?vid=2e9ca2da-7be4-48db-a85c-5ce44214e292","ios":"levelo://app?vid=2e9ca2da-7be4-48db-a85c-5ce44214e292"},"vehicle_type_id":"4","last_reported":1767965465,"current_range_meters":8400,"station_id":"ce4bhih2rcd13ifvqfs0","pricing_plan_id":"cebpf4jnsgd1na2vs0mg"},{"bike_id":"9a4ccc02-c230-4a71-aa08-76c653b49d28","system_id":"levelo_inurba_marseille","lat":43.312195,"lon":5.368566,"is_reserved":false,"is_disabled":false,"rental_uris":{"android":"levelo://app?vid=9a4ccc02-c230-4a71-aa08-76c653b49d28","ios":"levelo://app?vid=9a4ccc02-c230-4a71-aa08-76c653b49d28"},"vehicle_type_id":"4","last_reported":1767965465,"current_range_meters":8400,"station_id":"ce4bgl92rcd13ifvqbq0","pricing_plan_id":"cebpf4jnsgd1na2vs0mg"},{"bike_id":"fd574b71-9bc4-48df-aab3-baa6a2a11192","system_id":"levelo_inurba_marseille","lat":43.25344,"lon":5.42179,"is_reserved":false,"is_disabled":false,"rental_uris":{"android":"levelo://app?vid=fd574b71-9bc4-48df-aab3-baa6a2a11192","ios":"levelo://app?vid=fd574b71-9bc4-48df-aab3-baa6a2a11192"},"vehicle_type_id":"4","last_reported":1767965465,"current_range_meters":8400,"station_id":"st_d2m65c5bi1j21697t3ng","pricing_plan_id":"cebpf4jnsgd1na2vs0mg"},{"bike_id":"d336d32f-a9ab-4eb1-9637-d3fa585ead55","system_id":"levelo_inurba_marseille","lat":43.29483,"lon":5.43301,"is_reserved":false,"is_disabled":false,"rental_uris":{"android":"levelo://app?vid=d336d32f-a9ab-4eb1-9637-d3fa585ead55","ios":"levelo://app?vid=d336d32f-a9ab-4eb1-9637-d3fa585ead55"},"vehicle_type_id":"4","last_reported":1767965465,"current_range_meters":8400,"station_id":"st_d3j5ugp08ojc73fj9d10","pricing_plan_id":"cebpf4jnsgd1na2vs0mg"},{"bike_id":"1cbd309f-873d-4531-b5e4-b4b7972e6290","system_id":"levelo_inurba_marseille","lat":43.29623,"lon":5.37713,"is_reserved":false,"is_disabled":false,"rental_uris":{"android":"levelo://app?vid=1cbd309f-873d-4531-b5e4-b4b7972e6290","ios":"levelo://app?vid=1cbd309f-873d-4531-b5e4-b4b7972e6290"},"vehicle_type_id":"4","last_reported":1767965465,"current_range_meters":8400,"station_id":"ce4bgi92rcd13ifvqb90","pricing_plan_id":"cebpf4jnsgd1na2vs0mg"},{"bike_id":"1e38a170-3a59-4964-ac74-f59bcf2ec101","system_id":"levelo_inurba_marseille","lat":43.3055,"lon":5.36691,"is_reserved":false,"is_disabled":false,"rental_uris":{"android":"levelo://app?vid=1e38a170-3a59-4964-ac74-f59bcf2ec101","ios":"levelo://app?vid=1e38a170-3a59-4964-ac74-f59bcf2ec101"},"vehicle_type_id":"4","last_reported":1767965465,"current_range_meters":8400,"station_id":"ce4bgrp2rcd13ifvqc9g","pricing_plan_id":"cebpf4jnsgd1na2vs0mg"},{"bike_id":"d2e2418d-c3ed-4fd0-88de-90fe98564ba8","system_id":"levelo_inurba_marseille","lat":43.32112,"lon":5.36793,"is_reserved":false,"is_disabled":false,"rental_uris":{"android":"levelo://app?vid=d2e2418d-c3ed-4fd0-88de-90fe98564ba8","ios":"levelo://app?vid=d2e2418d-c3ed-4fd0-88de-90fe98564ba8"},"vehicle_type_id":"4","last_reported":1767965465,"current_range_meters":8400,"station_id":"ce4bhrh2rcd13ifvqhug","pricing_plan_id":"cebpf4jnsgd1na2vs0mg"},{"bike_id":"3784f2bf-f44f-44f4-a8be-e3b125ce0193","system_id":"levelo_inurba_marseille","lat":43.27135,"lon":5.40473,"is_reserved":false,"is_disabled":false,"rental_uris":{"android":"levelo://app?vid=3784f2bf-f44f-44f4-a8be-e3b125ce0193","ios":"levelo://app?vid=3784f2bf-f44f-44f4-a8be-e3b125ce0193"},"vehicle_type_id":"4","last_reported":1767965465,"current_range_meters":8400,"station_id":"","pricing_plan_id":"cebpf4jnsgd1na2vs0mg"},{"bike_id":"83d5f245-fb0f-4ec6-9063-867f9d0f37e7","system_id":"levelo_inurba_marseille","lat":43.23148,"lon":5.4372,"is_reserved":false,"is_disabled":false,"rental_uris":{"android":"levelo://app?vid=83d5f245-fb0f-4ec6-9063-867f9d0f37e7","ios":"levelo://app?vid=83d5f245-fb0f-4ec6-9063-867f9d0f37e7"},"vehicle_type_id":"4","last_reported":1767965465,"current_range_meters":8400,"station_id":"ce4bhmp2rcd13ifvqgog","pricing_plan_id":"cebpf4jnsgd1na2vs0mg"},{"bike_id":"6ab3bfcd-190a-40f9-809c-e9a46be53cc9","system_id":"levelo_inurba_marseille","lat":43.3039,"lon":5.42482,"is_reserved":false,"is_disabled":false,"rental_uris":{"android":"levelo://app?vid=6ab3bfcd-190a-40f9-809c-e9a46be53cc9","ios":"levelo://app?vid=6ab3bfcd-190a-40f9-809c-e9a46be53cc9"},"vehicle_type_id":"4","last_reported":1767965465,"current_range_meters":8400,"station_id":"ce4bhoh2rcd13ifvqh6g","pricing_plan_id":"cebpf4jnsgd1na2vs0mg"},{"bike_id":"9be47716-b6c4-4f6e-b3d9-238d6399366b","system_id":"levelo_inurba_marseille","lat":43.31398,"lon":5.40451,"is_reserved":false,"is_disabled":false,"rental_uris":{"android":"levelo://app?vid=9be47716-b6c4-4f6e-b3d9-238d6399366b","ios":"levelo://app?vid=9be47716-b6c4-4f6e-b3d9-238d6399366b"},"vehicle_type_id":"4","last_reported":1767965465,"current_range_meters":8400,"station_id":"","pricing_plan_id":"cebpf4jnsgd1na2vs0mg"},{"bike_id":"30e7f41a-5c10-4e1c-aeed-da83a0262221","system_id":"levelo_inurba_marseille","lat":43.27388,"lon":5.36236,"is_reserved":false,"is_disabled":false,"rental_uris":{"android":"levelo://app?vid=30e7f41a-5c10-4e1c-aeed-da83a0262221","ios":"levelo://app?vid=30e7f41a-5c10-4e1c-aeed-da83a0262221"},"vehicle_type_id":"4","last_reported":1767965465,"current_range_meters":8400,"station_id":"ce4bhbh2rcd13ifvqeo0","pricing_plan_id":"cebpf4jnsgd1na2vs0mg"},{"bike_id":"504a208d-becd-4beb-8341-80131c5bbbf4","system_id":"levelo_inurba_marseille","lat":43.31323,"lon":5.36748,"is_reserved":false,"is_disabled":false,"rental_uris":{"android":"levelo://app?vid=504a208d-becd-4beb-8341-80131c5bbbf4","ios":"levelo://app?vid=504a208d-becd-4beb-8341-80131c5bbbf4"},"vehicle_type_id":"4","last_reported":1767965465,"current_range_meters":8400,"station_id":"ce4bgr92rcd13ifvqc6g","pricing_plan_id":"cebpf4jnsgd1na2vs0mg"},{"bike_id":"67ab8f65-39a1-4633-95c4-dbd7a5762734","system_id":"levelo_inurba_marseille","lat":43.23788,"lon":5.36635,"is_reserved":false,"is_disabled":false,"rental_uris":{"android":"levelo://app?vid=67ab8f65-39a1-4633-95c4-dbd7a5762734","ios":"levelo://app?vid=67ab8f65-39a1-4633-95c4-dbd7a5762734"},