{"last_updated":1740172098,"ttl":60,"version":"2.2","data":{"bikes":[{"bike_id":"59706855-db7b-41b6-bf99-b2ab94560039","system_id":"levelo_inurba_marseille","lat":43.28679,"lon":5.38658,"is_reserved":false,"is_disabled":false,"rental_uris":{"android":"levelo://app?vid=59706855-db7b-41b6-bf99-b2ab94560039","ios":"levelo://app?vid=59706855-db7b-41b6-bf99-b2ab94560039"},"vehicle_type_id":"4","last_reported":1740172099,"current_range_meters":3200,"station_id":"ce4bh492rcd13ifvqdug","pricing_plan_id":"cebpf4jnsgd1na2vs0mg"},{"bike_id":"6f4e1524-4b8c-4c11-8ada-c33a2e79163c","system_id":"levelo_inurba_marseille","lat":43.2796,"lon":5.41055,"is_reserved":false,"is_disabled":true,"rental_uris":{"android":"levelo://app?vid=6f4e1524-4b8c-4c11-8ada-c33a2e79163c","ios":"levelo://app?vid=6f4e1524-4b8c-4c11-8ada-c33a2e79163c"},"vehicle_type_id":"4","last_reported":1740172099,"current_range_meters":3600,"station_id":"ce4bhnp2rcd13ifvqh0g","pricing_plan_id":"cebpf4jnsgd1na2vs0mg"},{"bike_id":"287f1796-fd33-41c3-8b73-1482be12867d","system_id":"levelo_inurba_marseille","lat":43.31284,"lon":5.37768,"is_reserved":false,"is_disabled":false,"rental_uris":{"android":"levelo://app?vid=287f1796-fd33-41c3-8b73-1482be12867d","ios":"levelo://app?vid=287f1796-fd33-41c3-8b73-1482be12867d"},"vehicle_type_id":"4","last_reported":1740172099,"current_range_meters":4000,"station_id":"","pricing_plan_id":"cebpf4jnsgd1na2vs0mg"},{"bike_id":"ebf59a5d-6978-4a77-a2d1-33aa791d593a","system_id":"levelo_inurba_marseille","lat":43.292908,"lon":5.374588,"is_reserved":false,"is_disabled":false,"rental_uris":{"android":"levelo://app?vid=ebf59a5d-6978-4a77-a2d1-33aa791d593a","ios":"levelo://app?vid=ebf59a5d-6978-4a77-a2d1-33aa791d593a"},"vehicle_type_id":"4","last_reported":1740172099,"current_range_meters":4400,"station_id":"ce4bh492rcd13ifvqdug","pricing_plan_id":"cebpf4jnsgd1na2vs0mg"},{"bike_id":"7f210161-0afc-456c-91d6-f90c66bc0ab3","system_id":"levelo_inurba_marseille","lat":43.29903,"lon":5.43666,"is_reserved":false,"is_disabled":false,"rental_uris":{"android":"levelo://app?vid=7f210161-0afc-456c-91d6-f90c66bc0ab3","ios":"levelo://app?vid=7f210161-0afc-456c-91d6-f90c66bc0ab3"},"vehicle_type_id":"4","last_reported":1740172099,"current_range_meters":4400,"station_id":"ce4bhpp2rcd13ifvqhfg","pricing_plan_id":"cebpf4jnsgd1na2vs0mg"},{"bike_id":"bccaeb11-f777-4a67-a516-f69013546196","system_id":"levelo_inurba_marseille","lat":43.29034,"lon":5.38635,"is_reserved":false,"is_disabled":false,"rental_uris":{"android":"levelo://app?vid=bccaeb11-f777-4a67-a516-f69013546196","ios":"levelo://app?vid=bccaeb11-f777-4a67-a516-f69013546196"},"vehicle_type_id":"4","last_reported":1740172099,"current_range_meters":4400,"station_id":"ce4bh4p2rcd13ifvqe0g","pricing_plan_id":"cebpf4jnsgd1na2vs0mg"},{"bike_id":"cfb05cb1-bdaf-4628-af25-de48d634065f","system_id":"levelo_inurba_marseille","lat":43.29201,"lon":5.36051,"is_reserved":false,"is_disabled":false,"rental_uris":{"android":"levelo://app?vid=cfb05cb1-bdaf-4628-af25-de48d634065f","ios":"levelo://app?vid=cfb05cb1-bdaf-4628-af25-de48d634065f"},"vehicle_type_id":"4","last_reported":1740172099,"current_range_meters":4800,"station_id":"ce4bhbh2rcd13ifvqeqg","pricing_plan_id":"cebpf4jnsgd1na2vs0mg"},{"bike_id":"c11596f7-ef6c-4967-bc22-a88033f90135","system_id":"levelo_inurba_marseille","lat":43.30427,"lon":5.38892,"is_reserved":false,"is_disabled":false,"rental_uris":{"android":"levelo://app?vid=c11596f7-ef6c-4967-bc22-a88033f90135","ios":"levelo://app?vid=c11596f7-ef6c-4967-bc22-a88033f90135"},"vehicle_type_id":"4","last_reported":1740172099,"current_range_meters":4800,"station_id":"ce4bgk12rcd13ifvqbi0","pricing_plan_id":"cebpf4jnsgd1na2vs0mg"},{"bike_id":"52f7825f-5329-499f-994d-a9292950ac58","system_id":"levelo_inurba_marseille","lat":43.2808,"lon":5.3966,"is_reserved":false,"is_disabled":false,"rental_uris":{"android":"levelo://app?vid=52f7825f-5329-499f-994d-a9292950ac58","ios":"levelo://app?vid=52f7825f-5329-499f-994d-a9292950ac58"},"vehicle_type_id":"4","last_reported":1740172099,"current_range_meters":5600,"station_id":"ce4bho12rcd13ifvqh2g","pricing_plan_id":"cebpf4jnsgd1na2vs0mg"},{"bike_id":"94b59b9c-3217-4e46-b619-7cbc66ed8138","system_id":"levelo_inurba_marseille","lat":43.27937,"lon":5.41047,"is_reserved":false,"is_disabled":false,"rental_uris":{"android":"levelo://app?vid=94b59b9c-3217-4e46-b619-7cbc66ed8138","ios":"levelo://app?vid=94b59b9c-3217-4e46-b619-7cbc66ed8138"},"vehicle_type_id":"4","last_reported":1740172099,"current_range_meters":5600,"station_id":"","pricing_plan_id":"cebpf4jnsgd1na2vs0mg"},{"bike_id":"160e4ffb-f318-4e02-aeee-2ad6f652888a","system_id":"levelo_inurba_marseille","lat":43.23973,"lon":5.36656,"is_reserved":false,"is_disabled":false,"rental_uris":{"android":"levelo://app?vid=160e4ffb-f318-4e02-aeee-2ad6f652888a","ios":"levelo://app?vid=160e4ffb-f318-4e02-aeee-2ad6f652888a"},"vehicle_type_id":"4","last_reported":1740172099,"current_range_meters":6000,"station_id":"ce4bhi12rcd13ifvqfp0","pricing_plan_id":"cebpf4jnsgd1na2vs0mg"},{"bike_id":"c1f2cb02-9d8c-4e16-a297-8db2622f0a18","system_id":"levelo_inurba_marseille","lat":43.27074,"lon":5.42284,"is_reserved":false,"is_disabled":false,"rental_uris":{"android":"levelo://app?vid=c1f2cb02-9d8c-4e16-a297-8db2622f0a18","ios":"levelo://app?vid=c1f2cb02-9d8c-4e16-a297-8db2622f0a18"},"vehicle_type_id":"4","last_reported":1740172099,"current_range_meters":6000,"station_id":"ce4bhk92rcd13ifvqgb0","pricing_plan_id":"cebpf4jnsgd1na2vs0mg"},{"bike_id":"419b4ccf-9337-4dc9-9409-111b92134d45","system_id":"levelo_inurba_marseille","lat":43.261942,"lon":5.374523,"is_reserved":false,"is_disabled":true,"rental_uris":{"android":"levelo://app?vid=419b4ccf-9337-4dc9-9409-111b92134d45","ios":"levelo://app?vid=419b4ccf-9337-4dc9-9409-111b92134d45"},"vehicle_type_id":"4","last_reported":1740172099,"current_range_meters":6400,"station_id":"ce4bhgp2rcd13ifvqfc0","pricing_plan_id":"cebpf4jnsgd1na2vs0mg"},{"bike_id":"2b79b3a7-5b74-49f4-bb58-5d5397f748f9","system_id":"levelo_inurba_marseille","lat":43.25019,"lon":5.38912,"is_reserved":false,"is_disabled":true,"rental_uris":{"android":"levelo://app?vid=2b79b3a7-5b74-49f4-bb58-5d5397f748f9","ios":"levelo://app?vid=2b79b3a7-5b74-49f4-bb58-5d5397f748f9"},"vehicle_type_id":"4","last_reported":1740172099,"current_range_meters":6400,"station_id":"ce4bhgp2rcd13ifvqfd0","pricing_plan_id":"cebpf4jnsgd1na2vs0mg"},{"bike_id":"9da3a472-fa5d-444c-9270-ca90beee566b","system_id":"levelo_inurba_marseille","lat":43.28484,"lon":5.38442,"is_reserved":false,"is_disabled":false,"rental_uris":{"android":"levelo://app?vid=9da3a472-fa5d-444c-9270-ca90beee566b","ios":"levelo://app?vid=9da3a472-fa5d-444c-9270-ca90beee566b"},"vehicle_type_id":"4","last_reported":1740172099,"current_range_meters":6400,"station_id":"ce4bh512rcd13ifvqe3g","pricing_plan_id":"cebpf4jnsgd1na2vs0mg"},{"bike_id":"65b6ea50-ddb2-44f6-8dec-7df9b03b82a9","system_id":"levelo_inurba_marseille","lat":43.31437,"lon":5.40396,"is_reserved":false,"is_disabled":false,"rental_uris":{"android":"levelo://app?vid=65b6ea50-ddb2-44f6-8dec-7df9b03b82a9","ios":"levelo://app?vid=65b6ea50-ddb2-44f6-8dec-7df9b03b82a9"},"vehicle_type_id":"4","last_reported":1740172099,"current_range_meters":6400,"station_id":"","pricing_plan_id":"cebpf4jnsgd1na2vs0mg"},{"bike_id":"4c87352b-e4ee-4aa9-b24f-9d6ccdea13e6","system_id":"levelo_inurba_marseille","lat":43.25123,"lon":5.39541,"is_reserved":false,"is_disabled":false,"rental_uris":{"android":"levelo://app?vid=4c87352b-e4ee-4aa9-b24f-9d6ccdea13e6","ios":"levelo://app?vid=4c87352b-e4ee-4aa9-b24f-9d6ccdea13e6"},"vehicle_type_id":"4","last_reported":1740172099,"current_range_meters":6800,"station_id":"ce4bhm12rcd13ifvqgkg","pricing_plan_id":"cebpf4jnsgd1na2vs0mg"},{"bike_id":"9021889c-6634-4ee4-bf6a-7e16e5caee51","system_id":"levelo_inurba_marseille","lat":43.29791,"lon":5.38106,"is_reserved":false,"is_disabled":false,"rental_uris":{"android":"levelo://app?vid=9021889c-6634-4ee4-bf6a-7e16e5caee51","ios":"levelo://app?vid=9021889c-6634-4ee4-bf6a-7e16e5caee51"},"vehicle_type_id":"4","last_reported":1740172099,"current_range_meters":6800,"station_id":"ce4bgip2rcd13ifvqbb0","pricing_plan_id":"cebpf4jnsgd1na2vs0mg"},{"bike_id":"59d4bd06-4257-4c98-b0b2-7bc125dce7af","system_id":"levelo_inurba_marseille","lat":43.29418,"lon":5.38636,"is_reserved":false,"is_disabled":false,"rental_uris":{"android":"levelo://app?vid=59d4bd06-4257-4c98-b0b2-7bc125dce7af","ios":"levelo://app?vid=59d4bd06-4257-4c98-b0b2-7bc125dce7af"},"vehicle_type_id":"4","last_reported":1740172099,"current_range_meters":6800,"station_id":"ce4bh2h2rcd13ifvqdh0","pricing_plan_id":"cebpf4jnsgd1na2vs0mg"},{"bike_id":"2c01f343-3f49-4b0e-a699-a10894e0de7d","system_id":"levelo_inurba_marseille","lat":43.28155,"lon":5.42644,"is_reserved":false,"is_disabled":false,"rental_uris":{"android":"levelo://app?vid=2c01f343-3f49-4b0e-a699-a10894e0de7d","ios":"levelo://app?vid=2c01f343-3f49-4b0e-a699-a10894e0de7d"},"vehicle_type_id":"4","last_reported":1740172099,"current_range_meters":6800,"station_id":"ce4bhnh2rcd13ifvqgug","pricing_plan_id":"cebpf4jnsgd1na2vs0mg"},{"bike_id":"968296c3-ea8c-4652-8630-ea92cd21a8c0","system_id":"levelo_inurba_marseille","lat":43.27375,"lon":5.3626,"is_reserved":false,"is_disabled":false,"rental_uris":{"android":"levelo://app?vid=968296c3-ea8c-4652-8630-ea92cd21a8c0","ios":"levelo://app?vid=968296c3-ea8c-4652-8630-ea92cd21a8c0"},"vehicle_type_id":"4","last_reported":1740172099,"current_range_meters":7200,"station_id":"ce4bhbh2rcd13ifvqeo0","pricing_plan_id":"cebpf4jnsgd1na2vs0mg"},{"bike_id":"6b6e1059-5264-45b9-9cb9-d24cf5205f2a","system_id":"levelo_inurba_marseille","lat":43.23971,"lon":5.36647,"is_reserved":false,"is_disabled":true,"rental_uris":{"android":"levelo://app?vid=6b6e1059-5264-45b9-9cb9-d24cf5205f2a","ios":"levelo://app?vid=6b6e1059-5264-45b9-9cb9-d24cf5205f2a"},"vehicle_type_id":"4","last_reported":1740172099,"current_range_meters":7200,"station_id":"","pricing_plan_id":"cebpf4jnsgd1na2vs0mg"},{"bike_id":"285f776a-6c37-4c62-8123-b9120720ec65","system_id":"levelo_inurba_marseille","lat":43.24767,"lon":5.39052,"is_reserved":false,"is_disabled":false,"rental_uris":{"android":"levelo://app?vid=285f776a-6c37-4c62-8123-b9120720ec65","ios":"levelo://app?vid=285f776a-6c37-4c62-8123-b9120720ec65"},"vehicle_type_id":"4","last_reported":1740172099,"current_range_meters":7200,"station_id":"","pricing_plan_id":"cebpf4jnsgd1na2vs0mg"},{"bike_id":"fc0349de-a96b-4e9e-88b6-f49bf89d84ae","system_id":"levelo_inurba_marseille","lat":43.27999,"lon":5.40024,"is_reserved":false,"is_disabled":false,"rental_uris":{"android":"levelo://app?vid=fc0349de-a96b-4e9e-88b6-f49bf89d84ae","ios":"levelo://app?vid=fc0349de-a96b-4e9e-88b6-f49bf89d84ae"},"vehicle_type_id":"4","last_reported":1740172099,"current_range_meters":7200,"station_id":"ce4bho92rcd13ifvqh4g","pricing_plan_id":"cebpf4jnsgd1na2vs0mg"},{"bike_id":"b45ab281-2ffb-4786-bbfb-31f4db8658f9","system_id":"levelo_inurba_marseille","lat":43.265723,"lon":5.390317,"is_reserved":false,"is_disabled":false,"rental_uris":{"android":"levelo://app?vid=b45ab281-2ffb-4786-bbfb-31f4db8658f9","ios":"levelo://app?vid=b45ab281-2ffb-4786-bbfb-31f4db8658f9"},"vehicle_type_id":"4","last_reported":1740172099,"current_range_meters":8000,"station_id":"ce4bhe12rcd13ifvqf30","pricing_plan_id":"cebpf4jnsgd1na2vs0mg"},{"bike_id":"0584e728-54f2-4eca-887e-fe95607e016b","system_id":"levelo_inurba_marseille","lat":43.28292,"lon":5.35069,"is_reserved":false,"is_disabled":false,"rental_uris":{"android":"levelo://app?vid=0584e728-54f2-4eca-887e-fe95607e016b","ios":"levelo://app?vid=0584e728-54f2-4eca-887e-fe95607e016b"},"vehicle_type_id":"4","last_reported":1740172099,"current_range_meters":8000,"station_id":"ce4bhbp2rcd13ifvqerg","pricing_plan_id":"cebpf4jnsgd1na2vs0mg"},{"bike_id":"d3d1ee79-64f1-4b0a-9be2-30a2995248d6","system_id":"levelo_inurba_marseille","lat":43.30544,"lon":5.36701,"is_reserved":false,"is_disabled":false,"rental_uris":{"android":"levelo://app?vid=d3d1ee79-64f1-4b0a-9be2-30a2995248d6","ios":"levelo://app?vid=d3d1ee79-64f1-4b0a-9be2-30a2995248d6"},"vehicle_type_id":"4","last_reported":1740172099,"current_range_meters":8000,"station_id":"ce4bgrp2rcd13ifvqc9g","pricing_plan_id":"cebpf4jnsgd1na2vs0mg"},{"bike_id":"65c71757-2db4-4c2c-8376-cdad3ad25014","system_id":"levelo_inurba_marseille","lat":43.30145,"lon":5.39863,"is_reserved":false,"is_disabled":false,"rental_uris":{"android":"levelo://app?vid=65c71757-2db4-4c2c-8376-cdad3ad25014","ios":"levelo://app?vid=65c71757-2db4-4c2c-8376-cdad3ad25014"},"vehicle_type_id":"4","last_reported":1740172099,"current_range_meters":8000,"station_id":"ce4bh0h2rcd13ifvqd40","pricing_plan_id":"cebpf4jnsgd1na2vs0mg"},{"bike_id":"e51d9b31-0d6f-4189-a453-85295af1b575","system_id":"levelo_inurba_marseille","lat":43.29416,"lon":5.38635,"is_reserved":false,"is_disabled":false,"rental_uris":{"android":"levelo://app?vid=e51d9b31-0d6f-4189-a453-85295af1b575","ios":"levelo://app?vid=e51d9b31-0d6f-4189-a453-85295af1b575"},"vehicle_type_id":"4","last_reported":1740172099,"current_range_meters":8000,"station_id":"ce4bh2h2rcd13ifvqdh0","pricing_plan_id":"cebpf4jnsgd1na2vs0mg"},{"bike_id":"e2124d37-d1a5-4d4d-8c06-fda2ba0b4397","system_id":"levelo_inurba_marseille","lat":43.29253,"lon":5.42665,"is_reserved":false,"is_disabled":false,"rental_uris":{"android":"levelo://app?vid=e2124d37-d1a5-4d4d-8c06-fda2ba0b4397","ios":"levelo://app?vid=e2124d37-d1a5-4d4d-8c06-fda2ba0b4397"},"vehicle_type_id":"4","last_reported":1740172099,"current_range_meters":8400,"station_id":"","pricing_plan_id":"cebpf4jnsgd1na2vs0mg"},{"bike_id":"a7e57524-7096-4476-8d9d-8e8806b1c3d0","system_id":"levelo_inurba_marseille","lat":43.2319,"lon":5.43713,"is_reserved":false,"is_disabled":true,"rental_uris":{"android":"levelo://app?vid=a7e57524-7096-4476-8d9d-8e8806b1c3d0","ios":"levelo://app?vid=a7e57524-7096-4476-8d9d-8e8806b1c3d0"},"vehicle_type_id":"4","last_reported":1740172099,"current_range_meters":8400,"station_id":"ce4bhmp2rcd13ifvqgog","pricing_plan_id":"cebpf4jnsgd1na2vs0mg"},{"bike_id":"e080c45a-a05d-4297-8995-86678422b056","system_id":"levelo_inurba_marseille","lat":43.34426,"lon":5.38099,"is_reserved":false,"is_disabled":false,"rental_uris":{"android":"levelo://app?vid=e080c45a-a05d-4297-8995-86678422b056","ios":"levelo://app?vid=e080c45a-a05d-4297-8995-86678422b056"},"vehicle_type_id":"4","last_reported":1740172099,"current_range_meters":8400,"station_id":"","pricing_plan_id":"cebpf4jnsgd1na2vs0mg"},{"bike_id":"4fa8bf46-90e7-42f5-bd69-8132a897f84f","system_id":"levelo_inurba_marseille","lat":43.3155,"lon":5.38914,"is_reserved":false,"is_disabled":false,"rental_uris":{"android":"levelo://app?vid=4fa8bf46-90e7-42f5-bd69-8132a897f84f","ios":"levelo://app?vid=4fa8bf46-90e7-42f5-bd69-8132a897f84f"},"vehicle_type_id":"4","last_reported":1740172099,"current_range_meters":8800,"station_id":"","pricing_plan_id":"cebpf4jnsgd1na2vs0mg"},{"bike_id":"2074b46a-4462-434a-b913-d175d76b0c97","system_id":"levelo_inurba_marseille","lat":43.23973,"lon":5.36671,"is_reserved":false,"is_disabled":false,"rental_uris":{"android":"levelo://app?vid=2074b46a-4462-434a-b913-d175d76b0c97","ios":"levelo://app?vid=2074b46a-4462-434a-b913-d175d76b0c97"},"vehicle_type_id":"4","last_reported":1740172099,"current_range_meters":8800,"station_id":"ce4bhi12rcd13ifvqfp0","pricing_plan_id":"cebpf4jnsgd1na2vs0mg"},{"bike_id":"d0109f8e-c695-44b8-83b5-050518c2c6c9","system_id":"levelo_inurba_marseille","lat":43.23067,"lon":5.35487,"is_reserved":false,"is_disabled":false,"rental_uris":{"android":"levelo://app?vid=d0109f8e-c695-44b8-83b5-050518c2c6c9","ios":"levelo://app?vid=d0109f8e-c695-44b8-83b5-050518c2c6c9"},"vehicle_type_id":"4","last_reported":1740172099,"current_range_meters":8800,"station_id":"cpo3342slgdg3j2ifvpg","pricing_plan_id":"cebpf4jnsgd1na2vs0mg"},{"bike_id":"4249a367-a50b-4ee7-8148-1ad704c9fa4e","system_id":"levelo_inurba_marseille","lat":43.27991,"lon":5.41662,"is_reserved":false,"is_disabled":false,"rental_uris":{"android":"levelo://app?vid=4249a367-a50b-4ee7-8148-1ad704c9fa4e","ios":"levelo://app?vid=4249a367-a50b-4ee7-8148-1ad704c9fa4e"},"vehicle_type_id":"4","last_reported":1740172099,"current_range_meters":8800,"station_id":"ce4bho12rcd13ifvqh1g","pricing_plan_id":"cebpf4jnsgd1na2vs0mg"},{"bike_id":"7b9eaf6e-4489-4224-b436-ef6be4484e51","system_id":"levelo_inurba_marseille","lat":43.24803,"lon":5.37451,"is_reserved":false,"is_disabled":false,"rental_uris":{"android":"levelo://app?vid=7b9eaf6e-4489-4224-b436-ef6be4484e51","ios":"levelo://app?vid=7b9eaf6e-4489-4224-b436-ef6be4484e51"},"vehicle_type_id":"4","last_reported":1740172099,"current_range_meters":8800,"station_id":"ce4bhgh2rcd13ifvqfb0","pricing_plan_id":"cebpf4jnsgd1na2vs0mg"},{"bike_id":"18203d62-b41a-4837-b30a-bc6d7a82287b","system_id":"levelo_inurba_marseille","lat":43.29255,"lon":5.38453,"is_reserved":false,"is_disabled":false,"rental_uris":{"android":"levelo://app?vid=18203d62-b41a-4837-b30a-bc6d7a82287b","ios":"levelo://app?vid=18203d62-b41a-4837-b30a-bc6d7a82287b"},"vehicle_type_id":"4","last_reported":1740172099,"current_range_meters":8800,"station_id":"ce4bh692rcd13ifvqea0","pricing_plan_id":"cebpf4jnsgd1na2vs0mg"},{"bike_id":"849d245a-be14-47ff-9742-f234bf067745","system_id":"levelo_inurba_marseille","lat":43.29751,"lon":5.3791,"is_reserved":false,"is_disabled":false,"rental_uris":{"android":"levelo://app?vid=849d245a-be14-47ff-9742-f234bf067745","ios":"levelo://app?vid=849d245a-be14-47ff-9742-f234bf067745"},"vehicle_type_id":"4","last_reported":1740172099,"current_range_meters":8800,"station_id":"ce4bguh2rcd13ifvqckg","pricing_plan_id":"cebpf4jnsgd1na2vs0mg"},{"bike_id":"e2605be6-729f-4263-a772-380592b3879d","system_id":"levelo_inurba_marseille","lat":43.30504,"lon":5.38143,"is_reserved":false,"is_disabled":false,"rental_uris":{"android":"levelo://app?vid=e2605be6-729f-4263-a772-380592b3879d","ios":"levelo://app?vid=e2605be6-729f-4263-a772-380592b3879d"},"vehicle_type_id":"4","last_reported":1740172099,"current_range_meters":8800,"station_id":"","pricing_plan_id":"cebpf4jnsgd1na2vs0mg"},{"bike_id":"36ea7b8f-ceb5-46bb-b6fb-b572e8d9c6d8","system_id":"levelo_inurba_marseille","lat":43.295276,"lon":5.388328,"is_reserved":false,"is_disabled":false,"rental_uris":{"android":"levelo://app?vid=36ea7b8f-ceb5-46bb-b6fb-b572e8d9c6d8","ios":"levelo://app?vid=36ea7b8f-ceb5-46bb-b6fb-b572e8d9c6d8"},"vehicle_type_id":"4","last_reported":1740172099,"current_range_meters":8800,"station_id":"ce4bh9p2rcd13ifvqed0","pricing_plan_id":"cebpf4jnsgd1na2vs0mg"},{"bike_id":"bb91dc47-75f3-4019-97c2-8eca507ff0d9","system_id":"levelo_inurba_marseille","lat":43.29207,"lon":5.39313,"is_reserved":false,"is_disabled":false,"rental_uris":{"android":"levelo://app?vid=bb91dc47-75f3-4019-97c2-8eca507ff0d9","ios":"levelo://app?vid=bb91dc47-75f3-4019-97c2-8eca507ff0d9"},"vehicle_type_id":"4","last_reported":1740172099,"current_range_meters":9200,"station_id":"ce4bh192rcd13ifvqdd0","pricing_plan_id":"cebpf4jnsgd1na2vs0mg"},{"bike_id":"cb5b8460-b320-4b2c-b8ab-68c21eb91fe2","system_id":"levelo_inurba_marseille","lat":43.29691,"lon":5.37303,"is_reserved":false,"is_disabled":false,"rental_uris":{"android":"levelo://app?vid=cb5b8460-b320-4b2c-b8ab-68c21eb91fe2","ios":"levelo://app?vid=cb5b8460-b320-4b2c-b8ab-68c21eb91fe2"},"vehicle_type_id":"4","last_reported":1740172099,"current_range_meters":9200,"station_id":"ce4bgk12rcd13ifvqbj0","pricing_plan_id":"cebpf4jnsgd1na2vs0mg"},{"bike_id":"b7bdccf5-97fc-4d42-b460-0eb57c13e4a6","system_id":"levelo_inurba_marseille","lat":43.28732,"lon":5.36091,"is_reserved":false,"is_disabled":false,"rental_uris":{"android":"levelo://app?vid=b7bdccf5-97fc-4d42-b460-0eb57c13e4a6","ios":"levelo://app?vid=b7bdccf5-97fc-4d42-b460-0eb57c13e4a6"},"vehicle_type_id":"4","last_reported":1740172099,"current_range_meters":9200,"station_id":"cki0cbj6b192h4jlfktg","pricing_plan_id":"cebpf4jnsgd1na2vs0mg"},{"bike_id":"cf21038c-0333-4bf1-837e-8898d2952a5b","system_id":"levelo_inurba_marseille","lat":43.24543,"lon":5.39523,"is_reserved":false,"is_disabled":false,"rental_uris":{"android":"levelo://app?vid=cf21038c-0333-4bf1-837e-8898d2952a5b","ios":"levelo://app?vid=cf21038c-0333-4bf1-837e-8898d2952a5b"},"vehicle_type_id":"4","last_reported":1740172099,"current_range_meters":9200,"station_id":"ce4bhlp2rcd13ifvqgjg","pricing_plan_id":"cebpf4jnsgd1na2vs0mg"},{"bike_id":"28f8439e-b0b1-44b6-a119-b141f9f63fc4","system_id":"levelo_inurba_marseille","lat":43.28699,"lon":5.37388,"is_reserved":false,"is_disabled":false,"rental_uris":{"android":"levelo://app?vid=28f8439e-b0b1-44b6-a119-b141f9f63fc4","ios":"levelo://app?vid=28f8439e-b0b1-44b6-a119-b141f9f63fc4"},"vehicle_type_id":"4","last_reported":1740172099,"current_range_meters":9200,"station_id":"ce4bh3p2rcd13ifvqdq0","pricing_plan_id":"cebpf4jnsgd1na2vs0mg"},{"bike_id":"40ae0c6e-a4e8-416e-a3b2-1e10539d591a","system_id":"levelo_inurba_marseille","lat":43.28406,"lon":5.34978,"is_reserved":false,"is_disabled":false,"rental_uris":{"android":"levelo://app?vid=40ae0c6e-a4e8-416e-a3b2-1e10539d591a","ios":"levelo://app?vid=40ae0c6e-a4e8-416e-a3b2-1e10539d591a"},"vehicle_type_id":"4","last_reported":1740172099,"current_range_meters":9200,"station_id":"ce4bhbh2rcd13ifvqepg","pricing_plan_id":"cebpf4jnsgd1na2vs0mg"},{"bike_id":"c0d6c131-aacf-4529-aad8-041fd8310aae","system_id":"levelo_inurba_marseille","lat":43.29118,"lon":5.37553,"is_reserved":false,"is_disabled":false,"rental_uris":{"android":"levelo://app?vid=c0d6c131-aacf-4529-aad8-041fd8310aae","ios":"levelo://app?vid=c0d6c131-aacf-4529-aad8-041fd8310aae"},"vehicle_type_id":"4","last_reported":1740172099,"current_range_meters":9200,"station_id":"","pricing_plan_id":"cebpf4jnsgd1na2vs0mg"},{"bike_id":"96e05a9a-4779-4aec-8cc1-e61106e2eff4","system_id":"levelo_inurba_marseille","lat":43.30801,"lon":5.4353,"is_reserved":false,"is_disabled":false,"rental_uris":{"android":"levelo://app?vid=96e05a9a-4779-4aec-8cc1-e61106e2eff4","ios":"levelo://app?vid=96e05a9a-4779-4aec-8cc1-e61106e2eff4"},"vehicle_type_id":"4","last_reported":1740172099,"current_range_meters":9200,"station_id":"ce4bhph2rcd13ifvqheg","pricing_plan_id":"cebpf4jnsgd1na2vs0mg"},{"bike_id":"b1c80ef2-1886-4719-a907-a5cd4fa9c85e","system_id":"levelo_inurba_marseille","lat":43.29439,"lon":5.38639,"is_reserved":false,"is_disabled":false,"rental_uris":{"android":"levelo://app?vid=b1c80ef2-1886-4719-a907-a5cd4fa9c85e","ios":"levelo://app?vid=b1c80ef2-1886-4719-a907-a5cd4fa9c85e"},"vehicle_type_id":"4","last_reported":1740172099,"current_range_meters":9600,"station_id":"ce4bh2h2rcd13ifvqdh0","pricing_plan_id":"cebpf4jnsgd1na2vs0mg"},{"bike_id":"40437a03-f1c2-4b65-91e5-8f95ddce7f7b","system_id":"levelo_inurba_marseille","lat":43.29419,"lon":5.38652,"is_reserved":false,"is_disabled":false,"rental_uris":{"android":"levelo://app?vid=40437a03-f1c2-4b65-91e5-8f95ddce7f7b","ios":"levelo://app?vid=40437a03-f1c2-4b65-91e5-8f95ddce7f7b"},"vehicle_type_id":"4","last_reported":1740172099,"current_range_meters":9600,"station_id":"ce4bh2h2rcd13ifvqdh0","pricing_plan_id":"cebpf4jnsgd1na2vs0mg"},{"bike_id":"ff72b3d6-f08b-4cec-82b6-3f5bf8bd662b","system_id":"levelo_inurba_marseille","lat":43.28158,"lon":5.42645,"is_reserved":false,"is_disabled":false,"rental_uris":{"android":"levelo://app?vid=ff72b3d6-f08b-4cec-82b6-3f5bf8bd662b","ios":"levelo://app?vid=ff72b3d6-f08b-4cec-82b6-3f5bf8bd662b"},"vehicle_type_id":"4","last_reported":1740172099,"current_range_meters":9600,"station_id":"ce4bhnh2rcd13ifvqgug","pricing_plan_id":"cebpf4jnsgd1na2vs0mg"},{"bike_id":"47ad7c30-34cc-434c-9d7d-27d0d397ecd8","system_id":"levelo_inurba_marseille","lat":43.27824,"lon":5.4072,"is_reserved":false,"is_disabled":false,"rental_uris":{"android":"levelo://app?vid=47ad7c30-34cc-434c-9d7d-27d0d397ecd8","ios":"levelo://app?vid=47ad7c30-34cc-434c-9d7d-27d0d397ecd8"},"vehicle_type_id":"4","last_reported":1740172099,"current_range_meters":9600,"station_id":"ce4bhnh2rcd13ifvqgtg","pricing_plan_id":"cebpf4jnsgd1na2vs0mg"},{"bike_id":"37997c59-d0f6-4e17-844d-6b689b8d69d8","system_id":"levelo_inurba_marseille","lat":43.29418,"lon":5.38621,"is_reserved":false,"is_disabled":false,"rental_uris":{"android":"levelo://app?vid=37997c59-d0f6-4e17-844d-6b689b8d69d8","ios":"levelo://app?vid=37997c59-d0f6-4e17-844d-6b689b8d69d8"},"vehicle_type_id":"4","last_reported":1740172099,"current_range_meters":9600,"station_id":"ce4bh2h2rcd13ifvqdh0","pricing_plan_id":"cebpf4jnsgd1na2vs0mg"},{"bike_id":"d414c500-f227-4efb-aabd-f7246cca81bc","system_id":"levelo_inurba_marseille","lat":43.23107,"lon":5.35545,"is_reserved":false,"is_disabled":false,"rental_uris":{"android":"levelo://app?vid=d414c500-f227-4efb-aabd-f7246cca81bc","ios":"levelo://app?vid=d414c500-f227-4efb-aabd-f7246cca81bc"},"vehicle_type_id":"4","last_reported":1740172099,"current_range_meters":9600,"station_id":"cpo3342slgdg3j2ifvpg","pricing_plan_id":"cebpf4jnsgd1na2vs0mg"},{"bike_id":"f3feea2e-5bf7-41f6-a6d2-c494ec11d6a2","system_id":"levelo_inurba_marseille","lat":43.230658,"lon":5.354909,"is_reserved":false,"is_disabled":false,"rental_uris":{"android":"levelo://app?vid=f3feea2e-5bf7-41f6-a6d2-c494ec11d6a2","ios":"levelo://app?vid=f3feea2e-5bf7-41f6-a6d2-c494ec11d6a2"},"vehicle_type_id":"4","last_reported":1740172099,"current_range_meters":9600,"station_id":"cpo3342slgdg3j2ifvpg","pricing_plan_id":"cebpf4jnsgd1na2vs0mg"},{"bike_id":"84c075d3-179e-4f3d-8887-25bb9583ca9b","system_id":"levelo_inurba_marseille","lat":43.29418,"lon":5.38632,"is_reserved":false,"is_disabled":false,"rental_uris":{"android":"levelo://app?vid=84c075d3-179e-4f3d-8887-25bb9583ca9b","ios":"levelo://app?vid=84c075d3-179e-4f3d-8887-25bb9583ca9b"},"vehicle_type_id":"4","last_reported":1740172099,"current_range_meters":10000,"station_id":"ce4bh2h2rcd13ifvqdh0","pricing_plan_id":"cebpf4jnsgd1na2vs0mg"},{"bike_id":"a6556200-7082-4a45-9dfc-37d3801d71f2","system_id":"levelo_inurba_marseille","lat":43.292,"lon":5.39318,"is_reserved":false,"is_disabled":false,"rental_uris":{"android":"levelo://app?vid=a6556200-7082-4a45-9dfc-37d3801d71f2","ios":"levelo://app?vid=a6556200-7082-4a45-9dfc-37d3801d71f2"},"vehicle_type_id":"4","last_reported":1740172099,"current_range_meters":10000,"station_id":"ce4bh192rcd13ifvqdd0","pricing_plan_id":"cebpf4jnsgd1na2vs0mg"},{"bike_id":"8906648b-bc26-451c-89bc-c729377b7345","system_id":"levelo_inurba_marseille","lat":43.30328,"lon":5.36891,"is_reserved":false,"is_disabled":false,"rental_uris":{"android":"levelo://app?vid=8906648b-bc26-451c-89bc-c729377b7345","ios":"levelo://app?vid=8906648b-bc26-451c-89bc-c729377b7345"},"vehicle_type_id":"4","last_reported":1740172099,"current_range_meters":10000,"station_id":"ce4bgqh2rcd13ifvqc5g","pricing_plan_id":"cebpf4jnsgd1na2vs0mg"},{"bike_id":"d57f1921-eb24-495f-b476-f059777c7fda","system_id":"levelo_inurba_marseille","lat":43.29523,"lon":5.39413,"is_reserved":false,"is_disabled":false,"rental_uris":{"android":"levelo://app?vid=d57f1921-eb24-495f-b476-f059777c7fda","ios":"levelo://app?vid=d57f1921-eb24-495f-b476-f059777c7fda"},"vehicle_type_id":"4","last_reported":1740172099,"current_range_meters":10000,"station_id":"ce4bh292rcd13ifvqdf0","pricing_plan_id":"cebpf4jnsgd1na2vs0mg"},{"bike_id":"85e1a65a-bbbe-4c67-a7e7-d87e622bfa15","system_id":"levelo_inurba_marseille","lat":43.299694,"lon":5.385024,"is_reserved":false,"is_disabled":false,"rental_uris":{"android":"levelo://app?vid=85e1a65a-bbbe-4c67-a7e7-d87e622bfa15","ios":"levelo://app?vid=85e1a65a-bbbe-4c67-a7e7-d87e622bfa15"},"vehicle_type_id":"4","last_reported":1740172099,"current_range_meters":10000,"station_id":"ce4bgj92rcd13ifvqbd0","pricing_plan_id":"cebpf4jnsgd1na2vs0mg"},{"bike_id":"2b8d73ad-5137-4320-bf7a-9fcaea6cd84f","system_id":"levelo_inurba_marseille","lat":43.27992,"lon":5.40018,"is_reserved":false,"is_disabled":false,"rental_uris":{"android":"levelo://app?vid=2b8d73ad-5137-4320-bf7a-9fcaea6cd84f","ios":"levelo://app?vid=2b8d73ad-5137-4320-bf7a-9fcaea6cd84f"},"vehicle_type_id":"4","last_reported":1740172099,"current_range_meters":10000,"station_id":"ce4bho92rcd13ifvqh4g","pricing_plan_id":"cebpf4jnsgd1na2vs0mg"},{"bike_id":"53b97ee1-c4a2-4bbc-9702-d2b3a813e357","system_id":"levelo_inurba_marseille","lat":43.30143,"lon":5.38787,"is_reserved":false,"is_disabled":false,"rental_uris":{"android":"levelo://app?vid=53b97ee1-c4a2-4bbc-9702-d2b3a813e357","ios":"levelo://app?vid=53b97ee1-c4a2-4bbc-9702-d2b3a813e357"},"vehicle_type_id":"4","last_reported":1740172099,"current_range_meters":10000,"station_id":"ce4bghh2rcd13ifvqb60","pricing_plan_id":"cebpf4jnsgd1na2vs0mg"},{"bike_id":"43de4b58-4e9d-469e-a9cd-b093e47ed6d1","system_id":"levelo_inurba_marseille","lat":43.31201,"lon":5.38695,"is_reserved":false,"is_disabled":false,"rental_uris":{"android":"levelo://app?vid=43de4b58-4e9d-469e-a9cd-b093e47ed6d1","ios":"levelo://app?vid=43de4b58-4e9d-469e-a9cd-b093e47ed6d1"},"vehicle_type_id":"4","last_reported":1740172099,"current_range_meters":10000,"station_id":"ce4bgv12rcd13ifvqcp0","pricing_plan_id":"cebpf4jnsgd1na2vs0mg"},{"bike_id":"46639afb-1560-4afc-805a-bdb36a5507a4","system_id":"levelo_inurba_marseille","lat":43.3093,"lon":5.40148,"is_reserved":false,"is_disabled":false,"rental_uris":{"android":"levelo://app?vid=46639afb-1560-4afc-805a-bdb36a5507a4","ios":"levelo://app?vid=46639afb-1560-4afc-805a-bdb36a5507a4"},"vehicle_type_id":"4","last_reported":1740172099,"current_range_meters":10000,"station_id":"ce4bgvp2rcd13ifvqct0","pricing_plan_id":"cebpf4jnsgd1na2vs0mg"},{"bike_id":"3c753c60-fb1b-482a-9aa0-e77ec0980033","system_id":"levelo_inurba_marseille","lat":43.2455,"lon":5.39524,"is_reserved":false,"is_disabled":false,"rental_uris":{"android":"levelo://app?vid=3c753c60-fb1b-482a-9aa0-e77ec0980033","ios":"levelo://app?vid=3c753c60-fb1b-482a-9aa0-e77ec0980033"},"vehicle_type_id":"4","last_reported":1740172099,"current_range_meters":10800,"station_id":"ce4bhlp2rcd13ifvqgjg","pricing_plan_id":"cebpf4jnsgd1na2vs0mg"},{"bike_id":"cf955375-6efc-4c58-b72f-488429c9e00a","system_id":"levelo_inurba_marseille","lat":43.29417,"lon":5.38633,"is_reserved":false,"is_disabled":false,"rental_uris":{"android":"levelo://app?vid=cf955375-6efc-4c58-b72f-488429c9e00a","ios":"levelo://app?vid=cf955375-6efc-4c58-b72f-488429c9e00a"},"vehicle_type_id":"4","last_reported":1740172099,"current_range_meters":10800,"station_id":"ce4bh2h2rcd13ifvqdh0","pricing_plan_id":"cebpf4jnsgd1na2vs0mg"},{"bike_id":"943382b3-3ac2-40b7-baae-7ca1aec3b930","system_id":"levelo_inurba_marseille","lat":43.28133,"lon":5.42647,"is_reserved":false,"is_disabled":false,"rental_uris":{"android":"levelo://app?vid=943382b3-3ac2-40b7-baae-7ca1aec3b930","ios":"levelo://app?vid=943382b3-3ac2-40b7-baae-7ca1aec3b930"},"vehicle_type_id":"4","last_reported":1740172099,"current_range_meters":10800,"station_id":"ce4bhnh2rcd13ifvqgug","pricing_plan_id":"cebpf4jnsgd1na2vs0mg"},{"bike_id":"8d0d14c1-2594-4225-b627-328aeee6e3df","system_id":"levelo_inurba_marseille","lat":43.29534,"lon":5.39026,"is_reserved":false,"is_disabled":false,"rental_uris":{"android":"levelo://app?vid=8d0d14c1-2594-4225-b627-328aeee6e3df","ios":"levelo://app?vid=8d0d14c1-2594-4225-b627-328aeee6e3df"},"vehicle_type_id":"4","last_reported":1740172099,"current_range_meters":10800,"station_id":"","pricing_plan_id":"cebpf4jnsgd1na2vs0mg"},{"bike_id":"96cdc694-1c9c-4cda-b45c-2b04682fafe2","system_id":"levelo_inurba_marseille","lat":43.29429,"lon":5.38616,"is_reserved":false,"is_disabled":false,"rental_uris":{"android":"levelo://app?vid=96cdc694-1c9c-4cda-b45c-2b04682fafe2","ios":"levelo://app?vid=96cdc694-1c9c-4cda-b45c-2b04682fafe2"},"vehicle_type_id":"4","last_reported":1740172099,"current_range_meters":10800,"station_id":"ce4bh2h2rcd13ifvqdh0","pricing_plan_id":"cebpf4jnsgd1na2vs0mg"},{"bike_id":"7a811fd9-b132-4914-a795-bbd931482c71","system_id":"levelo_inurba_marseille","lat":43.29544,"lon":5.38564,"is_reserved":false,"is_disabled":true,"rental_uris":{"android":"levelo://app?vid=7a811fd9-b132-4914-a795-bbd931482c71","ios":"levelo://app?vid=7a811fd9-b132-4914-a795-bbd931482c71"},"vehicle_type_id":"4","last_reported":1740172099,"current_range_meters":11200,"station_id":"ce4bgih2rcd13ifvqba0","pricing_plan_id":"cebpf4jnsgd1na2vs0mg"},{"bike_id":"fbdb5bd4-d8df-4cf1-88b9-88590ac3fee1","system_id":"levelo_inurba_marseille","lat":43.248046,"lon":5.374531,"is_reserved":false,"is_disabled":false,"rental_uris":{"android":"levelo://app?vid=fbdb5bd4-d8df-4cf1-88b9-88590ac3fee1","ios":"levelo://app?vid=fbdb5bd4-d8df-4cf1-88b9-88590ac3fee1"},"vehicle_type_id":"4","last_reported":1740172099,"current_range_meters":11200,"station_id":"ce4bhgh2rcd13ifvqfb0","pricing_plan_id":"cebpf4jnsgd1na2vs0mg"},{"bike_id":"5348d5dc-5dca-4978-b167-cd7e8ce45433","system_id":"levelo_inurba_marseille","lat":43.30559,"lon":5.36541,"is_reserved":false,"is_disabled":true,"rental_uris":{"android":"levelo://app?vid=5348d5dc-5dca-4978-b167-cd7e8ce45433","ios":"levelo://app?vid=5348d5dc-5dca-4978-b167-cd7e8ce45433"},"vehicle_type_id":"4","last_reported":1740172099,"current_range_meters":11200,"station_id":"ce4bgs12rcd13ifvqcag","pricing_plan_id":"cebpf4jnsgd1na2vs0mg"},{"bike_id":"ccc6a18a-15f3-4348-92d3-6f05617d580e","system_id":"levelo_inurba_marseille","lat":43.29468,"lon":5.38676,"is_reserved":false,"is_disabled":false,"rental_uris":{"android":"levelo://app?vid=ccc6a18a-15f3-4348-92d3-6f05617d580e","ios":"levelo://app?vid=ccc6a18a-15f3-4348-92d3-6f05617d580e"},"vehicle_type_id":"4","last_reported":1740172099,"current_range_meters":11200,"station_id":"","pricing_plan_id":"cebpf4jnsgd1na2vs0mg"},{"bike_id":"2afb22c7-7048-4615-a3b7-71b0be04e579","system_id":"levelo_inurba_marseille","lat":43.23184,"lon":5.3557,"is_reserved":false,"is_disabled":false,"rental_uris":{"android":"levelo://app?vid=2afb22c7-7048-4615-a3b7-71b0be04e579","ios":"levelo://app?vid=2afb22c7-7048-4615-a3b7-71b0be04e579"},"vehicle_type_id":"4","last_reported":1740172099,"current_range_meters":11200,"station_id":"","pricing_plan_id":"cebpf4jnsgd1na2vs0mg"},{"bike_id":"417001bc-e8ee-4b24-9108-f07a293bf8c3","system_id":"levelo_inurba_marseille","lat":43.29735,"lon":5.37694,"is_reserved":false,"is_disabled":true,"rental_uris":{"android":"levelo://app?vid=417001bc-e8ee-4b24-9108-f07a293bf8c3","ios":"levelo://app?vid=417001bc-e8ee-4b24-9108-f07a293bf8c3"},"vehicle_type_id":"4","last_reported":1740172099,"current_range_meters":11600,"station_id":"ce4bgkh2rcd13ifvqbl0","pricing_plan_id":"cebpf4jnsgd1na2vs0mg"},{"bike_id":"c04b81b6-1d78-49d2-a77e-38338694652c","system_id":"levelo_inurba_marseille","lat":43.23618,"lon":5.41,"is_reserved":false,"is_disabled":false,"rental_uris":{"android":"levelo://app?vid=c04b81b6-1d78-49d2-a77e-38338694652c","ios":"levelo://app?vid=c04b81b6-1d78-49d2-a77e-38338694652c"},"vehicle_type_id":"4","last_reported":1740172099,"current_range_meters":11600,"station_id":"","pricing_plan_id":"cebpf4jnsgd1na2vs0mg"},{"bike_id":"9a924739-bcf3-4b0b-afc2-7bacd4d9edcf","system_id":"levelo_inurba_marseille","lat":43.28479,"lon":5.38417,"is_reserved":false,"is_disabled":false,"rental_uris":{"android":"levelo://app?vid=9a924739-bcf3-4b0b-afc2-7bacd4d9edcf","ios":"levelo://app?vid=9a924739-bcf3-4b0b-afc2-7bacd4d9edcf"},"vehicle_type_id":"4","last_reported":1740172099,"current_range_meters":11600,"station_id":"ce4bh512rcd13ifvqe3g","pricing_plan_id":"cebpf4jnsgd1na2vs0mg"},{"bike_id":"99ab7b37-39d1-4d0a-8869-54b27afbbc7a","system_id":"levelo_inurba_marseille","lat":43.29531,"lon":5.38139,"is_reserved":false,"is_disabled":false,"rental_uris":{"android":"levelo://app?vid=99ab7b37-39d1-4d0a-8869-54b27afbbc7a","ios":"levelo://app?vid=99ab7b37-39d1-4d0a-8869-54b27afbbc7a"},"vehicle_type_id":"4","last_reported":1740172099,"current_range_meters":11600,"station_id":"","pricing_plan_id":"cebpf4jnsgd1na2vs0mg"},{"bike_id":"e501be99-a171-4e91-9e5b-ac547e4c06f2","system_id":"levelo_inurba_marseille","lat":43.23196,"lon":5.35549,"is_reserved":false,"is_disabled":false,"rental_uris":{"android":"levelo://app?vid=e501be99-a171-4e91-9e5b-ac547e4c06f2","ios":"levelo://app?vid=e501be99-a171-4e91-9e5b-ac547e4c06f2"},"vehicle_type_id":"4","last_reported":1740172099,"current_range_meters":11600,"station_id":"ce4bhu92rcd13ifvqi70","pricing_plan_id":"cebpf4jnsgd1na2vs0mg"},{"bike_id":"4668300d-2783-4785-9860-f7aa2cf6af65","system_id":"levelo_inurba_marseille","lat":43.29604,"lon":5.38093,"is_reserved":false,"is_disabled":false,"rental_uris":{"android":"levelo://app?vid=4668300d-2783-4785-9860-f7aa2cf6af65","ios":"levelo://app?vid=4668300d-2783-4785-9860-f7aa2cf6af65"},"vehicle_type_id":"4","last_reported":1740172099,"current_range_meters":11600,"station_id":"ce4bgl12rcd13ifvqbo0","pricing_plan_id":"cebpf4jnsgd1na2vs0mg"},{"bike_id":"d5162b8b-e26c-414f-8ff8-3282be031c56","system_id":"levelo_inurba_marseille","lat":43.30878,"lon":5.377309,"is_reserved":false,"is_disabled":false,"rental_uris":{"android":"levelo://app?vid=d5162b8b-e26c-414f-8ff8-3282be031c56","ios":"levelo://app?vid=d5162b8b-e26c-414f-8ff8-3282be031c56"},"vehicle_type_id":"4","last_reported":1740172099,"current_range_meters":11600,"station_id":"ce4bgt12rcd13ifvqcd0","pricing_plan_id":"cebpf4jnsgd1na2vs0mg"},{"bike_id":"aa6b079d-ac76-4c64-aa3c-29b3f6dad2e1","system_id":"levelo_inurba_marseille","lat":43.28159,"lon":5.4266,"is_reserved":false,"is_disabled":false,"rental_uris":{"android":"levelo://app?vid=aa6b079d-ac76-4c64-aa3c-29b3f6dad2e1","ios":"levelo://app?vid=aa6b079d-ac76-4c64-aa3c-29b3f6dad2e1"},"vehicle_type_id":"4","last_reported":1740172099,"current_range_meters":12000,"station_id":"ce4bhnh2rcd13ifvqgug","pricing_plan_id":"cebpf4jnsgd1na2vs0mg"},{"bike_id":"ad9dcedd-8eb4-4e60-a996-2ce5dda515db","system_id":"levelo_inurba_marseille","lat":43.2926,"lon":5.38441,"is_reserved":false,"is_disabled":false,"rental_uris":{"android":"levelo://app?vid=ad9dcedd-8eb4-4e60-a996-2ce5dda515db","ios":"levelo://app?vid=ad9dcedd-8eb4-4e60-a996-2ce5dda515db"},"vehicle_type_id":"4","last_reported":1740172099,"current_range_meters":12000,"station_id":"ce4bh692rcd13ifvqea0","pricing_plan_id":"cebpf4jnsgd1na2vs0mg"},{"bike_id":"212eeac4-2d97-40f8-b26d-549c552527ad","system_id":"levelo_inurba_marseille","lat":43.30132,"lon":5.39871,"is_reserved":false,"is_disabled":false,"rental_uris":{"android":"levelo://app?vid=212eeac4-2d97-40f8-b26d-549c552527ad","ios":"levelo://app?vid=212eeac4-2d97-40f8-b26d-549c552527ad"},"vehicle_type_id":"4","last_reported":1740172099,"current_range_meters":12000,"station_id":"ce4bh0h2rcd13ifvqd40","pricing_plan_id":"cebpf4jnsgd1na2vs0mg"},{"bike_id":"a5861d8a-322b-4fa8-9cf5-48f1ed0493f0","system_id":"levelo_inurba_marseille","lat":43.26935,"lon":5.38698,"is_reserved":false,"is_disabled":true,"rental_uris":{"android":"levelo://app?vid=a5861d8a-322b-4fa8-9cf5-48f1ed0493f0","ios":"levelo://app?vid=a5861d8a-322b-4fa8-9cf5-48f1ed0493f0"},"vehicle_type_id":"4","last_reported":1740172099,"current_range_meters":12400,"station_id":"ce4bhh92rcd13ifvqfh0","pricing_plan_id":"cebpf4jnsgd1na2vs0mg"},{"bike_id":"ed82fb5d-90ce-4428-bd14-b9a920cf65c5","system_id":"levelo_inurba_marseille","lat":43.26192,"lon":5.37452,"is_reserved":false,"is_disabled":false,"rental_uris":{"android":"levelo://app?vid=ed82fb5d-90ce-4428-bd14-b9a920cf65c5","ios":"levelo://app?vid=ed82fb5d-90ce-4428-bd14-b9a920cf65c5"},"vehicle_type_id":"4","last_reported":1740172099,"current_range_meters":12400,"station_id":"ce4bhgp2rcd13ifvqfc0","pricing_plan_id":"cebpf4jnsgd1na2vs0mg"},{"bike_id":"d93b56e8-81a2-4df1-b772-ccfe1aba8adb","system_id":"levelo_inurba_marseille","lat":43.29455,"lon":5.39071,"is_reserved":false,"is_disabled":false,"rental_uris":{"android":"levelo://app?vid=d93b56e8-81a2-4df1-b772-ccfe1aba8adb","ios":"levelo://app?vid=d93b56e8-81a2-4df1-b772-ccfe1aba8adb"},"vehicle_type_id":"4","last_reported":1740172099,"current_range_meters":12400,"station_id":"","pricing_plan_id":"cebpf4jnsgd1na2vs0mg"},{"bike_id":"1bb7db80-3871-413c-ab2d-3515cfae14be","system_id":"levelo_inurba_marseille","lat":43.30254,"lon":5.40048,"is_reserved":false,"is_disabled":false,"rental_uris":{"android":"levelo://app?vid=1bb7db80-3871-413c-ab2d-3515cfae14be","ios":"levelo://app?vid=1bb7db80-3871-413c-ab2d-3515cfae14be"},"vehicle_type_id":"4","last_reported":1740172099,"current_range_meters":12400,"station_id":"ce4bgvh2rcd13ifvqcs0","pricing_plan_id":"cebpf4jnsgd1na2vs0mg"},{"bike_id":"f011d7fb-e58c-4279-9a9e-da031e7287d4","system_id":"levelo_inurba_marseille","lat":43.29448,"lon":5.38626,"is_reserved":false,"is_disabled":false,"rental_uris":{"android":"levelo://app?vid=f011d7fb-e58c-4279-9a9e-da031e7287d4","ios":"levelo://app?vid=f011d7fb-e58c-4279-9a9e-da031e7287d4"},"vehicle_type_id":"4","last_reported":1740172099,"current_range_meters":12400,"station_id":"ce4bh2h2rcd13ifvqdh0","pricing_plan_id":"cebpf4jnsgd1na2vs0mg"},{"bike_id":"7645ed80-145e-4878-ad6f-98a4ef7c48a4","system_id":"levelo_inurba_marseille","lat":43.29277,"lon":5.38442,"is_reserved":false,"is_disabled":false,"rental_uris":{"android":"levelo://app?vid=7645ed80-145e-4878-ad6f-98a4ef7c48a4","ios":"levelo://app?vid=7645ed80-145e-4878-ad6f-98a4ef7c48a4"},"vehicle_type_id":"4","last_reported":1740172099,"current_range_meters":12400,"station_id":"ce4bh692rcd13ifvqea0","pricing_plan_id":"cebpf4jnsgd1na2vs0mg"},{"bike_id":"a404738f-d592-4923-bb7f-8cad6bf8fec4","system_id":"levelo_inurba_marseille","lat":43.27949,"lon":5.38495,"is_reserved":false,"is_disabled":false,"rental_uris":{"android":"levelo://app?vid=a404738f-d592-4923-bb7f-8cad6bf8fec4","ios":"levelo://app?vid=a404738f-d592-4923-bb7f-8cad6bf8fec4"},"vehicle_type_id":"4","last_reported":1740172099,"current_range_meters":12400,"station_id":"","pricing_plan_id":"cebpf4jnsgd1na2vs0mg"},{"bike_id":"3f625f7c-8167-45c8-a3dc-b9df7354cffd","system_id":"levelo_inurba_marseille","lat":43.29363,"lon":5.38774,"is_reserved":false,"is_disabled":false,"rental_uris":{"android":"levelo://app?vid=3f625f7c-8167-45c8-a3dc-b9df7354cffd","ios":"levelo://app?vid=3f625f7c-8167-45c8-a3dc-b9df7354cffd"},"vehicle_type_id":"4","last_reported":1740172099,"current_range_meters":12400,"station_id":"","pricing_plan_id":"cebpf4jnsgd1na2vs0mg"},{"bike_id":"3c8aac07-80ad-4986-a150-17fd9f678e45","system_id":"levelo_inurba_marseille","lat":43.242,"lon":5.3974,"is_reserved":false,"is_disabled":false,"rental_uris":{"android":"levelo://app?vid=3c8aac07-80ad-4986-a150-17fd9f678e45","ios":"levelo://app?vid=3c8aac07-80ad-4986-a150-17fd9f678e45"},"vehicle_type_id":"4","last_reported":1740172099,"current_range_meters":12400,"station_id":"ce4bhn12rcd13ifvqgpg","pricing_plan_id":"cebpf4jnsgd1na2vs0mg"},{"bike_id":"db862aa0-6d5c-4557-b8a1-8d27f720ed6e","system_id":"levelo_inurba_marseille","lat":43.27998,"lon":5.40033,"is_reserved":false,"is_disabled":false,"rental_uris":{"android":"levelo://app?vid=db862aa0-6d5c-4557-b8a1-8d27f720ed6e","ios":"levelo://app?vid=db862aa0-6d5c-4557-b8a1-8d27f720ed6e"},"vehicle_type_id":"4","last_reported":1740172099,"current_range_meters":12800,"station_id":"ce4bho92rcd13ifvqh4g","pricing_plan_id":"cebpf4jnsgd1na2vs0mg"},{"bike_id":"78ccc1b5-e05d-4c30-bc5b-473f9d97e2cd","system_id":"levelo_inurba_marseille","lat":43.30133,"lon":5.37808,"is_reserved":false,"is_disabled":false,"rental_uris":{"android":"levelo://app?vid=78ccc1b5-e05d-4c30-bc5b-473f9d97e2cd","ios":"levelo://app?vid=78ccc1b5-e05d-4c30-bc5b-473f9d97e2cd"},"vehicle_type_id":"4","last_reported":1740172099,"current_range_meters":12800,"station_id":"","pricing_plan_id":"cebpf4jnsgd1na2vs0mg"},{"bike_id":"b19d37e7-0471-402b-9ff0-c412551970b9","system_id":"levelo_inurba_marseille","lat":43.29269,"lon":5.36851,"is_reserved":false,"is_disabled":false,"rental_uris":{"android":"levelo://app?vid=b19d37e7-0471-402b-9ff0-c412551970b9","ios":"levelo://app?vid=b19d37e7-0471-402b-9ff0-c412551970b9"},"vehicle_type_id":"4","last_reported":1740172099,"current_range_meters":12800,"station_id":"ce4bhbp2rcd13ifvqesg","pricing_plan_id":"cebpf4jnsgd1na2vs0mg"},{"bike_id":"116a0bf3-0cf0-45ef-a91d-8a20056a58c4","system_id":"levelo_inurba_marseille","lat":43.29555,"lon":5.38547,"is_reserved":false,"is_disabled":false,"rental_uris":{"android":"levelo://app?vid=116a0bf3-0cf0-45ef-a91d-8a20056a58c4","ios":"levelo://app?vid=116a0bf3-0cf0-45ef-a91d-8a20056a58c4"},"vehicle_type_id":"4","last_reported":1740172099,"current_range_meters":12800,"station_id":"ce4bgih2rcd13ifvqba0","pricing_plan_id":"cebpf4jnsgd1na2vs0mg"},{"bike_id":"7c8f3d05-5401-4545-847e-9fcee9ea83d5","system_id":"levelo_inurba_marseille","lat":43.26567,"lon":5.39869,"is_reserved":false,"is_disabled":false,"rental_uris":{"android":"levelo://app?vid=7c8f3d05-5401-4545-847e-9fcee9ea83d5","ios":"levelo://app?vid=7c8f3d05-5401-4545-847e-9fcee9ea83d5"},"vehicle_type_id":"4","last_reported":1740172099,"current_range_meters":12800,"station_id":"","pricing_plan_id":"cebpf4jnsgd1na2vs0mg"},{"bike_id":"3372843d-d9b8-48e7-a75e-62d9bb27ba4f","system_id":"levelo_inurba_marseille","lat":43.27915,"lon":5.39574,"is_reserved":false,"is_disabled":false,"rental_uris":{"android":"levelo://app?vid=3372843d-d9b8-48e7-a75e-62d9bb27ba4f","ios":"levelo://app?vid=3372843d-d9b8-48e7-a75e-62d9bb27ba4f"},"vehicle_type_id":"4","last_reported":1740172099,"current_range_meters":12800,"station_id":"ce4bhf92rcd13ifvqf40","pricing_plan_id":"cebpf4jnsgd1na2vs0mg"},{"bike_id":"20c03868-5bd2-4011-baaf-a537d64ad403","system_id":"levelo_inurba_marseille","lat":43.29566,"lon":5.38541,"is_reserved":false,"is_disabled":false,"rental_uris":{"android":"levelo://app?vid=20c03868-5bd2-4011-baaf-a537d64ad403","ios":"levelo://app?vid=20c03868-5bd2-4011-baaf-a537d64ad403"},"vehicle_type_id":"4","last_reported":1740172099,"current_range_meters":12800,"station_id":"ce4bgih2rcd13ifvqba0","pricing_plan_id":"cebpf4jnsgd1na2vs0mg"},{"bike_id":"6c2ab6e6-2d04-4225-b04d-1f709ec68055","system_id":"levelo_inurba_marseille","lat":43.22957,"lon":5.35389,"is_reserved":false,"is_disabled":false,"rental_uris":{"android":"levelo://app?vid=6c2ab6e6-2d04-4225-b04d-1f709ec68055","ios":"levelo://app?vid=6c2ab6e6-2d04-4225-b04d-1f709ec68055"},"vehicle_type_id":"4","last_reported":1740172099,"current_range_meters":12800,"station_id":"cpo3532slgdg3j2ikp40","pricing_plan_id":"cebpf4jnsgd1na2vs0mg"},{"bike_id":"54b45f3b-f685-44dd-8b79-1a758bf759d2","system_id":"levelo_inurba_marseille","lat":43.337444,"lon":5.374475,"is_reserved":false,"is_disabled":true,"rental_uris":{"android":"levelo://app?vid=54b45f3b-f685-44dd-8b79-1a758bf759d2","ios":"levelo://app?vid=54b45f3b-f685-44dd-8b79-1a758bf759d2"},"vehicle_type_id":"4","last_reported":1740172099,"current_range_meters":12800,"station_id":"","pricing_plan_id":"cebpf4jnsgd1na2vs0mg"},{"bike_id":"af1107fa-d68e-4f88-b9a9-b5e22ec9744f","system_id":"levelo_inurba_marseille","lat":43.23069,"lon":5.3549,"is_reserved":false,"is_disabled":false,"rental_uris":{"android":"levelo://app?vid=af1107fa-d68e-4f88-b9a9-b5e22ec9744f","ios":"levelo://app?vid=af1107fa-d68e-4f88-b9a9-b5e22ec9744f"},"vehicle_type_id":"4","last_reported":1740172099,"current_range_meters":12800,"station_id":"cpo3342slgdg3j2ifvpg","pricing_plan_id":"cebpf4jnsgd1na2vs0mg"},{"bike_id":"b985ad1f-1942-453b-b5eb-7462cafd1e31","system_id":"levelo_inurba_marseille","lat":43.23201,"lon":5.35577,"is_reserved":false,"is_disabled":false,"rental_uris":{"android":"levelo://app?vid=b985ad1f-1942-453b-b5eb-7462cafd1e31","ios":"levelo://app?vid=b985ad1f-1942-453b-b5eb-7462cafd1e31"},"vehicle_type_id":"4","last_reported":1740172099,"current_range_meters":12800,"station_id":"ce4bhu92rcd13ifvqi70","pricing_plan_id":"cebpf4jnsgd1na2vs0mg"},{"bike_id":"c88a28e7-77d6-44e0-a79d-8f6ca388d896","system_id":"levelo_inurba_marseille","lat":43.29252,"lon":5.38443,"is_reserved":false,"is_disabled":false,"rental_uris":{"android":"levelo://app?vid=c88a28e7-77d6-44e0-a79d-8f6ca388d896","ios":"levelo://app?vid=c88a28e7-77d6-44e0-a79d-8f6ca388d896"},"vehicle_type_id":"4","last_reported":1740172099,"current_range_meters":13600,"station_id":"ce4bh692rcd13ifvqea0","pricing_plan_id":"cebpf4jnsgd1na2vs0mg"},{"bike_id":"a7dc2e47-fa89-438e-81c0-9c1ad47b75fd","system_id":"levelo_inurba_marseille","lat":43.29905,"lon":5.37467,"is_reserved":false,"is_disabled":false,"rental_uris":{"android":"levelo://app?vid=a7dc2e47-fa89-438e-81c0-9c1ad47b75fd","ios":"levelo://app?vid=a7dc2e47-fa89-438e-81c0-9c1ad47b75fd"},"vehicle_type_id":"4","last_reported":1740172099,"current_range_meters":13600,"station_id":"ce4bgjh2rcd13ifvqbg0","pricing_plan_id":"cebpf4jnsgd1na2vs0mg"},{"bike_id":"089b421a-1c36-49ca-a690-f002c1cadcb6","system_id":"levelo_inurba_marseille","lat":43.24144,"lon":5.3645,"is_reserved":false,"is_disabled":false,"rental_uris":{"android":"levelo://app?vid=089b421a-1c36-49ca-a690-f002c1cadcb6","ios":"levelo://app?vid=089b421a-1c36-49ca-a690-f002c1cadcb6"},"vehicle_type_id":"4","last_reported":1740172099,"current_range_meters":13600,"station_id":"cpo36qri1sfpv3e86is0","pricing_plan_id":"cebpf4jnsgd1na2vs0mg"},{"bike_id":"7f85dde6-f8fd-4fa6-8c9f-a635a9b70d07","system_id":"levelo_inurba_marseille","lat":43.2943,"lon":5.38648,"is_reserved":false,"is_disabled":false,"rental_uris":{"android":"levelo://app?vid=7f85dde6-f8fd-4fa6-8c9f-a635a9b70d07","ios":"levelo://app?vid=7f85dde6-f8fd-4fa6-8c9f-a635a9b70d07"},"vehicle_type_id":"4","last_reported":1740172099,"current_range_meters":13600,"station_id":"ce4bh2h2rcd13ifvqdh0","pricing_plan_id":"cebpf4jnsgd1na2vs0mg"},{"bike_id":"ba641428-d176-472a-a372-e4beaee42889","system_id":"levelo_inurba_marseille","lat":43.24808,"lon":5.37442,"is_reserved":false,"is_disabled":false,"rental_uris":{"android":"levelo://app?vid=ba641428-d176-472a-a372-e4beaee42889","ios":"levelo://app?vid=ba641428-d176-472a-a372-e4beaee42889"},"vehicle_type_id":"4","last_reported":1740172099,"current_range_meters":13600,"station_id":"ce4bhgh2rcd13ifvqfb0","pricing_plan_id":"cebpf4jnsgd1na2vs0mg"},{"bike_id":"06d8c8ef-791d-40de-8e1b-f55dcb9c7a0c","system_id":"levelo_inurba_marseille","lat":43.27368,"lon":5.36254,"is_reserved":false,"is_disabled":false,"rental_uris":{"android":"levelo://app?vid=06d8c8ef-791d-40de-8e1b-f55dcb9c7a0c","ios":"levelo://app?vid=06d8c8ef-791d-40de-8e1b-f55dcb9c7a0c"},"vehicle_type_id":"4","last_reported":1740172099,"current_range_meters":13600,"station_id":"ce4bhbh2rcd13ifvqeo0","pricing_plan_id":"cebpf4jnsgd1na2vs0mg"},{"bike_id":"7bff7e9b-2077-4dc6-91ef-58a67c69a092","system_id":"levelo_inurba_marseille","lat":43.29969,"lon":5.38493,"is_reserved":false,"is_disabled":false,"rental_uris":{"android":"levelo://app?vid=7bff7e9b-2077-4dc6-91ef-58a67c69a092","ios":"levelo://app?vid=7bff7e9b-2077-4dc6-91ef-58a67c69a092"},"vehicle_type_id":"4","last_reported":1740172099,"current_range_meters":14000,"station_id":"ce4bgj92rcd13ifvqbd0","pricing_plan_id":"cebpf4jnsgd1na2vs0mg"},{"bike_id":"d312ce1d-aae9-4c62-a1e8-38c15d95735a","system_id":"levelo_inurba_marseille","lat":43.22935,"lon":5.35386,"is_reserved":false,"is_disabled":false,"rental_uris":{"android":"levelo://app?vid=d312ce1d-aae9-4c62-a1e8-38c15d95735a","ios":"levelo://app?vid=d312ce1d-aae9-4c62-a1e8-38c15d95735a"},"vehicle_type_id":"4","last_reported":1740172099,"current_range_meters":14000,"station_id":"cpo3532slgdg3j2ikp40","pricing_plan_id":"cebpf4jnsgd1na2vs0mg"},{"bike_id":"bc0afbed-07c5-4ac8-b77a-d8c4e16cb32e","system_id":"levelo_inurba_marseille","lat":43.29414,"lon":5.38634,"is_reserved":false,"is_disabled":false,"rental_uris":{"android":"levelo://app?vid=bc0afbed-07c5-4ac8-b77a-d8c4e16cb32e","ios":"levelo://app?vid=bc0afbed-07c5-4ac8-b77a-d8c4e16cb32e"},"vehicle_type_id":"4","last_reported":1740172099,"current_range_meters":14400,"station_id":"ce4bh2h2rcd13ifvqdh0","pricing_plan_id":"cebpf4jnsgd1na2vs0mg"},{"bike_id":"70480123-dfea-42f7-be27-c2ee0b2c433b","system_id":"levelo_inurba_marseille","lat":43.28322,"lon":5.350464,"is_reserved":false,"is_disabled":false,"rental_uris":{"android":"levelo://app?vid=70480123-dfea-42f7-be27-c2ee0b2c433b","ios":"levelo://app?vid=70480123-dfea-42f7-be27-c2ee0b2c433b"},"vehicle_type_id":"4","last_reported":1740172099,"current_range_meters":14400,"station_id":"ce4bhbp2rcd13ifvqerg","pricing_plan_id":"cebpf4jnsgd1na2vs0mg"},{"bike_id":"69f6c7fb-e991-4330-95b2-a58173874fa5","system_id":"levelo_inurba_marseille","lat":43.27973,"lon":5.4166,"is_reserved":false,"is_disabled":false,"rental_uris":{"android":"levelo://app?vid=69f6c7fb-e991-4330-95b2-a58173874fa5","ios":"levelo://app?vid=69f6c7fb-e991-4330-95b2-a58173874fa5"},"vehicle_type_id":"4","last_reported":1740172099,"current_range_meters":14400,"station_id":"ce4bho12rcd13ifvqh1g","pricing_plan_id":"cebpf4jnsgd1na2vs0mg"},{"bike_id":"90620c26-f945-4810-90b7-f95cad8c239e","system_id":"levelo_inurba_marseille","lat":43.29576,"lon":5.36743,"is_reserved":false,"is_disabled":false,"rental_uris":{"android":"levelo://app?vid=90620c26-f945-4810-90b7-f95cad8c239e","ios":"levelo://app?vid=90620c26-f945-4810-90b7-f95cad8c239e"},"vehicle_type_id":"4","last_reported":1740172099,"current_range_meters":14400,"station_id":"ce4bgph2rcd13ifvqc2g","pricing_plan_id":"cebpf4jnsgd1na2vs0mg"},{"bike_id":"4ae1ace5-db4f-4fa3-8559-b45b83197400","system_id":"levelo_inurba_marseille","lat":43.313608,"lon":5.384875,"is_reserved":false,"is_disabled":false,"rental_uris":{"android":"levelo://app?vid=4ae1ace5-db4f-4fa3-8559-b45b83197400","ios":"levelo://app?vid=4ae1ace5-db4f-4fa3-8559-b45b83197400"},"vehicle_type_id":"4","last_reported":1740172099,"current_range_meters":14400,"station_id":"ce4bgi92rcd13ifvqb90","pricing_plan_id":"cebpf4jnsgd1na2vs0mg"},{"bike_id":"35331f57-b06c-41f1-8224-4eb3668702eb","system_id":"levelo_inurba_marseille","lat":43.2305,"lon":5.35495,"is_reserved":false,"is_disabled":false,"rental_uris":{"android":"levelo://app?vid=35331f57-b06c-41f1-8224-4eb3668702eb","ios":"levelo://app?vid=35331f57-b06c-41f1-8224-4eb3668702eb"},"vehicle_type_id":"4","last_reported":1740172099,"current_range_meters":14400,"station_id":"cpo3342slgdg3j2ifvpg","pricing_plan_id":"cebpf4jnsgd1na2vs0mg"},{"bike_id":"742bc5a2-3444-4e4e-844a-5248e8280f90","system_id":"levelo_inurba_marseille","lat":43.25124,"lon":5.39041,"is_reserved":false,"is_disabled":false,"rental_uris":{"android":"levelo://app?vid=742bc5a2-3444-4e4e-844a-5248e8280f90","ios":"levelo://app?vid=742bc5a2-3444-4e4e-844a-5248e8280f90"},"vehicle_type_id":"4","last_reported":1740172099,"current_range_meters":14400,"station_id":"","pricing_plan_id":"cebpf4jnsgd1na2vs0mg"},{"bike_id":"ad675d28-1269-4fc9-809d-07eb510922ee","system_id":"levelo_inurba_marseille","lat":43.29536,"lon":5.38555,"is_reserved":false,"is_disabled":false,"rental_uris":{"android":"levelo://app?vid=ad675d28-1269-4fc9-809d-07eb510922ee","ios":"levelo://app?vid=ad675d28-1269-4fc9-809d-07eb510922ee"},"vehicle_type_id":"4","last_reported":1740172099,"current_range_meters":14800,"station_id":"ce4bgih2rcd13ifvqba0","pricing_plan_id":"cebpf4jnsgd1na2vs0mg"},{"bike_id":"dff0e026-d55e-4ab3-8207-3c496475cd40","system_id":"levelo_inurba_marseille","lat":43.280021,"lon":5.400064,"is_reserved":false,"is_disabled":false,"rental_uris":{"android":"levelo://app?vid=dff0e026-d55e-4ab3-8207-3c496475cd40","ios":"levelo://app?vid=dff0e026-d55e-4ab3-8207-3c496475cd40"},"vehicle_type_id":"4","last_reported":1740172099,"current_range_meters":14800,"station_id":"ce4bgjp2rcd13ifvqbh0","pricing_plan_id":"cebpf4jnsgd1na2vs0mg"},{"bike_id":"912eda98-9d79-44a8-8cef-9f3e00631f8a","system_id":"levelo_inurba_marseille","lat":43.23966,"lon":5.36635,"is_reserved":false,"is_disabled":false,"rental_uris":{"android":"levelo://app?vid=912eda98-9d79-44a8-8cef-9f3e00631f8a","ios":"levelo://app?vid=912eda98-9d79-44a8-8cef-9f3e00631f8a"},"vehicle_type_id":"4","last_reported":1740172099,"current_range_meters":14800,"station_id":"ce4bhi12rcd13ifvqfp0","pricing_plan_id":"cebpf4jnsgd1na2vs0mg"},{"bike_id":"beb4a613-6bec-4525-b64c-8a98d1f53ef0","system_id":"levelo_inurba_marseille","lat":43.29577,"lon":5.36746,"is_reserved":false,"is_disabled":false,"rental_uris":{"android":"levelo://app?vid=beb4a613-6bec-4525-b64c-8a98d1f53ef0","ios":"levelo://app?vid=beb4a613-6bec-4525-b64c-8a98d1f53ef0"},"vehicle_type_id":"4","last_reported":1740172099,"current_range_meters":14800,"station_id":"ce4bgph2rcd13ifvqc2g","pricing_plan_id":"cebpf4jnsgd1na2vs0mg"},{"bike_id":"6b4fcdbb-2403-4441-965e-35208bfd825c","system_id":"levelo_inurba_marseille","lat":43.29447,"lon":5.38629,"is_reserved":false,"is_disabled":false,"rental_uris":{"android":"levelo://app?vid=6b4fcdbb-2403-4441-965e-35208bfd825c","ios":"levelo://app?vid=6b4fcdbb-2403-4441-965e-35208bfd825c"},"vehicle_type_id":"4","last_reported":1740172099,"current_range_meters":14800,"station_id":"ce4bh2h2rcd13ifvqdh0","pricing_plan_id":"cebpf4jnsgd1na2vs0mg"},{"bike_id":"b109cfcb-9543-48f4-bf68-231f4ce87443","system_id":"levelo_inurba_marseille","lat":43.28936,"lon":5.38424,"is_reserved":false,"is_disabled":false,"rental_uris":{"android":"levelo://app?vid=b109cfcb-9543-48f4-bf68-231f4ce87443","ios":"levelo://app?vid=b109cfcb-9543-48f4-bf68-231f4ce87443"},"vehicle_type_id":"4","last_reported":1740172099,"current_range_meters":15200,"station_id":"ce4bh612rcd13ifvqe6g","pricing_plan_id":"cebpf4jnsgd1na2vs0mg"},{"bike_id":"2d3cef83-fd1d-4e81-80ba-36de4a9061f2","system_id":"levelo_inurba_marseille","lat":43.29535,"lon":5.38537,"is_reserved":false,"is_disabled":false,"rental_uris":{"android":"levelo://app?vid=2d3cef83-fd1d-4e81-80ba-36de4a9061f2","ios":"levelo://app?vid=2d3cef83-fd1d-4e81-80ba-36de4a9061f2"},"vehicle_type_id":"4","last_reported":1740172099,"current_range_meters":15200,"station_id":"ce4bgih2rcd13ifvqba0","pricing_plan_id":"cebpf4jnsgd1na2vs0mg"},{"bike_id":"e1f8f446-2e59-4ab0-9e4f-c14d8fa20d26","system_id":"levelo_inurba_marseille","lat":43.26549,"lon":5.39023,"is_reserved":false,"is_disabled":false,"rental_uris":{"android":"levelo://app?vid=e1f8f446-2e59-4ab0-9e4f-c14d8fa20d26","ios":"levelo://app?vid=e1f8f446-2e59-4ab0-9e4f-c14d8fa20d26"},"vehicle_type_id":"4","last_reported":1740172099,"current_range_meters":15200,"station_id":"ce4bhe12rcd13ifvqf30","pricing_plan_id":"cebpf4jnsgd1na2vs0mg"},{"bike_id":"c2a249cc-1213-47e6-83c0-90a96fbf7048","system_id":"levelo_inurba_marseille","lat":43.27834,"lon":5.40714,"is_reserved":false,"is_disabled":true,"rental_uris":{"android":"levelo://app?vid=c2a249cc-1213-47e6-83c0-90a96fbf7048","ios":"levelo://app?vid=c2a249cc-1213-47e6-83c0-90a96fbf7048"},"vehicle_type_id":"4","last_reported":1740172099,"current_range_meters":16000,"station_id":"ce4bhnh2rcd13ifvqgtg","pricing_plan_id":"cebpf4jnsgd1na2vs0mg"},{"bike_id":"933847ac-cbaf-4cd2-94e5-f384912c5eb7","system_id":"levelo_inurba_marseille","lat":43.29417,"lon":5.38644,"is_reserved":false,"is_disabled":false,"rental_uris":{"android":"levelo://app?vid=933847ac-cbaf-4cd2-94e5-f384912c5eb7","ios":"levelo://app?vid=933847ac-cbaf-4cd2-94e5-f384912c5eb7"},"vehicle_type_id":"4","last_reported":1740172099,"current_range_meters":16000,"station_id":"ce4bh2h2rcd13ifvqdh0","pricing_plan_id":"cebpf4jnsgd1na2vs0mg"},{"bike_id":"19a72748-0302-41c8-bac8-dfd22fdaab73","system_id":"levelo_inurba_marseille","lat":43.29812,"lon":5.38091,"is_reserved":false,"is_disabled":false,"rental_uris":{"android":"levelo://app?vid=19a72748-0302-41c8-bac8-dfd22fdaab73","ios":"levelo://app?vid=19a72748-0302-41c8-bac8-dfd22fdaab73"},"vehicle_type_id":"4","last_reported":1740172099,"current_range_meters":16000,"station_id":"ce4bgip2rcd13ifvqbb0","pricing_plan_id":"cebpf4jnsgd1na2vs0mg"},{"bike_id":"fe28d101-9308-4dd1-a12d-1ed12ca54da1","system_id":"levelo_inurba_marseille","lat":43.295319,"lon":5.390478,"is_reserved":false,"is_disabled":false,"rental_uris":{"android":"levelo://app?vid=fe28d101-9308-4dd1-a12d-1ed12ca54da1","ios":"levelo://app?vid=fe28d101-9308-4dd1-a12d-1ed12ca54da1"},"vehicle_type_id":"4","last_reported":1740172099,"current_range_meters":16000,"station_id":"ce4bh3p2rcd13ifvqdp0","pricing_plan_id":"cebpf4jnsgd1na2vs0mg"},{"bike_id":"4a0da941-5b39-43f6-9720-1d1a679dc036","system_id":"levelo_inurba_marseille","lat":43.29435,"lon":5.38655,"is_reserved":false,"is_disabled":false,"rental_uris":{"android":"levelo://app?vid=4a0da941-5b39-43f6-9720-1d1a679dc036","ios":"levelo://app?vid=4a0da941-5b39-43f6-9720-1d1a679dc036"},"vehicle_type_id":"4","last_reported":1740172099,"current_range_meters":16000,"station_id":"ce4bh2h2rcd13ifvqdh0","pricing_plan_id":"cebpf4jnsgd1na2vs0mg"},{"bike_id":"2429e026-1a84-49f0-8c5a-2f2ea420bfeb","system_id":"levelo_inurba_marseille","lat":43.294098,"lon":5.386253,"is_reserved":false,"is_disabled":false,"rental_uris":{"android":"levelo://app?vid=2429e026-1a84-49f0-8c5a-2f2ea420bfeb","ios":"levelo://app?vid=2429e026-1a84-49f0-8c5a-2f2ea420bfeb"},"vehicle_type_id":"4","last_reported":1740172099,"current_range_meters":16000,"station_id":"ce4bhoh2rcd13ifvqh5g","pricing_plan_id":"cebpf4jnsgd1na2vs0mg"},{"bike_id":"74891938-2f41-4146-9a4b-2cf3e2535c32","system_id":"levelo_inurba_marseille","lat":43.24667,"lon":5.3817,"is_reserved":false,"is_disabled":true,"rental_uris":{"android":"levelo://app?vid=74891938-2f41-4146-9a4b-2cf3e2535c32","ios":"levelo://app?vid=74891938-2f41-4146-9a4b-2cf3e2535c32"},"vehicle_type_id":"4","last_reported":1740172099,"current_range_meters":16000,"station_id":"ce4bhih2rcd13ifvqfr0","pricing_plan_id":"cebpf4jnsgd1na2vs0mg"},{"bike_id":"202bca41-2a93-41cc-b36a-503a76150837","system_id":"levelo_inurba_marseille","lat":43.29582,"lon":5.38114,"is_reserved":false,"is_disabled":false,"rental_uris":{"android":"levelo://app?vid=202bca41-2a93-41cc-b36a-503a76150837","ios":"levelo://app?vid=202bca41-2a93-41cc-b36a-503a76150837"},"vehicle_type_id":"4","last_reported":1740172099,"current_range_meters":16400,"station_id":"ce4bgl12rcd13ifvqbo0","pricing_plan_id":"cebpf4jnsgd1na2vs0mg"},{"bike_id":"1951b280-e8ac-4fa5-a3ef-806580107c2a","system_id":"levelo_inurba_marseille","lat":43.28164,"lon":5.42663,"is_reserved":false,"is_disabled":false,"rental_uris":{"android":"levelo://app?vid=1951b280-e8ac-4fa5-a3ef-806580107c2a","ios":"levelo://app?vid=1951b280-e8ac-4fa5-a3ef-806580107c2a"},"vehicle_type_id":"4","last_reported":1740172099,"current_range_meters":16400,"station_id":"ce4bhnh2rcd13ifvqgug","pricing_plan_id":"cebpf4jnsgd1na2vs0mg"},{"bike_id":"2c0c9103-9134-4257-a25e-839b07b31a4a","system_id":"levelo_inurba_marseille","lat":43.29909,"lon":5.37463,"is_reserved":false,"is_disabled":false,"rental_uris":{"android":"levelo://app?vid=2c0c9103-9134-4257-a25e-839b07b31a4a","ios":"levelo://app?vid=2c0c9103-9134-4257-a25e-839b07b31a4a"},"vehicle_type_id":"4","last_reported":1740172099,"current_range_meters":16400,"station_id":"ce4bgjh2rcd13ifvqbg0","pricing_plan_id":"cebpf4jnsgd1na2vs0mg"},{"bike_id":"6145e2a1-2cbb-4ebf-93b5-03d1f632af8a","system_id":"levelo_inurba_marseille","lat":43.30138,"lon":5.3741,"is_reserved":false,"is_disabled":false,"rental_uris":{"android":"levelo://app?vid=6145e2a1-2cbb-4ebf-93b5-03d1f632af8a","ios":"levelo://app?vid=6145e2a1-2cbb-4ebf-93b5-03d1f632af8a"},"vehicle_type_id":"4","last_reported":1740172099,"current_range_meters":16400,"station_id":"ce4bgs92rcd13ifvqcc0","pricing_plan_id":"cebpf4jnsgd1na2vs0mg"},{"bike_id":"0b35ef10-1d1d-4e8a-949e-c3122c5e3874","system_id":"levelo_inurba_marseille","lat":43.23957,"lon":5.36642,"is_reserved":false,"is_disabled":false,"rental_uris":{"android":"levelo://app?vid=0b35ef10-1d1d-4e8a-949e-c3122c5e3874","ios":"levelo://app?vid=0b35ef10-1d1d-4e8a-949e-c3122c5e3874"},"vehicle_type_id":"4","last_reported":1740172099,"current_range_meters":16400,"station_id":"ce4bhi12rcd13ifvqfp0","pricing_plan_id":"cebpf4jnsgd1na2vs0mg"},{"bike_id":"2438116c-0eac-4745-af80-c56857c3119c","system_id":"levelo_inurba_marseille","lat":43.24818,"lon":5.37459,"is_reserved":false,"is_disabled":false,"rental_uris":{"android":"levelo://app?vid=2438116c-0eac-4745-af80-c56857c3119c","ios":"levelo://app?vid=2438116c-0eac-4745-af80-c56857c3119c"},"vehicle_type_id":"4","last_reported":1740172099,"current_range_meters":16400,"station_id":"ce4bhgh2rcd13ifvqfb0","pricing_plan_id":"cebpf4jnsgd1na2vs0mg"},{"bike_id":"06b5b92e-20c2-4581-8ccf-06307578ea44","system_id":"levelo_inurba_marseille","lat":43.27187,"lon":5.40987,"is_reserved":false,"is_disabled":false,"rental_uris":{"android":"levelo://app?vid=06b5b92e-20c2-4581-8ccf-06307578ea44","ios":"levelo://app?vid=06b5b92e-20c2-4581-8ccf-06307578ea44"},"vehicle_type_id":"4","last_reported":1740172099,"current_range_meters":16400,"station_id":"ce4bhl12rcd13ifvqgf0","pricing_plan_id":"cebpf4jnsgd1na2vs0mg"},{"bike_id":"0f407618-9272-4e76-915b-482b51088ddb","system_id":"levelo_inurba_marseille","lat":43.25829,"lon":5.39434,"is_reserved":false,"is_disabled":false,"rental_uris":{"android":"levelo://app?vid=0f407618-9272-4e76-915b-482b51088ddb","ios":"levelo://app?vid=0f407618-9272-4e76-915b-482b51088ddb"},"vehicle_type_id":"4","last_reported":1740172099,"current_range_meters":16400,"station_id":"ce4bhip2rcd13ifvqft0","pricing_plan_id":"cebpf4jnsgd1na2vs0mg"},{"bike_id":"b7a34bea-5f12-4359-a9bd-751574a32c0d","system_id":"levelo_inurba_marseille","lat":43.289302,"lon":5.384034,"is_reserved":false,"is_disabled":false,"rental_uris":{"android":"levelo://app?vid=b7a34bea-5f12-4359-a9bd-751574a32c0d","ios":"levelo://app?vid=b7a34bea-5f12-4359-a9bd-751574a32c0d"},"vehicle_type_id":"4","last_reported":1740172099,"current_range_meters":16400,"station_id":"ce4bh392rcd13ifvqdm0","pricing_plan_id":"cebpf4jnsgd1na2vs0mg"},{"bike_id":"2f365603-98e9-4ca7-9acd-f34a233627a9","system_id":"levelo_inurba_marseille","lat":43.2981,"lon":5.38083,"is_reserved":false,"is_disabled":false,"rental_uris":{"android":"levelo://app?vid=2f365603-98e9-4ca7-9acd-f34a233627a9","ios":"levelo://app?vid=2f365603-98e9-4ca7-9acd-f34a233627a9"},"vehicle_type_id":"4","last_reported":1740172099,"current_range_meters":16400,"station_id":"ce4bgip2rcd13ifvqbb0","pricing_plan_id":"cebpf4jnsgd1na2vs0mg"},{"bike_id":"088e53e6-014f-48a3-99dd-584104b56def","system_id":"levelo_inurba_marseille","lat":43.29413,"lon":5.38627,"is_reserved":false,"is_disabled":false,"rental_uris":{"android":"levelo://app?vid=088e53e6-014f-48a3-99dd-584104b56def","ios":"levelo://app?vid=088e53e6-014f-48a3-99dd-584104b56def"},"vehicle_type_id":"4","last_reported":1740172099,"current_range_meters":16400,"station_id":"ce4bh2h2rcd13ifvqdh0","pricing_plan_id":"cebpf4jnsgd1na2vs0mg"},{"bike_id":"ccd4bbeb-d7a9-4764-9317-1a91869468dd","system_id":"levelo_inurba_marseille","lat":43.29263,"lon":5.38439,"is_reserved":false,"is_disabled":false,"rental_uris":{"android":"levelo://app?vid=ccd4bbeb-d7a9-4764-9317-1a91869468dd","ios":"levelo://app?vid=ccd4bbeb-d7a9-4764-9317-1a91869468dd"},"vehicle_type_id":"4","last_reported":1740172099,"current_range_meters":16400,"station_id":"ce4bh692rcd13ifvqea0","pricing_plan_id":"cebpf4jnsgd1na2vs0mg"},{"bike_id":"37043282-0a1e-4ddc-816a-9da08dba219b","system_id":"levelo_inurba_marseille","lat":43.2799,"lon":5.40016,"is_reserved":false,"is_disabled":false,"rental_uris":{"android":"levelo://app?vid=37043282-0a1e-4ddc-816a-9da08dba219b","ios":"levelo://app?vid=37043282-0a1e-4ddc-816a-9da08dba219b"},"vehicle_type_id":"4","last_reported":1740172099,"current_range_meters":16800,"station_id":"ce4bho92rcd13ifvqh4g","pricing_plan_id":"cebpf4jnsgd1na2vs0mg"},{"bike_id":"fb40b058-b8da-4d8d-8620-f5820c02f729","system_id":"levelo_inurba_marseille","lat":43.29398,"lon":5.38661,"is_reserved":false,"is_disabled":false,"rental_uris":{"android":"levelo://app?vid=fb40b058-b8da-4d8d-8620-f5820c02f729","ios":"levelo://app?vid=fb40b058-b8da-4d8d-8620-f5820c02f729"},"vehicle_type_id":"4","last_reported":1740172099,"current_range_meters":16800,"station_id":"ce4bh2h2rcd13ifvqdh0","pricing_plan_id":"cebpf4jnsgd1na2vs0mg"},{"bike_id":"1b0d6542-f74d-4dd5-b78b-1cd1115ff80b","system_id":"levelo_inurba_marseille","lat":43.30625,"lon":5.37375,"is_reserved":false,"is_disabled":false,"rental_uris":{"android":"levelo://app?vid=1b0d6542-f74d-4dd5-b78b-1cd1115ff80b","ios":"levelo://app?vid=1b0d6542-f74d-4dd5-b78b-1cd1115ff80b"},"vehicle_type_id":"4","last_reported":1740172099,"current_range_meters":17200,"station_id":"","pricing_plan_id":"cebpf4jnsgd1na2vs0mg"},{"bike_id":"519c0d90-c598-4074-9c80-d5e1565ff705","system_id":"levelo_inurba_marseille","lat":43.2307,"lon":5.35509,"is_reserved":false,"is_disabled":false,"rental_uris":{"android":"levelo://app?vid=519c0d90-c598-4074-9c80-d5e1565ff705","ios":"levelo://app?vid=519c0d90-c598-4074-9c80-d5e1565ff705"},"vehicle_type_id":"4","last_reported":1740172099,"current_range_meters":17200,"station_id":"cpo3342slgdg3j2ifvpg","pricing_plan_id":"cebpf4jnsgd1na2vs0mg"},{"bike_id":"29c7e683-2c72-4394-a229-402af2a18476","system_id":"levelo_inurba_marseille","lat":43.27206,"lon":5.3918,"is_reserved":false,"is_disabled":true,"rental_uris":{"android":"levelo://app?vid=29c7e683-2c72-4394-a229-402af2a18476","ios":"levelo://app?vid=29c7e683-2c72-4394-a229-402af2a18476"},"vehicle_type_id":"4","last_reported":1740172099,"current_range_meters":17200,"station_id":"ce4bhhp2rcd13ifvqfm0","pricing_plan_id":"cebpf4jnsgd1na2vs0mg"},{"bike_id":"6d55743c-7b68-4f36-8dc0-5a6ceb42ec5a","system_id":"levelo_inurba_marseille","lat":43.29424,"lon":5.38638,"is_reserved":false,"is_disabled":false,"rental_uris":{"android":"levelo://app?vid=6d55743c-7b68-4f36-8dc0-5a6ceb42ec5a","ios":"levelo://app?vid=6d55743c-7b68-4f36-8dc0-5a6ceb42ec5a"},"vehicle_type_id":"4","last_reported":1740172099,"current_range_meters":17200,"station_id":"ce4bh2h2rcd13ifvqdh0","pricing_plan_id":"cebpf4jnsgd1na2vs0mg"},{"bike_id":"ecb792ba-e590-4d62-97cc-1e9b429064df","system_id":"levelo_inurba_marseille","lat":43.250044,"lon":5.389154,"is_reserved":false,"is_disabled":false,"rental_uris":{"android":"levelo://app?vid=ecb792ba-e590-4d62-97cc-1e9b429064df","ios":"levelo://app?vid=ecb792ba-e590-4d62-97cc-1e9b429064df"},"vehicle_type_id":"4","last_reported":1740172099,"current_range_meters":17200,"station_id":"ce4bhgp2rcd13ifvqfd0","pricing_plan_id":"cebpf4jnsgd1na2vs0mg"},{"bike_id":"66770157-0bf7-41fd-ae0b-02cbcaddb486","system_id":"levelo_inurba_marseille","lat":43.28922,"lon":5.38382,"is_reserved":false,"is_disabled":false,"rental_uris":{"android":"levelo://app?vid=66770157-0bf7-41fd-ae0b-02cbcaddb486","ios":"levelo://app?vid=66770157-0bf7-41fd-ae0b-02cbcaddb486"},"vehicle_type_id":"4","last_reported":1740172099,"current_range_meters":17200,"station_id":"ce4bh612rcd13ifvqe6g","pricing_plan_id":"cebpf4jnsgd1na2vs0mg"},{"bike_id":"1b5b87c8-f96f-4740-8b60-bcc62c6e3f59","system_id":"levelo_inurba_marseille","lat":43.31401,"lon":5.38453,"is_reserved":false,"is_disabled":false,"rental_uris":{"android":"levelo://app?vid=1b5b87c8-f96f-4740-8b60-bcc62c6e3f59","ios":"levelo://app?vid=1b5b87c8-f96f-4740-8b60-bcc62c6e3f59"},"vehicle_type_id":"4","last_reported":1740172099,"current_range_meters":17200,"station_id":"","pricing_plan_id":"cebpf4jnsgd1na2vs0mg"},{"bike_id":"b8861c09-0ef1-46ca-8c3e-7b4da1c26720","system_id":"levelo_inurba_marseille","lat":43.29537,"lon":5.39056,"is_reserved":false,"is_disabled":false,"rental_uris":{"android":"levelo://app?vid=b8861c09-0ef1-46ca-8c3e-7b4da1c26720","ios":"levelo://app?vid=b8861c09-0ef1-46ca-8c3e-7b4da1c26720"},"vehicle_type_id":"4","last_reported":1740172099,"current_range_meters":17200,"station_id":"ce4bh3p2rcd13ifvqdp0","pricing_plan_id":"cebpf4jnsgd1na2vs0mg"},{"bike_id":"311dacea-41a9-4021-a255-f464bdda30e9","system_id":"levelo_inurba_marseille","lat":43.30917,"lon":5.36838,"is_reserved":false,"is_disabled":false,"rental_uris":{"android":"levelo://app?vid=311dacea-41a9-4021-a255-f464bdda30e9","ios":"levelo://app?vid=311dacea-41a9-4021-a255-f464bdda30e9"},"vehicle_type_id":"4","last_reported":1740172099,"current_range_meters":16800,"station_id":"ce4bgn92rcd13ifvqbvg","pricing_plan_id":"cebpf4jnsgd1na2vs0mg"},{"bike_id":"d11be0c5-7c44-446b-87dc-96d0fa4aded0","system_id":"levelo_inurba_marseille","lat":43.27994,"lon":5.40015,"is_reserved":false,"is_disabled":false,"rental_uris":{"android":"levelo://app?vid=d11be0c5-7c44-446b-87dc-96d0fa4aded0","ios":"levelo://app?vid=d11be0c5-7c44-446b-87dc-96d0fa4aded0"},"vehicle_type_id":"4","last_reported":1740172099,"current_range_meters":17200,"station_id":"ce4bho92rcd13ifvqh4g","pricing_plan_id":"cebpf4jnsgd1na2vs0mg"},{"bike_id":"27cbce87-2b11-4fcc-92b4-f87cefd91d7a","system_id":"levelo_inurba_marseille","lat":43.29414,"lon":5.38639,"is_reserved":false,"is_disabled":false,"rental_uris":{"android":"levelo://app?vid=27cbce87-2b11-4fcc-92b4-f87cefd91d7a","ios":"levelo://app?vid=27cbce87-2b11-4fcc-92b4-f87cefd91d7a"},"vehicle_type_id":"4","last_reported":1740172099,"current_range_meters":17200,"station_id":"ce4bh2h2rcd13ifvqdh0","pricing_plan_id":"cebpf4jnsgd1na2vs0mg"},{"bike_id":"afdcffa7-5de8-4ebf-a9c6-a2df44b92a6d","system_id":"levelo_inurba_marseille","lat":43.30196,"lon":5.36629,"is_reserved":false,"is_disabled":false,"rental_uris":{"android":"levelo://app?vid=afdcffa7-5de8-4ebf-a9c6-a2df44b92a6d","ios":"levelo://app?vid=afdcffa7-5de8-4ebf-a9c6-a2df44b92a6d"},"vehicle_type_id":"4","last_reported":1740172099,"current_range_meters":17200,"station_id":"ce4bgrh2rcd13ifvqc8g","pricing_plan_id":"cebpf4jnsgd1na2vs0mg"},{"bike_id":"ce5f586c-8096-48a5-8143-bce662e5979a","system_id":"levelo_inurba_marseille","lat":43.2926,"lon":5.38433,"is_reserved":false,"is_disabled":false,"rental_uris":{"android":"levelo://app?vid=ce5f586c-8096-48a5-8143-bce662e5979a","ios":"levelo://app?vid=ce5f586c-8096-48a5-8143-bce662e5979a"},"vehicle_type_id":"4","last_reported":1740172099,"current_range_meters":17200,"station_id":"ce4bh692rcd13ifvqea0","pricing_plan_id":"cebpf4jnsgd1na2vs0mg"},{"bike_id":"dc1fce77-a765-4398-991f-f895da3f81f0","system_id":"levelo_inurba_marseille","lat":43.31119,"lon":5.37759,"is_reserved":false,"is_disabled":true,"rental_uris":{"android":"levelo://app?vid=dc1fce77-a765-4398-991f-f895da3f81f0","ios":"levelo://app?vid=dc1fce77-a765-4398-991f-f895da3f81f0"},"vehicle_type_id":"4","last_reported":1740172099,"current_range_meters":17600,"station_id":"ce4bgt92rcd13ifvqcg0","pricing_plan_id":"cebpf4jnsgd1na2vs0mg"},{"bike_id":"467a0ac7-872c-4bb6-8ee3-3c6f458a51d9","system_id":"levelo_inurba_marseille","lat":43.27906,"lon":5.41227,"is_reserved":false,"is_disabled":false,"rental_uris":{"android":"levelo://app?vid=467a0ac7-872c-4bb6-8ee3-3c6f458a51d9","ios":"levelo://app?vid=467a0ac7-872c-4bb6-8ee3-3c6f458a51d9"},"vehicle_type_id":"4","last_reported":1740172099,"current_range_meters":17600,"station_id":"","pricing_plan_id":"cebpf4jnsgd1na2vs0mg"},{"bike_id":"af6517b5-8e86-4356-ae57-fbef39282085","system_id":"levelo_inurba_marseille","lat":43.313617,"lon":5.3849,"is_reserved":false,"is_disabled":false,"rental_uris":{"android":"levelo://app?vid=af6517b5-8e86-4356-ae57-fbef39282085","ios":"levelo://app?vid=af6517b5-8e86-4356-ae57-fbef39282085"},"vehicle_type_id":"4","last_reported":1740172099,"current_range_meters":17600,"station_id":"ce4bgt92rcd13ifvqcf0","pricing_plan_id":"cebpf4jnsgd1na2vs0mg"},{"bike_id":"d5566d2e-78e8-488f-b3e7-c9c338cd491f","system_id":"levelo_inurba_marseille","lat":43.27487,"lon":5.42468,"is_reserved":false,"is_disabled":false,"rental_uris":{"android":"levelo://app?vid=d5566d2e-78e8-488f-b3e7-c9c338cd491f","ios":"levelo://app?vid=d5566d2e-78e8-488f-b3e7-c9c338cd491f"},"vehicle_type_id":"4","last_reported":1740172099,"current_range_meters":17600,"station_id":"ce4bhn92rcd13ifvqgrg","pricing_plan_id":"cebpf4jnsgd1na2vs0mg"},{"bike_id":"fbb2bad0-99e6-4736-9de6-ac42bd2be903","system_id":"levelo_inurba_marseille","lat":43.29187,"lon":5.39349,"is_reserved":false,"is_disabled":false,"rental_uris":{"android":"levelo://app?vid=fbb2bad0-99e6-4736-9de6-ac42bd2be903","ios":"levelo://app?vid=fbb2bad0-99e6-4736-9de6-ac42bd2be903"},"vehicle_type_id":"4","last_reported":1740172099,"current_range_meters":17600,"station_id":"ce4bh192rcd13ifvqdd0","pricing_plan_id":"cebpf4jnsgd1na2vs0mg"},{"bike_id":"005e5eb8-39b1-40fe-bf10-36f6bd3cba88","system_id":"levelo_inurba_marseille","lat":43.28359,"lon":5.38638,"is_reserved":false,"is_disabled":false,"rental_uris":{"android":"levelo://app?vid=005e5eb8-39b1-40fe-bf10-36f6bd3cba88","ios":"levelo://app?vid=005e5eb8-39b1-40fe-bf10-36f6bd3cba88"},"vehicle_type_id":"4","last_reported":1740172099,"current_range_meters":17600,"station_id":"ce4bh492rcd13ifvqdvg","pricing_plan_id":"cebpf4jnsgd1na2vs0mg"},{"bike_id":"273c6419-dee4-4627-9d53-0902edadbc9c","system_id":"levelo_inurba_marseille","lat":43.2791,"lon":5.39578,"is_reserved":false,"is_disabled":false,"rental_uris":{"android":"levelo://app?vid=273c6419-dee4-4627-9d53-0902edadbc9c","ios":"levelo://app?vid=273c6419-dee4-4627-9d53-0902edadbc9c"},"vehicle_type_id":"4","last_reported":1740172099,"current_range_meters":17600,"station_id":"ce4bhf92rcd13ifvqf40","pricing_plan_id":"cebpf4jnsgd1na2vs0mg"},{"bike_id":"dab960d9-1ede-46dd-ade3-a5360c9021cf","system_id":"levelo_inurba_marseille","lat":43.231947,"lon":5.355535,"is_reserved":false,"is_disabled":false,"rental_uris":{"android":"levelo://app?vid=dab960d9-1ede-46dd-ade3-a5360c9021cf","ios":"levelo://app?vid=dab960d9-1ede-46dd-ade3-a5360c9021cf"},"vehicle_type_id":"4","last_reported":1740172099,"current_range_meters":17600,"station_id":"ce4bhu92rcd13ifvqi70","pricing_plan_id":"cebpf4jnsgd1na2vs0mg"},{"bike_id":"9cb40c2b-3bf9-4323-8cac-afb3a11c6df5","system_id":"levelo_inurba_marseille","lat":43.3033,"lon":5.4044,"is_reserved":false,"is_disabled":false,"rental_uris":{"android":"levelo://app?vid=9cb40c2b-3bf9-4323-8cac-afb3a11c6df5","ios":"levelo://app?vid=9cb40c2b-3bf9-4323-8cac-afb3a11c6df5"},"vehicle_type_id":"4","last_reported":1740172099,"current_range_meters":17600,"station_id":"ce4bh012rcd13ifvqd10","pricing_plan_id":"cebpf4jnsgd1na2vs0mg"},{"bike_id":"a064b6c0-f0cd-4526-a12c-21a2fd0486aa","system_id":"levelo_inurba_marseille","lat":43.29558,"lon":5.38556,"is_reserved":false,"is_disabled":false,"rental_uris":{"android":"levelo://app?vid=a064b6c0-f0cd-4526-a12c-21a2fd0486aa","ios":"levelo://app?vid=a064b6c0-f0cd-4526-a12c-21a2fd0486aa"},"vehicle_type_id":"4","last_reported":1740172099,"current_range_meters":17600,"station_id":"ce4bgih2rcd13ifvqba0","pricing_plan_id":"cebpf4jnsgd1na2vs0mg"},{"bike_id":"eb354cf3-daf0-4f07-9e6f-1eb2682396af","system_id":"levelo_inurba_marseille","lat":43.27995,"lon":5.40034,"is_reserved":false,"is_disabled":false,"rental_uris":{"android":"levelo://app?vid=eb354cf3-daf0-4f07-9e6f-1eb2682396af","ios":"levelo://app?vid=eb354cf3-daf0-4f07-9e6f-1eb2682396af"},"vehicle_type_id":"4","last_reported":1740172099,"current_range_meters":17600,"station_id":"ce4bho92rcd13ifvqh4g","pricing_plan_id":"cebpf4jnsgd1na2vs0mg"},{"bike_id":"96b9f7c0-cd3c-40d1-bc41-8a82bed04cc8","system_id":"levelo_inurba_marseille","lat":43.29283,"lon":5.36814,"is_reserved":false,"is_disabled":true,"rental_uris":{"android":"levelo://app?vid=96b9f7c0-cd3c-40d1-bc41-8a82bed04cc8","ios":"levelo://app?vid=96b9f7c0-cd3c-40d1-bc41-8a82bed04cc8"},"vehicle_type_id":"4","last_reported":1740172099,"current_range_meters":17600,"station_id":"ce4bhbp2rcd13ifvqesg","pricing_plan_id":"cebpf4jnsgd1na2vs0mg"},{"bike_id":"a9a1f911-b44c-4934-b9bf-76ded3aa2ced","system_id":"levelo_inurba_marseille","lat":43.28104,"lon":5.3785,"is_reserved":false,"is_disabled":false,"rental_uris":{"android":"levelo://app?vid=a9a1f911-b44c-4934-b9bf-76ded3aa2ced","ios":"levelo://app?vid=a9a1f911-b44c-4934-b9bf-76ded3aa2ced"},"vehicle_type_id":"4","last_reported":1740172099,"current_range_meters":17600,"station_id":"ce4bha12rcd13ifvqee0","pricing_plan_id":"cebpf4jnsgd1na2vs0mg"},{"bike_id":"1f7411cd-9379-4bab-a8bc-411b928d8602","system_id":"levelo_inurba_marseille","lat":43.27507,"lon":5.42428,"is_reserved":false,"is_disabled":false,"rental_uris":{"android":"levelo://app?vid=1f7411cd-9379-4bab-a8bc-411b928d8602","ios":"levelo://app?vid=1f7411cd-9379-4bab-a8bc-411b928d8602"},"vehicle_type_id":"4","last_reported":1740172099,"current_range_meters":18000,"station_id":"ce4bhn92rcd13ifvqgrg","pricing_plan_id":"cebpf4jnsgd1na2vs0mg"},{"bike_id":"034bb1f3-c55a-44cd-bfd3-1861424b1cf4","system_id":"levelo_inurba_marseille","lat":43.29568,"lon":5.38551,"is_reserved":false,"is_disabled":false,"rental_uris":{"android":"levelo://app?vid=034bb1f3-c55a-44cd-bfd3-1861424b1cf4","ios":"levelo://app?vid=034bb1f3-c55a-44cd-bfd3-1861424b1cf4"},"vehicle_type_id":"4","last_reported":1740172099,"current_range_meters":18000,"station_id":"ce4bgih2rcd13ifvqba0","pricing_plan_id":"cebpf4jnsgd1na2vs0mg"},{"bike_id":"22e61c3e-becc-4fed-b153-4be95fb2bd0f","system_id":"levelo_inurba_marseille","lat":43.28426,"lon":5.35003,"is_reserved":false,"is_disabled":false,"rental_uris":{"android":"levelo://app?vid=22e61c3e-becc-4fed-b153-4be95fb2bd0f","ios":"levelo://app?vid=22e61c3e-becc-4fed-b153-4be95fb2bd0f"},"vehicle_type_id":"4","last_reported":1740172099,"current_range_meters":18000,"station_id":"ce4bhbh2rcd13ifvqepg","pricing_plan_id":"cebpf4jnsgd1na2vs0mg"},{"bike_id":"6897935d-90c4-4aaa-81bd-a334d1112cb3","system_id":"levelo_inurba_marseille","lat":43.24681,"lon":5.3817,"is_reserved":false,"is_disabled":false,"rental_uris":{"android":"levelo://app?vid=6897935d-90c4-4aaa-81bd-a334d1112cb3","ios":"levelo://app?vid=6897935d-90c4-4aaa-81bd-a334d1112cb3"},"vehicle_type_id":"4","last_reported":1740172099,"current_range_meters":18000,"station_id":"ce4bhih2rcd13ifvqfr0","pricing_plan_id":"cebpf4jnsgd1na2vs0mg"},{"bike_id":"6a8b1bfa-a1fe-446a-b9c7-1745ca0074a2","system_id":"levelo_inurba_marseille","lat":43.29227,"lon":5.38438,"is_reserved":false,"is_disabled":false,"rental_uris":{"android":"levelo://app?vid=6a8b1bfa-a1fe-446a-b9c7-1745ca0074a2","ios":"levelo://app?vid=6a8b1bfa-a1fe-446a-b9c7-1745ca0074a2"},"vehicle_type_id":"4","last_reported":1740172099,"current_range_meters":18000,"station_id":"ce4bh692rcd13ifvqea0","pricing_plan_id":"cebpf4jnsgd1na2vs0mg"},{"bike_id":"8b52c24a-60e9-4f95-8f6d-a404db75239c","system_id":"levelo_inurba_marseille","lat":43.27384,"lon":5.36252,"is_reserved":false,"is_disabled":false,"rental_uris":{"android":"levelo://app?vid=8b52c24a-60e9-4f95-8f6d-a404db75239c","ios":"levelo://app?vid=8b52c24a-60e9-4f95-8f6d-a404db75239c"},"vehicle_type_id":"4","last_reported":1740172099,"current_range_meters":18000,"station_id":"ce4bhbh2rcd13ifvqeo0","pricing_plan_id":"cebpf4jnsgd1na2vs0mg"},{"bike_id":"f75b7c43-b1e9-419b-9e88-97af31d30220","system_id":"levelo_inurba_marseille","lat":43.24001,"lon":5.36641,"is_reserved":false,"is_disabled":false,"rental_uris":{"android":"levelo://app?vid=f75b7c43-b1e9-419b-9e88-97af31d30220","ios":"levelo://app?vid=f75b7c43-b1e9-419b-9e88-97af31d30220"},"vehicle_type_id":"4","last_reported":1740172099,"current_range_meters":18000,"station_id":"ce4bhi12rcd13ifvqfp0","pricing_plan_id":"cebpf4jnsgd1na2vs0mg"},{"bike_id":"b6fd572c-83f0-4ec2-a4a8-936f62e444c3","system_id":"levelo_inurba_marseille","lat":43.29806,"lon":5.38082,"is_reserved":false,"is_disabled":false,"rental_uris":{"android":"levelo://app?vid=b6fd572c-83f0-4ec2-a4a8-936f62e444c3","ios":"levelo://app?vid=b6fd572c-83f0-4ec2-a4a8-936f62e444c3"},"vehicle_type_id":"4","last_reported":1740172099,"current_range_meters":18000,"station_id":"ce4bgip2rcd13ifvqbb0","pricing_plan_id":"cebpf4jnsgd1na2vs0mg"},{"bike_id":"e6cfb0d6-7cd6-4b22-a81c-eab7b4fbcac7","system_id":"levelo_inurba_marseille","lat":43.28679,"lon":5.38671,"is_reserved":false,"is_disabled":false,"rental_uris":{"android":"levelo://app?vid=e6cfb0d6-7cd6-4b22-a81c-eab7b4fbcac7","ios":"levelo://app?vid=e6cfb0d6-7cd6-4b22-a81c-eab7b4fbcac7"},"vehicle_type_id":"4","last_reported":1740172099,"current_range_meters":18000,"station_id":"ce4bh492rcd13ifvqdug","pricing_plan_id":"cebpf4jnsgd1na2vs0mg"},{"bike_id":"1b243a8a-8cb1-4424-af2d-e396cb191805","system_id":"levelo_inurba_marseille","lat":43.29421,"lon":5.38619,"is_reserved":false,"is_disabled":false,"rental_uris":{"android":"levelo://app?vid=1b243a8a-8cb1-4424-af2d-e396cb191805","ios":"levelo://app?vid=1b243a8a-8cb1-4424-af2d-e396cb191805"},"vehicle_type_id":"4","last_reported":1740172099,"current_range_meters":18000,"station_id":"ce4bh2h2rcd13ifvqdh0","pricing_plan_id":"cebpf4jnsgd1na2vs0mg"},{"bike_id":"ff49b8bb-82c8-4782-bb98-ae74ae771eef","system_id":"levelo_inurba_marseille","lat":43.29588,"lon":5.3811,"is_reserved":false,"is_disabled":false,"rental_uris":{"android":"levelo://app?vid=ff49b8bb-82c8-4782-bb98-ae74ae771eef","ios":"levelo://app?vid=ff49b8bb-82c8-4782-bb98-ae74ae771eef"},"vehicle_type_id":"4","last_reported":1740172099,"current_range_meters":18000,"station_id":"ce4bgl12rcd13ifvqbo0","pricing_plan_id":"cebpf4jnsgd1na2vs0mg"},{"bike_id":"6171c7fc-2f00-4981-afb4-d8d6db9c37a7","system_id":"levelo_inurba_marseille","lat":43.30799,"lon":5.38119,"is_reserved":false,"is_disabled":true,"rental_uris":{"android":"levelo://app?vid=6171c7fc-2f00-4981-afb4-d8d6db9c37a7","ios":"levelo://app?vid=6171c7fc-2f00-4981-afb4-d8d6db9c37a7"},"vehicle_type_id":"4","last_reported":1740172099,"current_range_meters":18800,"station_id":"ce4bgt12rcd13ifvqce0","pricing_plan_id":"cebpf4jnsgd1na2vs0mg"},{"bike_id":"b66add50-3fef-45a2-9fd5-23bfa438a1d7","system_id":"levelo_inurba_marseille","lat":43.2954,"lon":5.38545,"is_reserved":false,"is_disabled":false,"rental_uris":{"android":"levelo://app?vid=b66add50-3fef-45a2-9fd5-23bfa438a1d7","ios":"levelo://app?vid=b66add50-3fef-45a2-9fd5-23bfa438a1d7"},"vehicle_type_id":"4","last_reported":1740172099,"current_range_meters":18800,"station_id":"ce4bgih2rcd13ifvqba0","pricing_plan_id":"cebpf4jnsgd1na2vs0mg"},{"bike_id":"8c20ab15-f04e-4e58-be71-0abf1d05d250","system_id":"levelo_inurba_marseille","lat":43.23965,"lon":5.36643,"is_reserved":false,"is_disabled":false,"rental_uris":{"android":"levelo://app?vid=8c20ab15-f04e-4e58-be71-0abf1d05d250","ios":"levelo://app?vid=8c20ab15-f04e-4e58-be71-0abf1d05d250"},"vehicle_type_id":"4","last_reported":1740172099,"current_range_meters":18800,"station_id":"ce4bhi12rcd13ifvqfp0","pricing_plan_id":"cebpf4jnsgd1na2vs0mg"},{"bike_id":"3b0fa116-7401-419b-bb63-9322bb961354","system_id":"levelo_inurba_marseille","lat":43.30135,"lon":5.39858,"is_reserved":false,"is_disabled":false,"rental_uris":{"android":"levelo://app?vid=3b0fa116-7401-419b-bb63-9322bb961354","ios":"levelo://app?vid=3b0fa116-7401-419b-bb63-9322bb961354"},"vehicle_type_id":"4","last_reported":1740172099,"current_range_meters":18800,"station_id":"ce4bh0h2rcd13ifvqd40","pricing_plan_id":"cebpf4jnsgd1na2vs0mg"},{"bike_id":"2c3682c1-aab7-4959-9566-bee38b634de2","system_id":"levelo_inurba_marseille","lat":43.29387,"lon":5.38622,"is_reserved":false,"is_disabled":false,"rental_uris":{"android":"levelo://app?vid=2c3682c1-aab7-4959-9566-bee38b634de2","ios":"levelo://app?vid=2c3682c1-aab7-4959-9566-bee38b634de2"},"vehicle_type_id":"4","last_reported":1740172099,"current_range_meters":18800,"station_id":"ce4bh2h2rcd13ifvqdh0","pricing_plan_id":"cebpf4jnsgd1na2vs0mg"},{"bike_id":"38f9bc40-639e-4f64-87e9-15092cc7344e","system_id":"levelo_inurba_marseille","lat":43.34403,"lon":5.38162,"is_reserved":false,"is_disabled":false,"rental_uris":{"android":"levelo://app?vid=38f9bc40-639e-4f64-87e9-15092cc7344e","ios":"levelo://app?vid=38f9bc40-639e-4f64-87e9-15092cc7344e"},"vehicle_type_id":"4","last_reported":1740172099,"current_range_meters":18800,"station_id":"","pricing_plan_id":"cebpf4jnsgd1na2vs0mg"},{"bike_id":"e1806998-26ad-4692-ae75-0a4efe3d228f","system_id":"levelo_inurba_marseille","lat":43.28447,"lon":5.39205,"is_reserved":false,"is_disabled":false,"rental_uris":{"android":"levelo://app?vid=e1806998-26ad-4692-ae75-0a4efe3d228f","ios":"levelo://app?vid=e1806998-26ad-4692-ae75-0a4efe3d228f"},"vehicle_type_id":"4","last_reported":1740172099,"current_range_meters":18800,"station_id":"ce4bhoh2rcd13ifvqh5g","pricing_plan_id":"cebpf4jnsgd1na2vs0mg"},{"bike_id":"ab46b189-6bae-4129-a7fd-10b3ccd5a48e","system_id":"levelo_inurba_marseille","lat":43.27177,"lon":5.39944,"is_reserved":false,"is_disabled":false,"rental_uris":{"android":"levelo://app?vid=ab46b189-6bae-4129-a7fd-10b3ccd5a48e","ios":"levelo://app?vid=ab46b189-6bae-4129-a7fd-10b3ccd5a48e"},"vehicle_type_id":"4","last_reported":1740172099,"current_range_meters":18800,"station_id":"","pricing_plan_id":"cebpf4jnsgd1na2vs0mg"},{"bike_id":"9591b364-76c0-4f30-936b-198d6c81d632","system_id":"levelo_inurba_marseille","lat":43.29272,"lon":5.38448,"is_reserved":false,"is_disabled":false,"rental_uris":{"android":"levelo://app?vid=9591b364-76c0-4f30-936b-198d6c81d632","ios":"levelo://app?vid=9591b364-76c0-4f30-936b-198d6c81d632"},"vehicle_type_id":"4","last_reported":1740172099,"current_range_meters":18800,"station_id":"ce4bh692rcd13ifvqea0","pricing_plan_id":"cebpf4jnsgd1na2vs0mg"},{"bike_id":"06e8e7b4-70b9-467a-9725-9e3af8767f95","system_id":"levelo_inurba_marseille","lat":43.28634,"lon":5.3507,"is_reserved":false,"is_disabled":false,"rental_uris":{"android":"levelo://app?vid=06e8e7b4-70b9-467a-9725-9e3af8767f95","ios":"levelo://app?vid=06e8e7b4-70b9-467a-9725-9e3af8767f95"},"vehicle_type_id":"4","last_reported":1740172099,"current_range_meters":18800,"station_id":"ce4bhch2rcd13ifvqeug","pricing_plan_id":"cebpf4jnsgd1na2vs0mg"},{"bike_id":"8e403f8a-b998-4fb1-bb90-54bf70e024a5","system_id":"levelo_inurba_marseille","lat":43.26933,"lon":5.38909,"is_reserved":false,"is_disabled":false,"rental_uris":{"android":"levelo://app?vid=8e403f8a-b998-4fb1-bb90-54bf70e024a5","ios":"levelo://app?vid=8e403f8a-b998-4fb1-bb90-54bf70e024a5"},"vehicle_type_id":"4","last_reported":1740172099,"current_range_meters":18800,"station_id":"ce4bhhh2rcd13ifvqfl0","pricing_plan_id":"cebpf4jnsgd1na2vs0mg"},{"bike_id":"f5298310-14cd-4aed-bc3f-841e7d37dcf5","system_id":"levelo_inurba_marseille","lat":43.32697,"lon":5.41009,"is_reserved":false,"is_disabled":true,"rental_uris":{"android":"levelo://app?vid=f5298310-14cd-4aed-bc3f-841e7d37dcf5","ios":"levelo://app?vid=f5298310-14cd-4aed-bc3f-841e7d37dcf5"},"vehicle_type_id":"4","last_reported":1740172099,"current_range_meters":18800,"station_id":"ce4bhpp2rcd13ifvqhgg","pricing_plan_id":"cebpf4jnsgd1na2vs0mg"},{"bike_id":"78aa47e2-a7fa-44ca-94a7-c65c375b91d7","system_id":"levelo_inurba_marseille","lat":43.24822,"lon":5.37437,"is_reserved":false,"is_disabled":false,"rental_uris":{"android":"levelo://app?vid=78aa47e2-a7fa-44ca-94a7-c65c375b91d7","ios":"levelo://app?vid=78aa47e2-a7fa-44ca-94a7-c65c375b91d7"},"vehicle_type_id":"4","last_reported":1740172099,"current_range_meters":19200,"station_id":"ce4bhgh2rcd13ifvqfb0","pricing_plan_id":"cebpf4jnsgd1na2vs0mg"},{"bike_id":"5b480cc3-4d68-49c0-a9df-95966150c84b","system_id":"levelo_inurba_marseille","lat":43.28098,"lon":5.37858,"is_reserved":false,"is_disabled":false,"rental_uris":{"android":"levelo://app?vid=5b480cc3-4d68-49c0-a9df-95966150c84b","ios":"levelo://app?vid=5b480cc3-4d68-49c0-a9df-95966150c84b"},"vehicle_type_id":"4","last_reported":1740172099,"current_range_meters":18800,"station_id":"ce4bha12rcd13ifvqee0","pricing_plan_id":"cebpf4jnsgd1na2vs0mg"},{"bike_id":"725861b6-aaa7-4c06-b816-d197237ddf32","system_id":"levelo_inurba_marseille","lat":43.28722,"lon":5.37943,"is_reserved":false,"is_disabled":false,"rental_uris":{"android":"levelo://app?vid=725861b6-aaa7-4c06-b816-d197237ddf32","ios":"levelo://app?vid=725861b6-aaa7-4c06-b816-d197237ddf32"},"vehicle_type_id":"4","last_reported":1740172099,"current_range_meters":19200,"station_id":"ce4bh9p2rcd13ifvqec0","pricing_plan_id":"cebpf4jnsgd1na2vs0mg"},{"bike_id":"7c253e7d-605e-475f-a576-f54a363fd234","system_id":"levelo_inurba_marseille","lat":43.31063,"lon":5.38346,"is_reserved":false,"is_disabled":false,"rental_uris":{"android":"levelo://app?vid=7c253e7d-605e-475f-a576-f54a363fd234","ios":"levelo://app?vid=7c253e7d-605e-475f-a576-f54a363fd234"},"vehicle_type_id":"4","last_reported":1740172099,"current_range_meters":19200,"station_id":"ce4bgv92rcd13ifvqcr0","pricing_plan_id":"cebpf4jnsgd1na2vs0mg"},{"bike_id":"253a7741-b4f8-4dd0-a9e0-3b6ff1fe17a6","system_id":"levelo_inurba_marseille","lat":43.25118,"lon":5.40373,"is_reserved":false,"is_disabled":false,"rental_uris":{"android":"levelo://app?vid=253a7741-b4f8-4dd0-a9e0-3b6ff1fe17a6","ios":"levelo://app?vid=253a7741-b4f8-4dd0-a9e0-3b6ff1fe17a6"},"vehicle_type_id":"4","last_reported":1740172099,"current_range_meters":19200,"station_id":"ce4bhlh2rcd13ifvqgig","pricing_plan_id":"cebpf4jnsgd1na2vs0mg"},{"bike_id":"2a64ed72-0e3e-45ec-b57c-54d438c55a7b","system_id":"levelo_inurba_marseille","lat":43.29263,"lon":5.38435,"is_reserved":false,"is_disabled":false,"rental_uris":{"android":"levelo://app?vid=2a64ed72-0e3e-45ec-b57c-54d438c55a7b","ios":"levelo://app?vid=2a64ed72-0e3e-45ec-b57c-54d438c55a7b"},"vehicle_type_id":"4","last_reported":1740172099,"current_range_meters":19200,"station_id":"ce4bh692rcd13ifvqea0","pricing_plan_id":"cebpf4jnsgd1na2vs0mg"},{"bike_id":"7b47da87-7f75-46b4-b6d5-10fa784e027f","system_id":"levelo_inurba_marseille","lat":43.28558,"lon":5.39512,"is_reserved":false,"is_disabled":false,"rental_uris":{"android":"levelo://app?vid=7b47da87-7f75-46b4-b6d5-10fa784e027f","ios":"levelo://app?vid=7b47da87-7f75-46b4-b6d5-10fa784e027f"},"vehicle_type_id":"4","last_reported":1740172099,"current_range_meters":19200,"station_id":"ce4bh292rcd13ifvqdg0","pricing_plan_id":"cebpf4jnsgd1na2vs0mg"},{"bike_id":"048c4891-a07f-4688-99c7-4e612d5a7b9a","system_id":"levelo_inurba_marseille","lat":43.3016,"lon":5.38782,"is_reserved":false,"is_disabled":false,"rental_uris":{"android":"levelo://app?vid=048c4891-a07f-4688-99c7-4e612d5a7b9a","ios":"levelo://app?vid=048c4891-a07f-4688-99c7-4e612d5a7b9a"},"vehicle_type_id":"4","last_reported":1740172099,"current_range_meters":19200,"station_id":"ce4bghh2rcd13ifvqb60","pricing_plan_id":"cebpf4jnsgd1na2vs0mg"},{"bike_id":"0349b597-7f92-4482-820a-aa609eb961e5","system_id":"levelo_inurba_marseille","lat":43.29263,"lon":5.40918,"is_reserved":false,"is_disabled":false,"rental_uris":{"android":"levelo://app?vid=0349b597-7f92-4482-820a-aa609eb961e5","ios":"levelo://app?vid=0349b597-7f92-4482-820a-aa609eb961e5"},"vehicle_type_id":"4","last_reported":1740172099,"current_range_meters":19200,"station_id":"ce4bh192rcd13ifvqdc0","pricing_plan_id":"cebpf4jnsgd1na2vs0mg"},{"bike_id":"3956cc44-fc75-4f94-89d5-9c133698b60d","system_id":"levelo_inurba_marseille","lat":43.30001,"lon":5.37186,"is_reserved":false,"is_disabled":true,"rental_uris":{"android":"levelo://app?vid=3956cc44-fc75-4f94-89d5-9c133698b60d","ios":"levelo://app?vid=3956cc44-fc75-4f94-89d5-9c133698b60d"},"vehicle_type_id":"4","last_reported":1740172099,"current_range_meters":19200,"station_id":"ce4bgr92rcd13ifvqc7g","pricing_plan_id":"cebpf4jnsgd1na2vs0mg"},{"bike_id":"e3d9d7ab-fe61-451b-8f88-24a2dfea43f4","system_id":"levelo_inurba_marseille","lat":43.29434,"lon":5.38582,"is_reserved":false,"is_disabled":false,"rental_uris":{"android":"levelo://app?vid=e3d9d7ab-fe61-451b-8f88-24a2dfea43f4","ios":"levelo://app?vid=e3d9d7ab-fe61-451b-8f88-24a2dfea43f4"},"vehicle_type_id":"4","last_reported":1740172099,"current_range_meters":19600,"station_id":"ce4bh2h2rcd13ifvqdh0","pricing_plan_id":"cebpf4jnsgd1na2vs0mg"},{"bike_id":"f11a121c-f824-44fa-af51-847cf3d79d3b","system_id":"levelo_inurba_marseille","lat":43.29424,"lon":5.38623,"is_reserved":false,"is_disabled":false,"rental_uris":{"android":"levelo://app?vid=f11a121c-f824-44fa-af51-847cf3d79d3b","ios":"levelo://app?vid=f11a121c-f824-44fa-af51-847cf3d79d3b"},"vehicle_type_id":"4","last_reported":1740172099,"current_range_meters":19600,"station_id":"ce4bh2h2rcd13ifvqdh0","pricing_plan_id":"cebpf4jnsgd1na2vs0mg"},{"bike_id":"2492220b-5861-4ccb-8f12-56729b876f72","system_id":"levelo_inurba_marseille","lat":43.27997,"lon":5.40022,"is_reserved":false,"is_disabled":false,"rental_uris":{"android":"levelo://app?vid=2492220b-5861-4ccb-8f12-56729b876f72","ios":"levelo://app?vid=2492220b-5861-4ccb-8f12-56729b876f72"},"vehicle_type_id":"4","last_reported":1740172099,"current_range_meters":19600,"station_id":"ce4bho92rcd13ifvqh4g","pricing_plan_id":"cebpf4jnsgd1na2vs0mg"},{"bike_id":"470b5e3a-5936-4b02-9090-daff7d4e8dfe","system_id":"levelo_inurba_marseille","lat":43.29423,"lon":5.38658,"is_reserved":false,"is_disabled":false,"rental_uris":{"android":"levelo://app?vid=470b5e3a-5936-4b02-9090-daff7d4e8dfe","ios":"levelo://app?vid=470b5e3a-5936-4b02-9090-daff7d4e8dfe"},"vehicle_type_id":"4","last_reported":1740172099,"current_range_meters":19600,"station_id":"ce4bh2h2rcd13ifvqdh0","pricing_plan_id":"cebpf4jnsgd1na2vs0mg"},{"bike_id":"50fd9d86-f686-48f7-aa5a-73e5c1a9b3d9","system_id":"levelo_inurba_marseille","lat":43.293553,"lon":5.374038,"is_reserved":false,"is_disabled":false,"rental_uris":{"android":"levelo://app?vid=50fd9d86-f686-48f7-aa5a-73e5c1a9b3d9","ios":"levelo://app?vid=50fd9d86-f686-48f7-aa5a-73e5c1a9b3d9"},"vehicle_type_id":"4","last_reported":1740172099,"current_range_meters":19600,"station_id":"ce4bgh92rcd13ifvqb50","pricing_plan_id":"cebpf4jnsgd1na2vs0mg"},{"bike_id":"105ea8ad-0d16-4875-9fde-e085311250f4","system_id":"levelo_inurba_marseille","lat":43.23192,"lon":5.35554,"is_reserved":false,"is_disabled":false,"rental_uris":{"android":"levelo://app?vid=105ea8ad-0d16-4875-9fde-e085311250f4","ios":"levelo://app?vid=105ea8ad-0d16-4875-9fde-e085311250f4"},"vehicle_type_id":"4","last_reported":1740172099,"current_range_meters":19600,"station_id":"ce4bhu92rcd13ifvqi70","pricing_plan_id":"cebpf4jnsgd1na2vs0mg"},{"bike_id":"96f698fc-49f5-4636-b6dc-07ace91a44b8","system_id":"levelo_inurba_marseille","lat":43.24679,"lon":5.38187,"is_reserved":false,"is_disabled":false,"rental_uris":{"android":"levelo://app?vid=96f698fc-49f5-4636-b6dc-07ace91a44b8","ios":"levelo://app?vid=96f698fc-49f5-4636-b6dc-07ace91a44b8"},"vehicle_type_id":"4","last_reported":1740172099,"current_range_meters":19600,"station_id":"ce4bhih2rcd13ifvqfr0","pricing_plan_id":"cebpf4jnsgd1na2vs0mg"},{"bike_id":"fcb4de08-c373-4c5d-a0d2-88032e74db12","system_id":"levelo_inurba_marseille","lat":43.25867,"lon":5.39894,"is_reserved":false,"is_disabled":false,"rental_uris":{"android":"levelo://app?vid=fcb4de08-c373-4c5d-a0d2-88032e74db12","ios":"levelo://app?vid=fcb4de08-c373-4c5d-a0d2-88032e74db12"},"vehicle_type_id":"4","last_reported":1740172099,"current_range_meters":20000,"station_id":"ce4bhl92rcd13ifvqghg","pricing_plan_id":"cebpf4jnsgd1na2vs0mg"},{"bike_id":"e86e9def-85c3-4d1b-8c66-4511177d388c","system_id":"levelo_inurba_marseille","lat":43.28556,"lon":5.39496,"is_reserved":false,"is_disabled":false,"rental_uris":{"android":"levelo://app?vid=e86e9def-85c3-4d1b-8c66-4511177d388c","ios":"levelo://app?vid=e86e9def-85c3-4d1b-8c66-4511177d388c"},"vehicle_type_id":"4","last_reported":1740172099,"current_range_meters":19600,"station_id":"ce4bh292rcd13ifvqdg0","pricing_plan_id":"cebpf4jnsgd1na2vs0mg"},{"bike_id":"d627e1d1-b30a-47c1-966b-4b3cb6397049","system_id":"levelo_inurba_marseille","lat":43.28143,"lon":5.42656,"is_reserved":false,"is_disabled":false,"rental_uris":{"android":"levelo://app?vid=d627e1d1-b30a-47c1-966b-4b3cb6397049","ios":"levelo://app?vid=d627e1d1-b30a-47c1-966b-4b3cb6397049"},"vehicle_type_id":"4","last_reported":1740172099,"current_range_meters":19600,"station_id":"ce4bhnh2rcd13ifvqgug","pricing_plan_id":"cebpf4jnsgd1na2vs0mg"},{"bike_id":"c4048145-e365-467d-84d7-85e391fc69e0","system_id":"levelo_inurba_marseille","lat":43.28484,"lon":5.38418,"is_reserved":false,"is_disabled":false,"rental_uris":{"android":"levelo://app?vid=c4048145-e365-467d-84d7-85e391fc69e0","ios":"levelo://app?vid=c4048145-e365-467d-84d7-85e391fc69e0"},"vehicle_type_id":"4","last_reported":1740172099,"current_range_meters":19600,"station_id":"ce4bh512rcd13ifvqe3g","pricing_plan_id":"cebpf4jnsgd1na2vs0mg"},{"bike_id":"255e786b-2ebd-409e-8a12-689a91c60eaf","system_id":"levelo_inurba_marseille","lat":43.28755,"lon":5.38058,"is_reserved":false,"is_disabled":false,"rental_uris":{"android":"levelo://app?vid=255e786b-2ebd-409e-8a12-689a91c60eaf","ios":"levelo://app?vid=255e786b-2ebd-409e-8a12-689a91c60eaf"},"vehicle_type_id":"4","last_reported":1740172099,"current_range_meters":19600,"station_id":"ce4bh9p2rcd13ifvqec0","pricing_plan_id":"cebpf4jnsgd1na2vs0mg"},