{"last_updated":1703009225,"ttl":30,"version":"2.2","data":{"bikes":[{"bike_id":"e8287696-d021-480f-9e34-fa1d516d9568","system_id":"levelo_inurba_marseille","lat":43.312239,"lon":5.368562,"is_reserved":false,"is_disabled":false,"rental_uris":{"android":"levelo://app?vid=e8287696-d021-480f-9e34-fa1d516d9568","ios":"levelo://app?vid=e8287696-d021-480f-9e34-fa1d516d9568"},"vehicle_type_id":"4","last_reported":1703009226,"current_range_meters":1200,"station_id":"ce4bgl92rcd13ifvqbq0","pricing_plan_id":"free"},{"bike_id":"31fac8b5-54e2-4b90-ac33-07c2957ada44","system_id":"levelo_inurba_marseille","lat":43.314811,"lon":5.373103,"is_reserved":false,"is_disabled":false,"rental_uris":{"android":"levelo://app?vid=31fac8b5-54e2-4b90-ac33-07c2957ada44","ios":"levelo://app?vid=31fac8b5-54e2-4b90-ac33-07c2957ada44"},"vehicle_type_id":"4","last_reported":1703009226,"current_range_meters":8000,"station_id":"ce4bgt12rcd13ifvqcd0","pricing_plan_id":"free"},{"bike_id":"e6b3a34b-d61f-4b31-b456-01125f7591b5","system_id":"levelo_inurba_marseille","lat":43.314811,"lon":5.373104,"is_reserved":false,"is_disabled":false,"rental_uris":{"android":"levelo://app?vid=e6b3a34b-d61f-4b31-b456-01125f7591b5","ios":"levelo://app?vid=e6b3a34b-d61f-4b31-b456-01125f7591b5"},"vehicle_type_id":"4","last_reported":1703009226,"current_range_meters":30800,"station_id":"ce4bgt12rcd13ifvqcd0","pricing_plan_id":"free"},{"bike_id":"689b47ff-ab37-4379-9bcd-4f974309a159","system_id":"levelo_inurba_marseille","lat":43.314811,"lon":5.373103,"is_reserved":false,"is_disabled":false,"rental_uris":{"android":"levelo://app?vid=689b47ff-ab37-4379-9bcd-4f974309a159","ios":"levelo://app?vid=689b47ff-ab37-4379-9bcd-4f974309a159"},"vehicle_type_id":"4","last_reported":1703009226,"current_range_meters":20400,"station_id":"ce4bgt12rcd13ifvqcd0","pricing_plan_id":"free"},{"bike_id":"d51100cd-ce6d-4dba-9063-4850b3b07eb0","system_id":"levelo_inurba_marseille","lat":43.314811,"lon":5.373103,"is_reserved":false,"is_disabled":false,"rental_uris":{"android":"levelo://app?vid=d51100cd-ce6d-4dba-9063-4850b3b07eb0","ios":"levelo://app?vid=d51100cd-ce6d-4dba-9063-4850b3b07eb0"},"vehicle_type_id":"4","last_reported":1703009226,"current_range_meters":22800,"station_id":"ce4bgt12rcd13ifvqcd0","pricing_plan_id":"free"},{"bike_id":"e6bc7571-26cb-49ac-8f41-2daab66f396d","system_id":"levelo_inurba_marseille","lat":43.305714,"lon":5.365633,"is_reserved":false,"is_disabled":false,"rental_uris":{"android":"levelo://app?vid=e6bc7571-26cb-49ac-8f41-2daab66f396d","ios":"levelo://app?vid=e6bc7571-26cb-49ac-8f41-2daab66f396d"},"vehicle_type_id":"4","last_reported":1703009226,"current_range_meters":13200,"station_id":"ce4bgs12rcd13ifvqcag","pricing_plan_id":"free"},{"bike_id":"4b847712-a6af-436d-bb71-0b6c13408dcb","system_id":"levelo_inurba_marseille","lat":43.305706,"lon":5.365654,"is_reserved":false,"is_disabled":false,"rental_uris":{"android":"levelo://app?vid=4b847712-a6af-436d-bb71-0b6c13408dcb","ios":"levelo://app?vid=4b847712-a6af-436d-bb71-0b6c13408dcb"},"vehicle_type_id":"4","last_reported":1703009226,"current_range_meters":12000,"station_id":"ce4bgs12rcd13ifvqcag","pricing_plan_id":"free"},{"bike_id":"92102a7e-f966-40a5-a489-2a6eb6562287","system_id":"levelo_inurba_marseille","lat":43.305989,"lon":5.37225,"is_reserved":false,"is_disabled":false,"rental_uris":{"android":"levelo://app?vid=92102a7e-f966-40a5-a489-2a6eb6562287","ios":"levelo://app?vid=92102a7e-f966-40a5-a489-2a6eb6562287"},"vehicle_type_id":"4","last_reported":1703009226,"current_range_meters":17600,"station_id":"ce4bgqh2rcd13ifvqc4g","pricing_plan_id":"free"},{"bike_id":"e833d702-0f22-419f-a5fa-710ced51c89c","system_id":"levelo_inurba_marseille","lat":43.311125,"lon":5.377624,"is_reserved":false,"is_disabled":false,"rental_uris":{"android":"levelo://app?vid=e833d702-0f22-419f-a5fa-710ced51c89c","ios":"levelo://app?vid=e833d702-0f22-419f-a5fa-710ced51c89c"},"vehicle_type_id":"4","last_reported":1703009226,"current_range_meters":5200,"station_id":"ce4bgt92rcd13ifvqcg0","pricing_plan_id":"free"},{"bike_id":"43656d1b-3b0e-45cc-b99a-2a1f1fa37f83","system_id":"levelo_inurba_marseille","lat":43.317075,"lon":5.377367,"is_reserved":false,"is_disabled":false,"rental_uris":{"android":"levelo://app?vid=43656d1b-3b0e-45cc-b99a-2a1f1fa37f83","ios":"levelo://app?vid=43656d1b-3b0e-45cc-b99a-2a1f1fa37f83"},"vehicle_type_id":"4","last_reported":1703009226,"current_range_meters":30000,"station_id":"ce4bgth2rcd13ifvqch0","pricing_plan_id":"free"},{"bike_id":"434ac7bc-c4ee-4178-8066-57cd65d9dfc7","system_id":"levelo_inurba_marseille","lat":43.31366,"lon":5.37972,"is_reserved":false,"is_disabled":false,"rental_uris":{"android":"levelo://app?vid=434ac7bc-c4ee-4178-8066-57cd65d9dfc7","ios":"levelo://app?vid=434ac7bc-c4ee-4178-8066-57cd65d9dfc7"},"vehicle_type_id":"4","last_reported":1703009226,"current_range_meters":2800,"station_id":"","pricing_plan_id":"free"},{"bike_id":"1d47b93b-fec2-43c7-b08d-ef8c42c093e5","system_id":"levelo_inurba_marseille","lat":43.319935,"lon":5.381699,"is_reserved":false,"is_disabled":false,"rental_uris":{"android":"levelo://app?vid=1d47b93b-fec2-43c7-b08d-ef8c42c093e5","ios":"levelo://app?vid=1d47b93b-fec2-43c7-b08d-ef8c42c093e5"},"vehicle_type_id":"4","last_reported":1703009226,"current_range_meters":24800,"station_id":"ce4bhr12rcd13ifvqhpg","pricing_plan_id":"free"},{"bike_id":"ff61b42d-58ff-4b73-913b-03f3caec66e0","system_id":"levelo_inurba_marseille","lat":43.319935,"lon":5.381699,"is_reserved":false,"is_disabled":false,"rental_uris":{"android":"levelo://app?vid=ff61b42d-58ff-4b73-913b-03f3caec66e0","ios":"levelo://app?vid=ff61b42d-58ff-4b73-913b-03f3caec66e0"},"vehicle_type_id":"4","last_reported":1703009226,"current_range_meters":26400,"station_id":"ce4bhr12rcd13ifvqhpg","pricing_plan_id":"free"},{"bike_id":"9ba98b26-e12e-48fb-a575-24e5c6bef54e","system_id":"levelo_inurba_marseille","lat":43.31367,"lon":5.38489,"is_reserved":false,"is_disabled":false,"rental_uris":{"android":"levelo://app?vid=9ba98b26-e12e-48fb-a575-24e5c6bef54e","ios":"levelo://app?vid=9ba98b26-e12e-48fb-a575-24e5c6bef54e"},"vehicle_type_id":"4","last_reported":1703009226,"current_range_meters":24800,"station_id":"ce4bgt92rcd13ifvqcf0","pricing_plan_id":"free"},{"bike_id":"b94bc742-e48d-40ea-9ed4-e39890955bc0","system_id":"levelo_inurba_marseille","lat":43.3135,"lon":5.38493,"is_reserved":false,"is_disabled":false,"rental_uris":{"android":"levelo://app?vid=b94bc742-e48d-40ea-9ed4-e39890955bc0","ios":"levelo://app?vid=b94bc742-e48d-40ea-9ed4-e39890955bc0"},"vehicle_type_id":"4","last_reported":1703009226,"current_range_meters":26400,"station_id":"ce4bgt92rcd13ifvqcf0","pricing_plan_id":"free"},{"bike_id":"6449f08c-0c05-42c8-9735-6a346b9ddb1a","system_id":"levelo_inurba_marseille","lat":43.31368,"lon":5.38493,"is_reserved":false,"is_disabled":false,"rental_uris":{"android":"levelo://app?vid=6449f08c-0c05-42c8-9735-6a346b9ddb1a","ios":"levelo://app?vid=6449f08c-0c05-42c8-9735-6a346b9ddb1a"},"vehicle_type_id":"4","last_reported":1703009226,"current_range_meters":22400,"station_id":"ce4bgt92rcd13ifvqcf0","pricing_plan_id":"free"},{"bike_id":"49e6fbff-48ad-4699-b140-c3ec3f3115ad","system_id":"levelo_inurba_marseille","lat":43.31362,"lon":5.38496,"is_reserved":false,"is_disabled":false,"rental_uris":{"android":"levelo://app?vid=49e6fbff-48ad-4699-b140-c3ec3f3115ad","ios":"levelo://app?vid=49e6fbff-48ad-4699-b140-c3ec3f3115ad"},"vehicle_type_id":"4","last_reported":1703009226,"current_range_meters":25600,"station_id":"ce4bgt92rcd13ifvqcf0","pricing_plan_id":"free"},{"bike_id":"8fae39fe-f351-4775-bf17-ce9800288018","system_id":"levelo_inurba_marseille","lat":43.31367,"lon":5.38496,"is_reserved":false,"is_disabled":false,"rental_uris":{"android":"levelo://app?vid=8fae39fe-f351-4775-bf17-ce9800288018","ios":"levelo://app?vid=8fae39fe-f351-4775-bf17-ce9800288018"},"vehicle_type_id":"4","last_reported":1703009226,"current_range_meters":31200,"station_id":"ce4bgt92rcd13ifvqcf0","pricing_plan_id":"free"},{"bike_id":"8fc63f90-e42f-45a5-8ef8-f3e9aca8ac5d","system_id":"levelo_inurba_marseille","lat":43.313571,"lon":5.384829,"is_reserved":false,"is_disabled":false,"rental_uris":{"android":"levelo://app?vid=8fc63f90-e42f-45a5-8ef8-f3e9aca8ac5d","ios":"levelo://app?vid=8fc63f90-e42f-45a5-8ef8-f3e9aca8ac5d"},"vehicle_type_id":"4","last_reported":1703009226,"current_range_meters":24800,"station_id":"ce4bgt92rcd13ifvqcf0","pricing_plan_id":"free"},{"bike_id":"9d72f84c-e239-4de9-a8d1-b1964ce4b190","system_id":"levelo_inurba_marseille","lat":43.31365,"lon":5.38497,"is_reserved":false,"is_disabled":false,"rental_uris":{"android":"levelo://app?vid=9d72f84c-e239-4de9-a8d1-b1964ce4b190","ios":"levelo://app?vid=9d72f84c-e239-4de9-a8d1-b1964ce4b190"},"vehicle_type_id":"4","last_reported":1703009226,"current_range_meters":29600,"station_id":"ce4bgt92rcd13ifvqcf0","pricing_plan_id":"free"},{"bike_id":"1d405565-81fe-483d-b06d-9ddd014114e3","system_id":"levelo_inurba_marseille","lat":43.3137,"lon":5.38497,"is_reserved":false,"is_disabled":false,"rental_uris":{"android":"levelo://app?vid=1d405565-81fe-483d-b06d-9ddd014114e3","ios":"levelo://app?vid=1d405565-81fe-483d-b06d-9ddd014114e3"},"vehicle_type_id":"4","last_reported":1703009226,"current_range_meters":31200,"station_id":"ce4bgt92rcd13ifvqcf0","pricing_plan_id":"free"},{"bike_id":"01ee7429-cfde-4b62-856f-75cf388216af","system_id":"levelo_inurba_marseille","lat":43.31365,"lon":5.385,"is_reserved":false,"is_disabled":false,"rental_uris":{"android":"levelo://app?vid=01ee7429-cfde-4b62-856f-75cf388216af","ios":"levelo://app?vid=01ee7429-cfde-4b62-856f-75cf388216af"},"vehicle_type_id":"4","last_reported":1703009226,"current_range_meters":28800,"station_id":"ce4bgt92rcd13ifvqcf0","pricing_plan_id":"free"},{"bike_id":"1f9ee468-6986-488d-837b-9248feb85cf8","system_id":"levelo_inurba_marseille","lat":43.313698,"lon":5.385008,"is_reserved":false,"is_disabled":false,"rental_uris":{"android":"levelo://app?vid=1f9ee468-6986-488d-837b-9248feb85cf8","ios":"levelo://app?vid=1f9ee468-6986-488d-837b-9248feb85cf8"},"vehicle_type_id":"4","last_reported":1703009226,"current_range_meters":31200,"station_id":"ce4bgt92rcd13ifvqcf0","pricing_plan_id":"free"},{"bike_id":"93e3f275-51de-4ff5-beb2-171840114c6c","system_id":"levelo_inurba_marseille","lat":43.31365,"lon":5.38502,"is_reserved":false,"is_disabled":false,"rental_uris":{"android":"levelo://app?vid=93e3f275-51de-4ff5-beb2-171840114c6c","ios":"levelo://app?vid=93e3f275-51de-4ff5-beb2-171840114c6c"},"vehicle_type_id":"4","last_reported":1703009226,"current_range_meters":20800,"station_id":"ce4bgt92rcd13ifvqcf0","pricing_plan_id":"free"},{"bike_id":"c2565e5a-c0a7-47f6-b0ad-7d1df7959da6","system_id":"levelo_inurba_marseille","lat":43.299222,"lon":5.365554,"is_reserved":false,"is_disabled":false,"rental_uris":{"android":"levelo://app?vid=c2565e5a-c0a7-47f6-b0ad-7d1df7959da6","ios":"levelo://app?vid=c2565e5a-c0a7-47f6-b0ad-7d1df7959da6"},"vehicle_type_id":"4","last_reported":1703009226,"current_range_meters":19600,"station_id":"ce4bgm92rcd13ifvqbr0","pricing_plan_id":"free"},{"bike_id":"6dc243c9-5fb0-49ce-9fd1-78db2dd8304d","system_id":"levelo_inurba_marseille","lat":43.299724,"lon":5.371829,"is_reserved":false,"is_disabled":false,"rental_uris":{"android":"levelo://app?vid=6dc243c9-5fb0-49ce-9fd1-78db2dd8304d","ios":"levelo://app?vid=6dc243c9-5fb0-49ce-9fd1-78db2dd8304d"},"vehicle_type_id":"4","last_reported":1703009226,"current_range_meters":22800,"station_id":"ce4bgr92rcd13ifvqc7g","pricing_plan_id":"free"},{"bike_id":"acd96d70-efcf-46ba-a2bc-1129ff8e9e9b","system_id":"levelo_inurba_marseille","lat":43.305364,"lon":5.384119,"is_reserved":false,"is_disabled":false,"rental_uris":{"android":"levelo://app?vid=acd96d70-efcf-46ba-a2bc-1129ff8e9e9b","ios":"levelo://app?vid=acd96d70-efcf-46ba-a2bc-1129ff8e9e9b"},"vehicle_type_id":"4","last_reported":1703009226,"current_range_meters":3600,"station_id":"ce4bgg92rcd13ifvqb30","pricing_plan_id":"free"},{"bike_id":"e2b91b1b-ad8d-4065-ae6c-4abd55fbfe41","system_id":"levelo_inurba_marseille","lat":43.299243,"lon":5.374807,"is_reserved":false,"is_disabled":false,"rental_uris":{"android":"levelo://app?vid=e2b91b1b-ad8d-4065-ae6c-4abd55fbfe41","ios":"levelo://app?vid=e2b91b1b-ad8d-4065-ae6c-4abd55fbfe41"},"vehicle_type_id":"4","last_reported":1703009226,"current_range_meters":0,"station_id":"ce4bgjh2rcd13ifvqbg0","pricing_plan_id":"free"},{"bike_id":"a2a821e1-a4d1-4cf4-b600-769148036426","system_id":"levelo_inurba_marseille","lat":43.311722,"lon":5.387247,"is_reserved":false,"is_disabled":false,"rental_uris":{"android":"levelo://app?vid=a2a821e1-a4d1-4cf4-b600-769148036426","ios":"levelo://app?vid=a2a821e1-a4d1-4cf4-b600-769148036426"},"vehicle_type_id":"4","last_reported":1703009226,"current_range_meters":30000,"station_id":"ce4bgv12rcd13ifvqcp0","pricing_plan_id":"free"},{"bike_id":"ca0834b0-077b-48e5-8d61-d563b65c06e3","system_id":"levelo_inurba_marseille","lat":43.305476,"lon":5.384555,"is_reserved":false,"is_disabled":false,"rental_uris":{"android":"levelo://app?vid=ca0834b0-077b-48e5-8d61-d563b65c06e3","ios":"levelo://app?vid=ca0834b0-077b-48e5-8d61-d563b65c06e3"},"vehicle_type_id":"4","last_reported":1703009226,"current_range_meters":2000,"station_id":"ce4bgg92rcd13ifvqb30","pricing_plan_id":"free"},{"bike_id":"7569f7a5-dbb7-4770-aeb2-e32f07635f6f","system_id":"levelo_inurba_marseille","lat":43.311722,"lon":5.387247,"is_reserved":false,"is_disabled":false,"rental_uris":{"android":"levelo://app?vid=7569f7a5-dbb7-4770-aeb2-e32f07635f6f","ios":"levelo://app?vid=7569f7a5-dbb7-4770-aeb2-e32f07635f6f"},"vehicle_type_id":"4","last_reported":1703009226,"current_range_meters":31200,"station_id":"ce4bgv12rcd13ifvqcp0","pricing_plan_id":"free"},{"bike_id":"067984ff-8481-4891-8efe-10bbed82dbd3","system_id":"levelo_inurba_marseille","lat":43.311674,"lon":5.387186,"is_reserved":false,"is_disabled":false,"rental_uris":{"android":"levelo://app?vid=067984ff-8481-4891-8efe-10bbed82dbd3","ios":"levelo://app?vid=067984ff-8481-4891-8efe-10bbed82dbd3"},"vehicle_type_id":"4","last_reported":1703009226,"current_range_meters":26800,"station_id":"ce4bgv12rcd13ifvqcp0","pricing_plan_id":"free"},{"bike_id":"57a614c8-c840-4ff9-9e83-c99654002bb5","system_id":"levelo_inurba_marseille","lat":43.311722,"lon":5.387247,"is_reserved":false,"is_disabled":false,"rental_uris":{"android":"levelo://app?vid=57a614c8-c840-4ff9-9e83-c99654002bb5","ios":"levelo://app?vid=57a614c8-c840-4ff9-9e83-c99654002bb5"},"vehicle_type_id":"4","last_reported":1703009226,"current_range_meters":30000,"station_id":"ce4bgv12rcd13ifvqcp0","pricing_plan_id":"free"},{"bike_id":"65b8a907-9c66-4690-8361-70f4b576d052","system_id":"levelo_inurba_marseille","lat":43.297798,"lon":5.371038,"is_reserved":false,"is_disabled":false,"rental_uris":{"android":"levelo://app?vid=65b8a907-9c66-4690-8361-70f4b576d052","ios":"levelo://app?vid=65b8a907-9c66-4690-8361-70f4b576d052"},"vehicle_type_id":"4","last_reported":1703009226,"current_range_meters":0,"station_id":"ce4bgop2rcd13ifvqc1g","pricing_plan_id":"free"},{"bike_id":"3bed26bb-0ada-42b3-9c7f-dfbaac3937fa","system_id":"levelo_inurba_marseille","lat":43.322872,"lon":5.382756,"is_reserved":false,"is_disabled":false,"rental_uris":{"android":"levelo://app?vid=3bed26bb-0ada-42b3-9c7f-dfbaac3937fa","ios":"levelo://app?vid=3bed26bb-0ada-42b3-9c7f-dfbaac3937fa"},"vehicle_type_id":"4","last_reported":1703009226,"current_range_meters":21200,"station_id":"ce4bhr12rcd13ifvqhqg","pricing_plan_id":"free"},{"bike_id":"873a287b-4e8b-4542-834f-91bce629838e","system_id":"levelo_inurba_marseille","lat":43.322872,"lon":5.382756,"is_reserved":false,"is_disabled":false,"rental_uris":{"android":"levelo://app?vid=873a287b-4e8b-4542-834f-91bce629838e","ios":"levelo://app?vid=873a287b-4e8b-4542-834f-91bce629838e"},"vehicle_type_id":"4","last_reported":1703009226,"current_range_meters":24800,"station_id":"ce4bhr12rcd13ifvqhqg","pricing_plan_id":"free"},{"bike_id":"eb8ebe7d-6983-4780-997c-9447c3c0c6e2","system_id":"levelo_inurba_marseille","lat":43.32824,"lon":5.36691,"is_reserved":false,"is_disabled":false,"rental_uris":{"android":"levelo://app?vid=eb8ebe7d-6983-4780-997c-9447c3c0c6e2","ios":"levelo://app?vid=eb8ebe7d-6983-4780-997c-9447c3c0c6e2"},"vehicle_type_id":"4","last_reported":1703009226,"current_range_meters":31200,"station_id":"ce4bhs92rcd13ifvqi0g","pricing_plan_id":"free"},{"bike_id":"c12df297-168e-4ca3-95d9-a300ff1ffbd9","system_id":"levelo_inurba_marseille","lat":43.328371,"lon":5.366909,"is_reserved":false,"is_disabled":false,"rental_uris":{"android":"levelo://app?vid=c12df297-168e-4ca3-95d9-a300ff1ffbd9","ios":"levelo://app?vid=c12df297-168e-4ca3-95d9-a300ff1ffbd9"},"vehicle_type_id":"4","last_reported":1703009226,"current_range_meters":17600,"station_id":"ce4bhs92rcd13ifvqi0g","pricing_plan_id":"free"},{"bike_id":"c22e4b9f-ba20-4a7c-a7c8-fd0a73d903e0","system_id":"levelo_inurba_marseille","lat":43.328371,"lon":5.366909,"is_reserved":false,"is_disabled":false,"rental_uris":{"android":"levelo://app?vid=c22e4b9f-ba20-4a7c-a7c8-fd0a73d903e0","ios":"levelo://app?vid=c22e4b9f-ba20-4a7c-a7c8-fd0a73d903e0"},"vehicle_type_id":"4","last_reported":1703009226,"current_range_meters":26800,"station_id":"ce4bhs92rcd13ifvqi0g","pricing_plan_id":"free"},{"bike_id":"48ebe570-3797-4c11-9550-8036b565ccb1","system_id":"levelo_inurba_marseille","lat":43.328371,"lon":5.366909,"is_reserved":false,"is_disabled":false,"rental_uris":{"android":"levelo://app?vid=48ebe570-3797-4c11-9550-8036b565ccb1","ios":"levelo://app?vid=48ebe570-3797-4c11-9550-8036b565ccb1"},"vehicle_type_id":"4","last_reported":1703009226,"current_range_meters":6800,"station_id":"ce4bhs92rcd13ifvqi0g","pricing_plan_id":"free"},{"bike_id":"d6acffa9-1d1f-42e6-8d01-ac81190b6d3a","system_id":"levelo_inurba_marseille","lat":43.297163,"lon":5.365866,"is_reserved":false,"is_disabled":false,"rental_uris":{"android":"levelo://app?vid=d6acffa9-1d1f-42e6-8d01-ac81190b6d3a","ios":"levelo://app?vid=d6acffa9-1d1f-42e6-8d01-ac81190b6d3a"},"vehicle_type_id":"4","last_reported":1703009226,"current_range_meters":20800,"station_id":"ce4bgn12rcd13ifvqbt0","pricing_plan_id":"free"},{"bike_id":"f3b5d637-4617-458c-849f-891ef4a3743d","system_id":"levelo_inurba_marseille","lat":43.297163,"lon":5.365866,"is_reserved":false,"is_disabled":false,"rental_uris":{"android":"levelo://app?vid=f3b5d637-4617-458c-849f-891ef4a3743d","ios":"levelo://app?vid=f3b5d637-4617-458c-849f-891ef4a3743d"},"vehicle_type_id":"4","last_reported":1703009226,"current_range_meters":20400,"station_id":"ce4bgn12rcd13ifvqbt0","pricing_plan_id":"free"},{"bike_id":"8c4fa6df-927a-41b1-8fb1-9dac069dd028","system_id":"levelo_inurba_marseille","lat":43.317557,"lon":5.390173,"is_reserved":false,"is_disabled":false,"rental_uris":{"android":"levelo://app?vid=8c4fa6df-927a-41b1-8fb1-9dac069dd028","ios":"levelo://app?vid=8c4fa6df-927a-41b1-8fb1-9dac069dd028"},"vehicle_type_id":"4","last_reported":1703009226,"current_range_meters":26800,"station_id":"ce4bhqp2rcd13ifvqhng","pricing_plan_id":"free"},{"bike_id":"40554fe8-87bf-41d5-b75a-7fd0e2ec929c","system_id":"levelo_inurba_marseille","lat":43.317557,"lon":5.390173,"is_reserved":false,"is_disabled":false,"rental_uris":{"android":"levelo://app?vid=40554fe8-87bf-41d5-b75a-7fd0e2ec929c","ios":"levelo://app?vid=40554fe8-87bf-41d5-b75a-7fd0e2ec929c"},"vehicle_type_id":"4","last_reported":1703009226,"current_range_meters":31200,"station_id":"ce4bhqp2rcd13ifvqhng","pricing_plan_id":"free"},{"bike_id":"5eb2bd39-1f40-4daa-aef3-38b62445e1a4","system_id":"levelo_inurba_marseille","lat":43.317557,"lon":5.390173,"is_reserved":false,"is_disabled":false,"rental_uris":{"android":"levelo://app?vid=5eb2bd39-1f40-4daa-aef3-38b62445e1a4","ios":"levelo://app?vid=5eb2bd39-1f40-4daa-aef3-38b62445e1a4"},"vehicle_type_id":"4","last_reported":1703009226,"current_range_meters":4800,"station_id":"ce4bhqp2rcd13ifvqhng","pricing_plan_id":"free"},{"bike_id":"c851590b-59b2-4ea7-8435-dc8d05164641","system_id":"levelo_inurba_marseille","lat":43.295748,"lon":5.37522,"is_reserved":false,"is_disabled":false,"rental_uris":{"android":"levelo://app?vid=c851590b-59b2-4ea7-8435-dc8d05164641","ios":"levelo://app?vid=c851590b-59b2-4ea7-8435-dc8d05164641"},"vehicle_type_id":"4","last_reported":1703009226,"current_range_meters":4800,"station_id":"ce4bgh92rcd13ifvqb50","pricing_plan_id":"free"},{"bike_id":"83346718-c143-43ea-8b24-ddfe74507bd5","system_id":"levelo_inurba_marseille","lat":43.304278,"lon":5.388868,"is_reserved":false,"is_disabled":false,"rental_uris":{"android":"levelo://app?vid=83346718-c143-43ea-8b24-ddfe74507bd5","ios":"levelo://app?vid=83346718-c143-43ea-8b24-ddfe74507bd5"},"vehicle_type_id":"4","last_reported":1703009226,"current_range_meters":22000,"station_id":"ce4bgk12rcd13ifvqbi0","pricing_plan_id":"free"},{"bike_id":"8c4a2f76-5736-4c9b-8407-7cf9667a742c","system_id":"levelo_inurba_marseille","lat":43.304278,"lon":5.388868,"is_reserved":false,"is_disabled":false,"rental_uris":{"android":"levelo://app?vid=8c4a2f76-5736-4c9b-8407-7cf9667a742c","ios":"levelo://app?vid=8c4a2f76-5736-4c9b-8407-7cf9667a742c"},"vehicle_type_id":"4","last_reported":1703009226,"current_range_meters":14400,"station_id":"ce4bgk12rcd13ifvqbi0","pricing_plan_id":"free"},{"bike_id":"463ed030-5dc9-4394-a678-a37371864ecc","system_id":"levelo_inurba_marseille","lat":43.304274,"lon":5.388873,"is_reserved":false,"is_disabled":false,"rental_uris":{"android":"levelo://app?vid=463ed030-5dc9-4394-a678-a37371864ecc","ios":"levelo://app?vid=463ed030-5dc9-4394-a678-a37371864ecc"},"vehicle_type_id":"4","last_reported":1703009226,"current_range_meters":7200,"station_id":"ce4bgk12rcd13ifvqbi0","pricing_plan_id":"free"},{"bike_id":"70fda661-87d6-419e-9b40-f9c4076436b5","system_id":"levelo_inurba_marseille","lat":43.32367,"lon":5.388836,"is_reserved":false,"is_disabled":false,"rental_uris":{"android":"levelo://app?vid=70fda661-87d6-419e-9b40-f9c4076436b5","ios":"levelo://app?vid=70fda661-87d6-419e-9b40-f9c4076436b5"},"vehicle_type_id":"4","last_reported":1703009226,"current_range_meters":31200,"station_id":"ce4bhqp2rcd13ifvqhog","pricing_plan_id":"free"},{"bike_id":"c6caf7f8-66f1-4a29-8753-d998fa6a3859","system_id":"levelo_inurba_marseille","lat":43.32368,"lon":5.38882,"is_reserved":false,"is_disabled":false,"rental_uris":{"android":"levelo://app?vid=c6caf7f8-66f1-4a29-8753-d998fa6a3859","ios":"levelo://app?vid=c6caf7f8-66f1-4a29-8753-d998fa6a3859"},"vehicle_type_id":"4","last_reported":1703009226,"current_range_meters":30400,"station_id":"ce4bhqp2rcd13ifvqhog","pricing_plan_id":"free"},{"bike_id":"f6c944ac-76c5-4af7-bad2-2080808a45f4","system_id":"levelo_inurba_marseille","lat":43.32367,"lon":5.388836,"is_reserved":false,"is_disabled":false,"rental_uris":{"android":"levelo://app?vid=f6c944ac-76c5-4af7-bad2-2080808a45f4","ios":"levelo://app?vid=f6c944ac-76c5-4af7-bad2-2080808a45f4"},"vehicle_type_id":"4","last_reported":1703009226,"current_range_meters":31200,"station_id":"ce4bhqp2rcd13ifvqhog","pricing_plan_id":"free"},{"bike_id":"430630c9-4a64-4b79-9d02-8c73802e97a4","system_id":"levelo_inurba_marseille","lat":43.29602,"lon":5.381084,"is_reserved":false,"is_disabled":false,"rental_uris":{"android":"levelo://app?vid=430630c9-4a64-4b79-9d02-8c73802e97a4","ios":"levelo://app?vid=430630c9-4a64-4b79-9d02-8c73802e97a4"},"vehicle_type_id":"4","last_reported":1703009226,"current_range_meters":21200,"station_id":"ce4bgl12rcd13ifvqbo0","pricing_plan_id":"free"},{"bike_id":"514ff608-f6e5-46f2-a9ef-75f84b0330cd","system_id":"levelo_inurba_marseille","lat":43.29601,"lon":5.381084,"is_reserved":false,"is_disabled":false,"rental_uris":{"android":"levelo://app?vid=514ff608-f6e5-46f2-a9ef-75f84b0330cd","ios":"levelo://app?vid=514ff608-f6e5-46f2-a9ef-75f84b0330cd"},"vehicle_type_id":"4","last_reported":1703009226,"current_range_meters":23200,"station_id":"ce4bgl12rcd13ifvqbo0","pricing_plan_id":"free"},{"bike_id":"78f27a8b-ab82-4a6d-bb68-4b79452b19e0","system_id":"levelo_inurba_marseille","lat":43.29601,"lon":5.381084,"is_reserved":false,"is_disabled":false,"rental_uris":{"android":"levelo://app?vid=78f27a8b-ab82-4a6d-bb68-4b79452b19e0","ios":"levelo://app?vid=78f27a8b-ab82-4a6d-bb68-4b79452b19e0"},"vehicle_type_id":"4","last_reported":1703009226,"current_range_meters":16400,"station_id":"ce4bgl12rcd13ifvqbo0","pricing_plan_id":"free"},{"bike_id":"bb8d9c12-f9dc-4160-a62b-96bda9a71527","system_id":"levelo_inurba_marseille","lat":43.29602,"lon":5.381084,"is_reserved":false,"is_disabled":false,"rental_uris":{"android":"levelo://app?vid=bb8d9c12-f9dc-4160-a62b-96bda9a71527","ios":"levelo://app?vid=bb8d9c12-f9dc-4160-a62b-96bda9a71527"},"vehicle_type_id":"4","last_reported":1703009226,"current_range_meters":14000,"station_id":"ce4bgl12rcd13ifvqbo0","pricing_plan_id":"free"},{"bike_id":"8095ca0b-42b6-4ab8-83ff-f4ce6945da94","system_id":"levelo_inurba_marseille","lat":43.292749,"lon":5.368402,"is_reserved":false,"is_disabled":false,"rental_uris":{"android":"levelo://app?vid=8095ca0b-42b6-4ab8-83ff-f4ce6945da94","ios":"levelo://app?vid=8095ca0b-42b6-4ab8-83ff-f4ce6945da94"},"vehicle_type_id":"4","last_reported":1703009226,"current_range_meters":2000,"station_id":"ce4bhbp2rcd13ifvqesg","pricing_plan_id":"free"},{"bike_id":"0ce8e477-a052-42c4-be1f-9b46afe8b53f","system_id":"levelo_inurba_marseille","lat":43.293009,"lon":5.374584,"is_reserved":false,"is_disabled":false,"rental_uris":{"android":"levelo://app?vid=0ce8e477-a052-42c4-be1f-9b46afe8b53f","ios":"levelo://app?vid=0ce8e477-a052-42c4-be1f-9b46afe8b53f"},"vehicle_type_id":"4","last_reported":1703009226,"current_range_meters":5200,"station_id":"ce4bgi12rcd13ifvqb70","pricing_plan_id":"free"},{"bike_id":"42c2ab9e-4a53-4f85-b0bc-d56ddee4b62f","system_id":"levelo_inurba_marseille","lat":43.293009,"lon":5.374584,"is_reserved":false,"is_disabled":false,"rental_uris":{"android":"levelo://app?vid=42c2ab9e-4a53-4f85-b0bc-d56ddee4b62f","ios":"levelo://app?vid=42c2ab9e-4a53-4f85-b0bc-d56ddee4b62f"},"vehicle_type_id":"4","last_reported":1703009226,"current_range_meters":3200,"station_id":"ce4bgi12rcd13ifvqb70","pricing_plan_id":"free"},{"bike_id":"b0e8053f-3b7c-44b3-bd2a-1982a5bdf089","system_id":"levelo_inurba_marseille","lat":43.302992,"lon":5.392136,"is_reserved":false,"is_disabled":false,"rental_uris":{"android":"levelo://app?vid=b0e8053f-3b7c-44b3-bd2a-1982a5bdf089","ios":"levelo://app?vid=b0e8053f-3b7c-44b3-bd2a-1982a5bdf089"},"vehicle_type_id":"4","last_reported":1703009226,"current_range_meters":11200,"station_id":"ce4bgkh2rcd13ifvqbk0","pricing_plan_id":"free"},{"bike_id":"d8c34936-381b-406d-b016-1e13e5d3b0a7","system_id":"levelo_inurba_marseille","lat":43.300961,"lon":5.390836,"is_reserved":false,"is_disabled":false,"rental_uris":{"android":"levelo://app?vid=d8c34936-381b-406d-b016-1e13e5d3b0a7","ios":"levelo://app?vid=d8c34936-381b-406d-b016-1e13e5d3b0a7"},"vehicle_type_id":"4","last_reported":1703009226,"current_range_meters":28000,"station_id":"","pricing_plan_id":"free"},{"bike_id":"67dbc710-e248-4701-92da-b94e6f063a32","system_id":"levelo_inurba_marseille","lat":43.32296,"lon":5.3925,"is_reserved":false,"is_disabled":false,"rental_uris":{"android":"levelo://app?vid=67dbc710-e248-4701-92da-b94e6f063a32","ios":"levelo://app?vid=67dbc710-e248-4701-92da-b94e6f063a32"},"vehicle_type_id":"4","last_reported":1703009226,"current_range_meters":8800,"station_id":"","pricing_plan_id":"free"},{"bike_id":"4d58e6f0-9efe-4656-9012-bc6cc6bcee5b","system_id":"levelo_inurba_marseille","lat":43.298694,"lon":5.389067,"is_reserved":false,"is_disabled":false,"rental_uris":{"android":"levelo://app?vid=4d58e6f0-9efe-4656-9012-bc6cc6bcee5b","ios":"levelo://app?vid=4d58e6f0-9efe-4656-9012-bc6cc6bcee5b"},"vehicle_type_id":"4","last_reported":1703009226,"current_range_meters":7200,"station_id":"","pricing_plan_id":"free"},{"bike_id":"269c9be6-1557-4ea6-9a7e-6b575d4289f4","system_id":"levelo_inurba_marseille","lat":43.309047,"lon":5.396551,"is_reserved":false,"is_disabled":false,"rental_uris":{"android":"levelo://app?vid=269c9be6-1557-4ea6-9a7e-6b575d4289f4","ios":"levelo://app?vid=269c9be6-1557-4ea6-9a7e-6b575d4289f4"},"vehicle_type_id":"4","last_reported":1703009226,"current_range_meters":31200,"station_id":"ce4bh012rcd13ifvqcv0","pricing_plan_id":"free"},{"bike_id":"6a09180d-d2c3-4edd-b94a-0c38ed02b244","system_id":"levelo_inurba_marseille","lat":43.313291,"lon":5.396838,"is_reserved":false,"is_disabled":false,"rental_uris":{"android":"levelo://app?vid=6a09180d-d2c3-4edd-b94a-0c38ed02b244","ios":"levelo://app?vid=6a09180d-d2c3-4edd-b94a-0c38ed02b244"},"vehicle_type_id":"4","last_reported":1703009226,"current_range_meters":22400,"station_id":"ce4bgvp2rcd13ifvqcu0","pricing_plan_id":"free"},{"bike_id":"981bd619-307f-4ed0-84e6-feaa3c71a64f","system_id":"levelo_inurba_marseille","lat":43.313291,"lon":5.396838,"is_reserved":false,"is_disabled":false,"rental_uris":{"android":"levelo://app?vid=981bd619-307f-4ed0-84e6-feaa3c71a64f","ios":"levelo://app?vid=981bd619-307f-4ed0-84e6-feaa3c71a64f"},"vehicle_type_id":"4","last_reported":1703009226,"current_range_meters":11200,"station_id":"ce4bgvp2rcd13ifvqcu0","pricing_plan_id":"free"},{"bike_id":"bac62e0e-a1f0-4b8e-9c62-f898e116f3c5","system_id":"levelo_inurba_marseille","lat":43.313291,"lon":5.396838,"is_reserved":false,"is_disabled":false,"rental_uris":{"android":"levelo://app?vid=bac62e0e-a1f0-4b8e-9c62-f898e116f3c5","ios":"levelo://app?vid=bac62e0e-a1f0-4b8e-9c62-f898e116f3c5"},"vehicle_type_id":"4","last_reported":1703009226,"current_range_meters":28000,"station_id":"ce4bgvp2rcd13ifvqcu0","pricing_plan_id":"free"},{"bike_id":"1b062a3e-c939-4851-aabb-ce93bd49ef85","system_id":"levelo_inurba_marseille","lat":43.313291,"lon":5.396838,"is_reserved":false,"is_disabled":false,"rental_uris":{"android":"levelo://app?vid=1b062a3e-c939-4851-aabb-ce93bd49ef85","ios":"levelo://app?vid=1b062a3e-c939-4851-aabb-ce93bd49ef85"},"vehicle_type_id":"4","last_reported":1703009226,"current_range_meters":19600,"station_id":"ce4bgvp2rcd13ifvqcu0","pricing_plan_id":"free"},{"bike_id":"07e07ca5-49d2-4133-8b12-eef3c1b41943","system_id":"levelo_inurba_marseille","lat":43.313291,"lon":5.396838,"is_reserved":false,"is_disabled":false,"rental_uris":{"android":"levelo://app?vid=07e07ca5-49d2-4133-8b12-eef3c1b41943","ios":"levelo://app?vid=07e07ca5-49d2-4133-8b12-eef3c1b41943"},"vehicle_type_id":"4","last_reported":1703009226,"current_range_meters":23200,"station_id":"ce4bgvp2rcd13ifvqcu0","pricing_plan_id":"free"},{"bike_id":"123f6846-4316-4d20-a0b1-d9640ea3a43d","system_id":"levelo_inurba_marseille","lat":43.313291,"lon":5.396838,"is_reserved":false,"is_disabled":false,"rental_uris":{"android":"levelo://app?vid=123f6846-4316-4d20-a0b1-d9640ea3a43d","ios":"levelo://app?vid=123f6846-4316-4d20-a0b1-d9640ea3a43d"},"vehicle_type_id":"4","last_reported":1703009226,"current_range_meters":31600,"station_id":"ce4bgvp2rcd13ifvqcu0","pricing_plan_id":"free"},{"bike_id":"8e672063-b80a-4e5c-bf41-eef17536e40a","system_id":"levelo_inurba_marseille","lat":43.313291,"lon":5.396838,"is_reserved":false,"is_disabled":false,"rental_uris":{"android":"levelo://app?vid=8e672063-b80a-4e5c-bf41-eef17536e40a","ios":"levelo://app?vid=8e672063-b80a-4e5c-bf41-eef17536e40a"},"vehicle_type_id":"4","last_reported":1703009226,"current_range_meters":32000,"station_id":"ce4bgvp2rcd13ifvqcu0","pricing_plan_id":"free"},{"bike_id":"d50b6d86-3055-4cf5-86d3-4c025e8560bd","system_id":"levelo_inurba_marseille","lat":43.309038,"lon":5.396546,"is_reserved":false,"is_disabled":false,"rental_uris":{"android":"levelo://app?vid=d50b6d86-3055-4cf5-86d3-4c025e8560bd","ios":"levelo://app?vid=d50b6d86-3055-4cf5-86d3-4c025e8560bd"},"vehicle_type_id":"4","last_reported":1703009226,"current_range_meters":17200,"station_id":"ce4bh012rcd13ifvqcv0","pricing_plan_id":"free"},{"bike_id":"05ea902e-4865-456a-b410-a46b3cf5f173","system_id":"levelo_inurba_marseille","lat":43.313291,"lon":5.396838,"is_reserved":false,"is_disabled":false,"rental_uris":{"android":"levelo://app?vid=05ea902e-4865-456a-b410-a46b3cf5f173","ios":"levelo://app?vid=05ea902e-4865-456a-b410-a46b3cf5f173"},"vehicle_type_id":"4","last_reported":1703009226,"current_range_meters":24400,"station_id":"ce4bgvp2rcd13ifvqcu0","pricing_plan_id":"free"},{"bike_id":"8e182757-3971-411c-978d-0a56e811c8aa","system_id":"levelo_inurba_marseille","lat":43.309038,"lon":5.396546,"is_reserved":false,"is_disabled":false,"rental_uris":{"android":"levelo://app?vid=8e182757-3971-411c-978d-0a56e811c8aa","ios":"levelo://app?vid=8e182757-3971-411c-978d-0a56e811c8aa"},"vehicle_type_id":"4","last_reported":1703009226,"current_range_meters":12400,"station_id":"ce4bh012rcd13ifvqcv0","pricing_plan_id":"free"},{"bike_id":"bc1d5e0a-04f4-4b36-9230-4ccca8d97249","system_id":"levelo_inurba_marseille","lat":43.29529,"lon":5.385581,"is_reserved":false,"is_disabled":false,"rental_uris":{"android":"levelo://app?vid=bc1d5e0a-04f4-4b36-9230-4ccca8d97249","ios":"levelo://app?vid=bc1d5e0a-04f4-4b36-9230-4ccca8d97249"},"vehicle_type_id":"4","last_reported":1703009226,"current_range_meters":3200,"station_id":"ce4bgih2rcd13ifvqba0","pricing_plan_id":"free"},{"bike_id":"65c36f20-5d26-4571-b0de-4f2ddc192460","system_id":"levelo_inurba_marseille","lat":43.29529,"lon":5.385581,"is_reserved":false,"is_disabled":false,"rental_uris":{"android":"levelo://app?vid=65c36f20-5d26-4571-b0de-4f2ddc192460","ios":"levelo://app?vid=65c36f20-5d26-4571-b0de-4f2ddc192460"},"vehicle_type_id":"4","last_reported":1703009226,"current_range_meters":18400,"station_id":"ce4bgih2rcd13ifvqba0","pricing_plan_id":"free"},{"bike_id":"b9140ef2-f174-4022-9218-ee049569e808","system_id":"levelo_inurba_marseille","lat":43.29529,"lon":5.385581,"is_reserved":false,"is_disabled":false,"rental_uris":{"android":"levelo://app?vid=b9140ef2-f174-4022-9218-ee049569e808","ios":"levelo://app?vid=b9140ef2-f174-4022-9218-ee049569e808"},"vehicle_type_id":"4","last_reported":1703009226,"current_range_meters":14000,"station_id":"ce4bgih2rcd13ifvqba0","pricing_plan_id":"free"},{"bike_id":"fa83b5e7-4300-4210-a6b6-1cdd0011bdff","system_id":"levelo_inurba_marseille","lat":43.302008,"lon":5.394694,"is_reserved":false,"is_disabled":false,"rental_uris":{"android":"levelo://app?vid=fa83b5e7-4300-4210-a6b6-1cdd0011bdff","ios":"levelo://app?vid=fa83b5e7-4300-4210-a6b6-1cdd0011bdff"},"vehicle_type_id":"4","last_reported":1703009226,"current_range_meters":3600,"station_id":"ce4bh0p2rcd13ifvqd70","pricing_plan_id":"free"},{"bike_id":"6b32863f-0327-45be-8825-ae4cfeb31fff","system_id":"levelo_inurba_marseille","lat":43.302008,"lon":5.394694,"is_reserved":false,"is_disabled":false,"rental_uris":{"android":"levelo://app?vid=6b32863f-0327-45be-8825-ae4cfeb31fff","ios":"levelo://app?vid=6b32863f-0327-45be-8825-ae4cfeb31fff"},"vehicle_type_id":"4","last_reported":1703009226,"current_range_meters":20800,"station_id":"ce4bh0p2rcd13ifvqd70","pricing_plan_id":"free"},{"bike_id":"b945f764-ada3-447d-8fbd-064afd7aad8b","system_id":"levelo_inurba_marseille","lat":43.302008,"lon":5.394694,"is_reserved":false,"is_disabled":false,"rental_uris":{"android":"levelo://app?vid=b945f764-ada3-447d-8fbd-064afd7aad8b","ios":"levelo://app?vid=b945f764-ada3-447d-8fbd-064afd7aad8b"},"vehicle_type_id":"4","last_reported":1703009226,"current_range_meters":21200,"station_id":"ce4bh0p2rcd13ifvqd70","pricing_plan_id":"free"},{"bike_id":"11e0de8f-eead-47e9-bb26-e81b76ee524e","system_id":"levelo_inurba_marseille","lat":43.290631,"lon":5.359244,"is_reserved":false,"is_disabled":false,"rental_uris":{"android":"levelo://app?vid=11e0de8f-eead-47e9-bb26-e81b76ee524e","ios":"levelo://app?vid=11e0de8f-eead-47e9-bb26-e81b76ee524e"},"vehicle_type_id":"4","last_reported":1703009226,"current_range_meters":26400,"station_id":"ce4bha92rcd13ifvqeg0","pricing_plan_id":"free"},{"bike_id":"931b2eb1-44fc-4322-bd52-48275ea79595","system_id":"levelo_inurba_marseille","lat":43.294153,"lon":5.386305,"is_reserved":false,"is_disabled":false,"rental_uris":{"android":"levelo://app?vid=931b2eb1-44fc-4322-bd52-48275ea79595","ios":"levelo://app?vid=931b2eb1-44fc-4322-bd52-48275ea79595"},"vehicle_type_id":"4","last_reported":1703009226,"current_range_meters":12400,"station_id":"ce4bh2h2rcd13ifvqdh0","pricing_plan_id":"free"},{"bike_id":"e0b2b312-6336-46c8-a01f-c0c3b0a6e827","system_id":"levelo_inurba_marseille","lat":43.289468,"lon":5.363719,"is_reserved":false,"is_disabled":false,"rental_uris":{"android":"levelo://app?vid=e0b2b312-6336-46c8-a01f-c0c3b0a6e827","ios":"levelo://app?vid=e0b2b312-6336-46c8-a01f-c0c3b0a6e827"},"vehicle_type_id":"4","last_reported":1703009226,"current_range_meters":24400,"station_id":"ce4bhc92rcd13ifvqetg","pricing_plan_id":"free"},{"bike_id":"7e954d58-27c9-4c95-8baa-dfb7e46e86fe","system_id":"levelo_inurba_marseille","lat":43.294162,"lon":5.386292,"is_reserved":false,"is_disabled":false,"rental_uris":{"android":"levelo://app?vid=7e954d58-27c9-4c95-8baa-dfb7e46e86fe","ios":"levelo://app?vid=7e954d58-27c9-4c95-8baa-dfb7e46e86fe"},"vehicle_type_id":"4","last_reported":1703009226,"current_range_meters":24400,"station_id":"ce4bh2h2rcd13ifvqdh0","pricing_plan_id":"free"},{"bike_id":"f9de8fb0-d0f9-4855-8451-afff0b454db2","system_id":"levelo_inurba_marseille","lat":43.330442,"lon":5.389148,"is_reserved":false,"is_disabled":false,"rental_uris":{"android":"levelo://app?vid=f9de8fb0-d0f9-4855-8451-afff0b454db2","ios":"levelo://app?vid=f9de8fb0-d0f9-4855-8451-afff0b454db2"},"vehicle_type_id":"4","last_reported":1703009226,"current_range_meters":27200,"station_id":"ce4bhr92rcd13ifvqhrg","pricing_plan_id":"free"},{"bike_id":"2fb71484-fd85-4cf1-841b-c6fa44a405e2","system_id":"levelo_inurba_marseille","lat":43.330442,"lon":5.389148,"is_reserved":false,"is_disabled":false,"rental_uris":{"android":"levelo://app?vid=2fb71484-fd85-4cf1-841b-c6fa44a405e2","ios":"levelo://app?vid=2fb71484-fd85-4cf1-841b-c6fa44a405e2"},"vehicle_type_id":"4","last_reported":1703009226,"current_range_meters":2000,"station_id":"ce4bhr92rcd13ifvqhrg","pricing_plan_id":"free"},{"bike_id":"bc6240e1-e0cc-4c2f-9aa6-3921ab128b65","system_id":"levelo_inurba_marseille","lat":43.290104,"lon":5.356111,"is_reserved":false,"is_disabled":false,"rental_uris":{"android":"levelo://app?vid=bc6240e1-e0cc-4c2f-9aa6-3921ab128b65","ios":"levelo://app?vid=bc6240e1-e0cc-4c2f-9aa6-3921ab128b65"},"vehicle_type_id":"4","last_reported":1703009226,"current_range_meters":2400,"station_id":"ce4bhb92rcd13ifvqen0","pricing_plan_id":"free"},{"bike_id":"7c98b8f9-1606-464e-b7e7-b44afc3a0abb","system_id":"levelo_inurba_marseille","lat":43.289743,"lon":5.378304,"is_reserved":false,"is_disabled":false,"rental_uris":{"android":"levelo://app?vid=7c98b8f9-1606-464e-b7e7-b44afc3a0abb","ios":"levelo://app?vid=7c98b8f9-1606-464e-b7e7-b44afc3a0abb"},"vehicle_type_id":"4","last_reported":1703009226,"current_range_meters":22400,"station_id":"ce4bh9p2rcd13ifvqed0","pricing_plan_id":"free"},{"bike_id":"df8eaff5-aa73-4b63-a615-50b8d2a078da","system_id":"levelo_inurba_marseille","lat":43.29783,"lon":5.39335,"is_reserved":false,"is_disabled":false,"rental_uris":{"android":"levelo://app?vid=df8eaff5-aa73-4b63-a615-50b8d2a078da","ios":"levelo://app?vid=df8eaff5-aa73-4b63-a615-50b8d2a078da"},"vehicle_type_id":"4","last_reported":1703009226,"current_range_meters":6400,"station_id":"chh1huq6cuj3fo74tm60","pricing_plan_id":"free"},{"bike_id":"f769c34e-4a0a-4af9-a6af-653ef2a6cae9","system_id":"levelo_inurba_marseille","lat":43.297815,"lon":5.393548,"is_reserved":false,"is_disabled":false,"rental_uris":{"android":"levelo://app?vid=f769c34e-4a0a-4af9-a6af-653ef2a6cae9","ios":"levelo://app?vid=f769c34e-4a0a-4af9-a6af-653ef2a6cae9"},"vehicle_type_id":"4","last_reported":1703009226,"current_range_meters":5200,"station_id":"chh1huq6cuj3fo74tm60","pricing_plan_id":"free"},{"bike_id":"989d8d42-4c1f-4cb7-b01a-25185bf1fe2e","system_id":"levelo_inurba_marseille","lat":43.297815,"lon":5.393548,"is_reserved":false,"is_disabled":false,"rental_uris":{"android":"levelo://app?vid=989d8d42-4c1f-4cb7-b01a-25185bf1fe2e","ios":"levelo://app?vid=989d8d42-4c1f-4cb7-b01a-25185bf1fe2e"},"vehicle_type_id":"4","last_reported":1703009226,"current_range_meters":5200,"station_id":"chh1huq6cuj3fo74tm60","pricing_plan_id":"free"},{"bike_id":"0ed13e98-2480-42ce-8f13-97223e0222aa","system_id":"levelo_inurba_marseille","lat":43.295284,"lon":5.390326,"is_reserved":false,"is_disabled":false,"rental_uris":{"android":"levelo://app?vid=0ed13e98-2480-42ce-8f13-97223e0222aa","ios":"levelo://app?vid=0ed13e98-2480-42ce-8f13-97223e0222aa"},"vehicle_type_id":"4","last_reported":1703009226,"current_range_meters":0,"station_id":"ce4bh3p2rcd13ifvqdp0","pricing_plan_id":"free"},{"bike_id":"a4527534-ff89-4645-9143-4329a021c0ea","system_id":"levelo_inurba_marseille","lat":43.28856,"lon":5.358371,"is_reserved":false,"is_disabled":false,"rental_uris":{"android":"levelo://app?vid=a4527534-ff89-4645-9143-4329a021c0ea","ios":"levelo://app?vid=a4527534-ff89-4645-9143-4329a021c0ea"},"vehicle_type_id":"4","last_reported":1703009226,"current_range_meters":5200,"station_id":"ce4bhb12rcd13ifvqem0","pricing_plan_id":"free"},{"bike_id":"85a09950-a287-4b27-8d86-85236c29c2b9","system_id":"levelo_inurba_marseille","lat":43.2884,"lon":5.3586,"is_reserved":false,"is_disabled":false,"rental_uris":{"android":"levelo://app?vid=85a09950-a287-4b27-8d86-85236c29c2b9","ios":"levelo://app?vid=85a09950-a287-4b27-8d86-85236c29c2b9"},"vehicle_type_id":"4","last_reported":1703009226,"current_range_meters":0,"station_id":"ce4bhb12rcd13ifvqem0","pricing_plan_id":"free"},{"bike_id":"92f4bbf2-ef48-4776-982f-5005691b8f99","system_id":"levelo_inurba_marseille","lat":43.309371,"lon":5.401449,"is_reserved":false,"is_disabled":false,"rental_uris":{"android":"levelo://app?vid=92f4bbf2-ef48-4776-982f-5005691b8f99","ios":"levelo://app?vid=92f4bbf2-ef48-4776-982f-5005691b8f99"},"vehicle_type_id":"4","last_reported":1703009226,"current_range_meters":30000,"station_id":"ce4bgvp2rcd13ifvqct0","pricing_plan_id":"free"},{"bike_id":"6a5d8ee4-f8cc-4f31-b565-7d3ce68ba1de","system_id":"levelo_inurba_marseille","lat":43.309371,"lon":5.401449,"is_reserved":false,"is_disabled":false,"rental_uris":{"android":"levelo://app?vid=6a5d8ee4-f8cc-4f31-b565-7d3ce68ba1de","ios":"levelo://app?vid=6a5d8ee4-f8cc-4f31-b565-7d3ce68ba1de"},"vehicle_type_id":"4","last_reported":1703009226,"current_range_meters":31200,"station_id":"ce4bgvp2rcd13ifvqct0","pricing_plan_id":"free"},{"bike_id":"d098cc39-f0d1-4e10-8fb8-9091627d6ca7","system_id":"levelo_inurba_marseille","lat":43.306412,"lon":5.401035,"is_reserved":false,"is_disabled":false,"rental_uris":{"android":"levelo://app?vid=d098cc39-f0d1-4e10-8fb8-9091627d6ca7","ios":"levelo://app?vid=d098cc39-f0d1-4e10-8fb8-9091627d6ca7"},"vehicle_type_id":"4","last_reported":1703009226,"current_range_meters":14400,"station_id":"ce4bh112rcd13ifvqda0","pricing_plan_id":"free"},{"bike_id":"2054c906-6809-49e3-931b-c23603bf0296","system_id":"levelo_inurba_marseille","lat":43.309217,"lon":5.401397,"is_reserved":false,"is_disabled":false,"rental_uris":{"android":"levelo://app?vid=2054c906-6809-49e3-931b-c23603bf0296","ios":"levelo://app?vid=2054c906-6809-49e3-931b-c23603bf0296"},"vehicle_type_id":"4","last_reported":1703009226,"current_range_meters":0,"station_id":"ce4bgvp2rcd13ifvqct0","pricing_plan_id":"free"},{"bike_id":"138aa914-485a-41f4-ae78-a6225cccd9f8","system_id":"levelo_inurba_marseille","lat":43.306412,"lon":5.401035,"is_reserved":false,"is_disabled":false,"rental_uris":{"android":"levelo://app?vid=138aa914-485a-41f4-ae78-a6225cccd9f8","ios":"levelo://app?vid=138aa914-485a-41f4-ae78-a6225cccd9f8"},"vehicle_type_id":"4","last_reported":1703009226,"current_range_meters":5600,"station_id":"ce4bh112rcd13ifvqda0","pricing_plan_id":"free"},{"bike_id":"c3c3cbbb-aa08-4874-94d9-d40777882ceb","system_id":"levelo_inurba_marseille","lat":43.33764,"lon":5.37424,"is_reserved":false,"is_disabled":false,"rental_uris":{"android":"levelo://app?vid=c3c3cbbb-aa08-4874-94d9-d40777882ceb","ios":"levelo://app?vid=c3c3cbbb-aa08-4874-94d9-d40777882ceb"},"vehicle_type_id":"4","last_reported":1703009226,"current_range_meters":8400,"station_id":"","pricing_plan_id":"free"},{"bike_id":"cf46fb71-56ee-4aee-8ec9-fd1ff8dc20f5","system_id":"levelo_inurba_marseille","lat":43.306412,"lon":5.401035,"is_reserved":false,"is_disabled":false,"rental_uris":{"android":"levelo://app?vid=cf46fb71-56ee-4aee-8ec9-fd1ff8dc20f5","ios":"levelo://app?vid=cf46fb71-56ee-4aee-8ec9-fd1ff8dc20f5"},"vehicle_type_id":"4","last_reported":1703009226,"current_range_meters":24000,"station_id":"ce4bh112rcd13ifvqda0","pricing_plan_id":"free"},{"bike_id":"f87552f6-10c6-40ba-b55c-09204c97e92b","system_id":"levelo_inurba_marseille","lat":43.301117,"lon":5.398795,"is_reserved":false,"is_disabled":false,"rental_uris":{"android":"levelo://app?vid=f87552f6-10c6-40ba-b55c-09204c97e92b","ios":"levelo://app?vid=f87552f6-10c6-40ba-b55c-09204c97e92b"},"vehicle_type_id":"4","last_reported":1703009226,"current_range_meters":400,"station_id":"ce4bh0h2rcd13ifvqd40","pricing_plan_id":"free"},{"bike_id":"9dfe0cbf-56b8-4730-b3e0-c92c8f502a7d","system_id":"levelo_inurba_marseille","lat":43.301117,"lon":5.398795,"is_reserved":false,"is_disabled":false,"rental_uris":{"android":"levelo://app?vid=9dfe0cbf-56b8-4730-b3e0-c92c8f502a7d","ios":"levelo://app?vid=9dfe0cbf-56b8-4730-b3e0-c92c8f502a7d"},"vehicle_type_id":"4","last_reported":1703009226,"current_range_meters":3200,"station_id":"ce4bh0h2rcd13ifvqd40","pricing_plan_id":"free"},{"bike_id":"e6f42138-a8c6-4034-9acb-422ce190ad8b","system_id":"levelo_inurba_marseille","lat":43.301117,"lon":5.398795,"is_reserved":false,"is_disabled":false,"rental_uris":{"android":"levelo://app?vid=e6f42138-a8c6-4034-9acb-422ce190ad8b","ios":"levelo://app?vid=e6f42138-a8c6-4034-9acb-422ce190ad8b"},"vehicle_type_id":"4","last_reported":1703009226,"current_range_meters":19200,"station_id":"ce4bh0h2rcd13ifvqd40","pricing_plan_id":"free"},{"bike_id":"187a5928-1dea-4a55-a57b-8dc0877abe4d","system_id":"levelo_inurba_marseille","lat":43.301378,"lon":5.398762,"is_reserved":false,"is_disabled":false,"rental_uris":{"android":"levelo://app?vid=187a5928-1dea-4a55-a57b-8dc0877abe4d","ios":"levelo://app?vid=187a5928-1dea-4a55-a57b-8dc0877abe4d"},"vehicle_type_id":"4","last_reported":1703009226,"current_range_meters":0,"station_id":"ce4bh0h2rcd13ifvqd40","pricing_plan_id":"free"},{"bike_id":"8c1a746a-51f7-4746-963c-a70c02d698fd","system_id":"levelo_inurba_marseille","lat":43.301117,"lon":5.398795,"is_reserved":false,"is_disabled":false,"rental_uris":{"android":"levelo://app?vid=8c1a746a-51f7-4746-963c-a70c02d698fd","ios":"levelo://app?vid=8c1a746a-51f7-4746-963c-a70c02d698fd"},"vehicle_type_id":"4","last_reported":1703009226,"current_range_meters":400,"station_id":"ce4bh0h2rcd13ifvqd40","pricing_plan_id":"free"},{"bike_id":"8769c4e2-57f5-49eb-a201-3388999b87a3","system_id":"levelo_inurba_marseille","lat":43.29878,"lon":5.39735,"is_reserved":false,"is_disabled":false,"rental_uris":{"android":"levelo://app?vid=8769c4e2-57f5-49eb-a201-3388999b87a3","ios":"levelo://app?vid=8769c4e2-57f5-49eb-a201-3388999b87a3"},"vehicle_type_id":"4","last_reported":1703009226,"current_range_meters":5600,"station_id":"ce4bh0h2rcd13ifvqd50","pricing_plan_id":"free"},{"bike_id":"dedc90d0-1774-4898-92a0-9fc6df69555f","system_id":"levelo_inurba_marseille","lat":43.286591,"lon":5.363346,"is_reserved":false,"is_disabled":false,"rental_uris":{"android":"levelo://app?vid=dedc90d0-1774-4898-92a0-9fc6df69555f","ios":"levelo://app?vid=dedc90d0-1774-4898-92a0-9fc6df69555f"},"vehicle_type_id":"4","last_reported":1703009226,"current_range_meters":19600,"station_id":"ce4bhah2rcd13ifvqej0","pricing_plan_id":"free"},{"bike_id":"f53ddf91-15bf-4b5a-a78b-ff3c6a061241","system_id":"levelo_inurba_marseille","lat":43.295196,"lon":5.39397,"is_reserved":false,"is_disabled":false,"rental_uris":{"android":"levelo://app?vid=f53ddf91-15bf-4b5a-a78b-ff3c6a061241","ios":"levelo://app?vid=f53ddf91-15bf-4b5a-a78b-ff3c6a061241"},"vehicle_type_id":"4","last_reported":1703009226,"current_range_meters":13200,"station_id":"ce4bh292rcd13ifvqdf0","pricing_plan_id":"free"},{"bike_id":"eed53c3a-6ae6-40d5-af0e-4ff577b79d7d","system_id":"levelo_inurba_marseille","lat":43.29529,"lon":5.39401,"is_reserved":false,"is_disabled":false,"rental_uris":{"android":"levelo://app?vid=eed53c3a-6ae6-40d5-af0e-4ff577b79d7d","ios":"levelo://app?vid=eed53c3a-6ae6-40d5-af0e-4ff577b79d7d"},"vehicle_type_id":"4","last_reported":1703009226,"current_range_meters":3200,"station_id":"ce4bh292rcd13ifvqdf0","pricing_plan_id":"free"},{"bike_id":"dc743a73-d789-4f29-927f-baf8af11d33e","system_id":"levelo_inurba_marseille","lat":43.295194,"lon":5.39397,"is_reserved":false,"is_disabled":false,"rental_uris":{"android":"levelo://app?vid=dc743a73-d789-4f29-927f-baf8af11d33e","ios":"levelo://app?vid=dc743a73-d789-4f29-927f-baf8af11d33e"},"vehicle_type_id":"4","last_reported":1703009226,"current_range_meters":7600,"station_id":"ce4bh292rcd13ifvqdf0","pricing_plan_id":"free"},{"bike_id":"3b3de53a-96a9-471a-8ebb-d461f16dd6ad","system_id":"levelo_inurba_marseille","lat":43.295196,"lon":5.39397,"is_reserved":false,"is_disabled":false,"rental_uris":{"android":"levelo://app?vid=3b3de53a-96a9-471a-8ebb-d461f16dd6ad","ios":"levelo://app?vid=3b3de53a-96a9-471a-8ebb-d461f16dd6ad"},"vehicle_type_id":"4","last_reported":1703009226,"current_range_meters":29200,"station_id":"ce4bh292rcd13ifvqdf0","pricing_plan_id":"free"},{"bike_id":"3a885026-3866-4a3d-8e4e-df68dc737153","system_id":"levelo_inurba_marseille","lat":43.290345,"lon":5.38646,"is_reserved":false,"is_disabled":false,"rental_uris":{"android":"levelo://app?vid=3a885026-3866-4a3d-8e4e-df68dc737153","ios":"levelo://app?vid=3a885026-3866-4a3d-8e4e-df68dc737153"},"vehicle_type_id":"4","last_reported":1703009226,"current_range_meters":9200,"station_id":"ce4bh4p2rcd13ifvqe0g","pricing_plan_id":"free"},{"bike_id":"69b9823e-2c4c-409c-8204-75374dbb13f5","system_id":"levelo_inurba_marseille","lat":43.290345,"lon":5.38646,"is_reserved":false,"is_disabled":false,"rental_uris":{"android":"levelo://app?vid=69b9823e-2c4c-409c-8204-75374dbb13f5","ios":"levelo://app?vid=69b9823e-2c4c-409c-8204-75374dbb13f5"},"vehicle_type_id":"4","last_reported":1703009226,"current_range_meters":10400,"station_id":"ce4bh4p2rcd13ifvqe0g","pricing_plan_id":"free"},{"bike_id":"a5ab0f6e-cb1e-43c6-8bca-1c02e17f1b90","system_id":"levelo_inurba_marseille","lat":43.286039,"lon":5.370679,"is_reserved":false,"is_disabled":false,"rental_uris":{"android":"levelo://app?vid=a5ab0f6e-cb1e-43c6-8bca-1c02e17f1b90","ios":"levelo://app?vid=a5ab0f6e-cb1e-43c6-8bca-1c02e17f1b90"},"vehicle_type_id":"4","last_reported":1703009226,"current_range_meters":30400,"station_id":"ce4bht12rcd13ifvqi60","pricing_plan_id":"free"},{"bike_id":"eed03dce-e6cc-46b1-8527-45439af6f114","system_id":"levelo_inurba_marseille","lat":43.284214,"lon":5.349706,"is_reserved":false,"is_disabled":false,"rental_uris":{"android":"levelo://app?vid=eed03dce-e6cc-46b1-8527-45439af6f114","ios":"levelo://app?vid=eed03dce-e6cc-46b1-8527-45439af6f114"},"vehicle_type_id":"4","last_reported":1703009226,"current_range_meters":24000,"station_id":"ce4bhbh2rcd13ifvqepg","pricing_plan_id":"free"},{"bike_id":"a1446084-6014-4648-a1ec-006a74c81750","system_id":"levelo_inurba_marseille","lat":43.291994,"lon":5.392907,"is_reserved":false,"is_disabled":false,"rental_uris":{"android":"levelo://app?vid=a1446084-6014-4648-a1ec-006a74c81750","ios":"levelo://app?vid=a1446084-6014-4648-a1ec-006a74c81750"},"vehicle_type_id":"4","last_reported":1703009226,"current_range_meters":12800,"station_id":"ce4bh192rcd13ifvqdd0","pricing_plan_id":"free"},{"bike_id":"f8903953-b11a-44a0-ac3f-b425dea56116","system_id":"levelo_inurba_marseille","lat":43.284534,"lon":5.358662,"is_reserved":false,"is_disabled":false,"rental_uris":{"android":"levelo://app?vid=f8903953-b11a-44a0-ac3f-b425dea56116","ios":"levelo://app?vid=f8903953-b11a-44a0-ac3f-b425dea56116"},"vehicle_type_id":"4","last_reported":1703009226,"current_range_meters":2000,"station_id":"ce4bhah2rcd13ifvqei0","pricing_plan_id":"free"},{"bike_id":"0a3b05e5-5f02-43ee-8e58-141383cde739","system_id":"levelo_inurba_marseille","lat":43.284534,"lon":5.358662,"is_reserved":false,"is_disabled":false,"rental_uris":{"android":"levelo://app?vid=0a3b05e5-5f02-43ee-8e58-141383cde739","ios":"levelo://app?vid=0a3b05e5-5f02-43ee-8e58-141383cde739"},"vehicle_type_id":"4","last_reported":1703009226,"current_range_meters":26400,"station_id":"ce4bhah2rcd13ifvqei0","pricing_plan_id":"free"},{"bike_id":"36cf4d02-bd22-413f-a81d-3c2efead6ba1","system_id":"levelo_inurba_marseille","lat":43.285856,"lon":5.350771,"is_reserved":false,"is_disabled":false,"rental_uris":{"android":"levelo://app?vid=36cf4d02-bd22-413f-a81d-3c2efead6ba1","ios":"levelo://app?vid=36cf4d02-bd22-413f-a81d-3c2efead6ba1"},"vehicle_type_id":"4","last_reported":1703009226,"current_range_meters":18400,"station_id":"ce4bhch2rcd13ifvqeug","pricing_plan_id":"free"},{"bike_id":"4a3bf0b1-66fa-4ba1-95be-5c0a76ccad27","system_id":"levelo_inurba_marseille","lat":43.285856,"lon":5.350771,"is_reserved":false,"is_disabled":false,"rental_uris":{"android":"levelo://app?vid=4a3bf0b1-66fa-4ba1-95be-5c0a76ccad27","ios":"levelo://app?vid=4a3bf0b1-66fa-4ba1-95be-5c0a76ccad27"},"vehicle_type_id":"4","last_reported":1703009226,"current_range_meters":22800,"station_id":"ce4bhch2rcd13ifvqeug","pricing_plan_id":"free"},{"bike_id":"d6f1cb3a-139c-45ba-88a4-26cff8954219","system_id":"levelo_inurba_marseille","lat":43.285856,"lon":5.350771,"is_reserved":false,"is_disabled":false,"rental_uris":{"android":"levelo://app?vid=d6f1cb3a-139c-45ba-88a4-26cff8954219","ios":"levelo://app?vid=d6f1cb3a-139c-45ba-88a4-26cff8954219"},"vehicle_type_id":"4","last_reported":1703009226,"current_range_meters":18800,"station_id":"ce4bhch2rcd13ifvqeug","pricing_plan_id":"free"},{"bike_id":"2eb52441-f2b5-4053-a57b-7908913c3b82","system_id":"levelo_inurba_marseille","lat":43.285856,"lon":5.350771,"is_reserved":false,"is_disabled":false,"rental_uris":{"android":"levelo://app?vid=2eb52441-f2b5-4053-a57b-7908913c3b82","ios":"levelo://app?vid=2eb52441-f2b5-4053-a57b-7908913c3b82"},"vehicle_type_id":"4","last_reported":1703009226,"current_range_meters":15600,"station_id":"ce4bhch2rcd13ifvqeug","pricing_plan_id":"free"},{"bike_id":"0c689767-e565-4fdc-b74c-9192458db94e","system_id":"levelo_inurba_marseille","lat":43.285856,"lon":5.350771,"is_reserved":false,"is_disabled":false,"rental_uris":{"android":"levelo://app?vid=0c689767-e565-4fdc-b74c-9192458db94e","ios":"levelo://app?vid=0c689767-e565-4fdc-b74c-9192458db94e"},"vehicle_type_id":"4","last_reported":1703009226,"current_range_meters":22400,"station_id":"ce4bhch2rcd13ifvqeug","pricing_plan_id":"free"},{"bike_id":"f3b85f34-8342-42b3-9689-e6718d9bce90","system_id":"levelo_inurba_marseille","lat":43.285856,"lon":5.350771,"is_reserved":false,"is_disabled":false,"rental_uris":{"android":"levelo://app?vid=f3b85f34-8342-42b3-9689-e6718d9bce90","ios":"levelo://app?vid=f3b85f34-8342-42b3-9689-e6718d9bce90"},"vehicle_type_id":"4","last_reported":1703009226,"current_range_meters":14000,"station_id":"ce4bhch2rcd13ifvqeug","pricing_plan_id":"free"},{"bike_id":"7ab43898-10dc-4577-8a07-9543e314aae7","system_id":"levelo_inurba_marseille","lat":43.285856,"lon":5.350771,"is_reserved":false,"is_disabled":false,"rental_uris":{"android":"levelo://app?vid=7ab43898-10dc-4577-8a07-9543e314aae7","ios":"levelo://app?vid=7ab43898-10dc-4577-8a07-9543e314aae7"},"vehicle_type_id":"4","last_reported":1703009226,"current_range_meters":0,"station_id":"ce4bhch2rcd13ifvqeug","pricing_plan_id":"free"},{"bike_id":"05435e1e-93de-4800-ade7-2ab5b5ccd9cc","system_id":"levelo_inurba_marseille","lat":43.285856,"lon":5.350771,"is_reserved":false,"is_disabled":false,"rental_uris":{"android":"levelo://app?vid=05435e1e-93de-4800-ade7-2ab5b5ccd9cc","ios":"levelo://app?vid=05435e1e-93de-4800-ade7-2ab5b5ccd9cc"},"vehicle_type_id":"4","last_reported":1703009226,"current_range_meters":20800,"station_id":"ce4bhch2rcd13ifvqeug","pricing_plan_id":"free"},{"bike_id":"aaa07f64-d8ff-4e64-be71-7ab399227c99","system_id":"levelo_inurba_marseille","lat":43.285856,"lon":5.350771,"is_reserved":false,"is_disabled":false,"rental_uris":{"android":"levelo://app?vid=aaa07f64-d8ff-4e64-be71-7ab399227c99","ios":"levelo://app?vid=aaa07f64-d8ff-4e64-be71-7ab399227c99"},"vehicle_type_id":"4","last_reported":1703009226,"current_range_meters":2400,"station_id":"ce4bhch2rcd13ifvqeug","pricing_plan_id":"free"},{"bike_id":"3b0a198b-d992-457d-aa59-4c4164db1bd9","system_id":"levelo_inurba_marseille","lat":43.285856,"lon":5.350771,"is_reserved":false,"is_disabled":false,"rental_uris":{"android":"levelo://app?vid=3b0a198b-d992-457d-aa59-4c4164db1bd9","ios":"levelo://app?vid=3b0a198b-d992-457d-aa59-4c4164db1bd9"},"vehicle_type_id":"4","last_reported":1703009226,"current_range_meters":3200,"station_id":"ce4bhch2rcd13ifvqeug","pricing_plan_id":"free"},{"bike_id":"361f0a21-a448-4290-aafc-982fe9fc828d","system_id":"levelo_inurba_marseille","lat":43.295713,"lon":5.399639,"is_reserved":false,"is_disabled":false,"rental_uris":{"android":"levelo://app?vid=361f0a21-a448-4290-aafc-982fe9fc828d","ios":"levelo://app?vid=361f0a21-a448-4290-aafc-982fe9fc828d"},"vehicle_type_id":"4","last_reported":1703009226,"current_range_meters":14000,"station_id":"ce4bh312rcd13ifvqdj0","pricing_plan_id":"free"},{"bike_id":"8538e6dd-dbef-4a5a-a119-9a857fd021ad","system_id":"levelo_inurba_marseille","lat":43.33218,"lon":5.397067,"is_reserved":false,"is_disabled":false,"rental_uris":{"android":"levelo://app?vid=8538e6dd-dbef-4a5a-a119-9a857fd021ad","ios":"levelo://app?vid=8538e6dd-dbef-4a5a-a119-9a857fd021ad"},"vehicle_type_id":"4","last_reported":1703009226,"current_range_meters":800,"station_id":"","pricing_plan_id":"free"},{"bike_id":"baa20edd-c910-4c3a-aa4b-a6f42ed3f679","system_id":"levelo_inurba_marseille","lat":43.29571,"lon":5.399705,"is_reserved":false,"is_disabled":false,"rental_uris":{"android":"levelo://app?vid=baa20edd-c910-4c3a-aa4b-a6f42ed3f679","ios":"levelo://app?vid=baa20edd-c910-4c3a-aa4b-a6f42ed3f679"},"vehicle_type_id":"4","last_reported":1703009226,"current_range_meters":30800,"station_id":"","pricing_plan_id":"free"},{"bike_id":"716195f1-c62e-41d5-92fc-d1b3f1db58e8","system_id":"levelo_inurba_marseille","lat":43.295713,"lon":5.399639,"is_reserved":false,"is_disabled":false,"rental_uris":{"android":"levelo://app?vid=716195f1-c62e-41d5-92fc-d1b3f1db58e8","ios":"levelo://app?vid=716195f1-c62e-41d5-92fc-d1b3f1db58e8"},"vehicle_type_id":"4","last_reported":1703009226,"current_range_meters":10800,"station_id":"ce4bh312rcd13ifvqdj0","pricing_plan_id":"free"},{"bike_id":"59146ca9-ad82-49bb-811e-8bdcadd76991","system_id":"levelo_inurba_marseille","lat":43.295713,"lon":5.399639,"is_reserved":false,"is_disabled":false,"rental_uris":{"android":"levelo://app?vid=59146ca9-ad82-49bb-811e-8bdcadd76991","ios":"levelo://app?vid=59146ca9-ad82-49bb-811e-8bdcadd76991"},"vehicle_type_id":"4","last_reported":1703009226,"current_range_meters":7600,"station_id":"ce4bh312rcd13ifvqdj0","pricing_plan_id":"free"},{"bike_id":"55440599-7673-4532-9ec0-b137efa53a70","system_id":"levelo_inurba_marseille","lat":43.286595,"lon":5.386795,"is_reserved":false,"is_disabled":false,"rental_uris":{"android":"levelo://app?vid=55440599-7673-4532-9ec0-b137efa53a70","ios":"levelo://app?vid=55440599-7673-4532-9ec0-b137efa53a70"},"vehicle_type_id":"4","last_reported":1703009226,"current_range_meters":2800,"station_id":"ce4bh492rcd13ifvqdug","pricing_plan_id":"free"},{"bike_id":"6ef1931b-9751-4a0e-9f83-360587689828","system_id":"levelo_inurba_marseille","lat":43.319179,"lon":5.407725,"is_reserved":false,"is_disabled":false,"rental_uris":{"android":"levelo://app?vid=6ef1931b-9751-4a0e-9f83-360587689828","ios":"levelo://app?vid=6ef1931b-9751-4a0e-9f83-360587689828"},"vehicle_type_id":"4","last_reported":1703009226,"current_range_meters":30400,"station_id":"ce4bhq12rcd13ifvqhig","pricing_plan_id":"free"},{"bike_id":"fc81ef9d-8d94-43bc-9e0b-68acf4e4848c","system_id":"levelo_inurba_marseille","lat":43.325243,"lon":5.414326,"is_reserved":false,"is_disabled":false,"rental_uris":{"android":"levelo://app?vid=fc81ef9d-8d94-43bc-9e0b-68acf4e4848c","ios":"levelo://app?vid=fc81ef9d-8d94-43bc-9e0b-68acf4e4848c"},"vehicle_type_id":"4","last_reported":1703009226,"current_range_meters":11200,"station_id":"ce4bhq12rcd13ifvqhhg","pricing_plan_id":"free"},{"bike_id":"27628269-9f0b-4c51-9659-7fb830c4871d","system_id":"levelo_inurba_marseille","lat":43.323464,"lon":5.406297,"is_reserved":false,"is_disabled":false,"rental_uris":{"android":"levelo://app?vid=27628269-9f0b-4c51-9659-7fb830c4871d","ios":"levelo://app?vid=27628269-9f0b-4c51-9659-7fb830c4871d"},"vehicle_type_id":"4","last_reported":1703009226,"current_range_meters":22800,"station_id":"ce4bhq92rcd13ifvqhjg","pricing_plan_id":"free"},{"bike_id":"3eebc176-57c1-45d9-9bc0-22f9a8f92e1b","system_id":"levelo_inurba_marseille","lat":43.297946,"lon":5.404063,"is_reserved":false,"is_disabled":false,"rental_uris":{"android":"levelo://app?vid=3eebc176-57c1-45d9-9bc0-22f9a8f92e1b","ios":"levelo://app?vid=3eebc176-57c1-45d9-9bc0-22f9a8f92e1b"},"vehicle_type_id":"4","last_reported":1703009226,"current_range_meters":4400,"station_id":"ce4bh112rcd13ifvqd90","pricing_plan_id":"free"},{"bike_id":"16775e11-3ce1-4d17-be79-7c27a3694a59","system_id":"levelo_inurba_marseille","lat":43.288501,"lon":5.393087,"is_reserved":false,"is_disabled":false,"rental_uris":{"android":"levelo://app?vid=16775e11-3ce1-4d17-be79-7c27a3694a59","ios":"levelo://app?vid=16775e11-3ce1-4d17-be79-7c27a3694a59"},"vehicle_type_id":"4","last_reported":1703009226,"current_range_meters":14800,"station_id":"ce4bh2p2rcd13ifvqdi0","pricing_plan_id":"free"},{"bike_id":"f5332b34-8259-4323-952e-7bd465eb247c","system_id":"levelo_inurba_marseille","lat":43.29795,"lon":5.404086,"is_reserved":false,"is_disabled":false,"rental_uris":{"android":"levelo://app?vid=f5332b34-8259-4323-952e-7bd465eb247c","ios":"levelo://app?vid=f5332b34-8259-4323-952e-7bd465eb247c"},"vehicle_type_id":"4","last_reported":1703009226,"current_range_meters":0,"station_id":"ce4bh112rcd13ifvqd90","pricing_plan_id":"free"},{"bike_id":"21503f9b-5f41-4549-930f-2d68a9f8e4c0","system_id":"levelo_inurba_marseille","lat":43.288501,"lon":5.393087,"is_reserved":false,"is_disabled":false,"rental_uris":{"android":"levelo://app?vid=21503f9b-5f41-4549-930f-2d68a9f8e4c0","ios":"levelo://app?vid=21503f9b-5f41-4549-930f-2d68a9f8e4c0"},"vehicle_type_id":"4","last_reported":1703009226,"current_range_meters":18800,"station_id":"ce4bh2p2rcd13ifvqdi0","pricing_plan_id":"free"},{"bike_id":"08c2a729-4130-4167-93e4-67882f0136aa","system_id":"levelo_inurba_marseille","lat":43.288501,"lon":5.393087,"is_reserved":false,"is_disabled":false,"rental_uris":{"android":"levelo://app?vid=08c2a729-4130-4167-93e4-67882f0136aa","ios":"levelo://app?vid=08c2a729-4130-4167-93e4-67882f0136aa"},"vehicle_type_id":"4","last_reported":1703009226,"current_range_meters":23200,"station_id":"ce4bh2p2rcd13ifvqdi0","pricing_plan_id":"free"},{"bike_id":"1f979b92-28c5-4b7d-91ff-3863a490bedd","system_id":"levelo_inurba_marseille","lat":43.288501,"lon":5.393087,"is_reserved":false,"is_disabled":false,"rental_uris":{"android":"levelo://app?vid=1f979b92-28c5-4b7d-91ff-3863a490bedd","ios":"levelo://app?vid=1f979b92-28c5-4b7d-91ff-3863a490bedd"},"vehicle_type_id":"4","last_reported":1703009226,"current_range_meters":17600,"station_id":"ce4bh2p2rcd13ifvqdi0","pricing_plan_id":"free"},{"bike_id":"35e5c977-c3ec-4302-85e4-7f44ba15ca6f","system_id":"levelo_inurba_marseille","lat":43.306412,"lon":5.401035,"is_reserved":false,"is_disabled":false,"rental_uris":{"android":"levelo://app?vid=35e5c977-c3ec-4302-85e4-7f44ba15ca6f","ios":"levelo://app?vid=35e5c977-c3ec-4302-85e4-7f44ba15ca6f"},"vehicle_type_id":"4","last_reported":1703009226,"current_range_meters":22400,"station_id":"ce4bh112rcd13ifvqda0","pricing_plan_id":"free"},{"bike_id":"c6c9cebc-a543-490e-91c2-f3c7d1d2efdf","system_id":"levelo_inurba_marseille","lat":43.289363,"lon":5.396322,"is_reserved":false,"is_disabled":false,"rental_uris":{"android":"levelo://app?vid=c6c9cebc-a543-490e-91c2-f3c7d1d2efdf","ios":"levelo://app?vid=c6c9cebc-a543-490e-91c2-f3c7d1d2efdf"},"vehicle_type_id":"4","last_reported":1703009226,"current_range_meters":4000,"station_id":"ce4bh3h2rcd13ifvqdn0","pricing_plan_id":"free"},{"bike_id":"58564447-1bab-48dd-9f6f-b6371157f6c6","system_id":"levelo_inurba_marseille","lat":43.283502,"lon":5.386471,"is_reserved":false,"is_disabled":false,"rental_uris":{"android":"levelo://app?vid=58564447-1bab-48dd-9f6f-b6371157f6c6","ios":"levelo://app?vid=58564447-1bab-48dd-9f6f-b6371157f6c6"},"vehicle_type_id":"4","last_reported":1703009226,"current_range_meters":28000,"station_id":"ce4bh492rcd13ifvqdvg","pricing_plan_id":"free"},{"bike_id":"af648588-2b91-48ca-b411-9ac5cd9fb2f0","system_id":"levelo_inurba_marseille","lat":43.283502,"lon":5.386471,"is_reserved":false,"is_disabled":false,"rental_uris":{"android":"levelo://app?vid=af648588-2b91-48ca-b411-9ac5cd9fb2f0","ios":"levelo://app?vid=af648588-2b91-48ca-b411-9ac5cd9fb2f0"},"vehicle_type_id":"4","last_reported":1703009226,"current_range_meters":4800,"station_id":"ce4bh492rcd13ifvqdvg","pricing_plan_id":"free"},{"bike_id":"725c62a2-53d1-4c72-8be5-a3f6a6bd9459","system_id":"levelo_inurba_marseille","lat":43.282744,"lon":5.350533,"is_reserved":false,"is_disabled":false,"rental_uris":{"android":"levelo://app?vid=725c62a2-53d1-4c72-8be5-a3f6a6bd9459","ios":"levelo://app?vid=725c62a2-53d1-4c72-8be5-a3f6a6bd9459"},"vehicle_type_id":"4","last_reported":1703009226,"current_range_meters":20000,"station_id":"ce4bhbp2rcd13ifvqerg","pricing_plan_id":"free"},{"bike_id":"a53f681d-51b5-4ecc-bca6-1cb8d12861b1","system_id":"levelo_inurba_marseille","lat":43.282744,"lon":5.350533,"is_reserved":false,"is_disabled":false,"rental_uris":{"android":"levelo://app?vid=a53f681d-51b5-4ecc-bca6-1cb8d12861b1","ios":"levelo://app?vid=a53f681d-51b5-4ecc-bca6-1cb8d12861b1"},"vehicle_type_id":"4","last_reported":1703009226,"current_range_meters":7200,"station_id":"ce4bhbp2rcd13ifvqerg","pricing_plan_id":"free"},{"bike_id":"7aecbcde-a0be-4ee7-9fb3-c08e2ed7a241","system_id":"levelo_inurba_marseille","lat":43.280382,"lon":5.369291,"is_reserved":false,"is_disabled":false,"rental_uris":{"android":"levelo://app?vid=7aecbcde-a0be-4ee7-9fb3-c08e2ed7a241","ios":"levelo://app?vid=7aecbcde-a0be-4ee7-9fb3-c08e2ed7a241"},"vehicle_type_id":"4","last_reported":1703009226,"current_range_meters":31200,"station_id":"ce4bha12rcd13ifvqef0","pricing_plan_id":"free"},{"bike_id":"f93b9b08-462a-45e1-b20a-7bf6d9e0f690","system_id":"levelo_inurba_marseille","lat":43.28039,"lon":5.369297,"is_reserved":false,"is_disabled":false,"rental_uris":{"android":"levelo://app?vid=f93b9b08-462a-45e1-b20a-7bf6d9e0f690","ios":"levelo://app?vid=f93b9b08-462a-45e1-b20a-7bf6d9e0f690"},"vehicle_type_id":"4","last_reported":1703009226,"current_range_meters":5600,"station_id":"ce4bha12rcd13ifvqef0","pricing_plan_id":"free"},{"bike_id":"115e2ccf-042b-4836-902a-409fd3b3e971","system_id":"levelo_inurba_marseille","lat":43.283502,"lon":5.386471,"is_reserved":false,"is_disabled":false,"rental_uris":{"android":"levelo://app?vid=115e2ccf-042b-4836-902a-409fd3b3e971","ios":"levelo://app?vid=115e2ccf-042b-4836-902a-409fd3b3e971"},"vehicle_type_id":"4","last_reported":1703009226,"current_range_meters":3600,"station_id":"ce4bh492rcd13ifvqdvg","pricing_plan_id":"free"},{"bike_id":"ea806629-6f92-45cd-9bbf-446e837f1eba","system_id":"levelo_inurba_marseille","lat":43.29041,"lon":5.399634,"is_reserved":false,"is_disabled":false,"rental_uris":{"android":"levelo://app?vid=ea806629-6f92-45cd-9bbf-446e837f1eba","ios":"levelo://app?vid=ea806629-6f92-45cd-9bbf-446e837f1eba"},"vehicle_type_id":"4","last_reported":1703009226,"current_range_meters":31200,"station_id":"ce4bh392rcd13ifvqdm0","pricing_plan_id":"free"},{"bike_id":"be7ed5c3-8519-46a5-bab2-60e422239ae0","system_id":"levelo_inurba_marseille","lat":43.281044,"lon":5.378308,"is_reserved":false,"is_disabled":false,"rental_uris":{"android":"levelo://app?vid=be7ed5c3-8519-46a5-bab2-60e422239ae0","ios":"levelo://app?vid=be7ed5c3-8519-46a5-bab2-60e422239ae0"},"vehicle_type_id":"4","last_reported":1703009226,"current_range_meters":31200,"station_id":"ce4bha12rcd13ifvqee0","pricing_plan_id":"free"},{"bike_id":"7ef148e0-b4d2-4ff4-b99d-97cd2bbd0340","system_id":"levelo_inurba_marseille","lat":43.281044,"lon":5.378308,"is_reserved":false,"is_disabled":false,"rental_uris":{"android":"levelo://app?vid=7ef148e0-b4d2-4ff4-b99d-97cd2bbd0340","ios":"levelo://app?vid=7ef148e0-b4d2-4ff4-b99d-97cd2bbd0340"},"vehicle_type_id":"4","last_reported":1703009226,"current_range_meters":11600,"station_id":"ce4bha12rcd13ifvqee0","pricing_plan_id":"free"},{"bike_id":"924f62a0-2192-49f7-89aa-f540f6af6087","system_id":"levelo_inurba_marseille","lat":43.296263,"lon":5.40601,"is_reserved":false,"is_disabled":false,"rental_uris":{"android":"levelo://app?vid=924f62a0-2192-49f7-89aa-f540f6af6087","ios":"levelo://app?vid=924f62a0-2192-49f7-89aa-f540f6af6087"},"vehicle_type_id":"4","last_reported":1703009226,"current_range_meters":20800,"station_id":"ce4bh0h2rcd13ifvqd60","pricing_plan_id":"free"},{"bike_id":"5d426718-eaa2-4160-a477-8bd6540cb636","system_id":"levelo_inurba_marseille","lat":43.296263,"lon":5.40601,"is_reserved":false,"is_disabled":false,"rental_uris":{"android":"levelo://app?vid=5d426718-eaa2-4160-a477-8bd6540cb636","ios":"levelo://app?vid=5d426718-eaa2-4160-a477-8bd6540cb636"},"vehicle_type_id":"4","last_reported":1703009226,"current_range_meters":12000,"station_id":"ce4bh0h2rcd13ifvqd60","pricing_plan_id":"free"},{"bike_id":"3d0a30a9-d3f8-44c1-b4a2-02ef409e4625","system_id":"levelo_inurba_marseille","lat":43.28573,"lon":5.394992,"is_reserved":false,"is_disabled":false,"rental_uris":{"android":"levelo://app?vid=3d0a30a9-d3f8-44c1-b4a2-02ef409e4625","ios":"levelo://app?vid=3d0a30a9-d3f8-44c1-b4a2-02ef409e4625"},"vehicle_type_id":"4","last_reported":1703009226,"current_range_meters":16400,"station_id":"ce4bh292rcd13ifvqdg0","pricing_plan_id":"free"},{"bike_id":"09fccaac-342b-4b79-a962-44c27b61d5f4","system_id":"levelo_inurba_marseille","lat":43.304188,"lon":5.412904,"is_reserved":false,"is_disabled":false,"rental_uris":{"android":"levelo://app?vid=09fccaac-342b-4b79-a962-44c27b61d5f4","ios":"levelo://app?vid=09fccaac-342b-4b79-a962-44c27b61d5f4"},"vehicle_type_id":"4","last_reported":1703009226,"current_range_meters":13200,"station_id":"ce4bhop2rcd13ifvqh8g","pricing_plan_id":"free"},{"bike_id":"5a19dc98-4b6a-4cac-8617-bec854bef98e","system_id":"levelo_inurba_marseille","lat":43.304188,"lon":5.412904,"is_reserved":false,"is_disabled":false,"rental_uris":{"android":"levelo://app?vid=5a19dc98-4b6a-4cac-8617-bec854bef98e","ios":"levelo://app?vid=5a19dc98-4b6a-4cac-8617-bec854bef98e"},"vehicle_type_id":"4","last_reported":1703009226,"current_range_meters":31200,"station_id":"ce4bhop2rcd13ifvqh8g","pricing_plan_id":"free"},{"bike_id":"fadd8973-e132-4204-aeed-f9a44f2ca7cc","system_id":"levelo_inurba_marseille","lat":43.304188,"lon":5.412904,"is_reserved":false,"is_disabled":false,"rental_uris":{"android":"levelo://app?vid=fadd8973-e132-4204-aeed-f9a44f2ca7cc","ios":"levelo://app?vid=fadd8973-e132-4204-aeed-f9a44f2ca7cc"},"vehicle_type_id":"4","last_reported":1703009226,"current_range_meters":24800,"station_id":"ce4bhop2rcd13ifvqh8g","pricing_plan_id":"free"},{"bike_id":"311b719f-dacc-4749-8765-a7873788b09c","system_id":"levelo_inurba_marseille","lat":43.287154,"lon":5.399979,"is_reserved":false,"is_disabled":false,"rental_uris":{"android":"levelo://app?vid=311b719f-dacc-4749-8765-a7873788b09c","ios":"levelo://app?vid=311b719f-dacc-4749-8765-a7873788b09c"},"vehicle_type_id":"4","last_reported":1703009226,"current_range_meters":1200,"station_id":"ce4bho92rcd13ifvqh3g","pricing_plan_id":"free"},{"bike_id":"34cee588-6a03-48aa-aec7-e00713e1545e","system_id":"levelo_inurba_marseille","lat":43.287154,"lon":5.399979,"is_reserved":false,"is_disabled":false,"rental_uris":{"android":"levelo://app?vid=34cee588-6a03-48aa-aec7-e00713e1545e","ios":"levelo://app?vid=34cee588-6a03-48aa-aec7-e00713e1545e"},"vehicle_type_id":"4","last_reported":1703009226,"current_range_meters":24400,"station_id":"ce4bho92rcd13ifvqh3g","pricing_plan_id":"free"},{"bike_id":"ea13635a-64ce-4e1d-8eee-aa3a727b8d6f","system_id":"levelo_inurba_marseille","lat":43.287154,"lon":5.399979,"is_reserved":false,"is_disabled":false,"rental_uris":{"android":"levelo://app?vid=ea13635a-64ce-4e1d-8eee-aa3a727b8d6f","ios":"levelo://app?vid=ea13635a-64ce-4e1d-8eee-aa3a727b8d6f"},"vehicle_type_id":"4","last_reported":1703009226,"current_range_meters":8400,"station_id":"ce4bho92rcd13ifvqh3g","pricing_plan_id":"free"},{"bike_id":"cb0668d4-d46c-4efe-a7e0-185ebe495ab4","system_id":"levelo_inurba_marseille","lat":43.280533,"lon":5.38904,"is_reserved":false,"is_disabled":false,"rental_uris":{"android":"levelo://app?vid=cb0668d4-d46c-4efe-a7e0-185ebe495ab4","ios":"levelo://app?vid=cb0668d4-d46c-4efe-a7e0-185ebe495ab4"},"vehicle_type_id":"4","last_reported":1703009226,"current_range_meters":11200,"station_id":"","pricing_plan_id":"free"},{"bike_id":"1e9fe36f-fbe6-41d8-a9bd-3ad56b8376a1","system_id":"levelo_inurba_marseille","lat":43.320045,"lon":5.415046,"is_reserved":false,"is_disabled":false,"rental_uris":{"android":"levelo://app?vid=1e9fe36f-fbe6-41d8-a9bd-3ad56b8376a1","ios":"levelo://app?vid=1e9fe36f-fbe6-41d8-a9bd-3ad56b8376a1"},"vehicle_type_id":"4","last_reported":1703009226,"current_range_meters":17200,"station_id":"ce4bhq92rcd13ifvqhkg","pricing_plan_id":"free"},{"bike_id":"ec1f5902-813e-49af-9fd6-cd1f97c0ec71","system_id":"levelo_inurba_marseille","lat":43.292948,"lon":5.409003,"is_reserved":false,"is_disabled":false,"rental_uris":{"android":"levelo://app?vid=ec1f5902-813e-49af-9fd6-cd1f97c0ec71","ios":"levelo://app?vid=ec1f5902-813e-49af-9fd6-cd1f97c0ec71"},"vehicle_type_id":"4","last_reported":1703009226,"current_range_meters":0,"station_id":"ce4bh192rcd13ifvqdc0","pricing_plan_id":"free"},{"bike_id":"1de20776-256e-421b-bada-d83500127307","system_id":"levelo_inurba_marseille","lat":43.292571,"lon":5.409107,"is_reserved":false,"is_disabled":false,"rental_uris":{"android":"levelo://app?vid=1de20776-256e-421b-bada-d83500127307","ios":"levelo://app?vid=1de20776-256e-421b-bada-d83500127307"},"vehicle_type_id":"4","last_reported":1703009226,"current_range_meters":18400,"station_id":"ce4bh192rcd13ifvqdc0","pricing_plan_id":"free"},{"bike_id":"98989e73-b3eb-4839-b681-94334944276f","system_id":"levelo_inurba_marseille","lat":43.29261,"lon":5.40909,"is_reserved":false,"is_disabled":false,"rental_uris":{"android":"levelo://app?vid=98989e73-b3eb-4839-b681-94334944276f","ios":"levelo://app?vid=98989e73-b3eb-4839-b681-94334944276f"},"vehicle_type_id":"4","last_reported":1703009226,"current_range_meters":11600,"station_id":"ce4bh192rcd13ifvqdc0","pricing_plan_id":"free"},{"bike_id":"d9a874bd-8750-4ef6-94b0-0e3146c050bc","system_id":"levelo_inurba_marseille","lat":43.292571,"lon":5.409107,"is_reserved":false,"is_disabled":false,"rental_uris":{"android":"levelo://app?vid=d9a874bd-8750-4ef6-94b0-0e3146c050bc","ios":"levelo://app?vid=d9a874bd-8750-4ef6-94b0-0e3146c050bc"},"vehicle_type_id":"4","last_reported":1703009226,"current_range_meters":31200,"station_id":"ce4bh192rcd13ifvqdc0","pricing_plan_id":"free"},{"bike_id":"e654705b-fb5d-4eb5-a39d-39856f9da381","system_id":"levelo_inurba_marseille","lat":43.29264,"lon":5.40914,"is_reserved":false,"is_disabled":false,"rental_uris":{"android":"levelo://app?vid=e654705b-fb5d-4eb5-a39d-39856f9da381","ios":"levelo://app?vid=e654705b-fb5d-4eb5-a39d-39856f9da381"},"vehicle_type_id":"4","last_reported":1703009226,"current_range_meters":1200,"station_id":"ce4bh192rcd13ifvqdc0","pricing_plan_id":"free"},{"bike_id":"64f6857d-9635-4f9a-aa1f-0ca1465f75c6","system_id":"levelo_inurba_marseille","lat":43.29258,"lon":5.40909,"is_reserved":false,"is_disabled":false,"rental_uris":{"android":"levelo://app?vid=64f6857d-9635-4f9a-aa1f-0ca1465f75c6","ios":"levelo://app?vid=64f6857d-9635-4f9a-aa1f-0ca1465f75c6"},"vehicle_type_id":"4","last_reported":1703009226,"current_range_meters":16800,"station_id":"ce4bh192rcd13ifvqdc0","pricing_plan_id":"free"},{"bike_id":"99b550ba-a514-4a55-b09d-c9c3b2168f95","system_id":"levelo_inurba_marseille","lat":43.29257,"lon":5.4091,"is_reserved":false,"is_disabled":false,"rental_uris":{"android":"levelo://app?vid=99b550ba-a514-4a55-b09d-c9c3b2168f95","ios":"levelo://app?vid=99b550ba-a514-4a55-b09d-c9c3b2168f95"},"vehicle_type_id":"4","last_reported":1703009226,"current_range_meters":13200,"station_id":"ce4bh192rcd13ifvqdc0","pricing_plan_id":"free"},{"bike_id":"96884667-0b52-4ba9-a723-cc9fecd9ad7a","system_id":"levelo_inurba_marseille","lat":43.292571,"lon":5.409107,"is_reserved":false,"is_disabled":false,"rental_uris":{"android":"levelo://app?vid=96884667-0b52-4ba9-a723-cc9fecd9ad7a","ios":"levelo://app?vid=96884667-0b52-4ba9-a723-cc9fecd9ad7a"},"vehicle_type_id":"4","last_reported":1703009226,"current_range_meters":4800,"station_id":"ce4bh192rcd13ifvqdc0","pricing_plan_id":"free"},{"bike_id":"fbd8f1f5-b27b-420f-b06b-7480c09d4009","system_id":"levelo_inurba_marseille","lat":43.27618,"lon":5.361009,"is_reserved":false,"is_disabled":false,"rental_uris":{"android":"levelo://app?vid=fbd8f1f5-b27b-420f-b06b-7480c09d4009","ios":"levelo://app?vid=fbd8f1f5-b27b-420f-b06b-7480c09d4009"},"vehicle_type_id":"4","last_reported":1703009226,"current_range_meters":15200,"station_id":"ce4bgj92rcd13ifvqbe0","pricing_plan_id":"free"},{"bike_id":"080e6cb0-7fab-4ed3-ab0a-34c4625ec4a5","system_id":"levelo_inurba_marseille","lat":43.29256,"lon":5.40915,"is_reserved":false,"is_disabled":false,"rental_uris":{"android":"levelo://app?vid=080e6cb0-7fab-4ed3-ab0a-34c4625ec4a5","ios":"levelo://app?vid=080e6cb0-7fab-4ed3-ab0a-34c4625ec4a5"},"vehicle_type_id":"4","last_reported":1703009226,"current_range_meters":11600,"station_id":"ce4bh192rcd13ifvqdc0","pricing_plan_id":"free"},{"bike_id":"cc1d7bf3-e5c0-4653-bf69-25a7c7d536b3","system_id":"levelo_inurba_marseille","lat":43.280784,"lon":5.396622,"is_reserved":false,"is_disabled":false,"rental_uris":{"android":"levelo://app?vid=cc1d7bf3-e5c0-4653-bf69-25a7c7d536b3","ios":"levelo://app?vid=cc1d7bf3-e5c0-4653-bf69-25a7c7d536b3"},"vehicle_type_id":"4","last_reported":1703009226,"current_range_meters":10400,"station_id":"ce4bho12rcd13ifvqh2g","pricing_plan_id":"free"},{"bike_id":"13969288-6b42-4656-a80f-aacb40edbb03","system_id":"levelo_inurba_marseille","lat":43.278401,"lon":5.392152,"is_reserved":false,"is_disabled":false,"rental_uris":{"android":"levelo://app?vid=13969288-6b42-4656-a80f-aacb40edbb03","ios":"levelo://app?vid=13969288-6b42-4656-a80f-aacb40edbb03"},"vehicle_type_id":"4","last_reported":1703009226,"current_range_meters":16800,"station_id":"ce4bhjp2rcd13ifvqga0","pricing_plan_id":"free"},{"bike_id":"25f30d0e-a16e-4d2a-9f6f-eb401d10f7ad","system_id":"levelo_inurba_marseille","lat":43.278399,"lon":5.392139,"is_reserved":false,"is_disabled":false,"rental_uris":{"android":"levelo://app?vid=25f30d0e-a16e-4d2a-9f6f-eb401d10f7ad","ios":"levelo://app?vid=25f30d0e-a16e-4d2a-9f6f-eb401d10f7ad"},"vehicle_type_id":"4","last_reported":1703009226,"current_range_meters":13600,"station_id":"ce4bhjp2rcd13ifvqga0","pricing_plan_id":"free"},{"bike_id":"e7afcd31-b4d2-4656-8aa5-6d5afb88a6d0","system_id":"levelo_inurba_marseille","lat":43.278399,"lon":5.392139,"is_reserved":false,"is_disabled":false,"rental_uris":{"android":"levelo://app?vid=e7afcd31-b4d2-4656-8aa5-6d5afb88a6d0","ios":"levelo://app?vid=e7afcd31-b4d2-4656-8aa5-6d5afb88a6d0"},"vehicle_type_id":"4","last_reported":1703009226,"current_range_meters":0,"station_id":"ce4bhjp2rcd13ifvqga0","pricing_plan_id":"free"},{"bike_id":"7c75c713-2526-469b-b0b2-5d4beb04542f","system_id":"levelo_inurba_marseille","lat":43.276769,"lon":5.388787,"is_reserved":false,"is_disabled":false,"rental_uris":{"android":"levelo://app?vid=7c75c713-2526-469b-b0b2-5d4beb04542f","ios":"levelo://app?vid=7c75c713-2526-469b-b0b2-5d4beb04542f"},"vehicle_type_id":"4","last_reported":1703009226,"current_range_meters":1600,"station_id":"ce4bhi12rcd13ifvqfo0","pricing_plan_id":"free"},{"bike_id":"ed68311d-c446-4201-93e7-5ded17d53c6e","system_id":"levelo_inurba_marseille","lat":43.279952,"lon":5.400085,"is_reserved":false,"is_disabled":false,"rental_uris":{"android":"levelo://app?vid=ed68311d-c446-4201-93e7-5ded17d53c6e","ios":"levelo://app?vid=ed68311d-c446-4201-93e7-5ded17d53c6e"},"vehicle_type_id":"4","last_reported":1703009226,"current_range_meters":22400,"station_id":"ce4bho92rcd13ifvqh4g","pricing_plan_id":"free"},{"bike_id":"623d4c4f-baa9-4896-bb64-6f78201f1f12","system_id":"levelo_inurba_marseille","lat":43.279952,"lon":5.400085,"is_reserved":false,"is_disabled":false,"rental_uris":{"android":"levelo://app?vid=623d4c4f-baa9-4896-bb64-6f78201f1f12","ios":"levelo://app?vid=623d4c4f-baa9-4896-bb64-6f78201f1f12"},"vehicle_type_id":"4","last_reported":1703009226,"current_range_meters":7600,"station_id":"ce4bho92rcd13ifvqh4g","pricing_plan_id":"free"},{"bike_id":"6aeb72c6-7795-421e-8c99-8e89a08bfac6","system_id":"levelo_inurba_marseille","lat":43.317121,"lon":5.423936,"is_reserved":false,"is_disabled":false,"rental_uris":{"android":"levelo://app?vid=6aeb72c6-7795-421e-8c99-8e89a08bfac6","ios":"levelo://app?vid=6aeb72c6-7795-421e-8c99-8e89a08bfac6"},"vehicle_type_id":"4","last_reported":1703009226,"current_range_meters":30400,"station_id":"ce4bhp92rcd13ifvqhbg","pricing_plan_id":"free"},{"bike_id":"974dc7db-ff3c-4554-8964-132f9db52d9b","system_id":"levelo_inurba_marseille","lat":43.276092,"lon":5.395289,"is_reserved":false,"is_disabled":false,"rental_uris":{"android":"levelo://app?vid=974dc7db-ff3c-4554-8964-132f9db52d9b","ios":"levelo://app?vid=974dc7db-ff3c-4554-8964-132f9db52d9b"},"vehicle_type_id":"4","last_reported":1703009226,"current_range_meters":6400,"station_id":"","pricing_plan_id":"free"},{"bike_id":"f8093bcd-0172-411d-a764-90b6abd2d824","system_id":"levelo_inurba_marseille","lat":43.274103,"lon":5.394016,"is_reserved":false,"is_disabled":false,"rental_uris":{"android":"levelo://app?vid=f8093bcd-0172-411d-a764-90b6abd2d824","ios":"levelo://app?vid=f8093bcd-0172-411d-a764-90b6abd2d824"},"vehicle_type_id":"4","last_reported":1703009226,"current_range_meters":12000,"station_id":"ce4bhdp2rcd13ifvqf20","pricing_plan_id":"free"},{"bike_id":"9ba08593-ba56-410e-ad8d-134c68f52064","system_id":"levelo_inurba_marseille","lat":43.304096,"lon":5.425385,"is_reserved":false,"is_disabled":false,"rental_uris":{"android":"levelo://app?vid=9ba08593-ba56-410e-ad8d-134c68f52064","ios":"levelo://app?vid=9ba08593-ba56-410e-ad8d-134c68f52064"},"vehicle_type_id":"4","last_reported":1703009226,"current_range_meters":16400,"station_id":"ce4bhoh2rcd13ifvqh6g","pricing_plan_id":"free"},{"bike_id":"d9ded4ec-678c-420c-89a0-1b6eed2e695d","system_id":"levelo_inurba_marseille","lat":43.295511,"lon":5.422926,"is_reserved":false,"is_disabled":false,"rental_uris":{"android":"levelo://app?vid=d9ded4ec-678c-420c-89a0-1b6eed2e695d","ios":"levelo://app?vid=d9ded4ec-678c-420c-89a0-1b6eed2e695d"},"vehicle_type_id":"4","last_reported":1703009226,"current_range_meters":4400,"station_id":"ce4bhph2rcd13ifvqhdg","pricing_plan_id":"free"},{"bike_id":"1aaeade2-16f7-4c2d-b598-dfecd6c04985","system_id":"levelo_inurba_marseille","lat":43.29551,"lon":5.42287,"is_reserved":false,"is_disabled":false,"rental_uris":{"android":"levelo://app?vid=1aaeade2-16f7-4c2d-b598-dfecd6c04985","ios":"levelo://app?vid=1aaeade2-16f7-4c2d-b598-dfecd6c04985"},"vehicle_type_id":"4","last_reported":1703009226,"current_range_meters":18400,"station_id":"ce4bhph2rcd13ifvqhdg","pricing_plan_id":"free"},{"bike_id":"ca314493-3848-477b-95b3-e1722a7aef04","system_id":"levelo_inurba_marseille","lat":43.295176,"lon":5.422678,"is_reserved":false,"is_disabled":false,"rental_uris":{"android":"levelo://app?vid=ca314493-3848-477b-95b3-e1722a7aef04","ios":"levelo://app?vid=ca314493-3848-477b-95b3-e1722a7aef04"},"vehicle_type_id":"4","last_reported":1703009226,"current_range_meters":14800,"station_id":"ce4bhph2rcd13ifvqhdg","pricing_plan_id":"free"},{"bike_id":"f53993d0-51d2-4fb2-93ef-b24d077aac1e","system_id":"levelo_inurba_marseille","lat":43.295511,"lon":5.422926,"is_reserved":false,"is_disabled":false,"rental_uris":{"android":"levelo://app?vid=f53993d0-51d2-4fb2-93ef-b24d077aac1e","ios":"levelo://app?vid=f53993d0-51d2-4fb2-93ef-b24d077aac1e"},"vehicle_type_id":"4","last_reported":1703009226,"current_range_meters":20800,"station_id":"ce4bhph2rcd13ifvqhdg","pricing_plan_id":"free"},{"bike_id":"9c6826b7-5273-425c-ae07-ee8f8a402ab4","system_id":"levelo_inurba_marseille","lat":43.295523,"lon":5.422926,"is_reserved":false,"is_disabled":false,"rental_uris":{"android":"levelo://app?vid=9c6826b7-5273-425c-ae07-ee8f8a402ab4","ios":"levelo://app?vid=9c6826b7-5273-425c-ae07-ee8f8a402ab4"},"vehicle_type_id":"4","last_reported":1703009226,"current_range_meters":20000,"station_id":"ce4bhph2rcd13ifvqhdg","pricing_plan_id":"free"},{"bike_id":"a8fcc8a6-5665-4904-b944-4f0d966a182a","system_id":"levelo_inurba_marseille","lat":43.278128,"lon":5.407195,"is_reserved":false,"is_disabled":false,"rental_uris":{"android":"levelo://app?vid=a8fcc8a6-5665-4904-b944-4f0d966a182a","ios":"levelo://app?vid=a8fcc8a6-5665-4904-b944-4f0d966a182a"},"vehicle_type_id":"4","last_reported":1703009226,"current_range_meters":4400,"station_id":"ce4bhnh2rcd13ifvqgtg","pricing_plan_id":"free"},{"bike_id":"5dc28e01-a2d5-4372-9d68-124450645e51","system_id":"levelo_inurba_marseille","lat":43.278128,"lon":5.407195,"is_reserved":false,"is_disabled":false,"rental_uris":{"android":"levelo://app?vid=5dc28e01-a2d5-4372-9d68-124450645e51","ios":"levelo://app?vid=5dc28e01-a2d5-4372-9d68-124450645e51"},"vehicle_type_id":"4","last_reported":1703009226,"current_range_meters":27600,"station_id":"ce4bhnh2rcd13ifvqgtg","pricing_plan_id":"free"},{"bike_id":"4249991d-d320-4409-90c8-3ff561525765","system_id":"levelo_inurba_marseille","lat":43.269467,"lon":5.386439,"is_reserved":false,"is_disabled":false,"rental_uris":{"android":"levelo://app?vid=4249991d-d320-4409-90c8-3ff561525765","ios":"levelo://app?vid=4249991d-d320-4409-90c8-3ff561525765"},"vehicle_type_id":"4","last_reported":1703009226,"current_range_meters":0,"station_id":"ce4bhh92rcd13ifvqfh0","pricing_plan_id":"free"},{"bike_id":"1cd89ac2-f7d3-44a2-9b08-e96595f0710b","system_id":"levelo_inurba_marseille","lat":43.320045,"lon":5.415046,"is_reserved":false,"is_disabled":false,"rental_uris":{"android":"levelo://app?vid=1cd89ac2-f7d3-44a2-9b08-e96595f0710b","ios":"levelo://app?vid=1cd89ac2-f7d3-44a2-9b08-e96595f0710b"},"vehicle_type_id":"4","last_reported":1703009226,"current_range_meters":18400,"station_id":"ce4bhq92rcd13ifvqhkg","pricing_plan_id":"free"},{"bike_id":"0ef115bc-1ea9-4c8b-927e-890069af6ecc","system_id":"levelo_inurba_marseille","lat":43.27996,"lon":5.416624,"is_reserved":false,"is_disabled":false,"rental_uris":{"android":"levelo://app?vid=0ef115bc-1ea9-4c8b-927e-890069af6ecc","ios":"levelo://app?vid=0ef115bc-1ea9-4c8b-927e-890069af6ecc"},"vehicle_type_id":"4","last_reported":1703009226,"current_range_meters":31200,"station_id":"ce4bho12rcd13ifvqh1g","pricing_plan_id":"free"},{"bike_id":"19cb746e-3835-4da1-9d7b-d4eb0f6f7fde","system_id":"levelo_inurba_marseille","lat":43.265714,"lon":5.372891,"is_reserved":false,"is_disabled":false,"rental_uris":{"android":"levelo://app?vid=19cb746e-3835-4da1-9d7b-d4eb0f6f7fde","ios":"levelo://app?vid=19cb746e-3835-4da1-9d7b-d4eb0f6f7fde"},"vehicle_type_id":"4","last_reported":1703009226,"current_range_meters":17600,"station_id":"ce4bhg12rcd13ifvqf70","pricing_plan_id":"free"},{"bike_id":"70395d88-0341-4ebf-9ce2-9c7c6fcc5d3d","system_id":"levelo_inurba_marseille","lat":43.308051,"lon":5.43527,"is_reserved":false,"is_disabled":false,"rental_uris":{"android":"levelo://app?vid=70395d88-0341-4ebf-9ce2-9c7c6fcc5d3d","ios":"levelo://app?vid=70395d88-0341-4ebf-9ce2-9c7c6fcc5d3d"},"vehicle_type_id":"4","last_reported":1703009226,"current_range_meters":25200,"station_id":"ce4bhph2rcd13ifvqheg","pricing_plan_id":"free"},{"bike_id":"f6c58b39-cac9-4df9-a569-e67efd876faa","system_id":"levelo_inurba_marseille","lat":43.308051,"lon":5.43527,"is_reserved":false,"is_disabled":false,"rental_uris":{"android":"levelo://app?vid=f6c58b39-cac9-4df9-a569-e67efd876faa","ios":"levelo://app?vid=f6c58b39-cac9-4df9-a569-e67efd876faa"},"vehicle_type_id":"4","last_reported":1703009226,"current_range_meters":24800,"station_id":"ce4bhph2rcd13ifvqheg","pricing_plan_id":"free"},{"bike_id":"49deb57a-511d-4ea6-92ca-0778a719f902","system_id":"levelo_inurba_marseille","lat":43.308051,"lon":5.43527,"is_reserved":false,"is_disabled":false,"rental_uris":{"android":"levelo://app?vid=49deb57a-511d-4ea6-92ca-0778a719f902","ios":"levelo://app?vid=49deb57a-511d-4ea6-92ca-0778a719f902"},"vehicle_type_id":"4","last_reported":1703009226,"current_range_meters":7200,"station_id":"ce4bhph2rcd13ifvqheg","pricing_plan_id":"free"},{"bike_id":"8a80415f-c97a-4218-a2ef-b79455f4bc69","system_id":"levelo_inurba_marseille","lat":43.308051,"lon":5.43527,"is_reserved":false,"is_disabled":false,"rental_uris":{"android":"levelo://app?vid=8a80415f-c97a-4218-a2ef-b79455f4bc69","ios":"levelo://app?vid=8a80415f-c97a-4218-a2ef-b79455f4bc69"},"vehicle_type_id":"4","last_reported":1703009226,"current_range_meters":31600,"station_id":"ce4bhph2rcd13ifvqheg","pricing_plan_id":"free"},{"bike_id":"1518733f-295b-41ec-8c29-5275dd6ba3c9","system_id":"levelo_inurba_marseille","lat":43.265571,"lon":5.390032,"is_reserved":false,"is_disabled":false,"rental_uris":{"android":"levelo://app?vid=1518733f-295b-41ec-8c29-5275dd6ba3c9","ios":"levelo://app?vid=1518733f-295b-41ec-8c29-5275dd6ba3c9"},"vehicle_type_id":"4","last_reported":1703009226,"current_range_meters":0,"station_id":"ce4bhe12rcd13ifvqf30","pricing_plan_id":"free"},{"bike_id":"214dcafd-d629-4a24-bb69-f4875fe807ed","system_id":"levelo_inurba_marseille","lat":43.26565,"lon":5.38998,"is_reserved":false,"is_disabled":false,"rental_uris":{"android":"levelo://app?vid=214dcafd-d629-4a24-bb69-f4875fe807ed","ios":"levelo://app?vid=214dcafd-d629-4a24-bb69-f4875fe807ed"},"vehicle_type_id":"4","last_reported":1703009226,"current_range_meters":0,"station_id":"ce4bhe12rcd13ifvqf30","pricing_plan_id":"free"},{"bike_id":"ea71ee6a-6097-4a32-867f-7246ecd4f762","system_id":"levelo_inurba_marseille","lat":43.26563,"lon":5.39007,"is_reserved":false,"is_disabled":false,"rental_uris":{"android":"levelo://app?vid=ea71ee6a-6097-4a32-867f-7246ecd4f762","ios":"levelo://app?vid=ea71ee6a-6097-4a32-867f-7246ecd4f762"},"vehicle_type_id":"4","last_reported":1703009226,"current_range_meters":0,"station_id":"ce4bhe12rcd13ifvqf30","pricing_plan_id":"free"},{"bike_id":"19e5778a-0fec-4ae7-941a-1e270733f352","system_id":"levelo_inurba_marseille","lat":43.265571,"lon":5.390032,"is_reserved":false,"is_disabled":false,"rental_uris":{"android":"levelo://app?vid=19e5778a-0fec-4ae7-941a-1e270733f352","ios":"levelo://app?vid=19e5778a-0fec-4ae7-941a-1e270733f352"},"vehicle_type_id":"4","last_reported":1703009226,"current_range_meters":0,"station_id":"ce4bhe12rcd13ifvqf30","pricing_plan_id":"free"},{"bike_id":"af5f8e5c-bf9b-42f3-bd4c-710e4f7b207d","system_id":"levelo_inurba_marseille","lat":43.261782,"lon":5.374515,"is_reserved":false,"is_disabled":false,"rental_uris":{"android":"levelo://app?vid=af5f8e5c-bf9b-42f3-bd4c-710e4f7b207d","ios":"levelo://app?vid=af5f8e5c-bf9b-42f3-bd4c-710e4f7b207d"},"vehicle_type_id":"4","last_reported":1703009226,"current_range_meters":8400,"station_id":"ce4bhgp2rcd13ifvqfc0","pricing_plan_id":"free"},{"bike_id":"8519242a-6c56-434b-9df1-f19582206b18","system_id":"levelo_inurba_marseille","lat":43.261782,"lon":5.374515,"is_reserved":false,"is_disabled":false,"rental_uris":{"android":"levelo://app?vid=8519242a-6c56-434b-9df1-f19582206b18","ios":"levelo://app?vid=8519242a-6c56-434b-9df1-f19582206b18"},"vehicle_type_id":"4","last_reported":1703009226,"current_range_meters":13600,"station_id":"ce4bhgp2rcd13ifvqfc0","pricing_plan_id":"free"},{"bike_id":"a1737239-074a-48ff-925e-03345e784648","system_id":"levelo_inurba_marseille","lat":43.271388,"lon":5.409269,"is_reserved":false,"is_disabled":false,"rental_uris":{"android":"levelo://app?vid=a1737239-074a-48ff-925e-03345e784648","ios":"levelo://app?vid=a1737239-074a-48ff-925e-03345e784648"},"vehicle_type_id":"4","last_reported":1703009226,"current_range_meters":31200,"station_id":"ce4bhl12rcd13ifvqgf0","pricing_plan_id":"free"},{"bike_id":"7025b7aa-66d1-48a6-86d9-45ec1cfd2ec2","system_id":"levelo_inurba_marseille","lat":43.271368,"lon":5.40928,"is_reserved":false,"is_disabled":false,"rental_uris":{"android":"levelo://app?vid=7025b7aa-66d1-48a6-86d9-45ec1cfd2ec2","ios":"levelo://app?vid=7025b7aa-66d1-48a6-86d9-45ec1cfd2ec2"},"vehicle_type_id":"4","last_reported":1703009226,"current_range_meters":27200,"station_id":"ce4bhl12rcd13ifvqgf0","pricing_plan_id":"free"},{"bike_id":"762662eb-4f88-4788-96e6-b5322e140d7e","system_id":"levelo_inurba_marseille","lat":43.271388,"lon":5.409269,"is_reserved":false,"is_disabled":false,"rental_uris":{"android":"levelo://app?vid=762662eb-4f88-4788-96e6-b5322e140d7e","ios":"levelo://app?vid=762662eb-4f88-4788-96e6-b5322e140d7e"},"vehicle_type_id":"4","last_reported":1703009226,"current_range_meters":8400,"station_id":"ce4bhl12rcd13ifvqgf0","pricing_plan_id":"free"},{"bike_id":"4570cf9c-b464-4d60-83f7-852a14c48e93","system_id":"levelo_inurba_marseille","lat":43.271388,"lon":5.409269,"is_reserved":false,"is_disabled":false,"rental_uris":{"android":"levelo://app?vid=4570cf9c-b464-4d60-83f7-852a14c48e93","ios":"levelo://app?vid=4570cf9c-b464-4d60-83f7-852a14c48e93"},"vehicle_type_id":"4","last_reported":1703009226,"current_range_meters":5200,"station_id":"ce4bhl12rcd13ifvqgf0","pricing_plan_id":"free"},{"bike_id":"9b88496c-d658-4fce-8931-3fcd1aaa3f3f","system_id":"levelo_inurba_marseille","lat":43.271388,"lon":5.409269,"is_reserved":false,"is_disabled":false,"rental_uris":{"android":"levelo://app?vid=9b88496c-d658-4fce-8931-3fcd1aaa3f3f","ios":"levelo://app?vid=9b88496c-d658-4fce-8931-3fcd1aaa3f3f"},"vehicle_type_id":"4","last_reported":1703009226,"current_range_meters":7200,"station_id":"ce4bhl12rcd13ifvqgf0","pricing_plan_id":"free"},{"bike_id":"d7cb8283-d0b7-4a15-b9e7-0773e42fb211","system_id":"levelo_inurba_marseille","lat":43.267959,"lon":5.402687,"is_reserved":false,"is_disabled":false,"rental_uris":{"android":"levelo://app?vid=d7cb8283-d0b7-4a15-b9e7-0773e42fb211","ios":"levelo://app?vid=d7cb8283-d0b7-4a15-b9e7-0773e42fb211"},"vehicle_type_id":"4","last_reported":1703009226,"current_range_meters":20400,"station_id":"ce501612rcd8frsf0b60","pricing_plan_id":"free"},{"bike_id":"4bc9693d-48d8-45f6-aa29-721f664b7732","system_id":"levelo_inurba_marseille","lat":43.298768,"lon":5.43643,"is_reserved":false,"is_disabled":false,"rental_uris":{"android":"levelo://app?vid=4bc9693d-48d8-45f6-aa29-721f664b7732","ios":"levelo://app?vid=4bc9693d-48d8-45f6-aa29-721f664b7732"},"vehicle_type_id":"4","last_reported":1703009226,"current_range_meters":15200,"station_id":"ce4bhpp2rcd13ifvqhfg","pricing_plan_id":"free"},{"bike_id":"4045c651-a76f-4f34-936a-ba13b6567b65","system_id":"levelo_inurba_marseille","lat":43.298768,"lon":5.43643,"is_reserved":false,"is_disabled":false,"rental_uris":{"android":"levelo://app?vid=4045c651-a76f-4f34-936a-ba13b6567b65","ios":"levelo://app?vid=4045c651-a76f-4f34-936a-ba13b6567b65"},"vehicle_type_id":"4","last_reported":1703009226,"current_range_meters":24000,"station_id":"ce4bhpp2rcd13ifvqhfg","pricing_plan_id":"free"},{"bike_id":"ddf7c978-0a6f-4f64-909c-de9015383fbe","system_id":"levelo_inurba_marseille","lat":43.281548,"lon":5.42643,"is_reserved":false,"is_disabled":false,"rental_uris":{"android":"levelo://app?vid=ddf7c978-0a6f-4f64-909c-de9015383fbe","ios":"levelo://app?vid=ddf7c978-0a6f-4f64-909c-de9015383fbe"},"vehicle_type_id":"4","last_reported":1703009226,"current_range_meters":15200,"station_id":"ce4bhnh2rcd13ifvqgug","pricing_plan_id":"free"},{"bike_id":"3d598514-74e0-4f9c-9c1b-9725a678e82f","system_id":"levelo_inurba_marseille","lat":43.281548,"lon":5.42643,"is_reserved":false,"is_disabled":false,"rental_uris":{"android":"levelo://app?vid=3d598514-74e0-4f9c-9c1b-9725a678e82f","ios":"levelo://app?vid=3d598514-74e0-4f9c-9c1b-9725a678e82f"},"vehicle_type_id":"4","last_reported":1703009226,"current_range_meters":7600,"station_id":"ce4bhnh2rcd13ifvqgug","pricing_plan_id":"free"},{"bike_id":"3bbc7e5f-194b-42dd-afe1-6c193113c3f9","system_id":"levelo_inurba_marseille","lat":43.281548,"lon":5.42643,"is_reserved":false,"is_disabled":false,"rental_uris":{"android":"levelo://app?vid=3bbc7e5f-194b-42dd-afe1-6c193113c3f9","ios":"levelo://app?vid=3bbc7e5f-194b-42dd-afe1-6c193113c3f9"},"vehicle_type_id":"4","last_reported":1703009226,"current_range_meters":1200,"station_id":"ce4bhnh2rcd13ifvqgug","pricing_plan_id":"free"},{"bike_id":"42ba9f57-27e9-4efd-a49d-744320afd5c0","system_id":"levelo_inurba_marseille","lat":43.258224,"lon":5.394369,"is_reserved":false,"is_disabled":false,"rental_uris":{"android":"levelo://app?vid=42ba9f57-27e9-4efd-a49d-744320afd5c0","ios":"levelo://app?vid=42ba9f57-27e9-4efd-a49d-744320afd5c0"},"vehicle_type_id":"4","last_reported":1703009226,"current_range_meters":0,"station_id":"ce4bhip2rcd13ifvqft0","pricing_plan_id":"free"},{"bike_id":"2cbb6670-3d4b-4928-804d-6c55462fd817","system_id":"levelo_inurba_marseille","lat":43.254947,"lon":5.376454,"is_reserved":false,"is_disabled":false,"rental_uris":{"android":"levelo://app?vid=2cbb6670-3d4b-4928-804d-6c55462fd817","ios":"levelo://app?vid=2cbb6670-3d4b-4928-804d-6c55462fd817"},"vehicle_type_id":"4","last_reported":1703009226,"current_range_meters":25600,"station_id":"ce4bhh12rcd13ifvqff0","pricing_plan_id":"free"},{"bike_id":"878ec9ad-1879-4a8f-926e-8e37d131d2d3","system_id":"levelo_inurba_marseille","lat":43.254947,"lon":5.376454,"is_reserved":false,"is_disabled":false,"rental_uris":{"android":"levelo://app?vid=878ec9ad-1879-4a8f-926e-8e37d131d2d3","ios":"levelo://app?vid=878ec9ad-1879-4a8f-926e-8e37d131d2d3"},"vehicle_type_id":"4","last_reported":1703009226,"current_range_meters":3600,"station_id":"ce4bhh12rcd13ifvqff0","pricing_plan_id":"free"},{"bike_id":"1309d4e1-d03b-49a4-bf50-7663a38567fe","system_id":"levelo_inurba_marseille","lat":43.258658,"lon":5.398935,"is_reserved":false,"is_disabled":false,"rental_uris":{"android":"levelo://app?vid=1309d4e1-d03b-49a4-bf50-7663a38567fe","ios":"levelo://app?vid=1309d4e1-d03b-49a4-bf50-7663a38567fe"},"vehicle_type_id":"4","last_reported":1703009226,"current_range_meters":19600,"station_id":"ce4bhl92rcd13ifvqghg","pricing_plan_id":"free"},{"bike_id":"bcc2464a-c938-437a-904f-ba4a78875c60","system_id":"levelo_inurba_marseille","lat":43.258658,"lon":5.398935,"is_reserved":false,"is_disabled":false,"rental_uris":{"android":"levelo://app?vid=bcc2464a-c938-437a-904f-ba4a78875c60","ios":"levelo://app?vid=bcc2464a-c938-437a-904f-ba4a78875c60"},"vehicle_type_id":"4","last_reported":1703009226,"current_range_meters":8000,"station_id":"ce4bhl92rcd13ifvqghg","pricing_plan_id":"free"},{"bike_id":"9e295ed5-c306-4c44-a287-633be53928a3","system_id":"levelo_inurba_marseille","lat":43.258658,"lon":5.398935,"is_reserved":false,"is_disabled":false,"rental_uris":{"android":"levelo://app?vid=9e295ed5-c306-4c44-a287-633be53928a3","ios":"levelo://app?vid=9e295ed5-c306-4c44-a287-633be53928a3"},"vehicle_type_id":"4","last_reported":1703009226,"current_range_meters":3600,"station_id":"ce4bhl92rcd13ifvqghg","pricing_plan_id":"free"},