{"last_updated":1744546632,"ttl":60,"version":"2.2","data":{"bikes":[{"bike_id":"e457802a-9b9e-4fd1-a9a4-fe7d9111a616","system_id":"levelo_inurba_marseille","lat":43.28034,"lon":5.36939,"is_reserved":false,"is_disabled":false,"rental_uris":{"android":"levelo://app?vid=e457802a-9b9e-4fd1-a9a4-fe7d9111a616","ios":"levelo://app?vid=e457802a-9b9e-4fd1-a9a4-fe7d9111a616"},"vehicle_type_id":"4","last_reported":1744546632,"current_range_meters":2800,"station_id":"ce4bha12rcd13ifvqef0","pricing_plan_id":"cebpf4jnsgd1na2vs0mg"},{"bike_id":"cce0db5c-11e3-420f-be20-3cffb99ae8fe","system_id":"levelo_inurba_marseille","lat":43.261806,"lon":5.374817,"is_reserved":false,"is_disabled":false,"rental_uris":{"android":"levelo://app?vid=cce0db5c-11e3-420f-be20-3cffb99ae8fe","ios":"levelo://app?vid=cce0db5c-11e3-420f-be20-3cffb99ae8fe"},"vehicle_type_id":"4","last_reported":1744546632,"current_range_meters":2800,"station_id":"ce4bhgp2rcd13ifvqfc0","pricing_plan_id":"cebpf4jnsgd1na2vs0mg"},{"bike_id":"b6ff7e66-b821-4f07-a3cf-b9f4abde04e1","system_id":"levelo_inurba_marseille","lat":43.27997,"lon":5.40033,"is_reserved":false,"is_disabled":true,"rental_uris":{"android":"levelo://app?vid=b6ff7e66-b821-4f07-a3cf-b9f4abde04e1","ios":"levelo://app?vid=b6ff7e66-b821-4f07-a3cf-b9f4abde04e1"},"vehicle_type_id":"4","last_reported":1744546632,"current_range_meters":2800,"station_id":"ce4bho92rcd13ifvqh4g","pricing_plan_id":"cebpf4jnsgd1na2vs0mg"},{"bike_id":"f2c9af42-a832-4609-be6a-7a6fa0049083","system_id":"levelo_inurba_marseille","lat":43.269239,"lon":5.390367,"is_reserved":false,"is_disabled":false,"rental_uris":{"android":"levelo://app?vid=f2c9af42-a832-4609-be6a-7a6fa0049083","ios":"levelo://app?vid=f2c9af42-a832-4609-be6a-7a6fa0049083"},"vehicle_type_id":"4","last_reported":1744546632,"current_range_meters":2800,"station_id":"","pricing_plan_id":"cebpf4jnsgd1na2vs0mg"},{"bike_id":"04d59179-d26d-4deb-a06a-b54a2aaf2500","system_id":"levelo_inurba_marseille","lat":43.24074,"lon":5.37741,"is_reserved":false,"is_disabled":true,"rental_uris":{"android":"levelo://app?vid=04d59179-d26d-4deb-a06a-b54a2aaf2500","ios":"levelo://app?vid=04d59179-d26d-4deb-a06a-b54a2aaf2500"},"vehicle_type_id":"4","last_reported":1744546632,"current_range_meters":2800,"station_id":"ce4bhnp2rcd13ifvqgvg","pricing_plan_id":"cebpf4jnsgd1na2vs0mg"},{"bike_id":"975f64f4-5f9e-4413-a667-33877225fcac","system_id":"levelo_inurba_marseille","lat":43.23958,"lon":5.36626,"is_reserved":false,"is_disabled":true,"rental_uris":{"android":"levelo://app?vid=975f64f4-5f9e-4413-a667-33877225fcac","ios":"levelo://app?vid=975f64f4-5f9e-4413-a667-33877225fcac"},"vehicle_type_id":"4","last_reported":1744546632,"current_range_meters":2800,"station_id":"ce4bhi12rcd13ifvqfp0","pricing_plan_id":"cebpf4jnsgd1na2vs0mg"},{"bike_id":"72dc4da3-b585-4fbf-ba5a-04ffa06c2984","system_id":"levelo_inurba_marseille","lat":43.30476,"lon":5.37895,"is_reserved":false,"is_disabled":false,"rental_uris":{"android":"levelo://app?vid=72dc4da3-b585-4fbf-ba5a-04ffa06c2984","ios":"levelo://app?vid=72dc4da3-b585-4fbf-ba5a-04ffa06c2984"},"vehicle_type_id":"4","last_reported":1744546632,"current_range_meters":2800,"station_id":"ce4bgup2rcd13ifvqcn0","pricing_plan_id":"cebpf4jnsgd1na2vs0mg"},{"bike_id":"3f08cc69-711e-4264-b923-68891203ffa4","system_id":"levelo_inurba_marseille","lat":43.32285,"lon":5.38243,"is_reserved":false,"is_disabled":true,"rental_uris":{"android":"levelo://app?vid=3f08cc69-711e-4264-b923-68891203ffa4","ios":"levelo://app?vid=3f08cc69-711e-4264-b923-68891203ffa4"},"vehicle_type_id":"4","last_reported":1744546632,"current_range_meters":3200,"station_id":"ce4bhr12rcd13ifvqhqg","pricing_plan_id":"cebpf4jnsgd1na2vs0mg"},{"bike_id":"4473dd55-9a58-4962-ab69-3b06851d73e7","system_id":"levelo_inurba_marseille","lat":43.283292,"lon":5.385612,"is_reserved":false,"is_disabled":false,"rental_uris":{"android":"levelo://app?vid=4473dd55-9a58-4962-ab69-3b06851d73e7","ios":"levelo://app?vid=4473dd55-9a58-4962-ab69-3b06851d73e7"},"vehicle_type_id":"4","last_reported":1744546632,"current_range_meters":3200,"station_id":"ce4bhjp2rcd13ifvqga0","pricing_plan_id":"cebpf4jnsgd1na2vs0mg"},{"bike_id":"f96c0c65-7fce-4b6c-8bb2-232128e93959","system_id":"levelo_inurba_marseille","lat":43.30512,"lon":5.39326,"is_reserved":false,"is_disabled":false,"rental_uris":{"android":"levelo://app?vid=f96c0c65-7fce-4b6c-8bb2-232128e93959","ios":"levelo://app?vid=f96c0c65-7fce-4b6c-8bb2-232128e93959"},"vehicle_type_id":"4","last_reported":1744546632,"current_range_meters":3600,"station_id":"","pricing_plan_id":"cebpf4jnsgd1na2vs0mg"},{"bike_id":"d3c94319-9ed3-4a82-b794-1dc8cd7fd01f","system_id":"levelo_inurba_marseille","lat":43.2862,"lon":5.3705,"is_reserved":false,"is_disabled":false,"rental_uris":{"android":"levelo://app?vid=d3c94319-9ed3-4a82-b794-1dc8cd7fd01f","ios":"levelo://app?vid=d3c94319-9ed3-4a82-b794-1dc8cd7fd01f"},"vehicle_type_id":"4","last_reported":1744546632,"current_range_meters":3600,"station_id":"ce4bht12rcd13ifvqi60","pricing_plan_id":"cebpf4jnsgd1na2vs0mg"},{"bike_id":"38ce4ddd-fd1a-440e-a089-9287f2248ef0","system_id":"levelo_inurba_marseille","lat":43.29995,"lon":5.38504,"is_reserved":false,"is_disabled":false,"rental_uris":{"android":"levelo://app?vid=38ce4ddd-fd1a-440e-a089-9287f2248ef0","ios":"levelo://app?vid=38ce4ddd-fd1a-440e-a089-9287f2248ef0"},"vehicle_type_id":"4","last_reported":1744546632,"current_range_meters":3600,"station_id":"ce4bgj92rcd13ifvqbd0","pricing_plan_id":"cebpf4jnsgd1na2vs0mg"},{"bike_id":"e4380e13-6ea1-432c-b547-badeba89c1b3","system_id":"levelo_inurba_marseille","lat":43.288591,"lon":5.393239,"is_reserved":false,"is_disabled":true,"rental_uris":{"android":"levelo://app?vid=e4380e13-6ea1-432c-b547-badeba89c1b3","ios":"levelo://app?vid=e4380e13-6ea1-432c-b547-badeba89c1b3"},"vehicle_type_id":"4","last_reported":1744546632,"current_range_meters":3600,"station_id":"ce4bh2p2rcd13ifvqdi0","pricing_plan_id":"cebpf4jnsgd1na2vs0mg"},{"bike_id":"8b1fdd5e-f5eb-4457-b068-b095b4b2651d","system_id":"levelo_inurba_marseille","lat":43.279431,"lon":5.410474,"is_reserved":false,"is_disabled":false,"rental_uris":{"android":"levelo://app?vid=8b1fdd5e-f5eb-4457-b068-b095b4b2651d","ios":"levelo://app?vid=8b1fdd5e-f5eb-4457-b068-b095b4b2651d"},"vehicle_type_id":"4","last_reported":1744546632,"current_range_meters":3600,"station_id":"ce4bhnp2rcd13ifvqh0g","pricing_plan_id":"cebpf4jnsgd1na2vs0mg"},{"bike_id":"7e86c79d-59c6-4722-ac3b-f22ab24db135","system_id":"levelo_inurba_marseille","lat":43.28267,"lon":5.35065,"is_reserved":false,"is_disabled":false,"rental_uris":{"android":"levelo://app?vid=7e86c79d-59c6-4722-ac3b-f22ab24db135","ios":"levelo://app?vid=7e86c79d-59c6-4722-ac3b-f22ab24db135"},"vehicle_type_id":"4","last_reported":1744546632,"current_range_meters":3600,"station_id":"ce4bhbp2rcd13ifvqerg","pricing_plan_id":"cebpf4jnsgd1na2vs0mg"},{"bike_id":"1c667098-7610-4181-874d-b435d8cd2273","system_id":"levelo_inurba_marseille","lat":43.29039,"lon":5.37569,"is_reserved":false,"is_disabled":false,"rental_uris":{"android":"levelo://app?vid=1c667098-7610-4181-874d-b435d8cd2273","ios":"levelo://app?vid=1c667098-7610-4181-874d-b435d8cd2273"},"vehicle_type_id":"4","last_reported":1744546632,"current_range_meters":3600,"station_id":"ce4bh692rcd13ifvqe90","pricing_plan_id":"cebpf4jnsgd1na2vs0mg"},{"bike_id":"61526959-0495-4c82-b747-c427427fef4b","system_id":"levelo_inurba_marseille","lat":43.23157,"lon":5.43686,"is_reserved":false,"is_disabled":false,"rental_uris":{"android":"levelo://app?vid=61526959-0495-4c82-b747-c427427fef4b","ios":"levelo://app?vid=61526959-0495-4c82-b747-c427427fef4b"},"vehicle_type_id":"4","last_reported":1744546632,"current_range_meters":4000,"station_id":"ce4bhmp2rcd13ifvqgog","pricing_plan_id":"cebpf4jnsgd1na2vs0mg"},{"bike_id":"dd64b78e-5e6f-40ad-92d7-5ed8a19c86fa","system_id":"levelo_inurba_marseille","lat":43.279501,"lon":5.410386,"is_reserved":false,"is_disabled":false,"rental_uris":{"android":"levelo://app?vid=dd64b78e-5e6f-40ad-92d7-5ed8a19c86fa","ios":"levelo://app?vid=dd64b78e-5e6f-40ad-92d7-5ed8a19c86fa"},"vehicle_type_id":"4","last_reported":1744546632,"current_range_meters":4000,"station_id":"ce4bhnp2rcd13ifvqh0g","pricing_plan_id":"cebpf4jnsgd1na2vs0mg"},{"bike_id":"3befb93c-45ba-4006-8aba-da3fee6179dc","system_id":"levelo_inurba_marseille","lat":43.25819,"lon":5.39434,"is_reserved":false,"is_disabled":false,"rental_uris":{"android":"levelo://app?vid=3befb93c-45ba-4006-8aba-da3fee6179dc","ios":"levelo://app?vid=3befb93c-45ba-4006-8aba-da3fee6179dc"},"vehicle_type_id":"4","last_reported":1744546632,"current_range_meters":4400,"station_id":"ce4bhip2rcd13ifvqft0","pricing_plan_id":"cebpf4jnsgd1na2vs0mg"},{"bike_id":"dd081b68-0a47-41b3-9975-782e5d7a940e","system_id":"levelo_inurba_marseille","lat":43.27518,"lon":5.42442,"is_reserved":false,"is_disabled":false,"rental_uris":{"android":"levelo://app?vid=dd081b68-0a47-41b3-9975-782e5d7a940e","ios":"levelo://app?vid=dd081b68-0a47-41b3-9975-782e5d7a940e"},"vehicle_type_id":"4","last_reported":1744546632,"current_range_meters":4400,"station_id":"ce4bhn92rcd13ifvqgrg","pricing_plan_id":"cebpf4jnsgd1na2vs0mg"},{"bike_id":"8c58f2fa-99e1-41f8-bf90-9c1648b679b1","system_id":"levelo_inurba_marseille","lat":43.27309,"lon":5.41451,"is_reserved":false,"is_disabled":false,"rental_uris":{"android":"levelo://app?vid=8c58f2fa-99e1-41f8-bf90-9c1648b679b1","ios":"levelo://app?vid=8c58f2fa-99e1-41f8-bf90-9c1648b679b1"},"vehicle_type_id":"4","last_reported":1744546632,"current_range_meters":4400,"station_id":"","pricing_plan_id":"cebpf4jnsgd1na2vs0mg"},{"bike_id":"adfb08db-ad3d-4a60-889b-8e3a7bf8e1c1","system_id":"levelo_inurba_marseille","lat":43.23156,"lon":5.43715,"is_reserved":false,"is_disabled":false,"rental_uris":{"android":"levelo://app?vid=adfb08db-ad3d-4a60-889b-8e3a7bf8e1c1","ios":"levelo://app?vid=adfb08db-ad3d-4a60-889b-8e3a7bf8e1c1"},"vehicle_type_id":"4","last_reported":1744546632,"current_range_meters":4400,"station_id":"ce4bhmp2rcd13ifvqgog","pricing_plan_id":"cebpf4jnsgd1na2vs0mg"},{"bike_id":"c38e6ee8-6f91-4cf1-a529-943f1c11dd20","system_id":"levelo_inurba_marseille","lat":43.2721,"lon":5.39181,"is_reserved":false,"is_disabled":false,"rental_uris":{"android":"levelo://app?vid=c38e6ee8-6f91-4cf1-a529-943f1c11dd20","ios":"levelo://app?vid=c38e6ee8-6f91-4cf1-a529-943f1c11dd20"},"vehicle_type_id":"4","last_reported":1744546632,"current_range_meters":4400,"station_id":"ce4bhhp2rcd13ifvqfm0","pricing_plan_id":"cebpf4jnsgd1na2vs0mg"},{"bike_id":"8708dd08-3274-46ab-b322-809752473736","system_id":"levelo_inurba_marseille","lat":43.30334,"lon":5.40425,"is_reserved":false,"is_disabled":false,"rental_uris":{"android":"levelo://app?vid=8708dd08-3274-46ab-b322-809752473736","ios":"levelo://app?vid=8708dd08-3274-46ab-b322-809752473736"},"vehicle_type_id":"4","last_reported":1744546632,"current_range_meters":4800,"station_id":"ce4bh012rcd13ifvqd10","pricing_plan_id":"cebpf4jnsgd1na2vs0mg"},{"bike_id":"906a38f3-e0d0-4a2e-926c-bcc948c47bb3","system_id":"levelo_inurba_marseille","lat":43.23156,"lon":5.43717,"is_reserved":false,"is_disabled":false,"rental_uris":{"android":"levelo://app?vid=906a38f3-e0d0-4a2e-926c-bcc948c47bb3","ios":"levelo://app?vid=906a38f3-e0d0-4a2e-926c-bcc948c47bb3"},"vehicle_type_id":"4","last_reported":1744546632,"current_range_meters":4800,"station_id":"ce4bhmp2rcd13ifvqgog","pricing_plan_id":"cebpf4jnsgd1na2vs0mg"},{"bike_id":"12c9c029-5463-4b7c-9023-82537206c2ed","system_id":"levelo_inurba_marseille","lat":43.30159,"lon":5.38086,"is_reserved":false,"is_disabled":false,"rental_uris":{"android":"levelo://app?vid=12c9c029-5463-4b7c-9023-82537206c2ed","ios":"levelo://app?vid=12c9c029-5463-4b7c-9023-82537206c2ed"},"vehicle_type_id":"4","last_reported":1744546632,"current_range_meters":4800,"station_id":"ce4bgjp2rcd13ifvqbh0","pricing_plan_id":"cebpf4jnsgd1na2vs0mg"},{"bike_id":"00673b85-6711-4859-b3bf-30a6d0492894","system_id":"levelo_inurba_marseille","lat":43.25529,"lon":5.37637,"is_reserved":false,"is_disabled":true,"rental_uris":{"android":"levelo://app?vid=00673b85-6711-4859-b3bf-30a6d0492894","ios":"levelo://app?vid=00673b85-6711-4859-b3bf-30a6d0492894"},"vehicle_type_id":"4","last_reported":1744546632,"current_range_meters":5600,"station_id":"ce4bhh12rcd13ifvqff0","pricing_plan_id":"cebpf4jnsgd1na2vs0mg"},{"bike_id":"3438c5bd-1787-489f-9a0e-5eb33ff8500a","system_id":"levelo_inurba_marseille","lat":43.29565,"lon":5.42269,"is_reserved":false,"is_disabled":true,"rental_uris":{"android":"levelo://app?vid=3438c5bd-1787-489f-9a0e-5eb33ff8500a","ios":"levelo://app?vid=3438c5bd-1787-489f-9a0e-5eb33ff8500a"},"vehicle_type_id":"4","last_reported":1744546632,"current_range_meters":5600,"station_id":"ce4bhph2rcd13ifvqhdg","pricing_plan_id":"cebpf4jnsgd1na2vs0mg"},{"bike_id":"822123d5-9dad-4088-ba55-9dac0f983073","system_id":"levelo_inurba_marseille","lat":43.30239,"lon":5.3688,"is_reserved":false,"is_disabled":false,"rental_uris":{"android":"levelo://app?vid=822123d5-9dad-4088-ba55-9dac0f983073","ios":"levelo://app?vid=822123d5-9dad-4088-ba55-9dac0f983073"},"vehicle_type_id":"4","last_reported":1744546632,"current_range_meters":5600,"station_id":"","pricing_plan_id":"cebpf4jnsgd1na2vs0mg"},{"bike_id":"717ea955-cd9b-4a91-b4d0-8f8307ee75fe","system_id":"levelo_inurba_marseille","lat":43.2783,"lon":5.39213,"is_reserved":false,"is_disabled":false,"rental_uris":{"android":"levelo://app?vid=717ea955-cd9b-4a91-b4d0-8f8307ee75fe","ios":"levelo://app?vid=717ea955-cd9b-4a91-b4d0-8f8307ee75fe"},"vehicle_type_id":"4","last_reported":1744546632,"current_range_meters":6000,"station_id":"ce4bhjp2rcd13ifvqga0","pricing_plan_id":"cebpf4jnsgd1na2vs0mg"},{"bike_id":"3d0b20a6-5f7a-4e02-908b-984ef882fb4d","system_id":"levelo_inurba_marseille","lat":43.2926,"lon":5.37629,"is_reserved":false,"is_disabled":false,"rental_uris":{"android":"levelo://app?vid=3d0b20a6-5f7a-4e02-908b-984ef882fb4d","ios":"levelo://app?vid=3d0b20a6-5f7a-4e02-908b-984ef882fb4d"},"vehicle_type_id":"4","last_reported":1744546632,"current_range_meters":6000,"station_id":"ce4bgi12rcd13ifvqb80","pricing_plan_id":"cebpf4jnsgd1na2vs0mg"},{"bike_id":"cfadcc33-5bb8-4f29-9a84-ae98565bb4a2","system_id":"levelo_inurba_marseille","lat":43.2409,"lon":5.37805,"is_reserved":false,"is_disabled":false,"rental_uris":{"android":"levelo://app?vid=cfadcc33-5bb8-4f29-9a84-ae98565bb4a2","ios":"levelo://app?vid=cfadcc33-5bb8-4f29-9a84-ae98565bb4a2"},"vehicle_type_id":"4","last_reported":1744546632,"current_range_meters":6400,"station_id":"ce4bhnp2rcd13ifvqgvg","pricing_plan_id":"cebpf4jnsgd1na2vs0mg"},{"bike_id":"4c893399-b4ed-40ed-a49f-713da320f269","system_id":"levelo_inurba_marseille","lat":43.29861,"lon":5.37841,"is_reserved":false,"is_disabled":false,"rental_uris":{"android":"levelo://app?vid=4c893399-b4ed-40ed-a49f-713da320f269","ios":"levelo://app?vid=4c893399-b4ed-40ed-a49f-713da320f269"},"vehicle_type_id":"4","last_reported":1744546632,"current_range_meters":6400,"station_id":"","pricing_plan_id":"cebpf4jnsgd1na2vs0mg"},{"bike_id":"fb3bf63f-cb8b-4e2d-97b5-e2bd30164ab5","system_id":"levelo_inurba_marseille","lat":43.31054,"lon":5.36701,"is_reserved":false,"is_disabled":false,"rental_uris":{"android":"levelo://app?vid=fb3bf63f-cb8b-4e2d-97b5-e2bd30164ab5","ios":"levelo://app?vid=fb3bf63f-cb8b-4e2d-97b5-e2bd30164ab5"},"vehicle_type_id":"4","last_reported":1744546632,"current_range_meters":6400,"station_id":"","pricing_plan_id":"cebpf4jnsgd1na2vs0mg"},{"bike_id":"b789c888-cee7-4122-bba0-44a64e9faff2","system_id":"levelo_inurba_marseille","lat":43.32347,"lon":5.40625,"is_reserved":false,"is_disabled":false,"rental_uris":{"android":"levelo://app?vid=b789c888-cee7-4122-bba0-44a64e9faff2","ios":"levelo://app?vid=b789c888-cee7-4122-bba0-44a64e9faff2"},"vehicle_type_id":"4","last_reported":1744546632,"current_range_meters":6400,"station_id":"ce4bhq92rcd13ifvqhjg","pricing_plan_id":"cebpf4jnsgd1na2vs0mg"},{"bike_id":"6e5d55de-0920-4d77-8b15-803448b0f14e","system_id":"levelo_inurba_marseille","lat":43.26576,"lon":5.39005,"is_reserved":false,"is_disabled":false,"rental_uris":{"android":"levelo://app?vid=6e5d55de-0920-4d77-8b15-803448b0f14e","ios":"levelo://app?vid=6e5d55de-0920-4d77-8b15-803448b0f14e"},"vehicle_type_id":"4","last_reported":1744546632,"current_range_meters":6800,"station_id":"ce4bhe12rcd13ifvqf30","pricing_plan_id":"cebpf4jnsgd1na2vs0mg"},{"bike_id":"ee37d139-b142-4b50-a9e7-ebe3a284e80c","system_id":"levelo_inurba_marseille","lat":43.22946,"lon":5.35386,"is_reserved":false,"is_disabled":false,"rental_uris":{"android":"levelo://app?vid=ee37d139-b142-4b50-a9e7-ebe3a284e80c","ios":"levelo://app?vid=ee37d139-b142-4b50-a9e7-ebe3a284e80c"},"vehicle_type_id":"4","last_reported":1744546632,"current_range_meters":6800,"station_id":"cpo3532slgdg3j2ikp40","pricing_plan_id":"cebpf4jnsgd1na2vs0mg"},{"bike_id":"ef291804-1477-432e-b153-82ea15725418","system_id":"levelo_inurba_marseille","lat":43.33742,"lon":5.37454,"is_reserved":false,"is_disabled":false,"rental_uris":{"android":"levelo://app?vid=ef291804-1477-432e-b153-82ea15725418","ios":"levelo://app?vid=ef291804-1477-432e-b153-82ea15725418"},"vehicle_type_id":"4","last_reported":1744546632,"current_range_meters":6800,"station_id":"","pricing_plan_id":"cebpf4jnsgd1na2vs0mg"},{"bike_id":"620b61f1-23d7-4e76-aa20-50b1e573b2b9","system_id":"levelo_inurba_marseille","lat":43.31469,"lon":5.37272,"is_reserved":false,"is_disabled":false,"rental_uris":{"android":"levelo://app?vid=620b61f1-23d7-4e76-aa20-50b1e573b2b9","ios":"levelo://app?vid=620b61f1-23d7-4e76-aa20-50b1e573b2b9"},"vehicle_type_id":"4","last_reported":1744546632,"current_range_meters":6800,"station_id":"ce4bgt12rcd13ifvqcd0","pricing_plan_id":"cebpf4jnsgd1na2vs0mg"},{"bike_id":"322a4583-1d65-4bbc-9f38-939e6547b172","system_id":"levelo_inurba_marseille","lat":43.29975,"lon":5.38495,"is_reserved":false,"is_disabled":false,"rental_uris":{"android":"levelo://app?vid=322a4583-1d65-4bbc-9f38-939e6547b172","ios":"levelo://app?vid=322a4583-1d65-4bbc-9f38-939e6547b172"},"vehicle_type_id":"4","last_reported":1744546632,"current_range_meters":6800,"station_id":"ce4bgj92rcd13ifvqbd0","pricing_plan_id":"cebpf4jnsgd1na2vs0mg"},{"bike_id":"922d31d1-8143-4810-ad78-ced66ece92a4","system_id":"levelo_inurba_marseille","lat":43.27565,"lon":5.38413,"is_reserved":false,"is_disabled":true,"rental_uris":{"android":"levelo://app?vid=922d31d1-8143-4810-ad78-ced66ece92a4","ios":"levelo://app?vid=922d31d1-8143-4810-ad78-ced66ece92a4"},"vehicle_type_id":"4","last_reported":1744546632,"current_range_meters":6800,"station_id":"ce4bhh92rcd13ifvqfi0","pricing_plan_id":"cebpf4jnsgd1na2vs0mg"},{"bike_id":"88802da1-90f2-4aff-90a1-c3598e933096","system_id":"levelo_inurba_marseille","lat":43.30296,"lon":5.39183,"is_reserved":false,"is_disabled":false,"rental_uris":{"android":"levelo://app?vid=88802da1-90f2-4aff-90a1-c3598e933096","ios":"levelo://app?vid=88802da1-90f2-4aff-90a1-c3598e933096"},"vehicle_type_id":"4","last_reported":1744546632,"current_range_meters":6800,"station_id":"ce4bgkh2rcd13ifvqbk0","pricing_plan_id":"cebpf4jnsgd1na2vs0mg"},{"bike_id":"cbfe6713-355d-428e-9700-856683f11d4b","system_id":"levelo_inurba_marseille","lat":43.30212,"lon":5.39459,"is_reserved":false,"is_disabled":false,"rental_uris":{"android":"levelo://app?vid=cbfe6713-355d-428e-9700-856683f11d4b","ios":"levelo://app?vid=cbfe6713-355d-428e-9700-856683f11d4b"},"vehicle_type_id":"4","last_reported":1744546632,"current_range_meters":7200,"station_id":"ce4bh0p2rcd13ifvqd70","pricing_plan_id":"cebpf4jnsgd1na2vs0mg"},{"bike_id":"d53356ed-34e7-4ce0-8d94-e073954cdd85","system_id":"levelo_inurba_marseille","lat":43.270646,"lon":5.40263,"is_reserved":false,"is_disabled":true,"rental_uris":{"android":"levelo://app?vid=d53356ed-34e7-4ce0-8d94-e073954cdd85","ios":"levelo://app?vid=d53356ed-34e7-4ce0-8d94-e073954cdd85"},"vehicle_type_id":"4","last_reported":1744546632,"current_range_meters":7200,"station_id":"ce4bhk92rcd13ifvqgc0","pricing_plan_id":"cebpf4jnsgd1na2vs0mg"},{"bike_id":"1130922e-9ccc-463b-9207-aadecd794edb","system_id":"levelo_inurba_marseille","lat":43.31989,"lon":5.38145,"is_reserved":false,"is_disabled":true,"rental_uris":{"android":"levelo://app?vid=1130922e-9ccc-463b-9207-aadecd794edb","ios":"levelo://app?vid=1130922e-9ccc-463b-9207-aadecd794edb"},"vehicle_type_id":"4","last_reported":1744546632,"current_range_meters":7200,"station_id":"ce4bhr12rcd13ifvqhpg","pricing_plan_id":"cebpf4jnsgd1na2vs0mg"},{"bike_id":"c013d600-5e08-48f0-830e-8c965978436b","system_id":"levelo_inurba_marseille","lat":43.30462,"lon":5.38897,"is_reserved":false,"is_disabled":true,"rental_uris":{"android":"levelo://app?vid=c013d600-5e08-48f0-830e-8c965978436b","ios":"levelo://app?vid=c013d600-5e08-48f0-830e-8c965978436b"},"vehicle_type_id":"4","last_reported":1744546632,"current_range_meters":7200,"station_id":"ce4bgk12rcd13ifvqbi0","pricing_plan_id":"cebpf4jnsgd1na2vs0mg"},{"bike_id":"52076ca0-557d-4f5f-9665-2d64a6d4d3d9","system_id":"levelo_inurba_marseille","lat":43.29255,"lon":5.37615,"is_reserved":false,"is_disabled":false,"rental_uris":{"android":"levelo://app?vid=52076ca0-557d-4f5f-9665-2d64a6d4d3d9","ios":"levelo://app?vid=52076ca0-557d-4f5f-9665-2d64a6d4d3d9"},"vehicle_type_id":"4","last_reported":1744546632,"current_range_meters":7200,"station_id":"ce4bgi12rcd13ifvqb80","pricing_plan_id":"cebpf4jnsgd1na2vs0mg"},{"bike_id":"f23b74c7-7bd3-4165-9fac-2f5f9fa0ed2d","system_id":"levelo_inurba_marseille","lat":43.30947,"lon":5.39038,"is_reserved":false,"is_disabled":false,"rental_uris":{"android":"levelo://app?vid=f23b74c7-7bd3-4165-9fac-2f5f9fa0ed2d","ios":"levelo://app?vid=f23b74c7-7bd3-4165-9fac-2f5f9fa0ed2d"},"vehicle_type_id":"4","last_reported":1744546632,"current_range_meters":7200,"station_id":"ce4bgup2rcd13ifvqco0","pricing_plan_id":"cebpf4jnsgd1na2vs0mg"},{"bike_id":"3936be81-c251-40b9-b88f-20ec6b3ea6c0","system_id":"levelo_inurba_marseille","lat":43.26052,"lon":5.39396,"is_reserved":false,"is_disabled":false,"rental_uris":{"android":"levelo://app?vid=3936be81-c251-40b9-b88f-20ec6b3ea6c0","ios":"levelo://app?vid=3936be81-c251-40b9-b88f-20ec6b3ea6c0"},"vehicle_type_id":"4","last_reported":1744546632,"current_range_meters":7200,"station_id":"ce4bhh92rcd13ifvqfj0","pricing_plan_id":"cebpf4jnsgd1na2vs0mg"},{"bike_id":"09f4e6cc-cddc-4aa9-a416-b7c25add3ad9","system_id":"levelo_inurba_marseille","lat":43.30329,"lon":5.40448,"is_reserved":false,"is_disabled":false,"rental_uris":{"android":"levelo://app?vid=09f4e6cc-cddc-4aa9-a416-b7c25add3ad9","ios":"levelo://app?vid=09f4e6cc-cddc-4aa9-a416-b7c25add3ad9"},"vehicle_type_id":"4","last_reported":1744546632,"current_range_meters":7200,"station_id":"ce4bh012rcd13ifvqd10","pricing_plan_id":"cebpf4jnsgd1na2vs0mg"},{"bike_id":"fa5ade16-cb16-4ed4-b9c0-4498539f3086","system_id":"levelo_inurba_marseille","lat":43.308874,"lon":5.396486,"is_reserved":false,"is_disabled":false,"rental_uris":{"android":"levelo://app?vid=fa5ade16-cb16-4ed4-b9c0-4498539f3086","ios":"levelo://app?vid=fa5ade16-cb16-4ed4-b9c0-4498539f3086"},"vehicle_type_id":"4","last_reported":1744546632,"current_range_meters":6800,"station_id":"ce4bgjp2rcd13ifvqbh0","pricing_plan_id":"cebpf4jnsgd1na2vs0mg"},{"bike_id":"e643793d-238f-4c32-a599-a7376b883569","system_id":"levelo_inurba_marseille","lat":43.25012,"lon":5.38927,"is_reserved":false,"is_disabled":false,"rental_uris":{"android":"levelo://app?vid=e643793d-238f-4c32-a599-a7376b883569","ios":"levelo://app?vid=e643793d-238f-4c32-a599-a7376b883569"},"vehicle_type_id":"4","last_reported":1744546632,"current_range_meters":8000,"station_id":"ce4bhgp2rcd13ifvqfd0","pricing_plan_id":"cebpf4jnsgd1na2vs0mg"},{"bike_id":"a9afecc4-ad51-4dc1-a912-c3db34947e81","system_id":"levelo_inurba_marseille","lat":43.30479,"lon":5.37898,"is_reserved":false,"is_disabled":false,"rental_uris":{"android":"levelo://app?vid=a9afecc4-ad51-4dc1-a912-c3db34947e81","ios":"levelo://app?vid=a9afecc4-ad51-4dc1-a912-c3db34947e81"},"vehicle_type_id":"4","last_reported":1744546632,"current_range_meters":8000,"station_id":"ce4bgup2rcd13ifvqcn0","pricing_plan_id":"cebpf4jnsgd1na2vs0mg"},{"bike_id":"d185f7a2-6136-496a-83f6-3acf32292f4c","system_id":"levelo_inurba_marseille","lat":43.29309,"lon":5.37155,"is_reserved":false,"is_disabled":true,"rental_uris":{"android":"levelo://app?vid=d185f7a2-6136-496a-83f6-3acf32292f4c","ios":"levelo://app?vid=d185f7a2-6136-496a-83f6-3acf32292f4c"},"vehicle_type_id":"4","last_reported":1744546632,"current_range_meters":8000,"station_id":"ce4bgh92rcd13ifvqb40","pricing_plan_id":"cebpf4jnsgd1na2vs0mg"},{"bike_id":"d8f603cd-3b83-4148-bab8-3a185ad2a59f","system_id":"levelo_inurba_marseille","lat":43.32416,"lon":5.3913,"is_reserved":false,"is_disabled":false,"rental_uris":{"android":"levelo://app?vid=d8f603cd-3b83-4148-bab8-3a185ad2a59f","ios":"levelo://app?vid=d8f603cd-3b83-4148-bab8-3a185ad2a59f"},"vehicle_type_id":"4","last_reported":1744546632,"current_range_meters":8000,"station_id":"","pricing_plan_id":"cebpf4jnsgd1na2vs0mg"},{"bike_id":"019576dd-4d5b-449f-bee3-6016e550c1da","system_id":"levelo_inurba_marseille","lat":43.3039,"lon":5.4248,"is_reserved":false,"is_disabled":false,"rental_uris":{"android":"levelo://app?vid=019576dd-4d5b-449f-bee3-6016e550c1da","ios":"levelo://app?vid=019576dd-4d5b-449f-bee3-6016e550c1da"},"vehicle_type_id":"4","last_reported":1744546632,"current_range_meters":8000,"station_id":"ce4bhoh2rcd13ifvqh6g","pricing_plan_id":"cebpf4jnsgd1na2vs0mg"},{"bike_id":"826c0beb-b859-44fc-9e3b-2569fdc20685","system_id":"levelo_inurba_marseille","lat":43.30386,"lon":5.42481,"is_reserved":false,"is_disabled":false,"rental_uris":{"android":"levelo://app?vid=826c0beb-b859-44fc-9e3b-2569fdc20685","ios":"levelo://app?vid=826c0beb-b859-44fc-9e3b-2569fdc20685"},"vehicle_type_id":"4","last_reported":1744546632,"current_range_meters":8000,"station_id":"ce4bhoh2rcd13ifvqh6g","pricing_plan_id":"cebpf4jnsgd1na2vs0mg"},{"bike_id":"4a0973b0-92a0-41e8-9b0d-a99e944bafe0","system_id":"levelo_inurba_marseille","lat":43.34477,"lon":5.41311,"is_reserved":false,"is_disabled":false,"rental_uris":{"android":"levelo://app?vid=4a0973b0-92a0-41e8-9b0d-a99e944bafe0","ios":"levelo://app?vid=4a0973b0-92a0-41e8-9b0d-a99e944bafe0"},"vehicle_type_id":"4","last_reported":1744546632,"current_range_meters":8000,"station_id":"","pricing_plan_id":"cebpf4jnsgd1na2vs0mg"},{"bike_id":"d7dd2583-fa39-4ae8-ad7a-dd0918484ec1","system_id":"levelo_inurba_marseille","lat":43.3254,"lon":5.41433,"is_reserved":false,"is_disabled":false,"rental_uris":{"android":"levelo://app?vid=d7dd2583-fa39-4ae8-ad7a-dd0918484ec1","ios":"levelo://app?vid=d7dd2583-fa39-4ae8-ad7a-dd0918484ec1"},"vehicle_type_id":"4","last_reported":1744546632,"current_range_meters":7200,"station_id":"ce4bhq12rcd13ifvqhhg","pricing_plan_id":"cebpf4jnsgd1na2vs0mg"},{"bike_id":"5b77a833-8185-45c2-9fe3-07eb40df54ca","system_id":"levelo_inurba_marseille","lat":43.33995,"lon":5.38057,"is_reserved":false,"is_disabled":false,"rental_uris":{"android":"levelo://app?vid=5b77a833-8185-45c2-9fe3-07eb40df54ca","ios":"levelo://app?vid=5b77a833-8185-45c2-9fe3-07eb40df54ca"},"vehicle_type_id":"4","last_reported":1744546632,"current_range_meters":8000,"station_id":"","pricing_plan_id":"cebpf4jnsgd1na2vs0mg"},{"bike_id":"f7d1eee0-1715-419d-beac-1b98ec9e62ed","system_id":"levelo_inurba_marseille","lat":43.30966,"lon":5.39053,"is_reserved":false,"is_disabled":true,"rental_uris":{"android":"levelo://app?vid=f7d1eee0-1715-419d-beac-1b98ec9e62ed","ios":"levelo://app?vid=f7d1eee0-1715-419d-beac-1b98ec9e62ed"},"vehicle_type_id":"4","last_reported":1744546632,"current_range_meters":8400,"station_id":"ce4bgup2rcd13ifvqco0","pricing_plan_id":"cebpf4jnsgd1na2vs0mg"},{"bike_id":"2d1ead79-f201-4cec-a76d-238b76cb4dcb","system_id":"levelo_inurba_marseille","lat":43.303203,"lon":5.40443,"is_reserved":false,"is_disabled":false,"rental_uris":{"android":"levelo://app?vid=2d1ead79-f201-4cec-a76d-238b76cb4dcb","ios":"levelo://app?vid=2d1ead79-f201-4cec-a76d-238b76cb4dcb"},"vehicle_type_id":"4","last_reported":1744546632,"current_range_meters":8400,"station_id":"ce4bh012rcd13ifvqd10","pricing_plan_id":"cebpf4jnsgd1na2vs0mg"},{"bike_id":"96473f7e-64a1-44c3-ac2f-30209e73f5ad","system_id":"levelo_inurba_marseille","lat":43.29624,"lon":5.37165,"is_reserved":false,"is_disabled":false,"rental_uris":{"android":"levelo://app?vid=96473f7e-64a1-44c3-ac2f-30209e73f5ad","ios":"levelo://app?vid=96473f7e-64a1-44c3-ac2f-30209e73f5ad"},"vehicle_type_id":"4","last_reported":1744546632,"current_range_meters":8400,"station_id":"ce4bgnh2rcd13ifvqc0g","pricing_plan_id":"cebpf4jnsgd1na2vs0mg"},{"bike_id":"c11cf9c2-291c-4443-aff6-6fc962714f93","system_id":"levelo_inurba_marseille","lat":43.30735,"lon":5.42432,"is_reserved":false,"is_disabled":false,"rental_uris":{"android":"levelo://app?vid=c11cf9c2-291c-4443-aff6-6fc962714f93","ios":"levelo://app?vid=c11cf9c2-291c-4443-aff6-6fc962714f93"},"vehicle_type_id":"4","last_reported":1744546632,"current_range_meters":8400,"station_id":"st_cvj6ca6bvosntc0bfgr0","pricing_plan_id":"cebpf4jnsgd1na2vs0mg"},{"bike_id":"1bdd20e7-131a-4d5b-a509-63f8e3cb1bff","system_id":"levelo_inurba_marseille","lat":43.30131,"lon":5.38801,"is_reserved":false,"is_disabled":false,"rental_uris":{"android":"levelo://app?vid=1bdd20e7-131a-4d5b-a509-63f8e3cb1bff","ios":"levelo://app?vid=1bdd20e7-131a-4d5b-a509-63f8e3cb1bff"},"vehicle_type_id":"4","last_reported":1744546632,"current_range_meters":8400,"station_id":"ce4bghh2rcd13ifvqb60","pricing_plan_id":"cebpf4jnsgd1na2vs0mg"},{"bike_id":"97c5290c-6dcd-4f81-953a-f5953018fa5b","system_id":"levelo_inurba_marseille","lat":43.31061,"lon":5.37543,"is_reserved":false,"is_disabled":false,"rental_uris":{"android":"levelo://app?vid=97c5290c-6dcd-4f81-953a-f5953018fa5b","ios":"levelo://app?vid=97c5290c-6dcd-4f81-953a-f5953018fa5b"},"vehicle_type_id":"4","last_reported":1744546632,"current_range_meters":8400,"station_id":"","pricing_plan_id":"cebpf4jnsgd1na2vs0mg"},{"bike_id":"12995a58-d943-4084-bd4e-dfca89bd59c0","system_id":"levelo_inurba_marseille","lat":43.323356,"lon":5.406184,"is_reserved":false,"is_disabled":false,"rental_uris":{"android":"levelo://app?vid=12995a58-d943-4084-bd4e-dfca89bd59c0","ios":"levelo://app?vid=12995a58-d943-4084-bd4e-dfca89bd59c0"},"vehicle_type_id":"4","last_reported":1744546632,"current_range_meters":8400,"station_id":"ce4bhq92rcd13ifvqhjg","pricing_plan_id":"cebpf4jnsgd1na2vs0mg"},{"bike_id":"0ea89512-2bfd-4440-9d22-8e2cc72d64b2","system_id":"levelo_inurba_marseille","lat":43.30132,"lon":5.398569,"is_reserved":false,"is_disabled":false,"rental_uris":{"android":"levelo://app?vid=0ea89512-2bfd-4440-9d22-8e2cc72d64b2","ios":"levelo://app?vid=0ea89512-2bfd-4440-9d22-8e2cc72d64b2"},"vehicle_type_id":"4","last_reported":1744546632,"current_range_meters":8400,"station_id":"ce4bh0h2rcd13ifvqd40","pricing_plan_id":"cebpf4jnsgd1na2vs0mg"},{"bike_id":"c1888c01-968b-4041-97df-b7303b3635f6","system_id":"levelo_inurba_marseille","lat":43.31081,"lon":5.42435,"is_reserved":false,"is_disabled":false,"rental_uris":{"android":"levelo://app?vid=c1888c01-968b-4041-97df-b7303b3635f6","ios":"levelo://app?vid=c1888c01-968b-4041-97df-b7303b3635f6"},"vehicle_type_id":"4","last_reported":1744546632,"current_range_meters":8400,"station_id":"ce4bhp92rcd13ifvqhag","pricing_plan_id":"cebpf4jnsgd1na2vs0mg"},{"bike_id":"0e7bf4ae-5aed-4055-a1f8-96debbb9847e","system_id":"levelo_inurba_marseille","lat":43.241701,"lon":5.364006,"is_reserved":false,"is_disabled":false,"rental_uris":{"android":"levelo://app?vid=0e7bf4ae-5aed-4055-a1f8-96debbb9847e","ios":"levelo://app?vid=0e7bf4ae-5aed-4055-a1f8-96debbb9847e"},"vehicle_type_id":"4","last_reported":1744546632,"current_range_meters":8400,"station_id":"cpo36qri1sfpv3e86is0","pricing_plan_id":"cebpf4jnsgd1na2vs0mg"},{"bike_id":"8609ec5b-db31-4682-89f6-95794d251c5e","system_id":"levelo_inurba_marseille","lat":43.23159,"lon":5.43706,"is_reserved":false,"is_disabled":false,"rental_uris":{"android":"levelo://app?vid=8609ec5b-db31-4682-89f6-95794d251c5e","ios":"levelo://app?vid=8609ec5b-db31-4682-89f6-95794d251c5e"},"vehicle_type_id":"4","last_reported":1744546632,"current_range_meters":8400,"station_id":"ce4bhmp2rcd13ifvqgog","pricing_plan_id":"cebpf4jnsgd1na2vs0mg"},{"bike_id":"1924bd3b-55a9-4f1e-8658-a4c66f04078c","system_id":"levelo_inurba_marseille","lat":43.29425,"lon":5.38613,"is_reserved":false,"is_disabled":true,"rental_uris":{"android":"levelo://app?vid=1924bd3b-55a9-4f1e-8658-a4c66f04078c","ios":"levelo://app?vid=1924bd3b-55a9-4f1e-8658-a4c66f04078c"},"vehicle_type_id":"4","last_reported":1744546632,"current_range_meters":8800,"station_id":"ce4bh2h2rcd13ifvqdh0","pricing_plan_id":"cebpf4jnsgd1na2vs0mg"},{"bike_id":"4f38e127-be9f-468e-8871-e9cd4f365dca","system_id":"levelo_inurba_marseille","lat":43.24687,"lon":5.41173,"is_reserved":false,"is_disabled":false,"rental_uris":{"android":"levelo://app?vid=4f38e127-be9f-468e-8871-e9cd4f365dca","ios":"levelo://app?vid=4f38e127-be9f-468e-8871-e9cd4f365dca"},"vehicle_type_id":"4","last_reported":1744546632,"current_range_meters":8800,"station_id":"","pricing_plan_id":"cebpf4jnsgd1na2vs0mg"},{"bike_id":"b6943743-96a9-4933-b225-4547b755267d","system_id":"levelo_inurba_marseille","lat":43.29602,"lon":5.36736,"is_reserved":false,"is_disabled":false,"rental_uris":{"android":"levelo://app?vid=b6943743-96a9-4933-b225-4547b755267d","ios":"levelo://app?vid=b6943743-96a9-4933-b225-4547b755267d"},"vehicle_type_id":"4","last_reported":1744546632,"current_range_meters":8800,"station_id":"ce4bgph2rcd13ifvqc2g","pricing_plan_id":"cebpf4jnsgd1na2vs0mg"},{"bike_id":"493cde9e-7859-4c26-a2e6-f744ee5d8553","system_id":"levelo_inurba_marseille","lat":43.31656,"lon":5.36419,"is_reserved":false,"is_disabled":false,"rental_uris":{"android":"levelo://app?vid=493cde9e-7859-4c26-a2e6-f744ee5d8553","ios":"levelo://app?vid=493cde9e-7859-4c26-a2e6-f744ee5d8553"},"vehicle_type_id":"4","last_reported":1744546632,"current_range_meters":8800,"station_id":"","pricing_plan_id":"cebpf4jnsgd1na2vs0mg"},{"bike_id":"49ee7a2d-b87d-42ef-bdb3-cf1b5b3fae9b","system_id":"levelo_inurba_marseille","lat":43.24168,"lon":5.36401,"is_reserved":false,"is_disabled":false,"rental_uris":{"android":"levelo://app?vid=49ee7a2d-b87d-42ef-bdb3-cf1b5b3fae9b","ios":"levelo://app?vid=49ee7a2d-b87d-42ef-bdb3-cf1b5b3fae9b"},"vehicle_type_id":"4","last_reported":1744546632,"current_range_meters":9200,"station_id":"cpo36qri1sfpv3e86is0","pricing_plan_id":"cebpf4jnsgd1na2vs0mg"},{"bike_id":"2f5bc015-0a98-4a0d-a50f-f7181e1d6abe","system_id":"levelo_inurba_marseille","lat":43.23435,"lon":5.41259,"is_reserved":false,"is_disabled":false,"rental_uris":{"android":"levelo://app?vid=2f5bc015-0a98-4a0d-a50f-f7181e1d6abe","ios":"levelo://app?vid=2f5bc015-0a98-4a0d-a50f-f7181e1d6abe"},"vehicle_type_id":"4","last_reported":1744546632,"current_range_meters":9200,"station_id":"","pricing_plan_id":"cebpf4jnsgd1na2vs0mg"},{"bike_id":"998bf81d-ad9f-4ed4-abc9-e0d2ed6ed276","system_id":"levelo_inurba_marseille","lat":43.23195,"lon":5.3556,"is_reserved":false,"is_disabled":false,"rental_uris":{"android":"levelo://app?vid=998bf81d-ad9f-4ed4-abc9-e0d2ed6ed276","ios":"levelo://app?vid=998bf81d-ad9f-4ed4-abc9-e0d2ed6ed276"},"vehicle_type_id":"4","last_reported":1744546632,"current_range_meters":9200,"station_id":"ce4bhu92rcd13ifvqi70","pricing_plan_id":"cebpf4jnsgd1na2vs0mg"},{"bike_id":"d1d6f298-682f-4f63-b43e-b707189e9645","system_id":"levelo_inurba_marseille","lat":43.264961,"lon":5.395286,"is_reserved":false,"is_disabled":false,"rental_uris":{"android":"levelo://app?vid=d1d6f298-682f-4f63-b43e-b707189e9645","ios":"levelo://app?vid=d1d6f298-682f-4f63-b43e-b707189e9645"},"vehicle_type_id":"4","last_reported":1744546632,"current_range_meters":9200,"station_id":"ce4bhi12rcd13ifvqfq0","pricing_plan_id":"cebpf4jnsgd1na2vs0mg"},{"bike_id":"b7e965ff-4854-44fc-8e2a-103893462049","system_id":"levelo_inurba_marseille","lat":43.337444,"lon":5.374475,"is_reserved":false,"is_disabled":true,"rental_uris":{"android":"levelo://app?vid=b7e965ff-4854-44fc-8e2a-103893462049","ios":"levelo://app?vid=b7e965ff-4854-44fc-8e2a-103893462049"},"vehicle_type_id":"4","last_reported":1744546632,"current_range_meters":9200,"station_id":"","pricing_plan_id":"cebpf4jnsgd1na2vs0mg"},{"bike_id":"7857a613-dfc5-4964-b9fb-0098b8a42973","system_id":"levelo_inurba_marseille","lat":43.30548,"lon":5.36712,"is_reserved":false,"is_disabled":false,"rental_uris":{"android":"levelo://app?vid=7857a613-dfc5-4964-b9fb-0098b8a42973","ios":"levelo://app?vid=7857a613-dfc5-4964-b9fb-0098b8a42973"},"vehicle_type_id":"4","last_reported":1744546632,"current_range_meters":9200,"station_id":"ce4bhk92rcd13ifvqgb0","pricing_plan_id":"cebpf4jnsgd1na2vs0mg"},{"bike_id":"30cc8b33-f5d2-402b-bc22-73b6e88b3714","system_id":"levelo_inurba_marseille","lat":43.24683,"lon":5.38152,"is_reserved":false,"is_disabled":false,"rental_uris":{"android":"levelo://app?vid=30cc8b33-f5d2-402b-bc22-73b6e88b3714","ios":"levelo://app?vid=30cc8b33-f5d2-402b-bc22-73b6e88b3714"},"vehicle_type_id":"4","last_reported":1744546632,"current_range_meters":9200,"station_id":"ce4bhih2rcd13ifvqfr0","pricing_plan_id":"cebpf4jnsgd1na2vs0mg"},{"bike_id":"76450c2c-888f-4d08-a5c0-d825237615aa","system_id":"levelo_inurba_marseille","lat":43.27085,"lon":5.42283,"is_reserved":false,"is_disabled":false,"rental_uris":{"android":"levelo://app?vid=76450c2c-888f-4d08-a5c0-d825237615aa","ios":"levelo://app?vid=76450c2c-888f-4d08-a5c0-d825237615aa"},"vehicle_type_id":"4","last_reported":1744546632,"current_range_meters":9600,"station_id":"ce4bhk92rcd13ifvqgb0","pricing_plan_id":"cebpf4jnsgd1na2vs0mg"},{"bike_id":"f7843f46-58aa-4cf6-a1d0-1b94b16f71c2","system_id":"levelo_inurba_marseille","lat":43.29853,"lon":5.39673,"is_reserved":false,"is_disabled":false,"rental_uris":{"android":"levelo://app?vid=f7843f46-58aa-4cf6-a1d0-1b94b16f71c2","ios":"levelo://app?vid=f7843f46-58aa-4cf6-a1d0-1b94b16f71c2"},"vehicle_type_id":"4","last_reported":1744546632,"current_range_meters":9600,"station_id":"ce4bh0h2rcd13ifvqd50","pricing_plan_id":"cebpf4jnsgd1na2vs0mg"},{"bike_id":"6e2ac28e-dfb7-46b8-8016-b7ae92b2a4f0","system_id":"levelo_inurba_marseille","lat":43.279885,"lon":5.400129,"is_reserved":false,"is_disabled":false,"rental_uris":{"android":"levelo://app?vid=6e2ac28e-dfb7-46b8-8016-b7ae92b2a4f0","ios":"levelo://app?vid=6e2ac28e-dfb7-46b8-8016-b7ae92b2a4f0"},"vehicle_type_id":"4","last_reported":1744546632,"current_range_meters":9600,"station_id":"ce4bho92rcd13ifvqh4g","pricing_plan_id":"cebpf4jnsgd1na2vs0mg"},{"bike_id":"989b6012-9861-4bef-adfc-50ffad0165d8","system_id":"levelo_inurba_marseille","lat":43.29272,"lon":5.36846,"is_reserved":false,"is_disabled":false,"rental_uris":{"android":"levelo://app?vid=989b6012-9861-4bef-adfc-50ffad0165d8","ios":"levelo://app?vid=989b6012-9861-4bef-adfc-50ffad0165d8"},"vehicle_type_id":"4","last_reported":1744546632,"current_range_meters":9600,"station_id":"ce4bhbp2rcd13ifvqesg","pricing_plan_id":"cebpf4jnsgd1na2vs0mg"},{"bike_id":"9f788850-0dbd-4588-87fa-63e816b498c1","system_id":"levelo_inurba_marseille","lat":43.26016,"lon":5.4175,"is_reserved":false,"is_disabled":false,"rental_uris":{"android":"levelo://app?vid=9f788850-0dbd-4588-87fa-63e816b498c1","ios":"levelo://app?vid=9f788850-0dbd-4588-87fa-63e816b498c1"},"vehicle_type_id":"4","last_reported":1744546632,"current_range_meters":9600,"station_id":"","pricing_plan_id":"cebpf4jnsgd1na2vs0mg"},{"bike_id":"e0e59bfb-5088-41a2-835c-398ab715e8d6","system_id":"levelo_inurba_marseille","lat":43.24179,"lon":5.39732,"is_reserved":false,"is_disabled":false,"rental_uris":{"android":"levelo://app?vid=e0e59bfb-5088-41a2-835c-398ab715e8d6","ios":"levelo://app?vid=e0e59bfb-5088-41a2-835c-398ab715e8d6"},"vehicle_type_id":"4","last_reported":1744546632,"current_range_meters":9600,"station_id":"ce4bhn12rcd13ifvqgpg","pricing_plan_id":"cebpf4jnsgd1na2vs0mg"},{"bike_id":"72c6aab6-3a44-430e-a84d-843d2a93e616","system_id":"levelo_inurba_marseille","lat":43.21192,"lon":5.35084,"is_reserved":false,"is_disabled":true,"rental_uris":{"android":"levelo://app?vid=72c6aab6-3a44-430e-a84d-843d2a93e616","ios":"levelo://app?vid=72c6aab6-3a44-430e-a84d-843d2a93e616"},"vehicle_type_id":"4","last_reported":1744546632,"current_range_meters":10000,"station_id":"st_cvj6sg6p6f1abm77japg","pricing_plan_id":"cebpf4jnsgd1na2vs0mg"},{"bike_id":"aabe598c-e8fb-42f8-9b0c-1fe7a65be682","system_id":"levelo_inurba_marseille","lat":43.30163,"lon":5.38073,"is_reserved":false,"is_disabled":false,"rental_uris":{"android":"levelo://app?vid=aabe598c-e8fb-42f8-9b0c-1fe7a65be682","ios":"levelo://app?vid=aabe598c-e8fb-42f8-9b0c-1fe7a65be682"},"vehicle_type_id":"4","last_reported":1744546632,"current_range_meters":10000,"station_id":"ce4bgjp2rcd13ifvqbh0","pricing_plan_id":"cebpf4jnsgd1na2vs0mg"},{"bike_id":"fecb5e2e-ba6c-4f29-9893-46dd69a583b2","system_id":"levelo_inurba_marseille","lat":43.30095,"lon":5.39089,"is_reserved":false,"is_disabled":false,"rental_uris":{"android":"levelo://app?vid=fecb5e2e-ba6c-4f29-9893-46dd69a583b2","ios":"levelo://app?vid=fecb5e2e-ba6c-4f29-9893-46dd69a583b2"},"vehicle_type_id":"4","last_reported":1744546632,"current_range_meters":10000,"station_id":"ce4bh192rcd13ifvqdb0","pricing_plan_id":"cebpf4jnsgd1na2vs0mg"},{"bike_id":"0c30a5d7-82b9-4bb2-9032-224893c69d2f","system_id":"levelo_inurba_marseille","lat":43.26502,"lon":5.39553,"is_reserved":false,"is_disabled":true,"rental_uris":{"android":"levelo://app?vid=0c30a5d7-82b9-4bb2-9032-224893c69d2f","ios":"levelo://app?vid=0c30a5d7-82b9-4bb2-9032-224893c69d2f"},"vehicle_type_id":"4","last_reported":1744546632,"current_range_meters":10000,"station_id":"ce4bhi12rcd13ifvqfq0","pricing_plan_id":"cebpf4jnsgd1na2vs0mg"},{"bike_id":"eef662bd-49fa-4185-a5f5-5664aa402854","system_id":"levelo_inurba_marseille","lat":43.22933,"lon":5.35378,"is_reserved":false,"is_disabled":false,"rental_uris":{"android":"levelo://app?vid=eef662bd-49fa-4185-a5f5-5664aa402854","ios":"levelo://app?vid=eef662bd-49fa-4185-a5f5-5664aa402854"},"vehicle_type_id":"4","last_reported":1744546632,"current_range_meters":10000,"station_id":"cpo3532slgdg3j2ikp40","pricing_plan_id":"cebpf4jnsgd1na2vs0mg"},{"bike_id":"5a19af70-71e9-492e-9750-a5b2e4973f08","system_id":"levelo_inurba_marseille","lat":43.286989,"lon":5.373894,"is_reserved":false,"is_disabled":false,"rental_uris":{"android":"levelo://app?vid=5a19af70-71e9-492e-9750-a5b2e4973f08","ios":"levelo://app?vid=5a19af70-71e9-492e-9750-a5b2e4973f08"},"vehicle_type_id":"4","last_reported":1744546632,"current_range_meters":10000,"station_id":"ce4bh3p2rcd13ifvqdq0","pricing_plan_id":"cebpf4jnsgd1na2vs0mg"},{"bike_id":"91fffdcd-2fa7-4f34-b242-95e7e93ac05b","system_id":"levelo_inurba_marseille","lat":43.2631,"lon":5.39739,"is_reserved":false,"is_disabled":false,"rental_uris":{"android":"levelo://app?vid=91fffdcd-2fa7-4f34-b242-95e7e93ac05b","ios":"levelo://app?vid=91fffdcd-2fa7-4f34-b242-95e7e93ac05b"},"vehicle_type_id":"4","last_reported":1744546632,"current_range_meters":10000,"station_id":"","pricing_plan_id":"cebpf4jnsgd1na2vs0mg"},{"bike_id":"8043ed93-c0e0-4b20-a22a-1ce703744524","system_id":"levelo_inurba_marseille","lat":43.289443,"lon":5.36628,"is_reserved":false,"is_disabled":true,"rental_uris":{"android":"levelo://app?vid=8043ed93-c0e0-4b20-a22a-1ce703744524","ios":"levelo://app?vid=8043ed93-c0e0-4b20-a22a-1ce703744524"},"vehicle_type_id":"4","last_reported":1744546632,"current_range_meters":10000,"station_id":"ce4bhap2rcd13ifvqek0","pricing_plan_id":"cebpf4jnsgd1na2vs0mg"},{"bike_id":"c14a3d0e-03f7-430a-80a8-18644645ea89","system_id":"levelo_inurba_marseille","lat":43.32357,"lon":5.40603,"is_reserved":false,"is_disabled":false,"rental_uris":{"android":"levelo://app?vid=c14a3d0e-03f7-430a-80a8-18644645ea89","ios":"levelo://app?vid=c14a3d0e-03f7-430a-80a8-18644645ea89"},"vehicle_type_id":"4","last_reported":1744546632,"current_range_meters":10000,"station_id":"ce4bhq92rcd13ifvqhjg","pricing_plan_id":"cebpf4jnsgd1na2vs0mg"},{"bike_id":"f7cd819f-b752-47cc-848d-ff43c669ccb8","system_id":"levelo_inurba_marseille","lat":43.30987,"lon":5.41746,"is_reserved":false,"is_disabled":false,"rental_uris":{"android":"levelo://app?vid=f7cd819f-b752-47cc-848d-ff43c669ccb8","ios":"levelo://app?vid=f7cd819f-b752-47cc-848d-ff43c669ccb8"},"vehicle_type_id":"4","last_reported":1744546632,"current_range_meters":10800,"station_id":"","pricing_plan_id":"cebpf4jnsgd1na2vs0mg"},{"bike_id":"f49dbc07-be49-4d5b-b049-200980a93b70","system_id":"levelo_inurba_marseille","lat":43.30093,"lon":5.39083,"is_reserved":false,"is_disabled":false,"rental_uris":{"android":"levelo://app?vid=f49dbc07-be49-4d5b-b049-200980a93b70","ios":"levelo://app?vid=f49dbc07-be49-4d5b-b049-200980a93b70"},"vehicle_type_id":"4","last_reported":1744546632,"current_range_meters":10800,"station_id":"ce4bh192rcd13ifvqdb0","pricing_plan_id":"cebpf4jnsgd1na2vs0mg"},{"bike_id":"bc2cdb88-3a61-4ed5-a261-16427b8c6273","system_id":"levelo_inurba_marseille","lat":43.30594,"lon":5.39362,"is_reserved":false,"is_disabled":false,"rental_uris":{"android":"levelo://app?vid=bc2cdb88-3a61-4ed5-a261-16427b8c6273","ios":"levelo://app?vid=bc2cdb88-3a61-4ed5-a261-16427b8c6273"},"vehicle_type_id":"4","last_reported":1744546632,"current_range_meters":10800,"station_id":"ce4bh0p2rcd13ifvqd80","pricing_plan_id":"cebpf4jnsgd1na2vs0mg"},{"bike_id":"82d38bd3-c046-4f55-aec8-4eb686f05e29","system_id":"levelo_inurba_marseille","lat":43.22932,"lon":5.35373,"is_reserved":false,"is_disabled":true,"rental_uris":{"android":"levelo://app?vid=82d38bd3-c046-4f55-aec8-4eb686f05e29","ios":"levelo://app?vid=82d38bd3-c046-4f55-aec8-4eb686f05e29"},"vehicle_type_id":"4","last_reported":1744546632,"current_range_meters":10800,"station_id":"cpo3532slgdg3j2ikp40","pricing_plan_id":"cebpf4jnsgd1na2vs0mg"},{"bike_id":"52ad9fd6-cd29-474a-85e3-f9837f068426","system_id":"levelo_inurba_marseille","lat":43.32115,"lon":5.36778,"is_reserved":false,"is_disabled":false,"rental_uris":{"android":"levelo://app?vid=52ad9fd6-cd29-474a-85e3-f9837f068426","ios":"levelo://app?vid=52ad9fd6-cd29-474a-85e3-f9837f068426"},"vehicle_type_id":"4","last_reported":1744546632,"current_range_meters":10800,"station_id":"ce4bhrh2rcd13ifvqhug","pricing_plan_id":"cebpf4jnsgd1na2vs0mg"},{"bike_id":"fa630cf5-707f-4768-9782-f2bc7b9653b0","system_id":"levelo_inurba_marseille","lat":43.260607,"lon":5.393986,"is_reserved":false,"is_disabled":false,"rental_uris":{"android":"levelo://app?vid=fa630cf5-707f-4768-9782-f2bc7b9653b0","ios":"levelo://app?vid=fa630cf5-707f-4768-9782-f2bc7b9653b0"},"vehicle_type_id":"4","last_reported":1744546632,"current_range_meters":10800,"station_id":"ce4bhih2rcd13ifvqfs0","pricing_plan_id":"cebpf4jnsgd1na2vs0mg"},{"bike_id":"4d49d7bf-c387-4802-8134-39419f66ab07","system_id":"levelo_inurba_marseille","lat":43.25102,"lon":5.39514,"is_reserved":false,"is_disabled":false,"rental_uris":{"android":"levelo://app?vid=4d49d7bf-c387-4802-8134-39419f66ab07","ios":"levelo://app?vid=4d49d7bf-c387-4802-8134-39419f66ab07"},"vehicle_type_id":"4","last_reported":1744546632,"current_range_meters":10800,"station_id":"ce4bhm12rcd13ifvqgkg","pricing_plan_id":"cebpf4jnsgd1na2vs0mg"},{"bike_id":"4359e857-d6db-473a-8c5b-471059185a84","system_id":"levelo_inurba_marseille","lat":43.29277,"lon":5.36841,"is_reserved":false,"is_disabled":false,"rental_uris":{"android":"levelo://app?vid=4359e857-d6db-473a-8c5b-471059185a84","ios":"levelo://app?vid=4359e857-d6db-473a-8c5b-471059185a84"},"vehicle_type_id":"4","last_reported":1744546632,"current_range_meters":10800,"station_id":"ce4bhbp2rcd13ifvqesg","pricing_plan_id":"cebpf4jnsgd1na2vs0mg"},{"bike_id":"efd328ca-f8bf-4550-bd94-c2fd75978f3c","system_id":"levelo_inurba_marseille","lat":43.33066,"lon":5.38092,"is_reserved":false,"is_disabled":false,"rental_uris":{"android":"levelo://app?vid=efd328ca-f8bf-4550-bd94-c2fd75978f3c","ios":"levelo://app?vid=efd328ca-f8bf-4550-bd94-c2fd75978f3c"},"vehicle_type_id":"4","last_reported":1744546632,"current_range_meters":10800,"station_id":"","pricing_plan_id":"cebpf4jnsgd1na2vs0mg"},{"bike_id":"12aec038-db5e-4d5d-a5cf-e01dc2e28ea3","system_id":"levelo_inurba_marseille","lat":43.301305,"lon":5.404945,"is_reserved":false,"is_disabled":true,"rental_uris":{"android":"levelo://app?vid=12aec038-db5e-4d5d-a5cf-e01dc2e28ea3","ios":"levelo://app?vid=12aec038-db5e-4d5d-a5cf-e01dc2e28ea3"},"vehicle_type_id":"4","last_reported":1744546632,"current_range_meters":11200,"station_id":"","pricing_plan_id":"cebpf4jnsgd1na2vs0mg"},{"bike_id":"982bb1bc-457f-43d7-ae21-85035c856353","system_id":"levelo_inurba_marseille","lat":43.22513,"lon":5.34775,"is_reserved":false,"is_disabled":true,"rental_uris":{"android":"levelo://app?vid=982bb1bc-457f-43d7-ae21-85035c856353","ios":"levelo://app?vid=982bb1bc-457f-43d7-ae21-85035c856353"},"vehicle_type_id":"4","last_reported":1744546632,"current_range_meters":11200,"station_id":"st_cvj5dfep6f1abm77gieg","pricing_plan_id":"cebpf4jnsgd1na2vs0mg"},{"bike_id":"019d7eed-2c75-42b9-91be-50f10456668c","system_id":"levelo_inurba_marseille","lat":43.23196,"lon":5.35555,"is_reserved":false,"is_disabled":false,"rental_uris":{"android":"levelo://app?vid=019d7eed-2c75-42b9-91be-50f10456668c","ios":"levelo://app?vid=019d7eed-2c75-42b9-91be-50f10456668c"},"vehicle_type_id":"4","last_reported":1744546632,"current_range_meters":11200,"station_id":"ce4bhu92rcd13ifvqi70","pricing_plan_id":"cebpf4jnsgd1na2vs0mg"},{"bike_id":"ec5529ba-a86c-439a-9c90-c79bfd022883","system_id":"levelo_inurba_marseille","lat":43.26593,"lon":5.39023,"is_reserved":false,"is_disabled":false,"rental_uris":{"android":"levelo://app?vid=ec5529ba-a86c-439a-9c90-c79bfd022883","ios":"levelo://app?vid=ec5529ba-a86c-439a-9c90-c79bfd022883"},"vehicle_type_id":"4","last_reported":1744546632,"current_range_meters":11200,"station_id":"ce4bhe12rcd13ifvqf30","pricing_plan_id":"cebpf4jnsgd1na2vs0mg"},{"bike_id":"020e9999-d552-48d0-ae5f-b725af0dbea2","system_id":"levelo_inurba_marseille","lat":43.299101,"lon":5.437582,"is_reserved":false,"is_disabled":false,"rental_uris":{"android":"levelo://app?vid=020e9999-d552-48d0-ae5f-b725af0dbea2","ios":"levelo://app?vid=020e9999-d552-48d0-ae5f-b725af0dbea2"},"vehicle_type_id":"4","last_reported":1744546632,"current_range_meters":11200,"station_id":"","pricing_plan_id":"cebpf4jnsgd1na2vs0mg"},{"bike_id":"a3bf51d9-08b7-458c-9b6d-ef5680cc95d6","system_id":"levelo_inurba_marseille","lat":43.21754,"lon":5.34611,"is_reserved":false,"is_disabled":true,"rental_uris":{"android":"levelo://app?vid=a3bf51d9-08b7-458c-9b6d-ef5680cc95d6","ios":"levelo://app?vid=a3bf51d9-08b7-458c-9b6d-ef5680cc95d6"},"vehicle_type_id":"4","last_reported":1744546632,"current_range_meters":11200,"station_id":"st_cvj6r9ubvosntc0bgbag","pricing_plan_id":"cebpf4jnsgd1na2vs0mg"},{"bike_id":"d31baae5-d4c4-45cc-bdc2-810b7bffe791","system_id":"levelo_inurba_marseille","lat":43.26194,"lon":5.37448,"is_reserved":false,"is_disabled":false,"rental_uris":{"android":"levelo://app?vid=d31baae5-d4c4-45cc-bdc2-810b7bffe791","ios":"levelo://app?vid=d31baae5-d4c4-45cc-bdc2-810b7bffe791"},"vehicle_type_id":"4","last_reported":1744546632,"current_range_meters":11200,"station_id":"ce4bhgp2rcd13ifvqfc0","pricing_plan_id":"cebpf4jnsgd1na2vs0mg"},{"bike_id":"0ef0b555-65f4-484f-9043-087c0d407acb","system_id":"levelo_inurba_marseille","lat":43.293,"lon":5.37457,"is_reserved":false,"is_disabled":false,"rental_uris":{"android":"levelo://app?vid=0ef0b555-65f4-484f-9043-087c0d407acb","ios":"levelo://app?vid=0ef0b555-65f4-484f-9043-087c0d407acb"},"vehicle_type_id":"4","last_reported":1744546632,"current_range_meters":10800,"station_id":"ce4bgi12rcd13ifvqb70","pricing_plan_id":"cebpf4jnsgd1na2vs0mg"},{"bike_id":"1578cdda-fa32-4486-ac62-617f457b0927","system_id":"levelo_inurba_marseille","lat":43.29004,"lon":5.35612,"is_reserved":false,"is_disabled":true,"rental_uris":{"android":"levelo://app?vid=1578cdda-fa32-4486-ac62-617f457b0927","ios":"levelo://app?vid=1578cdda-fa32-4486-ac62-617f457b0927"},"vehicle_type_id":"4","last_reported":1744546632,"current_range_meters":11600,"station_id":"ce4bhb92rcd13ifvqen0","pricing_plan_id":"cebpf4jnsgd1na2vs0mg"},{"bike_id":"2b060f5f-ac35-4b1a-988e-e07faea97043","system_id":"levelo_inurba_marseille","lat":43.29629,"lon":5.40621,"is_reserved":false,"is_disabled":false,"rental_uris":{"android":"levelo://app?vid=2b060f5f-ac35-4b1a-988e-e07faea97043","ios":"levelo://app?vid=2b060f5f-ac35-4b1a-988e-e07faea97043"},"vehicle_type_id":"4","last_reported":1744546632,"current_range_meters":11600,"station_id":"ce4bh0h2rcd13ifvqd60","pricing_plan_id":"cebpf4jnsgd1na2vs0mg"},{"bike_id":"5bd83869-317c-4f7d-93ed-182a084c5a24","system_id":"levelo_inurba_marseille","lat":43.2572,"lon":5.410983,"is_reserved":false,"is_disabled":false,"rental_uris":{"android":"levelo://app?vid=5bd83869-317c-4f7d-93ed-182a084c5a24","ios":"levelo://app?vid=5bd83869-317c-4f7d-93ed-182a084c5a24"},"vehicle_type_id":"4","last_reported":1744546632,"current_range_meters":11600,"station_id":"ce4bhkp2rcd13ifvqgd0","pricing_plan_id":"cebpf4jnsgd1na2vs0mg"},{"bike_id":"b55dd5e7-54b2-4035-b945-7b626dd7afc7","system_id":"levelo_inurba_marseille","lat":43.2756,"lon":5.40908,"is_reserved":false,"is_disabled":false,"rental_uris":{"android":"levelo://app?vid=b55dd5e7-54b2-4035-b945-7b626dd7afc7","ios":"levelo://app?vid=b55dd5e7-54b2-4035-b945-7b626dd7afc7"},"vehicle_type_id":"4","last_reported":1744546632,"current_range_meters":11600,"station_id":"","pricing_plan_id":"cebpf4jnsgd1na2vs0mg"},{"bike_id":"48304a08-5a69-4a32-a932-369007df2aca","system_id":"levelo_inurba_marseille","lat":43.2924,"lon":5.36684,"is_reserved":false,"is_disabled":false,"rental_uris":{"android":"levelo://app?vid=48304a08-5a69-4a32-a932-369007df2aca","ios":"levelo://app?vid=48304a08-5a69-4a32-a932-369007df2aca"},"vehicle_type_id":"4","last_reported":1744546632,"current_range_meters":12000,"station_id":"","pricing_plan_id":"cebpf4jnsgd1na2vs0mg"},{"bike_id":"5e120263-75d5-4027-bdcc-a11e2bb1686a","system_id":"levelo_inurba_marseille","lat":43.30277,"lon":5.36923,"is_reserved":false,"is_disabled":false,"rental_uris":{"android":"levelo://app?vid=5e120263-75d5-4027-bdcc-a11e2bb1686a","ios":"levelo://app?vid=5e120263-75d5-4027-bdcc-a11e2bb1686a"},"vehicle_type_id":"4","last_reported":1744546632,"current_range_meters":11600,"station_id":"ce4bgqh2rcd13ifvqc5g","pricing_plan_id":"cebpf4jnsgd1na2vs0mg"},{"bike_id":"4c1d6b17-8948-45dc-8b7f-5150a4f7f2cf","system_id":"levelo_inurba_marseille","lat":43.2783,"lon":5.39208,"is_reserved":false,"is_disabled":false,"rental_uris":{"android":"levelo://app?vid=4c1d6b17-8948-45dc-8b7f-5150a4f7f2cf","ios":"levelo://app?vid=4c1d6b17-8948-45dc-8b7f-5150a4f7f2cf"},"vehicle_type_id":"4","last_reported":1744546632,"current_range_meters":11600,"station_id":"ce4bhjp2rcd13ifvqga0","pricing_plan_id":"cebpf4jnsgd1na2vs0mg"},{"bike_id":"4f19b617-3a07-49c7-bec0-45cef8f800ee","system_id":"levelo_inurba_marseille","lat":43.24392,"lon":5.37054,"is_reserved":false,"is_disabled":false,"rental_uris":{"android":"levelo://app?vid=4f19b617-3a07-49c7-bec0-45cef8f800ee","ios":"levelo://app?vid=4f19b617-3a07-49c7-bec0-45cef8f800ee"},"vehicle_type_id":"4","last_reported":1744546632,"current_range_meters":11600,"station_id":"ce4bhhh2rcd13ifvqfk0","pricing_plan_id":"cebpf4jnsgd1na2vs0mg"},{"bike_id":"73bbc97d-2b39-4276-bc22-fd7aa78f429c","system_id":"levelo_inurba_marseille","lat":43.299,"lon":5.43679,"is_reserved":false,"is_disabled":false,"rental_uris":{"android":"levelo://app?vid=73bbc97d-2b39-4276-bc22-fd7aa78f429c","ios":"levelo://app?vid=73bbc97d-2b39-4276-bc22-fd7aa78f429c"},"vehicle_type_id":"4","last_reported":1744546632,"current_range_meters":11600,"station_id":"ce4bhpp2rcd13ifvqhfg","pricing_plan_id":"cebpf4jnsgd1na2vs0mg"},{"bike_id":"4bbe6e48-9bfa-4dec-aab0-5597477f7da1","system_id":"levelo_inurba_marseille","lat":43.32412,"lon":5.39141,"is_reserved":false,"is_disabled":false,"rental_uris":{"android":"levelo://app?vid=4bbe6e48-9bfa-4dec-aab0-5597477f7da1","ios":"levelo://app?vid=4bbe6e48-9bfa-4dec-aab0-5597477f7da1"},"vehicle_type_id":"4","last_reported":1744546632,"current_range_meters":11600,"station_id":"","pricing_plan_id":"cebpf4jnsgd1na2vs0mg"},{"bike_id":"c70dc66c-d4a1-4e50-81d7-22e212eff3e3","system_id":"levelo_inurba_marseille","lat":43.24673,"lon":5.38147,"is_reserved":false,"is_disabled":false,"rental_uris":{"android":"levelo://app?vid=c70dc66c-d4a1-4e50-81d7-22e212eff3e3","ios":"levelo://app?vid=c70dc66c-d4a1-4e50-81d7-22e212eff3e3"},"vehicle_type_id":"4","last_reported":1744546632,"current_range_meters":12000,"station_id":"ce4bhih2rcd13ifvqfr0","pricing_plan_id":"cebpf4jnsgd1na2vs0mg"},{"bike_id":"c5de9f04-a68c-4314-9995-789e3d717983","system_id":"levelo_inurba_marseille","lat":43.24401,"lon":5.37056,"is_reserved":false,"is_disabled":true,"rental_uris":{"android":"levelo://app?vid=c5de9f04-a68c-4314-9995-789e3d717983","ios":"levelo://app?vid=c5de9f04-a68c-4314-9995-789e3d717983"},"vehicle_type_id":"4","last_reported":1744546632,"current_range_meters":12000,"station_id":"ce4bhhh2rcd13ifvqfk0","pricing_plan_id":"cebpf4jnsgd1na2vs0mg"},{"bike_id":"93315c12-bc0b-4f12-b059-3e0b577d6c66","system_id":"levelo_inurba_marseille","lat":43.30548,"lon":5.36533,"is_reserved":false,"is_disabled":false,"rental_uris":{"android":"levelo://app?vid=93315c12-bc0b-4f12-b059-3e0b577d6c66","ios":"levelo://app?vid=93315c12-bc0b-4f12-b059-3e0b577d6c66"},"vehicle_type_id":"4","last_reported":1744546632,"current_range_meters":12000,"station_id":"ce4bgs12rcd13ifvqcag","pricing_plan_id":"cebpf4jnsgd1na2vs0mg"},{"bike_id":"d7a1af26-2e79-4cdc-a443-1ec7881b3017","system_id":"levelo_inurba_marseille","lat":43.298521,"lon":5.362846,"is_reserved":false,"is_disabled":false,"rental_uris":{"android":"levelo://app?vid=d7a1af26-2e79-4cdc-a443-1ec7881b3017","ios":"levelo://app?vid=d7a1af26-2e79-4cdc-a443-1ec7881b3017"},"vehicle_type_id":"4","last_reported":1744546632,"current_range_meters":12000,"station_id":"","pricing_plan_id":"cebpf4jnsgd1na2vs0mg"},{"bike_id":"d9dc5cdb-a4f7-4330-b2a3-ced32d7a416e","system_id":"levelo_inurba_marseille","lat":43.29918,"lon":5.38134,"is_reserved":false,"is_disabled":false,"rental_uris":{"android":"levelo://app?vid=d9dc5cdb-a4f7-4330-b2a3-ced32d7a416e","ios":"levelo://app?vid=d9dc5cdb-a4f7-4330-b2a3-ced32d7a416e"},"vehicle_type_id":"4","last_reported":1744546632,"current_range_meters":12000,"station_id":"ce4bgj12rcd13ifvqbc0","pricing_plan_id":"cebpf4jnsgd1na2vs0mg"},{"bike_id":"d8b9884b-4022-4710-9f87-50e0dbfd421d","system_id":"levelo_inurba_marseille","lat":43.24154,"lon":5.36406,"is_reserved":false,"is_disabled":false,"rental_uris":{"android":"levelo://app?vid=d8b9884b-4022-4710-9f87-50e0dbfd421d","ios":"levelo://app?vid=d8b9884b-4022-4710-9f87-50e0dbfd421d"},"vehicle_type_id":"4","last_reported":1744546632,"current_range_meters":12000,"station_id":"cpo36qri1sfpv3e86is0","pricing_plan_id":"cebpf4jnsgd1na2vs0mg"},{"bike_id":"3e40e9dc-9e98-4650-aa42-78c875ac0eed","system_id":"levelo_inurba_marseille","lat":43.28373,"lon":5.38633,"is_reserved":false,"is_disabled":false,"rental_uris":{"android":"levelo://app?vid=3e40e9dc-9e98-4650-aa42-78c875ac0eed","ios":"levelo://app?vid=3e40e9dc-9e98-4650-aa42-78c875ac0eed"},"vehicle_type_id":"4","last_reported":1744546632,"current_range_meters":12000,"station_id":"ce4bh492rcd13ifvqdvg","pricing_plan_id":"cebpf4jnsgd1na2vs0mg"},{"bike_id":"dc6aad21-ae61-4621-9ef0-c9bd2b9caa5a","system_id":"levelo_inurba_marseille","lat":43.225078,"lon":5.347889,"is_reserved":false,"is_disabled":false,"rental_uris":{"android":"levelo://app?vid=dc6aad21-ae61-4621-9ef0-c9bd2b9caa5a","ios":"levelo://app?vid=dc6aad21-ae61-4621-9ef0-c9bd2b9caa5a"},"vehicle_type_id":"4","last_reported":1744546632,"current_range_meters":12000,"station_id":"","pricing_plan_id":"cebpf4jnsgd1na2vs0mg"},{"bike_id":"578ed75c-ac7c-4cce-a91d-84ec0beb45a3","system_id":"levelo_inurba_marseille","lat":43.32656,"lon":5.40986,"is_reserved":false,"is_disabled":false,"rental_uris":{"android":"levelo://app?vid=578ed75c-ac7c-4cce-a91d-84ec0beb45a3","ios":"levelo://app?vid=578ed75c-ac7c-4cce-a91d-84ec0beb45a3"},"vehicle_type_id":"4","last_reported":1744546632,"current_range_meters":12400,"station_id":"ce4bhpp2rcd13ifvqhgg","pricing_plan_id":"cebpf4jnsgd1na2vs0mg"},{"bike_id":"670350e7-8b16-4095-8222-1a9ab089eb5a","system_id":"levelo_inurba_marseille","lat":43.27939,"lon":5.4105,"is_reserved":false,"is_disabled":false,"rental_uris":{"android":"levelo://app?vid=670350e7-8b16-4095-8222-1a9ab089eb5a","ios":"levelo://app?vid=670350e7-8b16-4095-8222-1a9ab089eb5a"},"vehicle_type_id":"4","last_reported":1744546632,"current_range_meters":12400,"station_id":"ce4bhnp2rcd13ifvqh0g","pricing_plan_id":"cebpf4jnsgd1na2vs0mg"},{"bike_id":"bde6e571-3dbb-44b4-b9a8-d986a3267109","system_id":"levelo_inurba_marseille","lat":43.27054,"lon":5.4026,"is_reserved":false,"is_disabled":false,"rental_uris":{"android":"levelo://app?vid=bde6e571-3dbb-44b4-b9a8-d986a3267109","ios":"levelo://app?vid=bde6e571-3dbb-44b4-b9a8-d986a3267109"},"vehicle_type_id":"4","last_reported":1744546632,"current_range_meters":12400,"station_id":"ce4bhk92rcd13ifvqgc0","pricing_plan_id":"cebpf4jnsgd1na2vs0mg"},{"bike_id":"8bda4138-210e-4cb2-b037-e3366deb6089","system_id":"levelo_inurba_marseille","lat":43.29911,"lon":5.38147,"is_reserved":false,"is_disabled":false,"rental_uris":{"android":"levelo://app?vid=8bda4138-210e-4cb2-b037-e3366deb6089","ios":"levelo://app?vid=8bda4138-210e-4cb2-b037-e3366deb6089"},"vehicle_type_id":"4","last_reported":1744546632,"current_range_meters":12400,"station_id":"ce4bgj12rcd13ifvqbc0","pricing_plan_id":"cebpf4jnsgd1na2vs0mg"},{"bike_id":"d49ed5f3-63dd-41d8-a7c3-7b7860b035b1","system_id":"levelo_inurba_marseille","lat":43.24819,"lon":5.37458,"is_reserved":false,"is_disabled":true,"rental_uris":{"android":"levelo://app?vid=d49ed5f3-63dd-41d8-a7c3-7b7860b035b1","ios":"levelo://app?vid=d49ed5f3-63dd-41d8-a7c3-7b7860b035b1"},"vehicle_type_id":"4","last_reported":1744546632,"current_range_meters":12400,"station_id":"ce4bhgh2rcd13ifvqfb0","pricing_plan_id":"cebpf4jnsgd1na2vs0mg"},{"bike_id":"5591936e-ca63-41c7-89f3-9c9493c86f89","system_id":"levelo_inurba_marseille","lat":43.24176,"lon":5.36396,"is_reserved":false,"is_disabled":false,"rental_uris":{"android":"levelo://app?vid=5591936e-ca63-41c7-89f3-9c9493c86f89","ios":"levelo://app?vid=5591936e-ca63-41c7-89f3-9c9493c86f89"},"vehicle_type_id":"4","last_reported":1744546632,"current_range_meters":12400,"station_id":"cpo36qri1sfpv3e86is0","pricing_plan_id":"cebpf4jnsgd1na2vs0mg"},{"bike_id":"7b866cf3-5536-4ee0-b67e-8696ecbf60bf","system_id":"levelo_inurba_marseille","lat":43.299687,"lon":5.384869,"is_reserved":false,"is_disabled":false,"rental_uris":{"android":"levelo://app?vid=7b866cf3-5536-4ee0-b67e-8696ecbf60bf","ios":"levelo://app?vid=7b866cf3-5536-4ee0-b67e-8696ecbf60bf"},"vehicle_type_id":"4","last_reported":1744546632,"current_range_meters":12400,"station_id":"ce4bhgh2rcd13ifvqfb0","pricing_plan_id":"cebpf4jnsgd1na2vs0mg"},{"bike_id":"92c3e73c-3fcd-47b5-a45a-3269650149a5","system_id":"levelo_inurba_marseille","lat":43.311915,"lon":5.372338,"is_reserved":false,"is_disabled":false,"rental_uris":{"android":"levelo://app?vid=92c3e73c-3fcd-47b5-a45a-3269650149a5","ios":"levelo://app?vid=92c3e73c-3fcd-47b5-a45a-3269650149a5"},"vehicle_type_id":"4","last_reported":1744546632,"current_range_meters":12400,"station_id":"ce4bguh2rcd13ifvqckg","pricing_plan_id":"cebpf4jnsgd1na2vs0mg"},{"bike_id":"eeecd2fe-6254-4002-abf4-dbb4c5b284dc","system_id":"levelo_inurba_marseille","lat":43.27988,"lon":5.41656,"is_reserved":false,"is_disabled":true,"rental_uris":{"android":"levelo://app?vid=eeecd2fe-6254-4002-abf4-dbb4c5b284dc","ios":"levelo://app?vid=eeecd2fe-6254-4002-abf4-dbb4c5b284dc"},"vehicle_type_id":"4","last_reported":1744546632,"current_range_meters":12800,"station_id":"ce4bho12rcd13ifvqh1g","pricing_plan_id":"cebpf4jnsgd1na2vs0mg"},{"bike_id":"dae7ddd9-640c-4330-bd4f-f63ed9dbbffe","system_id":"levelo_inurba_marseille","lat":43.2316,"lon":5.43701,"is_reserved":false,"is_disabled":false,"rental_uris":{"android":"levelo://app?vid=dae7ddd9-640c-4330-bd4f-f63ed9dbbffe","ios":"levelo://app?vid=dae7ddd9-640c-4330-bd4f-f63ed9dbbffe"},"vehicle_type_id":"4","last_reported":1744546632,"current_range_meters":12800,"station_id":"ce4bhmp2rcd13ifvqgog","pricing_plan_id":"cebpf4jnsgd1na2vs0mg"},{"bike_id":"6d1bd9dc-8fcc-41de-81a0-a51acd352325","system_id":"levelo_inurba_marseille","lat":43.29253,"lon":5.37624,"is_reserved":false,"is_disabled":false,"rental_uris":{"android":"levelo://app?vid=6d1bd9dc-8fcc-41de-81a0-a51acd352325","ios":"levelo://app?vid=6d1bd9dc-8fcc-41de-81a0-a51acd352325"},"vehicle_type_id":"4","last_reported":1744546632,"current_range_meters":12800,"station_id":"ce4bgi12rcd13ifvqb80","pricing_plan_id":"cebpf4jnsgd1na2vs0mg"},{"bike_id":"4d874086-2615-45ee-92bb-518b7ad00a4d","system_id":"levelo_inurba_marseille","lat":43.30973,"lon":5.39058,"is_reserved":false,"is_disabled":true,"rental_uris":{"android":"levelo://app?vid=4d874086-2615-45ee-92bb-518b7ad00a4d","ios":"levelo://app?vid=4d874086-2615-45ee-92bb-518b7ad00a4d"},"vehicle_type_id":"4","last_reported":1744546632,"current_range_meters":12800,"station_id":"ce4bgup2rcd13ifvqco0","pricing_plan_id":"cebpf4jnsgd1na2vs0mg"},{"bike_id":"239b457a-7da8-49b2-9197-3c47133b2b7d","system_id":"levelo_inurba_marseille","lat":43.2906,"lon":5.39932,"is_reserved":false,"is_disabled":true,"rental_uris":{"android":"levelo://app?vid=239b457a-7da8-49b2-9197-3c47133b2b7d","ios":"levelo://app?vid=239b457a-7da8-49b2-9197-3c47133b2b7d"},"vehicle_type_id":"4","last_reported":1744546632,"current_range_meters":12800,"station_id":"ce4bh392rcd13ifvqdm0","pricing_plan_id":"cebpf4jnsgd1na2vs0mg"},{"bike_id":"1aeb84be-a056-4b78-b011-327bf8ae9ea7","system_id":"levelo_inurba_marseille","lat":43.27974,"lon":5.38754,"is_reserved":false,"is_disabled":false,"rental_uris":{"android":"levelo://app?vid=1aeb84be-a056-4b78-b011-327bf8ae9ea7","ios":"levelo://app?vid=1aeb84be-a056-4b78-b011-327bf8ae9ea7"},"vehicle_type_id":"4","last_reported":1744546632,"current_range_meters":13600,"station_id":"ce4bhg12rcd13ifvqf80","pricing_plan_id":"cebpf4jnsgd1na2vs0mg"},{"bike_id":"3507dfca-319b-4174-9d98-ddf67a8f0f8e","system_id":"levelo_inurba_marseille","lat":43.2972,"lon":5.36611,"is_reserved":false,"is_disabled":false,"rental_uris":{"android":"levelo://app?vid=3507dfca-319b-4174-9d98-ddf67a8f0f8e","ios":"levelo://app?vid=3507dfca-319b-4174-9d98-ddf67a8f0f8e"},"vehicle_type_id":"4","last_reported":1744546632,"current_range_meters":13600,"station_id":"ce4bgn12rcd13ifvqbt0","pricing_plan_id":"cebpf4jnsgd1na2vs0mg"},{"bike_id":"a0ab7b8e-bb2a-4a01-9f71-e26e580d8ce3","system_id":"levelo_inurba_marseille","lat":43.29267,"lon":5.36855,"is_reserved":false,"is_disabled":false,"rental_uris":{"android":"levelo://app?vid=a0ab7b8e-bb2a-4a01-9f71-e26e580d8ce3","ios":"levelo://app?vid=a0ab7b8e-bb2a-4a01-9f71-e26e580d8ce3"},"vehicle_type_id":"4","last_reported":1744546632,"current_range_meters":13600,"station_id":"ce4bhbp2rcd13ifvqesg","pricing_plan_id":"cebpf4jnsgd1na2vs0mg"},{"bike_id":"b73b187f-ed1f-4351-8d6c-76a242d1978d","system_id":"levelo_inurba_marseille","lat":43.29279,"lon":5.40117,"is_reserved":false,"is_disabled":false,"rental_uris":{"android":"levelo://app?vid=b73b187f-ed1f-4351-8d6c-76a242d1978d","ios":"levelo://app?vid=b73b187f-ed1f-4351-8d6c-76a242d1978d"},"vehicle_type_id":"4","last_reported":1744546632,"current_range_meters":13600,"station_id":"ce4bh312rcd13ifvqdk0","pricing_plan_id":"cebpf4jnsgd1na2vs0mg"},{"bike_id":"82d05d5b-9015-4787-9acd-e1e88564527c","system_id":"levelo_inurba_marseille","lat":43.2657,"lon":5.39012,"is_reserved":false,"is_disabled":false,"rental_uris":{"android":"levelo://app?vid=82d05d5b-9015-4787-9acd-e1e88564527c","ios":"levelo://app?vid=82d05d5b-9015-4787-9acd-e1e88564527c"},"vehicle_type_id":"4","last_reported":1744546632,"current_range_meters":14000,"station_id":"ce4bhe12rcd13ifvqf30","pricing_plan_id":"cebpf4jnsgd1na2vs0mg"},{"bike_id":"200af73b-2937-4e81-98d0-ccd616c3a62a","system_id":"levelo_inurba_marseille","lat":43.30543,"lon":5.36527,"is_reserved":false,"is_disabled":false,"rental_uris":{"android":"levelo://app?vid=200af73b-2937-4e81-98d0-ccd616c3a62a","ios":"levelo://app?vid=200af73b-2937-4e81-98d0-ccd616c3a62a"},"vehicle_type_id":"4","last_reported":1744546632,"current_range_meters":14000,"station_id":"ce4bgs12rcd13ifvqcag","pricing_plan_id":"cebpf4jnsgd1na2vs0mg"},{"bike_id":"54f95021-ece3-4c1e-a98d-33e005a5619a","system_id":"levelo_inurba_marseille","lat":43.21197,"lon":5.35074,"is_reserved":false,"is_disabled":false,"rental_uris":{"android":"levelo://app?vid=54f95021-ece3-4c1e-a98d-33e005a5619a","ios":"levelo://app?vid=54f95021-ece3-4c1e-a98d-33e005a5619a"},"vehicle_type_id":"4","last_reported":1744546632,"current_range_meters":14000,"station_id":"st_cvj6sg6p6f1abm77japg","pricing_plan_id":"cebpf4jnsgd1na2vs0mg"},{"bike_id":"305f04a1-7ee0-4ddb-8128-14447c78bb36","system_id":"levelo_inurba_marseille","lat":43.258209,"lon":5.394425,"is_reserved":false,"is_disabled":false,"rental_uris":{"android":"levelo://app?vid=305f04a1-7ee0-4ddb-8128-14447c78bb36","ios":"levelo://app?vid=305f04a1-7ee0-4ddb-8128-14447c78bb36"},"vehicle_type_id":"4","last_reported":1744546632,"current_range_meters":14000,"station_id":"ce4bhip2rcd13ifvqft0","pricing_plan_id":"cebpf4jnsgd1na2vs0mg"},{"bike_id":"fca94dc6-4e19-4777-93ee-92ac23daa29d","system_id":"levelo_inurba_marseille","lat":43.30327,"lon":5.40438,"is_reserved":false,"is_disabled":false,"rental_uris":{"android":"levelo://app?vid=fca94dc6-4e19-4777-93ee-92ac23daa29d","ios":"levelo://app?vid=fca94dc6-4e19-4777-93ee-92ac23daa29d"},"vehicle_type_id":"4","last_reported":1744546632,"current_range_meters":14400,"station_id":"ce4bh012rcd13ifvqd10","pricing_plan_id":"cebpf4jnsgd1na2vs0mg"},{"bike_id":"bc10bdd9-cdab-43a9-a664-6f73ddfbdc70","system_id":"levelo_inurba_marseille","lat":43.270416,"lon":5.402745,"is_reserved":false,"is_disabled":false,"rental_uris":{"android":"levelo://app?vid=bc10bdd9-cdab-43a9-a664-6f73ddfbdc70","ios":"levelo://app?vid=bc10bdd9-cdab-43a9-a664-6f73ddfbdc70"},"vehicle_type_id":"4","last_reported":1744546632,"current_range_meters":14400,"station_id":"ce4bhlh2rcd13ifvqgig","pricing_plan_id":"cebpf4jnsgd1na2vs0mg"},{"bike_id":"6a003e47-a1cc-4c38-b762-6e37af426d05","system_id":"levelo_inurba_marseille","lat":43.32336,"lon":5.36712,"is_reserved":false,"is_disabled":false,"rental_uris":{"android":"levelo://app?vid=6a003e47-a1cc-4c38-b762-6e37af426d05","ios":"levelo://app?vid=6a003e47-a1cc-4c38-b762-6e37af426d05"},"vehicle_type_id":"4","last_reported":1744546632,"current_range_meters":14400,"station_id":"ce4bhsh2rcd13ifvqi2g","pricing_plan_id":"cebpf4jnsgd1na2vs0mg"},{"bike_id":"77563542-385b-4ab9-b99c-b55140f0562f","system_id":"levelo_inurba_marseille","lat":43.29252,"lon":5.38434,"is_reserved":false,"is_disabled":false,"rental_uris":{"android":"levelo://app?vid=77563542-385b-4ab9-b99c-b55140f0562f","ios":"levelo://app?vid=77563542-385b-4ab9-b99c-b55140f0562f"},"vehicle_type_id":"4","last_reported":1744546632,"current_range_meters":14400,"station_id":"ce4bh692rcd13ifvqea0","pricing_plan_id":"cebpf4jnsgd1na2vs0mg"},{"bike_id":"6b24a734-09c0-46b9-a210-393e460826e0","system_id":"levelo_inurba_marseille","lat":43.29592,"lon":5.36741,"is_reserved":false,"is_disabled":false,"rental_uris":{"android":"levelo://app?vid=6b24a734-09c0-46b9-a210-393e460826e0","ios":"levelo://app?vid=6b24a734-09c0-46b9-a210-393e460826e0"},"vehicle_type_id":"4","last_reported":1744546632,"current_range_meters":14400,"station_id":"ce4bgph2rcd13ifvqc2g","pricing_plan_id":"cebpf4jnsgd1na2vs0mg"},{"bike_id":"d1de0c6a-95ba-40a1-8ce0-d49c5abd8496","system_id":"levelo_inurba_marseille","lat":43.30169,"lon":5.38085,"is_reserved":false,"is_disabled":false,"rental_uris":{"android":"levelo://app?vid=d1de0c6a-95ba-40a1-8ce0-d49c5abd8496","ios":"levelo://app?vid=d1de0c6a-95ba-40a1-8ce0-d49c5abd8496"},"vehicle_type_id":"4","last_reported":1744546632,"current_range_meters":14800,"station_id":"ce4bgjp2rcd13ifvqbh0","pricing_plan_id":"cebpf4jnsgd1na2vs0mg"},{"bike_id":"37ca7cf9-8c7b-467d-a29d-0bdd87cf4704","system_id":"levelo_inurba_marseille","lat":43.30214,"lon":5.39473,"is_reserved":false,"is_disabled":false,"rental_uris":{"android":"levelo://app?vid=37ca7cf9-8c7b-467d-a29d-0bdd87cf4704","ios":"levelo://app?vid=37ca7cf9-8c7b-467d-a29d-0bdd87cf4704"},"vehicle_type_id":"4","last_reported":1744546632,"current_range_meters":14800,"station_id":"ce4bh0p2rcd13ifvqd70","pricing_plan_id":"cebpf4jnsgd1na2vs0mg"},{"bike_id":"fbcffd98-9af3-437e-a238-670cf1dcb555","system_id":"levelo_inurba_marseille","lat":43.289443,"lon":5.36638,"is_reserved":false,"is_disabled":true,"rental_uris":{"android":"levelo://app?vid=fbcffd98-9af3-437e-a238-670cf1dcb555","ios":"levelo://app?vid=fbcffd98-9af3-437e-a238-670cf1dcb555"},"vehicle_type_id":"4","last_reported":1744546632,"current_range_meters":14800,"station_id":"ce4bhap2rcd13ifvqek0","pricing_plan_id":"cebpf4jnsgd1na2vs0mg"},{"bike_id":"59790fdf-1ea1-455c-92c2-962c077501dc","system_id":"levelo_inurba_marseille","lat":43.24183,"lon":5.39726,"is_reserved":false,"is_disabled":false,"rental_uris":{"android":"levelo://app?vid=59790fdf-1ea1-455c-92c2-962c077501dc","ios":"levelo://app?vid=59790fdf-1ea1-455c-92c2-962c077501dc"},"vehicle_type_id":"4","last_reported":1744546632,"current_range_meters":14800,"station_id":"ce4bhn12rcd13ifvqgpg","pricing_plan_id":"cebpf4jnsgd1na2vs0mg"},{"bike_id":"40ef2329-cc03-42e8-9558-9e5bee7d92a3","system_id":"levelo_inurba_marseille","lat":43.29853,"lon":5.36287,"is_reserved":false,"is_disabled":false,"rental_uris":{"android":"levelo://app?vid=40ef2329-cc03-42e8-9558-9e5bee7d92a3","ios":"levelo://app?vid=40ef2329-cc03-42e8-9558-9e5bee7d92a3"},"vehicle_type_id":"4","last_reported":1744546632,"current_range_meters":14800,"station_id":"ce4bgpp2rcd13ifvqc3g","pricing_plan_id":"cebpf4jnsgd1na2vs0mg"},{"bike_id":"d9214e74-30ad-45b9-bf16-f3f0709b1cbf","system_id":"levelo_inurba_marseille","lat":43.2322,"lon":5.35538,"is_reserved":false,"is_disabled":false,"rental_uris":{"android":"levelo://app?vid=d9214e74-30ad-45b9-bf16-f3f0709b1cbf","ios":"levelo://app?vid=d9214e74-30ad-45b9-bf16-f3f0709b1cbf"},"vehicle_type_id":"4","last_reported":1744546632,"current_range_meters":15200,"station_id":"ce4bhu92rcd13ifvqi70","pricing_plan_id":"cebpf4jnsgd1na2vs0mg"},{"bike_id":"cb31d179-57f8-4be9-9e73-fa0ce2a05e75","system_id":"levelo_inurba_marseille","lat":43.2804,"lon":5.36962,"is_reserved":false,"is_disabled":false,"rental_uris":{"android":"levelo://app?vid=cb31d179-57f8-4be9-9e73-fa0ce2a05e75","ios":"levelo://app?vid=cb31d179-57f8-4be9-9e73-fa0ce2a05e75"},"vehicle_type_id":"4","last_reported":1744546632,"current_range_meters":15200,"station_id":"ce4bha12rcd13ifvqef0","pricing_plan_id":"cebpf4jnsgd1na2vs0mg"},{"bike_id":"7b69e169-63ae-40d2-bb43-bd9525c8bf75","system_id":"levelo_inurba_marseille","lat":43.297037,"lon":5.362948,"is_reserved":false,"is_disabled":false,"rental_uris":{"android":"levelo://app?vid=7b69e169-63ae-40d2-bb43-bd9525c8bf75","ios":"levelo://app?vid=7b69e169-63ae-40d2-bb43-bd9525c8bf75"},"vehicle_type_id":"4","last_reported":1744546632,"current_range_meters":15200,"station_id":"ce4bgpp2rcd13ifvqc3g","pricing_plan_id":"cebpf4jnsgd1na2vs0mg"},{"bike_id":"6cd9363b-e597-40ce-8434-f64c3d5f8317","system_id":"levelo_inurba_marseille","lat":43.30604,"lon":5.37234,"is_reserved":false,"is_disabled":false,"rental_uris":{"android":"levelo://app?vid=6cd9363b-e597-40ce-8434-f64c3d5f8317","ios":"levelo://app?vid=6cd9363b-e597-40ce-8434-f64c3d5f8317"},"vehicle_type_id":"4","last_reported":1744546632,"current_range_meters":16000,"station_id":"ce4bgqh2rcd13ifvqc4g","pricing_plan_id":"cebpf4jnsgd1na2vs0mg"},{"bike_id":"537afb0f-2c67-4666-95eb-eb0d3d75b3a6","system_id":"levelo_inurba_marseille","lat":43.29036,"lon":5.38673,"is_reserved":false,"is_disabled":false,"rental_uris":{"android":"levelo://app?vid=537afb0f-2c67-4666-95eb-eb0d3d75b3a6","ios":"levelo://app?vid=537afb0f-2c67-4666-95eb-eb0d3d75b3a6"},"vehicle_type_id":"4","last_reported":1744546632,"current_range_meters":16000,"station_id":"ce4bh4p2rcd13ifvqe0g","pricing_plan_id":"cebpf4jnsgd1na2vs0mg"},{"bike_id":"52dcb72d-de1d-4625-bbdd-d714e3ba6c0b","system_id":"levelo_inurba_marseille","lat":43.26554,"lon":5.37292,"is_reserved":false,"is_disabled":false,"rental_uris":{"android":"levelo://app?vid=52dcb72d-de1d-4625-bbdd-d714e3ba6c0b","ios":"levelo://app?vid=52dcb72d-de1d-4625-bbdd-d714e3ba6c0b"},"vehicle_type_id":"4","last_reported":1744546632,"current_range_meters":16000,"station_id":"ce4bhg12rcd13ifvqf70","pricing_plan_id":"cebpf4jnsgd1na2vs0mg"},{"bike_id":"89224dcd-42a9-4ac2-ab03-ded1688cbb05","system_id":"levelo_inurba_marseille","lat":43.29576,"lon":5.39988,"is_reserved":false,"is_disabled":false,"rental_uris":{"android":"levelo://app?vid=89224dcd-42a9-4ac2-ab03-ded1688cbb05","ios":"levelo://app?vid=89224dcd-42a9-4ac2-ab03-ded1688cbb05"},"vehicle_type_id":"4","last_reported":1744546632,"current_range_meters":16400,"station_id":"ce4bh312rcd13ifvqdj0","pricing_plan_id":"cebpf4jnsgd1na2vs0mg"},{"bike_id":"f7058834-aa40-4488-af7c-123b03ae4e34","system_id":"levelo_inurba_marseille","lat":43.25818,"lon":5.39431,"is_reserved":false,"is_disabled":false,"rental_uris":{"android":"levelo://app?vid=f7058834-aa40-4488-af7c-123b03ae4e34","ios":"levelo://app?vid=f7058834-aa40-4488-af7c-123b03ae4e34"},"vehicle_type_id":"4","last_reported":1744546632,"current_range_meters":16400,"station_id":"ce4bhip2rcd13ifvqft0","pricing_plan_id":"cebpf4jnsgd1na2vs0mg"},{"bike_id":"e617923d-5e38-4ab5-9f0a-d006b9dcc88d","system_id":"levelo_inurba_marseille","lat":43.29558,"lon":5.38504,"is_reserved":false,"is_disabled":true,"rental_uris":{"android":"levelo://app?vid=e617923d-5e38-4ab5-9f0a-d006b9dcc88d","ios":"levelo://app?vid=e617923d-5e38-4ab5-9f0a-d006b9dcc88d"},"vehicle_type_id":"4","last_reported":1744546632,"current_range_meters":16400,"station_id":"","pricing_plan_id":"cebpf4jnsgd1na2vs0mg"},{"bike_id":"1accc1aa-a277-48f3-9da3-98151bc48e3d","system_id":"levelo_inurba_marseille","lat":43.31085,"lon":5.4244,"is_reserved":false,"is_disabled":false,"rental_uris":{"android":"levelo://app?vid=1accc1aa-a277-48f3-9da3-98151bc48e3d","ios":"levelo://app?vid=1accc1aa-a277-48f3-9da3-98151bc48e3d"},"vehicle_type_id":"4","last_reported":1744546632,"current_range_meters":16800,"station_id":"ce4bhp92rcd13ifvqhag","pricing_plan_id":"cebpf4jnsgd1na2vs0mg"},{"bike_id":"f0586001-7fe6-44f2-bf53-297d85b77384","system_id":"levelo_inurba_marseille","lat":43.31122,"lon":5.37777,"is_reserved":false,"is_disabled":false,"rental_uris":{"android":"levelo://app?vid=f0586001-7fe6-44f2-bf53-297d85b77384","ios":"levelo://app?vid=f0586001-7fe6-44f2-bf53-297d85b77384"},"vehicle_type_id":"4","last_reported":1744546632,"current_range_meters":16800,"station_id":"ce4bgt92rcd13ifvqcg0","pricing_plan_id":"cebpf4jnsgd1na2vs0mg"},{"bike_id":"aba8147b-f179-46d8-b7b7-3938f27074f2","system_id":"levelo_inurba_marseille","lat":43.27993,"lon":5.40028,"is_reserved":false,"is_disabled":false,"rental_uris":{"android":"levelo://app?vid=aba8147b-f179-46d8-b7b7-3938f27074f2","ios":"levelo://app?vid=aba8147b-f179-46d8-b7b7-3938f27074f2"},"vehicle_type_id":"4","last_reported":1744546632,"current_range_meters":16800,"station_id":"ce4bho92rcd13ifvqh4g","pricing_plan_id":"cebpf4jnsgd1na2vs0mg"},{"bike_id":"72db9295-b9c6-46b0-99bb-e827e98e29ce","system_id":"levelo_inurba_marseille","lat":43.27431,"lon":5.39427,"is_reserved":false,"is_disabled":false,"rental_uris":{"android":"levelo://app?vid=72db9295-b9c6-46b0-99bb-e827e98e29ce","ios":"levelo://app?vid=72db9295-b9c6-46b0-99bb-e827e98e29ce"},"vehicle_type_id":"4","last_reported":1744546632,"current_range_meters":16800,"station_id":"ce4bhdp2rcd13ifvqf20","pricing_plan_id":"cebpf4jnsgd1na2vs0mg"},{"bike_id":"70adfe44-94a3-4906-8210-6c716d244a4c","system_id":"levelo_inurba_marseille","lat":43.25744,"lon":5.41122,"is_reserved":false,"is_disabled":false,"rental_uris":{"android":"levelo://app?vid=70adfe44-94a3-4906-8210-6c716d244a4c","ios":"levelo://app?vid=70adfe44-94a3-4906-8210-6c716d244a4c"},"vehicle_type_id":"4","last_reported":1744546632,"current_range_meters":16800,"station_id":"ce4bhkp2rcd13ifvqgd0","pricing_plan_id":"cebpf4jnsgd1na2vs0mg"},{"bike_id":"26691c1d-049d-4556-8e45-3c4880cfc9ce","system_id":"levelo_inurba_marseille","lat":43.28382,"lon":5.38631,"is_reserved":false,"is_disabled":false,"rental_uris":{"android":"levelo://app?vid=26691c1d-049d-4556-8e45-3c4880cfc9ce","ios":"levelo://app?vid=26691c1d-049d-4556-8e45-3c4880cfc9ce"},"vehicle_type_id":"4","last_reported":1744546632,"current_range_meters":16800,"station_id":"ce4bh492rcd13ifvqdvg","pricing_plan_id":"cebpf4jnsgd1na2vs0mg"},{"bike_id":"42a092d4-3d19-4a7d-bdf9-22ae5f9f0dc7","system_id":"levelo_inurba_marseille","lat":43.239313,"lon":5.393332,"is_reserved":false,"is_disabled":false,"rental_uris":{"android":"levelo://app?vid=42a092d4-3d19-4a7d-bdf9-22ae5f9f0dc7","ios":"levelo://app?vid=42a092d4-3d19-4a7d-bdf9-22ae5f9f0dc7"},"vehicle_type_id":"4","last_reported":1744546632,"current_range_meters":16800,"station_id":"ce4bhip2rcd13ifvqft0","pricing_plan_id":"cebpf4jnsgd1na2vs0mg"},{"bike_id":"2551df23-46eb-4dc9-b328-33c9a95ff7ca","system_id":"levelo_inurba_marseille","lat":43.292175,"lon":5.360397,"is_reserved":false,"is_disabled":true,"rental_uris":{"android":"levelo://app?vid=2551df23-46eb-4dc9-b328-33c9a95ff7ca","ios":"levelo://app?vid=2551df23-46eb-4dc9-b328-33c9a95ff7ca"},"vehicle_type_id":"4","last_reported":1744546632,"current_range_meters":16800,"station_id":"ce4bhbh2rcd13ifvqeqg","pricing_plan_id":"cebpf4jnsgd1na2vs0mg"},{"bike_id":"5cd82265-1105-44df-9249-5e5a3fcb3080","system_id":"levelo_inurba_marseille","lat":43.2985,"lon":5.36288,"is_reserved":false,"is_disabled":false,"rental_uris":{"android":"levelo://app?vid=5cd82265-1105-44df-9249-5e5a3fcb3080","ios":"levelo://app?vid=5cd82265-1105-44df-9249-5e5a3fcb3080"},"vehicle_type_id":"4","last_reported":1744546632,"current_range_meters":17200,"station_id":"ce4bgpp2rcd13ifvqc3g","pricing_plan_id":"cebpf4jnsgd1na2vs0mg"},{"bike_id":"09c67ae9-22fd-4afa-9c57-cdf4c3e5d0a1","system_id":"levelo_inurba_marseille","lat":43.21754,"lon":5.34606,"is_reserved":false,"is_disabled":false,"rental_uris":{"android":"levelo://app?vid=09c67ae9-22fd-4afa-9c57-cdf4c3e5d0a1","ios":"levelo://app?vid=09c67ae9-22fd-4afa-9c57-cdf4c3e5d0a1"},"vehicle_type_id":"4","last_reported":1744546632,"current_range_meters":17200,"station_id":"st_cvj6r9ubvosntc0bgbag","pricing_plan_id":"cebpf4jnsgd1na2vs0mg"},{"bike_id":"50f3a6ca-1b32-4e17-a21b-a50e16960e96","system_id":"levelo_inurba_marseille","lat":43.337766,"lon":5.374441,"is_reserved":false,"is_disabled":false,"rental_uris":{"android":"levelo://app?vid=50f3a6ca-1b32-4e17-a21b-a50e16960e96","ios":"levelo://app?vid=50f3a6ca-1b32-4e17-a21b-a50e16960e96"},"vehicle_type_id":"4","last_reported":1744546632,"current_range_meters":17200,"station_id":"","pricing_plan_id":"cebpf4jnsgd1na2vs0mg"},{"bike_id":"a049236f-99e2-4003-9e7b-8ba9acf868c1","system_id":"levelo_inurba_marseille","lat":43.29583,"lon":5.36756,"is_reserved":false,"is_disabled":false,"rental_uris":{"android":"levelo://app?vid=a049236f-99e2-4003-9e7b-8ba9acf868c1","ios":"levelo://app?vid=a049236f-99e2-4003-9e7b-8ba9acf868c1"},"vehicle_type_id":"4","last_reported":1744546632,"current_range_meters":17200,"station_id":"ce4bgph2rcd13ifvqc2g","pricing_plan_id":"cebpf4jnsgd1na2vs0mg"},{"bike_id":"37cc2f4b-0fc3-4716-9c22-22fead4c6165","system_id":"levelo_inurba_marseille","lat":43.292967,"lon":5.374655,"is_reserved":false,"is_disabled":false,"rental_uris":{"android":"levelo://app?vid=37cc2f4b-0fc3-4716-9c22-22fead4c6165","ios":"levelo://app?vid=37cc2f4b-0fc3-4716-9c22-22fead4c6165"},"vehicle_type_id":"4","last_reported":1744546632,"current_range_meters":17200,"station_id":"ce4bgi12rcd13ifvqb70","pricing_plan_id":"cebpf4jnsgd1na2vs0mg"},{"bike_id":"d06291ab-e60c-4ee9-a2f8-f55c784c28fe","system_id":"levelo_inurba_marseille","lat":43.21188,"lon":5.35084,"is_reserved":false,"is_disabled":false,"rental_uris":{"android":"levelo://app?vid=d06291ab-e60c-4ee9-a2f8-f55c784c28fe","ios":"levelo://app?vid=d06291ab-e60c-4ee9-a2f8-f55c784c28fe"},"vehicle_type_id":"4","last_reported":1744546632,"current_range_meters":17200,"station_id":"st_cvj6sg6p6f1abm77japg","pricing_plan_id":"cebpf4jnsgd1na2vs0mg"},{"bike_id":"935a7e55-4cea-4394-8ed2-15f7e1ee706c","system_id":"levelo_inurba_marseille","lat":43.27255,"lon":5.43173,"is_reserved":false,"is_disabled":false,"rental_uris":{"android":"levelo://app?vid=935a7e55-4cea-4394-8ed2-15f7e1ee706c","ios":"levelo://app?vid=935a7e55-4cea-4394-8ed2-15f7e1ee706c"},"vehicle_type_id":"4","last_reported":1744546632,"current_range_meters":17600,"station_id":"","pricing_plan_id":"cebpf4jnsgd1na2vs0mg"},{"bike_id":"da48e56b-5b98-4592-a2ea-cf5907cac18b","system_id":"levelo_inurba_marseille","lat":43.337652,"lon":5.374374,"is_reserved":false,"is_disabled":false,"rental_uris":{"android":"levelo://app?vid=da48e56b-5b98-4592-a2ea-cf5907cac18b","ios":"levelo://app?vid=da48e56b-5b98-4592-a2ea-cf5907cac18b"},"vehicle_type_id":"4","last_reported":1744546632,"current_range_meters":17600,"station_id":"","pricing_plan_id":"cebpf4jnsgd1na2vs0mg"},{"bike_id":"e23a2fbf-390c-4634-8902-fbe9c490d2fe","system_id":"levelo_inurba_marseille","lat":43.25938,"lon":5.409,"is_reserved":false,"is_disabled":false,"rental_uris":{"android":"levelo://app?vid=e23a2fbf-390c-4634-8902-fbe9c490d2fe","ios":"levelo://app?vid=e23a2fbf-390c-4634-8902-fbe9c490d2fe"},"vehicle_type_id":"4","last_reported":1744546632,"current_range_meters":17600,"station_id":"ce4bhm92rcd13ifvqglg","pricing_plan_id":"cebpf4jnsgd1na2vs0mg"},{"bike_id":"f46913f3-e084-4f05-b234-d621f16d5731","system_id":"levelo_inurba_marseille","lat":43.2811,"lon":5.37832,"is_reserved":false,"is_disabled":false,"rental_uris":{"android":"levelo://app?vid=f46913f3-e084-4f05-b234-d621f16d5731","ios":"levelo://app?vid=f46913f3-e084-4f05-b234-d621f16d5731"},"vehicle_type_id":"4","last_reported":1744546632,"current_range_meters":17600,"station_id":"ce4bha12rcd13ifvqee0","pricing_plan_id":"cebpf4jnsgd1na2vs0mg"},{"bike_id":"5b306139-7819-4cb1-be24-fcfc1fc72be5","system_id":"levelo_inurba_marseille","lat":43.30142,"lon":5.38073,"is_reserved":false,"is_disabled":false,"rental_uris":{"android":"levelo://app?vid=5b306139-7819-4cb1-be24-fcfc1fc72be5","ios":"levelo://app?vid=5b306139-7819-4cb1-be24-fcfc1fc72be5"},"vehicle_type_id":"4","last_reported":1744546632,"current_range_meters":17600,"station_id":"ce4bgjp2rcd13ifvqbh0","pricing_plan_id":"cebpf4jnsgd1na2vs0mg"},{"bike_id":"9a420349-f1a7-4356-a72c-84e5396957b7","system_id":"levelo_inurba_marseille","lat":43.29198,"lon":5.35795,"is_reserved":false,"is_disabled":true,"rental_uris":{"android":"levelo://app?vid=9a420349-f1a7-4356-a72c-84e5396957b7","ios":"levelo://app?vid=9a420349-f1a7-4356-a72c-84e5396957b7"},"vehicle_type_id":"4","last_reported":1744546632,"current_range_meters":17600,"station_id":"ce4bhb12rcd13ifvqel0","pricing_plan_id":"cebpf4jnsgd1na2vs0mg"},{"bike_id":"86fcaaf7-8fdf-4e67-8ef8-547e216a803d","system_id":"levelo_inurba_marseille","lat":43.255852,"lon":5.382279,"is_reserved":false,"is_disabled":false,"rental_uris":{"android":"levelo://app?vid=86fcaaf7-8fdf-4e67-8ef8-547e216a803d","ios":"levelo://app?vid=86fcaaf7-8fdf-4e67-8ef8-547e216a803d"},"vehicle_type_id":"4","last_reported":1744546632,"current_range_meters":18000,"station_id":"ce4bhlh2rcd13ifvqgig","pricing_plan_id":"cebpf4jnsgd1na2vs0mg"},{"bike_id":"ac1830d8-3865-4a05-9ae0-37d0bb99e752","system_id":"levelo_inurba_marseille","lat":43.30135,"lon":5.3987,"is_reserved":false,"is_disabled":false,"rental_uris":{"android":"levelo://app?vid=ac1830d8-3865-4a05-9ae0-37d0bb99e752","ios":"levelo://app?vid=ac1830d8-3865-4a05-9ae0-37d0bb99e752"},"vehicle_type_id":"4","last_reported":1744546632,"current_range_meters":18000,"station_id":"ce4bh0h2rcd13ifvqd40","pricing_plan_id":"cebpf4jnsgd1na2vs0mg"},{"bike_id":"784d3b10-5d9b-4675-bf1d-ebb2750eecda","system_id":"levelo_inurba_marseille","lat":43.24393,"lon":5.37054,"is_reserved":false,"is_disabled":false,"rental_uris":{"android":"levelo://app?vid=784d3b10-5d9b-4675-bf1d-ebb2750eecda","ios":"levelo://app?vid=784d3b10-5d9b-4675-bf1d-ebb2750eecda"},"vehicle_type_id":"4","last_reported":1744546632,"current_range_meters":18000,"station_id":"ce4bhhh2rcd13ifvqfk0","pricing_plan_id":"cebpf4jnsgd1na2vs0mg"},{"bike_id":"5980b694-78f4-4e69-b907-409bf81da1aa","system_id":"levelo_inurba_marseille","lat":43.29575,"lon":5.39986,"is_reserved":false,"is_disabled":false,"rental_uris":{"android":"levelo://app?vid=5980b694-78f4-4e69-b907-409bf81da1aa","ios":"levelo://app?vid=5980b694-78f4-4e69-b907-409bf81da1aa"},"vehicle_type_id":"4","last_reported":1744546632,"current_range_meters":18000,"station_id":"ce4bh312rcd13ifvqdj0","pricing_plan_id":"cebpf4jnsgd1na2vs0mg"},{"bike_id":"86ac3ad7-4349-4b45-82d1-b61ad882a2f6","system_id":"levelo_inurba_marseille","lat":43.21738,"lon":5.34612,"is_reserved":false,"is_disabled":true,"rental_uris":{"android":"levelo://app?vid=86ac3ad7-4349-4b45-82d1-b61ad882a2f6","ios":"levelo://app?vid=86ac3ad7-4349-4b45-82d1-b61ad882a2f6"},"vehicle_type_id":"4","last_reported":1744546632,"current_range_meters":18000,"station_id":"st_cvj6r9ubvosntc0bgbag","pricing_plan_id":"cebpf4jnsgd1na2vs0mg"},{"bike_id":"04921126-64e4-493a-b071-2d8ddeb293a4","system_id":"levelo_inurba_marseille","lat":43.28618,"lon":5.35103,"is_reserved":false,"is_disabled":false,"rental_uris":{"android":"levelo://app?vid=04921126-64e4-493a-b071-2d8ddeb293a4","ios":"levelo://app?vid=04921126-64e4-493a-b071-2d8ddeb293a4"},"vehicle_type_id":"4","last_reported":1744546632,"current_range_meters":18800,"station_id":"ce4bhch2rcd13ifvqeug","pricing_plan_id":"cebpf4jnsgd1na2vs0mg"},{"bike_id":"368d32c0-fb43-4af2-9ac3-10292f454441","system_id":"levelo_inurba_marseille","lat":43.29074,"lon":5.37169,"is_reserved":false,"is_disabled":false,"rental_uris":{"android":"levelo://app?vid=368d32c0-fb43-4af2-9ac3-10292f454441","ios":"levelo://app?vid=368d32c0-fb43-4af2-9ac3-10292f454441"},"vehicle_type_id":"4","last_reported":1744546632,"current_range_meters":18800,"station_id":"ce4bh5p2rcd13ifvqe4g","pricing_plan_id":"cebpf4jnsgd1na2vs0mg"},{"bike_id":"477e0744-58b9-460c-bd36-03bba266142c","system_id":"levelo_inurba_marseille","lat":43.24976,"lon":5.39032,"is_reserved":false,"is_disabled":false,"rental_uris":{"android":"levelo://app?vid=477e0744-58b9-460c-bd36-03bba266142c","ios":"levelo://app?vid=477e0744-58b9-460c-bd36-03bba266142c"},"vehicle_type_id":"4","last_reported":1744546632,"current_range_meters":18800,"station_id":"ce4bhgp2rcd13ifvqfd0","pricing_plan_id":"cebpf4jnsgd1na2vs0mg"},{"bike_id":"20b821f0-8062-4ecc-89ff-84450ceeb6f5","system_id":"levelo_inurba_marseille","lat":43.29512,"lon":5.37511,"is_reserved":false,"is_disabled":false,"rental_uris":{"android":"levelo://app?vid=20b821f0-8062-4ecc-89ff-84450ceeb6f5","ios":"levelo://app?vid=20b821f0-8062-4ecc-89ff-84450ceeb6f5"},"vehicle_type_id":"4","last_reported":1744546632,"current_range_meters":18800,"station_id":"ce4bgkp2rcd13ifvqbmg","pricing_plan_id":"cebpf4jnsgd1na2vs0mg"},{"bike_id":"1485fbd0-3897-4432-aec1-9f10dae262e0","system_id":"levelo_inurba_marseille","lat":43.27053,"lon":5.40262,"is_reserved":false,"is_disabled":false,"rental_uris":{"android":"levelo://app?vid=1485fbd0-3897-4432-aec1-9f10dae262e0","ios":"levelo://app?vid=1485fbd0-3897-4432-aec1-9f10dae262e0"},"vehicle_type_id":"4","last_reported":1744546632,"current_range_meters":18800,"station_id":"ce4bhk92rcd13ifvqgc0","pricing_plan_id":"cebpf4jnsgd1na2vs0mg"},{"bike_id":"d4d8d1fa-95ec-498f-8d30-7de446af285c","system_id":"levelo_inurba_marseille","lat":43.29587,"lon":5.36739,"is_reserved":false,"is_disabled":false,"rental_uris":{"android":"levelo://app?vid=d4d8d1fa-95ec-498f-8d30-7de446af285c","ios":"levelo://app?vid=d4d8d1fa-95ec-498f-8d30-7de446af285c"},"vehicle_type_id":"4","last_reported":1744546632,"current_range_meters":19200,"station_id":"ce4bgph2rcd13ifvqc2g","pricing_plan_id":"cebpf4jnsgd1na2vs0mg"},{"bike_id":"4dc0e66d-410e-4594-8d89-0305546c86a0","system_id":"levelo_inurba_marseille","lat":43.28474,"lon":5.38419,"is_reserved":false,"is_disabled":false,"rental_uris":{"android":"levelo://app?vid=4dc0e66d-410e-4594-8d89-0305546c86a0","ios":"levelo://app?vid=4dc0e66d-410e-4594-8d89-0305546c86a0"},"vehicle_type_id":"4","last_reported":1744546632,"current_range_meters":19200,"station_id":"ce4bh512rcd13ifvqe3g","pricing_plan_id":"cebpf4jnsgd1na2vs0mg"},{"bike_id":"9d1afc4d-dc96-409f-a34b-63d5ba1920cf","system_id":"levelo_inurba_marseille","lat":43.29677,"lon":5.37292,"is_reserved":false,"is_disabled":false,"rental_uris":{"android":"levelo://app?vid=9d1afc4d-dc96-409f-a34b-63d5ba1920cf","ios":"levelo://app?vid=9d1afc4d-dc96-409f-a34b-63d5ba1920cf"},"vehicle_type_id":"4","last_reported":1744546632,"current_range_meters":19200,"station_id":"","pricing_plan_id":"cebpf4jnsgd1na2vs0mg"},{"bike_id":"abc0d96e-f111-4785-b4b0-5e4ce70eff58","system_id":"levelo_inurba_marseille","lat":43.26679,"lon":5.38271,"is_reserved":false,"is_disabled":false,"rental_uris":{"android":"levelo://app?vid=abc0d96e-f111-4785-b4b0-5e4ce70eff58","ios":"levelo://app?vid=abc0d96e-f111-4785-b4b0-5e4ce70eff58"},"vehicle_type_id":"4","last_reported":1744546632,"current_range_meters":18800,"station_id":"ce4bhg92rcd13ifvqf90","pricing_plan_id":"cebpf4jnsgd1na2vs0mg"},{"bike_id":"518e8220-89de-4d51-804e-5c8337c2e983","system_id":"levelo_inurba_marseille","lat":43.25579,"lon":5.38242,"is_reserved":false,"is_disabled":false,"rental_uris":{"android":"levelo://app?vid=518e8220-89de-4d51-804e-5c8337c2e983","ios":"levelo://app?vid=518e8220-89de-4d51-804e-5c8337c2e983"},"vehicle_type_id":"4","last_reported":1744546632,"current_range_meters":19200,"station_id":"ce4bhih2rcd13ifvqfs0","pricing_plan_id":"cebpf4jnsgd1na2vs0mg"},{"bike_id":"e233f350-005e-43d8-a330-8ba95e086aa9","system_id":"levelo_inurba_marseille","lat":43.30535,"lon":5.36726,"is_reserved":false,"is_disabled":false,"rental_uris":{"android":"levelo://app?vid=e233f350-005e-43d8-a330-8ba95e086aa9","ios":"levelo://app?vid=e233f350-005e-43d8-a330-8ba95e086aa9"},"vehicle_type_id":"4","last_reported":1744546632,"current_range_meters":19200,"station_id":"ce4bgrp2rcd13ifvqc9g","pricing_plan_id":"cebpf4jnsgd1na2vs0mg"},{"bike_id":"df49f249-4aa5-4aa6-9193-27ea889ed0d0","system_id":"levelo_inurba_marseille","lat":43.30458,"lon":5.38886,"is_reserved":false,"is_disabled":true,"rental_uris":{"android":"levelo://app?vid=df49f249-4aa5-4aa6-9193-27ea889ed0d0","ios":"levelo://app?vid=df49f249-4aa5-4aa6-9193-27ea889ed0d0"},"vehicle_type_id":"4","last_reported":1744546632,"current_range_meters":19200,"station_id":"ce4bgk12rcd13ifvqbi0","pricing_plan_id":"cebpf4jnsgd1na2vs0mg"},{"bike_id":"e377d557-9287-4e76-a71a-890d4acd309a","system_id":"levelo_inurba_marseille","lat":43.28922,"lon":5.38386,"is_reserved":false,"is_disabled":false,"rental_uris":{"android":"levelo://app?vid=e377d557-9287-4e76-a71a-890d4acd309a","ios":"levelo://app?vid=e377d557-9287-4e76-a71a-890d4acd309a"},"vehicle_type_id":"4","last_reported":1744546632,"current_range_meters":18800,"station_id":"ce4bh612rcd13ifvqe6g","pricing_plan_id":"cebpf4jnsgd1na2vs0mg"},{"bike_id":"8e84781a-82c3-4b14-a541-78f95f1999c0","system_id":"levelo_inurba_marseille","lat":43.27442,"lon":5.39428,"is_reserved":false,"is_disabled":true,"rental_uris":{"android":"levelo://app?vid=8e84781a-82c3-4b14-a541-78f95f1999c0","ios":"levelo://app?vid=8e84781a-82c3-4b14-a541-78f95f1999c0"},"vehicle_type_id":"4","last_reported":1744546632,"current_range_meters":19600,"station_id":"ce4bhdp2rcd13ifvqf20","pricing_plan_id":"cebpf4jnsgd1na2vs0mg"},{"bike_id":"1067e5c0-8fcc-4def-8d46-620eea0d75db","system_id":"levelo_inurba_marseille","lat":43.21746,"lon":5.34603,"is_reserved":false,"is_disabled":false,"rental_uris":{"android":"levelo://app?vid=1067e5c0-8fcc-4def-8d46-620eea0d75db","ios":"levelo://app?vid=1067e5c0-8fcc-4def-8d46-620eea0d75db"},"vehicle_type_id":"4","last_reported":1744546632,"current_range_meters":19600,"station_id":"st_cvj6r9ubvosntc0bgbag","pricing_plan_id":"cebpf4jnsgd1na2vs0mg"},{"bike_id":"59c7d7f9-492d-4240-b3d4-e8d1015f1ebd","system_id":"levelo_inurba_marseille","lat":43.21748,"lon":5.34604,"is_reserved":false,"is_disabled":true,"rental_uris":{"android":"levelo://app?vid=59c7d7f9-492d-4240-b3d4-e8d1015f1ebd","ios":"levelo://app?vid=59c7d7f9-492d-4240-b3d4-e8d1015f1ebd"},"vehicle_type_id":"4","last_reported":1744546632,"current_range_meters":19600,"station_id":"st_cvj6r9ubvosntc0bgbag","pricing_plan_id":"cebpf4jnsgd1na2vs0mg"},{"bike_id":"075dad5b-a019-48f9-8c82-bf4a62b18b37","system_id":"levelo_inurba_marseille","lat":43.28409,"lon":5.37519,"is_reserved":false,"is_disabled":false,"rental_uris":{"android":"levelo://app?vid=075dad5b-a019-48f9-8c82-bf4a62b18b37","ios":"levelo://app?vid=075dad5b-a019-48f9-8c82-bf4a62b18b37"},"vehicle_type_id":"4","last_reported":1744546632,"current_range_meters":19600,"station_id":"ce4bh412rcd13ifvqds0","pricing_plan_id":"cebpf4jnsgd1na2vs0mg"},{"bike_id":"cd22f567-5e71-46e2-832f-7f9ce7e9ebf3","system_id":"levelo_inurba_marseille","lat":43.28415,"lon":5.34986,"is_reserved":false,"is_disabled":false,"rental_uris":{"android":"levelo://app?vid=cd22f567-5e71-46e2-832f-7f9ce7e9ebf3","ios":"levelo://app?vid=cd22f567-5e71-46e2-832f-7f9ce7e9ebf3"},"vehicle_type_id":"4","last_reported":1744546632,"current_range_meters":19600,"station_id":"ce4bhbh2rcd13ifvqepg","pricing_plan_id":"cebpf4jnsgd1na2vs0mg"},{"bike_id":"301b2f1b-69dd-4dee-92a6-1bb189ebfb91","system_id":"levelo_inurba_marseille","lat":43.2868,"lon":5.38674,"is_reserved":false,"is_disabled":false,"rental_uris":{"android":"levelo://app?vid=301b2f1b-69dd-4dee-92a6-1bb189ebfb91","ios":"levelo://app?vid=301b2f1b-69dd-4dee-92a6-1bb189ebfb91"},"vehicle_type_id":"4","last_reported":1744546632,"current_range_meters":19600,"station_id":"ce4bh492rcd13ifvqdug","pricing_plan_id":"cebpf4jnsgd1na2vs0mg"},{"bike_id":"607b9ab3-cb8b-4340-a8ef-422c4dc752bc","system_id":"levelo_inurba_marseille","lat":43.27997,"lon":5.40031,"is_reserved":false,"is_disabled":false,"rental_uris":{"android":"levelo://app?vid=607b9ab3-cb8b-4340-a8ef-422c4dc752bc","ios":"levelo://app?vid=607b9ab3-cb8b-4340-a8ef-422c4dc752bc"},"vehicle_type_id":"4","last_reported":1744546632,"current_range_meters":19600,"station_id":"ce4bho92rcd13ifvqh4g","pricing_plan_id":"cebpf4jnsgd1na2vs0mg"},{"bike_id":"c543e49b-e760-45e8-b76d-d4ff83313211","system_id":"levelo_inurba_marseille","lat":43.30931,"lon":5.40142,"is_reserved":false,"is_disabled":false,"rental_uris":{"android":"levelo://app?vid=c543e49b-e760-45e8-b76d-d4ff83313211","ios":"levelo://app?vid=c543e49b-e760-45e8-b76d-d4ff83313211"},"vehicle_type_id":"4","last_reported":1744546632,"current_range_meters":19200,"station_id":"ce4bgvp2rcd13ifvqct0","pricing_plan_id":"cebpf4jnsgd1na2vs0mg"},{"bike_id":"b8f7eba9-af11-4a32-acfe-4e98451861c3","system_id":"levelo_inurba_marseille","lat":43.27953,"lon":5.41033,"is_reserved":false,"is_disabled":false,"rental_uris":{"android":"levelo://app?vid=b8f7eba9-af11-4a32-acfe-4e98451861c3","ios":"levelo://app?vid=b8f7eba9-af11-4a32-acfe-4e98451861c3"},"vehicle_type_id":"4","last_reported":1744546632,"current_range_meters":19600,"station_id":"ce4bhnp2rcd13ifvqh0g","pricing_plan_id":"cebpf4jnsgd1na2vs0mg"},{"bike_id":"9f6f5929-b0ae-4b91-b768-c97bc217b986","system_id":"levelo_inurba_marseille","lat":43.30479,"lon":5.37902,"is_reserved":false,"is_disabled":false,"rental_uris":{"android":"levelo://app?vid=9f6f5929-b0ae-4b91-b768-c97bc217b986","ios":"levelo://app?vid=9f6f5929-b0ae-4b91-b768-c97bc217b986"},"vehicle_type_id":"4","last_reported":1744546632,"current_range_meters":19600,"station_id":"ce4bgup2rcd13ifvqcn0","pricing_plan_id":"cebpf4jnsgd1na2vs0mg"},