{"last_updated":1729534350,"ttl":60,"version":"2.2","data":{"bikes":[{"bike_id":"36e01f77-28fa-40f7-8f91-f787b8a6b8af","system_id":"levelo_inurba_marseille","lat":43.287959,"lon":5.362823,"is_reserved":false,"is_disabled":false,"rental_uris":{"android":"levelo://app?vid=36e01f77-28fa-40f7-8f91-f787b8a6b8af","ios":"levelo://app?vid=36e01f77-28fa-40f7-8f91-f787b8a6b8af"},"vehicle_type_id":"4","last_reported":1729534350,"current_range_meters":17200,"station_id":"cki0cbj6b192h4jlfktg","pricing_plan_id":"cebpf4jnsgd1na2vs0mg"},{"bike_id":"69eb5774-b094-4a14-9605-2a7c1b9a68ca","system_id":"levelo_inurba_marseille","lat":43.25718,"lon":5.41111,"is_reserved":false,"is_disabled":false,"rental_uris":{"android":"levelo://app?vid=69eb5774-b094-4a14-9605-2a7c1b9a68ca","ios":"levelo://app?vid=69eb5774-b094-4a14-9605-2a7c1b9a68ca"},"vehicle_type_id":"4","last_reported":1729534350,"current_range_meters":16400,"station_id":"ce4bhkp2rcd13ifvqgd0","pricing_plan_id":"cebpf4jnsgd1na2vs0mg"},{"bike_id":"47731c57-a952-4763-a34b-c9b28d0b960b","system_id":"levelo_inurba_marseille","lat":43.31343,"lon":5.37644,"is_reserved":false,"is_disabled":false,"rental_uris":{"android":"levelo://app?vid=47731c57-a952-4763-a34b-c9b28d0b960b","ios":"levelo://app?vid=47731c57-a952-4763-a34b-c9b28d0b960b"},"vehicle_type_id":"4","last_reported":1729534350,"current_range_meters":28800,"station_id":"ce4bgv92rcd13ifvqcq0","pricing_plan_id":"cebpf4jnsgd1na2vs0mg"},{"bike_id":"13b5d4a3-a9cc-4cda-a1cd-149aeb6f924a","system_id":"levelo_inurba_marseille","lat":43.25871,"lon":5.39895,"is_reserved":false,"is_disabled":false,"rental_uris":{"android":"levelo://app?vid=13b5d4a3-a9cc-4cda-a1cd-149aeb6f924a","ios":"levelo://app?vid=13b5d4a3-a9cc-4cda-a1cd-149aeb6f924a"},"vehicle_type_id":"4","last_reported":1729534350,"current_range_meters":11200,"station_id":"ce4bhl92rcd13ifvqghg","pricing_plan_id":"cebpf4jnsgd1na2vs0mg"},{"bike_id":"841354b5-9b7c-41a5-9164-2dbe0d65ae96","system_id":"levelo_inurba_marseille","lat":43.28418,"lon":5.37518,"is_reserved":false,"is_disabled":false,"rental_uris":{"android":"levelo://app?vid=841354b5-9b7c-41a5-9164-2dbe0d65ae96","ios":"levelo://app?vid=841354b5-9b7c-41a5-9164-2dbe0d65ae96"},"vehicle_type_id":"4","last_reported":1729534350,"current_range_meters":38800,"station_id":"ce4bh412rcd13ifvqds0","pricing_plan_id":"cebpf4jnsgd1na2vs0mg"},{"bike_id":"dda2d351-1eab-421c-b87f-4111e4062a04","system_id":"levelo_inurba_marseille","lat":43.32289,"lon":5.38264,"is_reserved":false,"is_disabled":false,"rental_uris":{"android":"levelo://app?vid=dda2d351-1eab-421c-b87f-4111e4062a04","ios":"levelo://app?vid=dda2d351-1eab-421c-b87f-4111e4062a04"},"vehicle_type_id":"4","last_reported":1729534350,"current_range_meters":16400,"station_id":"ce4bhr12rcd13ifvqhqg","pricing_plan_id":"cebpf4jnsgd1na2vs0mg"},{"bike_id":"b144b6c5-d61c-4184-a8df-bd1bc4538cf6","system_id":"levelo_inurba_marseille","lat":43.30215,"lon":5.39473,"is_reserved":false,"is_disabled":false,"rental_uris":{"android":"levelo://app?vid=b144b6c5-d61c-4184-a8df-bd1bc4538cf6","ios":"levelo://app?vid=b144b6c5-d61c-4184-a8df-bd1bc4538cf6"},"vehicle_type_id":"4","last_reported":1729534350,"current_range_meters":10800,"station_id":"ce4bh0p2rcd13ifvqd70","pricing_plan_id":"cebpf4jnsgd1na2vs0mg"},{"bike_id":"40b3464a-d11a-4f25-b45d-1f9b36e55607","system_id":"levelo_inurba_marseille","lat":43.31488,"lon":5.37311,"is_reserved":false,"is_disabled":false,"rental_uris":{"android":"levelo://app?vid=40b3464a-d11a-4f25-b45d-1f9b36e55607","ios":"levelo://app?vid=40b3464a-d11a-4f25-b45d-1f9b36e55607"},"vehicle_type_id":"4","last_reported":1729534350,"current_range_meters":39200,"station_id":"ce4bgt12rcd13ifvqcd0","pricing_plan_id":"cebpf4jnsgd1na2vs0mg"},{"bike_id":"eb69d266-7f9f-4bad-bf4b-cb0a701a9511","system_id":"levelo_inurba_marseille","lat":43.27939,"lon":5.41773,"is_reserved":false,"is_disabled":false,"rental_uris":{"android":"levelo://app?vid=eb69d266-7f9f-4bad-bf4b-cb0a701a9511","ios":"levelo://app?vid=eb69d266-7f9f-4bad-bf4b-cb0a701a9511"},"vehicle_type_id":"4","last_reported":1729534350,"current_range_meters":8400,"station_id":"","pricing_plan_id":"cebpf4jnsgd1na2vs0mg"},{"bike_id":"e410b3ea-1990-49e5-93ea-764219f10048","system_id":"levelo_inurba_marseille","lat":43.22931,"lon":5.3538,"is_reserved":false,"is_disabled":false,"rental_uris":{"android":"levelo://app?vid=e410b3ea-1990-49e5-93ea-764219f10048","ios":"levelo://app?vid=e410b3ea-1990-49e5-93ea-764219f10048"},"vehicle_type_id":"4","last_reported":1729534350,"current_range_meters":36800,"station_id":"cpo3532slgdg3j2ikp40","pricing_plan_id":"cebpf4jnsgd1na2vs0mg"},{"bike_id":"bd7f0beb-3e7b-4cdc-af3f-f8a437486597","system_id":"levelo_inurba_marseille","lat":43.26502,"lon":5.39547,"is_reserved":false,"is_disabled":false,"rental_uris":{"android":"levelo://app?vid=bd7f0beb-3e7b-4cdc-af3f-f8a437486597","ios":"levelo://app?vid=bd7f0beb-3e7b-4cdc-af3f-f8a437486597"},"vehicle_type_id":"4","last_reported":1729534350,"current_range_meters":12400,"station_id":"ce4bhi12rcd13ifvqfq0","pricing_plan_id":"cebpf4jnsgd1na2vs0mg"},{"bike_id":"ac30916e-52e4-4a71-b97c-cf8bdf302da2","system_id":"levelo_inurba_marseille","lat":43.27919,"lon":5.39584,"is_reserved":false,"is_disabled":false,"rental_uris":{"android":"levelo://app?vid=ac30916e-52e4-4a71-b97c-cf8bdf302da2","ios":"levelo://app?vid=ac30916e-52e4-4a71-b97c-cf8bdf302da2"},"vehicle_type_id":"4","last_reported":1729534350,"current_range_meters":19600,"station_id":"ce4bhf92rcd13ifvqf40","pricing_plan_id":"cebpf4jnsgd1na2vs0mg"},{"bike_id":"e2c56306-8e58-4532-ab61-31697ebccfc7","system_id":"levelo_inurba_marseille","lat":43.2694,"lon":5.4026,"is_reserved":false,"is_disabled":false,"rental_uris":{"android":"levelo://app?vid=e2c56306-8e58-4532-ab61-31697ebccfc7","ios":"levelo://app?vid=e2c56306-8e58-4532-ab61-31697ebccfc7"},"vehicle_type_id":"4","last_reported":1729534350,"current_range_meters":6000,"station_id":"cjm6bp8fraef2m0cb0m0","pricing_plan_id":"cebpf4jnsgd1na2vs0mg"},{"bike_id":"423f07ae-d4e3-42fb-9221-fa8a71de671e","system_id":"levelo_inurba_marseille","lat":43.32365,"lon":5.38878,"is_reserved":false,"is_disabled":false,"rental_uris":{"android":"levelo://app?vid=423f07ae-d4e3-42fb-9221-fa8a71de671e","ios":"levelo://app?vid=423f07ae-d4e3-42fb-9221-fa8a71de671e"},"vehicle_type_id":"4","last_reported":1729534350,"current_range_meters":4800,"station_id":"ce4bhqp2rcd13ifvqhog","pricing_plan_id":"cebpf4jnsgd1na2vs0mg"},{"bike_id":"8ab80cfa-ddda-4d4c-b0a8-8a79a0b81ac2","system_id":"levelo_inurba_marseille","lat":43.30214,"lon":5.39469,"is_reserved":false,"is_disabled":false,"rental_uris":{"android":"levelo://app?vid=8ab80cfa-ddda-4d4c-b0a8-8a79a0b81ac2","ios":"levelo://app?vid=8ab80cfa-ddda-4d4c-b0a8-8a79a0b81ac2"},"vehicle_type_id":"4","last_reported":1729534350,"current_range_meters":39200,"station_id":"ce4bh0p2rcd13ifvqd70","pricing_plan_id":"cebpf4jnsgd1na2vs0mg"},{"bike_id":"de1c354c-a70d-4b83-8450-9879f37a46ad","system_id":"levelo_inurba_marseille","lat":43.2465,"lon":5.38896,"is_reserved":false,"is_disabled":false,"rental_uris":{"android":"levelo://app?vid=de1c354c-a70d-4b83-8450-9879f37a46ad","ios":"levelo://app?vid=de1c354c-a70d-4b83-8450-9879f37a46ad"},"vehicle_type_id":"4","last_reported":1729534350,"current_range_meters":33600,"station_id":"ce4bhg12rcd13ifvqf60","pricing_plan_id":"cebpf4jnsgd1na2vs0mg"},{"bike_id":"de006a2a-c56d-4dc2-a6cf-81c682953ee7","system_id":"levelo_inurba_marseille","lat":43.295563,"lon":5.422876,"is_reserved":false,"is_disabled":false,"rental_uris":{"android":"levelo://app?vid=de006a2a-c56d-4dc2-a6cf-81c682953ee7","ios":"levelo://app?vid=de006a2a-c56d-4dc2-a6cf-81c682953ee7"},"vehicle_type_id":"4","last_reported":1729534350,"current_range_meters":8000,"station_id":"ce4bhph2rcd13ifvqhdg","pricing_plan_id":"cebpf4jnsgd1na2vs0mg"},{"bike_id":"a506f46d-0b8d-49e4-ab1b-090c334994cc","system_id":"levelo_inurba_marseille","lat":43.33024,"lon":5.39044,"is_reserved":false,"is_disabled":false,"rental_uris":{"android":"levelo://app?vid=a506f46d-0b8d-49e4-ab1b-090c334994cc","ios":"levelo://app?vid=a506f46d-0b8d-49e4-ab1b-090c334994cc"},"vehicle_type_id":"4","last_reported":1729534350,"current_range_meters":6000,"station_id":"ce4bhr92rcd13ifvqhrg","pricing_plan_id":"cebpf4jnsgd1na2vs0mg"},{"bike_id":"220395bb-4437-4eb5-8627-d4c7c3e80b37","system_id":"levelo_inurba_marseille","lat":43.28481,"lon":5.384193,"is_reserved":false,"is_disabled":false,"rental_uris":{"android":"levelo://app?vid=220395bb-4437-4eb5-8627-d4c7c3e80b37","ios":"levelo://app?vid=220395bb-4437-4eb5-8627-d4c7c3e80b37"},"vehicle_type_id":"4","last_reported":1729534350,"current_range_meters":33600,"station_id":"ce4bgrh2rcd13ifvqc8g","pricing_plan_id":"cebpf4jnsgd1na2vs0mg"},{"bike_id":"ef301f43-3763-4346-9b17-d331460d0773","system_id":"levelo_inurba_marseille","lat":43.255773,"lon":5.382262,"is_reserved":false,"is_disabled":false,"rental_uris":{"android":"levelo://app?vid=ef301f43-3763-4346-9b17-d331460d0773","ios":"levelo://app?vid=ef301f43-3763-4346-9b17-d331460d0773"},"vehicle_type_id":"4","last_reported":1729534350,"current_range_meters":4000,"station_id":"ce4bhih2rcd13ifvqfs0","pricing_plan_id":"cebpf4jnsgd1na2vs0mg"},{"bike_id":"38c4075b-4208-4afa-9edd-867f39403c57","system_id":"levelo_inurba_marseille","lat":43.27992,"lon":5.40006,"is_reserved":false,"is_disabled":false,"rental_uris":{"android":"levelo://app?vid=38c4075b-4208-4afa-9edd-867f39403c57","ios":"levelo://app?vid=38c4075b-4208-4afa-9edd-867f39403c57"},"vehicle_type_id":"4","last_reported":1729534350,"current_range_meters":27200,"station_id":"ce4bho92rcd13ifvqh4g","pricing_plan_id":"cebpf4jnsgd1na2vs0mg"},{"bike_id":"583f7146-4d0c-474b-abcb-843001f0bb42","system_id":"levelo_inurba_marseille","lat":43.30211,"lon":5.39477,"is_reserved":false,"is_disabled":false,"rental_uris":{"android":"levelo://app?vid=583f7146-4d0c-474b-abcb-843001f0bb42","ios":"levelo://app?vid=583f7146-4d0c-474b-abcb-843001f0bb42"},"vehicle_type_id":"4","last_reported":1729534350,"current_range_meters":38800,"station_id":"ce4bh0p2rcd13ifvqd70","pricing_plan_id":"cebpf4jnsgd1na2vs0mg"},{"bike_id":"fadc1e21-426b-4cc7-bb10-c492620dd599","system_id":"levelo_inurba_marseille","lat":43.30136,"lon":5.38781,"is_reserved":false,"is_disabled":false,"rental_uris":{"android":"levelo://app?vid=fadc1e21-426b-4cc7-bb10-c492620dd599","ios":"levelo://app?vid=fadc1e21-426b-4cc7-bb10-c492620dd599"},"vehicle_type_id":"4","last_reported":1729534350,"current_range_meters":38800,"station_id":"ce4bghh2rcd13ifvqb60","pricing_plan_id":"cebpf4jnsgd1na2vs0mg"},{"bike_id":"ab6d924a-27d4-4a50-8aae-9046e6bbfb09","system_id":"levelo_inurba_marseille","lat":43.28426,"lon":5.34995,"is_reserved":false,"is_disabled":false,"rental_uris":{"android":"levelo://app?vid=ab6d924a-27d4-4a50-8aae-9046e6bbfb09","ios":"levelo://app?vid=ab6d924a-27d4-4a50-8aae-9046e6bbfb09"},"vehicle_type_id":"4","last_reported":1729534350,"current_range_meters":38800,"station_id":"ce4bhbh2rcd13ifvqepg","pricing_plan_id":"cebpf4jnsgd1na2vs0mg"},{"bike_id":"f8d4fc2f-6c65-4577-a483-2bded2a41922","system_id":"levelo_inurba_marseille","lat":43.30588,"lon":5.39358,"is_reserved":false,"is_disabled":false,"rental_uris":{"android":"levelo://app?vid=f8d4fc2f-6c65-4577-a483-2bded2a41922","ios":"levelo://app?vid=f8d4fc2f-6c65-4577-a483-2bded2a41922"},"vehicle_type_id":"4","last_reported":1729534350,"current_range_meters":38800,"station_id":"ce4bh0p2rcd13ifvqd80","pricing_plan_id":"cebpf4jnsgd1na2vs0mg"},{"bike_id":"6c54915a-4e78-44b2-94eb-52ce13471e17","system_id":"levelo_inurba_marseille","lat":43.29974,"lon":5.38504,"is_reserved":false,"is_disabled":false,"rental_uris":{"android":"levelo://app?vid=6c54915a-4e78-44b2-94eb-52ce13471e17","ios":"levelo://app?vid=6c54915a-4e78-44b2-94eb-52ce13471e17"},"vehicle_type_id":"4","last_reported":1729534350,"current_range_meters":22400,"station_id":"ce4bgj92rcd13ifvqbd0","pricing_plan_id":"cebpf4jnsgd1na2vs0mg"},{"bike_id":"0d9fea0d-5188-4ebc-a956-c466b2766e8c","system_id":"levelo_inurba_marseille","lat":43.27491,"lon":5.42461,"is_reserved":false,"is_disabled":false,"rental_uris":{"android":"levelo://app?vid=0d9fea0d-5188-4ebc-a956-c466b2766e8c","ios":"levelo://app?vid=0d9fea0d-5188-4ebc-a956-c466b2766e8c"},"vehicle_type_id":"4","last_reported":1729534350,"current_range_meters":8400,"station_id":"ce4bhn92rcd13ifvqgrg","pricing_plan_id":"cebpf4jnsgd1na2vs0mg"},{"bike_id":"3c2e9290-6792-4e2d-b00d-712b965be0bd","system_id":"levelo_inurba_marseille","lat":43.26415,"lon":5.3868,"is_reserved":false,"is_disabled":false,"rental_uris":{"android":"levelo://app?vid=3c2e9290-6792-4e2d-b00d-712b965be0bd","ios":"levelo://app?vid=3c2e9290-6792-4e2d-b00d-712b965be0bd"},"vehicle_type_id":"4","last_reported":1729534350,"current_range_meters":12000,"station_id":"","pricing_plan_id":"cebpf4jnsgd1na2vs0mg"},{"bike_id":"b7242e21-c0ef-4f78-9ecd-4304e5d11510","system_id":"levelo_inurba_marseille","lat":43.28983,"lon":5.37845,"is_reserved":false,"is_disabled":false,"rental_uris":{"android":"levelo://app?vid=b7242e21-c0ef-4f78-9ecd-4304e5d11510","ios":"levelo://app?vid=b7242e21-c0ef-4f78-9ecd-4304e5d11510"},"vehicle_type_id":"4","last_reported":1729534350,"current_range_meters":38000,"station_id":"ce4bh9p2rcd13ifvqed0","pricing_plan_id":"cebpf4jnsgd1na2vs0mg"},{"bike_id":"27685428-2c57-4186-b9d0-2a7d0583632e","system_id":"levelo_inurba_marseille","lat":43.28158,"lon":5.42645,"is_reserved":false,"is_disabled":false,"rental_uris":{"android":"levelo://app?vid=27685428-2c57-4186-b9d0-2a7d0583632e","ios":"levelo://app?vid=27685428-2c57-4186-b9d0-2a7d0583632e"},"vehicle_type_id":"4","last_reported":1729534350,"current_range_meters":29600,"station_id":"ce4bhnh2rcd13ifvqgug","pricing_plan_id":"cebpf4jnsgd1na2vs0mg"},{"bike_id":"69ad3671-3a9e-4c8e-8993-532e38e3af09","system_id":"levelo_inurba_marseille","lat":43.28563,"lon":5.39507,"is_reserved":false,"is_disabled":false,"rental_uris":{"android":"levelo://app?vid=69ad3671-3a9e-4c8e-8993-532e38e3af09","ios":"levelo://app?vid=69ad3671-3a9e-4c8e-8993-532e38e3af09"},"vehicle_type_id":"4","last_reported":1729534350,"current_range_meters":10000,"station_id":"ce4bh292rcd13ifvqdg0","pricing_plan_id":"cebpf4jnsgd1na2vs0mg"},{"bike_id":"f599edff-f15b-4adb-9d11-cecf32fbbb50","system_id":"levelo_inurba_marseille","lat":43.2898,"lon":5.37842,"is_reserved":false,"is_disabled":false,"rental_uris":{"android":"levelo://app?vid=f599edff-f15b-4adb-9d11-cecf32fbbb50","ios":"levelo://app?vid=f599edff-f15b-4adb-9d11-cecf32fbbb50"},"vehicle_type_id":"4","last_reported":1729534350,"current_range_meters":6400,"station_id":"ce4bh9p2rcd13ifvqed0","pricing_plan_id":"cebpf4jnsgd1na2vs0mg"},{"bike_id":"6d94fa9b-a79d-4b17-b382-aa66f2c0d627","system_id":"levelo_inurba_marseille","lat":43.29425,"lon":5.38621,"is_reserved":false,"is_disabled":false,"rental_uris":{"android":"levelo://app?vid=6d94fa9b-a79d-4b17-b382-aa66f2c0d627","ios":"levelo://app?vid=6d94fa9b-a79d-4b17-b382-aa66f2c0d627"},"vehicle_type_id":"4","last_reported":1729534350,"current_range_meters":2000,"station_id":"ce4bh2h2rcd13ifvqdh0","pricing_plan_id":"cebpf4jnsgd1na2vs0mg"},{"bike_id":"279b0d58-f951-48d8-9f4c-dbcc3bd7086b","system_id":"levelo_inurba_marseille","lat":43.25585,"lon":5.38238,"is_reserved":false,"is_disabled":false,"rental_uris":{"android":"levelo://app?vid=279b0d58-f951-48d8-9f4c-dbcc3bd7086b","ios":"levelo://app?vid=279b0d58-f951-48d8-9f4c-dbcc3bd7086b"},"vehicle_type_id":"4","last_reported":1729534350,"current_range_meters":12400,"station_id":"ce4bhih2rcd13ifvqfs0","pricing_plan_id":"cebpf4jnsgd1na2vs0mg"},{"bike_id":"bd412037-428d-4822-9379-9e469e5c5273","system_id":"levelo_inurba_marseille","lat":43.23962,"lon":5.36628,"is_reserved":false,"is_disabled":false,"rental_uris":{"android":"levelo://app?vid=bd412037-428d-4822-9379-9e469e5c5273","ios":"levelo://app?vid=bd412037-428d-4822-9379-9e469e5c5273"},"vehicle_type_id":"4","last_reported":1729534350,"current_range_meters":20400,"station_id":"ce4bhi12rcd13ifvqfp0","pricing_plan_id":"cebpf4jnsgd1na2vs0mg"},{"bike_id":"eb7626cf-b500-467d-a09f-af3cd5baa432","system_id":"levelo_inurba_marseille","lat":43.29541,"lon":5.39397,"is_reserved":false,"is_disabled":false,"rental_uris":{"android":"levelo://app?vid=eb7626cf-b500-467d-a09f-af3cd5baa432","ios":"levelo://app?vid=eb7626cf-b500-467d-a09f-af3cd5baa432"},"vehicle_type_id":"4","last_reported":1729534350,"current_range_meters":18800,"station_id":"ce4bh292rcd13ifvqdf0","pricing_plan_id":"cebpf4jnsgd1na2vs0mg"},{"bike_id":"d587daae-0a71-435c-957b-ace6ff74f13a","system_id":"levelo_inurba_marseille","lat":43.23963,"lon":5.36633,"is_reserved":false,"is_disabled":false,"rental_uris":{"android":"levelo://app?vid=d587daae-0a71-435c-957b-ace6ff74f13a","ios":"levelo://app?vid=d587daae-0a71-435c-957b-ace6ff74f13a"},"vehicle_type_id":"4","last_reported":1729534350,"current_range_meters":11200,"station_id":"ce4bhi12rcd13ifvqfp0","pricing_plan_id":"cebpf4jnsgd1na2vs0mg"},{"bike_id":"bd104a1e-9a4c-4e52-b699-d7fdd166e023","system_id":"levelo_inurba_marseille","lat":43.26062,"lon":5.39402,"is_reserved":false,"is_disabled":false,"rental_uris":{"android":"levelo://app?vid=bd104a1e-9a4c-4e52-b699-d7fdd166e023","ios":"levelo://app?vid=bd104a1e-9a4c-4e52-b699-d7fdd166e023"},"vehicle_type_id":"4","last_reported":1729534350,"current_range_meters":8800,"station_id":"ce4bhh92rcd13ifvqfj0","pricing_plan_id":"cebpf4jnsgd1na2vs0mg"},{"bike_id":"3cd18f20-efdc-4fe8-9d5f-13ce35907fb7","system_id":"levelo_inurba_marseille","lat":43.29967,"lon":5.38491,"is_reserved":false,"is_disabled":false,"rental_uris":{"android":"levelo://app?vid=3cd18f20-efdc-4fe8-9d5f-13ce35907fb7","ios":"levelo://app?vid=3cd18f20-efdc-4fe8-9d5f-13ce35907fb7"},"vehicle_type_id":"4","last_reported":1729534350,"current_range_meters":40000,"station_id":"ce4bgj92rcd13ifvqbd0","pricing_plan_id":"cebpf4jnsgd1na2vs0mg"},{"bike_id":"c37f7b49-8c87-4a1a-9296-36ba8ad10d6a","system_id":"levelo_inurba_marseille","lat":43.25769,"lon":5.38722,"is_reserved":false,"is_disabled":false,"rental_uris":{"android":"levelo://app?vid=c37f7b49-8c87-4a1a-9296-36ba8ad10d6a","ios":"levelo://app?vid=c37f7b49-8c87-4a1a-9296-36ba8ad10d6a"},"vehicle_type_id":"4","last_reported":1729534350,"current_range_meters":15200,"station_id":"","pricing_plan_id":"cebpf4jnsgd1na2vs0mg"},{"bike_id":"2e0f997d-13bc-4289-a289-5c20f2820574","system_id":"levelo_inurba_marseille","lat":43.29792,"lon":5.40402,"is_reserved":false,"is_disabled":false,"rental_uris":{"android":"levelo://app?vid=2e0f997d-13bc-4289-a289-5c20f2820574","ios":"levelo://app?vid=2e0f997d-13bc-4289-a289-5c20f2820574"},"vehicle_type_id":"4","last_reported":1729534350,"current_range_meters":37600,"station_id":"ce4bh112rcd13ifvqd90","pricing_plan_id":"cebpf4jnsgd1na2vs0mg"},{"bike_id":"1194106d-ccac-48ba-8025-f7fe634e6a8c","system_id":"levelo_inurba_marseille","lat":43.30801,"lon":5.38165,"is_reserved":false,"is_disabled":false,"rental_uris":{"android":"levelo://app?vid=1194106d-ccac-48ba-8025-f7fe634e6a8c","ios":"levelo://app?vid=1194106d-ccac-48ba-8025-f7fe634e6a8c"},"vehicle_type_id":"4","last_reported":1729534350,"current_range_meters":10800,"station_id":"ce4bgt12rcd13ifvqce0","pricing_plan_id":"cebpf4jnsgd1na2vs0mg"},{"bike_id":"39ee9764-c305-469f-9d9c-27c097ea855c","system_id":"levelo_inurba_marseille","lat":43.23965,"lon":5.36641,"is_reserved":false,"is_disabled":false,"rental_uris":{"android":"levelo://app?vid=39ee9764-c305-469f-9d9c-27c097ea855c","ios":"levelo://app?vid=39ee9764-c305-469f-9d9c-27c097ea855c"},"vehicle_type_id":"4","last_reported":1729534350,"current_range_meters":3600,"station_id":"ce4bhi12rcd13ifvqfp0","pricing_plan_id":"cebpf4jnsgd1na2vs0mg"},{"bike_id":"3fd2eda8-d13c-42ca-9ccf-95848d1146b5","system_id":"levelo_inurba_marseille","lat":43.26944,"lon":5.38626,"is_reserved":false,"is_disabled":false,"rental_uris":{"android":"levelo://app?vid=3fd2eda8-d13c-42ca-9ccf-95848d1146b5","ios":"levelo://app?vid=3fd2eda8-d13c-42ca-9ccf-95848d1146b5"},"vehicle_type_id":"4","last_reported":1729534350,"current_range_meters":24000,"station_id":"ce4bhh92rcd13ifvqfh0","pricing_plan_id":"cebpf4jnsgd1na2vs0mg"},{"bike_id":"3d26826a-a2d9-4827-b23f-b1d430e985cb","system_id":"levelo_inurba_marseille","lat":43.2919,"lon":5.35807,"is_reserved":false,"is_disabled":false,"rental_uris":{"android":"levelo://app?vid=3d26826a-a2d9-4827-b23f-b1d430e985cb","ios":"levelo://app?vid=3d26826a-a2d9-4827-b23f-b1d430e985cb"},"vehicle_type_id":"4","last_reported":1729534350,"current_range_meters":17600,"station_id":"ce4bhb12rcd13ifvqel0","pricing_plan_id":"cebpf4jnsgd1na2vs0mg"},{"bike_id":"7f2028cd-ed8c-4486-9d34-919ad2d5f81f","system_id":"levelo_inurba_marseille","lat":43.29278,"lon":5.36837,"is_reserved":false,"is_disabled":false,"rental_uris":{"android":"levelo://app?vid=7f2028cd-ed8c-4486-9d34-919ad2d5f81f","ios":"levelo://app?vid=7f2028cd-ed8c-4486-9d34-919ad2d5f81f"},"vehicle_type_id":"4","last_reported":1729534350,"current_range_meters":27200,"station_id":"ce4bgj92rcd13ifvqbd0","pricing_plan_id":"cebpf4jnsgd1na2vs0mg"},{"bike_id":"3e37455b-4f55-40c2-9318-47349f179143","system_id":"levelo_inurba_marseille","lat":43.29972,"lon":5.38499,"is_reserved":false,"is_disabled":false,"rental_uris":{"android":"levelo://app?vid=3e37455b-4f55-40c2-9318-47349f179143","ios":"levelo://app?vid=3e37455b-4f55-40c2-9318-47349f179143"},"vehicle_type_id":"4","last_reported":1729534350,"current_range_meters":40000,"station_id":"ce4bgj92rcd13ifvqbd0","pricing_plan_id":"cebpf4jnsgd1na2vs0mg"},{"bike_id":"f0c59f6d-8ffa-4163-8b1e-5001ed51e22e","system_id":"levelo_inurba_marseille","lat":43.29967,"lon":5.38499,"is_reserved":false,"is_disabled":false,"rental_uris":{"android":"levelo://app?vid=f0c59f6d-8ffa-4163-8b1e-5001ed51e22e","ios":"levelo://app?vid=f0c59f6d-8ffa-4163-8b1e-5001ed51e22e"},"vehicle_type_id":"4","last_reported":1729534350,"current_range_meters":29600,"station_id":"ce4bgj92rcd13ifvqbd0","pricing_plan_id":"cebpf4jnsgd1na2vs0mg"},{"bike_id":"22f0e9f1-4795-468e-91c9-9da47019dc8a","system_id":"levelo_inurba_marseille","lat":43.25083,"lon":5.39515,"is_reserved":false,"is_disabled":false,"rental_uris":{"android":"levelo://app?vid=22f0e9f1-4795-468e-91c9-9da47019dc8a","ios":"levelo://app?vid=22f0e9f1-4795-468e-91c9-9da47019dc8a"},"vehicle_type_id":"4","last_reported":1729534350,"current_range_meters":18000,"station_id":"ce4bhm12rcd13ifvqgkg","pricing_plan_id":"cebpf4jnsgd1na2vs0mg"},{"bike_id":"62ecdd5c-a70c-44cd-81d5-17720cb1d595","system_id":"levelo_inurba_marseille","lat":43.29895,"lon":5.43673,"is_reserved":false,"is_disabled":false,"rental_uris":{"android":"levelo://app?vid=62ecdd5c-a70c-44cd-81d5-17720cb1d595","ios":"levelo://app?vid=62ecdd5c-a70c-44cd-81d5-17720cb1d595"},"vehicle_type_id":"4","last_reported":1729534350,"current_range_meters":29600,"station_id":"ce4bhpp2rcd13ifvqhfg","pricing_plan_id":"cebpf4jnsgd1na2vs0mg"},{"bike_id":"8b3d307a-83b6-4ef8-9420-7a8fec91500e","system_id":"levelo_inurba_marseille","lat":43.284824,"lon":5.359388,"is_reserved":false,"is_disabled":false,"rental_uris":{"android":"levelo://app?vid=8b3d307a-83b6-4ef8-9420-7a8fec91500e","ios":"levelo://app?vid=8b3d307a-83b6-4ef8-9420-7a8fec91500e"},"vehicle_type_id":"4","last_reported":1729534350,"current_range_meters":20400,"station_id":"ce4bh692rcd13ifvqe90","pricing_plan_id":"cebpf4jnsgd1na2vs0mg"},{"bike_id":"97c28e2b-6ee0-496d-9e63-0abf6253c025","system_id":"levelo_inurba_marseille","lat":43.297838,"lon":5.381302,"is_reserved":false,"is_disabled":false,"rental_uris":{"android":"levelo://app?vid=97c28e2b-6ee0-496d-9e63-0abf6253c025","ios":"levelo://app?vid=97c28e2b-6ee0-496d-9e63-0abf6253c025"},"vehicle_type_id":"4","last_reported":1729534350,"current_range_meters":8000,"station_id":"ce4bgip2rcd13ifvqbb0","pricing_plan_id":"cebpf4jnsgd1na2vs0mg"},{"bike_id":"864575c1-85b8-4008-92ba-391073d4ed51","system_id":"levelo_inurba_marseille","lat":43.23203,"lon":5.35555,"is_reserved":false,"is_disabled":false,"rental_uris":{"android":"levelo://app?vid=864575c1-85b8-4008-92ba-391073d4ed51","ios":"levelo://app?vid=864575c1-85b8-4008-92ba-391073d4ed51"},"vehicle_type_id":"4","last_reported":1729534350,"current_range_meters":28400,"station_id":"ce4bhu92rcd13ifvqi70","pricing_plan_id":"cebpf4jnsgd1na2vs0mg"},{"bike_id":"bd948954-2d03-459f-b471-93cc99a2220a","system_id":"levelo_inurba_marseille","lat":43.29504,"lon":5.39407,"is_reserved":false,"is_disabled":false,"rental_uris":{"android":"levelo://app?vid=bd948954-2d03-459f-b471-93cc99a2220a","ios":"levelo://app?vid=bd948954-2d03-459f-b471-93cc99a2220a"},"vehicle_type_id":"4","last_reported":1729534350,"current_range_meters":17600,"station_id":"ce4bh292rcd13ifvqdf0","pricing_plan_id":"cebpf4jnsgd1na2vs0mg"},{"bike_id":"8e6ce140-227c-4687-a90b-2c8f9be7cb32","system_id":"levelo_inurba_marseille","lat":43.31074,"lon":5.38356,"is_reserved":false,"is_disabled":false,"rental_uris":{"android":"levelo://app?vid=8e6ce140-227c-4687-a90b-2c8f9be7cb32","ios":"levelo://app?vid=8e6ce140-227c-4687-a90b-2c8f9be7cb32"},"vehicle_type_id":"4","last_reported":1729534350,"current_range_meters":4800,"station_id":"ce4bgv92rcd13ifvqcr0","pricing_plan_id":"cebpf4jnsgd1na2vs0mg"},{"bike_id":"e6c03e7e-c894-41e0-8eed-4d016929f84d","system_id":"levelo_inurba_marseille","lat":43.24998,"lon":5.38932,"is_reserved":false,"is_disabled":false,"rental_uris":{"android":"levelo://app?vid=e6c03e7e-c894-41e0-8eed-4d016929f84d","ios":"levelo://app?vid=e6c03e7e-c894-41e0-8eed-4d016929f84d"},"vehicle_type_id":"4","last_reported":1729534350,"current_range_meters":39200,"station_id":"ce4bhgp2rcd13ifvqfd0","pricing_plan_id":"cebpf4jnsgd1na2vs0mg"},{"bike_id":"ba4dcaca-eff8-4087-a505-d8dce0f8fb6a","system_id":"levelo_inurba_marseille","lat":43.29793,"lon":5.3811,"is_reserved":false,"is_disabled":false,"rental_uris":{"android":"levelo://app?vid=ba4dcaca-eff8-4087-a505-d8dce0f8fb6a","ios":"levelo://app?vid=ba4dcaca-eff8-4087-a505-d8dce0f8fb6a"},"vehicle_type_id":"4","last_reported":1729534350,"current_range_meters":28000,"station_id":"ce4bgip2rcd13ifvqbb0","pricing_plan_id":"cebpf4jnsgd1na2vs0mg"},{"bike_id":"5e9bb06a-3674-4770-9b8d-b0e36738697f","system_id":"levelo_inurba_marseille","lat":43.24678,"lon":5.38163,"is_reserved":false,"is_disabled":false,"rental_uris":{"android":"levelo://app?vid=5e9bb06a-3674-4770-9b8d-b0e36738697f","ios":"levelo://app?vid=5e9bb06a-3674-4770-9b8d-b0e36738697f"},"vehicle_type_id":"4","last_reported":1729534350,"current_range_meters":14400,"station_id":"ce4bhih2rcd13ifvqfr0","pricing_plan_id":"cebpf4jnsgd1na2vs0mg"},{"bike_id":"0728974d-1ad5-4181-91f2-6035aab7157d","system_id":"levelo_inurba_marseille","lat":43.23189,"lon":5.3555,"is_reserved":false,"is_disabled":false,"rental_uris":{"android":"levelo://app?vid=0728974d-1ad5-4181-91f2-6035aab7157d","ios":"levelo://app?vid=0728974d-1ad5-4181-91f2-6035aab7157d"},"vehicle_type_id":"4","last_reported":1729534350,"current_range_meters":40000,"station_id":"ce4bhu92rcd13ifvqi70","pricing_plan_id":"cebpf4jnsgd1na2vs0mg"},{"bike_id":"40789e63-bb12-414a-9e11-b14620ea6085","system_id":"levelo_inurba_marseille","lat":43.3171,"lon":5.37745,"is_reserved":false,"is_disabled":false,"rental_uris":{"android":"levelo://app?vid=40789e63-bb12-414a-9e11-b14620ea6085","ios":"levelo://app?vid=40789e63-bb12-414a-9e11-b14620ea6085"},"vehicle_type_id":"4","last_reported":1729534350,"current_range_meters":18000,"station_id":"ce4bgth2rcd13ifvqch0","pricing_plan_id":"cebpf4jnsgd1na2vs0mg"},{"bike_id":"eab68bc7-974c-42e3-bb0f-0ace6a0a5225","system_id":"levelo_inurba_marseille","lat":43.31706,"lon":5.37737,"is_reserved":false,"is_disabled":false,"rental_uris":{"android":"levelo://app?vid=eab68bc7-974c-42e3-bb0f-0ace6a0a5225","ios":"levelo://app?vid=eab68bc7-974c-42e3-bb0f-0ace6a0a5225"},"vehicle_type_id":"4","last_reported":1729534350,"current_range_meters":16400,"station_id":"ce4bgth2rcd13ifvqch0","pricing_plan_id":"cebpf4jnsgd1na2vs0mg"},{"bike_id":"73925e83-b724-490d-a631-ab7105cbd17f","system_id":"levelo_inurba_marseille","lat":43.30438,"lon":5.38906,"is_reserved":false,"is_disabled":false,"rental_uris":{"android":"levelo://app?vid=73925e83-b724-490d-a631-ab7105cbd17f","ios":"levelo://app?vid=73925e83-b724-490d-a631-ab7105cbd17f"},"vehicle_type_id":"4","last_reported":1729534350,"current_range_meters":3600,"station_id":"ce4bgk12rcd13ifvqbi0","pricing_plan_id":"cebpf4jnsgd1na2vs0mg"},{"bike_id":"d1b6f4d6-fba9-4fd7-90ee-d95deb1346f3","system_id":"levelo_inurba_marseille","lat":43.28569,"lon":5.39506,"is_reserved":false,"is_disabled":false,"rental_uris":{"android":"levelo://app?vid=d1b6f4d6-fba9-4fd7-90ee-d95deb1346f3","ios":"levelo://app?vid=d1b6f4d6-fba9-4fd7-90ee-d95deb1346f3"},"vehicle_type_id":"4","last_reported":1729534350,"current_range_meters":28400,"station_id":"ce4bh292rcd13ifvqdg0","pricing_plan_id":"cebpf4jnsgd1na2vs0mg"},{"bike_id":"e725fd16-eef0-4456-8ed5-e19a86281e7b","system_id":"levelo_inurba_marseille","lat":43.30132,"lon":5.37033,"is_reserved":false,"is_disabled":false,"rental_uris":{"android":"levelo://app?vid=e725fd16-eef0-4456-8ed5-e19a86281e7b","ios":"levelo://app?vid=e725fd16-eef0-4456-8ed5-e19a86281e7b"},"vehicle_type_id":"4","last_reported":1729534350,"current_range_meters":23200,"station_id":"","pricing_plan_id":"cebpf4jnsgd1na2vs0mg"},{"bike_id":"79a1e020-318b-42a1-a8c0-a424b1daf69e","system_id":"levelo_inurba_marseille","lat":43.296,"lon":5.36142,"is_reserved":false,"is_disabled":false,"rental_uris":{"android":"levelo://app?vid=79a1e020-318b-42a1-a8c0-a424b1daf69e","ios":"levelo://app?vid=79a1e020-318b-42a1-a8c0-a424b1daf69e"},"vehicle_type_id":"4","last_reported":1729534350,"current_range_meters":9200,"station_id":"","pricing_plan_id":"cebpf4jnsgd1na2vs0mg"},{"bike_id":"6c918c30-cd43-4551-92aa-2d2d823211d8","system_id":"levelo_inurba_marseille","lat":43.2862,"lon":5.351,"is_reserved":false,"is_disabled":false,"rental_uris":{"android":"levelo://app?vid=6c918c30-cd43-4551-92aa-2d2d823211d8","ios":"levelo://app?vid=6c918c30-cd43-4551-92aa-2d2d823211d8"},"vehicle_type_id":"4","last_reported":1729534350,"current_range_meters":38800,"station_id":"ce4bhch2rcd13ifvqeug","pricing_plan_id":"cebpf4jnsgd1na2vs0mg"},{"bike_id":"d5b12123-6621-4acb-b48b-e466e9dfd7a8","system_id":"levelo_inurba_marseille","lat":43.30132,"lon":5.39872,"is_reserved":false,"is_disabled":false,"rental_uris":{"android":"levelo://app?vid=d5b12123-6621-4acb-b48b-e466e9dfd7a8","ios":"levelo://app?vid=d5b12123-6621-4acb-b48b-e466e9dfd7a8"},"vehicle_type_id":"4","last_reported":1729534350,"current_range_meters":38800,"station_id":"ce4bh0h2rcd13ifvqd40","pricing_plan_id":"cebpf4jnsgd1na2vs0mg"},{"bike_id":"b2916b66-9552-40cf-9a10-a66060776921","system_id":"levelo_inurba_marseille","lat":43.24389,"lon":5.37064,"is_reserved":false,"is_disabled":false,"rental_uris":{"android":"levelo://app?vid=b2916b66-9552-40cf-9a10-a66060776921","ios":"levelo://app?vid=b2916b66-9552-40cf-9a10-a66060776921"},"vehicle_type_id":"4","last_reported":1729534350,"current_range_meters":6400,"station_id":"ce4bhhh2rcd13ifvqfk0","pricing_plan_id":"cebpf4jnsgd1na2vs0mg"},{"bike_id":"357b8b5b-3bff-46dc-b9d8-4e5085d76435","system_id":"levelo_inurba_marseille","lat":43.29201,"lon":5.39324,"is_reserved":false,"is_disabled":false,"rental_uris":{"android":"levelo://app?vid=357b8b5b-3bff-46dc-b9d8-4e5085d76435","ios":"levelo://app?vid=357b8b5b-3bff-46dc-b9d8-4e5085d76435"},"vehicle_type_id":"4","last_reported":1729534350,"current_range_meters":37600,"station_id":"ce4bh192rcd13ifvqdd0","pricing_plan_id":"cebpf4jnsgd1na2vs0mg"},{"bike_id":"ee5fe8b7-1fde-4d5a-8e3d-b919862fae1a","system_id":"levelo_inurba_marseille","lat":43.29063,"lon":5.37125,"is_reserved":false,"is_disabled":false,"rental_uris":{"android":"levelo://app?vid=ee5fe8b7-1fde-4d5a-8e3d-b919862fae1a","ios":"levelo://app?vid=ee5fe8b7-1fde-4d5a-8e3d-b919862fae1a"},"vehicle_type_id":"4","last_reported":1729534350,"current_range_meters":10800,"station_id":"ce4bh5p2rcd13ifvqe4g","pricing_plan_id":"cebpf4jnsgd1na2vs0mg"},{"bike_id":"50864c60-5170-4049-b0da-a9e49f530fc0","system_id":"levelo_inurba_marseille","lat":43.29032,"lon":5.3836,"is_reserved":false,"is_disabled":false,"rental_uris":{"android":"levelo://app?vid=50864c60-5170-4049-b0da-a9e49f530fc0","ios":"levelo://app?vid=50864c60-5170-4049-b0da-a9e49f530fc0"},"vehicle_type_id":"4","last_reported":1729534350,"current_range_meters":12000,"station_id":"","pricing_plan_id":"cebpf4jnsgd1na2vs0mg"},{"bike_id":"7adf842b-4b8c-4356-a23f-1be0cbaf4d21","system_id":"levelo_inurba_marseille","lat":43.23198,"lon":5.35555,"is_reserved":false,"is_disabled":false,"rental_uris":{"android":"levelo://app?vid=7adf842b-4b8c-4356-a23f-1be0cbaf4d21","ios":"levelo://app?vid=7adf842b-4b8c-4356-a23f-1be0cbaf4d21"},"vehicle_type_id":"4","last_reported":1729534350,"current_range_meters":14800,"station_id":"ce4bhu92rcd13ifvqi70","pricing_plan_id":"cebpf4jnsgd1na2vs0mg"},{"bike_id":"fe97155e-a6fd-417b-925a-ea056acf33ad","system_id":"levelo_inurba_marseille","lat":43.31871,"lon":5.3678,"is_reserved":false,"is_disabled":false,"rental_uris":{"android":"levelo://app?vid=fe97155e-a6fd-417b-925a-ea056acf33ad","ios":"levelo://app?vid=fe97155e-a6fd-417b-925a-ea056acf33ad"},"vehicle_type_id":"4","last_reported":1729534350,"current_range_meters":2800,"station_id":"ce4bhs12rcd13ifvqhvg","pricing_plan_id":"cebpf4jnsgd1na2vs0mg"},{"bike_id":"4efdb135-f8b5-41b7-857a-e1abd6a29868","system_id":"levelo_inurba_marseille","lat":43.32293,"lon":5.38264,"is_reserved":false,"is_disabled":false,"rental_uris":{"android":"levelo://app?vid=4efdb135-f8b5-41b7-857a-e1abd6a29868","ios":"levelo://app?vid=4efdb135-f8b5-41b7-857a-e1abd6a29868"},"vehicle_type_id":"4","last_reported":1729534350,"current_range_meters":9600,"station_id":"ce4bhr12rcd13ifvqhqg","pricing_plan_id":"cebpf4jnsgd1na2vs0mg"},{"bike_id":"b0dbfe61-2e51-4ca0-b548-42fcf40e0680","system_id":"levelo_inurba_marseille","lat":43.25076,"lon":5.39524,"is_reserved":false,"is_disabled":false,"rental_uris":{"android":"levelo://app?vid=b0dbfe61-2e51-4ca0-b548-42fcf40e0680","ios":"levelo://app?vid=b0dbfe61-2e51-4ca0-b548-42fcf40e0680"},"vehicle_type_id":"4","last_reported":1729534350,"current_range_meters":31200,"station_id":"ce4bhm12rcd13ifvqgkg","pricing_plan_id":"cebpf4jnsgd1na2vs0mg"},{"bike_id":"ab11186a-84ad-4cc5-aaba-ba582d0bfcd2","system_id":"levelo_inurba_marseille","lat":43.30243,"lon":5.40069,"is_reserved":false,"is_disabled":false,"rental_uris":{"android":"levelo://app?vid=ab11186a-84ad-4cc5-aaba-ba582d0bfcd2","ios":"levelo://app?vid=ab11186a-84ad-4cc5-aaba-ba582d0bfcd2"},"vehicle_type_id":"4","last_reported":1729534350,"current_range_meters":31200,"station_id":"ce4bgvh2rcd13ifvqcs0","pricing_plan_id":"cebpf4jnsgd1na2vs0mg"},{"bike_id":"b310756d-e277-45b3-b62a-2067aaa1c8e4","system_id":"levelo_inurba_marseille","lat":43.29567,"lon":5.39988,"is_reserved":false,"is_disabled":false,"rental_uris":{"android":"levelo://app?vid=b310756d-e277-45b3-b62a-2067aaa1c8e4","ios":"levelo://app?vid=b310756d-e277-45b3-b62a-2067aaa1c8e4"},"vehicle_type_id":"4","last_reported":1729534350,"current_range_meters":38000,"station_id":"ce4bh312rcd13ifvqdj0","pricing_plan_id":"cebpf4jnsgd1na2vs0mg"},{"bike_id":"b119b2f4-6587-49ea-b615-ed9b57ff3065","system_id":"levelo_inurba_marseille","lat":43.30804,"lon":5.38171,"is_reserved":false,"is_disabled":false,"rental_uris":{"android":"levelo://app?vid=b119b2f4-6587-49ea-b615-ed9b57ff3065","ios":"levelo://app?vid=b119b2f4-6587-49ea-b615-ed9b57ff3065"},"vehicle_type_id":"4","last_reported":1729534350,"current_range_meters":38800,"station_id":"ce4bgt12rcd13ifvqce0","pricing_plan_id":"cebpf4jnsgd1na2vs0mg"},{"bike_id":"14d47ef7-7094-4d2b-9bf1-a08c5ea81251","system_id":"levelo_inurba_marseille","lat":43.28455,"lon":5.39227,"is_reserved":false,"is_disabled":false,"rental_uris":{"android":"levelo://app?vid=14d47ef7-7094-4d2b-9bf1-a08c5ea81251","ios":"levelo://app?vid=14d47ef7-7094-4d2b-9bf1-a08c5ea81251"},"vehicle_type_id":"4","last_reported":1729534350,"current_range_meters":4000,"station_id":"ce4bhg12rcd13ifvqf70","pricing_plan_id":"cebpf4jnsgd1na2vs0mg"},{"bike_id":"df265886-b362-4f6c-b825-acc5ae5fa64d","system_id":"levelo_inurba_marseille","lat":43.30783,"lon":5.38154,"is_reserved":false,"is_disabled":false,"rental_uris":{"android":"levelo://app?vid=df265886-b362-4f6c-b825-acc5ae5fa64d","ios":"levelo://app?vid=df265886-b362-4f6c-b825-acc5ae5fa64d"},"vehicle_type_id":"4","last_reported":1729534350,"current_range_meters":12400,"station_id":"ce4bgt12rcd13ifvqce0","pricing_plan_id":"cebpf4jnsgd1na2vs0mg"},{"bike_id":"c0acdbbd-2031-483a-891e-50012833ccfa","system_id":"levelo_inurba_marseille","lat":43.30329,"lon":5.40442,"is_reserved":false,"is_disabled":false,"rental_uris":{"android":"levelo://app?vid=c0acdbbd-2031-483a-891e-50012833ccfa","ios":"levelo://app?vid=c0acdbbd-2031-483a-891e-50012833ccfa"},"vehicle_type_id":"4","last_reported":1729534350,"current_range_meters":24400,"station_id":"ce4bh012rcd13ifvqd10","pricing_plan_id":"cebpf4jnsgd1na2vs0mg"},{"bike_id":"3b14897a-daf5-4d7e-8b82-86c5bdae4669","system_id":"levelo_inurba_marseille","lat":43.28608,"lon":5.37072,"is_reserved":false,"is_disabled":false,"rental_uris":{"android":"levelo://app?vid=3b14897a-daf5-4d7e-8b82-86c5bdae4669","ios":"levelo://app?vid=3b14897a-daf5-4d7e-8b82-86c5bdae4669"},"vehicle_type_id":"4","last_reported":1729534350,"current_range_meters":29600,"station_id":"ce4bht12rcd13ifvqi60","pricing_plan_id":"cebpf4jnsgd1na2vs0mg"},{"bike_id":"c3945b60-e38d-4106-8f18-92c7f436cc4f","system_id":"levelo_inurba_marseille","lat":43.33757,"lon":5.37448,"is_reserved":false,"is_disabled":false,"rental_uris":{"android":"levelo://app?vid=c3945b60-e38d-4106-8f18-92c7f436cc4f","ios":"levelo://app?vid=c3945b60-e38d-4106-8f18-92c7f436cc4f"},"vehicle_type_id":"4","last_reported":1729534350,"current_range_meters":35200,"station_id":"","pricing_plan_id":"cebpf4jnsgd1na2vs0mg"},{"bike_id":"ccfe87b2-86ea-484c-b244-66e19dbcf2ad","system_id":"levelo_inurba_marseille","lat":43.27841,"lon":5.39215,"is_reserved":false,"is_disabled":false,"rental_uris":{"android":"levelo://app?vid=ccfe87b2-86ea-484c-b244-66e19dbcf2ad","ios":"levelo://app?vid=ccfe87b2-86ea-484c-b244-66e19dbcf2ad"},"vehicle_type_id":"4","last_reported":1729534350,"current_range_meters":12000,"station_id":"ce4bhjp2rcd13ifvqga0","pricing_plan_id":"cebpf4jnsgd1na2vs0mg"},{"bike_id":"de1ff86d-3061-40a1-be1e-8be446e6115e","system_id":"levelo_inurba_marseille","lat":43.29585,"lon":5.38173,"is_reserved":false,"is_disabled":false,"rental_uris":{"android":"levelo://app?vid=de1ff86d-3061-40a1-be1e-8be446e6115e","ios":"levelo://app?vid=de1ff86d-3061-40a1-be1e-8be446e6115e"},"vehicle_type_id":"4","last_reported":1729534350,"current_range_meters":18800,"station_id":"","pricing_plan_id":"cebpf4jnsgd1na2vs0mg"},{"bike_id":"795f5ea8-6cbc-4bc0-8313-47db635295f7","system_id":"levelo_inurba_marseille","lat":43.26576,"lon":5.390074,"is_reserved":false,"is_disabled":false,"rental_uris":{"android":"levelo://app?vid=795f5ea8-6cbc-4bc0-8313-47db635295f7","ios":"levelo://app?vid=795f5ea8-6cbc-4bc0-8313-47db635295f7"},"vehicle_type_id":"4","last_reported":1729534350,"current_range_meters":22000,"station_id":"ce4bhe12rcd13ifvqf30","pricing_plan_id":"cebpf4jnsgd1na2vs0mg"},{"bike_id":"d6302fba-4a4b-48e2-955d-c7fff95e7dbf","system_id":"levelo_inurba_marseille","lat":43.312683,"lon":5.401754,"is_reserved":false,"is_disabled":false,"rental_uris":{"android":"levelo://app?vid=d6302fba-4a4b-48e2-955d-c7fff95e7dbf","ios":"levelo://app?vid=d6302fba-4a4b-48e2-955d-c7fff95e7dbf"},"vehicle_type_id":"4","last_reported":1729534350,"current_range_meters":8000,"station_id":"ce4bh092rcd13ifvqd30","pricing_plan_id":"cebpf4jnsgd1na2vs0mg"},{"bike_id":"32ecdc35-27fb-45c7-b4b8-b5bf50eaa278","system_id":"levelo_inurba_marseille","lat":43.27812,"lon":5.40719,"is_reserved":false,"is_disabled":false,"rental_uris":{"android":"levelo://app?vid=32ecdc35-27fb-45c7-b4b8-b5bf50eaa278","ios":"levelo://app?vid=32ecdc35-27fb-45c7-b4b8-b5bf50eaa278"},"vehicle_type_id":"4","last_reported":1729534350,"current_range_meters":4800,"station_id":"ce4bhnh2rcd13ifvqgtg","pricing_plan_id":"cebpf4jnsgd1na2vs0mg"},{"bike_id":"c168c6b2-c25f-4ea9-bf56-040ce4180b9c","system_id":"levelo_inurba_marseille","lat":43.246527,"lon":5.388951,"is_reserved":false,"is_disabled":false,"rental_uris":{"android":"levelo://app?vid=c168c6b2-c25f-4ea9-bf56-040ce4180b9c","ios":"levelo://app?vid=c168c6b2-c25f-4ea9-bf56-040ce4180b9c"},"vehicle_type_id":"4","last_reported":1729534350,"current_range_meters":30000,"station_id":"ce4bhgp2rcd13ifvqfd0","pricing_plan_id":"cebpf4jnsgd1na2vs0mg"},{"bike_id":"8eefaf06-7c4c-4c9f-b6b7-95208fb1acce","system_id":"levelo_inurba_marseille","lat":43.29545,"lon":5.38543,"is_reserved":false,"is_disabled":false,"rental_uris":{"android":"levelo://app?vid=8eefaf06-7c4c-4c9f-b6b7-95208fb1acce","ios":"levelo://app?vid=8eefaf06-7c4c-4c9f-b6b7-95208fb1acce"},"vehicle_type_id":"4","last_reported":1729534350,"current_range_meters":36000,"station_id":"ce4bgih2rcd13ifvqba0","pricing_plan_id":"cebpf4jnsgd1na2vs0mg"},{"bike_id":"38d399d3-1b68-4be0-be61-bbc96f0ae865","system_id":"levelo_inurba_marseille","lat":43.30261,"lon":5.40081,"is_reserved":false,"is_disabled":false,"rental_uris":{"android":"levelo://app?vid=38d399d3-1b68-4be0-be61-bbc96f0ae865","ios":"levelo://app?vid=38d399d3-1b68-4be0-be61-bbc96f0ae865"},"vehicle_type_id":"4","last_reported":1729534350,"current_range_meters":30000,"station_id":"ce4bgvh2rcd13ifvqcs0","pricing_plan_id":"cebpf4jnsgd1na2vs0mg"},{"bike_id":"6d568225-b553-4324-8bce-344e58b91456","system_id":"levelo_inurba_marseille","lat":43.32478,"lon":5.36566,"is_reserved":false,"is_disabled":false,"rental_uris":{"android":"levelo://app?vid=6d568225-b553-4324-8bce-344e58b91456","ios":"levelo://app?vid=6d568225-b553-4324-8bce-344e58b91456"},"vehicle_type_id":"4","last_reported":1729534350,"current_range_meters":25600,"station_id":"ce4bhs12rcd13ifvqhvg","pricing_plan_id":"cebpf4jnsgd1na2vs0mg"},{"bike_id":"84104e34-50aa-4570-84d7-2719fddbd51a","system_id":"levelo_inurba_marseille","lat":43.27919,"lon":5.39581,"is_reserved":false,"is_disabled":false,"rental_uris":{"android":"levelo://app?vid=84104e34-50aa-4570-84d7-2719fddbd51a","ios":"levelo://app?vid=84104e34-50aa-4570-84d7-2719fddbd51a"},"vehicle_type_id":"4","last_reported":1729534350,"current_range_meters":30400,"station_id":"ce4bhf92rcd13ifvqf40","pricing_plan_id":"cebpf4jnsgd1na2vs0mg"},{"bike_id":"b7e9d7b1-337d-4222-9e82-5748a0f9aff7","system_id":"levelo_inurba_marseille","lat":43.29897,"lon":5.38914,"is_reserved":false,"is_disabled":false,"rental_uris":{"android":"levelo://app?vid=b7e9d7b1-337d-4222-9e82-5748a0f9aff7","ios":"levelo://app?vid=b7e9d7b1-337d-4222-9e82-5748a0f9aff7"},"vehicle_type_id":"4","last_reported":1729534350,"current_range_meters":32400,"station_id":"ce4bh392rcd13ifvqdl0","pricing_plan_id":"cebpf4jnsgd1na2vs0mg"},{"bike_id":"4cda46ce-5d07-40d6-93e4-a73ef7d6d6b3","system_id":"levelo_inurba_marseille","lat":43.2894,"lon":5.36641,"is_reserved":false,"is_disabled":false,"rental_uris":{"android":"levelo://app?vid=4cda46ce-5d07-40d6-93e4-a73ef7d6d6b3","ios":"levelo://app?vid=4cda46ce-5d07-40d6-93e4-a73ef7d6d6b3"},"vehicle_type_id":"4","last_reported":1729534350,"current_range_meters":9200,"station_id":"ce4bhap2rcd13ifvqek0","pricing_plan_id":"cebpf4jnsgd1na2vs0mg"},{"bike_id":"1baab555-3e06-4547-9dff-63636e24dc7a","system_id":"levelo_inurba_marseille","lat":43.303043,"lon":5.392164,"is_reserved":false,"is_disabled":false,"rental_uris":{"android":"levelo://app?vid=1baab555-3e06-4547-9dff-63636e24dc7a","ios":"levelo://app?vid=1baab555-3e06-4547-9dff-63636e24dc7a"},"vehicle_type_id":"4","last_reported":1729534350,"current_range_meters":16400,"station_id":"ce4bgkh2rcd13ifvqbk0","pricing_plan_id":"cebpf4jnsgd1na2vs0mg"},{"bike_id":"4e3fa006-e50f-4ad8-b583-ae32ee36948e","system_id":"levelo_inurba_marseille","lat":43.298811,"lon":5.389095,"is_reserved":false,"is_disabled":false,"rental_uris":{"android":"levelo://app?vid=4e3fa006-e50f-4ad8-b583-ae32ee36948e","ios":"levelo://app?vid=4e3fa006-e50f-4ad8-b583-ae32ee36948e"},"vehicle_type_id":"4","last_reported":1729534350,"current_range_meters":4800,"station_id":"ce4bh392rcd13ifvqdl0","pricing_plan_id":"cebpf4jnsgd1na2vs0mg"},{"bike_id":"6b8a81b5-9db9-40bd-84fd-3913751ce518","system_id":"levelo_inurba_marseille","lat":43.30556,"lon":5.38429,"is_reserved":false,"is_disabled":false,"rental_uris":{"android":"levelo://app?vid=6b8a81b5-9db9-40bd-84fd-3913751ce518","ios":"levelo://app?vid=6b8a81b5-9db9-40bd-84fd-3913751ce518"},"vehicle_type_id":"4","last_reported":1729534350,"current_range_meters":39200,"station_id":"ce4bgg92rcd13ifvqb30","pricing_plan_id":"cebpf4jnsgd1na2vs0mg"},{"bike_id":"a037e32f-1316-487a-a557-1e091631a31d","system_id":"levelo_inurba_marseille","lat":43.2847,"lon":5.35901,"is_reserved":false,"is_disabled":false,"rental_uris":{"android":"levelo://app?vid=a037e32f-1316-487a-a557-1e091631a31d","ios":"levelo://app?vid=a037e32f-1316-487a-a557-1e091631a31d"},"vehicle_type_id":"4","last_reported":1729534350,"current_range_meters":11200,"station_id":"ce4bha12rcd13ifvqee0","pricing_plan_id":"cebpf4jnsgd1na2vs0mg"},{"bike_id":"2a3c2719-87ae-4c5a-82ed-4503f14639b4","system_id":"levelo_inurba_marseille","lat":43.2871,"lon":5.37951,"is_reserved":false,"is_disabled":false,"rental_uris":{"android":"levelo://app?vid=2a3c2719-87ae-4c5a-82ed-4503f14639b4","ios":"levelo://app?vid=2a3c2719-87ae-4c5a-82ed-4503f14639b4"},"vehicle_type_id":"4","last_reported":1729534350,"current_range_meters":36800,"station_id":"ce4bh9p2rcd13ifvqec0","pricing_plan_id":"cebpf4jnsgd1na2vs0mg"},{"bike_id":"6841b0f4-0438-4a65-8869-5b677854a241","system_id":"levelo_inurba_marseille","lat":43.288116,"lon":5.400328,"is_reserved":false,"is_disabled":false,"rental_uris":{"android":"levelo://app?vid=6841b0f4-0438-4a65-8869-5b677854a241","ios":"levelo://app?vid=6841b0f4-0438-4a65-8869-5b677854a241"},"vehicle_type_id":"4","last_reported":1729534350,"current_range_meters":32400,"station_id":"ce4bh112rcd13ifvqda0","pricing_plan_id":"cebpf4jnsgd1na2vs0mg"},{"bike_id":"815dd284-1bd2-4bb9-992a-b2116e2485bc","system_id":"levelo_inurba_marseille","lat":43.33009,"lon":5.36365,"is_reserved":false,"is_disabled":false,"rental_uris":{"android":"levelo://app?vid=815dd284-1bd2-4bb9-992a-b2116e2485bc","ios":"levelo://app?vid=815dd284-1bd2-4bb9-992a-b2116e2485bc"},"vehicle_type_id":"4","last_reported":1729534350,"current_range_meters":36400,"station_id":"","pricing_plan_id":"cebpf4jnsgd1na2vs0mg"},{"bike_id":"22d379b3-bbc9-4c84-8282-e4ce851ff2a0","system_id":"levelo_inurba_marseille","lat":43.29795,"lon":5.39356,"is_reserved":false,"is_disabled":false,"rental_uris":{"android":"levelo://app?vid=22d379b3-bbc9-4c84-8282-e4ce851ff2a0","ios":"levelo://app?vid=22d379b3-bbc9-4c84-8282-e4ce851ff2a0"},"vehicle_type_id":"4","last_reported":1729534350,"current_range_meters":39200,"station_id":"chh1huq6cuj3fo74tm60","pricing_plan_id":"cebpf4jnsgd1na2vs0mg"},{"bike_id":"04db7ac9-9b26-417a-9b25-550464ff4bf8","system_id":"levelo_inurba_marseille","lat":43.29986,"lon":5.38485,"is_reserved":false,"is_disabled":false,"rental_uris":{"android":"levelo://app?vid=04db7ac9-9b26-417a-9b25-550464ff4bf8","ios":"levelo://app?vid=04db7ac9-9b26-417a-9b25-550464ff4bf8"},"vehicle_type_id":"4","last_reported":1729534350,"current_range_meters":22400,"station_id":"ce4bgj92rcd13ifvqbd0","pricing_plan_id":"cebpf4jnsgd1na2vs0mg"},{"bike_id":"81c3754e-8434-466f-a3c8-cb133df57504","system_id":"levelo_inurba_marseille","lat":43.28463,"lon":5.35886,"is_reserved":false,"is_disabled":false,"rental_uris":{"android":"levelo://app?vid=81c3754e-8434-466f-a3c8-cb133df57504","ios":"levelo://app?vid=81c3754e-8434-466f-a3c8-cb133df57504"},"vehicle_type_id":"4","last_reported":1729534350,"current_range_meters":9200,"station_id":"ce4bhah2rcd13ifvqei0","pricing_plan_id":"cebpf4jnsgd1na2vs0mg"},{"bike_id":"2c1fae55-921d-4a72-86b0-19b559b438c8","system_id":"levelo_inurba_marseille","lat":43.31726,"lon":5.42399,"is_reserved":false,"is_disabled":false,"rental_uris":{"android":"levelo://app?vid=2c1fae55-921d-4a72-86b0-19b559b438c8","ios":"levelo://app?vid=2c1fae55-921d-4a72-86b0-19b559b438c8"},"vehicle_type_id":"4","last_reported":1729534350,"current_range_meters":39200,"station_id":"ce4bhp92rcd13ifvqhbg","pricing_plan_id":"cebpf4jnsgd1na2vs0mg"},{"bike_id":"a1ae4456-0f49-40ee-9874-65a614721f89","system_id":"levelo_inurba_marseille","lat":43.28155,"lon":5.42654,"is_reserved":false,"is_disabled":false,"rental_uris":{"android":"levelo://app?vid=a1ae4456-0f49-40ee-9874-65a614721f89","ios":"levelo://app?vid=a1ae4456-0f49-40ee-9874-65a614721f89"},"vehicle_type_id":"4","last_reported":1729534350,"current_range_meters":25600,"station_id":"ce4bhnh2rcd13ifvqgug","pricing_plan_id":"cebpf4jnsgd1na2vs0mg"},{"bike_id":"3090aff6-6282-4ee1-98d8-bf4598a2dd60","system_id":"levelo_inurba_marseille","lat":43.30337,"lon":5.40439,"is_reserved":false,"is_disabled":false,"rental_uris":{"android":"levelo://app?vid=3090aff6-6282-4ee1-98d8-bf4598a2dd60","ios":"levelo://app?vid=3090aff6-6282-4ee1-98d8-bf4598a2dd60"},"vehicle_type_id":"4","last_reported":1729534350,"current_range_meters":12400,"station_id":"ce4bh012rcd13ifvqd10","pricing_plan_id":"cebpf4jnsgd1na2vs0mg"},{"bike_id":"94e8a5ee-bb0a-430c-8a60-3c9aa96a91a9","system_id":"levelo_inurba_marseille","lat":43.29253,"lon":5.38436,"is_reserved":false,"is_disabled":false,"rental_uris":{"android":"levelo://app?vid=94e8a5ee-bb0a-430c-8a60-3c9aa96a91a9","ios":"levelo://app?vid=94e8a5ee-bb0a-430c-8a60-3c9aa96a91a9"},"vehicle_type_id":"4","last_reported":1729534350,"current_range_meters":21600,"station_id":"ce4bh692rcd13ifvqea0","pricing_plan_id":"cebpf4jnsgd1na2vs0mg"},{"bike_id":"9ed9ef49-ff61-4a85-bce6-b3dc59f75885","system_id":"levelo_inurba_marseille","lat":43.27435,"lon":5.39428,"is_reserved":false,"is_disabled":false,"rental_uris":{"android":"levelo://app?vid=9ed9ef49-ff61-4a85-bce6-b3dc59f75885","ios":"levelo://app?vid=9ed9ef49-ff61-4a85-bce6-b3dc59f75885"},"vehicle_type_id":"4","last_reported":1729534350,"current_range_meters":30800,"station_id":"ce4bhdp2rcd13ifvqf20","pricing_plan_id":"cebpf4jnsgd1na2vs0mg"},{"bike_id":"9f222fb0-c156-4bea-a392-909ab7c8ff41","system_id":"levelo_inurba_marseille","lat":43.33025,"lon":5.39046,"is_reserved":false,"is_disabled":false,"rental_uris":{"android":"levelo://app?vid=9f222fb0-c156-4bea-a392-909ab7c8ff41","ios":"levelo://app?vid=9f222fb0-c156-4bea-a392-909ab7c8ff41"},"vehicle_type_id":"4","last_reported":1729534350,"current_range_meters":25200,"station_id":"ce4bhr92rcd13ifvqhrg","pricing_plan_id":"cebpf4jnsgd1na2vs0mg"},{"bike_id":"c9244ca4-45b8-4628-9f93-027dd37e050d","system_id":"levelo_inurba_marseille","lat":43.29962,"lon":5.38501,"is_reserved":false,"is_disabled":false,"rental_uris":{"android":"levelo://app?vid=c9244ca4-45b8-4628-9f93-027dd37e050d","ios":"levelo://app?vid=c9244ca4-45b8-4628-9f93-027dd37e050d"},"vehicle_type_id":"4","last_reported":1729534350,"current_range_meters":32400,"station_id":"ce4bgj92rcd13ifvqbd0","pricing_plan_id":"cebpf4jnsgd1na2vs0mg"},{"bike_id":"fafea7e1-683e-4e49-bee7-3856e4c8da44","system_id":"levelo_inurba_marseille","lat":43.23961,"lon":5.3663,"is_reserved":false,"is_disabled":false,"rental_uris":{"android":"levelo://app?vid=fafea7e1-683e-4e49-bee7-3856e4c8da44","ios":"levelo://app?vid=fafea7e1-683e-4e49-bee7-3856e4c8da44"},"vehicle_type_id":"4","last_reported":1729534350,"current_range_meters":2800,"station_id":"ce4bhi12rcd13ifvqfp0","pricing_plan_id":"cebpf4jnsgd1na2vs0mg"},{"bike_id":"ae3fcb04-be9a-4eda-86cc-c69683243e47","system_id":"levelo_inurba_marseille","lat":43.23959,"lon":5.36633,"is_reserved":false,"is_disabled":false,"rental_uris":{"android":"levelo://app?vid=ae3fcb04-be9a-4eda-86cc-c69683243e47","ios":"levelo://app?vid=ae3fcb04-be9a-4eda-86cc-c69683243e47"},"vehicle_type_id":"4","last_reported":1729534350,"current_range_meters":40000,"station_id":"ce4bhi12rcd13ifvqfp0","pricing_plan_id":"cebpf4jnsgd1na2vs0mg"},{"bike_id":"e01af3fb-a46a-472a-a9ce-4d0d6e75d0db","system_id":"levelo_inurba_marseille","lat":43.2846,"lon":5.35883,"is_reserved":false,"is_disabled":false,"rental_uris":{"android":"levelo://app?vid=e01af3fb-a46a-472a-a9ce-4d0d6e75d0db","ios":"levelo://app?vid=e01af3fb-a46a-472a-a9ce-4d0d6e75d0db"},"vehicle_type_id":"4","last_reported":1729534350,"current_range_meters":39200,"station_id":"ce4bhah2rcd13ifvqei0","pricing_plan_id":"cebpf4jnsgd1na2vs0mg"},{"bike_id":"29d48c85-7a7f-4005-a8de-0fa24b766ee0","system_id":"levelo_inurba_marseille","lat":43.28711,"lon":5.38431,"is_reserved":false,"is_disabled":false,"rental_uris":{"android":"levelo://app?vid=29d48c85-7a7f-4005-a8de-0fa24b766ee0","ios":"levelo://app?vid=29d48c85-7a7f-4005-a8de-0fa24b766ee0"},"vehicle_type_id":"4","last_reported":1729534350,"current_range_meters":8400,"station_id":"","pricing_plan_id":"cebpf4jnsgd1na2vs0mg"},{"bike_id":"0716d609-4bbc-41a7-8257-2b43ca8b3737","system_id":"levelo_inurba_marseille","lat":43.29893,"lon":5.43677,"is_reserved":false,"is_disabled":false,"rental_uris":{"android":"levelo://app?vid=0716d609-4bbc-41a7-8257-2b43ca8b3737","ios":"levelo://app?vid=0716d609-4bbc-41a7-8257-2b43ca8b3737"},"vehicle_type_id":"4","last_reported":1729534350,"current_range_meters":30000,"station_id":"ce4bhpp2rcd13ifvqhfg","pricing_plan_id":"cebpf4jnsgd1na2vs0mg"},{"bike_id":"99ac2cb9-1aea-4098-b388-2b635d1c7645","system_id":"levelo_inurba_marseille","lat":43.28151,"lon":5.42649,"is_reserved":false,"is_disabled":false,"rental_uris":{"android":"levelo://app?vid=99ac2cb9-1aea-4098-b388-2b635d1c7645","ios":"levelo://app?vid=99ac2cb9-1aea-4098-b388-2b635d1c7645"},"vehicle_type_id":"4","last_reported":1729534350,"current_range_meters":16400,"station_id":"ce4bhnh2rcd13ifvqgug","pricing_plan_id":"cebpf4jnsgd1na2vs0mg"},{"bike_id":"94c1ff80-ef42-4b30-a478-4594aff531e5","system_id":"levelo_inurba_marseille","lat":43.29801,"lon":5.40418,"is_reserved":false,"is_disabled":false,"rental_uris":{"android":"levelo://app?vid=94c1ff80-ef42-4b30-a478-4594aff531e5","ios":"levelo://app?vid=94c1ff80-ef42-4b30-a478-4594aff531e5"},"vehicle_type_id":"4","last_reported":1729534350,"current_range_meters":38400,"station_id":"ce4bh112rcd13ifvqd90","pricing_plan_id":"cebpf4jnsgd1na2vs0mg"},{"bike_id":"b6d3ee1b-dd46-42bc-ad40-96db8e46ace6","system_id":"levelo_inurba_marseille","lat":43.28039,"lon":5.36948,"is_reserved":false,"is_disabled":false,"rental_uris":{"android":"levelo://app?vid=b6d3ee1b-dd46-42bc-ad40-96db8e46ace6","ios":"levelo://app?vid=b6d3ee1b-dd46-42bc-ad40-96db8e46ace6"},"vehicle_type_id":"4","last_reported":1729534350,"current_range_meters":38800,"station_id":"ce4bha12rcd13ifvqef0","pricing_plan_id":"cebpf4jnsgd1na2vs0mg"},{"bike_id":"826f70af-2868-4659-87bf-85dc913bd956","system_id":"levelo_inurba_marseille","lat":43.292021,"lon":5.360784,"is_reserved":false,"is_disabled":false,"rental_uris":{"android":"levelo://app?vid=826f70af-2868-4659-87bf-85dc913bd956","ios":"levelo://app?vid=826f70af-2868-4659-87bf-85dc913bd956"},"vehicle_type_id":"4","last_reported":1729534350,"current_range_meters":25600,"station_id":"ce4bh112rcd13ifvqda0","pricing_plan_id":"cebpf4jnsgd1na2vs0mg"},{"bike_id":"09db19cb-d6b9-443e-9001-21e4cacbc922","system_id":"levelo_inurba_marseille","lat":43.31494,"lon":5.37312,"is_reserved":false,"is_disabled":false,"rental_uris":{"android":"levelo://app?vid=09db19cb-d6b9-443e-9001-21e4cacbc922","ios":"levelo://app?vid=09db19cb-d6b9-443e-9001-21e4cacbc922"},"vehicle_type_id":"4","last_reported":1729534350,"current_range_meters":39200,"station_id":"ce4bgt12rcd13ifvqcd0","pricing_plan_id":"cebpf4jnsgd1na2vs0mg"},{"bike_id":"89cffc94-72e7-42af-863f-e5feb601f7ff","system_id":"levelo_inurba_marseille","lat":43.30793,"lon":5.37655,"is_reserved":false,"is_disabled":false,"rental_uris":{"android":"levelo://app?vid=89cffc94-72e7-42af-863f-e5feb601f7ff","ios":"levelo://app?vid=89cffc94-72e7-42af-863f-e5feb601f7ff"},"vehicle_type_id":"4","last_reported":1729534350,"current_range_meters":3600,"station_id":"ce4bgv92rcd13ifvqcq0","pricing_plan_id":"cebpf4jnsgd1na2vs0mg"},{"bike_id":"a824387f-3bfe-4053-96ca-0461078b7056","system_id":"levelo_inurba_marseille","lat":43.28152,"lon":5.42649,"is_reserved":false,"is_disabled":false,"rental_uris":{"android":"levelo://app?vid=a824387f-3bfe-4053-96ca-0461078b7056","ios":"levelo://app?vid=a824387f-3bfe-4053-96ca-0461078b7056"},"vehicle_type_id":"4","last_reported":1729534350,"current_range_meters":16000,"station_id":"ce4bhnh2rcd13ifvqgug","pricing_plan_id":"cebpf4jnsgd1na2vs0mg"},{"bike_id":"890c7c65-b71f-45eb-a663-2faea78039e0","system_id":"levelo_inurba_marseille","lat":43.303228,"lon":5.404352,"is_reserved":false,"is_disabled":false,"rental_uris":{"android":"levelo://app?vid=890c7c65-b71f-45eb-a663-2faea78039e0","ios":"levelo://app?vid=890c7c65-b71f-45eb-a663-2faea78039e0"},"vehicle_type_id":"4","last_reported":1729534350,"current_range_meters":8400,"station_id":"ce4bh012rcd13ifvqd10","pricing_plan_id":"cebpf4jnsgd1na2vs0mg"},{"bike_id":"b894b3a8-6e2a-4efa-8099-357feb0fe150","system_id":"levelo_inurba_marseille","lat":43.289337,"lon":5.366362,"is_reserved":false,"is_disabled":false,"rental_uris":{"android":"levelo://app?vid=b894b3a8-6e2a-4efa-8099-357feb0fe150","ios":"levelo://app?vid=b894b3a8-6e2a-4efa-8099-357feb0fe150"},"vehicle_type_id":"4","last_reported":1729534350,"current_range_meters":15200,"station_id":"ce4bhap2rcd13ifvqek0","pricing_plan_id":"cebpf4jnsgd1na2vs0mg"},{"bike_id":"2cd47a4e-c103-45e9-a12b-82e873e085f1","system_id":"levelo_inurba_marseille","lat":43.28868,"lon":5.39325,"is_reserved":false,"is_disabled":false,"rental_uris":{"android":"levelo://app?vid=2cd47a4e-c103-45e9-a12b-82e873e085f1","ios":"levelo://app?vid=2cd47a4e-c103-45e9-a12b-82e873e085f1"},"vehicle_type_id":"4","last_reported":1729534350,"current_range_meters":38800,"station_id":"ce4bh2p2rcd13ifvqdi0","pricing_plan_id":"cebpf4jnsgd1na2vs0mg"},{"bike_id":"4b321f9c-d240-4200-bb60-7b70406f810a","system_id":"levelo_inurba_marseille","lat":43.25083,"lon":5.39523,"is_reserved":false,"is_disabled":false,"rental_uris":{"android":"levelo://app?vid=4b321f9c-d240-4200-bb60-7b70406f810a","ios":"levelo://app?vid=4b321f9c-d240-4200-bb60-7b70406f810a"},"vehicle_type_id":"4","last_reported":1729534350,"current_range_meters":17600,"station_id":"ce4bhm12rcd13ifvqgkg","pricing_plan_id":"cebpf4jnsgd1na2vs0mg"},{"bike_id":"a9002a5d-a535-42b5-88b4-26d81fd5238e","system_id":"levelo_inurba_marseille","lat":43.32344,"lon":5.40623,"is_reserved":false,"is_disabled":false,"rental_uris":{"android":"levelo://app?vid=a9002a5d-a535-42b5-88b4-26d81fd5238e","ios":"levelo://app?vid=a9002a5d-a535-42b5-88b4-26d81fd5238e"},"vehicle_type_id":"4","last_reported":1729534350,"current_range_meters":8800,"station_id":"ce4bhq92rcd13ifvqhjg","pricing_plan_id":"cebpf4jnsgd1na2vs0mg"},{"bike_id":"2adaa7e6-e7e4-4c71-94a8-6b6dda34ebf9","system_id":"levelo_inurba_marseille","lat":43.30095,"lon":5.39085,"is_reserved":false,"is_disabled":false,"rental_uris":{"android":"levelo://app?vid=2adaa7e6-e7e4-4c71-94a8-6b6dda34ebf9","ios":"levelo://app?vid=2adaa7e6-e7e4-4c71-94a8-6b6dda34ebf9"},"vehicle_type_id":"4","last_reported":1729534350,"current_range_meters":30800,"station_id":"","pricing_plan_id":"cebpf4jnsgd1na2vs0mg"},{"bike_id":"bf04844c-cadb-4907-9f6c-3441f3de9e53","system_id":"levelo_inurba_marseille","lat":43.28441,"lon":5.392,"is_reserved":false,"is_disabled":false,"rental_uris":{"android":"levelo://app?vid=bf04844c-cadb-4907-9f6c-3441f3de9e53","ios":"levelo://app?vid=bf04844c-cadb-4907-9f6c-3441f3de9e53"},"vehicle_type_id":"4","last_reported":1729534350,"current_range_meters":20400,"station_id":"ce4bhoh2rcd13ifvqh5g","pricing_plan_id":"cebpf4jnsgd1na2vs0mg"},{"bike_id":"6105b18d-1c38-41f8-a4ba-b4489f80d09d","system_id":"levelo_inurba_marseille","lat":43.28263,"lon":5.35069,"is_reserved":false,"is_disabled":false,"rental_uris":{"android":"levelo://app?vid=6105b18d-1c38-41f8-a4ba-b4489f80d09d","ios":"levelo://app?vid=6105b18d-1c38-41f8-a4ba-b4489f80d09d"},"vehicle_type_id":"4","last_reported":1729534350,"current_range_meters":39200,"station_id":"ce4bhbp2rcd13ifvqerg","pricing_plan_id":"cebpf4jnsgd1na2vs0mg"},{"bike_id":"87025920-ea95-4e19-872f-5f8e3fa302bf","system_id":"levelo_inurba_marseille","lat":43.26496,"lon":5.39549,"is_reserved":false,"is_disabled":false,"rental_uris":{"android":"levelo://app?vid=87025920-ea95-4e19-872f-5f8e3fa302bf","ios":"levelo://app?vid=87025920-ea95-4e19-872f-5f8e3fa302bf"},"vehicle_type_id":"4","last_reported":1729534350,"current_range_meters":9200,"station_id":"ce4bhi12rcd13ifvqfq0","pricing_plan_id":"cebpf4jnsgd1na2vs0mg"},{"bike_id":"aff7bb20-1719-4fb0-a736-a73b71fe017e","system_id":"levelo_inurba_marseille","lat":43.30556,"lon":5.38435,"is_reserved":false,"is_disabled":false,"rental_uris":{"android":"levelo://app?vid=aff7bb20-1719-4fb0-a736-a73b71fe017e","ios":"levelo://app?vid=aff7bb20-1719-4fb0-a736-a73b71fe017e"},"vehicle_type_id":"4","last_reported":1729534350,"current_range_meters":36400,"station_id":"ce4bgg92rcd13ifvqb30","pricing_plan_id":"cebpf4jnsgd1na2vs0mg"},{"bike_id":"b56317a0-5790-4b06-b497-fdf4dd56745d","system_id":"levelo_inurba_marseille","lat":43.29171,"lon":5.37165,"is_reserved":false,"is_disabled":false,"rental_uris":{"android":"levelo://app?vid=b56317a0-5790-4b06-b497-fdf4dd56745d","ios":"levelo://app?vid=b56317a0-5790-4b06-b497-fdf4dd56745d"},"vehicle_type_id":"4","last_reported":1729534350,"current_range_meters":11200,"station_id":"ce4bha92rcd13ifvqeh0","pricing_plan_id":"cebpf4jnsgd1na2vs0mg"},{"bike_id":"16bd4a15-e176-43b3-9092-6c047a6e77bb","system_id":"levelo_inurba_marseille","lat":43.2509,"lon":5.39523,"is_reserved":false,"is_disabled":false,"rental_uris":{"android":"levelo://app?vid=16bd4a15-e176-43b3-9092-6c047a6e77bb","ios":"levelo://app?vid=16bd4a15-e176-43b3-9092-6c047a6e77bb"},"vehicle_type_id":"4","last_reported":1729534350,"current_range_meters":31200,"station_id":"ce4bhm12rcd13ifvqgkg","pricing_plan_id":"cebpf4jnsgd1na2vs0mg"},{"bike_id":"8e8c1152-0d97-40bb-b78b-175b82389400","system_id":"levelo_inurba_marseille","lat":43.2396,"lon":5.3664,"is_reserved":false,"is_disabled":false,"rental_uris":{"android":"levelo://app?vid=8e8c1152-0d97-40bb-b78b-175b82389400","ios":"levelo://app?vid=8e8c1152-0d97-40bb-b78b-175b82389400"},"vehicle_type_id":"4","last_reported":1729534350,"current_range_meters":8400,"station_id":"ce4bhi12rcd13ifvqfp0","pricing_plan_id":"cebpf4jnsgd1na2vs0mg"},{"bike_id":"1efe5101-3631-459e-add7-17ee45b0a328","system_id":"levelo_inurba_marseille","lat":43.24802,"lon":5.37455,"is_reserved":false,"is_disabled":false,"rental_uris":{"android":"levelo://app?vid=1efe5101-3631-459e-add7-17ee45b0a328","ios":"levelo://app?vid=1efe5101-3631-459e-add7-17ee45b0a328"},"vehicle_type_id":"4","last_reported":1729534350,"current_range_meters":32000,"station_id":"ce4bhgh2rcd13ifvqfb0","pricing_plan_id":"cebpf4jnsgd1na2vs0mg"},{"bike_id":"824904a4-2ad8-42c7-830f-76041f3376b4","system_id":"levelo_inurba_marseille","lat":43.25119,"lon":5.4032,"is_reserved":false,"is_disabled":false,"rental_uris":{"android":"levelo://app?vid=824904a4-2ad8-42c7-830f-76041f3376b4","ios":"levelo://app?vid=824904a4-2ad8-42c7-830f-76041f3376b4"},"vehicle_type_id":"4","last_reported":1729534350,"current_range_meters":9200,"station_id":"ce4bhlh2rcd13ifvqgig","pricing_plan_id":"cebpf4jnsgd1na2vs0mg"},{"bike_id":"831e80b1-c5ec-4ef5-9e2f-9650ea2d171d","system_id":"levelo_inurba_marseille","lat":43.29194,"lon":5.35806,"is_reserved":false,"is_disabled":false,"rental_uris":{"android":"levelo://app?vid=831e80b1-c5ec-4ef5-9e2f-9650ea2d171d","ios":"levelo://app?vid=831e80b1-c5ec-4ef5-9e2f-9650ea2d171d"},"vehicle_type_id":"4","last_reported":1729534350,"current_range_meters":23200,"station_id":"ce4bhb12rcd13ifvqel0","pricing_plan_id":"cebpf4jnsgd1na2vs0mg"},{"bike_id":"98f5304c-57d9-4749-a960-145892b4889b","system_id":"levelo_inurba_marseille","lat":43.28437,"lon":5.35001,"is_reserved":false,"is_disabled":false,"rental_uris":{"android":"levelo://app?vid=98f5304c-57d9-4749-a960-145892b4889b","ios":"levelo://app?vid=98f5304c-57d9-4749-a960-145892b4889b"},"vehicle_type_id":"4","last_reported":1729534350,"current_range_meters":36400,"station_id":"ce4bhbh2rcd13ifvqepg","pricing_plan_id":"cebpf4jnsgd1na2vs0mg"},{"bike_id":"162e7052-19ab-4641-ae2c-d4cc017b481d","system_id":"levelo_inurba_marseille","lat":43.30602,"lon":5.37237,"is_reserved":false,"is_disabled":false,"rental_uris":{"android":"levelo://app?vid=162e7052-19ab-4641-ae2c-d4cc017b481d","ios":"levelo://app?vid=162e7052-19ab-4641-ae2c-d4cc017b481d"},"vehicle_type_id":"4","last_reported":1729534350,"current_range_meters":38800,"station_id":"ce4bgqh2rcd13ifvqc4g","pricing_plan_id":"cebpf4jnsgd1na2vs0mg"},{"bike_id":"40c0bc0a-74ea-451a-8758-d5d25437ce7e","system_id":"levelo_inurba_marseille","lat":43.30144,"lon":5.38784,"is_reserved":false,"is_disabled":false,"rental_uris":{"android":"levelo://app?vid=40c0bc0a-74ea-451a-8758-d5d25437ce7e","ios":"levelo://app?vid=40c0bc0a-74ea-451a-8758-d5d25437ce7e"},"vehicle_type_id":"4","last_reported":1729534350,"current_range_meters":13600,"station_id":"ce4bghh2rcd13ifvqb60","pricing_plan_id":"cebpf4jnsgd1na2vs0mg"},{"bike_id":"00598a9a-062d-451d-965d-9691783b4304","system_id":"levelo_inurba_marseille","lat":43.31117,"lon":5.37768,"is_reserved":false,"is_disabled":false,"rental_uris":{"android":"levelo://app?vid=00598a9a-062d-451d-965d-9691783b4304","ios":"levelo://app?vid=00598a9a-062d-451d-965d-9691783b4304"},"vehicle_type_id":"4","last_reported":1729534350,"current_range_meters":7200,"station_id":"ce4bgt92rcd13ifvqcg0","pricing_plan_id":"cebpf4jnsgd1na2vs0mg"},{"bike_id":"926c78b5-c75d-49f7-b847-bce505991a66","system_id":"levelo_inurba_marseille","lat":43.323408,"lon":5.406256,"is_reserved":false,"is_disabled":false,"rental_uris":{"android":"levelo://app?vid=926c78b5-c75d-49f7-b847-bce505991a66","ios":"levelo://app?vid=926c78b5-c75d-49f7-b847-bce505991a66"},"vehicle_type_id":"4","last_reported":1729534350,"current_range_meters":24000,"station_id":"ce4bhq92rcd13ifvqhjg","pricing_plan_id":"cebpf4jnsgd1na2vs0mg"},{"bike_id":"1b7cee3c-9ae4-4180-a0e2-450343fba1c9","system_id":"levelo_inurba_marseille","lat":43.30429,"lon":5.39763,"is_reserved":false,"is_disabled":false,"rental_uris":{"android":"levelo://app?vid=1b7cee3c-9ae4-4180-a0e2-450343fba1c9","ios":"levelo://app?vid=1b7cee3c-9ae4-4180-a0e2-450343fba1c9"},"vehicle_type_id":"4","last_reported":1729534350,"current_range_meters":6400,"station_id":"ce4bh092rcd13ifvqd20","pricing_plan_id":"cebpf4jnsgd1na2vs0mg"},{"bike_id":"23b52fff-841a-4c88-b0bd-d26339e6e653","system_id":"levelo_inurba_marseille","lat":43.26499,"lon":5.39543,"is_reserved":false,"is_disabled":false,"rental_uris":{"android":"levelo://app?vid=23b52fff-841a-4c88-b0bd-d26339e6e653","ios":"levelo://app?vid=23b52fff-841a-4c88-b0bd-d26339e6e653"},"vehicle_type_id":"4","last_reported":1729534350,"current_range_meters":33200,"station_id":"ce4bhi12rcd13ifvqfq0","pricing_plan_id":"cebpf4jnsgd1na2vs0mg"},{"bike_id":"2c7dd4a3-03d7-422e-a912-1a0516509779","system_id":"levelo_inurba_marseille","lat":43.29197,"lon":5.39327,"is_reserved":false,"is_disabled":false,"rental_uris":{"android":"levelo://app?vid=2c7dd4a3-03d7-422e-a912-1a0516509779","ios":"levelo://app?vid=2c7dd4a3-03d7-422e-a912-1a0516509779"},"vehicle_type_id":"4","last_reported":1729534350,"current_range_meters":2800,"station_id":"ce4bh192rcd13ifvqdd0","pricing_plan_id":"cebpf4jnsgd1na2vs0mg"},{"bike_id":"ea0e5c40-7c10-4071-87b8-16509cdab8ae","system_id":"levelo_inurba_marseille","lat":43.28344,"lon":5.38108,"is_reserved":false,"is_disabled":false,"rental_uris":{"android":"levelo://app?vid=ea0e5c40-7c10-4071-87b8-16509cdab8ae","ios":"levelo://app?vid=ea0e5c40-7c10-4071-87b8-16509cdab8ae"},"vehicle_type_id":"4","last_reported":1729534350,"current_range_meters":6800,"station_id":"ce4bh412rcd13ifvqdr0","pricing_plan_id":"cebpf4jnsgd1na2vs0mg"},{"bike_id":"e7ba0ff8-e292-4eca-8e28-038a4e9e7684","system_id":"levelo_inurba_marseille","lat":43.290985,"lon":5.381326,"is_reserved":false,"is_disabled":false,"rental_uris":{"android":"levelo://app?vid=e7ba0ff8-e292-4eca-8e28-038a4e9e7684","ios":"levelo://app?vid=e7ba0ff8-e292-4eca-8e28-038a4e9e7684"},"vehicle_type_id":"4","last_reported":1729534350,"current_range_meters":25200,"station_id":"ce4bh5p2rcd13ifvqe4g","pricing_plan_id":"cebpf4jnsgd1na2vs0mg"},{"bike_id":"c4e1ab4c-e817-417b-818a-3cfe70bddf05","system_id":"levelo_inurba_marseille","lat":43.287048,"lon":5.385082,"is_reserved":false,"is_disabled":false,"rental_uris":{"android":"levelo://app?vid=c4e1ab4c-e817-417b-818a-3cfe70bddf05","ios":"levelo://app?vid=c4e1ab4c-e817-417b-818a-3cfe70bddf05"},"vehicle_type_id":"4","last_reported":1729534350,"current_range_meters":27200,"station_id":"ce4bhu92rcd13ifvqi70","pricing_plan_id":"cebpf4jnsgd1na2vs0mg"},{"bike_id":"60dd0788-98f8-4cca-b5fb-872115d310ca","system_id":"levelo_inurba_marseille","lat":43.27812,"lon":5.40717,"is_reserved":false,"is_disabled":false,"rental_uris":{"android":"levelo://app?vid=60dd0788-98f8-4cca-b5fb-872115d310ca","ios":"levelo://app?vid=60dd0788-98f8-4cca-b5fb-872115d310ca"},"vehicle_type_id":"4","last_reported":1729534350,"current_range_meters":16400,"station_id":"ce4bhnh2rcd13ifvqgtg","pricing_plan_id":"cebpf4jnsgd1na2vs0mg"},{"bike_id":"437b3ea7-3627-45d9-9104-1918477df0e5","system_id":"levelo_inurba_marseille","lat":43.32367,"lon":5.38888,"is_reserved":false,"is_disabled":false,"rental_uris":{"android":"levelo://app?vid=437b3ea7-3627-45d9-9104-1918477df0e5","ios":"levelo://app?vid=437b3ea7-3627-45d9-9104-1918477df0e5"},"vehicle_type_id":"4","last_reported":1729534350,"current_range_meters":27600,"station_id":"ce4bhqp2rcd13ifvqhog","pricing_plan_id":"cebpf4jnsgd1na2vs0mg"},{"bike_id":"6ce6e776-baff-4970-a6c2-9f1ce22e318b","system_id":"levelo_inurba_marseille","lat":43.30298,"lon":5.39228,"is_reserved":false,"is_disabled":false,"rental_uris":{"android":"levelo://app?vid=6ce6e776-baff-4970-a6c2-9f1ce22e318b","ios":"levelo://app?vid=6ce6e776-baff-4970-a6c2-9f1ce22e318b"},"vehicle_type_id":"4","last_reported":1729534350,"current_range_meters":25200,"station_id":"ce4bgkh2rcd13ifvqbk0","pricing_plan_id":"cebpf4jnsgd1na2vs0mg"},{"bike_id":"1d430869-0ea0-46ed-951b-27da168e80a4","system_id":"levelo_inurba_marseille","lat":43.26197,"lon":5.37933,"is_reserved":false,"is_disabled":false,"rental_uris":{"android":"levelo://app?vid=1d430869-0ea0-46ed-951b-27da168e80a4","ios":"levelo://app?vid=1d430869-0ea0-46ed-951b-27da168e80a4"},"vehicle_type_id":"4","last_reported":1729534350,"current_range_meters":18800,"station_id":"ce4bhjp2rcd13ifvqg90","pricing_plan_id":"cebpf4jnsgd1na2vs0mg"},{"bike_id":"a839c447-1dba-4fed-9297-8bdb37b822a7","system_id":"levelo_inurba_marseille","lat":43.28163,"lon":5.42641,"is_reserved":false,"is_disabled":false,"rental_uris":{"android":"levelo://app?vid=a839c447-1dba-4fed-9297-8bdb37b822a7","ios":"levelo://app?vid=a839c447-1dba-4fed-9297-8bdb37b822a7"},"vehicle_type_id":"4","last_reported":1729534350,"current_range_meters":25600,"station_id":"ce4bhnh2rcd13ifvqgug","pricing_plan_id":"cebpf4jnsgd1na2vs0mg"},{"bike_id":"6c292c1c-e008-4146-8614-31ef52240f3b","system_id":"levelo_inurba_marseille","lat":43.30325,"lon":5.40448,"is_reserved":false,"is_disabled":false,"rental_uris":{"android":"levelo://app?vid=6c292c1c-e008-4146-8614-31ef52240f3b","ios":"levelo://app?vid=6c292c1c-e008-4146-8614-31ef52240f3b"},"vehicle_type_id":"4","last_reported":1729534350,"current_range_meters":38800,"station_id":"ce4bh012rcd13ifvqd10","pricing_plan_id":"cebpf4jnsgd1na2vs0mg"},{"bike_id":"2977d63f-cd19-4f99-ad54-a472e6bf2edb","system_id":"levelo_inurba_marseille","lat":43.3176,"lon":5.39018,"is_reserved":false,"is_disabled":false,"rental_uris":{"android":"levelo://app?vid=2977d63f-cd19-4f99-ad54-a472e6bf2edb","ios":"levelo://app?vid=2977d63f-cd19-4f99-ad54-a472e6bf2edb"},"vehicle_type_id":"4","last_reported":1729534350,"current_range_meters":37600,"station_id":"ce4bhqp2rcd13ifvqhng","pricing_plan_id":"cebpf4jnsgd1na2vs0mg"},{"bike_id":"dd5cf0cd-27e6-4f00-b604-1eb97f0a6f10","system_id":"levelo_inurba_marseille","lat":43.28275,"lon":5.35083,"is_reserved":false,"is_disabled":false,"rental_uris":{"android":"levelo://app?vid=dd5cf0cd-27e6-4f00-b604-1eb97f0a6f10","ios":"levelo://app?vid=dd5cf0cd-27e6-4f00-b604-1eb97f0a6f10"},"vehicle_type_id":"4","last_reported":1729534350,"current_range_meters":0,"station_id":"ce4bhbp2rcd13ifvqerg","pricing_plan_id":"cebpf4jnsgd1na2vs0mg"},{"bike_id":"6c07be62-b3bc-4a76-8867-ab8110211138","system_id":"levelo_inurba_marseille","lat":43.27496,"lon":5.42456,"is_reserved":false,"is_disabled":false,"rental_uris":{"android":"levelo://app?vid=6c07be62-b3bc-4a76-8867-ab8110211138","ios":"levelo://app?vid=6c07be62-b3bc-4a76-8867-ab8110211138"},"vehicle_type_id":"4","last_reported":1729534350,"current_range_meters":27200,"station_id":"ce4bhn92rcd13ifvqgrg","pricing_plan_id":"cebpf4jnsgd1na2vs0mg"},{"bike_id":"8ed8904c-79ce-4edc-b6f2-6c69c5678896","system_id":"levelo_inurba_marseille","lat":43.318741,"lon":5.407322,"is_reserved":false,"is_disabled":false,"rental_uris":{"android":"levelo://app?vid=8ed8904c-79ce-4edc-b6f2-6c69c5678896","ios":"levelo://app?vid=8ed8904c-79ce-4edc-b6f2-6c69c5678896"},"vehicle_type_id":"4","last_reported":1729534350,"current_range_meters":10800,"station_id":"ce4bhq12rcd13ifvqhig","pricing_plan_id":"cebpf4jnsgd1na2vs0mg"},{"bike_id":"58ae58b8-d7dc-4437-8bfc-70feefef6f76","system_id":"levelo_inurba_marseille","lat":43.24179,"lon":5.39734,"is_reserved":false,"is_disabled":false,"rental_uris":{"android":"levelo://app?vid=58ae58b8-d7dc-4437-8bfc-70feefef6f76","ios":"levelo://app?vid=58ae58b8-d7dc-4437-8bfc-70feefef6f76"},"vehicle_type_id":"4","last_reported":1729534350,"current_range_meters":5600,"station_id":"ce4bhn12rcd13ifvqgpg","pricing_plan_id":"cebpf4jnsgd1na2vs0mg"},{"bike_id":"670dc21c-170f-4654-a499-7714bf8a7425","system_id":"levelo_inurba_marseille","lat":43.28584,"lon":5.39504,"is_reserved":false,"is_disabled":false,"rental_uris":{"android":"levelo://app?vid=670dc21c-170f-4654-a499-7714bf8a7425","ios":"levelo://app?vid=670dc21c-170f-4654-a499-7714bf8a7425"},"vehicle_type_id":"4","last_reported":1729534350,"current_range_meters":24000,"station_id":"ce4bh292rcd13ifvqdg0","pricing_plan_id":"cebpf4jnsgd1na2vs0mg"},{"bike_id":"bdda591d-8e5e-4d2a-944f-c90cc525f38e","system_id":"levelo_inurba_marseille","lat":43.28702,"lon":5.37406,"is_reserved":false,"is_disabled":false,"rental_uris":{"android":"levelo://app?vid=bdda591d-8e5e-4d2a-944f-c90cc525f38e","ios":"levelo://app?vid=bdda591d-8e5e-4d2a-944f-c90cc525f38e"},"vehicle_type_id":"4","last_reported":1729534350,"current_range_meters":33200,"station_id":"ce4bh3p2rcd13ifvqdq0","pricing_plan_id":"cebpf4jnsgd1na2vs0mg"},{"bike_id":"2aae9bee-3033-4568-a4e8-0adf7d1a3b75","system_id":"levelo_inurba_marseille","lat":43.31327,"lon":5.39697,"is_reserved":false,"is_disabled":false,"rental_uris":{"android":"levelo://app?vid=2aae9bee-3033-4568-a4e8-0adf7d1a3b75","ios":"levelo://app?vid=2aae9bee-3033-4568-a4e8-0adf7d1a3b75"},"vehicle_type_id":"4","last_reported":1729534350,"current_range_meters":33600,"station_id":"ce4bgvp2rcd13ifvqcu0","pricing_plan_id":"cebpf4jnsgd1na2vs0mg"},{"bike_id":"e9047bd8-45fc-4e91-b32c-0808546f0b99","system_id":"levelo_inurba_marseille","lat":43.31264,"lon":5.40186,"is_reserved":false,"is_disabled":false,"rental_uris":{"android":"levelo://app?vid=e9047bd8-45fc-4e91-b32c-0808546f0b99","ios":"levelo://app?vid=e9047bd8-45fc-4e91-b32c-0808546f0b99"},"vehicle_type_id":"4","last_reported":1729534350,"current_range_meters":38000,"station_id":"ce4bh092rcd13ifvqd30","pricing_plan_id":"cebpf4jnsgd1na2vs0mg"},{"bike_id":"b419d304-305c-4927-a472-f0b6b2ce7e7d","system_id":"levelo_inurba_marseille","lat":43.29093,"lon":5.38137,"is_reserved":false,"is_disabled":false,"rental_uris":{"android":"levelo://app?vid=b419d304-305c-4927-a472-f0b6b2ce7e7d","ios":"levelo://app?vid=b419d304-305c-4927-a472-f0b6b2ce7e7d"},"vehicle_type_id":"4","last_reported":1729534350,"current_range_meters":17600,"station_id":"ce4bh512rcd13ifvqe2g","pricing_plan_id":"cebpf4jnsgd1na2vs0mg"},{"bike_id":"3a06b661-6e43-4e2e-a954-052596b402b2","system_id":"levelo_inurba_marseille","lat":43.30806,"lon":5.4353,"is_reserved":false,"is_disabled":false,"rental_uris":{"android":"levelo://app?vid=3a06b661-6e43-4e2e-a954-052596b402b2","ios":"levelo://app?vid=3a06b661-6e43-4e2e-a954-052596b402b2"},"vehicle_type_id":"4","last_reported":1729534350,"current_range_meters":24400,"station_id":"ce4bhph2rcd13ifvqheg","pricing_plan_id":"cebpf4jnsgd1na2vs0mg"},{"bike_id":"d1b4a6d1-6e2e-4227-8d16-8c9cb91ef767","system_id":"levelo_inurba_marseille","lat":43.33019,"lon":5.39052,"is_reserved":false,"is_disabled":false,"rental_uris":{"android":"levelo://app?vid=d1b4a6d1-6e2e-4227-8d16-8c9cb91ef767","ios":"levelo://app?vid=d1b4a6d1-6e2e-4227-8d16-8c9cb91ef767"},"vehicle_type_id":"4","last_reported":1729534350,"current_range_meters":7200,"station_id":"ce4bhr92rcd13ifvqhrg","pricing_plan_id":"cebpf4jnsgd1na2vs0mg"},{"bike_id":"fb01ef52-8eb4-4d42-9b2a-4320aff7332f","system_id":"levelo_inurba_marseille","lat":43.28265,"lon":5.35068,"is_reserved":false,"is_disabled":false,"rental_uris":{"android":"levelo://app?vid=fb01ef52-8eb4-4d42-9b2a-4320aff7332f","ios":"levelo://app?vid=fb01ef52-8eb4-4d42-9b2a-4320aff7332f"},"vehicle_type_id":"4","last_reported":1729534350,"current_range_meters":39200,"station_id":"ce4bhbp2rcd13ifvqerg","pricing_plan_id":"cebpf4jnsgd1na2vs0mg"},{"bike_id":"fa937a1d-7ae6-4967-a7c5-c7cc28b4aeab","system_id":"levelo_inurba_marseille","lat":43.26686,"lon":5.38279,"is_reserved":false,"is_disabled":false,"rental_uris":{"android":"levelo://app?vid=fa937a1d-7ae6-4967-a7c5-c7cc28b4aeab","ios":"levelo://app?vid=fa937a1d-7ae6-4967-a7c5-c7cc28b4aeab"},"vehicle_type_id":"4","last_reported":1729534350,"current_range_meters":18800,"station_id":"ce4bhg92rcd13ifvqf90","pricing_plan_id":"cebpf4jnsgd1na2vs0mg"},{"bike_id":"96c40228-cad8-46a7-a383-766e2d9929bd","system_id":"levelo_inurba_marseille","lat":43.23183,"lon":5.3999,"is_reserved":false,"is_disabled":false,"rental_uris":{"android":"levelo://app?vid=96c40228-cad8-46a7-a383-766e2d9929bd","ios":"levelo://app?vid=96c40228-cad8-46a7-a383-766e2d9929bd"},"vehicle_type_id":"4","last_reported":1729534350,"current_range_meters":11200,"station_id":"ce4bhn12rcd13ifvqgqg","pricing_plan_id":"cebpf4jnsgd1na2vs0mg"},{"bike_id":"b632ed26-8346-40c4-be06-fea511825228","system_id":"levelo_inurba_marseille","lat":43.27176,"lon":5.40998,"is_reserved":false,"is_disabled":false,"rental_uris":{"android":"levelo://app?vid=b632ed26-8346-40c4-be06-fea511825228","ios":"levelo://app?vid=b632ed26-8346-40c4-be06-fea511825228"},"vehicle_type_id":"4","last_reported":1729534350,"current_range_meters":16400,"station_id":"ce4bhl12rcd13ifvqgf0","pricing_plan_id":"cebpf4jnsgd1na2vs0mg"},{"bike_id":"47475981-d3e4-4136-b942-c083a1c60bf9","system_id":"levelo_inurba_marseille","lat":43.32292,"lon":5.38275,"is_reserved":false,"is_disabled":false,"rental_uris":{"android":"levelo://app?vid=47475981-d3e4-4136-b942-c083a1c60bf9","ios":"levelo://app?vid=47475981-d3e4-4136-b942-c083a1c60bf9"},"vehicle_type_id":"4","last_reported":1729534350,"current_range_meters":8000,"station_id":"ce4bhr12rcd13ifvqhqg","pricing_plan_id":"cebpf4jnsgd1na2vs0mg"},{"bike_id":"88cc328c-e414-49f1-b5e0-8e4527e559b8","system_id":"levelo_inurba_marseille","lat":43.28258,"lon":5.35066,"is_reserved":false,"is_disabled":false,"rental_uris":{"android":"levelo://app?vid=88cc328c-e414-49f1-b5e0-8e4527e559b8","ios":"levelo://app?vid=88cc328c-e414-49f1-b5e0-8e4527e559b8"},"vehicle_type_id":"4","last_reported":1729534350,"current_range_meters":39200,"station_id":"ce4bhbp2rcd13ifvqerg","pricing_plan_id":"cebpf4jnsgd1na2vs0mg"},{"bike_id":"564c4707-55d4-4d28-a767-807b764fa404","system_id":"levelo_inurba_marseille","lat":43.30872,"lon":5.39664,"is_reserved":false,"is_disabled":false,"rental_uris":{"android":"levelo://app?vid=564c4707-55d4-4d28-a767-807b764fa404","ios":"levelo://app?vid=564c4707-55d4-4d28-a767-807b764fa404"},"vehicle_type_id":"4","last_reported":1729534350,"current_range_meters":9600,"station_id":"ce4bh012rcd13ifvqcv0","pricing_plan_id":"cebpf4jnsgd1na2vs0mg"},{"bike_id":"41995a44-7044-4068-a959-0dddc0fc92f7","system_id":"levelo_inurba_marseille","lat":43.29847,"lon":5.36288,"is_reserved":false,"is_disabled":false,"rental_uris":{"android":"levelo://app?vid=41995a44-7044-4068-a959-0dddc0fc92f7","ios":"levelo://app?vid=41995a44-7044-4068-a959-0dddc0fc92f7"},"vehicle_type_id":"4","last_reported":1729534350,"current_range_meters":18000,"station_id":"ce4bgpp2rcd13ifvqc3g","pricing_plan_id":"cebpf4jnsgd1na2vs0mg"},{"bike_id":"e9bee44e-6817-43de-9de1-732c0de586c2","system_id":"levelo_inurba_marseille","lat":43.31183,"lon":5.38723,"is_reserved":false,"is_disabled":false,"rental_uris":{"android":"levelo://app?vid=e9bee44e-6817-43de-9de1-732c0de586c2","ios":"levelo://app?vid=e9bee44e-6817-43de-9de1-732c0de586c2"},"vehicle_type_id":"4","last_reported":1729534350,"current_range_meters":38800,"station_id":"ce4bgv12rcd13ifvqcp0","pricing_plan_id":"cebpf4jnsgd1na2vs0mg"},{"bike_id":"da13b784-14ee-40c7-ab43-87dd47620638","system_id":"levelo_inurba_marseille","lat":43.28614,"lon":5.35111,"is_reserved":false,"is_disabled":false,"rental_uris":{"android":"levelo://app?vid=da13b784-14ee-40c7-ab43-87dd47620638","ios":"levelo://app?vid=da13b784-14ee-40c7-ab43-87dd47620638"},"vehicle_type_id":"4","last_reported":1729534350,"current_range_meters":39200,"station_id":"ce4bhch2rcd13ifvqeug","pricing_plan_id":"cebpf4jnsgd1na2vs0mg"},{"bike_id":"cc3da9ab-95b9-4ed5-8a41-39656755228e","system_id":"levelo_inurba_marseille","lat":43.33025,"lon":5.39045,"is_reserved":false,"is_disabled":false,"rental_uris":{"android":"levelo://app?vid=cc3da9ab-95b9-4ed5-8a41-39656755228e","ios":"levelo://app?vid=cc3da9ab-95b9-4ed5-8a41-39656755228e"},"vehicle_type_id":"4","last_reported":1729534350,"current_range_meters":36800,"station_id":"ce4bhr92rcd13ifvqhrg","pricing_plan_id":"cebpf4jnsgd1na2vs0mg"},{"bike_id":"691f147c-6e9a-4a4e-971c-ad933122022e","system_id":"levelo_inurba_marseille","lat":43.32367,"lon":5.3889,"is_reserved":false,"is_disabled":false,"rental_uris":{"android":"levelo://app?vid=691f147c-6e9a-4a4e-971c-ad933122022e","ios":"levelo://app?vid=691f147c-6e9a-4a4e-971c-ad933122022e"},"vehicle_type_id":"4","last_reported":1729534350,"current_range_meters":17200,"station_id":"ce4bhqp2rcd13ifvqhog","pricing_plan_id":"cebpf4jnsgd1na2vs0mg"},{"bike_id":"ec9d9caf-fbb7-47bf-955e-7878135dd802","system_id":"levelo_inurba_marseille","lat":43.30282,"lon":5.3771,"is_reserved":false,"is_disabled":false,"rental_uris":{"android":"levelo://app?vid=ec9d9caf-fbb7-47bf-955e-7878135dd802","ios":"levelo://app?vid=ec9d9caf-fbb7-47bf-955e-7878135dd802"},"vehicle_type_id":"4","last_reported":1729534350,"current_range_meters":30400,"station_id":"ce4bguh2rcd13ifvqcj0","pricing_plan_id":"cebpf4jnsgd1na2vs0mg"},{"bike_id":"f664508d-c703-410b-8571-546ad2f855e9","system_id":"levelo_inurba_marseille","lat":43.22936,"lon":5.35378,"is_reserved":false,"is_disabled":false,"rental_uris":{"android":"levelo://app?vid=f664508d-c703-410b-8571-546ad2f855e9","ios":"levelo://app?vid=f664508d-c703-410b-8571-546ad2f855e9"},"vehicle_type_id":"4","last_reported":1729534350,"current_range_meters":38000,"station_id":"cpo3532slgdg3j2ikp40","pricing_plan_id":"cebpf4jnsgd1na2vs0mg"},{"bike_id":"6d26a6a1-9b55-4694-a55d-5c20676a3c41","system_id":"levelo_inurba_marseille","lat":43.28859,"lon":5.35854,"is_reserved":false,"is_disabled":false,"rental_uris":{"android":"levelo://app?vid=6d26a6a1-9b55-4694-a55d-5c20676a3c41","ios":"levelo://app?vid=6d26a6a1-9b55-4694-a55d-5c20676a3c41"},"vehicle_type_id":"4","last_reported":1729534350,"current_range_meters":2800,"station_id":"ce4bhb12rcd13ifvqem0","pricing_plan_id":"cebpf4jnsgd1na2vs0mg"},{"bike_id":"8c642f24-9b03-4c01-9ecb-6a52d16d59e1","system_id":"levelo_inurba_marseille","lat":43.2857,"lon":5.39498,"is_reserved":false,"is_disabled":false,"rental_uris":{"android":"levelo://app?vid=8c642f24-9b03-4c01-9ecb-6a52d16d59e1","ios":"levelo://app?vid=8c642f24-9b03-4c01-9ecb-6a52d16d59e1"},"vehicle_type_id":"4","last_reported":1729534350,"current_range_meters":36800,"station_id":"ce4bh292rcd13ifvqdg0","pricing_plan_id":"cebpf4jnsgd1na2vs0mg"},{"bike_id":"8dc36a9a-634d-4c62-ac49-9a4ab952e295","system_id":"levelo_inurba_marseille","lat":43.28061,"lon":5.40993,"is_reserved":false,"is_disabled":false,"rental_uris":{"android":"levelo://app?vid=8dc36a9a-634d-4c62-ac49-9a4ab952e295","ios":"levelo://app?vid=8dc36a9a-634d-4c62-ac49-9a4ab952e295"},"vehicle_type_id":"4","last_reported":1729534350,"current_range_meters":30800,"station_id":"","pricing_plan_id":"cebpf4jnsgd1na2vs0mg"},{"bike_id":"4b4fdac0-3b2c-4a78-b195-c2e42dd98038","system_id":"levelo_inurba_marseille","lat":43.30533,"lon":5.36727,"is_reserved":false,"is_disabled":false,"rental_uris":{"android":"levelo://app?vid=4b4fdac0-3b2c-4a78-b195-c2e42dd98038","ios":"levelo://app?vid=4b4fdac0-3b2c-4a78-b195-c2e42dd98038"},"vehicle_type_id":"4","last_reported":1729534350,"current_range_meters":6400,"station_id":"ce4bgrp2rcd13ifvqc9g","pricing_plan_id":"cebpf4jnsgd1na2vs0mg"},{"bike_id":"b458ed87-b0d8-499a-86e4-35f723896e2d","system_id":"levelo_inurba_marseille","lat":43.31319,"lon":5.39701,"is_reserved":false,"is_disabled":false,"rental_uris":{"android":"levelo://app?vid=b458ed87-b0d8-499a-86e4-35f723896e2d","ios":"levelo://app?vid=b458ed87-b0d8-499a-86e4-35f723896e2d"},"vehicle_type_id":"4","last_reported":1729534350,"current_range_meters":22400,"station_id":"ce4bgvp2rcd13ifvqcu0","pricing_plan_id":"cebpf4jnsgd1na2vs0mg"},{"bike_id":"51533d54-fcbb-4316-97b0-26cfc3f80d54","system_id":"levelo_inurba_marseille","lat":43.27501,"lon":5.42446,"is_reserved":false,"is_disabled":false,"rental_uris":{"android":"levelo://app?vid=51533d54-fcbb-4316-97b0-26cfc3f80d54","ios":"levelo://app?vid=51533d54-fcbb-4316-97b0-26cfc3f80d54"},"vehicle_type_id":"4","last_reported":1729534350,"current_range_meters":29600,"station_id":"ce4bhn92rcd13ifvqgrg","pricing_plan_id":"cebpf4jnsgd1na2vs0mg"},{"bike_id":"d72cb93d-1da1-456c-878c-733cd79211d5","system_id":"levelo_inurba_marseille","lat":43.3116,"lon":5.38731,"is_reserved":false,"is_disabled":false,"rental_uris":{"android":"levelo://app?vid=d72cb93d-1da1-456c-878c-733cd79211d5","ios":"levelo://app?vid=d72cb93d-1da1-456c-878c-733cd79211d5"},"vehicle_type_id":"4","last_reported":1729534350,"current_range_meters":8800,"station_id":"ce4bgv12rcd13ifvqcp0","pricing_plan_id":"cebpf4jnsgd1na2vs0mg"},{"bike_id":"b259fd9e-20cd-4ec4-96c3-b8cae166aff0","system_id":"levelo_inurba_marseille","lat":43.26492,"lon":5.3954,"is_reserved":false,"is_disabled":false,"rental_uris":{"android":"levelo://app?vid=b259fd9e-20cd-4ec4-96c3-b8cae166aff0","ios":"levelo://app?vid=b259fd9e-20cd-4ec4-96c3-b8cae166aff0"},"vehicle_type_id":"4","last_reported":1729534350,"current_range_meters":6800,"station_id":"ce4bhi12rcd13ifvqfq0","pricing_plan_id":"cebpf4jnsgd1na2vs0mg"},{"bike_id":"41495a87-6705-4a2e-83a6-865dc00096da","system_id":"levelo_inurba_marseille","lat":43.29975,"lon":5.37184,"is_reserved":false,"is_disabled":false,"rental_uris":{"android":"levelo://app?vid=41495a87-6705-4a2e-83a6-865dc00096da","ios":"levelo://app?vid=41495a87-6705-4a2e-83a6-865dc00096da"},"vehicle_type_id":"4","last_reported":1729534350,"current_range_meters":6800,"station_id":"ce4bgr92rcd13ifvqc7g","pricing_plan_id":"cebpf4jnsgd1na2vs0mg"},{"bike_id":"723c448c-f4f6-4e10-9599-a891eb37bc4d","system_id":"levelo_inurba_marseille","lat":43.28471,"lon":5.39234,"is_reserved":false,"is_disabled":false,"rental_uris":{"android":"levelo://app?vid=723c448c-f4f6-4e10-9599-a891eb37bc4d","ios":"levelo://app?vid=723c448c-f4f6-4e10-9599-a891eb37bc4d"},"vehicle_type_id":"4","last_reported":1729534350,"current_range_meters":29600,"station_id":"ce4bhoh2rcd13ifvqh5g","pricing_plan_id":"cebpf4jnsgd1na2vs0mg"},{"bike_id":"7e1c42f9-e43a-48d9-90a8-484205f9e644","system_id":"levelo_inurba_marseille","lat":43.29603,"lon":5.38108,"is_reserved":false,"is_disabled":false,"rental_uris":{"android":"levelo://app?vid=7e1c42f9-e43a-48d9-90a8-484205f9e644","ios":"levelo://app?vid=7e1c42f9-e43a-48d9-90a8-484205f9e644"},"vehicle_type_id":"4","last_reported":1729534350,"current_range_meters":25600,"station_id":"ce4bgl12rcd13ifvqbo0","pricing_plan_id":"cebpf4jnsgd1na2vs0mg"},{"bike_id":"c8c6f31c-c363-44fd-a17b-46c0173fa0a2","system_id":"levelo_inurba_marseille","lat":43.25111,"lon":5.40344,"is_reserved":false,"is_disabled":false,"rental_uris":{"android":"levelo://app?vid=c8c6f31c-c363-44fd-a17b-46c0173fa0a2","ios":"levelo://app?vid=c8c6f31c-c363-44fd-a17b-46c0173fa0a2"},"vehicle_type_id":"4","last_reported":1729534350,"current_range_meters":16800,"station_id":"ce4bhlh2rcd13ifvqgig","pricing_plan_id":"cebpf4jnsgd1na2vs0mg"},{"bike_id":"10aa8f6d-3adf-4422-8cd4-9c945439a501","system_id":"levelo_inurba_marseille","lat":43.2955,"lon":5.42282,"is_reserved":false,"is_disabled":false,"rental_uris":{"android":"levelo://app?vid=10aa8f6d-3adf-4422-8cd4-9c945439a501","ios":"levelo://app?vid=10aa8f6d-3adf-4422-8cd4-9c945439a501"},"vehicle_type_id":"4","last_reported":1729534350,"current_range_meters":36400,"station_id":"ce4bhph2rcd13ifvqhdg","pricing_plan_id":"cebpf4jnsgd1na2vs0mg"},{"bike_id":"b5bb4d9c-2234-45e1-b0e1-a7c6fb90fc0a","system_id":"levelo_inurba_marseille","lat":43.22937,"lon":5.35381,"is_reserved":false,"is_disabled":false,"rental_uris":{"android":"levelo://app?vid=b5bb4d9c-2234-45e1-b0e1-a7c6fb90fc0a","ios":"levelo://app?vid=b5bb4d9c-2234-45e1-b0e1-a7c6fb90fc0a"},"vehicle_type_id":"4","last_reported":1729534350,"current_range_meters":36000,"station_id":"cpo3532slgdg3j2ikp40","pricing_plan_id":"cebpf4jnsgd1na2vs0mg"},{"bike_id":"7240445a-2278-438f-bf4b-f5527e87eb86","system_id":"levelo_inurba_marseille","lat":43.30253,"lon":5.4007,"is_reserved":false,"is_disabled":false,"rental_uris":{"android":"levelo://app?vid=7240445a-2278-438f-bf4b-f5527e87eb86","ios":"levelo://app?vid=7240445a-2278-438f-bf4b-f5527e87eb86"},"vehicle_type_id":"4","last_reported":1729534350,"current_range_meters":6400,"station_id":"ce4bgvh2rcd13ifvqcs0","pricing_plan_id":"cebpf4jnsgd1na2vs0mg"},{"bike_id":"3dc145fb-ca62-4be4-9774-122d5bfd3a33","system_id":"levelo_inurba_marseille","lat":43.28399,"lon":5.37527,"is_reserved":false,"is_disabled":false,"rental_uris":{"android":"levelo://app?vid=3dc145fb-ca62-4be4-9774-122d5bfd3a33","ios":"levelo://app?vid=3dc145fb-ca62-4be4-9774-122d5bfd3a33"},"vehicle_type_id":"4","last_reported":1729534350,"current_range_meters":8400,"station_id":"ce4bh412rcd13ifvqds0","pricing_plan_id":"cebpf4jnsgd1na2vs0mg"},{"bike_id":"1fe260c5-cdf7-4bba-9a6b-a7213c33e535","system_id":"levelo_inurba_marseille","lat":43.2978,"lon":5.40421,"is_reserved":false,"is_disabled":false,"rental_uris":{"android":"levelo://app?vid=1fe260c5-cdf7-4bba-9a6b-a7213c33e535","ios":"levelo://app?vid=1fe260c5-cdf7-4bba-9a6b-a7213c33e535"},"vehicle_type_id":"4","last_reported":1729534350,"current_range_meters":39200,"station_id":"ce4bh112rcd13ifvqd90","pricing_plan_id":"cebpf4jnsgd1na2vs0mg"},{"bike_id":"6a00a42b-91fe-4df1-980c-29d47d73a79f","system_id":"levelo_inurba_marseille","lat":43.265,"lon":5.39544,"is_reserved":false,"is_disabled":false,"rental_uris":{"android":"levelo://app?vid=6a00a42b-91fe-4df1-980c-29d47d73a79f","ios":"levelo://app?vid=6a00a42b-91fe-4df1-980c-29d47d73a79f"},"vehicle_type_id":"4","last_reported":1729534350,"current_range_meters":8800,"station_id":"ce4bhi12rcd13ifvqfq0","pricing_plan_id":"cebpf4jnsgd1na2vs0mg"},{"bike_id":"6ceb7dc2-af01-43e0-aad2-a8463c34d324","system_id":"levelo_inurba_marseille","lat":43.23963,"lon":5.36628,"is_reserved":false,"is_disabled":false,"rental_uris":{"android":"levelo://app?vid=6ceb7dc2-af01-43e0-aad2-a8463c34d324","ios":"levelo://app?vid=6ceb7dc2-af01-43e0-aad2-a8463c34d324"},"vehicle_type_id":"4","last_reported":1729534350,"current_range_meters":26000,"station_id":"ce4bhi12rcd13ifvqfp0","pricing_plan_id":"cebpf4jnsgd1na2vs0mg"},{"bike_id":"d040e944-4698-4113-89ce-b3dca304abe8","system_id":"levelo_inurba_marseille","lat":43.31171,"lon":5.38809,"is_reserved":false,"is_disabled":false,"rental_uris":{"android":"levelo://app?vid=d040e944-4698-4113-89ce-b3dca304abe8","ios":"levelo://app?vid=d040e944-4698-4113-89ce-b3dca304abe8"},"vehicle_type_id":"4","last_reported":1729534350,"current_range_meters":17200,"station_id":"ce4bgt92rcd13ifvqcf0","pricing_plan_id":"cebpf4jnsgd1na2vs0mg"},{"bike_id":"3fd1d478-f523-46f0-8c1d-5035b1bf1f37","system_id":"levelo_inurba_marseille","lat":43.27984,"lon":5.38747,"is_reserved":false,"is_disabled":false,"rental_uris":{"android":"levelo://app?vid=3fd1d478-f523-46f0-8c1d-5035b1bf1f37","ios":"levelo://app?vid=3fd1d478-f523-46f0-8c1d-5035b1bf1f37"},"vehicle_type_id":"4","last_reported":1729534350,"current_range_meters":30800,"station_id":"ce4bhg12rcd13ifvqf80","pricing_plan_id":"cebpf4jnsgd1na2vs0mg"},{"bike_id":"b08e8462-5dfd-45c6-b853-248806196a56","system_id":"levelo_inurba_marseille","lat":43.28617,"lon":5.35106,"is_reserved":false,"is_disabled":false,"rental_uris":{"android":"levelo://app?vid=b08e8462-5dfd-45c6-b853-248806196a56","ios":"levelo://app?vid=b08e8462-5dfd-45c6-b853-248806196a56"},"vehicle_type_id":"4","last_reported":1729534350,"current_range_meters":26800,"station_id":"ce4bhch2rcd13ifvqeug","pricing_plan_id":"cebpf4jnsgd1na2vs0mg"},{"bike_id":"765bf301-0334-49dc-a699-1e805718bf01","system_id":"levelo_inurba_marseille","lat":43.273213,"lon":5.390731,"is_reserved":false,"is_disabled":false,"rental_uris":{"android":"levelo://app?vid=765bf301-0334-49dc-a699-1e805718bf01","ios":"levelo://app?vid=765bf301-0334-49dc-a699-1e805718bf01"},"vehicle_type_id":"4","last_reported":1729534350,"current_range_meters":39200,"station_id":"ce4bhgp2rcd13ifvqfe0","pricing_plan_id":"cebpf4jnsgd1na2vs0mg"},{"bike_id":"f4d08029-4e0a-4042-8b5f-715133bc3373","system_id":"levelo_inurba_marseille","lat":43.3199,"lon":5.38169,"is_reserved":false,"is_disabled":false,"rental_uris":{"android":"levelo://app?vid=f4d08029-4e0a-4042-8b5f-715133bc3373","ios":"levelo://app?vid=f4d08029-4e0a-4042-8b5f-715133bc3373"},"vehicle_type_id":"4","last_reported":1729534350,"current_range_meters":34800,"station_id":"ce4bhr12rcd13ifvqhpg","pricing_plan_id":"cebpf4jnsgd1na2vs0mg"},{"bike_id":"c6c87f50-4840-45ad-b87f-2c65dd29df90","system_id":"levelo_inurba_marseille","lat":43.2851,"lon":5.38291,"is_reserved":false,"is_disabled":false,"rental_uris":{"android":"levelo://app?vid=c6c87f50-4840-45ad-b87f-2c65dd29df90","ios":"levelo://app?vid=c6c87f50-4840-45ad-b87f-2c65dd29df90"},"vehicle_type_id":"4","last_reported":1729534350,"current_range_meters":4400,"station_id":"ce4bh2h2rcd13ifvqdh0","pricing_plan_id":"cebpf4jnsgd1na2vs0mg"},{"bike_id":"9871ad8b-6fe7-4d97-960a-7e89e674c218","system_id":"levelo_inurba_marseille","lat":43.31071,"lon":5.40115,"is_reserved":false,"is_disabled":false,"rental_uris":{"android":"levelo://app?vid=9871ad8b-6fe7-4d97-960a-7e89e674c218","ios":"levelo://app?vid=9871ad8b-6fe7-4d97-960a-7e89e674c218"},"vehicle_type_id":"4","last_reported":1729534350,"current_range_meters":24400,"station_id":"","pricing_plan_id":"cebpf4jnsgd1na2vs0mg"},{"bike_id":"ea5b6add-9e37-4eb5-b005-df0e92c7e769","system_id":"levelo_inurba_marseille","lat":43.28697,"lon":5.39983,"is_reserved":false,"is_disabled":false,"rental_uris":{"android":"levelo://app?vid=ea5b6add-9e37-4eb5-b005-df0e92c7e769","ios":"levelo://app?vid=ea5b6add-9e37-4eb5-b005-df0e92c7e769"},"vehicle_type_id":"4","last_reported":1729534350,"current_range_meters":25600,"station_id":"ce4bho92rcd13ifvqh3g","pricing_plan_id":"cebpf4jnsgd1na2vs0mg"},{"bike_id":"e7c085e4-4838-40cf-a61f-449a3d9ae68c","system_id":"levelo_inurba_marseille","lat":43.32483,"lon":5.36568,"is_reserved":false,"is_disabled":false,"rental_uris":{"android":"levelo://app?vid=e7c085e4-4838-40cf-a61f-449a3d9ae68c","ios":"levelo://app?vid=e7c085e4-4838-40cf-a61f-449a3d9ae68c"},"vehicle_type_id":"4","last_reported":1729534350,"current_range_meters":7200,"station_id":"ce4bhs12rcd13ifvqhvg","pricing_plan_id":"cebpf4jnsgd1na2vs0mg"},{"bike_id":"ba5dec65-de41-4919-aa39-857422552e19","system_id":"levelo_inurba_marseille","lat":43.29099,"lon":5.38143,"is_reserved":false,"is_disabled":false,"rental_uris":{"android":"levelo://app?vid=ba5dec65-de41-4919-aa39-857422552e19","ios":"levelo://app?vid=ba5dec65-de41-4919-aa39-857422552e19"},"vehicle_type_id":"4","last_reported":1729534350,"current_range_meters":36000,"station_id":"ce4bh512rcd13ifvqe2g","pricing_plan_id":"cebpf4jnsgd1na2vs0mg"},{"bike_id":"e97cf8c2-3b79-4536-aacb-a921f84eaecf","system_id":"levelo_inurba_marseille","lat":43.25119,"lon":5.40322,"is_reserved":false,"is_disabled":false,"rental_uris":{"android":"levelo://app?vid=e97cf8c2-3b79-4536-aacb-a921f84eaecf","ios":"levelo://app?vid=e97cf8c2-3b79-4536-aacb-a921f84eaecf"},"vehicle_type_id":"4","last_reported":1729534350,"current_range_meters":36800,"station_id":"ce4bhlh2rcd13ifvqgig","pricing_plan_id":"cebpf4jnsgd1na2vs0mg"},{"bike_id":"a427dac6-ef78-4d1f-ae00-4dba178d515f","system_id":"levelo_inurba_marseille","lat":43.28403,"lon":5.37522,"is_reserved":false,"is_disabled":false,"rental_uris":{"android":"levelo://app?vid=a427dac6-ef78-4d1f-ae00-4dba178d515f","ios":"levelo://app?vid=a427dac6-ef78-4d1f-ae00-4dba178d515f"},"vehicle_type_id":"4","last_reported":1729534350,"current_range_meters":14800,"station_id":"ce4bh412rcd13ifvqds0","pricing_plan_id":"cebpf4jnsgd1na2vs0mg"},{"bike_id":"8f34059e-2555-4270-a53f-3ab8a36400bf","system_id":"levelo_inurba_marseille","lat":43.31724,"lon":5.42397,"is_reserved":false,"is_disabled":false,"rental_uris":{"android":"levelo://app?vid=8f34059e-2555-4270-a53f-3ab8a36400bf","ios":"levelo://app?vid=8f34059e-2555-4270-a53f-3ab8a36400bf"},"vehicle_type_id":"4","last_reported":1729534350,"current_range_meters":3600,"station_id":"ce4bhp92rcd13ifvqhbg","pricing_plan_id":"cebpf4jnsgd1na2vs0mg"},{"bike_id":"73245fa1-0a7e-48e5-adec-5d48d7d77c1f","system_id":"levelo_inurba_marseille","lat":43.24165,"lon":5.36389,"is_reserved":false,"is_disabled":false,"rental_uris":{"android":"levelo://app?vid=73245fa1-0a7e-48e5-adec-5d48d7d77c1f","ios":"levelo://app?vid=73245fa1-0a7e-48e5-adec-5d48d7d77c1f"},"vehicle_type_id":"4","last_reported":1729534350,"current_range_meters":11600,"station_id":"cpo36qri1sfpv3e86is0","pricing_plan_id":"cebpf4jnsgd1na2vs0mg"},{"bike_id":"7f024041-ccb9-4134-b263-3ee324236402","system_id":"levelo_inurba_marseille","lat":43.30328,"lon":5.40439,"is_reserved":false,"is_disabled":false,"rental_uris":{"android":"levelo://app?vid=7f024041-ccb9-4134-b263-3ee324236402","ios":"levelo://app?vid=7f024041-ccb9-4134-b263-3ee324236402"},"vehicle_type_id":"4","last_reported":1729534350,"current_range_meters":38800,"station_id":"ce4bh012rcd13ifvqd10","pricing_plan_id":"cebpf4jnsgd1na2vs0mg"},{"bike_id":"45fce1f3-dec3-4789-a477-d63dec132e29","system_id":"levelo_inurba_marseille","lat":43.27176,"lon":5.40999,"is_reserved":false,"is_disabled":false,"rental_uris":{"android":"levelo://app?vid=45fce1f3-dec3-4789-a477-d63dec132e29","ios":"levelo://app?vid=45fce1f3-dec3-4789-a477-d63dec132e29"},"vehicle_type_id":"4","last_reported":1729534350,"current_range_meters":31200,"station_id":"ce4bhl12rcd13ifvqgf0","pricing_plan_id":"cebpf4jnsgd1na2vs0mg"},{"bike_id":"720e55da-6f2f-41f2-b3f7-04b4dfd6a596","system_id":"levelo_inurba_marseille","lat":43.31675,"lon":5.37422,"is_reserved":false,"is_disabled":false,"rental_uris":{"android":"levelo://app?vid=720e55da-6f2f-41f2-b3f7-04b4dfd6a596","ios":"levelo://app?vid=720e55da-6f2f-41f2-b3f7-04b4dfd6a596"},"vehicle_type_id":"4","last_reported":1729534350,"current_range_meters":26800,"station_id":"ce4bgt12rcd13ifvqcd0","pricing_plan_id":"cebpf4jnsgd1na2vs0mg"},