{"last_updated":1747685470,"ttl":60,"version":"2.2","data":{"bikes":[{"bike_id":"38d43936-3f25-44b1-bc40-f0748f1c81bb","system_id":"levelo_inurba_marseille","lat":43.23314,"lon":5.3616,"is_reserved":false,"is_disabled":false,"rental_uris":{"android":"levelo://app?vid=38d43936-3f25-44b1-bc40-f0748f1c81bb","ios":"levelo://app?vid=38d43936-3f25-44b1-bc40-f0748f1c81bb"},"vehicle_type_id":"4","last_reported":1747685470,"current_range_meters":2800,"station_id":"","pricing_plan_id":"cebpf4jnsgd1na2vs0mg"},{"bike_id":"87dddb43-e14d-4211-a2c5-e788c5296776","system_id":"levelo_inurba_marseille","lat":43.21797,"lon":5.34589,"is_reserved":false,"is_disabled":false,"rental_uris":{"android":"levelo://app?vid=87dddb43-e14d-4211-a2c5-e788c5296776","ios":"levelo://app?vid=87dddb43-e14d-4211-a2c5-e788c5296776"},"vehicle_type_id":"4","last_reported":1747685470,"current_range_meters":2800,"station_id":"","pricing_plan_id":"cebpf4jnsgd1na2vs0mg"},{"bike_id":"bb2ca73b-7727-43d8-b1cb-dc5354c4d53e","system_id":"levelo_inurba_marseille","lat":43.31383,"lon":5.40284,"is_reserved":false,"is_disabled":false,"rental_uris":{"android":"levelo://app?vid=bb2ca73b-7727-43d8-b1cb-dc5354c4d53e","ios":"levelo://app?vid=bb2ca73b-7727-43d8-b1cb-dc5354c4d53e"},"vehicle_type_id":"4","last_reported":1747685470,"current_range_meters":0,"station_id":"","pricing_plan_id":"cebpf4jnsgd1na2vs0mg"},{"bike_id":"25efd7d8-fd8b-4c49-b03c-fe55321b94d4","system_id":"levelo_inurba_marseille","lat":43.30933,"lon":5.37277,"is_reserved":false,"is_disabled":false,"rental_uris":{"android":"levelo://app?vid=25efd7d8-fd8b-4c49-b03c-fe55321b94d4","ios":"levelo://app?vid=25efd7d8-fd8b-4c49-b03c-fe55321b94d4"},"vehicle_type_id":"4","last_reported":1747685470,"current_range_meters":3200,"station_id":"","pricing_plan_id":"cebpf4jnsgd1na2vs0mg"},{"bike_id":"d7cbc34d-07f1-4f10-b826-19cdee03a99f","system_id":"levelo_inurba_marseille","lat":43.30917,"lon":5.40149,"is_reserved":false,"is_disabled":false,"rental_uris":{"android":"levelo://app?vid=d7cbc34d-07f1-4f10-b826-19cdee03a99f","ios":"levelo://app?vid=d7cbc34d-07f1-4f10-b826-19cdee03a99f"},"vehicle_type_id":"4","last_reported":1747685470,"current_range_meters":3200,"station_id":"ce4bgvp2rcd13ifvqct0","pricing_plan_id":"cebpf4jnsgd1na2vs0mg"},{"bike_id":"14603e41-b2dd-4757-a53c-2e366aa4f983","system_id":"levelo_inurba_marseille","lat":43.269985,"lon":5.428286,"is_reserved":false,"is_disabled":false,"rental_uris":{"android":"levelo://app?vid=14603e41-b2dd-4757-a53c-2e366aa4f983","ios":"levelo://app?vid=14603e41-b2dd-4757-a53c-2e366aa4f983"},"vehicle_type_id":"4","last_reported":1747685470,"current_range_meters":3600,"station_id":"","pricing_plan_id":"cebpf4jnsgd1na2vs0mg"},{"bike_id":"4a7c87b3-e99c-44c4-be80-d0492d05ce0e","system_id":"levelo_inurba_marseille","lat":43.30427,"lon":5.3889,"is_reserved":false,"is_disabled":false,"rental_uris":{"android":"levelo://app?vid=4a7c87b3-e99c-44c4-be80-d0492d05ce0e","ios":"levelo://app?vid=4a7c87b3-e99c-44c4-be80-d0492d05ce0e"},"vehicle_type_id":"4","last_reported":1747685470,"current_range_meters":4000,"station_id":"ce4bgk12rcd13ifvqbi0","pricing_plan_id":"cebpf4jnsgd1na2vs0mg"},{"bike_id":"f87f0718-825a-458d-8109-624a317b893b","system_id":"levelo_inurba_marseille","lat":43.30937,"lon":5.40142,"is_reserved":false,"is_disabled":false,"rental_uris":{"android":"levelo://app?vid=f87f0718-825a-458d-8109-624a317b893b","ios":"levelo://app?vid=f87f0718-825a-458d-8109-624a317b893b"},"vehicle_type_id":"4","last_reported":1747685470,"current_range_meters":4000,"station_id":"ce4bgvp2rcd13ifvqct0","pricing_plan_id":"cebpf4jnsgd1na2vs0mg"},{"bike_id":"2eab994d-a378-4391-894b-b62d11a34041","system_id":"levelo_inurba_marseille","lat":43.231504,"lon":5.437064,"is_reserved":false,"is_disabled":true,"rental_uris":{"android":"levelo://app?vid=2eab994d-a378-4391-894b-b62d11a34041","ios":"levelo://app?vid=2eab994d-a378-4391-894b-b62d11a34041"},"vehicle_type_id":"4","last_reported":1747685470,"current_range_meters":4400,"station_id":"ce4bhmp2rcd13ifvqgog","pricing_plan_id":"cebpf4jnsgd1na2vs0mg"},{"bike_id":"edf8bd92-ad8d-4019-bd46-1a5bf7a7a232","system_id":"levelo_inurba_marseille","lat":43.295985,"lon":5.380963,"is_reserved":false,"is_disabled":false,"rental_uris":{"android":"levelo://app?vid=edf8bd92-ad8d-4019-bd46-1a5bf7a7a232","ios":"levelo://app?vid=edf8bd92-ad8d-4019-bd46-1a5bf7a7a232"},"vehicle_type_id":"4","last_reported":1747685470,"current_range_meters":4400,"station_id":"ce4bhh12rcd13ifvqfg0","pricing_plan_id":"cebpf4jnsgd1na2vs0mg"},{"bike_id":"f3b8cdd5-26a7-4bea-a9e4-a32323dd8d3c","system_id":"levelo_inurba_marseille","lat":43.27821,"lon":5.4069,"is_reserved":false,"is_disabled":false,"rental_uris":{"android":"levelo://app?vid=f3b8cdd5-26a7-4bea-a9e4-a32323dd8d3c","ios":"levelo://app?vid=f3b8cdd5-26a7-4bea-a9e4-a32323dd8d3c"},"vehicle_type_id":"4","last_reported":1747685470,"current_range_meters":4400,"station_id":"ce4bhnh2rcd13ifvqgtg","pricing_plan_id":"cebpf4jnsgd1na2vs0mg"},{"bike_id":"9d2fd260-accb-4169-b46a-79fa91fbece8","system_id":"levelo_inurba_marseille","lat":43.30904,"lon":5.368574,"is_reserved":false,"is_disabled":true,"rental_uris":{"android":"levelo://app?vid=9d2fd260-accb-4169-b46a-79fa91fbece8","ios":"levelo://app?vid=9d2fd260-accb-4169-b46a-79fa91fbece8"},"vehicle_type_id":"4","last_reported":1747685470,"current_range_meters":4800,"station_id":"ce4bgn92rcd13ifvqbvg","pricing_plan_id":"cebpf4jnsgd1na2vs0mg"},{"bike_id":"afb6a1c2-854e-4666-ab58-f3fec34dd7a4","system_id":"levelo_inurba_marseille","lat":43.26551,"lon":5.37287,"is_reserved":false,"is_disabled":false,"rental_uris":{"android":"levelo://app?vid=afb6a1c2-854e-4666-ab58-f3fec34dd7a4","ios":"levelo://app?vid=afb6a1c2-854e-4666-ab58-f3fec34dd7a4"},"vehicle_type_id":"4","last_reported":1747685470,"current_range_meters":5600,"station_id":"ce4bhg12rcd13ifvqf70","pricing_plan_id":"cebpf4jnsgd1na2vs0mg"},{"bike_id":"a1858bec-9d32-4083-b5dc-296db4ce9062","system_id":"levelo_inurba_marseille","lat":43.30326,"lon":5.40431,"is_reserved":false,"is_disabled":false,"rental_uris":{"android":"levelo://app?vid=a1858bec-9d32-4083-b5dc-296db4ce9062","ios":"levelo://app?vid=a1858bec-9d32-4083-b5dc-296db4ce9062"},"vehicle_type_id":"4","last_reported":1747685470,"current_range_meters":5600,"station_id":"ce4bh012rcd13ifvqd10","pricing_plan_id":"cebpf4jnsgd1na2vs0mg"},{"bike_id":"787d7d9a-590d-4f02-a0b4-e85d2f7f6d12","system_id":"levelo_inurba_marseille","lat":43.24085,"lon":5.37734,"is_reserved":false,"is_disabled":false,"rental_uris":{"android":"levelo://app?vid=787d7d9a-590d-4f02-a0b4-e85d2f7f6d12","ios":"levelo://app?vid=787d7d9a-590d-4f02-a0b4-e85d2f7f6d12"},"vehicle_type_id":"4","last_reported":1747685470,"current_range_meters":6000,"station_id":"ce4bhnp2rcd13ifvqgvg","pricing_plan_id":"cebpf4jnsgd1na2vs0mg"},{"bike_id":"8968876f-ee68-47ae-b85d-ccccff310145","system_id":"levelo_inurba_marseille","lat":43.31711,"lon":5.43703,"is_reserved":false,"is_disabled":false,"rental_uris":{"android":"levelo://app?vid=8968876f-ee68-47ae-b85d-ccccff310145","ios":"levelo://app?vid=8968876f-ee68-47ae-b85d-ccccff310145"},"vehicle_type_id":"4","last_reported":1747685470,"current_range_meters":6000,"station_id":"ce4bhp92rcd13ifvqhcg","pricing_plan_id":"cebpf4jnsgd1na2vs0mg"},{"bike_id":"d6830546-868a-4b1c-a206-7f7621741ee5","system_id":"levelo_inurba_marseille","lat":43.30436,"lon":5.38876,"is_reserved":false,"is_disabled":false,"rental_uris":{"android":"levelo://app?vid=d6830546-868a-4b1c-a206-7f7621741ee5","ios":"levelo://app?vid=d6830546-868a-4b1c-a206-7f7621741ee5"},"vehicle_type_id":"4","last_reported":1747685470,"current_range_meters":6000,"station_id":"ce4bgk12rcd13ifvqbi0","pricing_plan_id":"cebpf4jnsgd1na2vs0mg"},{"bike_id":"d03cf0f7-3897-4bb6-8d3e-077b5c7b8f0b","system_id":"levelo_inurba_marseille","lat":43.23959,"lon":5.36636,"is_reserved":false,"is_disabled":false,"rental_uris":{"android":"levelo://app?vid=d03cf0f7-3897-4bb6-8d3e-077b5c7b8f0b","ios":"levelo://app?vid=d03cf0f7-3897-4bb6-8d3e-077b5c7b8f0b"},"vehicle_type_id":"4","last_reported":1747685470,"current_range_meters":6000,"station_id":"ce4bhi12rcd13ifvqfp0","pricing_plan_id":"cebpf4jnsgd1na2vs0mg"},{"bike_id":"f00e4c85-4b74-4b78-914c-e4ecaf8cbdf9","system_id":"levelo_inurba_marseille","lat":43.275013,"lon":5.424519,"is_reserved":false,"is_disabled":false,"rental_uris":{"android":"levelo://app?vid=f00e4c85-4b74-4b78-914c-e4ecaf8cbdf9","ios":"levelo://app?vid=f00e4c85-4b74-4b78-914c-e4ecaf8cbdf9"},"vehicle_type_id":"4","last_reported":1747685470,"current_range_meters":6000,"station_id":"ce4bhn92rcd13ifvqgrg","pricing_plan_id":"cebpf4jnsgd1na2vs0mg"},{"bike_id":"1b136d29-9e9c-4723-8b83-b409e818f7bf","system_id":"levelo_inurba_marseille","lat":43.21208,"lon":5.35066,"is_reserved":false,"is_disabled":false,"rental_uris":{"android":"levelo://app?vid=1b136d29-9e9c-4723-8b83-b409e818f7bf","ios":"levelo://app?vid=1b136d29-9e9c-4723-8b83-b409e818f7bf"},"vehicle_type_id":"4","last_reported":1747685470,"current_range_meters":6400,"station_id":"st_cvj6sg6p6f1abm77japg","pricing_plan_id":"cebpf4jnsgd1na2vs0mg"},{"bike_id":"a5069c23-eea7-40f4-9d9a-11b963aa48ad","system_id":"levelo_inurba_marseille","lat":43.2318,"lon":5.39977,"is_reserved":false,"is_disabled":false,"rental_uris":{"android":"levelo://app?vid=a5069c23-eea7-40f4-9d9a-11b963aa48ad","ios":"levelo://app?vid=a5069c23-eea7-40f4-9d9a-11b963aa48ad"},"vehicle_type_id":"4","last_reported":1747685470,"current_range_meters":6400,"station_id":"ce4bhn12rcd13ifvqgqg","pricing_plan_id":"cebpf4jnsgd1na2vs0mg"},{"bike_id":"b9e0fde5-77d3-4d2b-95fb-da45d8e7bd62","system_id":"levelo_inurba_marseille","lat":43.25137,"lon":5.40296,"is_reserved":false,"is_disabled":false,"rental_uris":{"android":"levelo://app?vid=b9e0fde5-77d3-4d2b-95fb-da45d8e7bd62","ios":"levelo://app?vid=b9e0fde5-77d3-4d2b-95fb-da45d8e7bd62"},"vehicle_type_id":"4","last_reported":1747685470,"current_range_meters":6400,"station_id":"ce4bhlh2rcd13ifvqgig","pricing_plan_id":"cebpf4jnsgd1na2vs0mg"},{"bike_id":"6ffaefd9-71a4-4504-9735-11ddd80fd6fd","system_id":"levelo_inurba_marseille","lat":43.30883,"lon":5.39647,"is_reserved":false,"is_disabled":false,"rental_uris":{"android":"levelo://app?vid=6ffaefd9-71a4-4504-9735-11ddd80fd6fd","ios":"levelo://app?vid=6ffaefd9-71a4-4504-9735-11ddd80fd6fd"},"vehicle_type_id":"4","last_reported":1747685470,"current_range_meters":6400,"station_id":"ce4bh012rcd13ifvqcv0","pricing_plan_id":"cebpf4jnsgd1na2vs0mg"},{"bike_id":"08f3c079-0fbe-4a09-866e-5d3592e88283","system_id":"levelo_inurba_marseille","lat":43.309303,"lon":5.401378,"is_reserved":false,"is_disabled":false,"rental_uris":{"android":"levelo://app?vid=08f3c079-0fbe-4a09-866e-5d3592e88283","ios":"levelo://app?vid=08f3c079-0fbe-4a09-866e-5d3592e88283"},"vehicle_type_id":"4","last_reported":1747685470,"current_range_meters":6400,"station_id":"ce4bgvp2rcd13ifvqct0","pricing_plan_id":"cebpf4jnsgd1na2vs0mg"},{"bike_id":"0959ff5e-5955-4215-8723-80a097bacc26","system_id":"levelo_inurba_marseille","lat":43.27816,"lon":5.40721,"is_reserved":false,"is_disabled":false,"rental_uris":{"android":"levelo://app?vid=0959ff5e-5955-4215-8723-80a097bacc26","ios":"levelo://app?vid=0959ff5e-5955-4215-8723-80a097bacc26"},"vehicle_type_id":"4","last_reported":1747685470,"current_range_meters":6400,"station_id":"ce4bhnh2rcd13ifvqgtg","pricing_plan_id":"cebpf4jnsgd1na2vs0mg"},{"bike_id":"0eb7f958-813c-4599-a947-cc188a070eb3","system_id":"levelo_inurba_marseille","lat":43.251038,"lon":5.403213,"is_reserved":false,"is_disabled":false,"rental_uris":{"android":"levelo://app?vid=0eb7f958-813c-4599-a947-cc188a070eb3","ios":"levelo://app?vid=0eb7f958-813c-4599-a947-cc188a070eb3"},"vehicle_type_id":"4","last_reported":1747685470,"current_range_meters":6400,"station_id":"ce4bhlh2rcd13ifvqgig","pricing_plan_id":"cebpf4jnsgd1na2vs0mg"},{"bike_id":"9098acce-4a9e-40d8-ba71-76f7509c9d2b","system_id":"levelo_inurba_marseille","lat":43.2655,"lon":5.37289,"is_reserved":false,"is_disabled":false,"rental_uris":{"android":"levelo://app?vid=9098acce-4a9e-40d8-ba71-76f7509c9d2b","ios":"levelo://app?vid=9098acce-4a9e-40d8-ba71-76f7509c9d2b"},"vehicle_type_id":"4","last_reported":1747685470,"current_range_meters":6800,"station_id":"ce4bhg12rcd13ifvqf70","pricing_plan_id":"cebpf4jnsgd1na2vs0mg"},{"bike_id":"8018deb1-33f3-4a74-9b79-63ac400dc93e","system_id":"levelo_inurba_marseille","lat":43.27908,"lon":5.38006,"is_reserved":false,"is_disabled":false,"rental_uris":{"android":"levelo://app?vid=8018deb1-33f3-4a74-9b79-63ac400dc93e","ios":"levelo://app?vid=8018deb1-33f3-4a74-9b79-63ac400dc93e"},"vehicle_type_id":"4","last_reported":1747685470,"current_range_meters":6800,"station_id":"ce4bhf92rcd13ifvqf50","pricing_plan_id":"cebpf4jnsgd1na2vs0mg"},{"bike_id":"68e906d4-5998-4663-9231-b6ea8d4a8411","system_id":"levelo_inurba_marseille","lat":43.26202,"lon":5.37931,"is_reserved":false,"is_disabled":false,"rental_uris":{"android":"levelo://app?vid=68e906d4-5998-4663-9231-b6ea8d4a8411","ios":"levelo://app?vid=68e906d4-5998-4663-9231-b6ea8d4a8411"},"vehicle_type_id":"4","last_reported":1747685470,"current_range_meters":6800,"station_id":"ce4bhjp2rcd13ifvqg90","pricing_plan_id":"cebpf4jnsgd1na2vs0mg"},{"bike_id":"e0391685-f930-423c-9e14-b2af3a4e59b5","system_id":"levelo_inurba_marseille","lat":43.23184,"lon":5.39992,"is_reserved":false,"is_disabled":false,"rental_uris":{"android":"levelo://app?vid=e0391685-f930-423c-9e14-b2af3a4e59b5","ios":"levelo://app?vid=e0391685-f930-423c-9e14-b2af3a4e59b5"},"vehicle_type_id":"4","last_reported":1747685470,"current_range_meters":6800,"station_id":"ce4bhn12rcd13ifvqgqg","pricing_plan_id":"cebpf4jnsgd1na2vs0mg"},{"bike_id":"f40652e2-30a0-431e-b1f1-4d9fe84a8149","system_id":"levelo_inurba_marseille","lat":43.27379,"lon":5.36261,"is_reserved":false,"is_disabled":true,"rental_uris":{"android":"levelo://app?vid=f40652e2-30a0-431e-b1f1-4d9fe84a8149","ios":"levelo://app?vid=f40652e2-30a0-431e-b1f1-4d9fe84a8149"},"vehicle_type_id":"4","last_reported":1747685470,"current_range_meters":7200,"station_id":"ce4bhbh2rcd13ifvqeo0","pricing_plan_id":"cebpf4jnsgd1na2vs0mg"},{"bike_id":"606f724a-1c53-443b-9378-c589b2767e9c","system_id":"levelo_inurba_marseille","lat":43.264861,"lon":5.395432,"is_reserved":false,"is_disabled":false,"rental_uris":{"android":"levelo://app?vid=606f724a-1c53-443b-9378-c589b2767e9c","ios":"levelo://app?vid=606f724a-1c53-443b-9378-c589b2767e9c"},"vehicle_type_id":"4","last_reported":1747685470,"current_range_meters":7200,"station_id":"","pricing_plan_id":"cebpf4jnsgd1na2vs0mg"},{"bike_id":"0814fc28-7c82-4444-bf57-b7589c01a901","system_id":"levelo_inurba_marseille","lat":43.249977,"lon":5.38936,"is_reserved":false,"is_disabled":false,"rental_uris":{"android":"levelo://app?vid=0814fc28-7c82-4444-bf57-b7589c01a901","ios":"levelo://app?vid=0814fc28-7c82-4444-bf57-b7589c01a901"},"vehicle_type_id":"4","last_reported":1747685470,"current_range_meters":7200,"station_id":"ce4bhgp2rcd13ifvqfd0","pricing_plan_id":"cebpf4jnsgd1na2vs0mg"},{"bike_id":"92a6af25-c13e-41f1-9234-7144ec89b7a9","system_id":"levelo_inurba_marseille","lat":43.23192,"lon":5.39981,"is_reserved":false,"is_disabled":false,"rental_uris":{"android":"levelo://app?vid=92a6af25-c13e-41f1-9234-7144ec89b7a9","ios":"levelo://app?vid=92a6af25-c13e-41f1-9234-7144ec89b7a9"},"vehicle_type_id":"4","last_reported":1747685470,"current_range_meters":7200,"station_id":"ce4bhn12rcd13ifvqgqg","pricing_plan_id":"cebpf4jnsgd1na2vs0mg"},{"bike_id":"fefa3ad1-29a6-4d50-af49-b905b6a48898","system_id":"levelo_inurba_marseille","lat":43.28151,"lon":5.42643,"is_reserved":false,"is_disabled":false,"rental_uris":{"android":"levelo://app?vid=fefa3ad1-29a6-4d50-af49-b905b6a48898","ios":"levelo://app?vid=fefa3ad1-29a6-4d50-af49-b905b6a48898"},"vehicle_type_id":"4","last_reported":1747685470,"current_range_meters":7200,"station_id":"ce4bhnh2rcd13ifvqgug","pricing_plan_id":"cebpf4jnsgd1na2vs0mg"},{"bike_id":"4733663d-b22d-4a24-aa0d-4bd40e9bc7ce","system_id":"levelo_inurba_marseille","lat":43.30148,"lon":5.38098,"is_reserved":false,"is_disabled":false,"rental_uris":{"android":"levelo://app?vid=4733663d-b22d-4a24-aa0d-4bd40e9bc7ce","ios":"levelo://app?vid=4733663d-b22d-4a24-aa0d-4bd40e9bc7ce"},"vehicle_type_id":"4","last_reported":1747685470,"current_range_meters":7200,"station_id":"ce4bgjp2rcd13ifvqbh0","pricing_plan_id":"cebpf4jnsgd1na2vs0mg"},{"bike_id":"e111fb48-6c9b-41ea-aa49-b2df8dd08e29","system_id":"levelo_inurba_marseille","lat":43.26801,"lon":5.40263,"is_reserved":false,"is_disabled":true,"rental_uris":{"android":"levelo://app?vid=e111fb48-6c9b-41ea-aa49-b2df8dd08e29","ios":"levelo://app?vid=e111fb48-6c9b-41ea-aa49-b2df8dd08e29"},"vehicle_type_id":"4","last_reported":1747685470,"current_range_meters":7200,"station_id":"ce501612rcd8frsf0b60","pricing_plan_id":"cebpf4jnsgd1na2vs0mg"},{"bike_id":"a32710ca-189d-4719-b095-885a7a8e5314","system_id":"levelo_inurba_marseille","lat":43.2883,"lon":5.39301,"is_reserved":false,"is_disabled":false,"rental_uris":{"android":"levelo://app?vid=a32710ca-189d-4719-b095-885a7a8e5314","ios":"levelo://app?vid=a32710ca-189d-4719-b095-885a7a8e5314"},"vehicle_type_id":"4","last_reported":1747685470,"current_range_meters":7200,"station_id":"ce4bh2p2rcd13ifvqdi0","pricing_plan_id":"cebpf4jnsgd1na2vs0mg"},{"bike_id":"9ae48e25-eddd-4760-b976-a176149d9bad","system_id":"levelo_inurba_marseille","lat":43.28709,"lon":5.37395,"is_reserved":false,"is_disabled":true,"rental_uris":{"android":"levelo://app?vid=9ae48e25-eddd-4760-b976-a176149d9bad","ios":"levelo://app?vid=9ae48e25-eddd-4760-b976-a176149d9bad"},"vehicle_type_id":"4","last_reported":1747685470,"current_range_meters":8000,"station_id":"ce4bh3p2rcd13ifvqdq0","pricing_plan_id":"cebpf4jnsgd1na2vs0mg"},{"bike_id":"6e53b516-0162-45f9-a586-0a6a163b232d","system_id":"levelo_inurba_marseille","lat":43.3248,"lon":5.36561,"is_reserved":false,"is_disabled":false,"rental_uris":{"android":"levelo://app?vid=6e53b516-0162-45f9-a586-0a6a163b232d","ios":"levelo://app?vid=6e53b516-0162-45f9-a586-0a6a163b232d"},"vehicle_type_id":"4","last_reported":1747685470,"current_range_meters":8000,"station_id":"ce4bhs12rcd13ifvqhvg","pricing_plan_id":"cebpf4jnsgd1na2vs0mg"},{"bike_id":"71b34e5b-9627-4ecb-8580-7ab8e076d7c9","system_id":"levelo_inurba_marseille","lat":43.31121,"lon":5.37769,"is_reserved":false,"is_disabled":false,"rental_uris":{"android":"levelo://app?vid=71b34e5b-9627-4ecb-8580-7ab8e076d7c9","ios":"levelo://app?vid=71b34e5b-9627-4ecb-8580-7ab8e076d7c9"},"vehicle_type_id":"4","last_reported":1747685470,"current_range_meters":8000,"station_id":"ce4bgt92rcd13ifvqcg0","pricing_plan_id":"cebpf4jnsgd1na2vs0mg"},{"bike_id":"1f7dea22-24a3-45e9-b0c2-bb2b4d863d65","system_id":"levelo_inurba_marseille","lat":43.23184,"lon":5.39981,"is_reserved":false,"is_disabled":false,"rental_uris":{"android":"levelo://app?vid=1f7dea22-24a3-45e9-b0c2-bb2b4d863d65","ios":"levelo://app?vid=1f7dea22-24a3-45e9-b0c2-bb2b4d863d65"},"vehicle_type_id":"4","last_reported":1747685470,"current_range_meters":8000,"station_id":"ce4bhn12rcd13ifvqgqg","pricing_plan_id":"cebpf4jnsgd1na2vs0mg"},{"bike_id":"7da98fdb-a949-4e4c-8774-e8265ad77b72","system_id":"levelo_inurba_marseille","lat":43.29043,"lon":5.39958,"is_reserved":false,"is_disabled":false,"rental_uris":{"android":"levelo://app?vid=7da98fdb-a949-4e4c-8774-e8265ad77b72","ios":"levelo://app?vid=7da98fdb-a949-4e4c-8774-e8265ad77b72"},"vehicle_type_id":"4","last_reported":1747685470,"current_range_meters":8000,"station_id":"ce4bh392rcd13ifvqdm0","pricing_plan_id":"cebpf4jnsgd1na2vs0mg"},{"bike_id":"7e57c655-a436-4f6a-b2f3-b4b39d87eb80","system_id":"levelo_inurba_marseille","lat":43.24372,"lon":5.37067,"is_reserved":false,"is_disabled":false,"rental_uris":{"android":"levelo://app?vid=7e57c655-a436-4f6a-b2f3-b4b39d87eb80","ios":"levelo://app?vid=7e57c655-a436-4f6a-b2f3-b4b39d87eb80"},"vehicle_type_id":"4","last_reported":1747685470,"current_range_meters":8000,"station_id":"ce4bhhh2rcd13ifvqfk0","pricing_plan_id":"cebpf4jnsgd1na2vs0mg"},{"bike_id":"651570cd-1c9c-4c26-aa09-efa639f2a006","system_id":"levelo_inurba_marseille","lat":43.28857,"lon":5.39316,"is_reserved":false,"is_disabled":false,"rental_uris":{"android":"levelo://app?vid=651570cd-1c9c-4c26-aa09-efa639f2a006","ios":"levelo://app?vid=651570cd-1c9c-4c26-aa09-efa639f2a006"},"vehicle_type_id":"4","last_reported":1747685470,"current_range_meters":8000,"station_id":"ce4bh2p2rcd13ifvqdi0","pricing_plan_id":"cebpf4jnsgd1na2vs0mg"},{"bike_id":"d58894d7-0839-4402-827f-71fc925bf23a","system_id":"levelo_inurba_marseille","lat":43.25938,"lon":5.40924,"is_reserved":false,"is_disabled":false,"rental_uris":{"android":"levelo://app?vid=d58894d7-0839-4402-827f-71fc925bf23a","ios":"levelo://app?vid=d58894d7-0839-4402-827f-71fc925bf23a"},"vehicle_type_id":"4","last_reported":1747685470,"current_range_meters":8000,"station_id":"ce4bhm92rcd13ifvqglg","pricing_plan_id":"cebpf4jnsgd1na2vs0mg"},{"bike_id":"5a585b4e-47a9-416c-a173-084754acffd0","system_id":"levelo_inurba_marseille","lat":43.24663,"lon":5.38154,"is_reserved":false,"is_disabled":false,"rental_uris":{"android":"levelo://app?vid=5a585b4e-47a9-416c-a173-084754acffd0","ios":"levelo://app?vid=5a585b4e-47a9-416c-a173-084754acffd0"},"vehicle_type_id":"4","last_reported":1747685470,"current_range_meters":8400,"station_id":"ce4bhih2rcd13ifvqfr0","pricing_plan_id":"cebpf4jnsgd1na2vs0mg"},{"bike_id":"f61eb94e-1e62-4ef6-ad8b-232d3e5c7942","system_id":"levelo_inurba_marseille","lat":43.27827,"lon":5.40699,"is_reserved":false,"is_disabled":false,"rental_uris":{"android":"levelo://app?vid=f61eb94e-1e62-4ef6-ad8b-232d3e5c7942","ios":"levelo://app?vid=f61eb94e-1e62-4ef6-ad8b-232d3e5c7942"},"vehicle_type_id":"4","last_reported":1747685470,"current_range_meters":8400,"station_id":"ce4bhnh2rcd13ifvqgtg","pricing_plan_id":"cebpf4jnsgd1na2vs0mg"},{"bike_id":"1a391a2e-9dc6-4154-b08c-5008af76bb22","system_id":"levelo_inurba_marseille","lat":43.2654,"lon":5.37312,"is_reserved":false,"is_disabled":false,"rental_uris":{"android":"levelo://app?vid=1a391a2e-9dc6-4154-b08c-5008af76bb22","ios":"levelo://app?vid=1a391a2e-9dc6-4154-b08c-5008af76bb22"},"vehicle_type_id":"4","last_reported":1747685470,"current_range_meters":8400,"station_id":"ce4bhg12rcd13ifvqf70","pricing_plan_id":"cebpf4jnsgd1na2vs0mg"},{"bike_id":"814e2930-a412-47af-849d-26da2abc07f6","system_id":"levelo_inurba_marseille","lat":43.278229,"lon":5.407188,"is_reserved":false,"is_disabled":true,"rental_uris":{"android":"levelo://app?vid=814e2930-a412-47af-849d-26da2abc07f6","ios":"levelo://app?vid=814e2930-a412-47af-849d-26da2abc07f6"},"vehicle_type_id":"4","last_reported":1747685470,"current_range_meters":8400,"station_id":"ce4bhnh2rcd13ifvqgtg","pricing_plan_id":"cebpf4jnsgd1na2vs0mg"},{"bike_id":"fdbcb080-de86-408c-b4a8-7300b93393a6","system_id":"levelo_inurba_marseille","lat":43.23196,"lon":5.3998,"is_reserved":false,"is_disabled":false,"rental_uris":{"android":"levelo://app?vid=fdbcb080-de86-408c-b4a8-7300b93393a6","ios":"levelo://app?vid=fdbcb080-de86-408c-b4a8-7300b93393a6"},"vehicle_type_id":"4","last_reported":1747685470,"current_range_meters":8800,"station_id":"ce4bhn12rcd13ifvqgqg","pricing_plan_id":"cebpf4jnsgd1na2vs0mg"},{"bike_id":"e64e36d1-c3e7-4427-9260-70ac75fa0a1c","system_id":"levelo_inurba_marseille","lat":43.29932,"lon":5.40175,"is_reserved":false,"is_disabled":false,"rental_uris":{"android":"levelo://app?vid=e64e36d1-c3e7-4427-9260-70ac75fa0a1c","ios":"levelo://app?vid=e64e36d1-c3e7-4427-9260-70ac75fa0a1c"},"vehicle_type_id":"4","last_reported":1747685470,"current_range_meters":8800,"station_id":"","pricing_plan_id":"cebpf4jnsgd1na2vs0mg"},{"bike_id":"1562e712-dfff-4fb6-a90a-e3524ac5d767","system_id":"levelo_inurba_marseille","lat":43.26172,"lon":5.37458,"is_reserved":false,"is_disabled":true,"rental_uris":{"android":"levelo://app?vid=1562e712-dfff-4fb6-a90a-e3524ac5d767","ios":"levelo://app?vid=1562e712-dfff-4fb6-a90a-e3524ac5d767"},"vehicle_type_id":"4","last_reported":1747685470,"current_range_meters":8800,"station_id":"ce4bhgp2rcd13ifvqfc0","pricing_plan_id":"cebpf4jnsgd1na2vs0mg"},{"bike_id":"9cf69802-b266-48b3-907b-51d899ac9991","system_id":"levelo_inurba_marseille","lat":43.30927,"lon":5.40151,"is_reserved":false,"is_disabled":false,"rental_uris":{"android":"levelo://app?vid=9cf69802-b266-48b3-907b-51d899ac9991","ios":"levelo://app?vid=9cf69802-b266-48b3-907b-51d899ac9991"},"vehicle_type_id":"4","last_reported":1747685470,"current_range_meters":8800,"station_id":"ce4bgvp2rcd13ifvqct0","pricing_plan_id":"cebpf4jnsgd1na2vs0mg"},{"bike_id":"7934c004-91e1-4cad-8800-2ae76602e17f","system_id":"levelo_inurba_marseille","lat":43.24819,"lon":5.37454,"is_reserved":false,"is_disabled":false,"rental_uris":{"android":"levelo://app?vid=7934c004-91e1-4cad-8800-2ae76602e17f","ios":"levelo://app?vid=7934c004-91e1-4cad-8800-2ae76602e17f"},"vehicle_type_id":"4","last_reported":1747685470,"current_range_meters":8800,"station_id":"ce4bhgh2rcd13ifvqfb0","pricing_plan_id":"cebpf4jnsgd1na2vs0mg"},{"bike_id":"7e053555-9d33-4a74-9b33-70ec85fc4206","system_id":"levelo_inurba_marseille","lat":43.30306,"lon":5.36892,"is_reserved":false,"is_disabled":false,"rental_uris":{"android":"levelo://app?vid=7e053555-9d33-4a74-9b33-70ec85fc4206","ios":"levelo://app?vid=7e053555-9d33-4a74-9b33-70ec85fc4206"},"vehicle_type_id":"4","last_reported":1747685470,"current_range_meters":8800,"station_id":"ce4bgqh2rcd13ifvqc5g","pricing_plan_id":"cebpf4jnsgd1na2vs0mg"},{"bike_id":"f227df4d-9824-4803-8938-da373e985d05","system_id":"levelo_inurba_marseille","lat":43.26194,"lon":5.3745,"is_reserved":false,"is_disabled":true,"rental_uris":{"android":"levelo://app?vid=f227df4d-9824-4803-8938-da373e985d05","ios":"levelo://app?vid=f227df4d-9824-4803-8938-da373e985d05"},"vehicle_type_id":"4","last_reported":1747685470,"current_range_meters":8800,"station_id":"ce4bhgp2rcd13ifvqfc0","pricing_plan_id":"cebpf4jnsgd1na2vs0mg"},{"bike_id":"06e452b4-00bd-4194-8cf0-97e51cbae02e","system_id":"levelo_inurba_marseille","lat":43.23194,"lon":5.39983,"is_reserved":false,"is_disabled":false,"rental_uris":{"android":"levelo://app?vid=06e452b4-00bd-4194-8cf0-97e51cbae02e","ios":"levelo://app?vid=06e452b4-00bd-4194-8cf0-97e51cbae02e"},"vehicle_type_id":"4","last_reported":1747685470,"current_range_meters":9200,"station_id":"ce4bhn12rcd13ifvqgqg","pricing_plan_id":"cebpf4jnsgd1na2vs0mg"},{"bike_id":"a283b2fd-ff3f-48d1-abab-7a3c52921152","system_id":"levelo_inurba_marseille","lat":43.28188,"lon":5.42618,"is_reserved":false,"is_disabled":false,"rental_uris":{"android":"levelo://app?vid=a283b2fd-ff3f-48d1-abab-7a3c52921152","ios":"levelo://app?vid=a283b2fd-ff3f-48d1-abab-7a3c52921152"},"vehicle_type_id":"4","last_reported":1747685470,"current_range_meters":9200,"station_id":"ce4bhnh2rcd13ifvqgug","pricing_plan_id":"cebpf4jnsgd1na2vs0mg"},{"bike_id":"622c888e-dc31-4960-99cf-799087a1cf2a","system_id":"levelo_inurba_marseille","lat":43.30797,"lon":5.38166,"is_reserved":false,"is_disabled":false,"rental_uris":{"android":"levelo://app?vid=622c888e-dc31-4960-99cf-799087a1cf2a","ios":"levelo://app?vid=622c888e-dc31-4960-99cf-799087a1cf2a"},"vehicle_type_id":"4","last_reported":1747685470,"current_range_meters":9200,"station_id":"ce4bgt12rcd13ifvqce0","pricing_plan_id":"cebpf4jnsgd1na2vs0mg"},{"bike_id":"30dabe7c-04c4-4995-b9b0-e1087462b9b8","system_id":"levelo_inurba_marseille","lat":43.30885,"lon":5.3963,"is_reserved":false,"is_disabled":false,"rental_uris":{"android":"levelo://app?vid=30dabe7c-04c4-4995-b9b0-e1087462b9b8","ios":"levelo://app?vid=30dabe7c-04c4-4995-b9b0-e1087462b9b8"},"vehicle_type_id":"4","last_reported":1747685470,"current_range_meters":9200,"station_id":"ce4bh012rcd13ifvqcv0","pricing_plan_id":"cebpf4jnsgd1na2vs0mg"},{"bike_id":"b55e8caa-d8ee-4a0d-b5c1-faf348b8036d","system_id":"levelo_inurba_marseille","lat":43.29179,"lon":5.39322,"is_reserved":false,"is_disabled":false,"rental_uris":{"android":"levelo://app?vid=b55e8caa-d8ee-4a0d-b5c1-faf348b8036d","ios":"levelo://app?vid=b55e8caa-d8ee-4a0d-b5c1-faf348b8036d"},"vehicle_type_id":"4","last_reported":1747685470,"current_range_meters":9200,"station_id":"ce4bh192rcd13ifvqdd0","pricing_plan_id":"cebpf4jnsgd1na2vs0mg"},{"bike_id":"dbf8222a-eea0-42f0-80c2-a4791ac4ed58","system_id":"levelo_inurba_marseille","lat":43.2503,"lon":5.38993,"is_reserved":false,"is_disabled":false,"rental_uris":{"android":"levelo://app?vid=dbf8222a-eea0-42f0-80c2-a4791ac4ed58","ios":"levelo://app?vid=dbf8222a-eea0-42f0-80c2-a4791ac4ed58"},"vehicle_type_id":"4","last_reported":1747685470,"current_range_meters":9600,"station_id":"ce4bhgp2rcd13ifvqfd0","pricing_plan_id":"cebpf4jnsgd1na2vs0mg"},{"bike_id":"ece1ade1-74a1-4510-9756-1459f9cff1be","system_id":"levelo_inurba_marseille","lat":43.2254,"lon":5.34802,"is_reserved":false,"is_disabled":true,"rental_uris":{"android":"levelo://app?vid=ece1ade1-74a1-4510-9756-1459f9cff1be","ios":"levelo://app?vid=ece1ade1-74a1-4510-9756-1459f9cff1be"},"vehicle_type_id":"4","last_reported":1747685470,"current_range_meters":9600,"station_id":"st_cvj5dfep6f1abm77gieg","pricing_plan_id":"cebpf4jnsgd1na2vs0mg"},{"bike_id":"bcbdbd69-7be8-42f8-a855-a4358565de8f","system_id":"levelo_inurba_marseille","lat":43.27726,"lon":5.4139,"is_reserved":false,"is_disabled":false,"rental_uris":{"android":"levelo://app?vid=bcbdbd69-7be8-42f8-a855-a4358565de8f","ios":"levelo://app?vid=bcbdbd69-7be8-42f8-a855-a4358565de8f"},"vehicle_type_id":"4","last_reported":1747685470,"current_range_meters":9600,"station_id":"","pricing_plan_id":"cebpf4jnsgd1na2vs0mg"},{"bike_id":"93b4465d-afc7-44fe-a302-be7a74a57c95","system_id":"levelo_inurba_marseille","lat":43.31997,"lon":5.38165,"is_reserved":false,"is_disabled":false,"rental_uris":{"android":"levelo://app?vid=93b4465d-afc7-44fe-a302-be7a74a57c95","ios":"levelo://app?vid=93b4465d-afc7-44fe-a302-be7a74a57c95"},"vehicle_type_id":"4","last_reported":1747685470,"current_range_meters":9600,"station_id":"ce4bhr12rcd13ifvqhpg","pricing_plan_id":"cebpf4jnsgd1na2vs0mg"},{"bike_id":"572c97ee-0da0-4be5-a2ce-28eff65f3ef1","system_id":"levelo_inurba_marseille","lat":43.33763,"lon":5.37489,"is_reserved":false,"is_disabled":false,"rental_uris":{"android":"levelo://app?vid=572c97ee-0da0-4be5-a2ce-28eff65f3ef1","ios":"levelo://app?vid=572c97ee-0da0-4be5-a2ce-28eff65f3ef1"},"vehicle_type_id":"4","last_reported":1747685470,"current_range_meters":9600,"station_id":"","pricing_plan_id":"cebpf4jnsgd1na2vs0mg"},{"bike_id":"0ed934a5-f846-4226-a605-82f12f967b47","system_id":"levelo_inurba_marseille","lat":43.25108,"lon":5.40325,"is_reserved":false,"is_disabled":false,"rental_uris":{"android":"levelo://app?vid=0ed934a5-f846-4226-a605-82f12f967b47","ios":"levelo://app?vid=0ed934a5-f846-4226-a605-82f12f967b47"},"vehicle_type_id":"4","last_reported":1747685470,"current_range_meters":9600,"station_id":"ce4bhlh2rcd13ifvqgig","pricing_plan_id":"cebpf4jnsgd1na2vs0mg"},{"bike_id":"ffe6d238-6026-4e0e-a599-949c46ef6d5a","system_id":"levelo_inurba_marseille","lat":43.25108,"lon":5.40327,"is_reserved":false,"is_disabled":false,"rental_uris":{"android":"levelo://app?vid=ffe6d238-6026-4e0e-a599-949c46ef6d5a","ios":"levelo://app?vid=ffe6d238-6026-4e0e-a599-949c46ef6d5a"},"vehicle_type_id":"4","last_reported":1747685470,"current_range_meters":9600,"station_id":"ce4bhlh2rcd13ifvqgig","pricing_plan_id":"cebpf4jnsgd1na2vs0mg"},{"bike_id":"d641236d-2988-44c6-a9fe-b5416b4bf3f1","system_id":"levelo_inurba_marseille","lat":43.2841,"lon":5.37518,"is_reserved":false,"is_disabled":false,"rental_uris":{"android":"levelo://app?vid=d641236d-2988-44c6-a9fe-b5416b4bf3f1","ios":"levelo://app?vid=d641236d-2988-44c6-a9fe-b5416b4bf3f1"},"vehicle_type_id":"4","last_reported":1747685470,"current_range_meters":9600,"station_id":"ce4bh412rcd13ifvqds0","pricing_plan_id":"cebpf4jnsgd1na2vs0mg"},{"bike_id":"f3845397-11cf-4eb8-a5a1-edc4116ff2ea","system_id":"levelo_inurba_marseille","lat":43.24396,"lon":5.37066,"is_reserved":false,"is_disabled":false,"rental_uris":{"android":"levelo://app?vid=f3845397-11cf-4eb8-a5a1-edc4116ff2ea","ios":"levelo://app?vid=f3845397-11cf-4eb8-a5a1-edc4116ff2ea"},"vehicle_type_id":"4","last_reported":1747685470,"current_range_meters":9600,"station_id":"ce4bhhh2rcd13ifvqfk0","pricing_plan_id":"cebpf4jnsgd1na2vs0mg"},{"bike_id":"b2a8a085-4afe-4995-b62f-39dc8b761b89","system_id":"levelo_inurba_marseille","lat":43.21189,"lon":5.3508,"is_reserved":false,"is_disabled":false,"rental_uris":{"android":"levelo://app?vid=b2a8a085-4afe-4995-b62f-39dc8b761b89","ios":"levelo://app?vid=b2a8a085-4afe-4995-b62f-39dc8b761b89"},"vehicle_type_id":"4","last_reported":1747685470,"current_range_meters":9600,"station_id":"st_cvj6sg6p6f1abm77japg","pricing_plan_id":"cebpf4jnsgd1na2vs0mg"},{"bike_id":"21ea8fd1-7094-4cf9-b12a-80bc90604330","system_id":"levelo_inurba_marseille","lat":43.29262,"lon":5.37609,"is_reserved":false,"is_disabled":true,"rental_uris":{"android":"levelo://app?vid=21ea8fd1-7094-4cf9-b12a-80bc90604330","ios":"levelo://app?vid=21ea8fd1-7094-4cf9-b12a-80bc90604330"},"vehicle_type_id":"4","last_reported":1747685470,"current_range_meters":9600,"station_id":"ce4bgi12rcd13ifvqb80","pricing_plan_id":"cebpf4jnsgd1na2vs0mg"},{"bike_id":"a72df194-4cd5-4ba9-b838-a03e8bc5de2e","system_id":"levelo_inurba_marseille","lat":43.28863,"lon":5.39306,"is_reserved":false,"is_disabled":false,"rental_uris":{"android":"levelo://app?vid=a72df194-4cd5-4ba9-b838-a03e8bc5de2e","ios":"levelo://app?vid=a72df194-4cd5-4ba9-b838-a03e8bc5de2e"},"vehicle_type_id":"4","last_reported":1747685470,"current_range_meters":9600,"station_id":"ce4bh2p2rcd13ifvqdi0","pricing_plan_id":"cebpf4jnsgd1na2vs0mg"},{"bike_id":"375d2d68-9e5b-46bf-9bf4-ba396e9ccd89","system_id":"levelo_inurba_marseille","lat":43.29695,"lon":5.37704,"is_reserved":false,"is_disabled":false,"rental_uris":{"android":"levelo://app?vid=375d2d68-9e5b-46bf-9bf4-ba396e9ccd89","ios":"levelo://app?vid=375d2d68-9e5b-46bf-9bf4-ba396e9ccd89"},"vehicle_type_id":"4","last_reported":1747685470,"current_range_meters":9600,"station_id":"ce4bgkh2rcd13ifvqbl0","pricing_plan_id":"cebpf4jnsgd1na2vs0mg"},{"bike_id":"67abd4ca-2cde-4910-b9ac-9f166a4696ae","system_id":"levelo_inurba_marseille","lat":43.28083,"lon":5.39645,"is_reserved":false,"is_disabled":false,"rental_uris":{"android":"levelo://app?vid=67abd4ca-2cde-4910-b9ac-9f166a4696ae","ios":"levelo://app?vid=67abd4ca-2cde-4910-b9ac-9f166a4696ae"},"vehicle_type_id":"4","last_reported":1747685470,"current_range_meters":9600,"station_id":"ce4bho12rcd13ifvqh2g","pricing_plan_id":"cebpf4jnsgd1na2vs0mg"},{"bike_id":"3fdeef47-b532-4e82-b7eb-ca3f0554a6e9","system_id":"levelo_inurba_marseille","lat":43.267,"lon":5.38282,"is_reserved":false,"is_disabled":true,"rental_uris":{"android":"levelo://app?vid=3fdeef47-b532-4e82-b7eb-ca3f0554a6e9","ios":"levelo://app?vid=3fdeef47-b532-4e82-b7eb-ca3f0554a6e9"},"vehicle_type_id":"4","last_reported":1747685470,"current_range_meters":10000,"station_id":"ce4bhg92rcd13ifvqf90","pricing_plan_id":"cebpf4jnsgd1na2vs0mg"},{"bike_id":"85eaca89-9437-48d0-9bca-a254337b88db","system_id":"levelo_inurba_marseille","lat":43.27454,"lon":5.40959,"is_reserved":false,"is_disabled":false,"rental_uris":{"android":"levelo://app?vid=85eaca89-9437-48d0-9bca-a254337b88db","ios":"levelo://app?vid=85eaca89-9437-48d0-9bca-a254337b88db"},"vehicle_type_id":"4","last_reported":1747685470,"current_range_meters":10000,"station_id":"","pricing_plan_id":"cebpf4jnsgd1na2vs0mg"},{"bike_id":"0bee8310-e3c6-4566-aecb-00d86829bb71","system_id":"levelo_inurba_marseille","lat":43.28152,"lon":5.42645,"is_reserved":false,"is_disabled":false,"rental_uris":{"android":"levelo://app?vid=0bee8310-e3c6-4566-aecb-00d86829bb71","ios":"levelo://app?vid=0bee8310-e3c6-4566-aecb-00d86829bb71"},"vehicle_type_id":"4","last_reported":1747685470,"current_range_meters":10000,"station_id":"ce4bhnh2rcd13ifvqgug","pricing_plan_id":"cebpf4jnsgd1na2vs0mg"},{"bike_id":"46b8d967-5e1d-4884-8a0b-5ddff9a90472","system_id":"levelo_inurba_marseille","lat":43.33051,"lon":5.43808,"is_reserved":false,"is_disabled":false,"rental_uris":{"android":"levelo://app?vid=46b8d967-5e1d-4884-8a0b-5ddff9a90472","ios":"levelo://app?vid=46b8d967-5e1d-4884-8a0b-5ddff9a90472"},"vehicle_type_id":"4","last_reported":1747685470,"current_range_meters":10000,"station_id":"","pricing_plan_id":"cebpf4jnsgd1na2vs0mg"},{"bike_id":"b5df4361-8fa9-4b8b-b1ad-cea9da2f893d","system_id":"levelo_inurba_marseille","lat":43.25115,"lon":5.40316,"is_reserved":false,"is_disabled":false,"rental_uris":{"android":"levelo://app?vid=b5df4361-8fa9-4b8b-b1ad-cea9da2f893d","ios":"levelo://app?vid=b5df4361-8fa9-4b8b-b1ad-cea9da2f893d"},"vehicle_type_id":"4","last_reported":1747685470,"current_range_meters":10000,"station_id":"ce4bhlh2rcd13ifvqgig","pricing_plan_id":"cebpf4jnsgd1na2vs0mg"},{"bike_id":"5fbc1e7a-a641-41a8-8487-50b908e3b4db","system_id":"levelo_inurba_marseille","lat":43.27937,"lon":5.4106,"is_reserved":false,"is_disabled":false,"rental_uris":{"android":"levelo://app?vid=5fbc1e7a-a641-41a8-8487-50b908e3b4db","ios":"levelo://app?vid=5fbc1e7a-a641-41a8-8487-50b908e3b4db"},"vehicle_type_id":"4","last_reported":1747685470,"current_range_meters":10800,"station_id":"ce4bhnp2rcd13ifvqh0g","pricing_plan_id":"cebpf4jnsgd1na2vs0mg"},{"bike_id":"7ddabab5-fb9d-431e-bb65-ee4d4e122759","system_id":"levelo_inurba_marseille","lat":43.28159,"lon":5.42636,"is_reserved":false,"is_disabled":false,"rental_uris":{"android":"levelo://app?vid=7ddabab5-fb9d-431e-bb65-ee4d4e122759","ios":"levelo://app?vid=7ddabab5-fb9d-431e-bb65-ee4d4e122759"},"vehicle_type_id":"4","last_reported":1747685470,"current_range_meters":10800,"station_id":"ce4bhnh2rcd13ifvqgug","pricing_plan_id":"cebpf4jnsgd1na2vs0mg"},{"bike_id":"a5bcf3ab-5daa-4dec-898b-27b2e944e103","system_id":"levelo_inurba_marseille","lat":43.27268,"lon":5.41043,"is_reserved":false,"is_disabled":false,"rental_uris":{"android":"levelo://app?vid=a5bcf3ab-5daa-4dec-898b-27b2e944e103","ios":"levelo://app?vid=a5bcf3ab-5daa-4dec-898b-27b2e944e103"},"vehicle_type_id":"4","last_reported":1747685470,"current_range_meters":10800,"station_id":"","pricing_plan_id":"cebpf4jnsgd1na2vs0mg"},{"bike_id":"89e75d22-2829-4276-bd50-349663c80965","system_id":"levelo_inurba_marseille","lat":43.2511,"lon":5.4033,"is_reserved":false,"is_disabled":false,"rental_uris":{"android":"levelo://app?vid=89e75d22-2829-4276-bd50-349663c80965","ios":"levelo://app?vid=89e75d22-2829-4276-bd50-349663c80965"},"vehicle_type_id":"4","last_reported":1747685470,"current_range_meters":10800,"station_id":"ce4bhlh2rcd13ifvqgig","pricing_plan_id":"cebpf4jnsgd1na2vs0mg"},{"bike_id":"60393716-8180-42eb-a367-cc5098e8bc92","system_id":"levelo_inurba_marseille","lat":43.27997,"lon":5.40017,"is_reserved":false,"is_disabled":false,"rental_uris":{"android":"levelo://app?vid=60393716-8180-42eb-a367-cc5098e8bc92","ios":"levelo://app?vid=60393716-8180-42eb-a367-cc5098e8bc92"},"vehicle_type_id":"4","last_reported":1747685470,"current_range_meters":10800,"station_id":"ce4bho92rcd13ifvqh4g","pricing_plan_id":"cebpf4jnsgd1na2vs0mg"},{"bike_id":"a9bed2ee-23b7-4708-b05e-86f24507f78f","system_id":"levelo_inurba_marseille","lat":43.26553,"lon":5.37288,"is_reserved":false,"is_disabled":false,"rental_uris":{"android":"levelo://app?vid=a9bed2ee-23b7-4708-b05e-86f24507f78f","ios":"levelo://app?vid=a9bed2ee-23b7-4708-b05e-86f24507f78f"},"vehicle_type_id":"4","last_reported":1747685470,"current_range_meters":10800,"station_id":"ce4bhg12rcd13ifvqf70","pricing_plan_id":"cebpf4jnsgd1na2vs0mg"},{"bike_id":"b69e9525-f9fe-475a-a8d8-418ab1b45f8d","system_id":"levelo_inurba_marseille","lat":43.28733,"lon":5.36075,"is_reserved":false,"is_disabled":false,"rental_uris":{"android":"levelo://app?vid=b69e9525-f9fe-475a-a8d8-418ab1b45f8d","ios":"levelo://app?vid=b69e9525-f9fe-475a-a8d8-418ab1b45f8d"},"vehicle_type_id":"4","last_reported":1747685470,"current_range_meters":10800,"station_id":"cki0cbj6b192h4jlfktg","pricing_plan_id":"cebpf4jnsgd1na2vs0mg"},{"bike_id":"c076ad54-d589-4eeb-ac51-e1376a33ec39","system_id":"levelo_inurba_marseille","lat":43.29563,"lon":5.42269,"is_reserved":false,"is_disabled":false,"rental_uris":{"android":"levelo://app?vid=c076ad54-d589-4eeb-ac51-e1376a33ec39","ios":"levelo://app?vid=c076ad54-d589-4eeb-ac51-e1376a33ec39"},"vehicle_type_id":"4","last_reported":1747685470,"current_range_meters":10800,"station_id":"ce4bhph2rcd13ifvqhdg","pricing_plan_id":"cebpf4jnsgd1na2vs0mg"},{"bike_id":"be84efb7-4971-4361-9070-7e35ddb83833","system_id":"levelo_inurba_marseille","lat":43.29802,"lon":5.37083,"is_reserved":false,"is_disabled":false,"rental_uris":{"android":"levelo://app?vid=be84efb7-4971-4361-9070-7e35ddb83833","ios":"levelo://app?vid=be84efb7-4971-4361-9070-7e35ddb83833"},"vehicle_type_id":"4","last_reported":1747685470,"current_range_meters":11200,"station_id":"ce4bgop2rcd13ifvqc1g","pricing_plan_id":"cebpf4jnsgd1na2vs0mg"},{"bike_id":"4b4ec30a-5019-4306-ad90-2b94bab06dcd","system_id":"levelo_inurba_marseille","lat":43.30054,"lon":5.36585,"is_reserved":false,"is_disabled":true,"rental_uris":{"android":"levelo://app?vid=4b4ec30a-5019-4306-ad90-2b94bab06dcd","ios":"levelo://app?vid=4b4ec30a-5019-4306-ad90-2b94bab06dcd"},"vehicle_type_id":"4","last_reported":1747685470,"current_range_meters":11200,"station_id":"","pricing_plan_id":"cebpf4jnsgd1na2vs0mg"},{"bike_id":"768cd698-c990-4f69-a6b5-ebaacd5a50e8","system_id":"levelo_inurba_marseille","lat":43.29797,"lon":5.38151,"is_reserved":false,"is_disabled":true,"rental_uris":{"android":"levelo://app?vid=768cd698-c990-4f69-a6b5-ebaacd5a50e8","ios":"levelo://app?vid=768cd698-c990-4f69-a6b5-ebaacd5a50e8"},"vehicle_type_id":"4","last_reported":1747685470,"current_range_meters":11200,"station_id":"ce4bgip2rcd13ifvqbb0","pricing_plan_id":"cebpf4jnsgd1na2vs0mg"},{"bike_id":"8d91a467-443b-401e-bb33-c6f87a96e75a","system_id":"levelo_inurba_marseille","lat":43.29526,"lon":5.37506,"is_reserved":false,"is_disabled":true,"rental_uris":{"android":"levelo://app?vid=8d91a467-443b-401e-bb33-c6f87a96e75a","ios":"levelo://app?vid=8d91a467-443b-401e-bb33-c6f87a96e75a"},"vehicle_type_id":"4","last_reported":1747685470,"current_range_meters":11200,"station_id":"ce4bgkp2rcd13ifvqbmg","pricing_plan_id":"cebpf4jnsgd1na2vs0mg"},{"bike_id":"bf0f734e-7db4-4909-bee4-1c076f1b6d92","system_id":"levelo_inurba_marseille","lat":43.281553,"lon":5.426408,"is_reserved":false,"is_disabled":false,"rental_uris":{"android":"levelo://app?vid=bf0f734e-7db4-4909-bee4-1c076f1b6d92","ios":"levelo://app?vid=bf0f734e-7db4-4909-bee4-1c076f1b6d92"},"vehicle_type_id":"4","last_reported":1747685470,"current_range_meters":11200,"station_id":"ce4bhnh2rcd13ifvqgug","pricing_plan_id":"cebpf4jnsgd1na2vs0mg"},{"bike_id":"40d5f946-42f0-423c-82a6-7cd8e3c0679d","system_id":"levelo_inurba_marseille","lat":43.28421,"lon":5.37513,"is_reserved":false,"is_disabled":false,"rental_uris":{"android":"levelo://app?vid=40d5f946-42f0-423c-82a6-7cd8e3c0679d","ios":"levelo://app?vid=40d5f946-42f0-423c-82a6-7cd8e3c0679d"},"vehicle_type_id":"4","last_reported":1747685470,"current_range_meters":11200,"station_id":"ce4bh412rcd13ifvqds0","pricing_plan_id":"cebpf4jnsgd1na2vs0mg"},{"bike_id":"05c63458-b601-4e4e-ab26-7a54ca437048","system_id":"levelo_inurba_marseille","lat":43.295601,"lon":5.422851,"is_reserved":false,"is_disabled":false,"rental_uris":{"android":"levelo://app?vid=05c63458-b601-4e4e-ab26-7a54ca437048","ios":"levelo://app?vid=05c63458-b601-4e4e-ab26-7a54ca437048"},"vehicle_type_id":"4","last_reported":1747685470,"current_range_meters":11200,"station_id":"ce4bhph2rcd13ifvqhdg","pricing_plan_id":"cebpf4jnsgd1na2vs0mg"},{"bike_id":"f9b3996d-2c0f-497b-a2fb-c22c787feca1","system_id":"levelo_inurba_marseille","lat":43.28098,"lon":5.40195,"is_reserved":false,"is_disabled":false,"rental_uris":{"android":"levelo://app?vid=f9b3996d-2c0f-497b-a2fb-c22c787feca1","ios":"levelo://app?vid=f9b3996d-2c0f-497b-a2fb-c22c787feca1"},"vehicle_type_id":"4","last_reported":1747685470,"current_range_meters":11600,"station_id":"","pricing_plan_id":"cebpf4jnsgd1na2vs0mg"},{"bike_id":"d99c8fdf-296b-4eb9-9722-96ce624745b4","system_id":"levelo_inurba_marseille","lat":43.28659,"lon":5.36357,"is_reserved":false,"is_disabled":false,"rental_uris":{"android":"levelo://app?vid=d99c8fdf-296b-4eb9-9722-96ce624745b4","ios":"levelo://app?vid=d99c8fdf-296b-4eb9-9722-96ce624745b4"},"vehicle_type_id":"4","last_reported":1747685470,"current_range_meters":11200,"station_id":"ce4bhah2rcd13ifvqej0","pricing_plan_id":"cebpf4jnsgd1na2vs0mg"},{"bike_id":"e58b1b8d-e063-4c4e-8514-80ba8763c424","system_id":"levelo_inurba_marseille","lat":43.279967,"lon":5.400093,"is_reserved":false,"is_disabled":false,"rental_uris":{"android":"levelo://app?vid=e58b1b8d-e063-4c4e-8514-80ba8763c424","ios":"levelo://app?vid=e58b1b8d-e063-4c4e-8514-80ba8763c424"},"vehicle_type_id":"4","last_reported":1747685470,"current_range_meters":11600,"station_id":"ce4bho92rcd13ifvqh4g","pricing_plan_id":"cebpf4jnsgd1na2vs0mg"},{"bike_id":"27e2e700-c978-4d72-8e0b-9608485d555f","system_id":"levelo_inurba_marseille","lat":43.24097,"lon":5.37746,"is_reserved":false,"is_disabled":false,"rental_uris":{"android":"levelo://app?vid=27e2e700-c978-4d72-8e0b-9608485d555f","ios":"levelo://app?vid=27e2e700-c978-4d72-8e0b-9608485d555f"},"vehicle_type_id":"4","last_reported":1747685470,"current_range_meters":12000,"station_id":"ce4bhnp2rcd13ifvqgvg","pricing_plan_id":"cebpf4jnsgd1na2vs0mg"},{"bike_id":"a7c541e8-781c-441f-b257-f716be18bf71","system_id":"levelo_inurba_marseille","lat":43.295095,"lon":5.375165,"is_reserved":false,"is_disabled":false,"rental_uris":{"android":"levelo://app?vid=a7c541e8-781c-441f-b257-f716be18bf71","ios":"levelo://app?vid=a7c541e8-781c-441f-b257-f716be18bf71"},"vehicle_type_id":"4","last_reported":1747685470,"current_range_meters":12000,"station_id":"ce4bgkp2rcd13ifvqbmg","pricing_plan_id":"cebpf4jnsgd1na2vs0mg"},{"bike_id":"22f2d5e4-f531-47c9-a214-d1f290f53e03","system_id":"levelo_inurba_marseille","lat":43.320507,"lon":5.415417,"is_reserved":false,"is_disabled":false,"rental_uris":{"android":"levelo://app?vid=22f2d5e4-f531-47c9-a214-d1f290f53e03","ios":"levelo://app?vid=22f2d5e4-f531-47c9-a214-d1f290f53e03"},"vehicle_type_id":"4","last_reported":1747685470,"current_range_meters":12000,"station_id":"ce4bhq92rcd13ifvqhkg","pricing_plan_id":"cebpf4jnsgd1na2vs0mg"},{"bike_id":"7b4ebcee-a823-442f-a8fb-bd9eabc7a6ed","system_id":"levelo_inurba_marseille","lat":43.25098,"lon":5.38822,"is_reserved":false,"is_disabled":false,"rental_uris":{"android":"levelo://app?vid=7b4ebcee-a823-442f-a8fb-bd9eabc7a6ed","ios":"levelo://app?vid=7b4ebcee-a823-442f-a8fb-bd9eabc7a6ed"},"vehicle_type_id":"4","last_reported":1747685470,"current_range_meters":12000,"station_id":"","pricing_plan_id":"cebpf4jnsgd1na2vs0mg"},{"bike_id":"e40a60b7-4395-46e1-a7b8-3186548ec20c","system_id":"levelo_inurba_marseille","lat":43.30939,"lon":5.4014,"is_reserved":false,"is_disabled":false,"rental_uris":{"android":"levelo://app?vid=e40a60b7-4395-46e1-a7b8-3186548ec20c","ios":"levelo://app?vid=e40a60b7-4395-46e1-a7b8-3186548ec20c"},"vehicle_type_id":"4","last_reported":1747685470,"current_range_meters":12000,"station_id":"ce4bgvp2rcd13ifvqct0","pricing_plan_id":"cebpf4jnsgd1na2vs0mg"},{"bike_id":"bffbaf88-357a-4e87-a68c-a9a27a6e01e6","system_id":"levelo_inurba_marseille","lat":43.2625,"lon":5.42115,"is_reserved":false,"is_disabled":false,"rental_uris":{"android":"levelo://app?vid=bffbaf88-357a-4e87-a68c-a9a27a6e01e6","ios":"levelo://app?vid=bffbaf88-357a-4e87-a68c-a9a27a6e01e6"},"vehicle_type_id":"4","last_reported":1747685470,"current_range_meters":12000,"station_id":"","pricing_plan_id":"cebpf4jnsgd1na2vs0mg"},{"bike_id":"75cb7a19-5149-4370-adef-68f1df212651","system_id":"levelo_inurba_marseille","lat":43.29434,"lon":5.38611,"is_reserved":false,"is_disabled":false,"rental_uris":{"android":"levelo://app?vid=75cb7a19-5149-4370-adef-68f1df212651","ios":"levelo://app?vid=75cb7a19-5149-4370-adef-68f1df212651"},"vehicle_type_id":"4","last_reported":1747685470,"current_range_meters":12000,"station_id":"ce4bh2h2rcd13ifvqdh0","pricing_plan_id":"cebpf4jnsgd1na2vs0mg"},{"bike_id":"3532affc-a16c-4c55-aef2-438c57750ba1","system_id":"levelo_inurba_marseille","lat":43.289418,"lon":5.36397,"is_reserved":false,"is_disabled":false,"rental_uris":{"android":"levelo://app?vid=3532affc-a16c-4c55-aef2-438c57750ba1","ios":"levelo://app?vid=3532affc-a16c-4c55-aef2-438c57750ba1"},"vehicle_type_id":"4","last_reported":1747685470,"current_range_meters":12400,"station_id":"ce4bhc92rcd13ifvqetg","pricing_plan_id":"cebpf4jnsgd1na2vs0mg"},{"bike_id":"d6390f49-bf8e-40a9-b02e-28d21b9244a6","system_id":"levelo_inurba_marseille","lat":43.2903,"lon":5.38639,"is_reserved":false,"is_disabled":false,"rental_uris":{"android":"levelo://app?vid=d6390f49-bf8e-40a9-b02e-28d21b9244a6","ios":"levelo://app?vid=d6390f49-bf8e-40a9-b02e-28d21b9244a6"},"vehicle_type_id":"4","last_reported":1747685470,"current_range_meters":12400,"station_id":"ce4bh4p2rcd13ifvqe0g","pricing_plan_id":"cebpf4jnsgd1na2vs0mg"},{"bike_id":"d39cae16-34b5-4b82-8fc6-cac28c889070","system_id":"levelo_inurba_marseille","lat":43.29429,"lon":5.3862,"is_reserved":false,"is_disabled":true,"rental_uris":{"android":"levelo://app?vid=d39cae16-34b5-4b82-8fc6-cac28c889070","ios":"levelo://app?vid=d39cae16-34b5-4b82-8fc6-cac28c889070"},"vehicle_type_id":"4","last_reported":1747685470,"current_range_meters":12400,"station_id":"ce4bh2h2rcd13ifvqdh0","pricing_plan_id":"cebpf4jnsgd1na2vs0mg"},{"bike_id":"89d6dca3-fa56-4269-a112-df994d6f335d","system_id":"levelo_inurba_marseille","lat":43.30431,"lon":5.3975,"is_reserved":false,"is_disabled":false,"rental_uris":{"android":"levelo://app?vid=89d6dca3-fa56-4269-a112-df994d6f335d","ios":"levelo://app?vid=89d6dca3-fa56-4269-a112-df994d6f335d"},"vehicle_type_id":"4","last_reported":1747685470,"current_range_meters":12400,"station_id":"ce4bh092rcd13ifvqd20","pricing_plan_id":"cebpf4jnsgd1na2vs0mg"},{"bike_id":"6d28aee7-748a-4db2-b227-7272438b68ca","system_id":"levelo_inurba_marseille","lat":43.293526,"lon":5.3881,"is_reserved":false,"is_disabled":false,"rental_uris":{"android":"levelo://app?vid=6d28aee7-748a-4db2-b227-7272438b68ca","ios":"levelo://app?vid=6d28aee7-748a-4db2-b227-7272438b68ca"},"vehicle_type_id":"4","last_reported":1747685470,"current_range_meters":12400,"station_id":"ce4bh292rcd13ifvqdf0","pricing_plan_id":"cebpf4jnsgd1na2vs0mg"},{"bike_id":"52a39732-f389-4238-8320-12a8ecb43bc9","system_id":"levelo_inurba_marseille","lat":43.33764,"lon":5.3748,"is_reserved":false,"is_disabled":false,"rental_uris":{"android":"levelo://app?vid=52a39732-f389-4238-8320-12a8ecb43bc9","ios":"levelo://app?vid=52a39732-f389-4238-8320-12a8ecb43bc9"},"vehicle_type_id":"4","last_reported":1747685470,"current_range_meters":12400,"station_id":"","pricing_plan_id":"cebpf4jnsgd1na2vs0mg"},{"bike_id":"02fc1184-206c-48c4-a5e6-80d0158ace74","system_id":"levelo_inurba_marseille","lat":43.30356,"lon":5.36915,"is_reserved":false,"is_disabled":true,"rental_uris":{"android":"levelo://app?vid=02fc1184-206c-48c4-a5e6-80d0158ace74","ios":"levelo://app?vid=02fc1184-206c-48c4-a5e6-80d0158ace74"},"vehicle_type_id":"4","last_reported":1747685470,"current_range_meters":12800,"station_id":"ce4bgqh2rcd13ifvqc5g","pricing_plan_id":"cebpf4jnsgd1na2vs0mg"},{"bike_id":"b7ce7f8b-ba36-4e4d-a12a-d89ce35110f0","system_id":"levelo_inurba_marseille","lat":43.24382,"lon":5.37047,"is_reserved":false,"is_disabled":false,"rental_uris":{"android":"levelo://app?vid=b7ce7f8b-ba36-4e4d-a12a-d89ce35110f0","ios":"levelo://app?vid=b7ce7f8b-ba36-4e4d-a12a-d89ce35110f0"},"vehicle_type_id":"4","last_reported":1747685470,"current_range_meters":12800,"station_id":"ce4bhhh2rcd13ifvqfk0","pricing_plan_id":"cebpf4jnsgd1na2vs0mg"},{"bike_id":"204d1b88-2cc3-469d-bac1-db71361fd818","system_id":"levelo_inurba_marseille","lat":43.29035,"lon":5.38652,"is_reserved":false,"is_disabled":true,"rental_uris":{"android":"levelo://app?vid=204d1b88-2cc3-469d-bac1-db71361fd818","ios":"levelo://app?vid=204d1b88-2cc3-469d-bac1-db71361fd818"},"vehicle_type_id":"4","last_reported":1747685470,"current_range_meters":12800,"station_id":"ce4bh4p2rcd13ifvqe0g","pricing_plan_id":"cebpf4jnsgd1na2vs0mg"},{"bike_id":"45301c01-b041-4bcf-8043-cc735fe4d258","system_id":"levelo_inurba_marseille","lat":43.28707,"lon":5.39985,"is_reserved":false,"is_disabled":false,"rental_uris":{"android":"levelo://app?vid=45301c01-b041-4bcf-8043-cc735fe4d258","ios":"levelo://app?vid=45301c01-b041-4bcf-8043-cc735fe4d258"},"vehicle_type_id":"4","last_reported":1747685470,"current_range_meters":12800,"station_id":"ce4bho92rcd13ifvqh3g","pricing_plan_id":"cebpf4jnsgd1na2vs0mg"},{"bike_id":"598900bc-cc96-46f3-b8f9-32958f862dd5","system_id":"levelo_inurba_marseille","lat":43.30413,"lon":5.36792,"is_reserved":false,"is_disabled":false,"rental_uris":{"android":"levelo://app?vid=598900bc-cc96-46f3-b8f9-32958f862dd5","ios":"levelo://app?vid=598900bc-cc96-46f3-b8f9-32958f862dd5"},"vehicle_type_id":"4","last_reported":1747685470,"current_range_meters":13600,"station_id":"","pricing_plan_id":"cebpf4jnsgd1na2vs0mg"},{"bike_id":"f3dd4642-98de-4393-9209-048925d90605","system_id":"levelo_inurba_marseille","lat":43.24391,"lon":5.3705,"is_reserved":false,"is_disabled":false,"rental_uris":{"android":"levelo://app?vid=f3dd4642-98de-4393-9209-048925d90605","ios":"levelo://app?vid=f3dd4642-98de-4393-9209-048925d90605"},"vehicle_type_id":"4","last_reported":1747685470,"current_range_meters":13600,"station_id":"ce4bhhh2rcd13ifvqfk0","pricing_plan_id":"cebpf4jnsgd1na2vs0mg"},{"bike_id":"b4b15575-a401-4b8c-b577-39a250ba6f7f","system_id":"levelo_inurba_marseille","lat":43.28703,"lon":5.3739,"is_reserved":false,"is_disabled":false,"rental_uris":{"android":"levelo://app?vid=b4b15575-a401-4b8c-b577-39a250ba6f7f","ios":"levelo://app?vid=b4b15575-a401-4b8c-b577-39a250ba6f7f"},"vehicle_type_id":"4","last_reported":1747685470,"current_range_meters":13600,"station_id":"ce4bh3p2rcd13ifvqdq0","pricing_plan_id":"cebpf4jnsgd1na2vs0mg"},{"bike_id":"08129706-0840-4cc7-a7e9-4dbc2d7407ba","system_id":"levelo_inurba_marseille","lat":43.23199,"lon":5.39984,"is_reserved":false,"is_disabled":false,"rental_uris":{"android":"levelo://app?vid=08129706-0840-4cc7-a7e9-4dbc2d7407ba","ios":"levelo://app?vid=08129706-0840-4cc7-a7e9-4dbc2d7407ba"},"vehicle_type_id":"4","last_reported":1747685470,"current_range_meters":13600,"station_id":"ce4bhn12rcd13ifvqgqg","pricing_plan_id":"cebpf4jnsgd1na2vs0mg"},{"bike_id":"0767dbbf-ed3c-4904-92d7-716004b3e1f9","system_id":"levelo_inurba_marseille","lat":43.25585,"lon":5.38234,"is_reserved":false,"is_disabled":true,"rental_uris":{"android":"levelo://app?vid=0767dbbf-ed3c-4904-92d7-716004b3e1f9","ios":"levelo://app?vid=0767dbbf-ed3c-4904-92d7-716004b3e1f9"},"vehicle_type_id":"4","last_reported":1747685470,"current_range_meters":14000,"station_id":"ce4bhih2rcd13ifvqfs0","pricing_plan_id":"cebpf4jnsgd1na2vs0mg"},{"bike_id":"0f5e51c5-c8d7-47f5-8b06-dfdcf1c9042a","system_id":"levelo_inurba_marseille","lat":43.29786,"lon":5.39345,"is_reserved":false,"is_disabled":false,"rental_uris":{"android":"levelo://app?vid=0f5e51c5-c8d7-47f5-8b06-dfdcf1c9042a","ios":"levelo://app?vid=0f5e51c5-c8d7-47f5-8b06-dfdcf1c9042a"},"vehicle_type_id":"4","last_reported":1747685470,"current_range_meters":14000,"station_id":"chh1huq6cuj3fo74tm60","pricing_plan_id":"cebpf4jnsgd1na2vs0mg"},{"bike_id":"2aeaf632-8f44-4284-bf3b-9782c3bf4f04","system_id":"levelo_inurba_marseille","lat":43.27173,"lon":5.40991,"is_reserved":false,"is_disabled":false,"rental_uris":{"android":"levelo://app?vid=2aeaf632-8f44-4284-bf3b-9782c3bf4f04","ios":"levelo://app?vid=2aeaf632-8f44-4284-bf3b-9782c3bf4f04"},"vehicle_type_id":"4","last_reported":1747685470,"current_range_meters":14400,"station_id":"ce4bhl12rcd13ifvqgf0","pricing_plan_id":"cebpf4jnsgd1na2vs0mg"},{"bike_id":"b7cb1705-6b5a-49c6-8905-4f8177d4379a","system_id":"levelo_inurba_marseille","lat":43.23192,"lon":5.39975,"is_reserved":false,"is_disabled":false,"rental_uris":{"android":"levelo://app?vid=b7cb1705-6b5a-49c6-8905-4f8177d4379a","ios":"levelo://app?vid=b7cb1705-6b5a-49c6-8905-4f8177d4379a"},"vehicle_type_id":"4","last_reported":1747685470,"current_range_meters":14400,"station_id":"ce4bhn12rcd13ifvqgqg","pricing_plan_id":"cebpf4jnsgd1na2vs0mg"},{"bike_id":"58edc354-c183-4da4-b527-1ba0f2d395e0","system_id":"levelo_inurba_marseille","lat":43.27667,"lon":5.35741,"is_reserved":false,"is_disabled":false,"rental_uris":{"android":"levelo://app?vid=58edc354-c183-4da4-b527-1ba0f2d395e0","ios":"levelo://app?vid=58edc354-c183-4da4-b527-1ba0f2d395e0"},"vehicle_type_id":"4","last_reported":1747685470,"current_range_meters":14400,"station_id":"","pricing_plan_id":"cebpf4jnsgd1na2vs0mg"},{"bike_id":"a5f241f5-5f56-4773-b4f4-368dd15e3cca","system_id":"levelo_inurba_marseille","lat":43.32367,"lon":5.38882,"is_reserved":false,"is_disabled":false,"rental_uris":{"android":"levelo://app?vid=a5f241f5-5f56-4773-b4f4-368dd15e3cca","ios":"levelo://app?vid=a5f241f5-5f56-4773-b4f4-368dd15e3cca"},"vehicle_type_id":"4","last_reported":1747685470,"current_range_meters":14400,"station_id":"ce4bhqp2rcd13ifvqhog","pricing_plan_id":"cebpf4jnsgd1na2vs0mg"},{"bike_id":"5c5a00b5-fb99-4e85-8127-37a584ab780b","system_id":"levelo_inurba_marseille","lat":43.28409,"lon":5.37519,"is_reserved":false,"is_disabled":false,"rental_uris":{"android":"levelo://app?vid=5c5a00b5-fb99-4e85-8127-37a584ab780b","ios":"levelo://app?vid=5c5a00b5-fb99-4e85-8127-37a584ab780b"},"vehicle_type_id":"4","last_reported":1747685470,"current_range_meters":14400,"station_id":"ce4bh412rcd13ifvqds0","pricing_plan_id":"cebpf4jnsgd1na2vs0mg"},{"bike_id":"363e9216-b958-47f9-991c-1c8209edd2c4","system_id":"levelo_inurba_marseille","lat":43.24628,"lon":5.38206,"is_reserved":false,"is_disabled":false,"rental_uris":{"android":"levelo://app?vid=363e9216-b958-47f9-991c-1c8209edd2c4","ios":"levelo://app?vid=363e9216-b958-47f9-991c-1c8209edd2c4"},"vehicle_type_id":"4","last_reported":1747685470,"current_range_meters":14400,"station_id":"ce4bhih2rcd13ifvqfr0","pricing_plan_id":"cebpf4jnsgd1na2vs0mg"},{"bike_id":"71bb9e10-b108-472d-8ec5-020260e96a4f","system_id":"levelo_inurba_marseille","lat":43.295255,"lon":5.375092,"is_reserved":false,"is_disabled":false,"rental_uris":{"android":"levelo://app?vid=71bb9e10-b108-472d-8ec5-020260e96a4f","ios":"levelo://app?vid=71bb9e10-b108-472d-8ec5-020260e96a4f"},"vehicle_type_id":"4","last_reported":1747685470,"current_range_meters":14400,"station_id":"ce4bgkp2rcd13ifvqbmg","pricing_plan_id":"cebpf4jnsgd1na2vs0mg"},{"bike_id":"42873080-f9e3-47ba-b353-a90896a97271","system_id":"levelo_inurba_marseille","lat":43.301252,"lon":5.398625,"is_reserved":false,"is_disabled":false,"rental_uris":{"android":"levelo://app?vid=42873080-f9e3-47ba-b353-a90896a97271","ios":"levelo://app?vid=42873080-f9e3-47ba-b353-a90896a97271"},"vehicle_type_id":"4","last_reported":1747685470,"current_range_meters":14400,"station_id":"","pricing_plan_id":"cebpf4jnsgd1na2vs0mg"},{"bike_id":"456a516a-c231-4cc2-a8e1-6374d6d4c4c2","system_id":"levelo_inurba_marseille","lat":43.25491,"lon":5.37654,"is_reserved":false,"is_disabled":false,"rental_uris":{"android":"levelo://app?vid=456a516a-c231-4cc2-a8e1-6374d6d4c4c2","ios":"levelo://app?vid=456a516a-c231-4cc2-a8e1-6374d6d4c4c2"},"vehicle_type_id":"4","last_reported":1747685470,"current_range_meters":14800,"station_id":"ce4bhh12rcd13ifvqff0","pricing_plan_id":"cebpf4jnsgd1na2vs0mg"},{"bike_id":"90f54537-d221-4536-9bd3-e51e9de58781","system_id":"levelo_inurba_marseille","lat":43.26057,"lon":5.39392,"is_reserved":false,"is_disabled":false,"rental_uris":{"android":"levelo://app?vid=90f54537-d221-4536-9bd3-e51e9de58781","ios":"levelo://app?vid=90f54537-d221-4536-9bd3-e51e9de58781"},"vehicle_type_id":"4","last_reported":1747685470,"current_range_meters":14800,"station_id":"ce4bhh92rcd13ifvqfj0","pricing_plan_id":"cebpf4jnsgd1na2vs0mg"},{"bike_id":"e8162579-a5ad-485f-ad83-fec8a2ebe7e1","system_id":"levelo_inurba_marseille","lat":43.26826,"lon":5.39099,"is_reserved":false,"is_disabled":false,"rental_uris":{"android":"levelo://app?vid=e8162579-a5ad-485f-ad83-fec8a2ebe7e1","ios":"levelo://app?vid=e8162579-a5ad-485f-ad83-fec8a2ebe7e1"},"vehicle_type_id":"4","last_reported":1747685470,"current_range_meters":14800,"station_id":"","pricing_plan_id":"cebpf4jnsgd1na2vs0mg"},{"bike_id":"4cf252d5-ad53-42b6-99d0-afef2e5a7b0d","system_id":"levelo_inurba_marseille","lat":43.25122,"lon":5.40315,"is_reserved":false,"is_disabled":false,"rental_uris":{"android":"levelo://app?vid=4cf252d5-ad53-42b6-99d0-afef2e5a7b0d","ios":"levelo://app?vid=4cf252d5-ad53-42b6-99d0-afef2e5a7b0d"},"vehicle_type_id":"4","last_reported":1747685470,"current_range_meters":14800,"station_id":"ce4bhlh2rcd13ifvqgig","pricing_plan_id":"cebpf4jnsgd1na2vs0mg"},{"bike_id":"f9bd452a-300d-4454-890a-c716cf8ab1c5","system_id":"levelo_inurba_marseille","lat":43.25021,"lon":5.38945,"is_reserved":false,"is_disabled":false,"rental_uris":{"android":"levelo://app?vid=f9bd452a-300d-4454-890a-c716cf8ab1c5","ios":"levelo://app?vid=f9bd452a-300d-4454-890a-c716cf8ab1c5"},"vehicle_type_id":"4","last_reported":1747685470,"current_range_meters":14800,"station_id":"ce4bhgp2rcd13ifvqfd0","pricing_plan_id":"cebpf4jnsgd1na2vs0mg"},{"bike_id":"98804e99-9bed-4363-a5ff-1489de79ae3d","system_id":"levelo_inurba_marseille","lat":43.28163,"lon":5.42647,"is_reserved":false,"is_disabled":true,"rental_uris":{"android":"levelo://app?vid=98804e99-9bed-4363-a5ff-1489de79ae3d","ios":"levelo://app?vid=98804e99-9bed-4363-a5ff-1489de79ae3d"},"vehicle_type_id":"4","last_reported":1747685470,"current_range_meters":14800,"station_id":"ce4bhnh2rcd13ifvqgug","pricing_plan_id":"cebpf4jnsgd1na2vs0mg"},{"bike_id":"628788cf-3233-4064-a9b6-85e355a69ede","system_id":"levelo_inurba_marseille","lat":43.30141,"lon":5.3985,"is_reserved":false,"is_disabled":false,"rental_uris":{"android":"levelo://app?vid=628788cf-3233-4064-a9b6-85e355a69ede","ios":"levelo://app?vid=628788cf-3233-4064-a9b6-85e355a69ede"},"vehicle_type_id":"4","last_reported":1747685470,"current_range_meters":14800,"station_id":"ce4bh0h2rcd13ifvqd40","pricing_plan_id":"cebpf4jnsgd1na2vs0mg"},{"bike_id":"d697058e-547e-42bd-afb5-b3a876e0999f","system_id":"levelo_inurba_marseille","lat":43.29516,"lon":5.39406,"is_reserved":false,"is_disabled":false,"rental_uris":{"android":"levelo://app?vid=d697058e-547e-42bd-afb5-b3a876e0999f","ios":"levelo://app?vid=d697058e-547e-42bd-afb5-b3a876e0999f"},"vehicle_type_id":"4","last_reported":1747685470,"current_range_meters":14800,"station_id":"ce4bh292rcd13ifvqdf0","pricing_plan_id":"cebpf4jnsgd1na2vs0mg"},{"bike_id":"0f9d6bdf-1d4f-466e-aa63-557c75d3adc2","system_id":"levelo_inurba_marseille","lat":43.28033,"lon":5.36939,"is_reserved":false,"is_disabled":false,"rental_uris":{"android":"levelo://app?vid=0f9d6bdf-1d4f-466e-aa63-557c75d3adc2","ios":"levelo://app?vid=0f9d6bdf-1d4f-466e-aa63-557c75d3adc2"},"vehicle_type_id":"4","last_reported":1747685470,"current_range_meters":15200,"station_id":"ce4bha12rcd13ifvqef0","pricing_plan_id":"cebpf4jnsgd1na2vs0mg"},{"bike_id":"1b31bf37-a912-4364-8591-6b0c720766eb","system_id":"levelo_inurba_marseille","lat":43.2993,"lon":5.36537,"is_reserved":false,"is_disabled":false,"rental_uris":{"android":"levelo://app?vid=1b31bf37-a912-4364-8591-6b0c720766eb","ios":"levelo://app?vid=1b31bf37-a912-4364-8591-6b0c720766eb"},"vehicle_type_id":"4","last_reported":1747685470,"current_range_meters":15200,"station_id":"ce4bgm92rcd13ifvqbr0","pricing_plan_id":"cebpf4jnsgd1na2vs0mg"},{"bike_id":"a7e8035b-e08a-4b29-8422-d94596c65bcf","system_id":"levelo_inurba_marseille","lat":43.29034,"lon":5.39975,"is_reserved":false,"is_disabled":false,"rental_uris":{"android":"levelo://app?vid=a7e8035b-e08a-4b29-8422-d94596c65bcf","ios":"levelo://app?vid=a7e8035b-e08a-4b29-8422-d94596c65bcf"},"vehicle_type_id":"4","last_reported":1747685470,"current_range_meters":15200,"station_id":"ce4bh392rcd13ifvqdm0","pricing_plan_id":"cebpf4jnsgd1na2vs0mg"},{"bike_id":"85dfae1b-64c4-41d9-aeae-cb5d23409f7d","system_id":"levelo_inurba_marseille","lat":43.301703,"lon":5.366212,"is_reserved":false,"is_disabled":false,"rental_uris":{"android":"levelo://app?vid=85dfae1b-64c4-41d9-aeae-cb5d23409f7d","ios":"levelo://app?vid=85dfae1b-64c4-41d9-aeae-cb5d23409f7d"},"vehicle_type_id":"4","last_reported":1747685470,"current_range_meters":14800,"station_id":"ce4bgrh2rcd13ifvqc8g","pricing_plan_id":"cebpf4jnsgd1na2vs0mg"},{"bike_id":"184a7879-daca-44b6-873d-e1c7c604e329","system_id":"levelo_inurba_marseille","lat":43.30459,"lon":5.37904,"is_reserved":false,"is_disabled":true,"rental_uris":{"android":"levelo://app?vid=184a7879-daca-44b6-873d-e1c7c604e329","ios":"levelo://app?vid=184a7879-daca-44b6-873d-e1c7c604e329"},"vehicle_type_id":"4","last_reported":1747685470,"current_range_meters":15200,"station_id":"ce4bgup2rcd13ifvqcn0","pricing_plan_id":"cebpf4jnsgd1na2vs0mg"},{"bike_id":"8cdd073a-e8df-449a-afb9-12ee118845c7","system_id":"levelo_inurba_marseille","lat":43.29796,"lon":5.39335,"is_reserved":false,"is_disabled":false,"rental_uris":{"android":"levelo://app?vid=8cdd073a-e8df-449a-afb9-12ee118845c7","ios":"levelo://app?vid=8cdd073a-e8df-449a-afb9-12ee118845c7"},"vehicle_type_id":"4","last_reported":1747685470,"current_range_meters":16000,"station_id":"chh1huq6cuj3fo74tm60","pricing_plan_id":"cebpf4jnsgd1na2vs0mg"},{"bike_id":"556f14c3-bd96-43ad-8909-a176e855011f","system_id":"levelo_inurba_marseille","lat":43.29527,"lon":5.39038,"is_reserved":false,"is_disabled":false,"rental_uris":{"android":"levelo://app?vid=556f14c3-bd96-43ad-8909-a176e855011f","ios":"levelo://app?vid=556f14c3-bd96-43ad-8909-a176e855011f"},"vehicle_type_id":"4","last_reported":1747685470,"current_range_meters":16000,"station_id":"ce4bh3p2rcd13ifvqdp0","pricing_plan_id":"cebpf4jnsgd1na2vs0mg"},{"bike_id":"c2e77b35-792d-4143-9acd-2c2d91b7a1a7","system_id":"levelo_inurba_marseille","lat":43.25117,"lon":5.40323,"is_reserved":false,"is_disabled":false,"rental_uris":{"android":"levelo://app?vid=c2e77b35-792d-4143-9acd-2c2d91b7a1a7","ios":"levelo://app?vid=c2e77b35-792d-4143-9acd-2c2d91b7a1a7"},"vehicle_type_id":"4","last_reported":1747685470,"current_range_meters":16000,"station_id":"ce4bhlh2rcd13ifvqgig","pricing_plan_id":"cebpf4jnsgd1na2vs0mg"},{"bike_id":"e2e3a6f6-0f08-4185-b27b-75bc9500a96d","system_id":"levelo_inurba_marseille","lat":43.21187,"lon":5.35069,"is_reserved":false,"is_disabled":false,"rental_uris":{"android":"levelo://app?vid=e2e3a6f6-0f08-4185-b27b-75bc9500a96d","ios":"levelo://app?vid=e2e3a6f6-0f08-4185-b27b-75bc9500a96d"},"vehicle_type_id":"4","last_reported":1747685470,"current_range_meters":16000,"station_id":"st_cvj6sg6p6f1abm77japg","pricing_plan_id":"cebpf4jnsgd1na2vs0mg"},{"bike_id":"086c0a4e-fb14-464c-9b41-b9f172c26b53","system_id":"levelo_inurba_marseille","lat":43.292,"lon":5.39319,"is_reserved":false,"is_disabled":false,"rental_uris":{"android":"levelo://app?vid=086c0a4e-fb14-464c-9b41-b9f172c26b53","ios":"levelo://app?vid=086c0a4e-fb14-464c-9b41-b9f172c26b53"},"vehicle_type_id":"4","last_reported":1747685470,"current_range_meters":16000,"station_id":"ce4bh192rcd13ifvqdd0","pricing_plan_id":"cebpf4jnsgd1na2vs0mg"},{"bike_id":"7ddd82f2-75df-464b-8c03-766d7fbb61de","system_id":"levelo_inurba_marseille","lat":43.29253,"lon":5.40909,"is_reserved":false,"is_disabled":false,"rental_uris":{"android":"levelo://app?vid=7ddd82f2-75df-464b-8c03-766d7fbb61de","ios":"levelo://app?vid=7ddd82f2-75df-464b-8c03-766d7fbb61de"},"vehicle_type_id":"4","last_reported":1747685470,"current_range_meters":16000,"station_id":"ce4bh192rcd13ifvqdc0","pricing_plan_id":"cebpf4jnsgd1na2vs0mg"},{"bike_id":"3552fbf2-b43a-446f-93f5-d695fc251b73","system_id":"levelo_inurba_marseille","lat":43.251744,"lon":5.375169,"is_reserved":false,"is_disabled":false,"rental_uris":{"android":"levelo://app?vid=3552fbf2-b43a-446f-93f5-d695fc251b73","ios":"levelo://app?vid=3552fbf2-b43a-446f-93f5-d695fc251b73"},"vehicle_type_id":"4","last_reported":1747685470,"current_range_meters":16000,"station_id":"","pricing_plan_id":"cebpf4jnsgd1na2vs0mg"},{"bike_id":"1d835ed3-5cc5-43af-9a90-d987c8f36062","system_id":"levelo_inurba_marseille","lat":43.29514,"lon":5.39411,"is_reserved":false,"is_disabled":false,"rental_uris":{"android":"levelo://app?vid=1d835ed3-5cc5-43af-9a90-d987c8f36062","ios":"levelo://app?vid=1d835ed3-5cc5-43af-9a90-d987c8f36062"},"vehicle_type_id":"4","last_reported":1747685470,"current_range_meters":16000,"station_id":"ce4bh292rcd13ifvqdf0","pricing_plan_id":"cebpf4jnsgd1na2vs0mg"},{"bike_id":"e913026c-84a4-42fd-ab18-aa4aaabec47d","system_id":"levelo_inurba_marseille","lat":43.31335,"lon":5.3972,"is_reserved":false,"is_disabled":false,"rental_uris":{"android":"levelo://app?vid=e913026c-84a4-42fd-ab18-aa4aaabec47d","ios":"levelo://app?vid=e913026c-84a4-42fd-ab18-aa4aaabec47d"},"vehicle_type_id":"4","last_reported":1747685470,"current_range_meters":16000,"station_id":"ce4bgvp2rcd13ifvqcu0","pricing_plan_id":"cebpf4jnsgd1na2vs0mg"},{"bike_id":"bc20e170-706b-4239-9c7d-af27505198a7","system_id":"levelo_inurba_marseille","lat":43.31059,"lon":5.38352,"is_reserved":false,"is_disabled":false,"rental_uris":{"android":"levelo://app?vid=bc20e170-706b-4239-9c7d-af27505198a7","ios":"levelo://app?vid=bc20e170-706b-4239-9c7d-af27505198a7"},"vehicle_type_id":"4","last_reported":1747685470,"current_range_meters":16000,"station_id":"ce4bgv92rcd13ifvqcr0","pricing_plan_id":"cebpf4jnsgd1na2vs0mg"},{"bike_id":"da7eb900-1880-4e5b-af1f-908b515dbd64","system_id":"levelo_inurba_marseille","lat":43.24806,"lon":5.37456,"is_reserved":false,"is_disabled":false,"rental_uris":{"android":"levelo://app?vid=da7eb900-1880-4e5b-af1f-908b515dbd64","ios":"levelo://app?vid=da7eb900-1880-4e5b-af1f-908b515dbd64"},"vehicle_type_id":"4","last_reported":1747685470,"current_range_meters":16000,"station_id":"ce4bhgh2rcd13ifvqfb0","pricing_plan_id":"cebpf4jnsgd1na2vs0mg"},{"bike_id":"ce4d1ffa-876e-4dab-b1eb-9b411a2a1967","system_id":"levelo_inurba_marseille","lat":43.27821,"lon":5.40725,"is_reserved":false,"is_disabled":false,"rental_uris":{"android":"levelo://app?vid=ce4d1ffa-876e-4dab-b1eb-9b411a2a1967","ios":"levelo://app?vid=ce4d1ffa-876e-4dab-b1eb-9b411a2a1967"},"vehicle_type_id":"4","last_reported":1747685470,"current_range_meters":16000,"station_id":"ce4bhnh2rcd13ifvqgtg","pricing_plan_id":"cebpf4jnsgd1na2vs0mg"},{"bike_id":"c3c11b11-8507-45b4-bd48-1e3bdd46fbbe","system_id":"levelo_inurba_marseille","lat":43.231916,"lon":5.399778,"is_reserved":false,"is_disabled":false,"rental_uris":{"android":"levelo://app?vid=c3c11b11-8507-45b4-bd48-1e3bdd46fbbe","ios":"levelo://app?vid=c3c11b11-8507-45b4-bd48-1e3bdd46fbbe"},"vehicle_type_id":"4","last_reported":1747685470,"current_range_meters":16000,"station_id":"ce4bhn12rcd13ifvqgqg","pricing_plan_id":"cebpf4jnsgd1na2vs0mg"},{"bike_id":"8f9ad8e5-2995-4373-82e2-2e6740189ba1","system_id":"levelo_inurba_marseille","lat":43.301962,"lon":5.366,"is_reserved":false,"is_disabled":false,"rental_uris":{"android":"levelo://app?vid=8f9ad8e5-2995-4373-82e2-2e6740189ba1","ios":"levelo://app?vid=8f9ad8e5-2995-4373-82e2-2e6740189ba1"},"vehicle_type_id":"4","last_reported":1747685470,"current_range_meters":16400,"station_id":"ce4bgrh2rcd13ifvqc8g","pricing_plan_id":"cebpf4jnsgd1na2vs0mg"},{"bike_id":"41d22d97-83cd-47f1-8818-b5e928f9e6d5","system_id":"levelo_inurba_marseille","lat":43.2987,"lon":5.39734,"is_reserved":false,"is_disabled":false,"rental_uris":{"android":"levelo://app?vid=41d22d97-83cd-47f1-8818-b5e928f9e6d5","ios":"levelo://app?vid=41d22d97-83cd-47f1-8818-b5e928f9e6d5"},"vehicle_type_id":"4","last_reported":1747685470,"current_range_meters":16400,"station_id":"ce4bh0h2rcd13ifvqd50","pricing_plan_id":"cebpf4jnsgd1na2vs0mg"},{"bike_id":"b4092363-ce05-481e-b8a5-74f257327df5","system_id":"levelo_inurba_marseille","lat":43.250869,"lon":5.395242,"is_reserved":false,"is_disabled":false,"rental_uris":{"android":"levelo://app?vid=b4092363-ce05-481e-b8a5-74f257327df5","ios":"levelo://app?vid=b4092363-ce05-481e-b8a5-74f257327df5"},"vehicle_type_id":"4","last_reported":1747685470,"current_range_meters":16400,"station_id":"ce4bhm12rcd13ifvqgkg","pricing_plan_id":"cebpf4jnsgd1na2vs0mg"},{"bike_id":"b32f6d29-bee7-4ee5-b42d-ed12c0f62a56","system_id":"levelo_inurba_marseille","lat":43.30132,"lon":5.38789,"is_reserved":false,"is_disabled":true,"rental_uris":{"android":"levelo://app?vid=b32f6d29-bee7-4ee5-b42d-ed12c0f62a56","ios":"levelo://app?vid=b32f6d29-bee7-4ee5-b42d-ed12c0f62a56"},"vehicle_type_id":"4","last_reported":1747685470,"current_range_meters":16400,"station_id":"ce4bghh2rcd13ifvqb60","pricing_plan_id":"cebpf4jnsgd1na2vs0mg"},{"bike_id":"a9a52592-a933-4d4c-940a-15671a18b36e","system_id":"levelo_inurba_marseille","lat":43.30426,"lon":5.38892,"is_reserved":false,"is_disabled":false,"rental_uris":{"android":"levelo://app?vid=a9a52592-a933-4d4c-940a-15671a18b36e","ios":"levelo://app?vid=a9a52592-a933-4d4c-940a-15671a18b36e"},"vehicle_type_id":"4","last_reported":1747685470,"current_range_meters":16400,"station_id":"ce4bgk12rcd13ifvqbi0","pricing_plan_id":"cebpf4jnsgd1na2vs0mg"},{"bike_id":"a0bee6b3-c94f-4580-b8bd-acf53b81d8eb","system_id":"levelo_inurba_marseille","lat":43.25079,"lon":5.39513,"is_reserved":false,"is_disabled":false,"rental_uris":{"android":"levelo://app?vid=a0bee6b3-c94f-4580-b8bd-acf53b81d8eb","ios":"levelo://app?vid=a0bee6b3-c94f-4580-b8bd-acf53b81d8eb"},"vehicle_type_id":"4","last_reported":1747685470,"current_range_meters":16000,"station_id":"ce4bhm12rcd13ifvqgkg","pricing_plan_id":"cebpf4jnsgd1na2vs0mg"},{"bike_id":"6386b301-5c5b-41dc-9be6-064d845d26a2","system_id":"levelo_inurba_marseille","lat":43.28611,"lon":5.40607,"is_reserved":false,"is_disabled":false,"rental_uris":{"android":"levelo://app?vid=6386b301-5c5b-41dc-9be6-064d845d26a2","ios":"levelo://app?vid=6386b301-5c5b-41dc-9be6-064d845d26a2"},"vehicle_type_id":"4","last_reported":1747685470,"current_range_meters":16400,"station_id":"","pricing_plan_id":"cebpf4jnsgd1na2vs0mg"},{"bike_id":"4582b182-ab7d-4ec0-8e76-fc7c78cbc46f","system_id":"levelo_inurba_marseille","lat":43.30637,"lon":5.40062,"is_reserved":false,"is_disabled":false,"rental_uris":{"android":"levelo://app?vid=4582b182-ab7d-4ec0-8e76-fc7c78cbc46f","ios":"levelo://app?vid=4582b182-ab7d-4ec0-8e76-fc7c78cbc46f"},"vehicle_type_id":"4","last_reported":1747685470,"current_range_meters":16400,"station_id":"ce4bh112rcd13ifvqda0","pricing_plan_id":"cebpf4jnsgd1na2vs0mg"},{"bike_id":"7af17d99-af41-438b-9061-c62535fdf3e8","system_id":"levelo_inurba_marseille","lat":43.28106,"lon":5.37849,"is_reserved":false,"is_disabled":false,"rental_uris":{"android":"levelo://app?vid=7af17d99-af41-438b-9061-c62535fdf3e8","ios":"levelo://app?vid=7af17d99-af41-438b-9061-c62535fdf3e8"},"vehicle_type_id":"4","last_reported":1747685470,"current_range_meters":16400,"station_id":"ce4bha12rcd13ifvqee0","pricing_plan_id":"cebpf4jnsgd1na2vs0mg"},{"bike_id":"24dbe563-5dda-406b-b0f8-c10d8dbdd999","system_id":"levelo_inurba_marseille","lat":43.31158,"lon":5.38739,"is_reserved":false,"is_disabled":false,"rental_uris":{"android":"levelo://app?vid=24dbe563-5dda-406b-b0f8-c10d8dbdd999","ios":"levelo://app?vid=24dbe563-5dda-406b-b0f8-c10d8dbdd999"},"vehicle_type_id":"4","last_reported":1747685470,"current_range_meters":16400,"station_id":"ce4bgv12rcd13ifvqcp0","pricing_plan_id":"cebpf4jnsgd1na2vs0mg"},{"bike_id":"23b120fa-d716-425e-8af2-99d4ce2b4374","system_id":"levelo_inurba_marseille","lat":43.29781,"lon":5.36162,"is_reserved":false,"is_disabled":false,"rental_uris":{"android":"levelo://app?vid=23b120fa-d716-425e-8af2-99d4ce2b4374","ios":"levelo://app?vid=23b120fa-d716-425e-8af2-99d4ce2b4374"},"vehicle_type_id":"4","last_reported":1747685470,"current_range_meters":16800,"station_id":"","pricing_plan_id":"cebpf4jnsgd1na2vs0mg"},{"bike_id":"a42e957d-9b1e-4a1f-b33d-e24f8341a7c6","system_id":"levelo_inurba_marseille","lat":43.28854,"lon":5.39303,"is_reserved":false,"is_disabled":false,"rental_uris":{"android":"levelo://app?vid=a42e957d-9b1e-4a1f-b33d-e24f8341a7c6","ios":"levelo://app?vid=a42e957d-9b1e-4a1f-b33d-e24f8341a7c6"},"vehicle_type_id":"4","last_reported":1747685470,"current_range_meters":16800,"station_id":"ce4bh2p2rcd13ifvqdi0","pricing_plan_id":"cebpf4jnsgd1na2vs0mg"},{"bike_id":"a77299a9-0afc-4000-817b-f97ca1eaadca","system_id":"levelo_inurba_marseille","lat":43.28819,"lon":5.45966,"is_reserved":false,"is_disabled":false,"rental_uris":{"android":"levelo://app?vid=a77299a9-0afc-4000-817b-f97ca1eaadca","ios":"levelo://app?vid=a77299a9-0afc-4000-817b-f97ca1eaadca"},"vehicle_type_id":"4","last_reported":1747685470,"current_range_meters":16800,"station_id":"","pricing_plan_id":"cebpf4jnsgd1na2vs0mg"},{"bike_id":"116ee6de-5d7e-4a40-80f6-c5e3f47d2eb6","system_id":"levelo_inurba_marseille","lat":43.30418,"lon":5.41275,"is_reserved":false,"is_disabled":false,"rental_uris":{"android":"levelo://app?vid=116ee6de-5d7e-4a40-80f6-c5e3f47d2eb6","ios":"levelo://app?vid=116ee6de-5d7e-4a40-80f6-c5e3f47d2eb6"},"vehicle_type_id":"4","last_reported":1747685470,"current_range_meters":16800,"station_id":"ce4bhop2rcd13ifvqh8g","pricing_plan_id":"cebpf4jnsgd1na2vs0mg"},{"bike_id":"b0433ccc-6563-455c-a28b-040334faf9ec","system_id":"levelo_inurba_marseille","lat":43.28947,"lon":5.38387,"is_reserved":false,"is_disabled":false,"rental_uris":{"android":"levelo://app?vid=b0433ccc-6563-455c-a28b-040334faf9ec","ios":"levelo://app?vid=b0433ccc-6563-455c-a28b-040334faf9ec"},"vehicle_type_id":"4","last_reported":1747685470,"current_range_meters":16800,"station_id":"ce4bh612rcd13ifvqe6g","pricing_plan_id":"cebpf4jnsgd1na2vs0mg"},{"bike_id":"63b003dc-5596-4436-8892-fdd75971a57f","system_id":"levelo_inurba_marseille","lat":43.29438,"lon":5.3976,"is_reserved":false,"is_disabled":false,"rental_uris":{"android":"levelo://app?vid=63b003dc-5596-4436-8892-fdd75971a57f","ios":"levelo://app?vid=63b003dc-5596-4436-8892-fdd75971a57f"},"vehicle_type_id":"4","last_reported":1747685470,"current_range_meters":16800,"station_id":"ce4bh3h2rcd13ifvqdo0","pricing_plan_id":"cebpf4jnsgd1na2vs0mg"},{"bike_id":"901d18ec-442b-4311-be09-c99faa5dda47","system_id":"levelo_inurba_marseille","lat":43.299917,"lon":5.371765,"is_reserved":false,"is_disabled":true,"rental_uris":{"android":"levelo://app?vid=901d18ec-442b-4311-be09-c99faa5dda47","ios":"levelo://app?vid=901d18ec-442b-4311-be09-c99faa5dda47"},"vehicle_type_id":"4","last_reported":1747685470,"current_range_meters":16800,"station_id":"ce4bgr92rcd13ifvqc7g","pricing_plan_id":"cebpf4jnsgd1na2vs0mg"},{"bike_id":"7fc9d16f-9edc-4254-a04c-0541e66329e3","system_id":"levelo_inurba_marseille","lat":43.30921,"lon":5.40141,"is_reserved":false,"is_disabled":false,"rental_uris":{"android":"levelo://app?vid=7fc9d16f-9edc-4254-a04c-0541e66329e3","ios":"levelo://app?vid=7fc9d16f-9edc-4254-a04c-0541e66329e3"},"vehicle_type_id":"4","last_reported":1747685470,"current_range_meters":16800,"station_id":"ce4bgvp2rcd13ifvqct0","pricing_plan_id":"cebpf4jnsgd1na2vs0mg"},{"bike_id":"0c75e290-2f49-4428-9202-02a35670787a","system_id":"levelo_inurba_marseille","lat":43.23187,"lon":5.3998,"is_reserved":false,"is_disabled":false,"rental_uris":{"android":"levelo://app?vid=0c75e290-2f49-4428-9202-02a35670787a","ios":"levelo://app?vid=0c75e290-2f49-4428-9202-02a35670787a"},"vehicle_type_id":"4","last_reported":1747685470,"current_range_meters":16800,"station_id":"ce4bhn12rcd13ifvqgqg","pricing_plan_id":"cebpf4jnsgd1na2vs0mg"},{"bike_id":"08ea18f2-dc53-4ee0-8fd1-93801ba6e874","system_id":"levelo_inurba_marseille","lat":43.310774,"lon":5.383676,"is_reserved":false,"is_disabled":false,"rental_uris":{"android":"levelo://app?vid=08ea18f2-dc53-4ee0-8fd1-93801ba6e874","ios":"levelo://app?vid=08ea18f2-dc53-4ee0-8fd1-93801ba6e874"},"vehicle_type_id":"4","last_reported":1747685470,"current_range_meters":16800,"station_id":"ce4bgv92rcd13ifvqcr0","pricing_plan_id":"cebpf4jnsgd1na2vs0mg"},{"bike_id":"75dee7d2-0f48-4cd8-b326-0e219910beed","system_id":"levelo_inurba_marseille","lat":43.30808,"lon":5.4352,"is_reserved":false,"is_disabled":false,"rental_uris":{"android":"levelo://app?vid=75dee7d2-0f48-4cd8-b326-0e219910beed","ios":"levelo://app?vid=75dee7d2-0f48-4cd8-b326-0e219910beed"},"vehicle_type_id":"4","last_reported":1747685470,"current_range_meters":16800,"station_id":"ce4bhph2rcd13ifvqheg","pricing_plan_id":"cebpf4jnsgd1na2vs0mg"},{"bike_id":"e51befbe-cf96-4093-bd1e-fed128350563","system_id":"levelo_inurba_marseille","lat":43.29038,"lon":5.39956,"is_reserved":false,"is_disabled":false,"rental_uris":{"android":"levelo://app?vid=e51befbe-cf96-4093-bd1e-fed128350563","ios":"levelo://app?vid=e51befbe-cf96-4093-bd1e-fed128350563"},"vehicle_type_id":"4","last_reported":1747685470,"current_range_meters":16800,"station_id":"ce4bh392rcd13ifvqdm0","pricing_plan_id":"cebpf4jnsgd1na2vs0mg"},{"bike_id":"59b8a132-4666-485c-b6ad-3e889f0d9322","system_id":"levelo_inurba_marseille","lat":43.25504,"lon":5.37646,"is_reserved":false,"is_disabled":false,"rental_uris":{"android":"levelo://app?vid=59b8a132-4666-485c-b6ad-3e889f0d9322","ios":"levelo://app?vid=59b8a132-4666-485c-b6ad-3e889f0d9322"},"vehicle_type_id":"4","last_reported":1747685470,"current_range_meters":16800,"station_id":"ce4bhh12rcd13ifvqff0","pricing_plan_id":"cebpf4jnsgd1na2vs0mg"},{"bike_id":"bb0f493b-8272-4d6e-a5af-db294d830357","system_id":"levelo_inurba_marseille","lat":43.28924,"lon":5.38401,"is_reserved":false,"is_disabled":false,"rental_uris":{"android":"levelo://app?vid=bb0f493b-8272-4d6e-a5af-db294d830357","ios":"levelo://app?vid=bb0f493b-8272-4d6e-a5af-db294d830357"},"vehicle_type_id":"4","last_reported":1747685470,"current_range_meters":16800,"station_id":"ce4bh612rcd13ifvqe6g","pricing_plan_id":"cebpf4jnsgd1na2vs0mg"},{"bike_id":"71817c77-e9f1-483d-89c1-16ca77de3122","system_id":"levelo_inurba_marseille","lat":43.250897,"lon":5.395202,"is_reserved":false,"is_disabled":false,"rental_uris":{"android":"levelo://app?vid=71817c77-e9f1-483d-89c1-16ca77de3122","ios":"levelo://app?vid=71817c77-e9f1-483d-89c1-16ca77de3122"},"vehicle_type_id":"4","last_reported":1747685470,"current_range_meters":17200,"station_id":"ce4bhm12rcd13ifvqgkg","pricing_plan_id":"cebpf4jnsgd1na2vs0mg"},{"bike_id":"c70ddfdf-9c57-4e15-8d20-2b018e791063","system_id":"levelo_inurba_marseille","lat":43.2761,"lon":5.36123,"is_reserved":false,"is_disabled":false,"rental_uris":{"android":"levelo://app?vid=c70ddfdf-9c57-4e15-8d20-2b018e791063","ios":"levelo://app?vid=c70ddfdf-9c57-4e15-8d20-2b018e791063"},"vehicle_type_id":"4","last_reported":1747685470,"current_range_meters":17200,"station_id":"ce4bgj92rcd13ifvqbe0","pricing_plan_id":"cebpf4jnsgd1na2vs0mg"},{"bike_id":"b209cd27-532c-40f1-a5bf-f25f6c308ae9","system_id":"levelo_inurba_marseille","lat":43.28862,"lon":5.39316,"is_reserved":false,"is_disabled":true,"rental_uris":{"android":"levelo://app?vid=b209cd27-532c-40f1-a5bf-f25f6c308ae9","ios":"levelo://app?vid=b209cd27-532c-40f1-a5bf-f25f6c308ae9"},"vehicle_type_id":"4","last_reported":1747685470,"current_range_meters":17200,"station_id":"ce4bh2p2rcd13ifvqdi0","pricing_plan_id":"cebpf4jnsgd1na2vs0mg"},{"bike_id":"b7e0350b-cc7d-4dd2-b33d-8d2589f9b4f2","system_id":"levelo_inurba_marseille","lat":43.24669,"lon":5.38149,"is_reserved":false,"is_disabled":false,"rental_uris":{"android":"levelo://app?vid=b7e0350b-cc7d-4dd2-b33d-8d2589f9b4f2","ios":"levelo://app?vid=b7e0350b-cc7d-4dd2-b33d-8d2589f9b4f2"},"vehicle_type_id":"4","last_reported":1747685470,"current_range_meters":17200,"station_id":"ce4bhih2rcd13ifvqfr0","pricing_plan_id":"cebpf4jnsgd1na2vs0mg"},{"bike_id":"e99b8a47-c0dc-4394-9c45-10656e9f9828","system_id":"levelo_inurba_marseille","lat":43.28981,"lon":5.37836,"is_reserved":false,"is_disabled":false,"rental_uris":{"android":"levelo://app?vid=e99b8a47-c0dc-4394-9c45-10656e9f9828","ios":"levelo://app?vid=e99b8a47-c0dc-4394-9c45-10656e9f9828"},"vehicle_type_id":"4","last_reported":1747685470,"current_range_meters":16800,"station_id":"ce4bh9p2rcd13ifvqed0","pricing_plan_id":"cebpf4jnsgd1na2vs0mg"},{"bike_id":"77ae2670-5f4a-4f82-a74a-99848315064b","system_id":"levelo_inurba_marseille","lat":43.303251,"lon":5.404407,"is_reserved":false,"is_disabled":true,"rental_uris":{"android":"levelo://app?vid=77ae2670-5f4a-4f82-a74a-99848315064b","ios":"levelo://app?vid=77ae2670-5f4a-4f82-a74a-99848315064b"},"vehicle_type_id":"4","last_reported":1747685470,"current_range_meters":17200,"station_id":"ce4bh012rcd13ifvqd10","pricing_plan_id":"cebpf4jnsgd1na2vs0mg"},{"bike_id":"52e5a0fd-9a82-4a4a-8f0b-b92665327644","system_id":"levelo_inurba_marseille","lat":43.30804,"lon":5.43526,"is_reserved":false,"is_disabled":false,"rental_uris":{"android":"levelo://app?vid=52e5a0fd-9a82-4a4a-8f0b-b92665327644","ios":"levelo://app?vid=52e5a0fd-9a82-4a4a-8f0b-b92665327644"},"vehicle_type_id":"4","last_reported":1747685470,"current_range_meters":17200,"station_id":"ce4bhph2rcd13ifvqheg","pricing_plan_id":"cebpf4jnsgd1na2vs0mg"},{"bike_id":"c40b2fd9-f981-40cf-89f2-80a57a8a7189","system_id":"levelo_inurba_marseille","lat":43.27999,"lon":5.4164,"is_reserved":false,"is_disabled":false,"rental_uris":{"android":"levelo://app?vid=c40b2fd9-f981-40cf-89f2-80a57a8a7189","ios":"levelo://app?vid=c40b2fd9-f981-40cf-89f2-80a57a8a7189"},"vehicle_type_id":"4","last_reported":1747685470,"current_range_meters":16800,"station_id":"ce4bho12rcd13ifvqh1g","pricing_plan_id":"cebpf4jnsgd1na2vs0mg"},{"bike_id":"a8777a9f-99f2-4b30-810f-483f13b2660d","system_id":"levelo_inurba_marseille","lat":43.295897,"lon":5.380883,"is_reserved":false,"is_disabled":false,"rental_uris":{"android":"levelo://app?vid=a8777a9f-99f2-4b30-810f-483f13b2660d","ios":"levelo://app?vid=a8777a9f-99f2-4b30-810f-483f13b2660d"},"vehicle_type_id":"4","last_reported":1747685470,"current_range_meters":17200,"station_id":"ce4bgl12rcd13ifvqbo0","pricing_plan_id":"cebpf4jnsgd1na2vs0mg"},{"bike_id":"09d6ba82-f698-49a9-8e0d-85a4008ad1f8","system_id":"levelo_inurba_marseille","lat":43.31182,"lon":5.38715,"is_reserved":false,"is_disabled":false,"rental_uris":{"android":"levelo://app?vid=09d6ba82-f698-49a9-8e0d-85a4008ad1f8","ios":"levelo://app?vid=09d6ba82-f698-49a9-8e0d-85a4008ad1f8"},"vehicle_type_id":"4","last_reported":1747685470,"current_range_meters":17600,"station_id":"ce4bgv12rcd13ifvqcp0","pricing_plan_id":"cebpf4jnsgd1na2vs0mg"},{"bike_id":"34c4dd8b-c54d-4091-aae0-4314cce99203","system_id":"levelo_inurba_marseille","lat":43.29037,"lon":5.39952,"is_reserved":false,"is_disabled":false,"rental_uris":{"android":"levelo://app?vid=34c4dd8b-c54d-4091-aae0-4314cce99203","ios":"levelo://app?vid=34c4dd8b-c54d-4091-aae0-4314cce99203"},"vehicle_type_id":"4","last_reported":1747685470,"current_range_meters":17600,"station_id":"ce4bh392rcd13ifvqdm0","pricing_plan_id":"cebpf4jnsgd1na2vs0mg"},{"bike_id":"81a475cb-99c7-4d36-a670-3f659ab10961","system_id":"levelo_inurba_marseille","lat":43.28173,"lon":5.42535,"is_reserved":false,"is_disabled":false,"rental_uris":{"android":"levelo://app?vid=81a475cb-99c7-4d36-a670-3f659ab10961","ios":"levelo://app?vid=81a475cb-99c7-4d36-a670-3f659ab10961"},"vehicle_type_id":"4","last_reported":1747685470,"current_range_meters":17600,"station_id":"ce4bho12rcd13ifvqh1g","pricing_plan_id":"cebpf4jnsgd1na2vs0mg"},{"bike_id":"e1d57822-ecc8-4c43-b3f2-6f5adecafb55","system_id":"levelo_inurba_marseille","lat":43.25089,"lon":5.39509,"is_reserved":false,"is_disabled":false,"rental_uris":{"android":"levelo://app?vid=e1d57822-ecc8-4c43-b3f2-6f5adecafb55","ios":"levelo://app?vid=e1d57822-ecc8-4c43-b3f2-6f5adecafb55"},"vehicle_type_id":"4","last_reported":1747685470,"current_range_meters":17600,"station_id":"ce4bhm12rcd13ifvqgkg","pricing_plan_id":"cebpf4jnsgd1na2vs0mg"},{"bike_id":"3db1d010-48a6-49be-97c6-2133fb8ee162","system_id":"levelo_inurba_marseille","lat":43.29996,"lon":5.38484,"is_reserved":false,"is_disabled":true,"rental_uris":{"android":"levelo://app?vid=3db1d010-48a6-49be-97c6-2133fb8ee162","ios":"levelo://app?vid=3db1d010-48a6-49be-97c6-2133fb8ee162"},"vehicle_type_id":"4","last_reported":1747685470,"current_range_meters":17600,"station_id":"ce4bgj92rcd13ifvqbd0","pricing_plan_id":"cebpf4jnsgd1na2vs0mg"},{"bike_id":"2ff1b42c-a33b-4c54-9bd2-7488a6afc333","system_id":"levelo_inurba_marseille","lat":43.3361,"lon":5.41036,"is_reserved":false,"is_disabled":false,"rental_uris":{"android":"levelo://app?vid=2ff1b42c-a33b-4c54-9bd2-7488a6afc333","ios":"levelo://app?vid=2ff1b42c-a33b-4c54-9bd2-7488a6afc333"},"vehicle_type_id":"4","last_reported":1747685470,"current_range_meters":17600,"station_id":"ce4bhqh2rcd13ifvqhmg","pricing_plan_id":"cebpf4jnsgd1na2vs0mg"},{"bike_id":"dc80936a-51b4-4ef9-b71e-e259b58f2ac3","system_id":"levelo_inurba_marseille","lat":43.23191,"lon":5.39986,"is_reserved":false,"is_disabled":false,"rental_uris":{"android":"levelo://app?vid=dc80936a-51b4-4ef9-b71e-e259b58f2ac3","ios":"levelo://app?vid=dc80936a-51b4-4ef9-b71e-e259b58f2ac3"},"vehicle_type_id":"4","last_reported":1747685470,"current_range_meters":17600,"station_id":"ce4bhn12rcd13ifvqgqg","pricing_plan_id":"cebpf4jnsgd1na2vs0mg"},{"bike_id":"42cce372-3d36-4197-a55b-bf6adec344a3","system_id":"levelo_inurba_marseille","lat":43.30254,"lon":5.40057,"is_reserved":false,"is_disabled":false,"rental_uris":{"android":"levelo://app?vid=42cce372-3d36-4197-a55b-bf6adec344a3","ios":"levelo://app?vid=42cce372-3d36-4197-a55b-bf6adec344a3"},"vehicle_type_id":"4","last_reported":1747685470,"current_range_meters":17600,"station_id":"ce4bgvh2rcd13ifvqcs0","pricing_plan_id":"cebpf4jnsgd1na2vs0mg"},{"bike_id":"88ca128f-95aa-471a-8d6e-d0983532e50f","system_id":"levelo_inurba_marseille","lat":43.29529,"lon":5.38547,"is_reserved":false,"is_disabled":false,"rental_uris":{"android":"levelo://app?vid=88ca128f-95aa-471a-8d6e-d0983532e50f","ios":"levelo://app?vid=88ca128f-95aa-471a-8d6e-d0983532e50f"},"vehicle_type_id":"4","last_reported":1747685470,"current_range_meters":17600,"station_id":"ce4bgih2rcd13ifvqba0","pricing_plan_id":"cebpf4jnsgd1na2vs0mg"},{"bike_id":"bfadeaec-216b-47d1-99b4-74d81f9ee763","system_id":"levelo_inurba_marseille","lat":43.32121,"lon":5.36754,"is_reserved":false,"is_disabled":false,"rental_uris":{"android":"levelo://app?vid=bfadeaec-216b-47d1-99b4-74d81f9ee763","ios":"levelo://app?vid=bfadeaec-216b-47d1-99b4-74d81f9ee763"},"vehicle_type_id":"4","last_reported":1747685470,"current_range_meters":17600,"station_id":"ce4bhrh2rcd13ifvqhug","pricing_plan_id":"cebpf4jnsgd1na2vs0mg"},{"bike_id":"ec2e7cdc-5a49-4257-b205-f17da4cbfbe8","system_id":"levelo_inurba_marseille","lat":43.28715,"lon":5.36078,"is_reserved":false,"is_disabled":false,"rental_uris":{"android":"levelo://app?vid=ec2e7cdc-5a49-4257-b205-f17da4cbfbe8","ios":"levelo://app?vid=ec2e7cdc-5a49-4257-b205-f17da4cbfbe8"},"vehicle_type_id":"4","last_reported":1747685470,"current_range_meters":17600,"station_id":"cki0cbj6b192h4jlfktg","pricing_plan_id":"cebpf4jnsgd1na2vs0mg"},{"bike_id":"7c9f3701-53db-4d87-9f94-eb38a6ee0638","system_id":"levelo_inurba_marseille","lat":43.2954,"lon":5.38544,"is_reserved":false,"is_disabled":false,"rental_uris":{"android":"levelo://app?vid=7c9f3701-53db-4d87-9f94-eb38a6ee0638","ios":"levelo://app?vid=7c9f3701-53db-4d87-9f94-eb38a6ee0638"},"vehicle_type_id":"4","last_reported":1747685470,"current_range_meters":18000,"station_id":"ce4bgih2rcd13ifvqba0","pricing_plan_id":"cebpf4jnsgd1na2vs0mg"},{"bike_id":"9b2aa40e-57c3-4408-94ac-4c591bc4a178","system_id":"levelo_inurba_marseille","lat":43.29466,"lon":5.39735,"is_reserved":false,"is_disabled":false,"rental_uris":{"android":"levelo://app?vid=9b2aa40e-57c3-4408-94ac-4c591bc4a178","ios":"levelo://app?vid=9b2aa40e-57c3-4408-94ac-4c591bc4a178"},"vehicle_type_id":"4","last_reported":1747685470,"current_range_meters":18000,"station_id":"ce4bh3h2rcd13ifvqdo0","pricing_plan_id":"cebpf4jnsgd1na2vs0mg"},{"bike_id":"b382ee40-568b-43b7-96f1-4ffc4397c109","system_id":"levelo_inurba_marseille","lat":43.29423,"lon":5.38634,"is_reserved":false,"is_disabled":false,"rental_uris":{"android":"levelo://app?vid=b382ee40-568b-43b7-96f1-4ffc4397c109","ios":"levelo://app?vid=b382ee40-568b-43b7-96f1-4ffc4397c109"},"vehicle_type_id":"4","last_reported":1747685470,"current_range_meters":18000,"station_id":"ce4bh2h2rcd13ifvqdh0","pricing_plan_id":"cebpf4jnsgd1na2vs0mg"},{"bike_id":"96806db4-e850-4c29-beae-3920eff38299","system_id":"levelo_inurba_marseille","lat":43.29254,"lon":5.37614,"is_reserved":false,"is_disabled":true,"rental_uris":{"android":"levelo://app?vid=96806db4-e850-4c29-beae-3920eff38299","ios":"levelo://app?vid=96806db4-e850-4c29-beae-3920eff38299"},"vehicle_type_id":"4","last_reported":1747685470,"current_range_meters":18000,"station_id":"ce4bgi12rcd13ifvqb80","pricing_plan_id":"cebpf4jnsgd1na2vs0mg"},{"bike_id":"d278edee-e6ad-472b-b0eb-74513eff0694","system_id":"levelo_inurba_marseille","lat":43.29725,"lon":5.37686,"is_reserved":false,"is_disabled":false,"rental_uris":{"android":"levelo://app?vid=d278edee-e6ad-472b-b0eb-74513eff0694","ios":"levelo://app?vid=d278edee-e6ad-472b-b0eb-74513eff0694"},"vehicle_type_id":"4","last_reported":1747685470,"current_range_meters":18000,"station_id":"ce4bgkh2rcd13ifvqbl0","pricing_plan_id":"cebpf4jnsgd1na2vs0mg"},{"bike_id":"9ada3d5b-978b-4ec2-9070-d6f67a311b0d","system_id":"levelo_inurba_marseille","lat":43.29264,"lon":5.37631,"is_reserved":false,"is_disabled":false,"rental_uris":{"android":"levelo://app?vid=9ada3d5b-978b-4ec2-9070-d6f67a311b0d","ios":"levelo://app?vid=9ada3d5b-978b-4ec2-9070-d6f67a311b0d"},"vehicle_type_id":"4","last_reported":1747685470,"current_range_meters":18000,"station_id":"ce4bgi12rcd13ifvqb80","pricing_plan_id":"cebpf4jnsgd1na2vs0mg"},{"bike_id":"17008679-5b7b-4904-b0a5-a1a99ad3c945","system_id":"levelo_inurba_marseille","lat":43.29535,"lon":5.37502,"is_reserved":false,"is_disabled":true,"rental_uris":{"android":"levelo://app?vid=17008679-5b7b-4904-b0a5-a1a99ad3c945","ios":"levelo://app?vid=17008679-5b7b-4904-b0a5-a1a99ad3c945"},"vehicle_type_id":"4","last_reported":1747685470,"current_range_meters":18000,"station_id":"ce4bgkp2rcd13ifvqbmg","pricing_plan_id":"cebpf4jnsgd1na2vs0mg"},{"bike_id":"355fa922-9f86-4264-9051-ad322d8753e8","system_id":"levelo_inurba_marseille","lat":43.2894,"lon":5.36632,"is_reserved":false,"is_disabled":false,"rental_uris":{"android":"levelo://app?vid=355fa922-9f86-4264-9051-ad322d8753e8","ios":"levelo://app?vid=355fa922-9f86-4264-9051-ad322d8753e8"},"vehicle_type_id":"4","last_reported":1747685470,"current_range_meters":18000,"station_id":"ce4bhap2rcd13ifvqek0","pricing_plan_id":"cebpf4jnsgd1na2vs0mg"},{"bike_id":"2c3ad9d4-c776-4675-a482-67f56f57093d","system_id":"levelo_inurba_marseille","lat":43.25109,"lon":5.4032,"is_reserved":false,"is_disabled":false,"rental_uris":{"android":"levelo://app?vid=2c3ad9d4-c776-4675-a482-67f56f57093d","ios":"levelo://app?vid=2c3ad9d4-c776-4675-a482-67f56f57093d"},"vehicle_type_id":"4","last_reported":1747685470,"current_range_meters":18000,"station_id":"ce4bhlh2rcd13ifvqgig","pricing_plan_id":"cebpf4jnsgd1na2vs0mg"},{"bike_id":"094332af-7863-4c9b-b973-ff23daa8d0b7","system_id":"levelo_inurba_marseille","lat":43.24653,"lon":5.38174,"is_reserved":false,"is_disabled":false,"rental_uris":{"android":"levelo://app?vid=094332af-7863-4c9b-b973-ff23daa8d0b7","ios":"levelo://app?vid=094332af-7863-4c9b-b973-ff23daa8d0b7"},"vehicle_type_id":"4","last_reported":1747685470,"current_range_meters":18800,"station_id":"ce4bhih2rcd13ifvqfr0","pricing_plan_id":"cebpf4jnsgd1na2vs0mg"},{"bike_id":"5a71c523-9a52-42df-b3b8-fc2acca84df9","system_id":"levelo_inurba_marseille","lat":43.29035,"lon":5.38642,"is_reserved":false,"is_disabled":false,"rental_uris":{"android":"levelo://app?vid=5a71c523-9a52-42df-b3b8-fc2acca84df9","ios":"levelo://app?vid=5a71c523-9a52-42df-b3b8-fc2acca84df9"},"vehicle_type_id":"4","last_reported":1747685470,"current_range_meters":18800,"station_id":"ce4bh4p2rcd13ifvqe0g","pricing_plan_id":"cebpf4jnsgd1na2vs0mg"},{"bike_id":"d8f4dca5-4410-43ef-a8d1-e53e76b49789","system_id":"levelo_inurba_marseille","lat":43.290334,"lon":5.375631,"is_reserved":false,"is_disabled":false,"rental_uris":{"android":"levelo://app?vid=d8f4dca5-4410-43ef-a8d1-e53e76b49789","ios":"levelo://app?vid=d8f4dca5-4410-43ef-a8d1-e53e76b49789"},"vehicle_type_id":"4","last_reported":1747685470,"current_range_meters":18800,"station_id":"ce4bh692rcd13ifvqe90","pricing_plan_id":"cebpf4jnsgd1na2vs0mg"},{"bike_id":"e8c59df5-fce5-4edb-858e-7dcc8a5e632b","system_id":"levelo_inurba_marseille","lat":43.30781,"lon":5.37651,"is_reserved":false,"is_disabled":false,"rental_uris":{"android":"levelo://app?vid=e8c59df5-fce5-4edb-858e-7dcc8a5e632b","ios":"levelo://app?vid=e8c59df5-fce5-4edb-858e-7dcc8a5e632b"},"vehicle_type_id":"4","last_reported":1747685470,"current_range_meters":18800,"station_id":"ce4bgv92rcd13ifvqcq0","pricing_plan_id":"cebpf4jnsgd1na2vs0mg"},{"bike_id":"67fd3aca-b968-4dc0-8ca2-134b471dcb07","system_id":"levelo_inurba_marseille","lat":43.28366,"lon":5.3863,"is_reserved":false,"is_disabled":false,"rental_uris":{"android":"levelo://app?vid=67fd3aca-b968-4dc0-8ca2-134b471dcb07","ios":"levelo://app?vid=67fd3aca-b968-4dc0-8ca2-134b471dcb07"},"vehicle_type_id":"4","last_reported":1747685470,"current_range_meters":19200,"station_id":"","pricing_plan_id":"cebpf4jnsgd1na2vs0mg"},{"bike_id":"f9c90d05-1e21-46d8-a31e-e48172780fca","system_id":"levelo_inurba_marseille","lat":43.295289,"lon":5.400399,"is_reserved":false,"is_disabled":false,"rental_uris":{"android":"levelo://app?vid=f9c90d05-1e21-46d8-a31e-e48172780fca","ios":"levelo://app?vid=f9c90d05-1e21-46d8-a31e-e48172780fca"},"vehicle_type_id":"4","last_reported":1747685470,"current_range_meters":19200,"station_id":"ce4bh012rcd13ifvqd10","pricing_plan_id":"cebpf4jnsgd1na2vs0mg"},{"bike_id":"e85a7873-7cb5-47d1-a562-7bdf9571449b","system_id":"levelo_inurba_marseille","lat":43.315756,"lon":5.403807,"is_reserved":false,"is_disabled":false,"rental_uris":{"android":"levelo://app?vid=e85a7873-7cb5-47d1-a562-7bdf9571449b","ios":"levelo://app?vid=e85a7873-7cb5-47d1-a562-7bdf9571449b"},"vehicle_type_id":"4","last_reported":1747685470,"current_range_meters":19200,"station_id":"","pricing_plan_id":"cebpf4jnsgd1na2vs0mg"},{"bike_id":"697a9b19-19cf-408f-a646-3bcdb4d31625","system_id":"levelo_inurba_marseille","lat":43.24659,"lon":5.38158,"is_reserved":false,"is_disabled":false,"rental_uris":{"android":"levelo://app?vid=697a9b19-19cf-408f-a646-3bcdb4d31625","ios":"levelo://app?vid=697a9b19-19cf-408f-a646-3bcdb4d31625"},"vehicle_type_id":"4","last_reported":1747685470,"current_range_meters":19200,"station_id":"ce4bhih2rcd13ifvqfr0","pricing_plan_id":"cebpf4jnsgd1na2vs0mg"},{"bike_id":"b8555ffa-0ae4-4721-9ab6-b93e4ef78d17","system_id":"levelo_inurba_marseille","lat":43.26227,"lon":5.40449,"is_reserved":false,"is_disabled":false,"rental_uris":{"android":"levelo://app?vid=b8555ffa-0ae4-4721-9ab6-b93e4ef78d17","ios":"levelo://app?vid=b8555ffa-0ae4-4721-9ab6-b93e4ef78d17"},"vehicle_type_id":"4","last_reported":1747685470,"current_range_meters":19200,"station_id":"ce4bhmh2rcd13ifvqgmg","pricing_plan_id":"cebpf4jnsgd1na2vs0mg"},{"bike_id":"c38942d9-07e4-4e14-9b31-0c324d6a4390","system_id":"levelo_inurba_marseille","lat":43.28033,"lon":5.36929,"is_reserved":false,"is_disabled":false,"rental_uris":{"android":"levelo://app?vid=c38942d9-07e4-4e14-9b31-0c324d6a4390","ios":"levelo://app?vid=c38942d9-07e4-4e14-9b31-0c324d6a4390"},"vehicle_type_id":"4","last_reported":1747685470,"current_range_meters":19200,"station_id":"ce4bha12rcd13ifvqef0","pricing_plan_id":"cebpf4jnsgd1na2vs0mg"},{"bike_id":"5765434c-77b5-41b5-8b14-b978e4d6dd10","system_id":"levelo_inurba_marseille","lat":43.21196,"lon":5.35126,"is_reserved":false,"is_disabled":false,"rental_uris":{"android":"levelo://app?vid=5765434c-77b5-41b5-8b14-b978e4d6dd10","ios":"levelo://app?vid=5765434c-77b5-41b5-8b14-b978e4d6dd10"},"vehicle_type_id":"4","last_reported":1747685470,"current_range_meters":19200,"station_id":"st_cvj6sg6p6f1abm77japg","pricing_plan_id":"cebpf4jnsgd1na2vs0mg"},