{"last_updated":1741975998,"ttl":60,"version":"2.2","data":{"bikes":[{"bike_id":"0c3f2cd8-79dc-443a-9154-f36b771d0d13","system_id":"levelo_inurba_marseille","lat":43.2954,"lon":5.39418,"is_reserved":false,"is_disabled":false,"rental_uris":{"android":"levelo://app?vid=0c3f2cd8-79dc-443a-9154-f36b771d0d13","ios":"levelo://app?vid=0c3f2cd8-79dc-443a-9154-f36b771d0d13"},"vehicle_type_id":"4","last_reported":1741975998,"current_range_meters":2800,"station_id":"ce4bh292rcd13ifvqdf0","pricing_plan_id":"cebpf4jnsgd1na2vs0mg"},{"bike_id":"b8c82659-0761-4743-82db-af36422a498a","system_id":"levelo_inurba_marseille","lat":43.301262,"lon":5.387876,"is_reserved":false,"is_disabled":false,"rental_uris":{"android":"levelo://app?vid=b8c82659-0761-4743-82db-af36422a498a","ios":"levelo://app?vid=b8c82659-0761-4743-82db-af36422a498a"},"vehicle_type_id":"4","last_reported":1741975998,"current_range_meters":2800,"station_id":"ce4bh4p2rcd13ifvqe0g","pricing_plan_id":"cebpf4jnsgd1na2vs0mg"},{"bike_id":"9aeee8f7-dc67-4c00-b922-d0828f062273","system_id":"levelo_inurba_marseille","lat":43.29305,"lon":5.3718,"is_reserved":false,"is_disabled":false,"rental_uris":{"android":"levelo://app?vid=9aeee8f7-dc67-4c00-b922-d0828f062273","ios":"levelo://app?vid=9aeee8f7-dc67-4c00-b922-d0828f062273"},"vehicle_type_id":"4","last_reported":1741975998,"current_range_meters":3200,"station_id":"ce4bgh92rcd13ifvqb40","pricing_plan_id":"cebpf4jnsgd1na2vs0mg"},{"bike_id":"e91ad161-6a51-43cc-83ae-68a8e87f323a","system_id":"levelo_inurba_marseille","lat":43.30636,"lon":5.40097,"is_reserved":false,"is_disabled":false,"rental_uris":{"android":"levelo://app?vid=e91ad161-6a51-43cc-83ae-68a8e87f323a","ios":"levelo://app?vid=e91ad161-6a51-43cc-83ae-68a8e87f323a"},"vehicle_type_id":"4","last_reported":1741975998,"current_range_meters":3600,"station_id":"ce4bh112rcd13ifvqda0","pricing_plan_id":"cebpf4jnsgd1na2vs0mg"},{"bike_id":"1758d361-7594-428e-adde-337902876a63","system_id":"levelo_inurba_marseille","lat":43.28402,"lon":5.37517,"is_reserved":false,"is_disabled":false,"rental_uris":{"android":"levelo://app?vid=1758d361-7594-428e-adde-337902876a63","ios":"levelo://app?vid=1758d361-7594-428e-adde-337902876a63"},"vehicle_type_id":"4","last_reported":1741975998,"current_range_meters":3600,"station_id":"ce4bh412rcd13ifvqds0","pricing_plan_id":"cebpf4jnsgd1na2vs0mg"},{"bike_id":"7ede5137-2e1f-44e6-ac4e-62e726d08520","system_id":"levelo_inurba_marseille","lat":43.26542,"lon":5.39037,"is_reserved":false,"is_disabled":true,"rental_uris":{"android":"levelo://app?vid=7ede5137-2e1f-44e6-ac4e-62e726d08520","ios":"levelo://app?vid=7ede5137-2e1f-44e6-ac4e-62e726d08520"},"vehicle_type_id":"4","last_reported":1741975998,"current_range_meters":3600,"station_id":"","pricing_plan_id":"cebpf4jnsgd1na2vs0mg"},{"bike_id":"154d0f4a-7cf1-4b4a-8919-807104d462e1","system_id":"levelo_inurba_marseille","lat":43.26655,"lon":5.38615,"is_reserved":false,"is_disabled":false,"rental_uris":{"android":"levelo://app?vid=154d0f4a-7cf1-4b4a-8919-807104d462e1","ios":"levelo://app?vid=154d0f4a-7cf1-4b4a-8919-807104d462e1"},"vehicle_type_id":"4","last_reported":1741975998,"current_range_meters":4000,"station_id":"","pricing_plan_id":"cebpf4jnsgd1na2vs0mg"},{"bike_id":"f538778a-9729-465e-9eb6-1dbba9c52281","system_id":"levelo_inurba_marseille","lat":43.32663,"lon":5.40988,"is_reserved":false,"is_disabled":false,"rental_uris":{"android":"levelo://app?vid=f538778a-9729-465e-9eb6-1dbba9c52281","ios":"levelo://app?vid=f538778a-9729-465e-9eb6-1dbba9c52281"},"vehicle_type_id":"4","last_reported":1741975998,"current_range_meters":4000,"station_id":"ce4bhpp2rcd13ifvqhgg","pricing_plan_id":"cebpf4jnsgd1na2vs0mg"},{"bike_id":"34419613-555b-4a7e-89c4-cf8a91ec83b7","system_id":"levelo_inurba_marseille","lat":43.27056,"lon":5.40258,"is_reserved":false,"is_disabled":false,"rental_uris":{"android":"levelo://app?vid=34419613-555b-4a7e-89c4-cf8a91ec83b7","ios":"levelo://app?vid=34419613-555b-4a7e-89c4-cf8a91ec83b7"},"vehicle_type_id":"4","last_reported":1741975998,"current_range_meters":4400,"station_id":"ce4bhk92rcd13ifvqgc0","pricing_plan_id":"cebpf4jnsgd1na2vs0mg"},{"bike_id":"9368caaf-2b1f-48cd-b401-3ae68fd8e11c","system_id":"levelo_inurba_marseille","lat":43.28267,"lon":5.35061,"is_reserved":false,"is_disabled":false,"rental_uris":{"android":"levelo://app?vid=9368caaf-2b1f-48cd-b401-3ae68fd8e11c","ios":"levelo://app?vid=9368caaf-2b1f-48cd-b401-3ae68fd8e11c"},"vehicle_type_id":"4","last_reported":1741975998,"current_range_meters":4400,"station_id":"ce4bhbp2rcd13ifvqerg","pricing_plan_id":"cebpf4jnsgd1na2vs0mg"},{"bike_id":"2bd82a15-086b-4c69-aad9-24bd3f34e967","system_id":"levelo_inurba_marseille","lat":43.29168,"lon":5.37157,"is_reserved":false,"is_disabled":false,"rental_uris":{"android":"levelo://app?vid=2bd82a15-086b-4c69-aad9-24bd3f34e967","ios":"levelo://app?vid=2bd82a15-086b-4c69-aad9-24bd3f34e967"},"vehicle_type_id":"4","last_reported":1741975998,"current_range_meters":4400,"station_id":"ce4bha92rcd13ifvqeh0","pricing_plan_id":"cebpf4jnsgd1na2vs0mg"},{"bike_id":"8600e973-6bae-49e6-a541-074b0686e3d2","system_id":"levelo_inurba_marseille","lat":43.32367,"lon":5.38883,"is_reserved":false,"is_disabled":false,"rental_uris":{"android":"levelo://app?vid=8600e973-6bae-49e6-a541-074b0686e3d2","ios":"levelo://app?vid=8600e973-6bae-49e6-a541-074b0686e3d2"},"vehicle_type_id":"4","last_reported":1741975998,"current_range_meters":4800,"station_id":"ce4bhqp2rcd13ifvqhog","pricing_plan_id":"cebpf4jnsgd1na2vs0mg"},{"bike_id":"181519e6-6ea0-4ba7-96ae-2b0ae35ae3b2","system_id":"levelo_inurba_marseille","lat":43.28965,"lon":5.37825,"is_reserved":false,"is_disabled":false,"rental_uris":{"android":"levelo://app?vid=181519e6-6ea0-4ba7-96ae-2b0ae35ae3b2","ios":"levelo://app?vid=181519e6-6ea0-4ba7-96ae-2b0ae35ae3b2"},"vehicle_type_id":"4","last_reported":1741975998,"current_range_meters":5600,"station_id":"ce4bh9p2rcd13ifvqed0","pricing_plan_id":"cebpf4jnsgd1na2vs0mg"},{"bike_id":"bea0aaa1-1e1b-4a71-a5e8-fd09480beefb","system_id":"levelo_inurba_marseille","lat":43.29056,"lon":5.37565,"is_reserved":false,"is_disabled":false,"rental_uris":{"android":"levelo://app?vid=bea0aaa1-1e1b-4a71-a5e8-fd09480beefb","ios":"levelo://app?vid=bea0aaa1-1e1b-4a71-a5e8-fd09480beefb"},"vehicle_type_id":"4","last_reported":1741975998,"current_range_meters":5600,"station_id":"ce4bh692rcd13ifvqe90","pricing_plan_id":"cebpf4jnsgd1na2vs0mg"},{"bike_id":"7b35ad81-591c-4cc8-b125-1210315faf0d","system_id":"levelo_inurba_marseille","lat":43.231486,"lon":5.437123,"is_reserved":false,"is_disabled":false,"rental_uris":{"android":"levelo://app?vid=7b35ad81-591c-4cc8-b125-1210315faf0d","ios":"levelo://app?vid=7b35ad81-591c-4cc8-b125-1210315faf0d"},"vehicle_type_id":"4","last_reported":1741975998,"current_range_meters":5600,"station_id":"ce4bhmp2rcd13ifvqgog","pricing_plan_id":"cebpf4jnsgd1na2vs0mg"},{"bike_id":"e350ce66-a995-469c-b4d1-ba6658fe49e2","system_id":"levelo_inurba_marseille","lat":43.27818,"lon":5.40717,"is_reserved":false,"is_disabled":false,"rental_uris":{"android":"levelo://app?vid=e350ce66-a995-469c-b4d1-ba6658fe49e2","ios":"levelo://app?vid=e350ce66-a995-469c-b4d1-ba6658fe49e2"},"vehicle_type_id":"4","last_reported":1741975998,"current_range_meters":5600,"station_id":"ce4bhnh2rcd13ifvqgtg","pricing_plan_id":"cebpf4jnsgd1na2vs0mg"},{"bike_id":"fb25c0f6-5882-4734-a76a-2aeb0b117f9b","system_id":"levelo_inurba_marseille","lat":43.3192,"lon":5.38483,"is_reserved":false,"is_disabled":true,"rental_uris":{"android":"levelo://app?vid=fb25c0f6-5882-4734-a76a-2aeb0b117f9b","ios":"levelo://app?vid=fb25c0f6-5882-4734-a76a-2aeb0b117f9b"},"vehicle_type_id":"4","last_reported":1741975998,"current_range_meters":6000,"station_id":"","pricing_plan_id":"cebpf4jnsgd1na2vs0mg"},{"bike_id":"83aa7ab2-d352-459f-bd36-67e70fb4a7aa","system_id":"levelo_inurba_marseille","lat":43.25929,"lon":5.40901,"is_reserved":false,"is_disabled":false,"rental_uris":{"android":"levelo://app?vid=83aa7ab2-d352-459f-bd36-67e70fb4a7aa","ios":"levelo://app?vid=83aa7ab2-d352-459f-bd36-67e70fb4a7aa"},"vehicle_type_id":"4","last_reported":1741975998,"current_range_meters":6000,"station_id":"ce4bhm92rcd13ifvqglg","pricing_plan_id":"cebpf4jnsgd1na2vs0mg"},{"bike_id":"110e432d-d096-4a43-9b6b-ed2ca7eb7ce3","system_id":"levelo_inurba_marseille","lat":43.29202,"lon":5.35808,"is_reserved":false,"is_disabled":false,"rental_uris":{"android":"levelo://app?vid=110e432d-d096-4a43-9b6b-ed2ca7eb7ce3","ios":"levelo://app?vid=110e432d-d096-4a43-9b6b-ed2ca7eb7ce3"},"vehicle_type_id":"4","last_reported":1741975998,"current_range_meters":6000,"station_id":"ce4bhb12rcd13ifvqel0","pricing_plan_id":"cebpf4jnsgd1na2vs0mg"},{"bike_id":"af5df027-9916-41a5-8ab7-db2182f63a1a","system_id":"levelo_inurba_marseille","lat":43.2931,"lon":5.37441,"is_reserved":false,"is_disabled":false,"rental_uris":{"android":"levelo://app?vid=af5df027-9916-41a5-8ab7-db2182f63a1a","ios":"levelo://app?vid=af5df027-9916-41a5-8ab7-db2182f63a1a"},"vehicle_type_id":"4","last_reported":1741975998,"current_range_meters":6000,"station_id":"ce4bgi12rcd13ifvqb70","pricing_plan_id":"cebpf4jnsgd1na2vs0mg"},{"bike_id":"bf48c47a-62e4-4cf1-8bef-197b6f14e28f","system_id":"levelo_inurba_marseille","lat":43.31241,"lon":5.40142,"is_reserved":false,"is_disabled":false,"rental_uris":{"android":"levelo://app?vid=bf48c47a-62e4-4cf1-8bef-197b6f14e28f","ios":"levelo://app?vid=bf48c47a-62e4-4cf1-8bef-197b6f14e28f"},"vehicle_type_id":"4","last_reported":1741975998,"current_range_meters":6000,"station_id":"ce4bh092rcd13ifvqd30","pricing_plan_id":"cebpf4jnsgd1na2vs0mg"},{"bike_id":"1cbeb49c-8d51-46f2-ad03-8af78ea79d9a","system_id":"levelo_inurba_marseille","lat":43.24174,"lon":5.39703,"is_reserved":false,"is_disabled":false,"rental_uris":{"android":"levelo://app?vid=1cbeb49c-8d51-46f2-ad03-8af78ea79d9a","ios":"levelo://app?vid=1cbeb49c-8d51-46f2-ad03-8af78ea79d9a"},"vehicle_type_id":"4","last_reported":1741975998,"current_range_meters":6000,"station_id":"ce4bhn12rcd13ifvqgpg","pricing_plan_id":"cebpf4jnsgd1na2vs0mg"},{"bike_id":"39df283f-35a5-4c44-9f0d-6dd6923a19a4","system_id":"levelo_inurba_marseille","lat":43.32105,"lon":5.36806,"is_reserved":false,"is_disabled":false,"rental_uris":{"android":"levelo://app?vid=39df283f-35a5-4c44-9f0d-6dd6923a19a4","ios":"levelo://app?vid=39df283f-35a5-4c44-9f0d-6dd6923a19a4"},"vehicle_type_id":"4","last_reported":1741975998,"current_range_meters":6000,"station_id":"ce4bhrh2rcd13ifvqhug","pricing_plan_id":"cebpf4jnsgd1na2vs0mg"},{"bike_id":"ae38b678-c859-4b06-a525-6b6f5865d4c7","system_id":"levelo_inurba_marseille","lat":43.29537,"lon":5.38539,"is_reserved":false,"is_disabled":false,"rental_uris":{"android":"levelo://app?vid=ae38b678-c859-4b06-a525-6b6f5865d4c7","ios":"levelo://app?vid=ae38b678-c859-4b06-a525-6b6f5865d4c7"},"vehicle_type_id":"4","last_reported":1741975998,"current_range_meters":6400,"station_id":"ce4bgih2rcd13ifvqba0","pricing_plan_id":"cebpf4jnsgd1na2vs0mg"},{"bike_id":"ab3b3273-086b-4458-b5bf-fb61a149b41e","system_id":"levelo_inurba_marseille","lat":43.26216,"lon":5.40483,"is_reserved":false,"is_disabled":false,"rental_uris":{"android":"levelo://app?vid=ab3b3273-086b-4458-b5bf-fb61a149b41e","ios":"levelo://app?vid=ab3b3273-086b-4458-b5bf-fb61a149b41e"},"vehicle_type_id":"4","last_reported":1741975998,"current_range_meters":6400,"station_id":"ce4bhmh2rcd13ifvqgmg","pricing_plan_id":"cebpf4jnsgd1na2vs0mg"},{"bike_id":"48a5d861-a462-4f41-8bf3-49a536ef972e","system_id":"levelo_inurba_marseille","lat":43.28855,"lon":5.35828,"is_reserved":false,"is_disabled":false,"rental_uris":{"android":"levelo://app?vid=48a5d861-a462-4f41-8bf3-49a536ef972e","ios":"levelo://app?vid=48a5d861-a462-4f41-8bf3-49a536ef972e"},"vehicle_type_id":"4","last_reported":1741975998,"current_range_meters":6400,"station_id":"ce4bhb12rcd13ifvqem0","pricing_plan_id":"cebpf4jnsgd1na2vs0mg"},{"bike_id":"9660dc48-862d-4b47-b820-fb425a6ad2ce","system_id":"levelo_inurba_marseille","lat":43.31185,"lon":5.36887,"is_reserved":false,"is_disabled":false,"rental_uris":{"android":"levelo://app?vid=9660dc48-862d-4b47-b820-fb425a6ad2ce","ios":"levelo://app?vid=9660dc48-862d-4b47-b820-fb425a6ad2ce"},"vehicle_type_id":"4","last_reported":1741975998,"current_range_meters":6400,"station_id":"","pricing_plan_id":"cebpf4jnsgd1na2vs0mg"},{"bike_id":"45dce5d6-fdd9-43b7-8cb1-c7832923b7a4","system_id":"levelo_inurba_marseille","lat":43.27048,"lon":5.40287,"is_reserved":false,"is_disabled":false,"rental_uris":{"android":"levelo://app?vid=45dce5d6-fdd9-43b7-8cb1-c7832923b7a4","ios":"levelo://app?vid=45dce5d6-fdd9-43b7-8cb1-c7832923b7a4"},"vehicle_type_id":"4","last_reported":1741975998,"current_range_meters":6400,"station_id":"ce4bhk92rcd13ifvqgc0","pricing_plan_id":"cebpf4jnsgd1na2vs0mg"},{"bike_id":"9fb1c228-a1b8-4539-a4b7-479576b779f7","system_id":"levelo_inurba_marseille","lat":43.28962,"lon":5.37833,"is_reserved":false,"is_disabled":false,"rental_uris":{"android":"levelo://app?vid=9fb1c228-a1b8-4539-a4b7-479576b779f7","ios":"levelo://app?vid=9fb1c228-a1b8-4539-a4b7-479576b779f7"},"vehicle_type_id":"4","last_reported":1741975998,"current_range_meters":6800,"station_id":"ce4bh9p2rcd13ifvqed0","pricing_plan_id":"cebpf4jnsgd1na2vs0mg"},{"bike_id":"90f263ed-f955-44be-aa34-2a284417f95a","system_id":"levelo_inurba_marseille","lat":43.33025,"lon":5.39043,"is_reserved":false,"is_disabled":false,"rental_uris":{"android":"levelo://app?vid=90f263ed-f955-44be-aa34-2a284417f95a","ios":"levelo://app?vid=90f263ed-f955-44be-aa34-2a284417f95a"},"vehicle_type_id":"4","last_reported":1741975998,"current_range_meters":6800,"station_id":"ce4bhr92rcd13ifvqhrg","pricing_plan_id":"cebpf4jnsgd1na2vs0mg"},{"bike_id":"3aa36d97-8403-4988-824e-7cfd2cb42842","system_id":"levelo_inurba_marseille","lat":43.27908,"lon":5.38016,"is_reserved":false,"is_disabled":false,"rental_uris":{"android":"levelo://app?vid=3aa36d97-8403-4988-824e-7cfd2cb42842","ios":"levelo://app?vid=3aa36d97-8403-4988-824e-7cfd2cb42842"},"vehicle_type_id":"4","last_reported":1741975998,"current_range_meters":6800,"station_id":"ce4bhf92rcd13ifvqf50","pricing_plan_id":"cebpf4jnsgd1na2vs0mg"},{"bike_id":"38680f11-7522-45a4-aa4c-fe09709812e3","system_id":"levelo_inurba_marseille","lat":43.23137,"lon":5.43703,"is_reserved":false,"is_disabled":false,"rental_uris":{"android":"levelo://app?vid=38680f11-7522-45a4-aa4c-fe09709812e3","ios":"levelo://app?vid=38680f11-7522-45a4-aa4c-fe09709812e3"},"vehicle_type_id":"4","last_reported":1741975998,"current_range_meters":6800,"station_id":"ce4bhmp2rcd13ifvqgog","pricing_plan_id":"cebpf4jnsgd1na2vs0mg"},{"bike_id":"cfbfae81-2b5a-4512-adc5-3545d5eb48ff","system_id":"levelo_inurba_marseille","lat":43.3237,"lon":5.38882,"is_reserved":false,"is_disabled":false,"rental_uris":{"android":"levelo://app?vid=cfbfae81-2b5a-4512-adc5-3545d5eb48ff","ios":"levelo://app?vid=cfbfae81-2b5a-4512-adc5-3545d5eb48ff"},"vehicle_type_id":"4","last_reported":1741975998,"current_range_meters":6800,"station_id":"ce4bhqp2rcd13ifvqhog","pricing_plan_id":"cebpf4jnsgd1na2vs0mg"},{"bike_id":"103c7a06-db86-48e4-8c78-cb7bd34356de","system_id":"levelo_inurba_marseille","lat":43.29791,"lon":5.39347,"is_reserved":false,"is_disabled":false,"rental_uris":{"android":"levelo://app?vid=103c7a06-db86-48e4-8c78-cb7bd34356de","ios":"levelo://app?vid=103c7a06-db86-48e4-8c78-cb7bd34356de"},"vehicle_type_id":"4","last_reported":1741975998,"current_range_meters":6800,"station_id":"chh1huq6cuj3fo74tm60","pricing_plan_id":"cebpf4jnsgd1na2vs0mg"},{"bike_id":"0faa5804-2621-4acc-a6b0-909842a65d1b","system_id":"levelo_inurba_marseille","lat":43.30422,"lon":5.41277,"is_reserved":false,"is_disabled":false,"rental_uris":{"android":"levelo://app?vid=0faa5804-2621-4acc-a6b0-909842a65d1b","ios":"levelo://app?vid=0faa5804-2621-4acc-a6b0-909842a65d1b"},"vehicle_type_id":"4","last_reported":1741975998,"current_range_meters":7200,"station_id":"ce4bhop2rcd13ifvqh8g","pricing_plan_id":"cebpf4jnsgd1na2vs0mg"},{"bike_id":"d9d7de5a-3944-40ce-a433-78232317c3d2","system_id":"levelo_inurba_marseille","lat":43.29902,"lon":5.38146,"is_reserved":false,"is_disabled":false,"rental_uris":{"android":"levelo://app?vid=d9d7de5a-3944-40ce-a433-78232317c3d2","ios":"levelo://app?vid=d9d7de5a-3944-40ce-a433-78232317c3d2"},"vehicle_type_id":"4","last_reported":1741975998,"current_range_meters":7200,"station_id":"ce4bgj12rcd13ifvqbc0","pricing_plan_id":"cebpf4jnsgd1na2vs0mg"},{"bike_id":"8939fbba-2fc8-450a-9027-04db4f4e697a","system_id":"levelo_inurba_marseille","lat":43.31374,"lon":5.40456,"is_reserved":false,"is_disabled":false,"rental_uris":{"android":"levelo://app?vid=8939fbba-2fc8-450a-9027-04db4f4e697a","ios":"levelo://app?vid=8939fbba-2fc8-450a-9027-04db4f4e697a"},"vehicle_type_id":"4","last_reported":1741975998,"current_range_meters":7200,"station_id":"","pricing_plan_id":"cebpf4jnsgd1na2vs0mg"},{"bike_id":"9ea3937d-e792-4a95-ba75-e31f7b2f071d","system_id":"levelo_inurba_marseille","lat":43.30161,"lon":5.3881,"is_reserved":false,"is_disabled":false,"rental_uris":{"android":"levelo://app?vid=9ea3937d-e792-4a95-ba75-e31f7b2f071d","ios":"levelo://app?vid=9ea3937d-e792-4a95-ba75-e31f7b2f071d"},"vehicle_type_id":"4","last_reported":1741975998,"current_range_meters":7200,"station_id":"ce4bghh2rcd13ifvqb60","pricing_plan_id":"cebpf4jnsgd1na2vs0mg"},{"bike_id":"49099df4-e910-4d19-bac8-b601dd8a9d8e","system_id":"levelo_inurba_marseille","lat":43.27238,"lon":5.39184,"is_reserved":false,"is_disabled":false,"rental_uris":{"android":"levelo://app?vid=49099df4-e910-4d19-bac8-b601dd8a9d8e","ios":"levelo://app?vid=49099df4-e910-4d19-bac8-b601dd8a9d8e"},"vehicle_type_id":"4","last_reported":1741975998,"current_range_meters":7200,"station_id":"ce4bhhp2rcd13ifvqfm0","pricing_plan_id":"cebpf4jnsgd1na2vs0mg"},{"bike_id":"1179ea35-4831-4438-984a-d67269a5255b","system_id":"levelo_inurba_marseille","lat":43.23202,"lon":5.3555,"is_reserved":false,"is_disabled":false,"rental_uris":{"android":"levelo://app?vid=1179ea35-4831-4438-984a-d67269a5255b","ios":"levelo://app?vid=1179ea35-4831-4438-984a-d67269a5255b"},"vehicle_type_id":"4","last_reported":1741975998,"current_range_meters":7200,"station_id":"ce4bhu92rcd13ifvqi70","pricing_plan_id":"cebpf4jnsgd1na2vs0mg"},{"bike_id":"d82199db-45f5-4aa5-85c9-87f1cb2df61c","system_id":"levelo_inurba_marseille","lat":43.2606,"lon":5.39396,"is_reserved":false,"is_disabled":false,"rental_uris":{"android":"levelo://app?vid=d82199db-45f5-4aa5-85c9-87f1cb2df61c","ios":"levelo://app?vid=d82199db-45f5-4aa5-85c9-87f1cb2df61c"},"vehicle_type_id":"4","last_reported":1741975998,"current_range_meters":8000,"station_id":"ce4bhh92rcd13ifvqfj0","pricing_plan_id":"cebpf4jnsgd1na2vs0mg"},{"bike_id":"3c563225-7280-43f6-bacb-dbe476f91ee0","system_id":"levelo_inurba_marseille","lat":43.28465,"lon":5.35889,"is_reserved":false,"is_disabled":false,"rental_uris":{"android":"levelo://app?vid=3c563225-7280-43f6-bacb-dbe476f91ee0","ios":"levelo://app?vid=3c563225-7280-43f6-bacb-dbe476f91ee0"},"vehicle_type_id":"4","last_reported":1741975998,"current_range_meters":8000,"station_id":"ce4bhah2rcd13ifvqei0","pricing_plan_id":"cebpf4jnsgd1na2vs0mg"},{"bike_id":"cca134b9-b474-4d15-b536-7cd38f601e78","system_id":"levelo_inurba_marseille","lat":43.29874,"lon":5.39774,"is_reserved":false,"is_disabled":false,"rental_uris":{"android":"levelo://app?vid=cca134b9-b474-4d15-b536-7cd38f601e78","ios":"levelo://app?vid=cca134b9-b474-4d15-b536-7cd38f601e78"},"vehicle_type_id":"4","last_reported":1741975998,"current_range_meters":7200,"station_id":"ce4bh0h2rcd13ifvqd50","pricing_plan_id":"cebpf4jnsgd1na2vs0mg"},{"bike_id":"062c77f5-04bb-45b5-adec-40850e0e68d7","system_id":"levelo_inurba_marseille","lat":43.29295,"lon":5.37456,"is_reserved":false,"is_disabled":false,"rental_uris":{"android":"levelo://app?vid=062c77f5-04bb-45b5-adec-40850e0e68d7","ios":"levelo://app?vid=062c77f5-04bb-45b5-adec-40850e0e68d7"},"vehicle_type_id":"4","last_reported":1741975998,"current_range_meters":8000,"station_id":"ce4bgi12rcd13ifvqb70","pricing_plan_id":"cebpf4jnsgd1na2vs0mg"},{"bike_id":"e48b5189-9d09-49fd-bc00-62268902f308","system_id":"levelo_inurba_marseille","lat":43.25019,"lon":5.38913,"is_reserved":false,"is_disabled":true,"rental_uris":{"android":"levelo://app?vid=e48b5189-9d09-49fd-bc00-62268902f308","ios":"levelo://app?vid=e48b5189-9d09-49fd-bc00-62268902f308"},"vehicle_type_id":"4","last_reported":1741975998,"current_range_meters":8000,"station_id":"ce4bhgp2rcd13ifvqfd0","pricing_plan_id":"cebpf4jnsgd1na2vs0mg"},{"bike_id":"9cedc39a-097b-4baf-9d39-243f1d51b194","system_id":"levelo_inurba_marseille","lat":43.29978,"lon":5.38512,"is_reserved":false,"is_disabled":false,"rental_uris":{"android":"levelo://app?vid=9cedc39a-097b-4baf-9d39-243f1d51b194","ios":"levelo://app?vid=9cedc39a-097b-4baf-9d39-243f1d51b194"},"vehicle_type_id":"4","last_reported":1741975998,"current_range_meters":8000,"station_id":"ce4bgj92rcd13ifvqbd0","pricing_plan_id":"cebpf4jnsgd1na2vs0mg"},{"bike_id":"6cec560f-8635-4801-8462-637e6f2c72c5","system_id":"levelo_inurba_marseille","lat":43.23184,"lon":5.35555,"is_reserved":false,"is_disabled":false,"rental_uris":{"android":"levelo://app?vid=6cec560f-8635-4801-8462-637e6f2c72c5","ios":"levelo://app?vid=6cec560f-8635-4801-8462-637e6f2c72c5"},"vehicle_type_id":"4","last_reported":1741975998,"current_range_meters":8000,"station_id":"ce4bhu92rcd13ifvqi70","pricing_plan_id":"cebpf4jnsgd1na2vs0mg"},{"bike_id":"aa672581-5537-45d5-9018-fabd43c15975","system_id":"levelo_inurba_marseille","lat":43.28712,"lon":5.39992,"is_reserved":false,"is_disabled":false,"rental_uris":{"android":"levelo://app?vid=aa672581-5537-45d5-9018-fabd43c15975","ios":"levelo://app?vid=aa672581-5537-45d5-9018-fabd43c15975"},"vehicle_type_id":"4","last_reported":1741975998,"current_range_meters":7200,"station_id":"ce4bho92rcd13ifvqh3g","pricing_plan_id":"cebpf4jnsgd1na2vs0mg"},{"bike_id":"35218a9a-ff18-48e3-9650-1ddd8bf25b15","system_id":"levelo_inurba_marseille","lat":43.29943,"lon":5.36557,"is_reserved":false,"is_disabled":false,"rental_uris":{"android":"levelo://app?vid=35218a9a-ff18-48e3-9650-1ddd8bf25b15","ios":"levelo://app?vid=35218a9a-ff18-48e3-9650-1ddd8bf25b15"},"vehicle_type_id":"4","last_reported":1741975998,"current_range_meters":8000,"station_id":"ce4bgm92rcd13ifvqbr0","pricing_plan_id":"cebpf4jnsgd1na2vs0mg"},{"bike_id":"823a50cf-a4b6-46d6-83b0-df931d23cdf7","system_id":"levelo_inurba_marseille","lat":43.31691,"lon":5.40473,"is_reserved":false,"is_disabled":false,"rental_uris":{"android":"levelo://app?vid=823a50cf-a4b6-46d6-83b0-df931d23cdf7","ios":"levelo://app?vid=823a50cf-a4b6-46d6-83b0-df931d23cdf7"},"vehicle_type_id":"4","last_reported":1741975998,"current_range_meters":8000,"station_id":"ce4bh012rcd13ifvqd00","pricing_plan_id":"cebpf4jnsgd1na2vs0mg"},{"bike_id":"6944bb06-8a8c-4cf4-86a1-ca9561cf4ee4","system_id":"levelo_inurba_marseille","lat":43.23067,"lon":5.35497,"is_reserved":false,"is_disabled":false,"rental_uris":{"android":"levelo://app?vid=6944bb06-8a8c-4cf4-86a1-ca9561cf4ee4","ios":"levelo://app?vid=6944bb06-8a8c-4cf4-86a1-ca9561cf4ee4"},"vehicle_type_id":"4","last_reported":1741975998,"current_range_meters":8000,"station_id":"cpo3342slgdg3j2ifvpg","pricing_plan_id":"cebpf4jnsgd1na2vs0mg"},{"bike_id":"b88b244a-1dbc-4f6b-94dd-514dee297746","system_id":"levelo_inurba_marseille","lat":43.29915,"lon":5.36299,"is_reserved":false,"is_disabled":false,"rental_uris":{"android":"levelo://app?vid=b88b244a-1dbc-4f6b-94dd-514dee297746","ios":"levelo://app?vid=b88b244a-1dbc-4f6b-94dd-514dee297746"},"vehicle_type_id":"4","last_reported":1741975998,"current_range_meters":8000,"station_id":"ce4bgpp2rcd13ifvqc3g","pricing_plan_id":"cebpf4jnsgd1na2vs0mg"},{"bike_id":"d2c1304d-c6de-4e19-a363-2c0c4bdd9fb1","system_id":"levelo_inurba_marseille","lat":43.24644,"lon":5.38917,"is_reserved":false,"is_disabled":false,"rental_uris":{"android":"levelo://app?vid=d2c1304d-c6de-4e19-a363-2c0c4bdd9fb1","ios":"levelo://app?vid=d2c1304d-c6de-4e19-a363-2c0c4bdd9fb1"},"vehicle_type_id":"4","last_reported":1741975998,"current_range_meters":8000,"station_id":"ce4bhg12rcd13ifvqf60","pricing_plan_id":"cebpf4jnsgd1na2vs0mg"},{"bike_id":"36ec5a15-215b-4367-a3ca-336aadd9a251","system_id":"levelo_inurba_marseille","lat":43.33746,"lon":5.3745,"is_reserved":false,"is_disabled":false,"rental_uris":{"android":"levelo://app?vid=36ec5a15-215b-4367-a3ca-336aadd9a251","ios":"levelo://app?vid=36ec5a15-215b-4367-a3ca-336aadd9a251"},"vehicle_type_id":"4","last_reported":1741975998,"current_range_meters":8000,"station_id":"","pricing_plan_id":"cebpf4jnsgd1na2vs0mg"},{"bike_id":"436bf6fd-98f0-4c70-968c-7fcac8f398a5","system_id":"levelo_inurba_marseille","lat":43.25094,"lon":5.41048,"is_reserved":false,"is_disabled":false,"rental_uris":{"android":"levelo://app?vid=436bf6fd-98f0-4c70-968c-7fcac8f398a5","ios":"levelo://app?vid=436bf6fd-98f0-4c70-968c-7fcac8f398a5"},"vehicle_type_id":"4","last_reported":1741975998,"current_range_meters":8400,"station_id":"","pricing_plan_id":"cebpf4jnsgd1na2vs0mg"},{"bike_id":"c9bd92af-ffb5-4eb1-a755-cb523ab505a3","system_id":"levelo_inurba_marseille","lat":43.29847,"lon":5.36282,"is_reserved":false,"is_disabled":false,"rental_uris":{"android":"levelo://app?vid=c9bd92af-ffb5-4eb1-a755-cb523ab505a3","ios":"levelo://app?vid=c9bd92af-ffb5-4eb1-a755-cb523ab505a3"},"vehicle_type_id":"4","last_reported":1741975998,"current_range_meters":8400,"station_id":"ce4bgpp2rcd13ifvqc3g","pricing_plan_id":"cebpf4jnsgd1na2vs0mg"},{"bike_id":"7121d818-13e2-43ed-b445-7134fefdd64f","system_id":"levelo_inurba_marseille","lat":43.23199,"lon":5.35542,"is_reserved":false,"is_disabled":false,"rental_uris":{"android":"levelo://app?vid=7121d818-13e2-43ed-b445-7134fefdd64f","ios":"levelo://app?vid=7121d818-13e2-43ed-b445-7134fefdd64f"},"vehicle_type_id":"4","last_reported":1741975998,"current_range_meters":8400,"station_id":"ce4bhu92rcd13ifvqi70","pricing_plan_id":"cebpf4jnsgd1na2vs0mg"},{"bike_id":"e680d681-5451-4e79-9861-5f89e81b6e1f","system_id":"levelo_inurba_marseille","lat":43.29018,"lon":5.3813,"is_reserved":false,"is_disabled":true,"rental_uris":{"android":"levelo://app?vid=e680d681-5451-4e79-9861-5f89e81b6e1f","ios":"levelo://app?vid=e680d681-5451-4e79-9861-5f89e81b6e1f"},"vehicle_type_id":"4","last_reported":1741975998,"current_range_meters":8000,"station_id":"ce4bh4p2rcd13ifvqe1g","pricing_plan_id":"cebpf4jnsgd1na2vs0mg"},{"bike_id":"3629c036-7998-4c5f-9f2a-2164098ff418","system_id":"levelo_inurba_marseille","lat":43.26493,"lon":5.39548,"is_reserved":false,"is_disabled":false,"rental_uris":{"android":"levelo://app?vid=3629c036-7998-4c5f-9f2a-2164098ff418","ios":"levelo://app?vid=3629c036-7998-4c5f-9f2a-2164098ff418"},"vehicle_type_id":"4","last_reported":1741975998,"current_range_meters":8400,"station_id":"ce4bhi12rcd13ifvqfq0","pricing_plan_id":"cebpf4jnsgd1na2vs0mg"},{"bike_id":"fcf60bfc-7f3f-44de-812a-9ecfc93cd966","system_id":"levelo_inurba_marseille","lat":43.27423,"lon":5.39413,"is_reserved":false,"is_disabled":false,"rental_uris":{"android":"levelo://app?vid=fcf60bfc-7f3f-44de-812a-9ecfc93cd966","ios":"levelo://app?vid=fcf60bfc-7f3f-44de-812a-9ecfc93cd966"},"vehicle_type_id":"4","last_reported":1741975998,"current_range_meters":8400,"station_id":"ce4bhdp2rcd13ifvqf20","pricing_plan_id":"cebpf4jnsgd1na2vs0mg"},{"bike_id":"cfeea689-9de1-4dc0-a67e-bcb0466e3817","system_id":"levelo_inurba_marseille","lat":43.30094,"lon":5.39087,"is_reserved":false,"is_disabled":false,"rental_uris":{"android":"levelo://app?vid=cfeea689-9de1-4dc0-a67e-bcb0466e3817","ios":"levelo://app?vid=cfeea689-9de1-4dc0-a67e-bcb0466e3817"},"vehicle_type_id":"4","last_reported":1741975998,"current_range_meters":8400,"station_id":"ce4bh192rcd13ifvqdb0","pricing_plan_id":"cebpf4jnsgd1na2vs0mg"},{"bike_id":"703a27ab-78c1-4da2-9977-9c24f54834c8","system_id":"levelo_inurba_marseille","lat":43.324853,"lon":5.365796,"is_reserved":false,"is_disabled":false,"rental_uris":{"android":"levelo://app?vid=703a27ab-78c1-4da2-9977-9c24f54834c8","ios":"levelo://app?vid=703a27ab-78c1-4da2-9977-9c24f54834c8"},"vehicle_type_id":"4","last_reported":1741975998,"current_range_meters":8400,"station_id":"ce4bhs12rcd13ifvqhvg","pricing_plan_id":"cebpf4jnsgd1na2vs0mg"},{"bike_id":"de27148c-9139-4b87-b73a-06e43af57146","system_id":"levelo_inurba_marseille","lat":43.30902,"lon":5.36859,"is_reserved":false,"is_disabled":false,"rental_uris":{"android":"levelo://app?vid=de27148c-9139-4b87-b73a-06e43af57146","ios":"levelo://app?vid=de27148c-9139-4b87-b73a-06e43af57146"},"vehicle_type_id":"4","last_reported":1741975998,"current_range_meters":8400,"station_id":"ce4bgn92rcd13ifvqbvg","pricing_plan_id":"cebpf4jnsgd1na2vs0mg"},{"bike_id":"b634fcd7-4303-4fed-a2f8-fcd04ed2a4dd","system_id":"levelo_inurba_marseille","lat":43.23056,"lon":5.35501,"is_reserved":false,"is_disabled":false,"rental_uris":{"android":"levelo://app?vid=b634fcd7-4303-4fed-a2f8-fcd04ed2a4dd","ios":"levelo://app?vid=b634fcd7-4303-4fed-a2f8-fcd04ed2a4dd"},"vehicle_type_id":"4","last_reported":1741975998,"current_range_meters":8400,"station_id":"cpo3342slgdg3j2ifvpg","pricing_plan_id":"cebpf4jnsgd1na2vs0mg"},{"bike_id":"3363e5ed-aafd-4c83-9f97-12270e6ffcf4","system_id":"levelo_inurba_marseille","lat":43.24857,"lon":5.40652,"is_reserved":false,"is_disabled":false,"rental_uris":{"android":"levelo://app?vid=3363e5ed-aafd-4c83-9f97-12270e6ffcf4","ios":"levelo://app?vid=3363e5ed-aafd-4c83-9f97-12270e6ffcf4"},"vehicle_type_id":"4","last_reported":1741975998,"current_range_meters":8400,"station_id":"","pricing_plan_id":"cebpf4jnsgd1na2vs0mg"},{"bike_id":"22eef8e9-28d0-4055-9740-16ced5bd43fc","system_id":"levelo_inurba_marseille","lat":43.24677,"lon":5.38198,"is_reserved":false,"is_disabled":false,"rental_uris":{"android":"levelo://app?vid=22eef8e9-28d0-4055-9740-16ced5bd43fc","ios":"levelo://app?vid=22eef8e9-28d0-4055-9740-16ced5bd43fc"},"vehicle_type_id":"4","last_reported":1741975998,"current_range_meters":8400,"station_id":"ce4bhih2rcd13ifvqfr0","pricing_plan_id":"cebpf4jnsgd1na2vs0mg"},{"bike_id":"1015d09a-1a14-449c-aa64-4f84cf04437b","system_id":"levelo_inurba_marseille","lat":43.24077,"lon":5.37754,"is_reserved":false,"is_disabled":false,"rental_uris":{"android":"levelo://app?vid=1015d09a-1a14-449c-aa64-4f84cf04437b","ios":"levelo://app?vid=1015d09a-1a14-449c-aa64-4f84cf04437b"},"vehicle_type_id":"4","last_reported":1741975998,"current_range_meters":8800,"station_id":"ce4bhnp2rcd13ifvqgvg","pricing_plan_id":"cebpf4jnsgd1na2vs0mg"},{"bike_id":"1f9e0606-c36f-42fc-87ec-b0b06e433732","system_id":"levelo_inurba_marseille","lat":43.30523,"lon":5.36473,"is_reserved":false,"is_disabled":false,"rental_uris":{"android":"levelo://app?vid=1f9e0606-c36f-42fc-87ec-b0b06e433732","ios":"levelo://app?vid=1f9e0606-c36f-42fc-87ec-b0b06e433732"},"vehicle_type_id":"4","last_reported":1741975998,"current_range_meters":8800,"station_id":"ce4bgs12rcd13ifvqcag","pricing_plan_id":"cebpf4jnsgd1na2vs0mg"},{"bike_id":"7ae7b069-5937-401d-8084-f4c9d553767b","system_id":"levelo_inurba_marseille","lat":43.27948,"lon":5.41046,"is_reserved":false,"is_disabled":false,"rental_uris":{"android":"levelo://app?vid=7ae7b069-5937-401d-8084-f4c9d553767b","ios":"levelo://app?vid=7ae7b069-5937-401d-8084-f4c9d553767b"},"vehicle_type_id":"4","last_reported":1741975998,"current_range_meters":8800,"station_id":"ce4bhnp2rcd13ifvqh0g","pricing_plan_id":"cebpf4jnsgd1na2vs0mg"},{"bike_id":"6d69bcb3-9f1f-47de-bcf3-40d0e4d7bc71","system_id":"levelo_inurba_marseille","lat":43.27827,"lon":5.40699,"is_reserved":false,"is_disabled":false,"rental_uris":{"android":"levelo://app?vid=6d69bcb3-9f1f-47de-bcf3-40d0e4d7bc71","ios":"levelo://app?vid=6d69bcb3-9f1f-47de-bcf3-40d0e4d7bc71"},"vehicle_type_id":"4","last_reported":1741975998,"current_range_meters":8800,"station_id":"ce4bhnh2rcd13ifvqgtg","pricing_plan_id":"cebpf4jnsgd1na2vs0mg"},{"bike_id":"3b818696-6557-474f-aaf6-27d3a0bd1ea0","system_id":"levelo_inurba_marseille","lat":43.28031,"lon":5.3691,"is_reserved":false,"is_disabled":false,"rental_uris":{"android":"levelo://app?vid=3b818696-6557-474f-aaf6-27d3a0bd1ea0","ios":"levelo://app?vid=3b818696-6557-474f-aaf6-27d3a0bd1ea0"},"vehicle_type_id":"4","last_reported":1741975998,"current_range_meters":8800,"station_id":"ce4bha12rcd13ifvqef0","pricing_plan_id":"cebpf4jnsgd1na2vs0mg"},{"bike_id":"594a33ea-5c85-49b0-893b-48b1f5e1011a","system_id":"levelo_inurba_marseille","lat":43.30922,"lon":5.40162,"is_reserved":false,"is_disabled":true,"rental_uris":{"android":"levelo://app?vid=594a33ea-5c85-49b0-893b-48b1f5e1011a","ios":"levelo://app?vid=594a33ea-5c85-49b0-893b-48b1f5e1011a"},"vehicle_type_id":"4","last_reported":1741975998,"current_range_meters":8800,"station_id":"ce4bgvp2rcd13ifvqct0","pricing_plan_id":"cebpf4jnsgd1na2vs0mg"},{"bike_id":"38728733-26e0-4cc5-b04d-99d7a3ef894e","system_id":"levelo_inurba_marseille","lat":43.3142,"lon":5.37343,"is_reserved":false,"is_disabled":false,"rental_uris":{"android":"levelo://app?vid=38728733-26e0-4cc5-b04d-99d7a3ef894e","ios":"levelo://app?vid=38728733-26e0-4cc5-b04d-99d7a3ef894e"},"vehicle_type_id":"4","last_reported":1741975998,"current_range_meters":8800,"station_id":"","pricing_plan_id":"cebpf4jnsgd1na2vs0mg"},{"bike_id":"e0e30bde-b3cd-401c-8471-106ddd42662e","system_id":"levelo_inurba_marseille","lat":43.31436,"lon":5.38449,"is_reserved":false,"is_disabled":false,"rental_uris":{"android":"levelo://app?vid=e0e30bde-b3cd-401c-8471-106ddd42662e","ios":"levelo://app?vid=e0e30bde-b3cd-401c-8471-106ddd42662e"},"vehicle_type_id":"4","last_reported":1741975998,"current_range_meters":8800,"station_id":"","pricing_plan_id":"cebpf4jnsgd1na2vs0mg"},{"bike_id":"48f968e9-2670-450c-9a50-b12a7ac1907f","system_id":"levelo_inurba_marseille","lat":43.25741,"lon":5.41102,"is_reserved":false,"is_disabled":false,"rental_uris":{"android":"levelo://app?vid=48f968e9-2670-450c-9a50-b12a7ac1907f","ios":"levelo://app?vid=48f968e9-2670-450c-9a50-b12a7ac1907f"},"vehicle_type_id":"4","last_reported":1741975998,"current_range_meters":9200,"station_id":"ce4bhkp2rcd13ifvqgd0","pricing_plan_id":"cebpf4jnsgd1na2vs0mg"},{"bike_id":"91b12a37-f477-4c10-ad1a-c6fc1ad2db69","system_id":"levelo_inurba_marseille","lat":43.27983,"lon":5.42472,"is_reserved":false,"is_disabled":false,"rental_uris":{"android":"levelo://app?vid=91b12a37-f477-4c10-ad1a-c6fc1ad2db69","ios":"levelo://app?vid=91b12a37-f477-4c10-ad1a-c6fc1ad2db69"},"vehicle_type_id":"4","last_reported":1741975998,"current_range_meters":9200,"station_id":"","pricing_plan_id":"cebpf4jnsgd1na2vs0mg"},{"bike_id":"00b5f516-84b0-41a3-b2de-276bd6882db9","system_id":"levelo_inurba_marseille","lat":43.30182,"lon":5.36612,"is_reserved":false,"is_disabled":false,"rental_uris":{"android":"levelo://app?vid=00b5f516-84b0-41a3-b2de-276bd6882db9","ios":"levelo://app?vid=00b5f516-84b0-41a3-b2de-276bd6882db9"},"vehicle_type_id":"4","last_reported":1741975998,"current_range_meters":9200,"station_id":"ce4bgrh2rcd13ifvqc8g","pricing_plan_id":"cebpf4jnsgd1na2vs0mg"},{"bike_id":"05b19951-05c7-4551-b80d-21c23f5b8eea","system_id":"levelo_inurba_marseille","lat":43.29904,"lon":5.38149,"is_reserved":false,"is_disabled":false,"rental_uris":{"android":"levelo://app?vid=05b19951-05c7-4551-b80d-21c23f5b8eea","ios":"levelo://app?vid=05b19951-05c7-4551-b80d-21c23f5b8eea"},"vehicle_type_id":"4","last_reported":1741975998,"current_range_meters":9200,"station_id":"ce4bgj12rcd13ifvqbc0","pricing_plan_id":"cebpf4jnsgd1na2vs0mg"},{"bike_id":"07236262-3c87-4de4-99f1-96b5d4ba740c","system_id":"levelo_inurba_marseille","lat":43.29425,"lon":5.38631,"is_reserved":false,"is_disabled":false,"rental_uris":{"android":"levelo://app?vid=07236262-3c87-4de4-99f1-96b5d4ba740c","ios":"levelo://app?vid=07236262-3c87-4de4-99f1-96b5d4ba740c"},"vehicle_type_id":"4","last_reported":1741975998,"current_range_meters":9200,"station_id":"ce4bh2h2rcd13ifvqdh0","pricing_plan_id":"cebpf4jnsgd1na2vs0mg"},{"bike_id":"8fca17bf-f27e-4ab3-9fff-8ddd264bc837","system_id":"levelo_inurba_marseille","lat":43.29232,"lon":5.36088,"is_reserved":false,"is_disabled":false,"rental_uris":{"android":"levelo://app?vid=8fca17bf-f27e-4ab3-9fff-8ddd264bc837","ios":"levelo://app?vid=8fca17bf-f27e-4ab3-9fff-8ddd264bc837"},"vehicle_type_id":"4","last_reported":1741975998,"current_range_meters":9200,"station_id":"ce4bhbh2rcd13ifvqeqg","pricing_plan_id":"cebpf4jnsgd1na2vs0mg"},{"bike_id":"fa181f01-bac7-4189-bc85-431a98821925","system_id":"levelo_inurba_marseille","lat":43.30131,"lon":5.38795,"is_reserved":false,"is_disabled":false,"rental_uris":{"android":"levelo://app?vid=fa181f01-bac7-4189-bc85-431a98821925","ios":"levelo://app?vid=fa181f01-bac7-4189-bc85-431a98821925"},"vehicle_type_id":"4","last_reported":1741975998,"current_range_meters":9200,"station_id":"ce4bghh2rcd13ifvqb60","pricing_plan_id":"cebpf4jnsgd1na2vs0mg"},{"bike_id":"9b1cca15-0119-485a-89b2-dbcd27b83ab7","system_id":"levelo_inurba_marseille","lat":43.30185,"lon":5.36619,"is_reserved":false,"is_disabled":false,"rental_uris":{"android":"levelo://app?vid=9b1cca15-0119-485a-89b2-dbcd27b83ab7","ios":"levelo://app?vid=9b1cca15-0119-485a-89b2-dbcd27b83ab7"},"vehicle_type_id":"4","last_reported":1741975998,"current_range_meters":9200,"station_id":"ce4bgrh2rcd13ifvqc8g","pricing_plan_id":"cebpf4jnsgd1na2vs0mg"},{"bike_id":"e6db59c5-b170-4152-8c00-a5b905b2f76c","system_id":"levelo_inurba_marseille","lat":43.29173,"lon":5.37156,"is_reserved":false,"is_disabled":false,"rental_uris":{"android":"levelo://app?vid=e6db59c5-b170-4152-8c00-a5b905b2f76c","ios":"levelo://app?vid=e6db59c5-b170-4152-8c00-a5b905b2f76c"},"vehicle_type_id":"4","last_reported":1741975998,"current_range_meters":9200,"station_id":"ce4bha92rcd13ifvqeh0","pricing_plan_id":"cebpf4jnsgd1na2vs0mg"},{"bike_id":"848cd55d-5275-458e-9a9a-4328d4767fa9","system_id":"levelo_inurba_marseille","lat":43.24182,"lon":5.39734,"is_reserved":false,"is_disabled":false,"rental_uris":{"android":"levelo://app?vid=848cd55d-5275-458e-9a9a-4328d4767fa9","ios":"levelo://app?vid=848cd55d-5275-458e-9a9a-4328d4767fa9"},"vehicle_type_id":"4","last_reported":1741975998,"current_range_meters":9600,"station_id":"ce4bhn12rcd13ifvqgpg","pricing_plan_id":"cebpf4jnsgd1na2vs0mg"},{"bike_id":"e6710280-bd86-46cd-80e3-b715c7f5659b","system_id":"levelo_inurba_marseille","lat":43.24447,"lon":5.37057,"is_reserved":false,"is_disabled":false,"rental_uris":{"android":"levelo://app?vid=e6710280-bd86-46cd-80e3-b715c7f5659b","ios":"levelo://app?vid=e6710280-bd86-46cd-80e3-b715c7f5659b"},"vehicle_type_id":"4","last_reported":1741975998,"current_range_meters":9600,"station_id":"ce4bhhh2rcd13ifvqfk0","pricing_plan_id":"cebpf4jnsgd1na2vs0mg"},{"bike_id":"92a4b2de-1a40-47de-8941-8583c8b587d4","system_id":"levelo_inurba_marseille","lat":43.27662,"lon":5.38897,"is_reserved":false,"is_disabled":true,"rental_uris":{"android":"levelo://app?vid=92a4b2de-1a40-47de-8941-8583c8b587d4","ios":"levelo://app?vid=92a4b2de-1a40-47de-8941-8583c8b587d4"},"vehicle_type_id":"4","last_reported":1741975998,"current_range_meters":9600,"station_id":"ce4bhi12rcd13ifvqfo0","pricing_plan_id":"cebpf4jnsgd1na2vs0mg"},{"bike_id":"2ec0f046-4e68-4150-a618-5c892d6b2cb5","system_id":"levelo_inurba_marseille","lat":43.26247,"lon":5.40429,"is_reserved":false,"is_disabled":false,"rental_uris":{"android":"levelo://app?vid=2ec0f046-4e68-4150-a618-5c892d6b2cb5","ios":"levelo://app?vid=2ec0f046-4e68-4150-a618-5c892d6b2cb5"},"vehicle_type_id":"4","last_reported":1741975998,"current_range_meters":9600,"station_id":"ce4bhmh2rcd13ifvqgmg","pricing_plan_id":"cebpf4jnsgd1na2vs0mg"},{"bike_id":"dc2dc920-7061-4611-9ad3-02d4898aaa15","system_id":"levelo_inurba_marseille","lat":43.23186,"lon":5.3999,"is_reserved":false,"is_disabled":false,"rental_uris":{"android":"levelo://app?vid=dc2dc920-7061-4611-9ad3-02d4898aaa15","ios":"levelo://app?vid=dc2dc920-7061-4611-9ad3-02d4898aaa15"},"vehicle_type_id":"4","last_reported":1741975998,"current_range_meters":10000,"station_id":"ce4bhn12rcd13ifvqgqg","pricing_plan_id":"cebpf4jnsgd1na2vs0mg"},{"bike_id":"d19d132d-5c9b-40d9-b653-007845d6953b","system_id":"levelo_inurba_marseille","lat":43.27914,"lon":5.39584,"is_reserved":false,"is_disabled":false,"rental_uris":{"android":"levelo://app?vid=d19d132d-5c9b-40d9-b653-007845d6953b","ios":"levelo://app?vid=d19d132d-5c9b-40d9-b653-007845d6953b"},"vehicle_type_id":"4","last_reported":1741975998,"current_range_meters":10000,"station_id":"ce4bhf92rcd13ifvqf40","pricing_plan_id":"cebpf4jnsgd1na2vs0mg"},{"bike_id":"48f3a40e-658c-443b-8908-cf181e5627b0","system_id":"levelo_inurba_marseille","lat":43.30143,"lon":5.37434,"is_reserved":false,"is_disabled":false,"rental_uris":{"android":"levelo://app?vid=48f3a40e-658c-443b-8908-cf181e5627b0","ios":"levelo://app?vid=48f3a40e-658c-443b-8908-cf181e5627b0"},"vehicle_type_id":"4","last_reported":1741975998,"current_range_meters":10000,"station_id":"ce4bgs92rcd13ifvqcc0","pricing_plan_id":"cebpf4jnsgd1na2vs0mg"},{"bike_id":"9d2d752e-416c-49e5-a687-1caacbda7dcb","system_id":"levelo_inurba_marseille","lat":43.28109,"lon":5.3968,"is_reserved":false,"is_disabled":true,"rental_uris":{"android":"levelo://app?vid=9d2d752e-416c-49e5-a687-1caacbda7dcb","ios":"levelo://app?vid=9d2d752e-416c-49e5-a687-1caacbda7dcb"},"vehicle_type_id":"4","last_reported":1741975998,"current_range_meters":10000,"station_id":"ce4bho12rcd13ifvqh2g","pricing_plan_id":"cebpf4jnsgd1na2vs0mg"},{"bike_id":"f0bca22f-e209-4fd9-b311-4c3b7896a530","system_id":"levelo_inurba_marseille","lat":43.298,"lon":5.40403,"is_reserved":false,"is_disabled":false,"rental_uris":{"android":"levelo://app?vid=f0bca22f-e209-4fd9-b311-4c3b7896a530","ios":"levelo://app?vid=f0bca22f-e209-4fd9-b311-4c3b7896a530"},"vehicle_type_id":"4","last_reported":1741975998,"current_range_meters":10000,"station_id":"ce4bh112rcd13ifvqd90","pricing_plan_id":"cebpf4jnsgd1na2vs0mg"},{"bike_id":"accb5d03-5b4c-4725-aab6-b7db83936d09","system_id":"levelo_inurba_marseille","lat":43.28559,"lon":5.39481,"is_reserved":false,"is_disabled":false,"rental_uris":{"android":"levelo://app?vid=accb5d03-5b4c-4725-aab6-b7db83936d09","ios":"levelo://app?vid=accb5d03-5b4c-4725-aab6-b7db83936d09"},"vehicle_type_id":"4","last_reported":1741975998,"current_range_meters":10800,"station_id":"ce4bh292rcd13ifvqdg0","pricing_plan_id":"cebpf4jnsgd1na2vs0mg"},{"bike_id":"97a33746-5370-4d96-9a94-9c9d4ba754f2","system_id":"levelo_inurba_marseille","lat":43.32295,"lon":5.38282,"is_reserved":false,"is_disabled":false,"rental_uris":{"android":"levelo://app?vid=97a33746-5370-4d96-9a94-9c9d4ba754f2","ios":"levelo://app?vid=97a33746-5370-4d96-9a94-9c9d4ba754f2"},"vehicle_type_id":"4","last_reported":1741975998,"current_range_meters":10800,"station_id":"ce4bhr12rcd13ifvqhqg","pricing_plan_id":"cebpf4jnsgd1na2vs0mg"},{"bike_id":"6d3d3704-cff4-46a1-8ed6-f8aa1cd4a81a","system_id":"levelo_inurba_marseille","lat":43.29978,"lon":5.38484,"is_reserved":false,"is_disabled":false,"rental_uris":{"android":"levelo://app?vid=6d3d3704-cff4-46a1-8ed6-f8aa1cd4a81a","ios":"levelo://app?vid=6d3d3704-cff4-46a1-8ed6-f8aa1cd4a81a"},"vehicle_type_id":"4","last_reported":1741975998,"current_range_meters":10800,"station_id":"ce4bgj92rcd13ifvqbd0","pricing_plan_id":"cebpf4jnsgd1na2vs0mg"},{"bike_id":"e790eff3-7f50-4096-8be0-586a448cabf2","system_id":"levelo_inurba_marseille","lat":43.27942,"lon":5.41042,"is_reserved":false,"is_disabled":false,"rental_uris":{"android":"levelo://app?vid=e790eff3-7f50-4096-8be0-586a448cabf2","ios":"levelo://app?vid=e790eff3-7f50-4096-8be0-586a448cabf2"},"vehicle_type_id":"4","last_reported":1741975998,"current_range_meters":10800,"station_id":"ce4bhnp2rcd13ifvqh0g","pricing_plan_id":"cebpf4jnsgd1na2vs0mg"},{"bike_id":"aa3c5349-766e-4992-8e95-c670f1f543fb","system_id":"levelo_inurba_marseille","lat":43.25004,"lon":5.38914,"is_reserved":false,"is_disabled":false,"rental_uris":{"android":"levelo://app?vid=aa3c5349-766e-4992-8e95-c670f1f543fb","ios":"levelo://app?vid=aa3c5349-766e-4992-8e95-c670f1f543fb"},"vehicle_type_id":"4","last_reported":1741975998,"current_range_meters":10800,"station_id":"","pricing_plan_id":"cebpf4jnsgd1na2vs0mg"},{"bike_id":"59822710-2d10-4517-868b-42cfab329759","system_id":"levelo_inurba_marseille","lat":43.23201,"lon":5.35553,"is_reserved":false,"is_disabled":false,"rental_uris":{"android":"levelo://app?vid=59822710-2d10-4517-868b-42cfab329759","ios":"levelo://app?vid=59822710-2d10-4517-868b-42cfab329759"},"vehicle_type_id":"4","last_reported":1741975998,"current_range_meters":10800,"station_id":"ce4bhu92rcd13ifvqi70","pricing_plan_id":"cebpf4jnsgd1na2vs0mg"},{"bike_id":"bd7fb638-a561-41df-90ca-f32685780427","system_id":"levelo_inurba_marseille","lat":43.22916,"lon":5.35384,"is_reserved":false,"is_disabled":false,"rental_uris":{"android":"levelo://app?vid=bd7fb638-a561-41df-90ca-f32685780427","ios":"levelo://app?vid=bd7fb638-a561-41df-90ca-f32685780427"},"vehicle_type_id":"4","last_reported":1741975998,"current_range_meters":10800,"station_id":"cpo3532slgdg3j2ikp40","pricing_plan_id":"cebpf4jnsgd1na2vs0mg"},{"bike_id":"86fcca85-db7a-48fc-8198-762956d50b68","system_id":"levelo_inurba_marseille","lat":43.29319,"lon":5.37274,"is_reserved":false,"is_disabled":false,"rental_uris":{"android":"levelo://app?vid=86fcca85-db7a-48fc-8198-762956d50b68","ios":"levelo://app?vid=86fcca85-db7a-48fc-8198-762956d50b68"},"vehicle_type_id":"4","last_reported":1741975998,"current_range_meters":10800,"station_id":"ce4bgh92rcd13ifvqb40","pricing_plan_id":"cebpf4jnsgd1na2vs0mg"},{"bike_id":"f31c7e9f-4848-4e4a-88d2-c26dfa0a32c6","system_id":"levelo_inurba_marseille","lat":43.29299,"lon":5.37492,"is_reserved":false,"is_disabled":false,"rental_uris":{"android":"levelo://app?vid=f31c7e9f-4848-4e4a-88d2-c26dfa0a32c6","ios":"levelo://app?vid=f31c7e9f-4848-4e4a-88d2-c26dfa0a32c6"},"vehicle_type_id":"4","last_reported":1741975998,"current_range_meters":11200,"station_id":"ce4bgi12rcd13ifvqb70","pricing_plan_id":"cebpf4jnsgd1na2vs0mg"},{"bike_id":"9da3faae-c4f5-4afc-ae88-3057b1a3d717","system_id":"levelo_inurba_marseille","lat":43.31266,"lon":5.40167,"is_reserved":false,"is_disabled":false,"rental_uris":{"android":"levelo://app?vid=9da3faae-c4f5-4afc-ae88-3057b1a3d717","ios":"levelo://app?vid=9da3faae-c4f5-4afc-ae88-3057b1a3d717"},"vehicle_type_id":"4","last_reported":1741975998,"current_range_meters":11200,"station_id":"ce4bh092rcd13ifvqd30","pricing_plan_id":"cebpf4jnsgd1na2vs0mg"},{"bike_id":"cb256735-523d-45d3-9c1c-b9c7b6320183","system_id":"levelo_inurba_marseille","lat":43.315757,"lon":5.403929,"is_reserved":false,"is_disabled":false,"rental_uris":{"android":"levelo://app?vid=cb256735-523d-45d3-9c1c-b9c7b6320183","ios":"levelo://app?vid=cb256735-523d-45d3-9c1c-b9c7b6320183"},"vehicle_type_id":"4","last_reported":1741975998,"current_range_meters":11200,"station_id":"","pricing_plan_id":"cebpf4jnsgd1na2vs0mg"},{"bike_id":"ccd31dea-9090-4259-b977-143b30ebefa0","system_id":"levelo_inurba_marseille","lat":43.26212,"lon":5.37452,"is_reserved":false,"is_disabled":false,"rental_uris":{"android":"levelo://app?vid=ccd31dea-9090-4259-b977-143b30ebefa0","ios":"levelo://app?vid=ccd31dea-9090-4259-b977-143b30ebefa0"},"vehicle_type_id":"4","last_reported":1741975998,"current_range_meters":11200,"station_id":"ce4bhgp2rcd13ifvqfc0","pricing_plan_id":"cebpf4jnsgd1na2vs0mg"},{"bike_id":"8a5bd971-61c1-4475-933b-dffdb284dd01","system_id":"levelo_inurba_marseille","lat":43.25006,"lon":5.3892,"is_reserved":false,"is_disabled":false,"rental_uris":{"android":"levelo://app?vid=8a5bd971-61c1-4475-933b-dffdb284dd01","ios":"levelo://app?vid=8a5bd971-61c1-4475-933b-dffdb284dd01"},"vehicle_type_id":"4","last_reported":1741975998,"current_range_meters":11600,"station_id":"ce4bhgp2rcd13ifvqfd0","pricing_plan_id":"cebpf4jnsgd1na2vs0mg"},{"bike_id":"a94019c0-ca42-4ee0-806c-651c2303e1d5","system_id":"levelo_inurba_marseille","lat":43.29263,"lon":5.38435,"is_reserved":false,"is_disabled":false,"rental_uris":{"android":"levelo://app?vid=a94019c0-ca42-4ee0-806c-651c2303e1d5","ios":"levelo://app?vid=a94019c0-ca42-4ee0-806c-651c2303e1d5"},"vehicle_type_id":"4","last_reported":1741975998,"current_range_meters":11600,"station_id":"ce4bh692rcd13ifvqea0","pricing_plan_id":"cebpf4jnsgd1na2vs0mg"},{"bike_id":"f657fd3c-7d21-46d4-a6bf-c7e61923c1c3","system_id":"levelo_inurba_marseille","lat":43.29966,"lon":5.38504,"is_reserved":false,"is_disabled":false,"rental_uris":{"android":"levelo://app?vid=f657fd3c-7d21-46d4-a6bf-c7e61923c1c3","ios":"levelo://app?vid=f657fd3c-7d21-46d4-a6bf-c7e61923c1c3"},"vehicle_type_id":"4","last_reported":1741975998,"current_range_meters":11600,"station_id":"ce4bgj92rcd13ifvqbd0","pricing_plan_id":"cebpf4jnsgd1na2vs0mg"},{"bike_id":"325eefa4-a32c-45cc-9c99-5ccbb1f77220","system_id":"levelo_inurba_marseille","lat":43.29423,"lon":5.38613,"is_reserved":false,"is_disabled":false,"rental_uris":{"android":"levelo://app?vid=325eefa4-a32c-45cc-9c99-5ccbb1f77220","ios":"levelo://app?vid=325eefa4-a32c-45cc-9c99-5ccbb1f77220"},"vehicle_type_id":"4","last_reported":1741975998,"current_range_meters":12000,"station_id":"ce4bh2h2rcd13ifvqdh0","pricing_plan_id":"cebpf4jnsgd1na2vs0mg"},{"bike_id":"6f61ea2c-ac69-4edd-8f5b-2d89e2b24a1f","system_id":"levelo_inurba_marseille","lat":43.27214,"lon":5.39181,"is_reserved":false,"is_disabled":false,"rental_uris":{"android":"levelo://app?vid=6f61ea2c-ac69-4edd-8f5b-2d89e2b24a1f","ios":"levelo://app?vid=6f61ea2c-ac69-4edd-8f5b-2d89e2b24a1f"},"vehicle_type_id":"4","last_reported":1741975998,"current_range_meters":12000,"station_id":"ce4bhhp2rcd13ifvqfm0","pricing_plan_id":"cebpf4jnsgd1na2vs0mg"},{"bike_id":"165c703f-a86f-4cf0-92d7-f7491d24af28","system_id":"levelo_inurba_marseille","lat":43.30112,"lon":5.43114,"is_reserved":false,"is_disabled":false,"rental_uris":{"android":"levelo://app?vid=165c703f-a86f-4cf0-92d7-f7491d24af28","ios":"levelo://app?vid=165c703f-a86f-4cf0-92d7-f7491d24af28"},"vehicle_type_id":"4","last_reported":1741975998,"current_range_meters":12000,"station_id":"","pricing_plan_id":"cebpf4jnsgd1na2vs0mg"},{"bike_id":"8feaa426-51c8-4dd2-978c-6809880119d4","system_id":"levelo_inurba_marseille","lat":43.29532,"lon":5.38543,"is_reserved":false,"is_disabled":false,"rental_uris":{"android":"levelo://app?vid=8feaa426-51c8-4dd2-978c-6809880119d4","ios":"levelo://app?vid=8feaa426-51c8-4dd2-978c-6809880119d4"},"vehicle_type_id":"4","last_reported":1741975998,"current_range_meters":12000,"station_id":"ce4bgih2rcd13ifvqba0","pricing_plan_id":"cebpf4jnsgd1na2vs0mg"},{"bike_id":"04f149c6-a120-4218-b435-a952d9eb67d0","system_id":"levelo_inurba_marseille","lat":43.24867,"lon":5.40637,"is_reserved":false,"is_disabled":false,"rental_uris":{"android":"levelo://app?vid=04f149c6-a120-4218-b435-a952d9eb67d0","ios":"levelo://app?vid=04f149c6-a120-4218-b435-a952d9eb67d0"},"vehicle_type_id":"4","last_reported":1741975998,"current_range_meters":12000,"station_id":"","pricing_plan_id":"cebpf4jnsgd1na2vs0mg"},{"bike_id":"86ab8f05-f476-4e2e-9579-632e2f9f962b","system_id":"levelo_inurba_marseille","lat":43.27619,"lon":5.36105,"is_reserved":false,"is_disabled":false,"rental_uris":{"android":"levelo://app?vid=86ab8f05-f476-4e2e-9579-632e2f9f962b","ios":"levelo://app?vid=86ab8f05-f476-4e2e-9579-632e2f9f962b"},"vehicle_type_id":"4","last_reported":1741975998,"current_range_meters":12400,"station_id":"ce4bgj92rcd13ifvqbe0","pricing_plan_id":"cebpf4jnsgd1na2vs0mg"},{"bike_id":"531f3787-cddd-4298-8d43-eeb740d3c021","system_id":"levelo_inurba_marseille","lat":43.30139,"lon":5.3987,"is_reserved":false,"is_disabled":false,"rental_uris":{"android":"levelo://app?vid=531f3787-cddd-4298-8d43-eeb740d3c021","ios":"levelo://app?vid=531f3787-cddd-4298-8d43-eeb740d3c021"},"vehicle_type_id":"4","last_reported":1741975998,"current_range_meters":12400,"station_id":"ce4bh0h2rcd13ifvqd40","pricing_plan_id":"cebpf4jnsgd1na2vs0mg"},{"bike_id":"d112f021-ef37-41fd-b981-fb649a5696f3","system_id":"levelo_inurba_marseille","lat":43.3133,"lon":5.39688,"is_reserved":false,"is_disabled":false,"rental_uris":{"android":"levelo://app?vid=d112f021-ef37-41fd-b981-fb649a5696f3","ios":"levelo://app?vid=d112f021-ef37-41fd-b981-fb649a5696f3"},"vehicle_type_id":"4","last_reported":1741975998,"current_range_meters":12400,"station_id":"ce4bgvp2rcd13ifvqcu0","pricing_plan_id":"cebpf4jnsgd1na2vs0mg"},{"bike_id":"65bea2c5-78a7-4fbf-92b5-f338edebb748","system_id":"levelo_inurba_marseille","lat":43.26107,"lon":5.41468,"is_reserved":false,"is_disabled":false,"rental_uris":{"android":"levelo://app?vid=65bea2c5-78a7-4fbf-92b5-f338edebb748","ios":"levelo://app?vid=65bea2c5-78a7-4fbf-92b5-f338edebb748"},"vehicle_type_id":"4","last_reported":1741975998,"current_range_meters":12400,"station_id":"","pricing_plan_id":"cebpf4jnsgd1na2vs0mg"},{"bike_id":"441146ec-c2e7-45f1-b6bc-e65405bbf9fd","system_id":"levelo_inurba_marseille","lat":43.27623,"lon":5.36108,"is_reserved":false,"is_disabled":false,"rental_uris":{"android":"levelo://app?vid=441146ec-c2e7-45f1-b6bc-e65405bbf9fd","ios":"levelo://app?vid=441146ec-c2e7-45f1-b6bc-e65405bbf9fd"},"vehicle_type_id":"4","last_reported":1741975998,"current_range_meters":12400,"station_id":"ce4bgj92rcd13ifvqbe0","pricing_plan_id":"cebpf4jnsgd1na2vs0mg"},{"bike_id":"385ae15c-2c3c-4490-a507-5eb20fb883a5","system_id":"levelo_inurba_marseille","lat":43.25938,"lon":5.40906,"is_reserved":false,"is_disabled":false,"rental_uris":{"android":"levelo://app?vid=385ae15c-2c3c-4490-a507-5eb20fb883a5","ios":"levelo://app?vid=385ae15c-2c3c-4490-a507-5eb20fb883a5"},"vehicle_type_id":"4","last_reported":1741975998,"current_range_meters":12400,"station_id":"ce4bhm92rcd13ifvqglg","pricing_plan_id":"cebpf4jnsgd1na2vs0mg"},{"bike_id":"676e66c6-8e50-404c-b512-5f94c7d6a8fc","system_id":"levelo_inurba_marseille","lat":43.24161,"lon":5.36428,"is_reserved":false,"is_disabled":false,"rental_uris":{"android":"levelo://app?vid=676e66c6-8e50-404c-b512-5f94c7d6a8fc","ios":"levelo://app?vid=676e66c6-8e50-404c-b512-5f94c7d6a8fc"},"vehicle_type_id":"4","last_reported":1741975998,"current_range_meters":12800,"station_id":"cpo36qri1sfpv3e86is0","pricing_plan_id":"cebpf4jnsgd1na2vs0mg"},{"bike_id":"02f19a96-4b4b-4705-b5d6-f4b77d2ee643","system_id":"levelo_inurba_marseille","lat":43.2469,"lon":5.38143,"is_reserved":false,"is_disabled":false,"rental_uris":{"android":"levelo://app?vid=02f19a96-4b4b-4705-b5d6-f4b77d2ee643","ios":"levelo://app?vid=02f19a96-4b4b-4705-b5d6-f4b77d2ee643"},"vehicle_type_id":"4","last_reported":1741975998,"current_range_meters":12800,"station_id":"ce4bhih2rcd13ifvqfr0","pricing_plan_id":"cebpf4jnsgd1na2vs0mg"},{"bike_id":"184492ce-9f5c-47e4-a3e5-d0eccfcef42b","system_id":"levelo_inurba_marseille","lat":43.27618,"lon":5.36123,"is_reserved":false,"is_disabled":false,"rental_uris":{"android":"levelo://app?vid=184492ce-9f5c-47e4-a3e5-d0eccfcef42b","ios":"levelo://app?vid=184492ce-9f5c-47e4-a3e5-d0eccfcef42b"},"vehicle_type_id":"4","last_reported":1741975998,"current_range_meters":12800,"station_id":"ce4bgj92rcd13ifvqbe0","pricing_plan_id":"cebpf4jnsgd1na2vs0mg"},{"bike_id":"9688b254-c8b1-40c3-bf10-6bbfaf717d7e","system_id":"levelo_inurba_marseille","lat":43.30202,"lon":5.39465,"is_reserved":false,"is_disabled":false,"rental_uris":{"android":"levelo://app?vid=9688b254-c8b1-40c3-bf10-6bbfaf717d7e","ios":"levelo://app?vid=9688b254-c8b1-40c3-bf10-6bbfaf717d7e"},"vehicle_type_id":"4","last_reported":1741975998,"current_range_meters":12800,"station_id":"ce4bh0p2rcd13ifvqd70","pricing_plan_id":"cebpf4jnsgd1na2vs0mg"},{"bike_id":"5c09fa10-66af-4d08-984a-1d41e4e2c41b","system_id":"levelo_inurba_marseille","lat":43.23187,"lon":5.39988,"is_reserved":false,"is_disabled":false,"rental_uris":{"android":"levelo://app?vid=5c09fa10-66af-4d08-984a-1d41e4e2c41b","ios":"levelo://app?vid=5c09fa10-66af-4d08-984a-1d41e4e2c41b"},"vehicle_type_id":"4","last_reported":1741975998,"current_range_meters":12800,"station_id":"ce4bhn12rcd13ifvqgqg","pricing_plan_id":"cebpf4jnsgd1na2vs0mg"},{"bike_id":"af44b34a-ef1e-45cf-9ec3-d9c292615a7c","system_id":"levelo_inurba_marseille","lat":43.29257,"lon":5.38464,"is_reserved":false,"is_disabled":false,"rental_uris":{"android":"levelo://app?vid=af44b34a-ef1e-45cf-9ec3-d9c292615a7c","ios":"levelo://app?vid=af44b34a-ef1e-45cf-9ec3-d9c292615a7c"},"vehicle_type_id":"4","last_reported":1741975998,"current_range_meters":12800,"station_id":"ce4bh692rcd13ifvqea0","pricing_plan_id":"cebpf4jnsgd1na2vs0mg"},{"bike_id":"e212c6ee-127e-48a1-bc80-715d52ad33e6","system_id":"levelo_inurba_marseille","lat":43.27562,"lon":5.38452,"is_reserved":false,"is_disabled":false,"rental_uris":{"android":"levelo://app?vid=e212c6ee-127e-48a1-bc80-715d52ad33e6","ios":"levelo://app?vid=e212c6ee-127e-48a1-bc80-715d52ad33e6"},"vehicle_type_id":"4","last_reported":1741975998,"current_range_meters":12800,"station_id":"ce4bhh92rcd13ifvqfi0","pricing_plan_id":"cebpf4jnsgd1na2vs0mg"},{"bike_id":"689f3d2c-4847-4516-a642-86888fc86b8d","system_id":"levelo_inurba_marseille","lat":43.24635,"lon":5.38936,"is_reserved":false,"is_disabled":false,"rental_uris":{"android":"levelo://app?vid=689f3d2c-4847-4516-a642-86888fc86b8d","ios":"levelo://app?vid=689f3d2c-4847-4516-a642-86888fc86b8d"},"vehicle_type_id":"4","last_reported":1741975998,"current_range_meters":13600,"station_id":"ce4bhg12rcd13ifvqf60","pricing_plan_id":"cebpf4jnsgd1na2vs0mg"},{"bike_id":"af474046-e400-4ac9-a0d2-80fc69b95ff7","system_id":"levelo_inurba_marseille","lat":43.30523,"lon":5.36556,"is_reserved":false,"is_disabled":false,"rental_uris":{"android":"levelo://app?vid=af474046-e400-4ac9-a0d2-80fc69b95ff7","ios":"levelo://app?vid=af474046-e400-4ac9-a0d2-80fc69b95ff7"},"vehicle_type_id":"4","last_reported":1741975998,"current_range_meters":13600,"station_id":"ce4bgs12rcd13ifvqcag","pricing_plan_id":"cebpf4jnsgd1na2vs0mg"},{"bike_id":"e0f00ea1-5190-455d-8f01-943045ce62ae","system_id":"levelo_inurba_marseille","lat":43.31222,"lon":5.37782,"is_reserved":false,"is_disabled":false,"rental_uris":{"android":"levelo://app?vid=e0f00ea1-5190-455d-8f01-943045ce62ae","ios":"levelo://app?vid=e0f00ea1-5190-455d-8f01-943045ce62ae"},"vehicle_type_id":"4","last_reported":1741975998,"current_range_meters":13600,"station_id":"","pricing_plan_id":"cebpf4jnsgd1na2vs0mg"},{"bike_id":"a5c03e8d-963a-4cef-ae0b-5196ab18a6c6","system_id":"levelo_inurba_marseille","lat":43.2954,"lon":5.38561,"is_reserved":false,"is_disabled":false,"rental_uris":{"android":"levelo://app?vid=a5c03e8d-963a-4cef-ae0b-5196ab18a6c6","ios":"levelo://app?vid=a5c03e8d-963a-4cef-ae0b-5196ab18a6c6"},"vehicle_type_id":"4","last_reported":1741975998,"current_range_meters":13600,"station_id":"ce4bgih2rcd13ifvqba0","pricing_plan_id":"cebpf4jnsgd1na2vs0mg"},{"bike_id":"cabd3d2d-330e-43b2-8d0b-3e86699f79e1","system_id":"levelo_inurba_marseille","lat":43.241823,"lon":5.363943,"is_reserved":false,"is_disabled":false,"rental_uris":{"android":"levelo://app?vid=cabd3d2d-330e-43b2-8d0b-3e86699f79e1","ios":"levelo://app?vid=cabd3d2d-330e-43b2-8d0b-3e86699f79e1"},"vehicle_type_id":"4","last_reported":1741975998,"current_range_meters":14000,"station_id":"cpo36qri1sfpv3e86is0","pricing_plan_id":"cebpf4jnsgd1na2vs0mg"},{"bike_id":"5f79a70a-3a07-4944-8932-96d4b910a939","system_id":"levelo_inurba_marseille","lat":43.30164,"lon":5.38092,"is_reserved":false,"is_disabled":false,"rental_uris":{"android":"levelo://app?vid=5f79a70a-3a07-4944-8932-96d4b910a939","ios":"levelo://app?vid=5f79a70a-3a07-4944-8932-96d4b910a939"},"vehicle_type_id":"4","last_reported":1741975998,"current_range_meters":14000,"station_id":"ce4bgjp2rcd13ifvqbh0","pricing_plan_id":"cebpf4jnsgd1na2vs0mg"},{"bike_id":"64986549-2c9e-4b9f-8464-f74cc2571bf2","system_id":"levelo_inurba_marseille","lat":43.24081,"lon":5.37746,"is_reserved":false,"is_disabled":false,"rental_uris":{"android":"levelo://app?vid=64986549-2c9e-4b9f-8464-f74cc2571bf2","ios":"levelo://app?vid=64986549-2c9e-4b9f-8464-f74cc2571bf2"},"vehicle_type_id":"4","last_reported":1741975998,"current_range_meters":14000,"station_id":"ce4bhnp2rcd13ifvqgvg","pricing_plan_id":"cebpf4jnsgd1na2vs0mg"},{"bike_id":"03bb39f1-43e2-4f43-bd90-2730061fd991","system_id":"levelo_inurba_marseille","lat":43.29812,"lon":5.40418,"is_reserved":false,"is_disabled":false,"rental_uris":{"android":"levelo://app?vid=03bb39f1-43e2-4f43-bd90-2730061fd991","ios":"levelo://app?vid=03bb39f1-43e2-4f43-bd90-2730061fd991"},"vehicle_type_id":"4","last_reported":1741975998,"current_range_meters":13600,"station_id":"ce4bh112rcd13ifvqd90","pricing_plan_id":"cebpf4jnsgd1na2vs0mg"},{"bike_id":"41b995dd-a5d9-446c-bbef-35beb3ebf2a5","system_id":"levelo_inurba_marseille","lat":43.27953,"lon":5.41046,"is_reserved":false,"is_disabled":false,"rental_uris":{"android":"levelo://app?vid=41b995dd-a5d9-446c-bbef-35beb3ebf2a5","ios":"levelo://app?vid=41b995dd-a5d9-446c-bbef-35beb3ebf2a5"},"vehicle_type_id":"4","last_reported":1741975998,"current_range_meters":14400,"station_id":"ce4bhnp2rcd13ifvqh0g","pricing_plan_id":"cebpf4jnsgd1na2vs0mg"},{"bike_id":"269491db-b98a-49e3-a3b5-e04159ff8cbf","system_id":"levelo_inurba_marseille","lat":43.26939,"lon":5.40292,"is_reserved":false,"is_disabled":false,"rental_uris":{"android":"levelo://app?vid=269491db-b98a-49e3-a3b5-e04159ff8cbf","ios":"levelo://app?vid=269491db-b98a-49e3-a3b5-e04159ff8cbf"},"vehicle_type_id":"4","last_reported":1741975998,"current_range_meters":14400,"station_id":"cjm6bp8fraef2m0cb0m0","pricing_plan_id":"cebpf4jnsgd1na2vs0mg"},{"bike_id":"41576aa0-8157-44e7-b679-86bb5c689c0f","system_id":"levelo_inurba_marseille","lat":43.29538,"lon":5.38539,"is_reserved":false,"is_disabled":false,"rental_uris":{"android":"levelo://app?vid=41576aa0-8157-44e7-b679-86bb5c689c0f","ios":"levelo://app?vid=41576aa0-8157-44e7-b679-86bb5c689c0f"},"vehicle_type_id":"4","last_reported":1741975998,"current_range_meters":14400,"station_id":"ce4bgih2rcd13ifvqba0","pricing_plan_id":"cebpf4jnsgd1na2vs0mg"},{"bike_id":"e775b725-d288-4ca8-81a3-a74b9a11ce0d","system_id":"levelo_inurba_marseille","lat":43.27948,"lon":5.41047,"is_reserved":false,"is_disabled":false,"rental_uris":{"android":"levelo://app?vid=e775b725-d288-4ca8-81a3-a74b9a11ce0d","ios":"levelo://app?vid=e775b725-d288-4ca8-81a3-a74b9a11ce0d"},"vehicle_type_id":"4","last_reported":1741975998,"current_range_meters":14800,"station_id":"ce4bhnp2rcd13ifvqh0g","pricing_plan_id":"cebpf4jnsgd1na2vs0mg"},{"bike_id":"be1f6405-0198-48a8-8c59-49c1d9c4d69f","system_id":"levelo_inurba_marseille","lat":43.28977,"lon":5.37824,"is_reserved":false,"is_disabled":false,"rental_uris":{"android":"levelo://app?vid=be1f6405-0198-48a8-8c59-49c1d9c4d69f","ios":"levelo://app?vid=be1f6405-0198-48a8-8c59-49c1d9c4d69f"},"vehicle_type_id":"4","last_reported":1741975998,"current_range_meters":14800,"station_id":"ce4bh9p2rcd13ifvqed0","pricing_plan_id":"cebpf4jnsgd1na2vs0mg"},{"bike_id":"4045888e-c764-4f40-bf36-ccbac34cdb61","system_id":"levelo_inurba_marseille","lat":43.30643,"lon":5.4009,"is_reserved":false,"is_disabled":false,"rental_uris":{"android":"levelo://app?vid=4045888e-c764-4f40-bf36-ccbac34cdb61","ios":"levelo://app?vid=4045888e-c764-4f40-bf36-ccbac34cdb61"},"vehicle_type_id":"4","last_reported":1741975998,"current_range_meters":14800,"station_id":"ce4bh112rcd13ifvqda0","pricing_plan_id":"cebpf4jnsgd1na2vs0mg"},{"bike_id":"08d7ad39-29b9-4d1d-ab44-5a56dd13dd34","system_id":"levelo_inurba_marseille","lat":43.24078,"lon":5.37765,"is_reserved":false,"is_disabled":false,"rental_uris":{"android":"levelo://app?vid=08d7ad39-29b9-4d1d-ab44-5a56dd13dd34","ios":"levelo://app?vid=08d7ad39-29b9-4d1d-ab44-5a56dd13dd34"},"vehicle_type_id":"4","last_reported":1741975998,"current_range_meters":14800,"station_id":"ce4bhnp2rcd13ifvqgvg","pricing_plan_id":"cebpf4jnsgd1na2vs0mg"},{"bike_id":"0b7bfdb8-fd03-4687-9225-8085184f929c","system_id":"levelo_inurba_marseille","lat":43.32366,"lon":5.36785,"is_reserved":false,"is_disabled":false,"rental_uris":{"android":"levelo://app?vid=0b7bfdb8-fd03-4687-9225-8085184f929c","ios":"levelo://app?vid=0b7bfdb8-fd03-4687-9225-8085184f929c"},"vehicle_type_id":"4","last_reported":1741975998,"current_range_meters":14800,"station_id":"ce4bhsh2rcd13ifvqi2g","pricing_plan_id":"cebpf4jnsgd1na2vs0mg"},{"bike_id":"0665d59a-7583-48f5-95a3-603a5eec5e3f","system_id":"levelo_inurba_marseille","lat":43.28052,"lon":5.36955,"is_reserved":false,"is_disabled":false,"rental_uris":{"android":"levelo://app?vid=0665d59a-7583-48f5-95a3-603a5eec5e3f","ios":"levelo://app?vid=0665d59a-7583-48f5-95a3-603a5eec5e3f"},"vehicle_type_id":"4","last_reported":1741975998,"current_range_meters":14800,"station_id":"ce4bha12rcd13ifvqef0","pricing_plan_id":"cebpf4jnsgd1na2vs0mg"},{"bike_id":"f3b79453-6967-4f3b-83a5-2031b619e7fc","system_id":"levelo_inurba_marseille","lat":43.26573,"lon":5.37341,"is_reserved":false,"is_disabled":false,"rental_uris":{"android":"levelo://app?vid=f3b79453-6967-4f3b-83a5-2031b619e7fc","ios":"levelo://app?vid=f3b79453-6967-4f3b-83a5-2031b619e7fc"},"vehicle_type_id":"4","last_reported":1741975998,"current_range_meters":14800,"station_id":"ce4bhg12rcd13ifvqf70","pricing_plan_id":"cebpf4jnsgd1na2vs0mg"},{"bike_id":"83783ead-721f-4d82-86e9-a8ac641b2edd","system_id":"levelo_inurba_marseille","lat":43.26248,"lon":5.40442,"is_reserved":false,"is_disabled":false,"rental_uris":{"android":"levelo://app?vid=83783ead-721f-4d82-86e9-a8ac641b2edd","ios":"levelo://app?vid=83783ead-721f-4d82-86e9-a8ac641b2edd"},"vehicle_type_id":"4","last_reported":1741975998,"current_range_meters":14800,"station_id":"ce4bhmh2rcd13ifvqgmg","pricing_plan_id":"cebpf4jnsgd1na2vs0mg"},{"bike_id":"3fbdbed3-81eb-4ebd-99e8-fe7ae5272906","system_id":"levelo_inurba_marseille","lat":43.2583,"lon":5.39431,"is_reserved":false,"is_disabled":false,"rental_uris":{"android":"levelo://app?vid=3fbdbed3-81eb-4ebd-99e8-fe7ae5272906","ios":"levelo://app?vid=3fbdbed3-81eb-4ebd-99e8-fe7ae5272906"},"vehicle_type_id":"4","last_reported":1741975998,"current_range_meters":14800,"station_id":"ce4bhip2rcd13ifvqft0","pricing_plan_id":"cebpf4jnsgd1na2vs0mg"},{"bike_id":"ba2d3041-41d0-46af-a7e9-793a1a878bd3","system_id":"levelo_inurba_marseille","lat":43.283668,"lon":5.386344,"is_reserved":false,"is_disabled":false,"rental_uris":{"android":"levelo://app?vid=ba2d3041-41d0-46af-a7e9-793a1a878bd3","ios":"levelo://app?vid=ba2d3041-41d0-46af-a7e9-793a1a878bd3"},"vehicle_type_id":"4","last_reported":1741975998,"current_range_meters":15200,"station_id":"ce4bh492rcd13ifvqdvg","pricing_plan_id":"cebpf4jnsgd1na2vs0mg"},{"bike_id":"76b5d343-6624-4366-8e6e-f702d50ae492","system_id":"levelo_inurba_marseille","lat":43.23191,"lon":5.35544,"is_reserved":false,"is_disabled":false,"rental_uris":{"android":"levelo://app?vid=76b5d343-6624-4366-8e6e-f702d50ae492","ios":"levelo://app?vid=76b5d343-6624-4366-8e6e-f702d50ae492"},"vehicle_type_id":"4","last_reported":1741975998,"current_range_meters":15200,"station_id":"ce4bhu92rcd13ifvqi70","pricing_plan_id":"cebpf4jnsgd1na2vs0mg"},{"bike_id":"ad04a258-7e86-4634-bab0-de20012bdfb0","system_id":"levelo_inurba_marseille","lat":43.30204,"lon":5.43756,"is_reserved":false,"is_disabled":false,"rental_uris":{"android":"levelo://app?vid=ad04a258-7e86-4634-bab0-de20012bdfb0","ios":"levelo://app?vid=ad04a258-7e86-4634-bab0-de20012bdfb0"},"vehicle_type_id":"4","last_reported":1741975998,"current_range_meters":15200,"station_id":"","pricing_plan_id":"cebpf4jnsgd1na2vs0mg"},{"bike_id":"25274a25-b64b-423d-8515-597b4f6d1008","system_id":"levelo_inurba_marseille","lat":43.29306,"lon":5.37429,"is_reserved":false,"is_disabled":false,"rental_uris":{"android":"levelo://app?vid=25274a25-b64b-423d-8515-597b4f6d1008","ios":"levelo://app?vid=25274a25-b64b-423d-8515-597b4f6d1008"},"vehicle_type_id":"4","last_reported":1741975998,"current_range_meters":15200,"station_id":"ce4bgi12rcd13ifvqb70","pricing_plan_id":"cebpf4jnsgd1na2vs0mg"},{"bike_id":"f7aa1a81-dd32-4a03-a2f0-08b931cfc50e","system_id":"levelo_inurba_marseille","lat":43.32048,"lon":5.41528,"is_reserved":false,"is_disabled":false,"rental_uris":{"android":"levelo://app?vid=f7aa1a81-dd32-4a03-a2f0-08b931cfc50e","ios":"levelo://app?vid=f7aa1a81-dd32-4a03-a2f0-08b931cfc50e"},"vehicle_type_id":"4","last_reported":1741975998,"current_range_meters":15200,"station_id":"ce4bhq92rcd13ifvqhkg","pricing_plan_id":"cebpf4jnsgd1na2vs0mg"},{"bike_id":"3ad7dc5b-7035-4c5a-9b00-dfdb62644173","system_id":"levelo_inurba_marseille","lat":43.29376,"lon":5.3787,"is_reserved":false,"is_disabled":false,"rental_uris":{"android":"levelo://app?vid=3ad7dc5b-7035-4c5a-9b00-dfdb62644173","ios":"levelo://app?vid=3ad7dc5b-7035-4c5a-9b00-dfdb62644173"},"vehicle_type_id":"4","last_reported":1741975998,"current_range_meters":15200,"station_id":"ce4bgjh2rcd13ifvqbf0","pricing_plan_id":"cebpf4jnsgd1na2vs0mg"},{"bike_id":"9d9bd579-ca4a-49a8-84d8-e0a9c1600b5e","system_id":"levelo_inurba_marseille","lat":43.25086,"lon":5.39521,"is_reserved":false,"is_disabled":false,"rental_uris":{"android":"levelo://app?vid=9d9bd579-ca4a-49a8-84d8-e0a9c1600b5e","ios":"levelo://app?vid=9d9bd579-ca4a-49a8-84d8-e0a9c1600b5e"},"vehicle_type_id":"4","last_reported":1741975998,"current_range_meters":16000,"station_id":"ce4bhm12rcd13ifvqgkg","pricing_plan_id":"cebpf4jnsgd1na2vs0mg"},{"bike_id":"748c1c80-150c-49f8-897a-cfbd0dc2534f","system_id":"levelo_inurba_marseille","lat":43.29798,"lon":5.38124,"is_reserved":false,"is_disabled":false,"rental_uris":{"android":"levelo://app?vid=748c1c80-150c-49f8-897a-cfbd0dc2534f","ios":"levelo://app?vid=748c1c80-150c-49f8-897a-cfbd0dc2534f"},"vehicle_type_id":"4","last_reported":1741975998,"current_range_meters":16000,"station_id":"ce4bgip2rcd13ifvqbb0","pricing_plan_id":"cebpf4jnsgd1na2vs0mg"},{"bike_id":"11316385-16ff-44f4-9c5b-887b8e41cb3e","system_id":"levelo_inurba_marseille","lat":43.241,"lon":5.37765,"is_reserved":false,"is_disabled":false,"rental_uris":{"android":"levelo://app?vid=11316385-16ff-44f4-9c5b-887b8e41cb3e","ios":"levelo://app?vid=11316385-16ff-44f4-9c5b-887b8e41cb3e"},"vehicle_type_id":"4","last_reported":1741975998,"current_range_meters":16000,"station_id":"ce4bhnp2rcd13ifvqgvg","pricing_plan_id":"cebpf4jnsgd1na2vs0mg"},{"bike_id":"7e809cf9-4d16-4e10-88b0-f3e27f97828a","system_id":"levelo_inurba_marseille","lat":43.24998,"lon":5.38936,"is_reserved":false,"is_disabled":false,"rental_uris":{"android":"levelo://app?vid=7e809cf9-4d16-4e10-88b0-f3e27f97828a","ios":"levelo://app?vid=7e809cf9-4d16-4e10-88b0-f3e27f97828a"},"vehicle_type_id":"4","last_reported":1741975998,"current_range_meters":16000,"station_id":"ce4bhgp2rcd13ifvqfd0","pricing_plan_id":"cebpf4jnsgd1na2vs0mg"},{"bike_id":"4ada1441-3e78-4d4c-9e2d-b6aaa8eca975","system_id":"levelo_inurba_marseille","lat":43.28464,"lon":5.35878,"is_reserved":false,"is_disabled":false,"rental_uris":{"android":"levelo://app?vid=4ada1441-3e78-4d4c-9e2d-b6aaa8eca975","ios":"levelo://app?vid=4ada1441-3e78-4d4c-9e2d-b6aaa8eca975"},"vehicle_type_id":"4","last_reported":1741975998,"current_range_meters":16000,"station_id":"ce4bhah2rcd13ifvqei0","pricing_plan_id":"cebpf4jnsgd1na2vs0mg"},{"bike_id":"e52b41b5-52df-4c67-a85c-3cebb3bf7504","system_id":"levelo_inurba_marseille","lat":43.32361,"lon":5.36752,"is_reserved":false,"is_disabled":false,"rental_uris":{"android":"levelo://app?vid=e52b41b5-52df-4c67-a85c-3cebb3bf7504","ios":"levelo://app?vid=e52b41b5-52df-4c67-a85c-3cebb3bf7504"},"vehicle_type_id":"4","last_reported":1741975998,"current_range_meters":16000,"station_id":"ce4bhsh2rcd13ifvqi2g","pricing_plan_id":"cebpf4jnsgd1na2vs0mg"},{"bike_id":"d9a1cca8-ee8b-47f2-9d56-964a9b7f03bf","system_id":"levelo_inurba_marseille","lat":43.31358,"lon":5.39686,"is_reserved":false,"is_disabled":true,"rental_uris":{"android":"levelo://app?vid=d9a1cca8-ee8b-47f2-9d56-964a9b7f03bf","ios":"levelo://app?vid=d9a1cca8-ee8b-47f2-9d56-964a9b7f03bf"},"vehicle_type_id":"4","last_reported":1741975998,"current_range_meters":16000,"station_id":"ce4bgvp2rcd13ifvqcu0","pricing_plan_id":"cebpf4jnsgd1na2vs0mg"},{"bike_id":"6c294af0-73e1-45f0-80fe-6c5f79840911","system_id":"levelo_inurba_marseille","lat":43.29556,"lon":5.39925,"is_reserved":false,"is_disabled":false,"rental_uris":{"android":"levelo://app?vid=6c294af0-73e1-45f0-80fe-6c5f79840911","ios":"levelo://app?vid=6c294af0-73e1-45f0-80fe-6c5f79840911"},"vehicle_type_id":"4","last_reported":1741975998,"current_range_meters":16000,"station_id":"ce4bh312rcd13ifvqdj0","pricing_plan_id":"cebpf4jnsgd1na2vs0mg"},{"bike_id":"be99cbe4-26f7-4212-8c29-5a2c5b28771d","system_id":"levelo_inurba_marseille","lat":43.28945,"lon":5.3664,"is_reserved":false,"is_disabled":false,"rental_uris":{"android":"levelo://app?vid=be99cbe4-26f7-4212-8c29-5a2c5b28771d","ios":"levelo://app?vid=be99cbe4-26f7-4212-8c29-5a2c5b28771d"},"vehicle_type_id":"4","last_reported":1741975998,"current_range_meters":16000,"station_id":"ce4bhap2rcd13ifvqek0","pricing_plan_id":"cebpf4jnsgd1na2vs0mg"},{"bike_id":"d7739f82-e9d4-4226-9976-d2bda19cfc1f","system_id":"levelo_inurba_marseille","lat":43.29289,"lon":5.3846,"is_reserved":false,"is_disabled":false,"rental_uris":{"android":"levelo://app?vid=d7739f82-e9d4-4226-9976-d2bda19cfc1f","ios":"levelo://app?vid=d7739f82-e9d4-4226-9976-d2bda19cfc1f"},"vehicle_type_id":"4","last_reported":1741975998,"current_range_meters":16000,"station_id":"ce4bh692rcd13ifvqea0","pricing_plan_id":"cebpf4jnsgd1na2vs0mg"},{"bike_id":"7275ac19-f926-4d23-9e9d-7142ec2c130c","system_id":"levelo_inurba_marseille","lat":43.3137,"lon":5.38494,"is_reserved":false,"is_disabled":false,"rental_uris":{"android":"levelo://app?vid=7275ac19-f926-4d23-9e9d-7142ec2c130c","ios":"levelo://app?vid=7275ac19-f926-4d23-9e9d-7142ec2c130c"},"vehicle_type_id":"4","last_reported":1741975998,"current_range_meters":16000,"station_id":"ce4bgt92rcd13ifvqcf0","pricing_plan_id":"cebpf4jnsgd1na2vs0mg"},{"bike_id":"9413820c-0489-4085-b970-7089f103069b","system_id":"levelo_inurba_marseille","lat":43.25093,"lon":5.395284,"is_reserved":false,"is_disabled":false,"rental_uris":{"android":"levelo://app?vid=9413820c-0489-4085-b970-7089f103069b","ios":"levelo://app?vid=9413820c-0489-4085-b970-7089f103069b"},"vehicle_type_id":"4","last_reported":1741975998,"current_range_meters":16000,"station_id":"ce4bhg12rcd13ifvqf70","pricing_plan_id":"cebpf4jnsgd1na2vs0mg"},{"bike_id":"976a31ad-70b0-4720-b3ce-5fdecc28ad7a","system_id":"levelo_inurba_marseille","lat":43.28417,"lon":5.37506,"is_reserved":false,"is_disabled":false,"rental_uris":{"android":"levelo://app?vid=976a31ad-70b0-4720-b3ce-5fdecc28ad7a","ios":"levelo://app?vid=976a31ad-70b0-4720-b3ce-5fdecc28ad7a"},"vehicle_type_id":"4","last_reported":1741975998,"current_range_meters":16000,"station_id":"ce4bh412rcd13ifvqds0","pricing_plan_id":"cebpf4jnsgd1na2vs0mg"},{"bike_id":"aaa82b9a-f56e-4ec6-b117-bff66bc6f9b9","system_id":"levelo_inurba_marseille","lat":43.28487,"lon":5.38412,"is_reserved":false,"is_disabled":false,"rental_uris":{"android":"levelo://app?vid=aaa82b9a-f56e-4ec6-b117-bff66bc6f9b9","ios":"levelo://app?vid=aaa82b9a-f56e-4ec6-b117-bff66bc6f9b9"},"vehicle_type_id":"4","last_reported":1741975998,"current_range_meters":16000,"station_id":"ce4bh512rcd13ifvqe3g","pricing_plan_id":"cebpf4jnsgd1na2vs0mg"},{"bike_id":"7d24174d-d10b-414c-be10-a866c2e24646","system_id":"levelo_inurba_marseille","lat":43.30515,"lon":5.36724,"is_reserved":false,"is_disabled":false,"rental_uris":{"android":"levelo://app?vid=7d24174d-d10b-414c-be10-a866c2e24646","ios":"levelo://app?vid=7d24174d-d10b-414c-be10-a866c2e24646"},"vehicle_type_id":"4","last_reported":1741975998,"current_range_meters":16400,"station_id":"ce4bgrp2rcd13ifvqc9g","pricing_plan_id":"cebpf4jnsgd1na2vs0mg"},{"bike_id":"3580d4cc-cb5e-4163-bfcb-3b2e81e14dc5","system_id":"levelo_inurba_marseille","lat":43.29273,"lon":5.36837,"is_reserved":false,"is_disabled":false,"rental_uris":{"android":"levelo://app?vid=3580d4cc-cb5e-4163-bfcb-3b2e81e14dc5","ios":"levelo://app?vid=3580d4cc-cb5e-4163-bfcb-3b2e81e14dc5"},"vehicle_type_id":"4","last_reported":1741975998,"current_range_meters":16400,"station_id":"ce4bhbp2rcd13ifvqesg","pricing_plan_id":"cebpf4jnsgd1na2vs0mg"},{"bike_id":"da464d34-0db8-4233-a672-a3a0342a7e99","system_id":"levelo_inurba_marseille","lat":43.29634,"lon":5.40595,"is_reserved":false,"is_disabled":false,"rental_uris":{"android":"levelo://app?vid=da464d34-0db8-4233-a672-a3a0342a7e99","ios":"levelo://app?vid=da464d34-0db8-4233-a672-a3a0342a7e99"},"vehicle_type_id":"4","last_reported":1741975998,"current_range_meters":16400,"station_id":"ce4bh0h2rcd13ifvqd60","pricing_plan_id":"cebpf4jnsgd1na2vs0mg"},{"bike_id":"a9dc446d-296a-45fc-b461-9c38431b9de0","system_id":"levelo_inurba_marseille","lat":43.31996,"lon":5.38145,"is_reserved":false,"is_disabled":false,"rental_uris":{"android":"levelo://app?vid=a9dc446d-296a-45fc-b461-9c38431b9de0","ios":"levelo://app?vid=a9dc446d-296a-45fc-b461-9c38431b9de0"},"vehicle_type_id":"4","last_reported":1741975998,"current_range_meters":16400,"station_id":"ce4bhr12rcd13ifvqhpg","pricing_plan_id":"cebpf4jnsgd1na2vs0mg"},{"bike_id":"ed81b613-5070-486b-8bfe-ec81fb8c4b15","system_id":"levelo_inurba_marseille","lat":43.32289,"lon":5.3828,"is_reserved":false,"is_disabled":false,"rental_uris":{"android":"levelo://app?vid=ed81b613-5070-486b-8bfe-ec81fb8c4b15","ios":"levelo://app?vid=ed81b613-5070-486b-8bfe-ec81fb8c4b15"},"vehicle_type_id":"4","last_reported":1741975998,"current_range_meters":16400,"station_id":"ce4bhr12rcd13ifvqhqg","pricing_plan_id":"cebpf4jnsgd1na2vs0mg"},{"bike_id":"de52a284-b920-461f-93cb-3dfbd4c13027","system_id":"levelo_inurba_marseille","lat":43.298,"lon":5.37667,"is_reserved":false,"is_disabled":false,"rental_uris":{"android":"levelo://app?vid=de52a284-b920-461f-93cb-3dfbd4c13027","ios":"levelo://app?vid=de52a284-b920-461f-93cb-3dfbd4c13027"},"vehicle_type_id":"4","last_reported":1741975998,"current_range_meters":16800,"station_id":"ce4bgkh2rcd13ifvqbl0","pricing_plan_id":"cebpf4jnsgd1na2vs0mg"},{"bike_id":"72fe4211-136e-488e-9061-f6d73fb7ebbf","system_id":"levelo_inurba_marseille","lat":43.27942,"lon":5.41055,"is_reserved":false,"is_disabled":false,"rental_uris":{"android":"levelo://app?vid=72fe4211-136e-488e-9061-f6d73fb7ebbf","ios":"levelo://app?vid=72fe4211-136e-488e-9061-f6d73fb7ebbf"},"vehicle_type_id":"4","last_reported":1741975998,"current_range_meters":16800,"station_id":"ce4bhnp2rcd13ifvqh0g","pricing_plan_id":"cebpf4jnsgd1na2vs0mg"},{"bike_id":"e8ceb681-ef67-4d43-92d5-8ea8d50bff55","system_id":"levelo_inurba_marseille","lat":43.27838,"lon":5.40737,"is_reserved":false,"is_disabled":false,"rental_uris":{"android":"levelo://app?vid=e8ceb681-ef67-4d43-92d5-8ea8d50bff55","ios":"levelo://app?vid=e8ceb681-ef67-4d43-92d5-8ea8d50bff55"},"vehicle_type_id":"4","last_reported":1741975998,"current_range_meters":16800,"station_id":"ce4bhnh2rcd13ifvqgtg","pricing_plan_id":"cebpf4jnsgd1na2vs0mg"},{"bike_id":"1d0d070a-7352-44ba-801c-99aaeb60a394","system_id":"levelo_inurba_marseille","lat":43.29974,"lon":5.38492,"is_reserved":false,"is_disabled":false,"rental_uris":{"android":"levelo://app?vid=1d0d070a-7352-44ba-801c-99aaeb60a394","ios":"levelo://app?vid=1d0d070a-7352-44ba-801c-99aaeb60a394"},"vehicle_type_id":"4","last_reported":1741975998,"current_range_meters":16800,"station_id":"ce4bgj92rcd13ifvqbd0","pricing_plan_id":"cebpf4jnsgd1na2vs0mg"},{"bike_id":"9263b6cb-c2a9-4ade-a7b8-aa3e2867317d","system_id":"levelo_inurba_marseille","lat":43.27304,"lon":5.39087,"is_reserved":false,"is_disabled":false,"rental_uris":{"android":"levelo://app?vid=9263b6cb-c2a9-4ade-a7b8-aa3e2867317d","ios":"levelo://app?vid=9263b6cb-c2a9-4ade-a7b8-aa3e2867317d"},"vehicle_type_id":"4","last_reported":1741975998,"current_range_meters":16800,"station_id":"ce4bhgp2rcd13ifvqfe0","pricing_plan_id":"cebpf4jnsgd1na2vs0mg"},{"bike_id":"6528949f-81a3-41ad-a3bf-0ac6d373bce6","system_id":"levelo_inurba_marseille","lat":43.31502,"lon":5.37526,"is_reserved":false,"is_disabled":false,"rental_uris":{"android":"levelo://app?vid=6528949f-81a3-41ad-a3bf-0ac6d373bce6","ios":"levelo://app?vid=6528949f-81a3-41ad-a3bf-0ac6d373bce6"},"vehicle_type_id":"4","last_reported":1741975998,"current_range_meters":16800,"station_id":"","pricing_plan_id":"cebpf4jnsgd1na2vs0mg"},{"bike_id":"98b3374d-628c-4848-a152-37aa4622feca","system_id":"levelo_inurba_marseille","lat":43.26935,"lon":5.38922,"is_reserved":false,"is_disabled":false,"rental_uris":{"android":"levelo://app?vid=98b3374d-628c-4848-a152-37aa4622feca","ios":"levelo://app?vid=98b3374d-628c-4848-a152-37aa4622feca"},"vehicle_type_id":"4","last_reported":1741975998,"current_range_meters":16800,"station_id":"ce4bhhh2rcd13ifvqfl0","pricing_plan_id":"cebpf4jnsgd1na2vs0mg"},{"bike_id":"ffd6ddb2-6ef4-4265-8e32-61579b3322b5","system_id":"levelo_inurba_marseille","lat":43.2797,"lon":5.41057,"is_reserved":false,"is_disabled":false,"rental_uris":{"android":"levelo://app?vid=ffd6ddb2-6ef4-4265-8e32-61579b3322b5","ios":"levelo://app?vid=ffd6ddb2-6ef4-4265-8e32-61579b3322b5"},"vehicle_type_id":"4","last_reported":1741975998,"current_range_meters":16800,"station_id":"ce4bhnp2rcd13ifvqh0g","pricing_plan_id":"cebpf4jnsgd1na2vs0mg"},{"bike_id":"49369e86-d92a-4acf-bc8c-70f7f0ae64f5","system_id":"levelo_inurba_marseille","lat":43.29167,"lon":5.37154,"is_reserved":false,"is_disabled":false,"rental_uris":{"android":"levelo://app?vid=49369e86-d92a-4acf-bc8c-70f7f0ae64f5","ios":"levelo://app?vid=49369e86-d92a-4acf-bc8c-70f7f0ae64f5"},"vehicle_type_id":"4","last_reported":1741975998,"current_range_meters":16800,"station_id":"ce4bha92rcd13ifvqeh0","pricing_plan_id":"cebpf4jnsgd1na2vs0mg"},{"bike_id":"5887cce2-f89f-4f14-ada3-b6a60568cbe4","system_id":"levelo_inurba_marseille","lat":43.27054,"lon":5.40258,"is_reserved":false,"is_disabled":false,"rental_uris":{"android":"levelo://app?vid=5887cce2-f89f-4f14-ada3-b6a60568cbe4","ios":"levelo://app?vid=5887cce2-f89f-4f14-ada3-b6a60568cbe4"},"vehicle_type_id":"4","last_reported":1741975998,"current_range_meters":16800,"station_id":"ce4bhk92rcd13ifvqgc0","pricing_plan_id":"cebpf4jnsgd1na2vs0mg"},{"bike_id":"87b7f147-0ac2-4b35-8bcc-3f02f503bd7c","system_id":"levelo_inurba_marseille","lat":43.26201,"lon":5.37917,"is_reserved":false,"is_disabled":false,"rental_uris":{"android":"levelo://app?vid=87b7f147-0ac2-4b35-8bcc-3f02f503bd7c","ios":"levelo://app?vid=87b7f147-0ac2-4b35-8bcc-3f02f503bd7c"},"vehicle_type_id":"4","last_reported":1741975998,"current_range_meters":16800,"station_id":"ce4bhjp2rcd13ifvqg90","pricing_plan_id":"cebpf4jnsgd1na2vs0mg"},{"bike_id":"dcf42fcb-51d3-452c-b7db-ca4aa6edc4ad","system_id":"levelo_inurba_marseille","lat":43.29271,"lon":5.38463,"is_reserved":false,"is_disabled":false,"rental_uris":{"android":"levelo://app?vid=dcf42fcb-51d3-452c-b7db-ca4aa6edc4ad","ios":"levelo://app?vid=dcf42fcb-51d3-452c-b7db-ca4aa6edc4ad"},"vehicle_type_id":"4","last_reported":1741975998,"current_range_meters":17200,"station_id":"ce4bh692rcd13ifvqea0","pricing_plan_id":"cebpf4jnsgd1na2vs0mg"},{"bike_id":"fc071de1-2cc0-488a-a43e-f8037a5a9a49","system_id":"levelo_inurba_marseille","lat":43.230715,"lon":5.354959,"is_reserved":false,"is_disabled":false,"rental_uris":{"android":"levelo://app?vid=fc071de1-2cc0-488a-a43e-f8037a5a9a49","ios":"levelo://app?vid=fc071de1-2cc0-488a-a43e-f8037a5a9a49"},"vehicle_type_id":"4","last_reported":1741975998,"current_range_meters":17200,"station_id":"cpo3342slgdg3j2ifvpg","pricing_plan_id":"cebpf4jnsgd1na2vs0mg"},{"bike_id":"d751a31e-a518-44cc-8641-315d036d1e06","system_id":"levelo_inurba_marseille","lat":43.29916,"lon":5.39748,"is_reserved":false,"is_disabled":true,"rental_uris":{"android":"levelo://app?vid=d751a31e-a518-44cc-8641-315d036d1e06","ios":"levelo://app?vid=d751a31e-a518-44cc-8641-315d036d1e06"},"vehicle_type_id":"4","last_reported":1741975998,"current_range_meters":17200,"station_id":"ce4bh0h2rcd13ifvqd50","pricing_plan_id":"cebpf4jnsgd1na2vs0mg"},{"bike_id":"608f0462-484e-441f-9837-82475dce48ee","system_id":"levelo_inurba_marseille","lat":43.29909,"lon":5.43622,"is_reserved":false,"is_disabled":false,"rental_uris":{"android":"levelo://app?vid=608f0462-484e-441f-9837-82475dce48ee","ios":"levelo://app?vid=608f0462-484e-441f-9837-82475dce48ee"},"vehicle_type_id":"4","last_reported":1741975998,"current_range_meters":17200,"station_id":"ce4bhpp2rcd13ifvqhfg","pricing_plan_id":"cebpf4jnsgd1na2vs0mg"},{"bike_id":"5d1a377a-c875-40cd-a95e-912db3792de9","system_id":"levelo_inurba_marseille","lat":43.30209,"lon":5.39472,"is_reserved":false,"is_disabled":false,"rental_uris":{"android":"levelo://app?vid=5d1a377a-c875-40cd-a95e-912db3792de9","ios":"levelo://app?vid=5d1a377a-c875-40cd-a95e-912db3792de9"},"vehicle_type_id":"4","last_reported":1741975998,"current_range_meters":16800,"station_id":"ce4bh0p2rcd13ifvqd70","pricing_plan_id":"cebpf4jnsgd1na2vs0mg"},{"bike_id":"67ba5532-a4de-45d0-bd2d-aa06a7264fb6","system_id":"levelo_inurba_marseille","lat":43.30887,"lon":5.37196,"is_reserved":false,"is_disabled":false,"rental_uris":{"android":"levelo://app?vid=67ba5532-a4de-45d0-bd2d-aa06a7264fb6","ios":"levelo://app?vid=67ba5532-a4de-45d0-bd2d-aa06a7264fb6"},"vehicle_type_id":"4","last_reported":1741975998,"current_range_meters":17200,"station_id":"ce4bguh2rcd13ifvqckg","pricing_plan_id":"cebpf4jnsgd1na2vs0mg"},{"bike_id":"c9fcf6ca-eb9a-4745-ae75-0839938c01aa","system_id":"levelo_inurba_marseille","lat":43.23956,"lon":5.36633,"is_reserved":false,"is_disabled":false,"rental_uris":{"android":"levelo://app?vid=c9fcf6ca-eb9a-4745-ae75-0839938c01aa","ios":"levelo://app?vid=c9fcf6ca-eb9a-4745-ae75-0839938c01aa"},"vehicle_type_id":"4","last_reported":1741975998,"current_range_meters":17200,"station_id":"ce4bhi12rcd13ifvqfp0","pricing_plan_id":"cebpf4jnsgd1na2vs0mg"},{"bike_id":"2abf938b-3786-44c9-8b9e-edd769577efb","system_id":"levelo_inurba_marseille","lat":43.30651,"lon":5.40048,"is_reserved":false,"is_disabled":false,"rental_uris":{"android":"levelo://app?vid=2abf938b-3786-44c9-8b9e-edd769577efb","ios":"levelo://app?vid=2abf938b-3786-44c9-8b9e-edd769577efb"},"vehicle_type_id":"4","last_reported":1741975998,"current_range_meters":17200,"station_id":"ce4bh112rcd13ifvqda0","pricing_plan_id":"cebpf4jnsgd1na2vs0mg"},{"bike_id":"c7d445b2-89fc-4e45-b3a4-cd964b851f34","system_id":"levelo_inurba_marseille","lat":43.3042,"lon":5.41288,"is_reserved":false,"is_disabled":false,"rental_uris":{"android":"levelo://app?vid=c7d445b2-89fc-4e45-b3a4-cd964b851f34","ios":"levelo://app?vid=c7d445b2-89fc-4e45-b3a4-cd964b851f34"},"vehicle_type_id":"4","last_reported":1741975998,"current_range_meters":17200,"station_id":"ce4bhop2rcd13ifvqh8g","pricing_plan_id":"cebpf4jnsgd1na2vs0mg"},{"bike_id":"7c88e5e6-ab2c-4474-b03d-17818151ba41","system_id":"levelo_inurba_marseille","lat":43.27236,"lon":5.3919,"is_reserved":false,"is_disabled":false,"rental_uris":{"android":"levelo://app?vid=7c88e5e6-ab2c-4474-b03d-17818151ba41","ios":"levelo://app?vid=7c88e5e6-ab2c-4474-b03d-17818151ba41"},"vehicle_type_id":"4","last_reported":1741975998,"current_range_meters":17200,"station_id":"ce4bhhp2rcd13ifvqfm0","pricing_plan_id":"cebpf4jnsgd1na2vs0mg"},{"bike_id":"35170032-9fbd-466b-b080-21388ed7720a","system_id":"levelo_inurba_marseille","lat":43.251039,"lon":5.395106,"is_reserved":false,"is_disabled":false,"rental_uris":{"android":"levelo://app?vid=35170032-9fbd-466b-b080-21388ed7720a","ios":"levelo://app?vid=35170032-9fbd-466b-b080-21388ed7720a"},"vehicle_type_id":"4","last_reported":1741975998,"current_range_meters":17600,"station_id":"ce4bhm12rcd13ifvqgkg","pricing_plan_id":"cebpf4jnsgd1na2vs0mg"},{"bike_id":"56c5e86f-d919-4412-96f3-cbfb7b6ab9dc","system_id":"levelo_inurba_marseille","lat":43.29313,"lon":5.37189,"is_reserved":false,"is_disabled":false,"rental_uris":{"android":"levelo://app?vid=56c5e86f-d919-4412-96f3-cbfb7b6ab9dc","ios":"levelo://app?vid=56c5e86f-d919-4412-96f3-cbfb7b6ab9dc"},"vehicle_type_id":"4","last_reported":1741975998,"current_range_meters":17600,"station_id":"ce4bgh92rcd13ifvqb40","pricing_plan_id":"cebpf4jnsgd1na2vs0mg"},{"bike_id":"13631438-5c77-460f-bad8-02d30380847c","system_id":"levelo_inurba_marseille","lat":43.24068,"lon":5.37762,"is_reserved":false,"is_disabled":false,"rental_uris":{"android":"levelo://app?vid=13631438-5c77-460f-bad8-02d30380847c","ios":"levelo://app?vid=13631438-5c77-460f-bad8-02d30380847c"},"vehicle_type_id":"4","last_reported":1741975998,"current_range_meters":17600,"station_id":"ce4bhnp2rcd13ifvqgvg","pricing_plan_id":"cebpf4jnsgd1na2vs0mg"},{"bike_id":"e1bc5517-89cc-4fbd-afdb-e8d3c61b8e55","system_id":"levelo_inurba_marseille","lat":43.32343,"lon":5.3658,"is_reserved":false,"is_disabled":false,"rental_uris":{"android":"levelo://app?vid=e1bc5517-89cc-4fbd-afdb-e8d3c61b8e55","ios":"levelo://app?vid=e1bc5517-89cc-4fbd-afdb-e8d3c61b8e55"},"vehicle_type_id":"4","last_reported":1741975998,"current_range_meters":17600,"station_id":"","pricing_plan_id":"cebpf4jnsgd1na2vs0mg"},{"bike_id":"be34e346-6cd0-49dc-bc60-f4bbfdaefa50","system_id":"levelo_inurba_marseille","lat":43.279118,"lon":5.395811,"is_reserved":false,"is_disabled":false,"rental_uris":{"android":"levelo://app?vid=be34e346-6cd0-49dc-bc60-f4bbfdaefa50","ios":"levelo://app?vid=be34e346-6cd0-49dc-bc60-f4bbfdaefa50"},"vehicle_type_id":"4","last_reported":1741975998,"current_range_meters":17600,"station_id":"ce4bhf92rcd13ifvqf40","pricing_plan_id":"cebpf4jnsgd1na2vs0mg"},{"bike_id":"3a89315b-62de-4a2c-a0ba-c40dd86a913d","system_id":"levelo_inurba_marseille","lat":43.270606,"lon":5.402648,"is_reserved":false,"is_disabled":false,"rental_uris":{"android":"levelo://app?vid=3a89315b-62de-4a2c-a0ba-c40dd86a913d","ios":"levelo://app?vid=3a89315b-62de-4a2c-a0ba-c40dd86a913d"},"vehicle_type_id":"4","last_reported":1741975998,"current_range_meters":17600,"station_id":"ce4bhk92rcd13ifvqgc0","pricing_plan_id":"cebpf4jnsgd1na2vs0mg"},{"bike_id":"9e045b65-7b35-4bc4-bfe9-42ccaa64b678","system_id":"levelo_inurba_marseille","lat":43.29913,"lon":5.38156,"is_reserved":false,"is_disabled":false,"rental_uris":{"android":"levelo://app?vid=9e045b65-7b35-4bc4-bfe9-42ccaa64b678","ios":"levelo://app?vid=9e045b65-7b35-4bc4-bfe9-42ccaa64b678"},"vehicle_type_id":"4","last_reported":1741975998,"current_range_meters":18000,"station_id":"ce4bgj12rcd13ifvqbc0","pricing_plan_id":"cebpf4jnsgd1na2vs0mg"},{"bike_id":"e5a0cb48-7df5-4f7c-b3ba-ebef0730a60d","system_id":"levelo_inurba_marseille","lat":43.30112,"lon":5.39105,"is_reserved":false,"is_disabled":false,"rental_uris":{"android":"levelo://app?vid=e5a0cb48-7df5-4f7c-b3ba-ebef0730a60d","ios":"levelo://app?vid=e5a0cb48-7df5-4f7c-b3ba-ebef0730a60d"},"vehicle_type_id":"4","last_reported":1741975998,"current_range_meters":18000,"station_id":"ce4bh192rcd13ifvqdb0","pricing_plan_id":"cebpf4jnsgd1na2vs0mg"},{"bike_id":"71b342b8-694b-40d5-99e8-310baf77a970","system_id":"levelo_inurba_marseille","lat":43.23063,"lon":5.35491,"is_reserved":false,"is_disabled":false,"rental_uris":{"android":"levelo://app?vid=71b342b8-694b-40d5-99e8-310baf77a970","ios":"levelo://app?vid=71b342b8-694b-40d5-99e8-310baf77a970"},"vehicle_type_id":"4","last_reported":1741975998,"current_range_meters":18000,"station_id":"cpo3342slgdg3j2ifvpg","pricing_plan_id":"cebpf4jnsgd1na2vs0mg"},{"bike_id":"90c707aa-0edc-4e94-a911-252e6bd4d4c2","system_id":"levelo_inurba_marseille","lat":43.28675,"lon":5.35131,"is_reserved":false,"is_disabled":false,"rental_uris":{"android":"levelo://app?vid=90c707aa-0edc-4e94-a911-252e6bd4d4c2","ios":"levelo://app?vid=90c707aa-0edc-4e94-a911-252e6bd4d4c2"},"vehicle_type_id":"4","last_reported":1741975998,"current_range_meters":18000,"station_id":"ce4bhch2rcd13ifvqeug","pricing_plan_id":"cebpf4jnsgd1na2vs0mg"},{"bike_id":"cf074f65-a36e-4f38-b1b9-78bc16980a0d","system_id":"levelo_inurba_marseille","lat":43.27955,"lon":5.41021,"is_reserved":false,"is_disabled":false,"rental_uris":{"android":"levelo://app?vid=cf074f65-a36e-4f38-b1b9-78bc16980a0d","ios":"levelo://app?vid=cf074f65-a36e-4f38-b1b9-78bc16980a0d"},"vehicle_type_id":"4","last_reported":1741975998,"current_range_meters":18000,"station_id":"ce4bhnp2rcd13ifvqh0g","pricing_plan_id":"cebpf4jnsgd1na2vs0mg"},{"bike_id":"72977fa7-7343-4cff-8728-965991106263","system_id":"levelo_inurba_marseille","lat":43.29627,"lon":5.37138,"is_reserved":false,"is_disabled":false,"rental_uris":{"android":"levelo://app?vid=72977fa7-7343-4cff-8728-965991106263","ios":"levelo://app?vid=72977fa7-7343-4cff-8728-965991106263"},"vehicle_type_id":"4","last_reported":1741975998,"current_range_meters":18000,"station_id":"ce4bgnh2rcd13ifvqc0g","pricing_plan_id":"cebpf4jnsgd1na2vs0mg"},{"bike_id":"78df367a-4264-4241-a94f-f890135b7404","system_id":"levelo_inurba_marseille","lat":43.33612,"lon":5.41005,"is_reserved":false,"is_disabled":false,"rental_uris":{"android":"levelo://app?vid=78df367a-4264-4241-a94f-f890135b7404","ios":"levelo://app?vid=78df367a-4264-4241-a94f-f890135b7404"},"vehicle_type_id":"4","last_reported":1741975998,"current_range_meters":18000,"station_id":"ce4bhqh2rcd13ifvqhmg","pricing_plan_id":"cebpf4jnsgd1na2vs0mg"},{"bike_id":"538cf22a-9e32-4b58-bbb6-037ac3526cd8","system_id":"levelo_inurba_marseille","lat":43.29559,"lon":5.37477,"is_reserved":false,"is_disabled":false,"rental_uris":{"android":"levelo://app?vid=538cf22a-9e32-4b58-bbb6-037ac3526cd8","ios":"levelo://app?vid=538cf22a-9e32-4b58-bbb6-037ac3526cd8"},"vehicle_type_id":"4","last_reported":1741975998,"current_range_meters":18000,"station_id":"ce4bgh92rcd13ifvqb50","pricing_plan_id":"cebpf4jnsgd1na2vs0mg"},{"bike_id":"c0e185b0-e289-4274-ac1f-4091eeb32a60","system_id":"levelo_inurba_marseille","lat":43.30927,"lon":5.40151,"is_reserved":false,"is_disabled":false,"rental_uris":{"android":"levelo://app?vid=c0e185b0-e289-4274-ac1f-4091eeb32a60","ios":"levelo://app?vid=c0e185b0-e289-4274-ac1f-4091eeb32a60"},"vehicle_type_id":"4","last_reported":1741975998,"current_range_meters":18800,"station_id":"ce4bgvp2rcd13ifvqct0","pricing_plan_id":"cebpf4jnsgd1na2vs0mg"},{"bike_id":"a5028821-6a81-4bbb-94ca-b7ac127e2028","system_id":"levelo_inurba_marseille","lat":43.28602,"lon":5.37065,"is_reserved":false,"is_disabled":false,"rental_uris":{"android":"levelo://app?vid=a5028821-6a81-4bbb-94ca-b7ac127e2028","ios":"levelo://app?vid=a5028821-6a81-4bbb-94ca-b7ac127e2028"},"vehicle_type_id":"4","last_reported":1741975998,"current_range_meters":18800,"station_id":"ce4bht12rcd13ifvqi60","pricing_plan_id":"cebpf4jnsgd1na2vs0mg"},{"bike_id":"14c06552-2844-40f8-963d-3dedffcab250","system_id":"levelo_inurba_marseille","lat":43.29622,"lon":5.37162,"is_reserved":false,"is_disabled":false,"rental_uris":{"android":"levelo://app?vid=14c06552-2844-40f8-963d-3dedffcab250","ios":"levelo://app?vid=14c06552-2844-40f8-963d-3dedffcab250"},"vehicle_type_id":"4","last_reported":1741975998,"current_range_meters":18800,"station_id":"ce4bgnh2rcd13ifvqc0g","pricing_plan_id":"cebpf4jnsgd1na2vs0mg"},{"bike_id":"f238c0df-d3c9-4577-a186-a5d3f05e229a","system_id":"levelo_inurba_marseille","lat":43.25833,"lon":5.39424,"is_reserved":false,"is_disabled":false,"rental_uris":{"android":"levelo://app?vid=f238c0df-d3c9-4577-a186-a5d3f05e229a","ios":"levelo://app?vid=f238c0df-d3c9-4577-a186-a5d3f05e229a"},"vehicle_type_id":"4","last_reported":1741975998,"current_range_meters":18800,"station_id":"ce4bhip2rcd13ifvqft0","pricing_plan_id":"cebpf4jnsgd1na2vs0mg"},{"bike_id":"08bb6fff-8743-426f-b405-139aead89ccf","system_id":"levelo_inurba_marseille","lat":43.31273,"lon":5.37758,"is_reserved":false,"is_disabled":false,"rental_uris":{"android":"levelo://app?vid=08bb6fff-8743-426f-b405-139aead89ccf","ios":"levelo://app?vid=08bb6fff-8743-426f-b405-139aead89ccf"},"vehicle_type_id":"4","last_reported":1741975998,"current_range_meters":18800,"station_id":"","pricing_plan_id":"cebpf4jnsgd1na2vs0mg"},{"bike_id":"ada8c65c-5ba9-476c-90dc-70df876049f8","system_id":"levelo_inurba_marseille","lat":43.2987,"lon":5.3975,"is_reserved":false,"is_disabled":false,"rental_uris":{"android":"levelo://app?vid=ada8c65c-5ba9-476c-90dc-70df876049f8","ios":"levelo://app?vid=ada8c65c-5ba9-476c-90dc-70df876049f8"},"vehicle_type_id":"4","last_reported":1741975998,"current_range_meters":18800,"station_id":"ce4bh0h2rcd13ifvqd50","pricing_plan_id":"cebpf4jnsgd1na2vs0mg"},{"bike_id":"f709cb7e-4bd4-4503-ab85-447b0bd380b5","system_id":"levelo_inurba_marseille","lat":43.32391,"lon":5.38896,"is_reserved":false,"is_disabled":false,"rental_uris":{"android":"levelo://app?vid=f709cb7e-4bd4-4503-ab85-447b0bd380b5","ios":"levelo://app?vid=f709cb7e-4bd4-4503-ab85-447b0bd380b5"},"vehicle_type_id":"4","last_reported":1741975998,"current_range_meters":18800,"station_id":"ce4bhqp2rcd13ifvqhog","pricing_plan_id":"cebpf4jnsgd1na2vs0mg"},{"bike_id":"47063950-0937-4d5f-b542-115a5662eb9e","system_id":"levelo_inurba_marseille","lat":43.29567,"lon":5.39974,"is_reserved":false,"is_disabled":false,"rental_uris":{"android":"levelo://app?vid=47063950-0937-4d5f-b542-115a5662eb9e","ios":"levelo://app?vid=47063950-0937-4d5f-b542-115a5662eb9e"},"vehicle_type_id":"4","last_reported":1741975998,"current_range_meters":18800,"station_id":"ce4bh312rcd13ifvqdj0","pricing_plan_id":"cebpf4jnsgd1na2vs0mg"},{"bike_id":"d20b1ea1-68d8-4d84-b2b2-7af425a1c02d","system_id":"levelo_inurba_marseille","lat":43.26908,"lon":5.40267,"is_reserved":false,"is_disabled":false,"rental_uris":{"android":"levelo://app?vid=d20b1ea1-68d8-4d84-b2b2-7af425a1c02d","ios":"levelo://app?vid=d20b1ea1-68d8-4d84-b2b2-7af425a1c02d"},"vehicle_type_id":"4","last_reported":1741975998,"current_range_meters":18800,"station_id":"cjm6bp8fraef2m0cb0m0","pricing_plan_id":"cebpf4jnsgd1na2vs0mg"},{"bike_id":"a7bf43f3-dbf8-47c3-97b2-b3dfd7ac0119","system_id":"levelo_inurba_marseille","lat":43.30537,"lon":5.36546,"is_reserved":false,"is_disabled":false,"rental_uris":{"android":"levelo://app?vid=a7bf43f3-dbf8-47c3-97b2-b3dfd7ac0119","ios":"levelo://app?vid=a7bf43f3-dbf8-47c3-97b2-b3dfd7ac0119"},"vehicle_type_id":"4","last_reported":1741975998,"current_range_meters":18800,"station_id":"ce4bgs12rcd13ifvqcag","pricing_plan_id":"cebpf4jnsgd1na2vs0mg"},{"bike_id":"6ffff0a8-172c-4dc2-8429-0d06f4d6bfed","system_id":"levelo_inurba_marseille","lat":43.29529,"lon":5.37496,"is_reserved":false,"is_disabled":false,"rental_uris":{"android":"levelo://app?vid=6ffff0a8-172c-4dc2-8429-0d06f4d6bfed","ios":"levelo://app?vid=6ffff0a8-172c-4dc2-8429-0d06f4d6bfed"},"vehicle_type_id":"4","last_reported":1741975998,"current_range_meters":18800,"station_id":"ce4bgkp2rcd13ifvqbmg","pricing_plan_id":"cebpf4jnsgd1na2vs0mg"},{"bike_id":"efa182c5-e8bb-4316-9ac4-4d06270b10d4","system_id":"levelo_inurba_marseille","lat":43.32389,"lon":5.38867,"is_reserved":false,"is_disabled":false,"rental_uris":{"android":"levelo://app?vid=efa182c5-e8bb-4316-9ac4-4d06270b10d4","ios":"levelo://app?vid=efa182c5-e8bb-4316-9ac4-4d06270b10d4"},"vehicle_type_id":"4","last_reported":1741975998,"current_range_meters":18800,"station_id":"ce4bhqp2rcd13ifvqhog","pricing_plan_id":"cebpf4jnsgd1na2vs0mg"},{"bike_id":"f8a4fd1f-8768-49cb-a929-fdc4f5463ccd","system_id":"levelo_inurba_marseille","lat":43.30137,"lon":5.3742,"is_reserved":false,"is_disabled":false,"rental_uris":{"android":"levelo://app?vid=f8a4fd1f-8768-49cb-a929-fdc4f5463ccd","ios":"levelo://app?vid=f8a4fd1f-8768-49cb-a929-fdc4f5463ccd"},"vehicle_type_id":"4","last_reported":1741975998,"current_range_meters":18800,"station_id":"ce4bgs92rcd13ifvqcc0","pricing_plan_id":"cebpf4jnsgd1na2vs0mg"},{"bike_id":"c6eb555e-2233-48fe-99d9-f2bb82a3ccbf","system_id":"levelo_inurba_marseille","lat":43.23183,"lon":5.39986,"is_reserved":false,"is_disabled":false,"rental_uris":{"android":"levelo://app?vid=c6eb555e-2233-48fe-99d9-f2bb82a3ccbf","ios":"levelo://app?vid=c6eb555e-2233-48fe-99d9-f2bb82a3ccbf"},"vehicle_type_id":"4","last_reported":1741975998,"current_range_meters":18000,"station_id":"ce4bhn12rcd13ifvqgqg","pricing_plan_id":"cebpf4jnsgd1na2vs0mg"},{"bike_id":"f30c26ca-804d-4786-9519-dbab41222c3b","system_id":"levelo_inurba_marseille","lat":43.27848,"lon":5.40709,"is_reserved":false,"is_disabled":false,"rental_uris":{"android":"levelo://app?vid=f30c26ca-804d-4786-9519-dbab41222c3b","ios":"levelo://app?vid=f30c26ca-804d-4786-9519-dbab41222c3b"},