{"last_updated":1760893652,"ttl":60,"version":"2.2","data":{"bikes":[{"bike_id":"037e260c-63fd-48d0-9f57-5681fadca189","system_id":"levelo_inurba_marseille","lat":43.29031,"lon":5.38645,"is_reserved":false,"is_disabled":false,"rental_uris":{"android":"levelo://app?vid=037e260c-63fd-48d0-9f57-5681fadca189","ios":"levelo://app?vid=037e260c-63fd-48d0-9f57-5681fadca189"},"vehicle_type_id":"4","last_reported":1760893652,"current_range_meters":2800,"station_id":"ce4bh4p2rcd13ifvqe0g","pricing_plan_id":"cebpf4jnsgd1na2vs0mg"},{"bike_id":"dfba2b1d-7203-40d7-90e5-17b2b5bce387","system_id":"levelo_inurba_marseille","lat":43.29903,"lon":5.38153,"is_reserved":false,"is_disabled":false,"rental_uris":{"android":"levelo://app?vid=dfba2b1d-7203-40d7-90e5-17b2b5bce387","ios":"levelo://app?vid=dfba2b1d-7203-40d7-90e5-17b2b5bce387"},"vehicle_type_id":"4","last_reported":1760893652,"current_range_meters":2800,"station_id":"ce4bgj12rcd13ifvqbc0","pricing_plan_id":"cebpf4jnsgd1na2vs0mg"},{"bike_id":"3602bb37-facd-4202-b800-239bdc6dd524","system_id":"levelo_inurba_marseille","lat":43.26561,"lon":5.40328,"is_reserved":false,"is_disabled":false,"rental_uris":{"android":"levelo://app?vid=3602bb37-facd-4202-b800-239bdc6dd524","ios":"levelo://app?vid=3602bb37-facd-4202-b800-239bdc6dd524"},"vehicle_type_id":"4","last_reported":1760893652,"current_range_meters":2800,"station_id":"ce4bhmp2rcd13ifvqgng","pricing_plan_id":"cebpf4jnsgd1na2vs0mg"},{"bike_id":"620f19db-e929-4071-8a7a-fb5114fd2597","system_id":"levelo_inurba_marseille","lat":43.27325,"lon":5.39086,"is_reserved":false,"is_disabled":true,"rental_uris":{"android":"levelo://app?vid=620f19db-e929-4071-8a7a-fb5114fd2597","ios":"levelo://app?vid=620f19db-e929-4071-8a7a-fb5114fd2597"},"vehicle_type_id":"4","last_reported":1760893652,"current_range_meters":2800,"station_id":"ce4bhgp2rcd13ifvqfe0","pricing_plan_id":"cebpf4jnsgd1na2vs0mg"},{"bike_id":"72df6540-8a1d-4294-a7f4-2853f3211d91","system_id":"levelo_inurba_marseille","lat":43.295942,"lon":5.391637,"is_reserved":false,"is_disabled":false,"rental_uris":{"android":"levelo://app?vid=72df6540-8a1d-4294-a7f4-2853f3211d91","ios":"levelo://app?vid=72df6540-8a1d-4294-a7f4-2853f3211d91"},"vehicle_type_id":"4","last_reported":1760893652,"current_range_meters":2800,"station_id":"","pricing_plan_id":"cebpf4jnsgd1na2vs0mg"},{"bike_id":"fc6f7a61-87b2-45d8-9586-9e2a76532c0d","system_id":"levelo_inurba_marseille","lat":43.2927,"lon":5.4014,"is_reserved":false,"is_disabled":true,"rental_uris":{"android":"levelo://app?vid=fc6f7a61-87b2-45d8-9586-9e2a76532c0d","ios":"levelo://app?vid=fc6f7a61-87b2-45d8-9586-9e2a76532c0d"},"vehicle_type_id":"4","last_reported":1760893652,"current_range_meters":3200,"station_id":"ce4bh312rcd13ifvqdk0","pricing_plan_id":"cebpf4jnsgd1na2vs0mg"},{"bike_id":"2b436428-23be-46fe-abb4-2835089593b8","system_id":"levelo_inurba_marseille","lat":43.211932,"lon":5.35072,"is_reserved":false,"is_disabled":false,"rental_uris":{"android":"levelo://app?vid=2b436428-23be-46fe-abb4-2835089593b8","ios":"levelo://app?vid=2b436428-23be-46fe-abb4-2835089593b8"},"vehicle_type_id":"4","last_reported":1760893652,"current_range_meters":3200,"station_id":"st_cvj6sg6p6f1abm77japg","pricing_plan_id":"cebpf4jnsgd1na2vs0mg"},{"bike_id":"285a8069-6ed2-4d0e-8638-134dbb16e8e9","system_id":"levelo_inurba_marseille","lat":43.29603,"lon":5.38196,"is_reserved":false,"is_disabled":false,"rental_uris":{"android":"levelo://app?vid=285a8069-6ed2-4d0e-8638-134dbb16e8e9","ios":"levelo://app?vid=285a8069-6ed2-4d0e-8638-134dbb16e8e9"},"vehicle_type_id":"4","last_reported":1760893652,"current_range_meters":3200,"station_id":"ce4bhbp2rcd13ifvqerg","pricing_plan_id":"cebpf4jnsgd1na2vs0mg"},{"bike_id":"79c8a932-68bb-4674-8281-bc7dedc2efc8","system_id":"levelo_inurba_marseille","lat":43.28407,"lon":5.37513,"is_reserved":false,"is_disabled":false,"rental_uris":{"android":"levelo://app?vid=79c8a932-68bb-4674-8281-bc7dedc2efc8","ios":"levelo://app?vid=79c8a932-68bb-4674-8281-bc7dedc2efc8"},"vehicle_type_id":"4","last_reported":1760893652,"current_range_meters":3200,"station_id":"ce4bh412rcd13ifvqds0","pricing_plan_id":"cebpf4jnsgd1na2vs0mg"},{"bike_id":"da540c0e-39c9-4ef0-a466-f97a8d2a1619","system_id":"levelo_inurba_marseille","lat":43.28536,"lon":5.44119,"is_reserved":false,"is_disabled":false,"rental_uris":{"android":"levelo://app?vid=da540c0e-39c9-4ef0-a466-f97a8d2a1619","ios":"levelo://app?vid=da540c0e-39c9-4ef0-a466-f97a8d2a1619"},"vehicle_type_id":"4","last_reported":1760893652,"current_range_meters":3200,"station_id":"st_d3j3df2ikq2c7380ej80","pricing_plan_id":"cebpf4jnsgd1na2vs0mg"},{"bike_id":"e9cb27a1-6b9d-4281-bd9d-38f90679fca9","system_id":"levelo_inurba_marseille","lat":43.26571,"lon":5.3902,"is_reserved":false,"is_disabled":false,"rental_uris":{"android":"levelo://app?vid=e9cb27a1-6b9d-4281-bd9d-38f90679fca9","ios":"levelo://app?vid=e9cb27a1-6b9d-4281-bd9d-38f90679fca9"},"vehicle_type_id":"4","last_reported":1760893652,"current_range_meters":3200,"station_id":"ce4bhe12rcd13ifvqf30","pricing_plan_id":"cebpf4jnsgd1na2vs0mg"},{"bike_id":"731ce36e-6407-48a2-97f5-d7a5ac962d8d","system_id":"levelo_inurba_marseille","lat":43.292694,"lon":5.384343,"is_reserved":false,"is_disabled":false,"rental_uris":{"android":"levelo://app?vid=731ce36e-6407-48a2-97f5-d7a5ac962d8d","ios":"levelo://app?vid=731ce36e-6407-48a2-97f5-d7a5ac962d8d"},"vehicle_type_id":"4","last_reported":1760893652,"current_range_meters":3600,"station_id":"ce4bh692rcd13ifvqea0","pricing_plan_id":"cebpf4jnsgd1na2vs0mg"},{"bike_id":"d0057ba9-b233-440f-8490-e26f02f1a1dd","system_id":"levelo_inurba_marseille","lat":43.28649,"lon":5.36368,"is_reserved":false,"is_disabled":true,"rental_uris":{"android":"levelo://app?vid=d0057ba9-b233-440f-8490-e26f02f1a1dd","ios":"levelo://app?vid=d0057ba9-b233-440f-8490-e26f02f1a1dd"},"vehicle_type_id":"4","last_reported":1760893652,"current_range_meters":3600,"station_id":"ce4bhah2rcd13ifvqej0","pricing_plan_id":"cebpf4jnsgd1na2vs0mg"},{"bike_id":"c11df179-9ed5-4cb0-8bea-07a26f28d347","system_id":"levelo_inurba_marseille","lat":43.299722,"lon":5.384849,"is_reserved":false,"is_disabled":false,"rental_uris":{"android":"levelo://app?vid=c11df179-9ed5-4cb0-8bea-07a26f28d347","ios":"levelo://app?vid=c11df179-9ed5-4cb0-8bea-07a26f28d347"},"vehicle_type_id":"4","last_reported":1760893652,"current_range_meters":4000,"station_id":"ce4bgj92rcd13ifvqbd0","pricing_plan_id":"cebpf4jnsgd1na2vs0mg"},{"bike_id":"640e4553-fcd7-4dfd-935e-fb0de20df818","system_id":"levelo_inurba_marseille","lat":43.25864,"lon":5.39902,"is_reserved":false,"is_disabled":false,"rental_uris":{"android":"levelo://app?vid=640e4553-fcd7-4dfd-935e-fb0de20df818","ios":"levelo://app?vid=640e4553-fcd7-4dfd-935e-fb0de20df818"},"vehicle_type_id":"4","last_reported":1760893652,"current_range_meters":4000,"station_id":"ce4bhl92rcd13ifvqghg","pricing_plan_id":"cebpf4jnsgd1na2vs0mg"},{"bike_id":"21b621f9-bc26-44b9-95c8-12025a5f55fc","system_id":"levelo_inurba_marseille","lat":43.30416,"lon":5.37,"is_reserved":false,"is_disabled":false,"rental_uris":{"android":"levelo://app?vid=21b621f9-bc26-44b9-95c8-12025a5f55fc","ios":"levelo://app?vid=21b621f9-bc26-44b9-95c8-12025a5f55fc"},"vehicle_type_id":"4","last_reported":1760893652,"current_range_meters":4000,"station_id":"","pricing_plan_id":"cebpf4jnsgd1na2vs0mg"},{"bike_id":"beac0c2f-cf6c-4211-bd51-4ab2ab5ab864","system_id":"levelo_inurba_marseille","lat":43.306511,"lon":5.400886,"is_reserved":false,"is_disabled":false,"rental_uris":{"android":"levelo://app?vid=beac0c2f-cf6c-4211-bd51-4ab2ab5ab864","ios":"levelo://app?vid=beac0c2f-cf6c-4211-bd51-4ab2ab5ab864"},"vehicle_type_id":"4","last_reported":1760893652,"current_range_meters":4000,"station_id":"ce4bh112rcd13ifvqda0","pricing_plan_id":"cebpf4jnsgd1na2vs0mg"},{"bike_id":"24691460-26ab-4037-9000-2de719ada192","system_id":"levelo_inurba_marseille","lat":43.29632,"lon":5.37163,"is_reserved":false,"is_disabled":false,"rental_uris":{"android":"levelo://app?vid=24691460-26ab-4037-9000-2de719ada192","ios":"levelo://app?vid=24691460-26ab-4037-9000-2de719ada192"},"vehicle_type_id":"4","last_reported":1760893652,"current_range_meters":4000,"station_id":"ce4bgnh2rcd13ifvqc0g","pricing_plan_id":"cebpf4jnsgd1na2vs0mg"},{"bike_id":"41942155-c028-41d2-9da5-da9a718711fd","system_id":"levelo_inurba_marseille","lat":43.211869,"lon":5.350801,"is_reserved":false,"is_disabled":true,"rental_uris":{"android":"levelo://app?vid=41942155-c028-41d2-9da5-da9a718711fd","ios":"levelo://app?vid=41942155-c028-41d2-9da5-da9a718711fd"},"vehicle_type_id":"4","last_reported":1760893652,"current_range_meters":4400,"station_id":"st_cvj6sg6p6f1abm77japg","pricing_plan_id":"cebpf4jnsgd1na2vs0mg"},{"bike_id":"d828275b-9fd3-432c-a2f7-087975d8a6aa","system_id":"levelo_inurba_marseille","lat":43.2963,"lon":5.40597,"is_reserved":false,"is_disabled":false,"rental_uris":{"android":"levelo://app?vid=d828275b-9fd3-432c-a2f7-087975d8a6aa","ios":"levelo://app?vid=d828275b-9fd3-432c-a2f7-087975d8a6aa"},"vehicle_type_id":"4","last_reported":1760893652,"current_range_meters":4400,"station_id":"ce4bh0h2rcd13ifvqd60","pricing_plan_id":"cebpf4jnsgd1na2vs0mg"},{"bike_id":"e0146dfa-a393-4154-906e-1f332222ef30","system_id":"levelo_inurba_marseille","lat":43.26784,"lon":5.39411,"is_reserved":false,"is_disabled":false,"rental_uris":{"android":"levelo://app?vid=e0146dfa-a393-4154-906e-1f332222ef30","ios":"levelo://app?vid=e0146dfa-a393-4154-906e-1f332222ef30"},"vehicle_type_id":"4","last_reported":1760893652,"current_range_meters":4400,"station_id":"ce4bhh12rcd13ifvqfg0","pricing_plan_id":"cebpf4jnsgd1na2vs0mg"},{"bike_id":"91b6b3bb-f752-409f-a59c-fda45187bd78","system_id":"levelo_inurba_marseille","lat":43.30732,"lon":5.4244,"is_reserved":false,"is_disabled":false,"rental_uris":{"android":"levelo://app?vid=91b6b3bb-f752-409f-a59c-fda45187bd78","ios":"levelo://app?vid=91b6b3bb-f752-409f-a59c-fda45187bd78"},"vehicle_type_id":"4","last_reported":1760893652,"current_range_meters":4400,"station_id":"st_cvj6ca6bvosntc0bfgr0","pricing_plan_id":"cebpf4jnsgd1na2vs0mg"},{"bike_id":"d567ef54-dda1-4502-9410-3864235f3096","system_id":"levelo_inurba_marseille","lat":43.30418,"lon":5.41282,"is_reserved":false,"is_disabled":false,"rental_uris":{"android":"levelo://app?vid=d567ef54-dda1-4502-9410-3864235f3096","ios":"levelo://app?vid=d567ef54-dda1-4502-9410-3864235f3096"},"vehicle_type_id":"4","last_reported":1760893652,"current_range_meters":4400,"station_id":"ce4bhop2rcd13ifvqh8g","pricing_plan_id":"cebpf4jnsgd1na2vs0mg"},{"bike_id":"fd749c03-0a72-4710-91b7-6230c38c4fda","system_id":"levelo_inurba_marseille","lat":43.29638,"lon":5.40594,"is_reserved":false,"is_disabled":false,"rental_uris":{"android":"levelo://app?vid=fd749c03-0a72-4710-91b7-6230c38c4fda","ios":"levelo://app?vid=fd749c03-0a72-4710-91b7-6230c38c4fda"},"vehicle_type_id":"4","last_reported":1760893652,"current_range_meters":4400,"station_id":"ce4bh0h2rcd13ifvqd60","pricing_plan_id":"cebpf4jnsgd1na2vs0mg"},{"bike_id":"436868f8-a2fd-48c6-a454-2213c20fc07b","system_id":"levelo_inurba_marseille","lat":43.29966,"lon":5.38498,"is_reserved":false,"is_disabled":false,"rental_uris":{"android":"levelo://app?vid=436868f8-a2fd-48c6-a454-2213c20fc07b","ios":"levelo://app?vid=436868f8-a2fd-48c6-a454-2213c20fc07b"},"vehicle_type_id":"4","last_reported":1760893652,"current_range_meters":4800,"station_id":"ce4bgj92rcd13ifvqbd0","pricing_plan_id":"cebpf4jnsgd1na2vs0mg"},{"bike_id":"924ac669-be8b-47aa-9a8e-6f22baf815eb","system_id":"levelo_inurba_marseille","lat":43.337692,"lon":5.374734,"is_reserved":false,"is_disabled":false,"rental_uris":{"android":"levelo://app?vid=924ac669-be8b-47aa-9a8e-6f22baf815eb","ios":"levelo://app?vid=924ac669-be8b-47aa-9a8e-6f22baf815eb"},"vehicle_type_id":"4","last_reported":1760893652,"current_range_meters":4800,"station_id":"","pricing_plan_id":"cebpf4jnsgd1na2vs0mg"},{"bike_id":"bfa5d6fa-5303-450c-8deb-bf365f94a097","system_id":"levelo_inurba_marseille","lat":43.2119,"lon":5.35084,"is_reserved":false,"is_disabled":false,"rental_uris":{"android":"levelo://app?vid=bfa5d6fa-5303-450c-8deb-bf365f94a097","ios":"levelo://app?vid=bfa5d6fa-5303-450c-8deb-bf365f94a097"},"vehicle_type_id":"4","last_reported":1760893652,"current_range_meters":4800,"station_id":"st_cvj6sg6p6f1abm77japg","pricing_plan_id":"cebpf4jnsgd1na2vs0mg"},{"bike_id":"e6cfe784-cb39-4f50-bc11-2e3c7639a4b7","system_id":"levelo_inurba_marseille","lat":43.22524,"lon":5.34831,"is_reserved":false,"is_disabled":false,"rental_uris":{"android":"levelo://app?vid=e6cfe784-cb39-4f50-bc11-2e3c7639a4b7","ios":"levelo://app?vid=e6cfe784-cb39-4f50-bc11-2e3c7639a4b7"},"vehicle_type_id":"4","last_reported":1760893652,"current_range_meters":4800,"station_id":"st_cvj5dfep6f1abm77gieg","pricing_plan_id":"cebpf4jnsgd1na2vs0mg"},{"bike_id":"38132519-65a7-4ae4-a701-354b02490488","system_id":"levelo_inurba_marseille","lat":43.308175,"lon":5.38174,"is_reserved":false,"is_disabled":false,"rental_uris":{"android":"levelo://app?vid=38132519-65a7-4ae4-a701-354b02490488","ios":"levelo://app?vid=38132519-65a7-4ae4-a701-354b02490488"},"vehicle_type_id":"4","last_reported":1760893652,"current_range_meters":4800,"station_id":"ce4bgt12rcd13ifvqce0","pricing_plan_id":"cebpf4jnsgd1na2vs0mg"},{"bike_id":"8733c97c-7c53-49dc-af43-6ae07226a9f6","system_id":"levelo_inurba_marseille","lat":43.2857,"lon":5.39493,"is_reserved":false,"is_disabled":false,"rental_uris":{"android":"levelo://app?vid=8733c97c-7c53-49dc-af43-6ae07226a9f6","ios":"levelo://app?vid=8733c97c-7c53-49dc-af43-6ae07226a9f6"},"vehicle_type_id":"4","last_reported":1760893652,"current_range_meters":4800,"station_id":"ce4bh292rcd13ifvqdg0","pricing_plan_id":"cebpf4jnsgd1na2vs0mg"},{"bike_id":"4e4f8048-71b9-4b22-8b3a-28100fbbdd35","system_id":"levelo_inurba_marseille","lat":43.26951,"lon":5.38629,"is_reserved":false,"is_disabled":false,"rental_uris":{"android":"levelo://app?vid=4e4f8048-71b9-4b22-8b3a-28100fbbdd35","ios":"levelo://app?vid=4e4f8048-71b9-4b22-8b3a-28100fbbdd35"},"vehicle_type_id":"4","last_reported":1760893652,"current_range_meters":4800,"station_id":"ce4bhh92rcd13ifvqfh0","pricing_plan_id":"cebpf4jnsgd1na2vs0mg"},{"bike_id":"6a5b3f9f-a593-4a7f-981b-92adbbaa644e","system_id":"levelo_inurba_marseille","lat":43.28941,"lon":5.36376,"is_reserved":false,"is_disabled":false,"rental_uris":{"android":"levelo://app?vid=6a5b3f9f-a593-4a7f-981b-92adbbaa644e","ios":"levelo://app?vid=6a5b3f9f-a593-4a7f-981b-92adbbaa644e"},"vehicle_type_id":"4","last_reported":1760893652,"current_range_meters":4800,"station_id":"ce4bhc92rcd13ifvqetg","pricing_plan_id":"cebpf4jnsgd1na2vs0mg"},{"bike_id":"ab7bf195-ad5f-4058-9730-c9358a4473ec","system_id":"levelo_inurba_marseille","lat":43.2815,"lon":5.4265,"is_reserved":false,"is_disabled":false,"rental_uris":{"android":"levelo://app?vid=ab7bf195-ad5f-4058-9730-c9358a4473ec","ios":"levelo://app?vid=ab7bf195-ad5f-4058-9730-c9358a4473ec"},"vehicle_type_id":"4","last_reported":1760893652,"current_range_meters":4800,"station_id":"ce4bhnh2rcd13ifvqgug","pricing_plan_id":"cebpf4jnsgd1na2vs0mg"},{"bike_id":"a8efbd4d-5cda-4c95-bca7-7ba1b0538045","system_id":"levelo_inurba_marseille","lat":43.231959,"lon":5.400242,"is_reserved":false,"is_disabled":false,"rental_uris":{"android":"levelo://app?vid=a8efbd4d-5cda-4c95-bca7-7ba1b0538045","ios":"levelo://app?vid=a8efbd4d-5cda-4c95-bca7-7ba1b0538045"},"vehicle_type_id":"4","last_reported":1760893652,"current_range_meters":4800,"station_id":"ce4bhn12rcd13ifvqgqg","pricing_plan_id":"cebpf4jnsgd1na2vs0mg"},{"bike_id":"4f73f0f7-f171-4e04-ad3c-1d311c57c8b0","system_id":"levelo_inurba_marseille","lat":43.30158,"lon":5.38884,"is_reserved":false,"is_disabled":false,"rental_uris":{"android":"levelo://app?vid=4f73f0f7-f171-4e04-ad3c-1d311c57c8b0","ios":"levelo://app?vid=4f73f0f7-f171-4e04-ad3c-1d311c57c8b0"},"vehicle_type_id":"4","last_reported":1760893652,"current_range_meters":5600,"station_id":"","pricing_plan_id":"cebpf4jnsgd1na2vs0mg"},{"bike_id":"3139aa5f-4f8f-42fd-8c47-cfb081cdcd14","system_id":"levelo_inurba_marseille","lat":43.301453,"lon":5.374605,"is_reserved":false,"is_disabled":false,"rental_uris":{"android":"levelo://app?vid=3139aa5f-4f8f-42fd-8c47-cfb081cdcd14","ios":"levelo://app?vid=3139aa5f-4f8f-42fd-8c47-cfb081cdcd14"},"vehicle_type_id":"4","last_reported":1760893652,"current_range_meters":5600,"station_id":"ce4bha92rcd13ifvqeg0","pricing_plan_id":"cebpf4jnsgd1na2vs0mg"},{"bike_id":"21220d0f-fcab-4321-903d-62ab4f041f17","system_id":"levelo_inurba_marseille","lat":43.30945,"lon":5.37215,"is_reserved":false,"is_disabled":false,"rental_uris":{"android":"levelo://app?vid=21220d0f-fcab-4321-903d-62ab4f041f17","ios":"levelo://app?vid=21220d0f-fcab-4321-903d-62ab4f041f17"},"vehicle_type_id":"4","last_reported":1760893652,"current_range_meters":5600,"station_id":"","pricing_plan_id":"cebpf4jnsgd1na2vs0mg"},{"bike_id":"d57e0331-7a42-456a-9607-9c42137746d7","system_id":"levelo_inurba_marseille","lat":43.25719,"lon":5.41115,"is_reserved":false,"is_disabled":false,"rental_uris":{"android":"levelo://app?vid=d57e0331-7a42-456a-9607-9c42137746d7","ios":"levelo://app?vid=d57e0331-7a42-456a-9607-9c42137746d7"},"vehicle_type_id":"4","last_reported":1760893652,"current_range_meters":5600,"station_id":"ce4bhkp2rcd13ifvqgd0","pricing_plan_id":"cebpf4jnsgd1na2vs0mg"},{"bike_id":"f55709e0-4b78-4850-8db3-b4d73728152f","system_id":"levelo_inurba_marseille","lat":43.35174,"lon":5.3645,"is_reserved":false,"is_disabled":false,"rental_uris":{"android":"levelo://app?vid=f55709e0-4b78-4850-8db3-b4d73728152f","ios":"levelo://app?vid=f55709e0-4b78-4850-8db3-b4d73728152f"},"vehicle_type_id":"4","last_reported":1760893652,"current_range_meters":5600,"station_id":"","pricing_plan_id":"cebpf4jnsgd1na2vs0mg"},{"bike_id":"c26f17a2-3a43-46c0-bcef-44fcf1c7fab5","system_id":"levelo_inurba_marseille","lat":43.26847,"lon":5.40678,"is_reserved":false,"is_disabled":false,"rental_uris":{"android":"levelo://app?vid=c26f17a2-3a43-46c0-bcef-44fcf1c7fab5","ios":"levelo://app?vid=c26f17a2-3a43-46c0-bcef-44fcf1c7fab5"},"vehicle_type_id":"4","last_reported":1760893652,"current_range_meters":5600,"station_id":"","pricing_plan_id":"cebpf4jnsgd1na2vs0mg"},{"bike_id":"1b66bdbf-0034-47bd-8c0c-fd0b596ecf9f","system_id":"levelo_inurba_marseille","lat":43.32051,"lon":5.41575,"is_reserved":false,"is_disabled":false,"rental_uris":{"android":"levelo://app?vid=1b66bdbf-0034-47bd-8c0c-fd0b596ecf9f","ios":"levelo://app?vid=1b66bdbf-0034-47bd-8c0c-fd0b596ecf9f"},"vehicle_type_id":"4","last_reported":1760893652,"current_range_meters":5600,"station_id":"ce4bhq92rcd13ifvqhkg","pricing_plan_id":"cebpf4jnsgd1na2vs0mg"},{"bike_id":"d2bc5480-eeca-488d-9304-0e86e3328d9b","system_id":"levelo_inurba_marseille","lat":43.251115,"lon":5.403221,"is_reserved":false,"is_disabled":false,"rental_uris":{"android":"levelo://app?vid=d2bc5480-eeca-488d-9304-0e86e3328d9b","ios":"levelo://app?vid=d2bc5480-eeca-488d-9304-0e86e3328d9b"},"vehicle_type_id":"4","last_reported":1760893652,"current_range_meters":5600,"station_id":"ce4bhlh2rcd13ifvqgig","pricing_plan_id":"cebpf4jnsgd1na2vs0mg"},{"bike_id":"4cd7f0e3-19cf-4577-aad7-3fd3b301cddf","system_id":"levelo_inurba_marseille","lat":43.311044,"lon":5.367415,"is_reserved":false,"is_disabled":false,"rental_uris":{"android":"levelo://app?vid=4cd7f0e3-19cf-4577-aad7-3fd3b301cddf","ios":"levelo://app?vid=4cd7f0e3-19cf-4577-aad7-3fd3b301cddf"},"vehicle_type_id":"4","last_reported":1760893652,"current_range_meters":6000,"station_id":"ce4bgl92rcd13ifvqbq0","pricing_plan_id":"cebpf4jnsgd1na2vs0mg"},{"bike_id":"1382b748-840e-4ecc-afc5-0fb4eeaeb841","system_id":"levelo_inurba_marseille","lat":43.30595,"lon":5.37498,"is_reserved":false,"is_disabled":false,"rental_uris":{"android":"levelo://app?vid=1382b748-840e-4ecc-afc5-0fb4eeaeb841","ios":"levelo://app?vid=1382b748-840e-4ecc-afc5-0fb4eeaeb841"},"vehicle_type_id":"4","last_reported":1760893652,"current_range_meters":6000,"station_id":"","pricing_plan_id":"cebpf4jnsgd1na2vs0mg"},{"bike_id":"bbcc8ee7-4aa0-4d97-afa2-784b2514dcab","system_id":"levelo_inurba_marseille","lat":43.3092,"lon":5.40143,"is_reserved":false,"is_disabled":false,"rental_uris":{"android":"levelo://app?vid=bbcc8ee7-4aa0-4d97-afa2-784b2514dcab","ios":"levelo://app?vid=bbcc8ee7-4aa0-4d97-afa2-784b2514dcab"},"vehicle_type_id":"4","last_reported":1760893652,"current_range_meters":6000,"station_id":"ce4bgvp2rcd13ifvqct0","pricing_plan_id":"cebpf4jnsgd1na2vs0mg"},{"bike_id":"e749c0da-5fe2-45b4-bd25-8c6f68df84b8","system_id":"levelo_inurba_marseille","lat":43.27993,"lon":5.41662,"is_reserved":false,"is_disabled":false,"rental_uris":{"android":"levelo://app?vid=e749c0da-5fe2-45b4-bd25-8c6f68df84b8","ios":"levelo://app?vid=e749c0da-5fe2-45b4-bd25-8c6f68df84b8"},"vehicle_type_id":"4","last_reported":1760893652,"current_range_meters":6400,"station_id":"ce4bho12rcd13ifvqh1g","pricing_plan_id":"cebpf4jnsgd1na2vs0mg"},{"bike_id":"18bd2af0-490c-406e-a4bb-743a5d97a2bf","system_id":"levelo_inurba_marseille","lat":43.29153,"lon":5.3575,"is_reserved":false,"is_disabled":false,"rental_uris":{"android":"levelo://app?vid=18bd2af0-490c-406e-a4bb-743a5d97a2bf","ios":"levelo://app?vid=18bd2af0-490c-406e-a4bb-743a5d97a2bf"},"vehicle_type_id":"4","last_reported":1760893652,"current_range_meters":6400,"station_id":"","pricing_plan_id":"cebpf4jnsgd1na2vs0mg"},{"bike_id":"091b0e71-c50a-4c8c-ba4d-816f5cfc5948","system_id":"levelo_inurba_marseille","lat":43.29575,"lon":5.39981,"is_reserved":false,"is_disabled":false,"rental_uris":{"android":"levelo://app?vid=091b0e71-c50a-4c8c-ba4d-816f5cfc5948","ios":"levelo://app?vid=091b0e71-c50a-4c8c-ba4d-816f5cfc5948"},"vehicle_type_id":"4","last_reported":1760893652,"current_range_meters":6400,"station_id":"ce4bh312rcd13ifvqdj0","pricing_plan_id":"cebpf4jnsgd1na2vs0mg"},{"bike_id":"12d0ce56-32e2-4bf1-9d60-46c5d0ef4ed2","system_id":"levelo_inurba_marseille","lat":43.302249,"lon":5.369365,"is_reserved":false,"is_disabled":false,"rental_uris":{"android":"levelo://app?vid=12d0ce56-32e2-4bf1-9d60-46c5d0ef4ed2","ios":"levelo://app?vid=12d0ce56-32e2-4bf1-9d60-46c5d0ef4ed2"},"vehicle_type_id":"4","last_reported":1760893652,"current_range_meters":6400,"station_id":"ce4bgqh2rcd13ifvqc5g","pricing_plan_id":"cebpf4jnsgd1na2vs0mg"},{"bike_id":"ef1d3efc-4e43-438c-8f55-8e29754b02e8","system_id":"levelo_inurba_marseille","lat":43.28893,"lon":5.46012,"is_reserved":false,"is_disabled":false,"rental_uris":{"android":"levelo://app?vid=ef1d3efc-4e43-438c-8f55-8e29754b02e8","ios":"levelo://app?vid=ef1d3efc-4e43-438c-8f55-8e29754b02e8"},"vehicle_type_id":"4","last_reported":1760893652,"current_range_meters":6400,"station_id":"","pricing_plan_id":"cebpf4jnsgd1na2vs0mg"},{"bike_id":"29deeaa9-e77a-408d-b13e-b6abc21d5df6","system_id":"levelo_inurba_marseille","lat":43.33158,"lon":5.36228,"is_reserved":false,"is_disabled":false,"rental_uris":{"android":"levelo://app?vid=29deeaa9-e77a-408d-b13e-b6abc21d5df6","ios":"levelo://app?vid=29deeaa9-e77a-408d-b13e-b6abc21d5df6"},"vehicle_type_id":"4","last_reported":1760893652,"current_range_meters":6400,"station_id":"","pricing_plan_id":"cebpf4jnsgd1na2vs0mg"},{"bike_id":"75b02a51-1325-435e-9661-29bb451a696a","system_id":"levelo_inurba_marseille","lat":43.31448,"lon":5.38488,"is_reserved":false,"is_disabled":false,"rental_uris":{"android":"levelo://app?vid=75b02a51-1325-435e-9661-29bb451a696a","ios":"levelo://app?vid=75b02a51-1325-435e-9661-29bb451a696a"},"vehicle_type_id":"4","last_reported":1760893652,"current_range_meters":6400,"station_id":"","pricing_plan_id":"cebpf4jnsgd1na2vs0mg"},{"bike_id":"cb6c4d73-7317-4c57-a882-0d9ec78f1520","system_id":"levelo_inurba_marseille","lat":43.295586,"lon":5.375449,"is_reserved":false,"is_disabled":false,"rental_uris":{"android":"levelo://app?vid=cb6c4d73-7317-4c57-a882-0d9ec78f1520","ios":"levelo://app?vid=cb6c4d73-7317-4c57-a882-0d9ec78f1520"},"vehicle_type_id":"4","last_reported":1760893652,"current_range_meters":6400,"station_id":"ce4bgh92rcd13ifvqb50","pricing_plan_id":"cebpf4jnsgd1na2vs0mg"},{"bike_id":"3bd71b45-b509-4f58-aa05-62c6a9443b18","system_id":"levelo_inurba_marseille","lat":43.28145,"lon":5.42634,"is_reserved":false,"is_disabled":false,"rental_uris":{"android":"levelo://app?vid=3bd71b45-b509-4f58-aa05-62c6a9443b18","ios":"levelo://app?vid=3bd71b45-b509-4f58-aa05-62c6a9443b18"},"vehicle_type_id":"4","last_reported":1760893652,"current_range_meters":6400,"station_id":"ce4bhnh2rcd13ifvqgug","pricing_plan_id":"cebpf4jnsgd1na2vs0mg"},{"bike_id":"4a724b7d-3c4f-4d04-9556-dd7fbf9d1770","system_id":"levelo_inurba_marseille","lat":43.22562,"lon":5.41626,"is_reserved":false,"is_disabled":false,"rental_uris":{"android":"levelo://app?vid=4a724b7d-3c4f-4d04-9556-dd7fbf9d1770","ios":"levelo://app?vid=4a724b7d-3c4f-4d04-9556-dd7fbf9d1770"},"vehicle_type_id":"4","last_reported":1760893652,"current_range_meters":6800,"station_id":"st_d2o4gvlbi1j2169b742g","pricing_plan_id":"cebpf4jnsgd1na2vs0mg"},{"bike_id":"0b170382-a38a-48fc-b060-b901de311f1a","system_id":"levelo_inurba_marseille","lat":43.33047,"lon":5.39024,"is_reserved":false,"is_disabled":true,"rental_uris":{"android":"levelo://app?vid=0b170382-a38a-48fc-b060-b901de311f1a","ios":"levelo://app?vid=0b170382-a38a-48fc-b060-b901de311f1a"},"vehicle_type_id":"4","last_reported":1760893652,"current_range_meters":6800,"station_id":"ce4bhr92rcd13ifvqhrg","pricing_plan_id":"cebpf4jnsgd1na2vs0mg"},{"bike_id":"676fd588-494b-4028-8203-f37ef89d1fbb","system_id":"levelo_inurba_marseille","lat":43.22562,"lon":5.41636,"is_reserved":false,"is_disabled":false,"rental_uris":{"android":"levelo://app?vid=676fd588-494b-4028-8203-f37ef89d1fbb","ios":"levelo://app?vid=676fd588-494b-4028-8203-f37ef89d1fbb"},"vehicle_type_id":"4","last_reported":1760893652,"current_range_meters":6800,"station_id":"st_d2o4gvlbi1j2169b742g","pricing_plan_id":"cebpf4jnsgd1na2vs0mg"},{"bike_id":"c49d5b27-0987-4cce-a8bb-418d861269a3","system_id":"levelo_inurba_marseille","lat":43.2821,"lon":5.39061,"is_reserved":false,"is_disabled":false,"rental_uris":{"android":"levelo://app?vid=c49d5b27-0987-4cce-a8bb-418d861269a3","ios":"levelo://app?vid=c49d5b27-0987-4cce-a8bb-418d861269a3"},"vehicle_type_id":"4","last_reported":1760893652,"current_range_meters":6800,"station_id":"ce4bhn92rcd13ifvqgsg","pricing_plan_id":"cebpf4jnsgd1na2vs0mg"},{"bike_id":"4bf187b5-38f1-4664-9624-f4ed054cda59","system_id":"levelo_inurba_marseille","lat":43.24682,"lon":5.33502,"is_reserved":false,"is_disabled":true,"rental_uris":{"android":"levelo://app?vid=4bf187b5-38f1-4664-9624-f4ed054cda59","ios":"levelo://app?vid=4bf187b5-38f1-4664-9624-f4ed054cda59"},"vehicle_type_id":"4","last_reported":1760893652,"current_range_meters":6800,"station_id":"","pricing_plan_id":"cebpf4jnsgd1na2vs0mg"},{"bike_id":"fc98f019-2b4d-45f5-b664-5928e89fb440","system_id":"levelo_inurba_marseille","lat":43.21736,"lon":5.34608,"is_reserved":false,"is_disabled":false,"rental_uris":{"android":"levelo://app?vid=fc98f019-2b4d-45f5-b664-5928e89fb440","ios":"levelo://app?vid=fc98f019-2b4d-45f5-b664-5928e89fb440"},"vehicle_type_id":"4","last_reported":1760893652,"current_range_meters":6800,"station_id":"st_cvj6r9ubvosntc0bgbag","pricing_plan_id":"cebpf4jnsgd1na2vs0mg"},{"bike_id":"383132c7-6568-4b3f-85e0-394f17b8ed8c","system_id":"levelo_inurba_marseille","lat":43.24517,"lon":5.38883,"is_reserved":false,"is_disabled":true,"rental_uris":{"android":"levelo://app?vid=383132c7-6568-4b3f-85e0-394f17b8ed8c","ios":"levelo://app?vid=383132c7-6568-4b3f-85e0-394f17b8ed8c"},"vehicle_type_id":"4","last_reported":1760893652,"current_range_meters":7200,"station_id":"ce4bhg12rcd13ifvqf60","pricing_plan_id":"cebpf4jnsgd1na2vs0mg"},{"bike_id":"e4aae2ac-2d8c-407b-93d1-f646ae2e9aba","system_id":"levelo_inurba_marseille","lat":43.33608,"lon":5.40988,"is_reserved":false,"is_disabled":false,"rental_uris":{"android":"levelo://app?vid=e4aae2ac-2d8c-407b-93d1-f646ae2e9aba","ios":"levelo://app?vid=e4aae2ac-2d8c-407b-93d1-f646ae2e9aba"},"vehicle_type_id":"4","last_reported":1760893652,"current_range_meters":7200,"station_id":"ce4bhqh2rcd13ifvqhmg","pricing_plan_id":"cebpf4jnsgd1na2vs0mg"},{"bike_id":"90262268-8634-439b-8fa6-9532634359a6","system_id":"levelo_inurba_marseille","lat":43.29877,"lon":5.38905,"is_reserved":false,"is_disabled":false,"rental_uris":{"android":"levelo://app?vid=90262268-8634-439b-8fa6-9532634359a6","ios":"levelo://app?vid=90262268-8634-439b-8fa6-9532634359a6"},"vehicle_type_id":"4","last_reported":1760893652,"current_range_meters":7200,"station_id":"ce4bh392rcd13ifvqdl0","pricing_plan_id":"cebpf4jnsgd1na2vs0mg"},{"bike_id":"9b35f520-b47c-4550-9804-23f27fab5ce9","system_id":"levelo_inurba_marseille","lat":43.25424,"lon":5.38147,"is_reserved":false,"is_disabled":true,"rental_uris":{"android":"levelo://app?vid=9b35f520-b47c-4550-9804-23f27fab5ce9","ios":"levelo://app?vid=9b35f520-b47c-4550-9804-23f27fab5ce9"},"vehicle_type_id":"4","last_reported":1760893652,"current_range_meters":7200,"station_id":"","pricing_plan_id":"cebpf4jnsgd1na2vs0mg"},{"bike_id":"5ec36f29-a595-43fb-81bc-e1f6ecf04525","system_id":"levelo_inurba_marseille","lat":43.21211,"lon":5.35192,"is_reserved":false,"is_disabled":true,"rental_uris":{"android":"levelo://app?vid=5ec36f29-a595-43fb-81bc-e1f6ecf04525","ios":"levelo://app?vid=5ec36f29-a595-43fb-81bc-e1f6ecf04525"},"vehicle_type_id":"4","last_reported":1760893652,"current_range_meters":7200,"station_id":"","pricing_plan_id":"cebpf4jnsgd1na2vs0mg"},{"bike_id":"877a6c92-6038-478d-bdb9-9bdd143fa5b4","system_id":"levelo_inurba_marseille","lat":43.30089,"lon":5.39078,"is_reserved":false,"is_disabled":false,"rental_uris":{"android":"levelo://app?vid=877a6c92-6038-478d-bdb9-9bdd143fa5b4","ios":"levelo://app?vid=877a6c92-6038-478d-bdb9-9bdd143fa5b4"},"vehicle_type_id":"4","last_reported":1760893652,"current_range_meters":7200,"station_id":"ce4bh192rcd13ifvqdb0","pricing_plan_id":"cebpf4jnsgd1na2vs0mg"},{"bike_id":"f13a46a6-2941-461c-9ea0-a6f41ae305cc","system_id":"levelo_inurba_marseille","lat":43.28938,"lon":5.38397,"is_reserved":false,"is_disabled":false,"rental_uris":{"android":"levelo://app?vid=f13a46a6-2941-461c-9ea0-a6f41ae305cc","ios":"levelo://app?vid=f13a46a6-2941-461c-9ea0-a6f41ae305cc"},"vehicle_type_id":"4","last_reported":1760893652,"current_range_meters":7200,"station_id":"ce4bh612rcd13ifvqe6g","pricing_plan_id":"cebpf4jnsgd1na2vs0mg"},{"bike_id":"8e6781bb-2e20-454e-8191-54182f17bdfc","system_id":"levelo_inurba_marseille","lat":43.21735,"lon":5.34604,"is_reserved":false,"is_disabled":true,"rental_uris":{"android":"levelo://app?vid=8e6781bb-2e20-454e-8191-54182f17bdfc","ios":"levelo://app?vid=8e6781bb-2e20-454e-8191-54182f17bdfc"},"vehicle_type_id":"4","last_reported":1760893652,"current_range_meters":7200,"station_id":"st_cvj6r9ubvosntc0bgbag","pricing_plan_id":"cebpf4jnsgd1na2vs0mg"},{"bike_id":"245a030c-0c43-41f8-a4cc-088d55252b06","system_id":"levelo_inurba_marseille","lat":43.244721,"lon":5.369345,"is_reserved":false,"is_disabled":false,"rental_uris":{"android":"levelo://app?vid=245a030c-0c43-41f8-a4cc-088d55252b06","ios":"levelo://app?vid=245a030c-0c43-41f8-a4cc-088d55252b06"},"vehicle_type_id":"4","last_reported":1760893652,"current_range_meters":8000,"station_id":"","pricing_plan_id":"cebpf4jnsgd1na2vs0mg"},{"bike_id":"dd10ee2f-a69f-4b55-be62-628e1c046c19","system_id":"levelo_inurba_marseille","lat":43.2734,"lon":5.39078,"is_reserved":false,"is_disabled":false,"rental_uris":{"android":"levelo://app?vid=dd10ee2f-a69f-4b55-be62-628e1c046c19","ios":"levelo://app?vid=dd10ee2f-a69f-4b55-be62-628e1c046c19"},"vehicle_type_id":"4","last_reported":1760893652,"current_range_meters":8000,"station_id":"ce4bhgp2rcd13ifvqfe0","pricing_plan_id":"cebpf4jnsgd1na2vs0mg"},{"bike_id":"ab6b106f-a4de-43a2-813b-bfb55bf62288","system_id":"levelo_inurba_marseille","lat":43.29711,"lon":5.37157,"is_reserved":false,"is_disabled":false,"rental_uris":{"android":"levelo://app?vid=ab6b106f-a4de-43a2-813b-bfb55bf62288","ios":"levelo://app?vid=ab6b106f-a4de-43a2-813b-bfb55bf62288"},"vehicle_type_id":"4","last_reported":1760893652,"current_range_meters":8000,"station_id":"","pricing_plan_id":"cebpf4jnsgd1na2vs0mg"},{"bike_id":"1eb4dcf2-197d-46a1-91ef-57137ac9e2dd","system_id":"levelo_inurba_marseille","lat":43.28704,"lon":5.3998,"is_reserved":false,"is_disabled":false,"rental_uris":{"android":"levelo://app?vid=1eb4dcf2-197d-46a1-91ef-57137ac9e2dd","ios":"levelo://app?vid=1eb4dcf2-197d-46a1-91ef-57137ac9e2dd"},"vehicle_type_id":"4","last_reported":1760893652,"current_range_meters":8000,"station_id":"ce4bho92rcd13ifvqh3g","pricing_plan_id":"cebpf4jnsgd1na2vs0mg"},{"bike_id":"341025ca-ef2d-442d-80ac-78ca83dc4a7c","system_id":"levelo_inurba_marseille","lat":43.29946,"lon":5.3708,"is_reserved":false,"is_disabled":false,"rental_uris":{"android":"levelo://app?vid=341025ca-ef2d-442d-80ac-78ca83dc4a7c","ios":"levelo://app?vid=341025ca-ef2d-442d-80ac-78ca83dc4a7c"},"vehicle_type_id":"4","last_reported":1760893652,"current_range_meters":8000,"station_id":"","pricing_plan_id":"cebpf4jnsgd1na2vs0mg"},{"bike_id":"f7c8f693-1cb9-4f45-a809-cd76181c6642","system_id":"levelo_inurba_marseille","lat":43.225307,"lon":5.348335,"is_reserved":false,"is_disabled":false,"rental_uris":{"android":"levelo://app?vid=f7c8f693-1cb9-4f45-a809-cd76181c6642","ios":"levelo://app?vid=f7c8f693-1cb9-4f45-a809-cd76181c6642"},"vehicle_type_id":"4","last_reported":1760893652,"current_range_meters":8000,"station_id":"ce4bhoh2rcd13ifvqh5g","pricing_plan_id":"cebpf4jnsgd1na2vs0mg"},{"bike_id":"0a414463-fe1a-4833-8a11-178a3c2c879a","system_id":"levelo_inurba_marseille","lat":43.29852,"lon":5.37897,"is_reserved":false,"is_disabled":false,"rental_uris":{"android":"levelo://app?vid=0a414463-fe1a-4833-8a11-178a3c2c879a","ios":"levelo://app?vid=0a414463-fe1a-4833-8a11-178a3c2c879a"},"vehicle_type_id":"4","last_reported":1760893652,"current_range_meters":8400,"station_id":"","pricing_plan_id":"cebpf4jnsgd1na2vs0mg"},{"bike_id":"847e9856-ae8a-4c49-a85a-fec204e571f6","system_id":"levelo_inurba_marseille","lat":43.28988,"lon":5.39038,"is_reserved":false,"is_disabled":false,"rental_uris":{"android":"levelo://app?vid=847e9856-ae8a-4c49-a85a-fec204e571f6","ios":"levelo://app?vid=847e9856-ae8a-4c49-a85a-fec204e571f6"},"vehicle_type_id":"4","last_reported":1760893652,"current_range_meters":8400,"station_id":"","pricing_plan_id":"cebpf4jnsgd1na2vs0mg"},{"bike_id":"e7e8b93c-02d4-466b-82b5-3f4c4f15c2ae","system_id":"levelo_inurba_marseille","lat":43.288073,"lon":5.43849,"is_reserved":false,"is_disabled":false,"rental_uris":{"android":"levelo://app?vid=e7e8b93c-02d4-466b-82b5-3f4c4f15c2ae","ios":"levelo://app?vid=e7e8b93c-02d4-466b-82b5-3f4c4f15c2ae"},"vehicle_type_id":"4","last_reported":1760893652,"current_range_meters":8400,"station_id":"","pricing_plan_id":"cebpf4jnsgd1na2vs0mg"},{"bike_id":"3ac1e35e-7542-411f-91fc-7eb3bf735415","system_id":"levelo_inurba_marseille","lat":43.305369,"lon":5.384264,"is_reserved":false,"is_disabled":false,"rental_uris":{"android":"levelo://app?vid=3ac1e35e-7542-411f-91fc-7eb3bf735415","ios":"levelo://app?vid=3ac1e35e-7542-411f-91fc-7eb3bf735415"},"vehicle_type_id":"4","last_reported":1760893652,"current_range_meters":8400,"station_id":"ce4bgg92rcd13ifvqb30","pricing_plan_id":"cebpf4jnsgd1na2vs0mg"},{"bike_id":"0c553822-30da-4f17-b584-c622d4fcf238","system_id":"levelo_inurba_marseille","lat":43.29025,"lon":5.38646,"is_reserved":false,"is_disabled":false,"rental_uris":{"android":"levelo://app?vid=0c553822-30da-4f17-b584-c622d4fcf238","ios":"levelo://app?vid=0c553822-30da-4f17-b584-c622d4fcf238"},"vehicle_type_id":"4","last_reported":1760893652,"current_range_meters":8400,"station_id":"ce4bh4p2rcd13ifvqe0g","pricing_plan_id":"cebpf4jnsgd1na2vs0mg"},{"bike_id":"0707f208-7ecf-47f3-aecf-4896a845018b","system_id":"levelo_inurba_marseille","lat":43.295929,"lon":5.380983,"is_reserved":false,"is_disabled":false,"rental_uris":{"android":"levelo://app?vid=0707f208-7ecf-47f3-aecf-4896a845018b","ios":"levelo://app?vid=0707f208-7ecf-47f3-aecf-4896a845018b"},"vehicle_type_id":"4","last_reported":1760893652,"current_range_meters":8400,"station_id":"ce4bgl12rcd13ifvqbo0","pricing_plan_id":"cebpf4jnsgd1na2vs0mg"},{"bike_id":"da275b3d-f2e4-4fe6-a3b6-949fb70721af","system_id":"levelo_inurba_marseille","lat":43.33031,"lon":5.39048,"is_reserved":false,"is_disabled":false,"rental_uris":{"android":"levelo://app?vid=da275b3d-f2e4-4fe6-a3b6-949fb70721af","ios":"levelo://app?vid=da275b3d-f2e4-4fe6-a3b6-949fb70721af"},"vehicle_type_id":"4","last_reported":1760893652,"current_range_meters":8400,"station_id":"ce4bhr92rcd13ifvqhrg","pricing_plan_id":"cebpf4jnsgd1na2vs0mg"},{"bike_id":"58618ca4-3217-46fa-b069-d360421d55ae","system_id":"levelo_inurba_marseille","lat":43.27939,"lon":5.410465,"is_reserved":false,"is_disabled":false,"rental_uris":{"android":"levelo://app?vid=58618ca4-3217-46fa-b069-d360421d55ae","ios":"levelo://app?vid=58618ca4-3217-46fa-b069-d360421d55ae"},"vehicle_type_id":"4","last_reported":1760893652,"current_range_meters":8400,"station_id":"ce4bhnp2rcd13ifvqh0g","pricing_plan_id":"cebpf4jnsgd1na2vs0mg"},{"bike_id":"7294338b-7dce-479b-864e-4720fa193e38","system_id":"levelo_inurba_marseille","lat":43.28416,"lon":5.35521,"is_reserved":false,"is_disabled":false,"rental_uris":{"android":"levelo://app?vid=7294338b-7dce-479b-864e-4720fa193e38","ios":"levelo://app?vid=7294338b-7dce-479b-864e-4720fa193e38"},"vehicle_type_id":"4","last_reported":1760893652,"current_range_meters":8800,"station_id":"","pricing_plan_id":"cebpf4jnsgd1na2vs0mg"},{"bike_id":"83348da8-a4f5-46df-865e-64326525590d","system_id":"levelo_inurba_marseille","lat":43.21743,"lon":5.34597,"is_reserved":false,"is_disabled":false,"rental_uris":{"android":"levelo://app?vid=83348da8-a4f5-46df-865e-64326525590d","ios":"levelo://app?vid=83348da8-a4f5-46df-865e-64326525590d"},"vehicle_type_id":"4","last_reported":1760893652,"current_range_meters":8800,"station_id":"st_cvj6r9ubvosntc0bgbag","pricing_plan_id":"cebpf4jnsgd1na2vs0mg"},{"bike_id":"f5dd8c8f-f69d-4b71-a464-f99d6c377cce","system_id":"levelo_inurba_marseille","lat":43.295258,"lon":5.390424,"is_reserved":false,"is_disabled":false,"rental_uris":{"android":"levelo://app?vid=f5dd8c8f-f69d-4b71-a464-f99d6c377cce","ios":"levelo://app?vid=f5dd8c8f-f69d-4b71-a464-f99d6c377cce"},"vehicle_type_id":"4","last_reported":1760893652,"current_range_meters":8800,"station_id":"ce4bh3p2rcd13ifvqdp0","pricing_plan_id":"cebpf4jnsgd1na2vs0mg"},{"bike_id":"3586afa5-19c6-4385-ae3b-80726606c1bb","system_id":"levelo_inurba_marseille","lat":43.26414,"lon":5.39904,"is_reserved":false,"is_disabled":false,"rental_uris":{"android":"levelo://app?vid=3586afa5-19c6-4385-ae3b-80726606c1bb","ios":"levelo://app?vid=3586afa5-19c6-4385-ae3b-80726606c1bb"},"vehicle_type_id":"4","last_reported":1760893652,"current_range_meters":8800,"station_id":"","pricing_plan_id":"cebpf4jnsgd1na2vs0mg"},{"bike_id":"8a5a266c-b1d1-45c1-bdc5-5c236a08cc19","system_id":"levelo_inurba_marseille","lat":43.29966,"lon":5.38502,"is_reserved":false,"is_disabled":false,"rental_uris":{"android":"levelo://app?vid=8a5a266c-b1d1-45c1-bdc5-5c236a08cc19","ios":"levelo://app?vid=8a5a266c-b1d1-45c1-bdc5-5c236a08cc19"},"vehicle_type_id":"4","last_reported":1760893652,"current_range_meters":8800,"station_id":"ce4bgj92rcd13ifvqbd0","pricing_plan_id":"cebpf4jnsgd1na2vs0mg"},{"bike_id":"4f3dca64-a1ba-42ba-b8f5-97264bfbe0d7","system_id":"levelo_inurba_marseille","lat":43.23179,"lon":5.39993,"is_reserved":false,"is_disabled":false,"rental_uris":{"android":"levelo://app?vid=4f3dca64-a1ba-42ba-b8f5-97264bfbe0d7","ios":"levelo://app?vid=4f3dca64-a1ba-42ba-b8f5-97264bfbe0d7"},"vehicle_type_id":"4","last_reported":1760893652,"current_range_meters":8800,"station_id":"ce4bhn12rcd13ifvqgqg","pricing_plan_id":"cebpf4jnsgd1na2vs0mg"},{"bike_id":"e978660f-731d-4a95-8df5-e0a54d8fe8be","system_id":"levelo_inurba_marseille","lat":43.211839,"lon":5.350803,"is_reserved":false,"is_disabled":true,"rental_uris":{"android":"levelo://app?vid=e978660f-731d-4a95-8df5-e0a54d8fe8be","ios":"levelo://app?vid=e978660f-731d-4a95-8df5-e0a54d8fe8be"},"vehicle_type_id":"4","last_reported":1760893652,"current_range_meters":8800,"station_id":"st_cvj6sg6p6f1abm77japg","pricing_plan_id":"cebpf4jnsgd1na2vs0mg"},{"bike_id":"08d99d43-fdcf-48d0-b217-00fa35792b83","system_id":"levelo_inurba_marseille","lat":43.30145,"lon":5.38769,"is_reserved":false,"is_disabled":false,"rental_uris":{"android":"levelo://app?vid=08d99d43-fdcf-48d0-b217-00fa35792b83","ios":"levelo://app?vid=08d99d43-fdcf-48d0-b217-00fa35792b83"},"vehicle_type_id":"4","last_reported":1760893652,"current_range_meters":8800,"station_id":"ce4bghh2rcd13ifvqb60","pricing_plan_id":"cebpf4jnsgd1na2vs0mg"},{"bike_id":"16b291cd-96e3-4bdf-a796-2131df56e110","system_id":"levelo_inurba_marseille","lat":43.29079,"lon":5.37184,"is_reserved":false,"is_disabled":false,"rental_uris":{"android":"levelo://app?vid=16b291cd-96e3-4bdf-a796-2131df56e110","ios":"levelo://app?vid=16b291cd-96e3-4bdf-a796-2131df56e110"},"vehicle_type_id":"4","last_reported":1760893652,"current_range_meters":8800,"station_id":"ce4bh5p2rcd13ifvqe4g","pricing_plan_id":"cebpf4jnsgd1na2vs0mg"},{"bike_id":"785cb601-9589-42b5-98e5-efd2bc87c5e0","system_id":"levelo_inurba_marseille","lat":43.27809,"lon":5.40711,"is_reserved":false,"is_disabled":false,"rental_uris":{"android":"levelo://app?vid=785cb601-9589-42b5-98e5-efd2bc87c5e0","ios":"levelo://app?vid=785cb601-9589-42b5-98e5-efd2bc87c5e0"},"vehicle_type_id":"4","last_reported":1760893652,"current_range_meters":8800,"station_id":"ce4bhnh2rcd13ifvqgtg","pricing_plan_id":"cebpf4jnsgd1na2vs0mg"},{"bike_id":"01631119-7160-4843-9224-8e6830b019a0","system_id":"levelo_inurba_marseille","lat":43.25935,"lon":5.40926,"is_reserved":false,"is_disabled":false,"rental_uris":{"android":"levelo://app?vid=01631119-7160-4843-9224-8e6830b019a0","ios":"levelo://app?vid=01631119-7160-4843-9224-8e6830b019a0"},"vehicle_type_id":"4","last_reported":1760893652,"current_range_meters":8800,"station_id":"ce4bhm92rcd13ifvqglg","pricing_plan_id":"cebpf4jnsgd1na2vs0mg"},{"bike_id":"9dd1d8fe-c2a8-4a70-a175-61f5f9fe7fd2","system_id":"levelo_inurba_marseille","lat":43.31568,"lon":5.39035,"is_reserved":false,"is_disabled":false,"rental_uris":{"android":"levelo://app?vid=9dd1d8fe-c2a8-4a70-a175-61f5f9fe7fd2","ios":"levelo://app?vid=9dd1d8fe-c2a8-4a70-a175-61f5f9fe7fd2"},"vehicle_type_id":"4","last_reported":1760893652,"current_range_meters":9200,"station_id":"","pricing_plan_id":"cebpf4jnsgd1na2vs0mg"},{"bike_id":"03d42850-592e-450e-83bb-7381be9ec96c","system_id":"levelo_inurba_marseille","lat":43.298122,"lon":5.440688,"is_reserved":false,"is_disabled":false,"rental_uris":{"android":"levelo://app?vid=03d42850-592e-450e-83bb-7381be9ec96c","ios":"levelo://app?vid=03d42850-592e-450e-83bb-7381be9ec96c"},"vehicle_type_id":"4","last_reported":1760893652,"current_range_meters":9200,"station_id":"st_d3jp68qikq2c7381ktn0","pricing_plan_id":"cebpf4jnsgd1na2vs0mg"},{"bike_id":"9aca6410-dfe2-4f0b-8309-4bbe61aef318","system_id":"levelo_inurba_marseille","lat":43.33029,"lon":5.39037,"is_reserved":false,"is_disabled":false,"rental_uris":{"android":"levelo://app?vid=9aca6410-dfe2-4f0b-8309-4bbe61aef318","ios":"levelo://app?vid=9aca6410-dfe2-4f0b-8309-4bbe61aef318"},"vehicle_type_id":"4","last_reported":1760893652,"current_range_meters":9200,"station_id":"ce4bhr92rcd13ifvqhrg","pricing_plan_id":"cebpf4jnsgd1na2vs0mg"},{"bike_id":"0d935fb0-5dda-45d6-8d1b-6ef789ab968d","system_id":"levelo_inurba_marseille","lat":43.28007,"lon":5.41662,"is_reserved":false,"is_disabled":false,"rental_uris":{"android":"levelo://app?vid=0d935fb0-5dda-45d6-8d1b-6ef789ab968d","ios":"levelo://app?vid=0d935fb0-5dda-45d6-8d1b-6ef789ab968d"},"vehicle_type_id":"4","last_reported":1760893652,"current_range_meters":9600,"station_id":"ce4bho12rcd13ifvqh1g","pricing_plan_id":"cebpf4jnsgd1na2vs0mg"},{"bike_id":"6655967b-abc9-4508-98d8-c9a890eb560f","system_id":"levelo_inurba_marseille","lat":43.29734,"lon":5.37138,"is_reserved":false,"is_disabled":false,"rental_uris":{"android":"levelo://app?vid=6655967b-abc9-4508-98d8-c9a890eb560f","ios":"levelo://app?vid=6655967b-abc9-4508-98d8-c9a890eb560f"},"vehicle_type_id":"4","last_reported":1760893652,"current_range_meters":9600,"station_id":"","pricing_plan_id":"cebpf4jnsgd1na2vs0mg"},{"bike_id":"5d740315-e13c-45a6-9763-5811c4b98e67","system_id":"levelo_inurba_marseille","lat":43.24633,"lon":5.43147,"is_reserved":false,"is_disabled":false,"rental_uris":{"android":"levelo://app?vid=5d740315-e13c-45a6-9763-5811c4b98e67","ios":"levelo://app?vid=5d740315-e13c-45a6-9763-5811c4b98e67"},"vehicle_type_id":"4","last_reported":1760893652,"current_range_meters":9600,"station_id":"st_d2m6c4gdas8pm72e190g","pricing_plan_id":"cebpf4jnsgd1na2vs0mg"},{"bike_id":"19140a05-657d-4cec-bb65-30c40c0e6b23","system_id":"levelo_inurba_marseille","lat":43.29612,"lon":5.38111,"is_reserved":false,"is_disabled":false,"rental_uris":{"android":"levelo://app?vid=19140a05-657d-4cec-bb65-30c40c0e6b23","ios":"levelo://app?vid=19140a05-657d-4cec-bb65-30c40c0e6b23"},"vehicle_type_id":"4","last_reported":1760893652,"current_range_meters":9600,"station_id":"ce4bgl12rcd13ifvqbo0","pricing_plan_id":"cebpf4jnsgd1na2vs0mg"},{"bike_id":"46f984b9-41e7-48e9-a150-3b7481f52ac8","system_id":"levelo_inurba_marseille","lat":43.2781,"lon":5.407414,"is_reserved":false,"is_disabled":false,"rental_uris":{"android":"levelo://app?vid=46f984b9-41e7-48e9-a150-3b7481f52ac8","ios":"levelo://app?vid=46f984b9-41e7-48e9-a150-3b7481f52ac8"},"vehicle_type_id":"4","last_reported":1760893652,"current_range_meters":9600,"station_id":"ce4bhnh2rcd13ifvqgtg","pricing_plan_id":"cebpf4jnsgd1na2vs0mg"},{"bike_id":"ac9e004f-5282-4b1f-b0ce-37a0fe02c18e","system_id":"levelo_inurba_marseille","lat":43.29444,"lon":5.39743,"is_reserved":false,"is_disabled":false,"rental_uris":{"android":"levelo://app?vid=ac9e004f-5282-4b1f-b0ce-37a0fe02c18e","ios":"levelo://app?vid=ac9e004f-5282-4b1f-b0ce-37a0fe02c18e"},"vehicle_type_id":"4","last_reported":1760893652,"current_range_meters":9600,"station_id":"ce4bh3h2rcd13ifvqdo0","pricing_plan_id":"cebpf4jnsgd1na2vs0mg"},{"bike_id":"6426e4fa-7f79-410d-acfa-0a51b3b2658a","system_id":"levelo_inurba_marseille","lat":43.312379,"lon":5.404109,"is_reserved":false,"is_disabled":false,"rental_uris":{"android":"levelo://app?vid=6426e4fa-7f79-410d-acfa-0a51b3b2658a","ios":"levelo://app?vid=6426e4fa-7f79-410d-acfa-0a51b3b2658a"},"vehicle_type_id":"4","last_reported":1760893652,"current_range_meters":10000,"station_id":"","pricing_plan_id":"cebpf4jnsgd1na2vs0mg"},{"bike_id":"365b1110-8604-4b2d-ad9b-3263b8a258f2","system_id":"levelo_inurba_marseille","lat":43.28655,"lon":5.3634,"is_reserved":false,"is_disabled":false,"rental_uris":{"android":"levelo://app?vid=365b1110-8604-4b2d-ad9b-3263b8a258f2","ios":"levelo://app?vid=365b1110-8604-4b2d-ad9b-3263b8a258f2"},"vehicle_type_id":"4","last_reported":1760893652,"current_range_meters":10000,"station_id":"ce4bhah2rcd13ifvqej0","pricing_plan_id":"cebpf4jnsgd1na2vs0mg"},{"bike_id":"d712d0ff-3096-41ad-87d0-b640167ff060","system_id":"levelo_inurba_marseille","lat":43.31541,"lon":5.38512,"is_reserved":false,"is_disabled":false,"rental_uris":{"android":"levelo://app?vid=d712d0ff-3096-41ad-87d0-b640167ff060","ios":"levelo://app?vid=d712d0ff-3096-41ad-87d0-b640167ff060"},"vehicle_type_id":"4","last_reported":1760893652,"current_range_meters":10000,"station_id":"","pricing_plan_id":"cebpf4jnsgd1na2vs0mg"},{"bike_id":"a3f863ca-1551-43ec-abd9-e0073f7aad15","system_id":"levelo_inurba_marseille","lat":43.29282,"lon":5.37618,"is_reserved":false,"is_disabled":true,"rental_uris":{"android":"levelo://app?vid=a3f863ca-1551-43ec-abd9-e0073f7aad15","ios":"levelo://app?vid=a3f863ca-1551-43ec-abd9-e0073f7aad15"},"vehicle_type_id":"4","last_reported":1760893652,"current_range_meters":10000,"station_id":"ce4bgi12rcd13ifvqb80","pricing_plan_id":"cebpf4jnsgd1na2vs0mg"},{"bike_id":"ac6d2c4d-74a8-443d-a9f9-0d9807feacda","system_id":"levelo_inurba_marseille","lat":43.33772,"lon":5.37469,"is_reserved":false,"is_disabled":false,"rental_uris":{"android":"levelo://app?vid=ac6d2c4d-74a8-443d-a9f9-0d9807feacda","ios":"levelo://app?vid=ac6d2c4d-74a8-443d-a9f9-0d9807feacda"},"vehicle_type_id":"4","last_reported":1760893652,"current_range_meters":10000,"station_id":"","pricing_plan_id":"cebpf4jnsgd1na2vs0mg"},{"bike_id":"82c468a7-612e-4058-a058-48ce4c218b56","system_id":"levelo_inurba_marseille","lat":43.27064,"lon":5.42284,"is_reserved":false,"is_disabled":false,"rental_uris":{"android":"levelo://app?vid=82c468a7-612e-4058-a058-48ce4c218b56","ios":"levelo://app?vid=82c468a7-612e-4058-a058-48ce4c218b56"},"vehicle_type_id":"4","last_reported":1760893652,"current_range_meters":10000,"station_id":"ce4bhk92rcd13ifvqgb0","pricing_plan_id":"cebpf4jnsgd1na2vs0mg"},{"bike_id":"22314047-2734-41a2-bd16-51f935a16a26","system_id":"levelo_inurba_marseille","lat":43.30237,"lon":5.40079,"is_reserved":false,"is_disabled":false,"rental_uris":{"android":"levelo://app?vid=22314047-2734-41a2-bd16-51f935a16a26","ios":"levelo://app?vid=22314047-2734-41a2-bd16-51f935a16a26"},"vehicle_type_id":"4","last_reported":1760893652,"current_range_meters":10000,"station_id":"ce4bgvh2rcd13ifvqcs0","pricing_plan_id":"cebpf4jnsgd1na2vs0mg"},{"bike_id":"17381ede-2885-434f-b8d5-419cbc10857a","system_id":"levelo_inurba_marseille","lat":43.3014,"lon":5.38954,"is_reserved":false,"is_disabled":false,"rental_uris":{"android":"levelo://app?vid=17381ede-2885-434f-b8d5-419cbc10857a","ios":"levelo://app?vid=17381ede-2885-434f-b8d5-419cbc10857a"},"vehicle_type_id":"4","last_reported":1760893652,"current_range_meters":10000,"station_id":"","pricing_plan_id":"cebpf4jnsgd1na2vs0mg"},{"bike_id":"b4d730f9-3265-45ba-8d83-198d6ac366cd","system_id":"levelo_inurba_marseille","lat":43.29808,"lon":5.44061,"is_reserved":false,"is_disabled":false,"rental_uris":{"android":"levelo://app?vid=b4d730f9-3265-45ba-8d83-198d6ac366cd","ios":"levelo://app?vid=b4d730f9-3265-45ba-8d83-198d6ac366cd"},"vehicle_type_id":"4","last_reported":1760893652,"current_range_meters":10800,"station_id":"st_d3jp68qikq2c7381ktn0","pricing_plan_id":"cebpf4jnsgd1na2vs0mg"},{"bike_id":"cf4c14bf-7635-4f96-a4b6-ee6481db3804","system_id":"levelo_inurba_marseille","lat":43.32293,"lon":5.38287,"is_reserved":false,"is_disabled":false,"rental_uris":{"android":"levelo://app?vid=cf4c14bf-7635-4f96-a4b6-ee6481db3804","ios":"levelo://app?vid=cf4c14bf-7635-4f96-a4b6-ee6481db3804"},"vehicle_type_id":"4","last_reported":1760893652,"current_range_meters":10800,"station_id":"ce4bhr12rcd13ifvqhqg","pricing_plan_id":"cebpf4jnsgd1na2vs0mg"},{"bike_id":"29acd066-04d3-4a53-97c0-020ee334ecbe","system_id":"levelo_inurba_marseille","lat":43.29958,"lon":5.41318,"is_reserved":false,"is_disabled":false,"rental_uris":{"android":"levelo://app?vid=29acd066-04d3-4a53-97c0-020ee334ecbe","ios":"levelo://app?vid=29acd066-04d3-4a53-97c0-020ee334ecbe"},"vehicle_type_id":"4","last_reported":1760893652,"current_range_meters":10800,"station_id":"ce4bhp12rcd13ifvqh9g","pricing_plan_id":"cebpf4jnsgd1na2vs0mg"},{"bike_id":"f5eda7fc-872e-4f8e-9d95-c0a57bf82381","system_id":"levelo_inurba_marseille","lat":43.292287,"lon":5.360602,"is_reserved":false,"is_disabled":false,"rental_uris":{"android":"levelo://app?vid=f5eda7fc-872e-4f8e-9d95-c0a57bf82381","ios":"levelo://app?vid=f5eda7fc-872e-4f8e-9d95-c0a57bf82381"},"vehicle_type_id":"4","last_reported":1760893652,"current_range_meters":10800,"station_id":"","pricing_plan_id":"cebpf4jnsgd1na2vs0mg"},{"bike_id":"5bd9155f-156c-49c8-8b0f-833732c1c592","system_id":"levelo_inurba_marseille","lat":43.285381,"lon":5.441023,"is_reserved":false,"is_disabled":false,"rental_uris":{"android":"levelo://app?vid=5bd9155f-156c-49c8-8b0f-833732c1c592","ios":"levelo://app?vid=5bd9155f-156c-49c8-8b0f-833732c1c592"},"vehicle_type_id":"4","last_reported":1760893652,"current_range_meters":11200,"station_id":"st_d3j3df2ikq2c7380ej80","pricing_plan_id":"cebpf4jnsgd1na2vs0mg"},{"bike_id":"487ddd3e-b711-4b08-a304-bbc8c5c9fa53","system_id":"levelo_inurba_marseille","lat":43.29248,"lon":5.38449,"is_reserved":false,"is_disabled":false,"rental_uris":{"android":"levelo://app?vid=487ddd3e-b711-4b08-a304-bbc8c5c9fa53","ios":"levelo://app?vid=487ddd3e-b711-4b08-a304-bbc8c5c9fa53"},"vehicle_type_id":"4","last_reported":1760893652,"current_range_meters":11200,"station_id":"ce4bh692rcd13ifvqea0","pricing_plan_id":"cebpf4jnsgd1na2vs0mg"},{"bike_id":"58dbdeb9-b6b5-4583-8ed2-c7c6abe2b6a5","system_id":"levelo_inurba_marseille","lat":43.304223,"lon":5.388893,"is_reserved":false,"is_disabled":false,"rental_uris":{"android":"levelo://app?vid=58dbdeb9-b6b5-4583-8ed2-c7c6abe2b6a5","ios":"levelo://app?vid=58dbdeb9-b6b5-4583-8ed2-c7c6abe2b6a5"},"vehicle_type_id":"4","last_reported":1760893652,"current_range_meters":11200,"station_id":"ce4bgk12rcd13ifvqbi0","pricing_plan_id":"cebpf4jnsgd1na2vs0mg"},{"bike_id":"e1ace6a0-7cf1-421d-9107-8c2d75ec6bc6","system_id":"levelo_inurba_marseille","lat":43.27812,"lon":5.40715,"is_reserved":false,"is_disabled":false,"rental_uris":{"android":"levelo://app?vid=e1ace6a0-7cf1-421d-9107-8c2d75ec6bc6","ios":"levelo://app?vid=e1ace6a0-7cf1-421d-9107-8c2d75ec6bc6"},"vehicle_type_id":"4","last_reported":1760893652,"current_range_meters":11200,"station_id":"ce4bhnh2rcd13ifvqgtg","pricing_plan_id":"cebpf4jnsgd1na2vs0mg"},{"bike_id":"81ca0cf9-7047-428a-9072-3e13596df636","system_id":"levelo_inurba_marseille","lat":43.29018,"lon":5.38626,"is_reserved":false,"is_disabled":true,"rental_uris":{"android":"levelo://app?vid=81ca0cf9-7047-428a-9072-3e13596df636","ios":"levelo://app?vid=81ca0cf9-7047-428a-9072-3e13596df636"},"vehicle_type_id":"4","last_reported":1760893652,"current_range_meters":11200,"station_id":"ce4bh4p2rcd13ifvqe0g","pricing_plan_id":"cebpf4jnsgd1na2vs0mg"},{"bike_id":"cb64ef84-b6ab-4623-b2a3-869a3dc9484a","system_id":"levelo_inurba_marseille","lat":43.294329,"lon":5.397292,"is_reserved":false,"is_disabled":false,"rental_uris":{"android":"levelo://app?vid=cb64ef84-b6ab-4623-b2a3-869a3dc9484a","ios":"levelo://app?vid=cb64ef84-b6ab-4623-b2a3-869a3dc9484a"},"vehicle_type_id":"4","last_reported":1760893652,"current_range_meters":11200,"station_id":"ce4bh3h2rcd13ifvqdo0","pricing_plan_id":"cebpf4jnsgd1na2vs0mg"},{"bike_id":"e3170ac8-7a38-4409-8746-f8cb7d2dfda7","system_id":"levelo_inurba_marseille","lat":43.28477,"lon":5.38422,"is_reserved":false,"is_disabled":false,"rental_uris":{"android":"levelo://app?vid=e3170ac8-7a38-4409-8746-f8cb7d2dfda7","ios":"levelo://app?vid=e3170ac8-7a38-4409-8746-f8cb7d2dfda7"},"vehicle_type_id":"4","last_reported":1760893652,"current_range_meters":11200,"station_id":"ce4bh512rcd13ifvqe3g","pricing_plan_id":"cebpf4jnsgd1na2vs0mg"},{"bike_id":"f3cd9cf3-b55e-4ac1-8cfb-4da2249bb52e","system_id":"levelo_inurba_marseille","lat":43.303488,"lon":5.393087,"is_reserved":false,"is_disabled":false,"rental_uris":{"android":"levelo://app?vid=f3cd9cf3-b55e-4ac1-8cfb-4da2249bb52e","ios":"levelo://app?vid=f3cd9cf3-b55e-4ac1-8cfb-4da2249bb52e"},"vehicle_type_id":"4","last_reported":1760893652,"current_range_meters":11200,"station_id":"ce4bgkh2rcd13ifvqbk0","pricing_plan_id":"cebpf4jnsgd1na2vs0mg"},{"bike_id":"2c59cc86-a348-4735-8f6f-75bf0e4aac2c","system_id":"levelo_inurba_marseille","lat":43.333269,"lon":5.398084,"is_reserved":false,"is_disabled":false,"rental_uris":{"android":"levelo://app?vid=2c59cc86-a348-4735-8f6f-75bf0e4aac2c","ios":"levelo://app?vid=2c59cc86-a348-4735-8f6f-75bf0e4aac2c"},"vehicle_type_id":"4","last_reported":1760893652,"current_range_meters":11200,"station_id":"","pricing_plan_id":"cebpf4jnsgd1na2vs0mg"},{"bike_id":"b9f4c452-f1a0-4b31-854c-2325a5b73556","system_id":"levelo_inurba_marseille","lat":43.21457,"lon":5.34318,"is_reserved":false,"is_disabled":false,"rental_uris":{"android":"levelo://app?vid=b9f4c452-f1a0-4b31-854c-2325a5b73556","ios":"levelo://app?vid=b9f4c452-f1a0-4b31-854c-2325a5b73556"},"vehicle_type_id":"4","last_reported":1760893652,"current_range_meters":11200,"station_id":"","pricing_plan_id":"cebpf4jnsgd1na2vs0mg"},{"bike_id":"8f1a1717-e59a-4258-b65c-1259554c765e","system_id":"levelo_inurba_marseille","lat":43.30275,"lon":5.37705,"is_reserved":false,"is_disabled":false,"rental_uris":{"android":"levelo://app?vid=8f1a1717-e59a-4258-b65c-1259554c765e","ios":"levelo://app?vid=8f1a1717-e59a-4258-b65c-1259554c765e"},"vehicle_type_id":"4","last_reported":1760893652,"current_range_meters":11600,"station_id":"ce4bguh2rcd13ifvqcj0","pricing_plan_id":"cebpf4jnsgd1na2vs0mg"},{"bike_id":"703401b8-e576-4a54-9b9d-4e5804912d35","system_id":"levelo_inurba_marseille","lat":43.23962,"lon":5.36633,"is_reserved":false,"is_disabled":false,"rental_uris":{"android":"levelo://app?vid=703401b8-e576-4a54-9b9d-4e5804912d35","ios":"levelo://app?vid=703401b8-e576-4a54-9b9d-4e5804912d35"},"vehicle_type_id":"4","last_reported":1760893652,"current_range_meters":11600,"station_id":"ce4bhi12rcd13ifvqfp0","pricing_plan_id":"cebpf4jnsgd1na2vs0mg"},{"bike_id":"969d5cb6-9431-4e6d-892b-9ea48a008fe1","system_id":"levelo_inurba_marseille","lat":43.23187,"lon":5.39986,"is_reserved":false,"is_disabled":false,"rental_uris":{"android":"levelo://app?vid=969d5cb6-9431-4e6d-892b-9ea48a008fe1","ios":"levelo://app?vid=969d5cb6-9431-4e6d-892b-9ea48a008fe1"},"vehicle_type_id":"4","last_reported":1760893652,"current_range_meters":11600,"station_id":"ce4bhn12rcd13ifvqgqg","pricing_plan_id":"cebpf4jnsgd1na2vs0mg"},{"bike_id":"8f6c99a9-2111-4ea5-ba4d-4bb0a3b06aa1","system_id":"levelo_inurba_marseille","lat":43.29819,"lon":5.44068,"is_reserved":false,"is_disabled":false,"rental_uris":{"android":"levelo://app?vid=8f6c99a9-2111-4ea5-ba4d-4bb0a3b06aa1","ios":"levelo://app?vid=8f6c99a9-2111-4ea5-ba4d-4bb0a3b06aa1"},"vehicle_type_id":"4","last_reported":1760893652,"current_range_meters":11600,"station_id":"st_d3jp68qikq2c7381ktn0","pricing_plan_id":"cebpf4jnsgd1na2vs0mg"},{"bike_id":"f74b679b-a851-4219-939b-66f3a5ea094c","system_id":"levelo_inurba_marseille","lat":43.293028,"lon":5.374437,"is_reserved":false,"is_disabled":false,"rental_uris":{"android":"levelo://app?vid=f74b679b-a851-4219-939b-66f3a5ea094c","ios":"levelo://app?vid=f74b679b-a851-4219-939b-66f3a5ea094c"},"vehicle_type_id":"4","last_reported":1760893652,"current_range_meters":11600,"station_id":"ce4bgi12rcd13ifvqb70","pricing_plan_id":"cebpf4jnsgd1na2vs0mg"},{"bike_id":"a2d56d0a-c45e-4826-b250-d631be232ae9","system_id":"levelo_inurba_marseille","lat":43.28567,"lon":5.39501,"is_reserved":false,"is_disabled":false,"rental_uris":{"android":"levelo://app?vid=a2d56d0a-c45e-4826-b250-d631be232ae9","ios":"levelo://app?vid=a2d56d0a-c45e-4826-b250-d631be232ae9"},"vehicle_type_id":"4","last_reported":1760893652,"current_range_meters":11600,"station_id":"ce4bh292rcd13ifvqdg0","pricing_plan_id":"cebpf4jnsgd1na2vs0mg"},{"bike_id":"627a6046-dc95-45cd-877d-14345b8ed74b","system_id":"levelo_inurba_marseille","lat":43.31169,"lon":5.38722,"is_reserved":false,"is_disabled":false,"rental_uris":{"android":"levelo://app?vid=627a6046-dc95-45cd-877d-14345b8ed74b","ios":"levelo://app?vid=627a6046-dc95-45cd-877d-14345b8ed74b"},"vehicle_type_id":"4","last_reported":1760893652,"current_range_meters":11600,"station_id":"ce4bgv12rcd13ifvqcp0","pricing_plan_id":"cebpf4jnsgd1na2vs0mg"},{"bike_id":"de636393-b59a-4430-8d31-4e1b7839f72a","system_id":"levelo_inurba_marseille","lat":43.26681,"lon":5.38275,"is_reserved":false,"is_disabled":false,"rental_uris":{"android":"levelo://app?vid=de636393-b59a-4430-8d31-4e1b7839f72a","ios":"levelo://app?vid=de636393-b59a-4430-8d31-4e1b7839f72a"},"vehicle_type_id":"4","last_reported":1760893652,"current_range_meters":11600,"station_id":"ce4bhg92rcd13ifvqf90","pricing_plan_id":"cebpf4jnsgd1na2vs0mg"},{"bike_id":"3cab6837-9492-4b2f-9f11-6d7fb4de0695","system_id":"levelo_inurba_marseille","lat":43.29584,"lon":5.36746,"is_reserved":false,"is_disabled":true,"rental_uris":{"android":"levelo://app?vid=3cab6837-9492-4b2f-9f11-6d7fb4de0695","ios":"levelo://app?vid=3cab6837-9492-4b2f-9f11-6d7fb4de0695"},"vehicle_type_id":"4","last_reported":1760893652,"current_range_meters":12000,"station_id":"ce4bgph2rcd13ifvqc2g","pricing_plan_id":"cebpf4jnsgd1na2vs0mg"},{"bike_id":"86ce52f8-f590-4694-90e1-216ddc477b29","system_id":"levelo_inurba_marseille","lat":43.30968,"lon":5.3812,"is_reserved":false,"is_disabled":false,"rental_uris":{"android":"levelo://app?vid=86ce52f8-f590-4694-90e1-216ddc477b29","ios":"levelo://app?vid=86ce52f8-f590-4694-90e1-216ddc477b29"},"vehicle_type_id":"4","last_reported":1760893652,"current_range_meters":12000,"station_id":"","pricing_plan_id":"cebpf4jnsgd1na2vs0mg"},{"bike_id":"28be4cc9-89da-4216-a8af-2f68cb933d6b","system_id":"levelo_inurba_marseille","lat":43.29572,"lon":5.37502,"is_reserved":false,"is_disabled":false,"rental_uris":{"android":"levelo://app?vid=28be4cc9-89da-4216-a8af-2f68cb933d6b","ios":"levelo://app?vid=28be4cc9-89da-4216-a8af-2f68cb933d6b"},"vehicle_type_id":"4","last_reported":1760893652,"current_range_meters":12000,"station_id":"ce4bgh92rcd13ifvqb50","pricing_plan_id":"cebpf4jnsgd1na2vs0mg"},{"bike_id":"fbe586dc-ebc7-45f2-b699-4812fb9ca15d","system_id":"levelo_inurba_marseille","lat":43.25492,"lon":5.37658,"is_reserved":false,"is_disabled":true,"rental_uris":{"android":"levelo://app?vid=fbe586dc-ebc7-45f2-b699-4812fb9ca15d","ios":"levelo://app?vid=fbe586dc-ebc7-45f2-b699-4812fb9ca15d"},"vehicle_type_id":"4","last_reported":1760893652,"current_range_meters":12000,"station_id":"ce4bhh12rcd13ifvqff0","pricing_plan_id":"cebpf4jnsgd1na2vs0mg"},{"bike_id":"64feed5c-816f-4df4-804b-271684583ca2","system_id":"levelo_inurba_marseille","lat":43.27913,"lon":5.3802,"is_reserved":false,"is_disabled":false,"rental_uris":{"android":"levelo://app?vid=64feed5c-816f-4df4-804b-271684583ca2","ios":"levelo://app?vid=64feed5c-816f-4df4-804b-271684583ca2"},"vehicle_type_id":"4","last_reported":1760893652,"current_range_meters":12000,"station_id":"ce4bhf92rcd13ifvqf50","pricing_plan_id":"cebpf4jnsgd1na2vs0mg"},{"bike_id":"778ccbfb-369b-40e2-98f2-f17901dc7e11","system_id":"levelo_inurba_marseille","lat":43.284211,"lon":5.349841,"is_reserved":false,"is_disabled":true,"rental_uris":{"android":"levelo://app?vid=778ccbfb-369b-40e2-98f2-f17901dc7e11","ios":"levelo://app?vid=778ccbfb-369b-40e2-98f2-f17901dc7e11"},"vehicle_type_id":"4","last_reported":1760893652,"current_range_meters":12000,"station_id":"ce4bhbh2rcd13ifvqepg","pricing_plan_id":"cebpf4jnsgd1na2vs0mg"},{"bike_id":"565f96fd-8e10-41a0-a141-a9db3585de68","system_id":"levelo_inurba_marseille","lat":43.286652,"lon":5.386626,"is_reserved":false,"is_disabled":false,"rental_uris":{"android":"levelo://app?vid=565f96fd-8e10-41a0-a141-a9db3585de68","ios":"levelo://app?vid=565f96fd-8e10-41a0-a141-a9db3585de68"},"vehicle_type_id":"4","last_reported":1760893652,"current_range_meters":12400,"station_id":"ce4bh492rcd13ifvqdug","pricing_plan_id":"cebpf4jnsgd1na2vs0mg"},{"bike_id":"6ce74b74-0399-4b9e-b7bc-7e87ade1457f","system_id":"levelo_inurba_marseille","lat":43.23182,"lon":5.39988,"is_reserved":false,"is_disabled":false,"rental_uris":{"android":"levelo://app?vid=6ce74b74-0399-4b9e-b7bc-7e87ade1457f","ios":"levelo://app?vid=6ce74b74-0399-4b9e-b7bc-7e87ade1457f"},"vehicle_type_id":"4","last_reported":1760893652,"current_range_meters":12400,"station_id":"ce4bhn12rcd13ifvqgqg","pricing_plan_id":"cebpf4jnsgd1na2vs0mg"},{"bike_id":"de4bec27-297c-4e65-9415-36d899af2286","system_id":"levelo_inurba_marseille","lat":43.25936,"lon":5.40911,"is_reserved":false,"is_disabled":false,"rental_uris":{"android":"levelo://app?vid=de4bec27-297c-4e65-9415-36d899af2286","ios":"levelo://app?vid=de4bec27-297c-4e65-9415-36d899af2286"},"vehicle_type_id":"4","last_reported":1760893652,"current_range_meters":12400,"station_id":"ce4bhm92rcd13ifvqglg","pricing_plan_id":"cebpf4jnsgd1na2vs0mg"},{"bike_id":"676d88a8-f06e-4192-886d-e52926318b91","system_id":"levelo_inurba_marseille","lat":43.21196,"lon":5.35076,"is_reserved":false,"is_disabled":false,"rental_uris":{"android":"levelo://app?vid=676d88a8-f06e-4192-886d-e52926318b91","ios":"levelo://app?vid=676d88a8-f06e-4192-886d-e52926318b91"},"vehicle_type_id":"4","last_reported":1760893652,"current_range_meters":12400,"station_id":"st_cvj6sg6p6f1abm77japg","pricing_plan_id":"cebpf4jnsgd1na2vs0mg"},{"bike_id":"4c75c86c-e723-424c-8e02-51c2dc13eae9","system_id":"levelo_inurba_marseille","lat":43.28693,"lon":5.39991,"is_reserved":false,"is_disabled":false,"rental_uris":{"android":"levelo://app?vid=4c75c86c-e723-424c-8e02-51c2dc13eae9","ios":"levelo://app?vid=4c75c86c-e723-424c-8e02-51c2dc13eae9"},"vehicle_type_id":"4","last_reported":1760893652,"current_range_meters":12400,"station_id":"ce4bho92rcd13ifvqh3g","pricing_plan_id":"cebpf4jnsgd1na2vs0mg"},{"bike_id":"8cd818e3-a9e2-4f48-92b2-26306f507696","system_id":"levelo_inurba_marseille","lat":43.31349,"lon":5.37913,"is_reserved":false,"is_disabled":false,"rental_uris":{"android":"levelo://app?vid=8cd818e3-a9e2-4f48-92b2-26306f507696","ios":"levelo://app?vid=8cd818e3-a9e2-4f48-92b2-26306f507696"},"vehicle_type_id":"4","last_reported":1760893652,"current_range_meters":12400,"station_id":"","pricing_plan_id":"cebpf4jnsgd1na2vs0mg"},{"bike_id":"f543f00a-16cf-445f-958b-9584c017dec8","system_id":"levelo_inurba_marseille","lat":43.279053,"lon":5.380142,"is_reserved":false,"is_disabled":false,"rental_uris":{"android":"levelo://app?vid=f543f00a-16cf-445f-958b-9584c017dec8","ios":"levelo://app?vid=f543f00a-16cf-445f-958b-9584c017dec8"},"vehicle_type_id":"4","last_reported":1760893652,"current_range_meters":12400,"station_id":"ce4bhf92rcd13ifvqf50","pricing_plan_id":"cebpf4jnsgd1na2vs0mg"},{"bike_id":"0f38dda5-5f91-4696-86ac-02111b340abb","system_id":"levelo_inurba_marseille","lat":43.29412,"lon":5.39741,"is_reserved":false,"is_disabled":false,"rental_uris":{"android":"levelo://app?vid=0f38dda5-5f91-4696-86ac-02111b340abb","ios":"levelo://app?vid=0f38dda5-5f91-4696-86ac-02111b340abb"},"vehicle_type_id":"4","last_reported":1760893652,"current_range_meters":12400,"station_id":"ce4bh3h2rcd13ifvqdo0","pricing_plan_id":"cebpf4jnsgd1na2vs0mg"},{"bike_id":"4a076bd9-5c35-4f23-9774-16ca6a36fdc9","system_id":"levelo_inurba_marseille","lat":43.25575,"lon":5.38257,"is_reserved":false,"is_disabled":false,"rental_uris":{"android":"levelo://app?vid=4a076bd9-5c35-4f23-9774-16ca6a36fdc9","ios":"levelo://app?vid=4a076bd9-5c35-4f23-9774-16ca6a36fdc9"},"vehicle_type_id":"4","last_reported":1760893652,"current_range_meters":12800,"station_id":"ce4bhih2rcd13ifvqfs0","pricing_plan_id":"cebpf4jnsgd1na2vs0mg"},{"bike_id":"7fd36eea-805d-4dce-89b5-46f277eaf158","system_id":"levelo_inurba_marseille","lat":43.305097,"lon":5.366695,"is_reserved":false,"is_disabled":false,"rental_uris":{"android":"levelo://app?vid=7fd36eea-805d-4dce-89b5-46f277eaf158","ios":"levelo://app?vid=7fd36eea-805d-4dce-89b5-46f277eaf158"},"vehicle_type_id":"4","last_reported":1760893652,"current_range_meters":12800,"station_id":"","pricing_plan_id":"cebpf4jnsgd1na2vs0mg"},{"bike_id":"c22e92c8-3fe0-4c56-ab21-210e12f7f0b4","system_id":"levelo_inurba_marseille","lat":43.31941,"lon":5.41542,"is_reserved":false,"is_disabled":false,"rental_uris":{"android":"levelo://app?vid=c22e92c8-3fe0-4c56-ab21-210e12f7f0b4","ios":"levelo://app?vid=c22e92c8-3fe0-4c56-ab21-210e12f7f0b4"},"vehicle_type_id":"4","last_reported":1760893652,"current_range_meters":12800,"station_id":"","pricing_plan_id":"cebpf4jnsgd1na2vs0mg"},{"bike_id":"b13d2b29-923f-4a45-be2a-d30fc20ff918","system_id":"levelo_inurba_marseille","lat":43.29868,"lon":5.3973,"is_reserved":false,"is_disabled":false,"rental_uris":{"android":"levelo://app?vid=b13d2b29-923f-4a45-be2a-d30fc20ff918","ios":"levelo://app?vid=b13d2b29-923f-4a45-be2a-d30fc20ff918"},"vehicle_type_id":"4","last_reported":1760893652,"current_range_meters":12800,"station_id":"ce4bh0h2rcd13ifvqd50","pricing_plan_id":"cebpf4jnsgd1na2vs0mg"},{"bike_id":"c366afe7-3268-4e46-aaa0-4a85010077f5","system_id":"levelo_inurba_marseille","lat":43.26063,"lon":5.39391,"is_reserved":false,"is_disabled":false,"rental_uris":{"android":"levelo://app?vid=c366afe7-3268-4e46-aaa0-4a85010077f5","ios":"levelo://app?vid=c366afe7-3268-4e46-aaa0-4a85010077f5"},"vehicle_type_id":"4","last_reported":1760893652,"current_range_meters":12800,"station_id":"ce4bhh92rcd13ifvqfj0","pricing_plan_id":"cebpf4jnsgd1na2vs0mg"},{"bike_id":"edf2d7df-3dc6-455e-b453-d5c99103e191","system_id":"levelo_inurba_marseille","lat":43.300979,"lon":5.365964,"is_reserved":false,"is_disabled":false,"rental_uris":{"android":"levelo://app?vid=edf2d7df-3dc6-455e-b453-d5c99103e191","ios":"levelo://app?vid=edf2d7df-3dc6-455e-b453-d5c99103e191"},"vehicle_type_id":"4","last_reported":1760893652,"current_range_meters":12800,"station_id":"ce4bgrh2rcd13ifvqc8g","pricing_plan_id":"cebpf4jnsgd1na2vs0mg"},{"bike_id":"44bf323c-252e-4119-820e-507dee8c378c","system_id":"levelo_inurba_marseille","lat":43.25948,"lon":5.41373,"is_reserved":false,"is_disabled":false,"rental_uris":{"android":"levelo://app?vid=44bf323c-252e-4119-820e-507dee8c378c","ios":"levelo://app?vid=44bf323c-252e-4119-820e-507dee8c378c"},"vehicle_type_id":"4","last_reported":1760893652,"current_range_meters":12800,"station_id":"","pricing_plan_id":"cebpf4jnsgd1na2vs0mg"},{"bike_id":"0f787efd-37ca-4060-a03d-15d3c3ce389f","system_id":"levelo_inurba_marseille","lat":43.299984,"lon":5.373506,"is_reserved":false,"is_disabled":false,"rental_uris":{"android":"levelo://app?vid=0f787efd-37ca-4060-a03d-15d3c3ce389f","ios":"levelo://app?vid=0f787efd-37ca-4060-a03d-15d3c3ce389f"},"vehicle_type_id":"4","last_reported":1760893652,"current_range_meters":12800,"station_id":"","pricing_plan_id":"cebpf4jnsgd1na2vs0mg"},{"bike_id":"f4dddbe2-bf18-4114-a448-7d21826cd03a","system_id":"levelo_inurba_marseille","lat":43.29987,"lon":5.38496,"is_reserved":false,"is_disabled":false,"rental_uris":{"android":"levelo://app?vid=f4dddbe2-bf18-4114-a448-7d21826cd03a","ios":"levelo://app?vid=f4dddbe2-bf18-4114-a448-7d21826cd03a"},"vehicle_type_id":"4","last_reported":1760893652,"current_range_meters":12800,"station_id":"ce4bgj92rcd13ifvqbd0","pricing_plan_id":"cebpf4jnsgd1na2vs0mg"},{"bike_id":"b41695d6-c92e-4421-a3d8-f3dd8bd98095","system_id":"levelo_inurba_marseille","lat":43.29302,"lon":5.37449,"is_reserved":false,"is_disabled":false,"rental_uris":{"android":"levelo://app?vid=b41695d6-c92e-4421-a3d8-f3dd8bd98095","ios":"levelo://app?vid=b41695d6-c92e-4421-a3d8-f3dd8bd98095"},"vehicle_type_id":"4","last_reported":1760893652,"current_range_meters":12800,"station_id":"ce4bgi12rcd13ifvqb70","pricing_plan_id":"cebpf4jnsgd1na2vs0mg"},{"bike_id":"1c602ff3-70c4-4e68-b18f-4052a4da194f","system_id":"levelo_inurba_marseille","lat":43.27817,"lon":5.40698,"is_reserved":false,"is_disabled":false,"rental_uris":{"android":"levelo://app?vid=1c602ff3-70c4-4e68-b18f-4052a4da194f","ios":"levelo://app?vid=1c602ff3-70c4-4e68-b18f-4052a4da194f"},"vehicle_type_id":"4","last_reported":1760893652,"current_range_meters":13600,"station_id":"ce4bhnh2rcd13ifvqgtg","pricing_plan_id":"cebpf4jnsgd1na2vs0mg"},{"bike_id":"7a8ac50b-c3a4-490a-8f96-9c005f89ed5d","system_id":"levelo_inurba_marseille","lat":43.26521,"lon":5.39049,"is_reserved":false,"is_disabled":false,"rental_uris":{"android":"levelo://app?vid=7a8ac50b-c3a4-490a-8f96-9c005f89ed5d","ios":"levelo://app?vid=7a8ac50b-c3a4-490a-8f96-9c005f89ed5d"},"vehicle_type_id":"4","last_reported":1760893652,"current_range_meters":13600,"station_id":"","pricing_plan_id":"cebpf4jnsgd1na2vs0mg"},{"bike_id":"6c065587-f970-4c8d-a529-1ea57f0b7dae","system_id":"levelo_inurba_marseille","lat":43.23189,"lon":5.35555,"is_reserved":false,"is_disabled":false,"rental_uris":{"android":"levelo://app?vid=6c065587-f970-4c8d-a529-1ea57f0b7dae","ios":"levelo://app?vid=6c065587-f970-4c8d-a529-1ea57f0b7dae"},"vehicle_type_id":"4","last_reported":1760893652,"current_range_meters":13600,"station_id":"ce4bhu92rcd13ifvqi70","pricing_plan_id":"cebpf4jnsgd1na2vs0mg"},{"bike_id":"679c3c1f-72e8-4456-b0d9-4c2ad9c70dd9","system_id":"levelo_inurba_marseille","lat":43.21197,"lon":5.35077,"is_reserved":false,"is_disabled":false,"rental_uris":{"android":"levelo://app?vid=679c3c1f-72e8-4456-b0d9-4c2ad9c70dd9","ios":"levelo://app?vid=679c3c1f-72e8-4456-b0d9-4c2ad9c70dd9"},"vehicle_type_id":"4","last_reported":1760893652,"current_range_meters":13600,"station_id":"st_cvj6sg6p6f1abm77japg","pricing_plan_id":"cebpf4jnsgd1na2vs0mg"},{"bike_id":"b46ff2eb-ef72-420c-9f8b-9602cbc4154e","system_id":"levelo_inurba_marseille","lat":43.30903,"lon":5.37194,"is_reserved":false,"is_disabled":false,"rental_uris":{"android":"levelo://app?vid=b46ff2eb-ef72-420c-9f8b-9602cbc4154e","ios":"levelo://app?vid=b46ff2eb-ef72-420c-9f8b-9602cbc4154e"},"vehicle_type_id":"4","last_reported":1760893652,"current_range_meters":13600,"station_id":"ce4bguh2rcd13ifvqckg","pricing_plan_id":"cebpf4jnsgd1na2vs0mg"},{"bike_id":"887421ba-3319-4810-89c3-969b3f6adeab","system_id":"levelo_inurba_marseille","lat":43.28701,"lon":5.37398,"is_reserved":false,"is_disabled":false,"rental_uris":{"android":"levelo://app?vid=887421ba-3319-4810-89c3-969b3f6adeab","ios":"levelo://app?vid=887421ba-3319-4810-89c3-969b3f6adeab"},"vehicle_type_id":"4","last_reported":1760893652,"current_range_meters":13600,"station_id":"ce4bh3p2rcd13ifvqdq0","pricing_plan_id":"cebpf4jnsgd1na2vs0mg"},{"bike_id":"d80e44bc-bfdb-467f-a7af-46b04677ed44","system_id":"levelo_inurba_marseille","lat":43.29273,"lon":5.38455,"is_reserved":false,"is_disabled":false,"rental_uris":{"android":"levelo://app?vid=d80e44bc-bfdb-467f-a7af-46b04677ed44","ios":"levelo://app?vid=d80e44bc-bfdb-467f-a7af-46b04677ed44"},"vehicle_type_id":"4","last_reported":1760893652,"current_range_meters":13600,"station_id":"ce4bh692rcd13ifvqea0","pricing_plan_id":"cebpf4jnsgd1na2vs0mg"},{"bike_id":"6f5458d3-9f2a-47d5-b18c-590daf6a6f7f","system_id":"levelo_inurba_marseille","lat":43.29191,"lon":5.35793,"is_reserved":false,"is_disabled":true,"rental_uris":{"android":"levelo://app?vid=6f5458d3-9f2a-47d5-b18c-590daf6a6f7f","ios":"levelo://app?vid=6f5458d3-9f2a-47d5-b18c-590daf6a6f7f"},"vehicle_type_id":"4","last_reported":1760893652,"current_range_meters":14000,"station_id":"ce4bhb12rcd13ifvqel0","pricing_plan_id":"cebpf4jnsgd1na2vs0mg"},{"bike_id":"2cb42842-4b5a-46af-b5f4-86e668950671","system_id":"levelo_inurba_marseille","lat":43.302856,"lon":5.400566,"is_reserved":false,"is_disabled":false,"rental_uris":{"android":"levelo://app?vid=2cb42842-4b5a-46af-b5f4-86e668950671","ios":"levelo://app?vid=2cb42842-4b5a-46af-b5f4-86e668950671"},"vehicle_type_id":"4","last_reported":1760893652,"current_range_meters":14000,"station_id":"ce4bgvh2rcd13ifvqcs0","pricing_plan_id":"cebpf4jnsgd1na2vs0mg"},{"bike_id":"e015a312-f4e2-4fa5-962c-4dc7593461dd","system_id":"levelo_inurba_marseille","lat":43.27377,"lon":5.36251,"is_reserved":false,"is_disabled":false,"rental_uris":{"android":"levelo://app?vid=e015a312-f4e2-4fa5-962c-4dc7593461dd","ios":"levelo://app?vid=e015a312-f4e2-4fa5-962c-4dc7593461dd"},"vehicle_type_id":"4","last_reported":1760893652,"current_range_meters":14000,"station_id":"","pricing_plan_id":"cebpf4jnsgd1na2vs0mg"},{"bike_id":"0a950a0d-01ce-40b2-be0e-ad7894fd72f2","system_id":"levelo_inurba_marseille","lat":43.32098,"lon":5.36784,"is_reserved":false,"is_disabled":true,"rental_uris":{"android":"levelo://app?vid=0a950a0d-01ce-40b2-be0e-ad7894fd72f2","ios":"levelo://app?vid=0a950a0d-01ce-40b2-be0e-ad7894fd72f2"},"vehicle_type_id":"4","last_reported":1760893652,"current_range_meters":14000,"station_id":"ce4bhrh2rcd13ifvqhug","pricing_plan_id":"cebpf4jnsgd1na2vs0mg"},{"bike_id":"9652283e-21f4-4490-ac9e-ffa9429f0005","system_id":"levelo_inurba_marseille","lat":43.29006,"lon":5.40524,"is_reserved":false,"is_disabled":false,"rental_uris":{"android":"levelo://app?vid=9652283e-21f4-4490-ac9e-ffa9429f0005","ios":"levelo://app?vid=9652283e-21f4-4490-ac9e-ffa9429f0005"},"vehicle_type_id":"4","last_reported":1760893652,"current_range_meters":14000,"station_id":"","pricing_plan_id":"cebpf4jnsgd1na2vs0mg"},{"bike_id":"9e277872-0856-4dde-8d0e-21a4fb6a4018","system_id":"levelo_inurba_marseille","lat":43.3122,"lon":5.368478,"is_reserved":false,"is_disabled":false,"rental_uris":{"android":"levelo://app?vid=9e277872-0856-4dde-8d0e-21a4fb6a4018","ios":"levelo://app?vid=9e277872-0856-4dde-8d0e-21a4fb6a4018"},"vehicle_type_id":"4","last_reported":1760893652,"current_range_meters":14000,"station_id":"ce4bgl92rcd13ifvqbq0","pricing_plan_id":"cebpf4jnsgd1na2vs0mg"},{"bike_id":"d1668fd5-d05d-42a9-b5d1-4388db8ac6a3","system_id":"levelo_inurba_marseille","lat":43.31764,"lon":5.39029,"is_reserved":false,"is_disabled":false,"rental_uris":{"android":"levelo://app?vid=d1668fd5-d05d-42a9-b5d1-4388db8ac6a3","ios":"levelo://app?vid=d1668fd5-d05d-42a9-b5d1-4388db8ac6a3"},"vehicle_type_id":"4","last_reported":1760893652,"current_range_meters":14000,"station_id":"ce4bhqp2rcd13ifvqhng","pricing_plan_id":"cebpf4jnsgd1na2vs0mg"},{"bike_id":"b3d737bf-7b7c-4c18-b56f-57a16bdf0746","system_id":"levelo_inurba_marseille","lat":43.301426,"lon":5.374056,"is_reserved":false,"is_disabled":false,"rental_uris":{"android":"levelo://app?vid=b3d737bf-7b7c-4c18-b56f-57a16bdf0746","ios":"levelo://app?vid=b3d737bf-7b7c-4c18-b56f-57a16bdf0746"},"vehicle_type_id":"4","last_reported":1760893652,"current_range_meters":14000,"station_id":"ce4bgs92rcd13ifvqcc0","pricing_plan_id":"cebpf4jnsgd1na2vs0mg"},{"bike_id":"68717c4d-21b1-4a9f-8125-a0cd4c6dda41","system_id":"levelo_inurba_marseille","lat":43.27563,"lon":5.38418,"is_reserved":false,"is_disabled":false,"rental_uris":{"android":"levelo://app?vid=68717c4d-21b1-4a9f-8125-a0cd4c6dda41","ios":"levelo://app?vid=68717c4d-21b1-4a9f-8125-a0cd4c6dda41"},"vehicle_type_id":"4","last_reported":1760893652,"current_range_meters":14400,"station_id":"ce4bhh92rcd13ifvqfi0","pricing_plan_id":"cebpf4jnsgd1na2vs0mg"},{"bike_id":"12ab8313-2dbe-4f91-b409-d0df6be9af41","system_id":"levelo_inurba_marseille","lat":43.27497,"lon":5.42446,"is_reserved":false,"is_disabled":false,"rental_uris":{"android":"levelo://app?vid=12ab8313-2dbe-4f91-b409-d0df6be9af41","ios":"levelo://app?vid=12ab8313-2dbe-4f91-b409-d0df6be9af41"},"vehicle_type_id":"4","last_reported":1760893652,"current_range_meters":14400,"station_id":"ce4bhn92rcd13ifvqgrg","pricing_plan_id":"cebpf4jnsgd1na2vs0mg"},{"bike_id":"99f16226-f063-411c-8271-ef9cddac419d","system_id":"levelo_inurba_marseille","lat":43.29914,"lon":5.37473,"is_reserved":false,"is_disabled":false,"rental_uris":{"android":"levelo://app?vid=99f16226-f063-411c-8271-ef9cddac419d","ios":"levelo://app?vid=99f16226-f063-411c-8271-ef9cddac419d"},"vehicle_type_id":"4","last_reported":1760893652,"current_range_meters":14400,"station_id":"ce4bgjh2rcd13ifvqbg0","pricing_plan_id":"cebpf4jnsgd1na2vs0mg"},{"bike_id":"0e1c1279-e314-4763-88db-546948cd3537","system_id":"levelo_inurba_marseille","lat":43.30147,"lon":5.37406,"is_reserved":false,"is_disabled":false,"rental_uris":{"android":"levelo://app?vid=0e1c1279-e314-4763-88db-546948cd3537","ios":"levelo://app?vid=0e1c1279-e314-4763-88db-546948cd3537"},"vehicle_type_id":"4","last_reported":1760893652,"current_range_meters":14400,"station_id":"ce4bgs92rcd13ifvqcc0","pricing_plan_id":"cebpf4jnsgd1na2vs0mg"},{"bike_id":"4bbd6801-e86f-4670-a08c-5a08e1dabb92","system_id":"levelo_inurba_marseille","lat":43.29211,"lon":5.38102,"is_reserved":false,"is_disabled":false,"rental_uris":{"android":"levelo://app?vid=4bbd6801-e86f-4670-a08c-5a08e1dabb92","ios":"levelo://app?vid=4bbd6801-e86f-4670-a08c-5a08e1dabb92"},"vehicle_type_id":"4","last_reported":1760893652,"current_range_meters":14800,"station_id":"","pricing_plan_id":"cebpf4jnsgd1na2vs0mg"},{"bike_id":"0e1599db-f0b8-47a6-bdab-f424e9851fe4","system_id":"levelo_inurba_marseille","lat":43.29035,"lon":5.38629,"is_reserved":false,"is_disabled":false,"rental_uris":{"android":"levelo://app?vid=0e1599db-f0b8-47a6-bdab-f424e9851fe4","ios":"levelo://app?vid=0e1599db-f0b8-47a6-bdab-f424e9851fe4"},"vehicle_type_id":"4","last_reported":1760893652,"current_range_meters":14800,"station_id":"ce4bh4p2rcd13ifvqe0g","pricing_plan_id":"cebpf4jnsgd1na2vs0mg"},{"bike_id":"da22a6bb-ece8-4168-87fa-39fdca8adc0a","system_id":"levelo_inurba_marseille","lat":43.248064,"lon":5.374574,"is_reserved":false,"is_disabled":false,"rental_uris":{"android":"levelo://app?vid=da22a6bb-ece8-4168-87fa-39fdca8adc0a","ios":"levelo://app?vid=da22a6bb-ece8-4168-87fa-39fdca8adc0a"},"vehicle_type_id":"4","last_reported":1760893652,"current_range_meters":14800,"station_id":"ce4bhgh2rcd13ifvqfb0","pricing_plan_id":"cebpf4jnsgd1na2vs0mg"},{"bike_id":"4ca1a358-8c1c-4f7e-9010-0b012c65e17b","system_id":"levelo_inurba_marseille","lat":43.28765,"lon":5.38508,"is_reserved":false,"is_disabled":false,"rental_uris":{"android":"levelo://app?vid=4ca1a358-8c1c-4f7e-9010-0b012c65e17b","ios":"levelo://app?vid=4ca1a358-8c1c-4f7e-9010-0b012c65e17b"},"vehicle_type_id":"4","last_reported":1760893652,"current_range_meters":15200,"station_id":"","pricing_plan_id":"cebpf4jnsgd1na2vs0mg"},{"bike_id":"5a35347d-1dbb-434c-8651-0148cd77cd1e","system_id":"levelo_inurba_marseille","lat":43.316718,"lon":5.389522,"is_reserved":false,"is_disabled":false,"rental_uris":{"android":"levelo://app?vid=5a35347d-1dbb-434c-8651-0148cd77cd1e","ios":"levelo://app?vid=5a35347d-1dbb-434c-8651-0148cd77cd1e"},"vehicle_type_id":"4","last_reported":1760893652,"current_range_meters":15200,"station_id":"","pricing_plan_id":"cebpf4jnsgd1na2vs0mg"},{"bike_id":"9aa893ee-1807-4639-a1a7-1714b8f2dc9d","system_id":"levelo_inurba_marseille","lat":43.274936,"lon":5.42438,"is_reserved":false,"is_disabled":false,"rental_uris":{"android":"levelo://app?vid=9aa893ee-1807-4639-a1a7-1714b8f2dc9d","ios":"levelo://app?vid=9aa893ee-1807-4639-a1a7-1714b8f2dc9d"},"vehicle_type_id":"4","last_reported":1760893652,"current_range_meters":16000,"station_id":"ce4bhn92rcd13ifvqgrg","pricing_plan_id":"cebpf4jnsgd1na2vs0mg"},{"bike_id":"c530e950-50a8-4b2f-81e6-a5f7e6f752e8","system_id":"levelo_inurba_marseille","lat":43.33759,"lon":5.37473,"is_reserved":false,"is_disabled":false,"rental_uris":{"android":"levelo://app?vid=c530e950-50a8-4b2f-81e6-a5f7e6f752e8","ios":"levelo://app?vid=c530e950-50a8-4b2f-81e6-a5f7e6f752e8"},"vehicle_type_id":"4","last_reported":1760893652,"current_range_meters":16000,"station_id":"","pricing_plan_id":"cebpf4jnsgd1na2vs0mg"},{"bike_id":"1c3cb288-585d-4bfa-81d6-bdd1e6a675a2","system_id":"levelo_inurba_marseille","lat":43.29294,"lon":5.374649,"is_reserved":false,"is_disabled":false,"rental_uris":{"android":"levelo://app?vid=1c3cb288-585d-4bfa-81d6-bdd1e6a675a2","ios":"levelo://app?vid=1c3cb288-585d-4bfa-81d6-bdd1e6a675a2"},"vehicle_type_id":"4","last_reported":1760893652,"current_range_meters":16000,"station_id":"ce4bgi12rcd13ifvqb70","pricing_plan_id":"cebpf4jnsgd1na2vs0mg"},{"bike_id":"ee060667-268d-4179-a8a0-0b2c23f28fd1","system_id":"levelo_inurba_marseille","lat":43.29569,"lon":5.39985,"is_reserved":false,"is_disabled":false,"rental_uris":{"android":"levelo://app?vid=ee060667-268d-4179-a8a0-0b2c23f28fd1","ios":"levelo://app?vid=ee060667-268d-4179-a8a0-0b2c23f28fd1"},"vehicle_type_id":"4","last_reported":1760893652,"current_range_meters":16000,"station_id":"ce4bh312rcd13ifvqdj0","pricing_plan_id":"cebpf4jnsgd1na2vs0mg"},{"bike_id":"d44068c3-0d00-475c-95f0-c79200d68562","system_id":"levelo_inurba_marseille","lat":43.31268,"lon":5.401728,"is_reserved":false,"is_disabled":false,"rental_uris":{"android":"levelo://app?vid=d44068c3-0d00-475c-95f0-c79200d68562","ios":"levelo://app?vid=d44068c3-0d00-475c-95f0-c79200d68562"},"vehicle_type_id":"4","last_reported":1760893652,"current_range_meters":16400,"station_id":"ce4bh092rcd13ifvqd30","pricing_plan_id":"cebpf4jnsgd1na2vs0mg"},{"bike_id":"53a344d1-65ed-4bb5-aa33-c330ed52226e","system_id":"levelo_inurba_marseille","lat":43.23178,"lon":5.39989,"is_reserved":false,"is_disabled":false,"rental_uris":{"android":"levelo://app?vid=53a344d1-65ed-4bb5-aa33-c330ed52226e","ios":"levelo://app?vid=53a344d1-65ed-4bb5-aa33-c330ed52226e"},"vehicle_type_id":"4","last_reported":1760893652,"current_range_meters":16400,"station_id":"ce4bhn12rcd13ifvqgqg","pricing_plan_id":"cebpf4jnsgd1na2vs0mg"},{"bike_id":"f9c8e874-f965-4f84-8f8c-9cbdb4518520","system_id":"levelo_inurba_marseille","lat":43.24651,"lon":5.38894,"is_reserved":false,"is_disabled":false,"rental_uris":{"android":"levelo://app?vid=f9c8e874-f965-4f84-8f8c-9cbdb4518520","ios":"levelo://app?vid=f9c8e874-f965-4f84-8f8c-9cbdb4518520"},"vehicle_type_id":"4","last_reported":1760893652,"current_range_meters":16400,"station_id":"ce4bhg12rcd13ifvqf60","pricing_plan_id":"cebpf4jnsgd1na2vs0mg"},{"bike_id":"551b071f-6296-4762-bf09-1f1114253086","system_id":"levelo_inurba_marseille","lat":43.2998,"lon":5.37177,"is_reserved":false,"is_disabled":true,"rental_uris":{"android":"levelo://app?vid=551b071f-6296-4762-bf09-1f1114253086","ios":"levelo://app?vid=551b071f-6296-4762-bf09-1f1114253086"},"vehicle_type_id":"4","last_reported":1760893652,"current_range_meters":16400,"station_id":"ce4bgr92rcd13ifvqc7g","pricing_plan_id":"cebpf4jnsgd1na2vs0mg"},{"bike_id":"e343fae2-abdd-419f-add3-4252cf1a7c5a","system_id":"levelo_inurba_marseille","lat":43.30482,"lon":5.40078,"is_reserved":false,"is_disabled":false,"rental_uris":{"android":"levelo://app?vid=e343fae2-abdd-419f-add3-4252cf1a7c5a","ios":"levelo://app?vid=e343fae2-abdd-419f-add3-4252cf1a7c5a"},"vehicle_type_id":"4","last_reported":1760893652,"current_range_meters":16400,"station_id":"","pricing_plan_id":"cebpf4jnsgd1na2vs0mg"},{"bike_id":"6d9392ed-1417-4737-be7f-20b2cefaa83e","system_id":"levelo_inurba_marseille","lat":43.28614,"lon":5.37086,"is_reserved":false,"is_disabled":true,"rental_uris":{"android":"levelo://app?vid=6d9392ed-1417-4737-be7f-20b2cefaa83e","ios":"levelo://app?vid=6d9392ed-1417-4737-be7f-20b2cefaa83e"},"vehicle_type_id":"4","last_reported":1760893652,"current_range_meters":16400,"station_id":"ce4bht12rcd13ifvqi60","pricing_plan_id":"cebpf4jnsgd1na2vs0mg"},{"bike_id":"ad9ff92d-a73f-4591-b6d4-bb3f850fa8bd","system_id":"levelo_inurba_marseille","lat":43.30931,"lon":5.40053,"is_reserved":false,"is_disabled":false,"rental_uris":{"android":"levelo://app?vid=ad9ff92d-a73f-4591-b6d4-bb3f850fa8bd","ios":"levelo://app?vid=ad9ff92d-a73f-4591-b6d4-bb3f850fa8bd"},"vehicle_type_id":"4","last_reported":1760893652,"current_range_meters":16400,"station_id":"","pricing_plan_id":"cebpf4jnsgd1na2vs0mg"},{"bike_id":"b7ddea43-28dc-4fbe-a7ed-b00d6badff2a","system_id":"levelo_inurba_marseille","lat":43.29029,"lon":5.3755,"is_reserved":false,"is_disabled":true,"rental_uris":{"android":"levelo://app?vid=b7ddea43-28dc-4fbe-a7ed-b00d6badff2a","ios":"levelo://app?vid=b7ddea43-28dc-4fbe-a7ed-b00d6badff2a"},"vehicle_type_id":"4","last_reported":1760893652,"current_range_meters":16800,"station_id":"ce4bh692rcd13ifvqe90","pricing_plan_id":"cebpf4jnsgd1na2vs0mg"},{"bike_id":"0000b6d3-e83a-4149-90d5-c0999f573ff8","system_id":"levelo_inurba_marseille","lat":43.32091,"lon":5.36778,"is_reserved":false,"is_disabled":false,"rental_uris":{"android":"levelo://app?vid=0000b6d3-e83a-4149-90d5-c0999f573ff8","ios":"levelo://app?vid=0000b6d3-e83a-4149-90d5-c0999f573ff8"},"vehicle_type_id":"4","last_reported":1760893652,"current_range_meters":16800,"station_id":"ce4bhrh2rcd13ifvqhug","pricing_plan_id":"cebpf4jnsgd1na2vs0mg"},{"bike_id":"60a96169-ebb0-48ab-a637-6eb196e98ecb","system_id":"levelo_inurba_marseille","lat":43.284058,"lon":5.375068,"is_reserved":false,"is_disabled":false,"rental_uris":{"android":"levelo://app?vid=60a96169-ebb0-48ab-a637-6eb196e98ecb","ios":"levelo://app?vid=60a96169-ebb0-48ab-a637-6eb196e98ecb"},"vehicle_type_id":"4","last_reported":1760893652,"current_range_meters":16800,"station_id":"ce4bh412rcd13ifvqds0","pricing_plan_id":"cebpf4jnsgd1na2vs0mg"},{"bike_id":"a29f1d1c-8678-4c5a-8127-f1cf8b92a75a","system_id":"levelo_inurba_marseille","lat":43.30299,"lon":5.3688,"is_reserved":false,"is_disabled":false,"rental_uris":{"android":"levelo://app?vid=a29f1d1c-8678-4c5a-8127-f1cf8b92a75a","ios":"levelo://app?vid=a29f1d1c-8678-4c5a-8127-f1cf8b92a75a"},"vehicle_type_id":"4","last_reported":1760893652,"current_range_meters":16800,"station_id":"ce4bgqh2rcd13ifvqc5g","pricing_plan_id":"cebpf4jnsgd1na2vs0mg"},{"bike_id":"1c793ff8-f220-4dc8-b3c2-052cc5476246","system_id":"levelo_inurba_marseille","lat":43.29262,"lon":5.38452,"is_reserved":false,"is_disabled":false,"rental_uris":{"android":"levelo://app?vid=1c793ff8-f220-4dc8-b3c2-052cc5476246","ios":"levelo://app?vid=1c793ff8-f220-4dc8-b3c2-052cc5476246"},"vehicle_type_id":"4","last_reported":1760893652,"current_range_meters":16800,"station_id":"ce4bh692rcd13ifvqea0","pricing_plan_id":"cebpf4jnsgd1na2vs0mg"},{"bike_id":"c7cc45f2-4783-422a-851d-f6f8e4005017","system_id":"levelo_inurba_marseille","lat":43.29031,"lon":5.39931,"is_reserved":false,"is_disabled":false,"rental_uris":{"android":"levelo://app?vid=c7cc45f2-4783-422a-851d-f6f8e4005017","ios":"levelo://app?vid=c7cc45f2-4783-422a-851d-f6f8e4005017"},"vehicle_type_id":"4","last_reported":1760893652,"current_range_meters":16800,"station_id":"ce4bh392rcd13ifvqdm0","pricing_plan_id":"cebpf4jnsgd1na2vs0mg"},{"bike_id":"b64f5a90-0c5f-4ae5-b1e4-8d412cb049d3","system_id":"levelo_inurba_marseille","lat":43.27358,"lon":5.41517,"is_reserved":false,"is_disabled":false,"rental_uris":{"android":"levelo://app?vid=b64f5a90-0c5f-4ae5-b1e4-8d412cb049d3","ios":"levelo://app?vid=b64f5a90-0c5f-4ae5-b1e4-8d412cb049d3"},"vehicle_type_id":"4","last_reported":1760893652,"current_range_meters":16800,"station_id":"","pricing_plan_id":"cebpf4jnsgd1na2vs0mg"},{"bike_id":"348ab8cc-81cc-4702-b12d-7027572c1935","system_id":"levelo_inurba_marseille","lat":43.27381,"lon":5.36245,"is_reserved":false,"is_disabled":true,"rental_uris":{"android":"levelo://app?vid=348ab8cc-81cc-4702-b12d-7027572c1935","ios":"levelo://app?vid=348ab8cc-81cc-4702-b12d-7027572c1935"},"vehicle_type_id":"4","last_reported":1760893652,"current_range_meters":16800,"station_id":"ce4bhbh2rcd13ifvqeo0","pricing_plan_id":"cebpf4jnsgd1na2vs0mg"},{"bike_id":"8f5b4e3f-d0c8-438b-955e-3fd6c08bc9d3","system_id":"levelo_inurba_marseille","lat":43.241678,"lon":5.363966,"is_reserved":false,"is_disabled":false,"rental_uris":{"android":"levelo://app?vid=8f5b4e3f-d0c8-438b-955e-3fd6c08bc9d3","ios":"levelo://app?vid=8f5b4e3f-d0c8-438b-955e-3fd6c08bc9d3"},"vehicle_type_id":"4","last_reported":1760893652,"current_range_meters":16800,"station_id":"cpo36qri1sfpv3e86is0","pricing_plan_id":"cebpf4jnsgd1na2vs0mg"},{"bike_id":"1e17cb86-7789-4fec-a2ba-ee494da3acd1","system_id":"levelo_inurba_marseille","lat":43.2315,"lon":5.437226,"is_reserved":false,"is_disabled":false,"rental_uris":{"android":"levelo://app?vid=1e17cb86-7789-4fec-a2ba-ee494da3acd1","ios":"levelo://app?vid=1e17cb86-7789-4fec-a2ba-ee494da3acd1"},"vehicle_type_id":"4","last_reported":1760893652,"current_range_meters":16800,"station_id":"ce4bhmp2rcd13ifvqgog","pricing_plan_id":"cebpf4jnsgd1na2vs0mg"},{"bike_id":"faf83fdc-d4d8-49e9-981d-f80ed57cdac5","system_id":"levelo_inurba_marseille","lat":43.29783,"lon":5.39337,"is_reserved":false,"is_disabled":false,"rental_uris":{"android":"levelo://app?vid=faf83fdc-d4d8-49e9-981d-f80ed57cdac5","ios":"levelo://app?vid=faf83fdc-d4d8-49e9-981d-f80ed57cdac5"},"vehicle_type_id":"4","last_reported":1760893652,"current_range_meters":16800,"station_id":"chh1huq6cuj3fo74tm60","pricing_plan_id":"cebpf4jnsgd1na2vs0mg"},{"bike_id":"f67473c6-f857-4f93-a52e-1973f9a388cd","system_id":"levelo_inurba_marseille","lat":43.29544,"lon":5.38547,"is_reserved":false,"is_disabled":false,"rental_uris":{"android":"levelo://app?vid=f67473c6-f857-4f93-a52e-1973f9a388cd","ios":"levelo://app?vid=f67473c6-f857-4f93-a52e-1973f9a388cd"},"vehicle_type_id":"4","last_reported":1760893652,"current_range_meters":16800,"station_id":"ce4bgih2rcd13ifvqba0","pricing_plan_id":"cebpf4jnsgd1na2vs0mg"},{"bike_id":"59aed43f-13a8-4014-b2c4-38bf40a4080c","system_id":"levelo_inurba_marseille","lat":43.26802,"lon":5.402636,"is_reserved":false,"is_disabled":true,"rental_uris":{"android":"levelo://app?vid=59aed43f-13a8-4014-b2c4-38bf40a4080c","ios":"levelo://app?vid=59aed43f-13a8-4014-b2c4-38bf40a4080c"},"vehicle_type_id":"4","last_reported":1760893652,"current_range_meters":17200,"station_id":"ce501612rcd8frsf0b60","pricing_plan_id":"cebpf4jnsgd1na2vs0mg"},{"bike_id":"ac1b079a-3f7a-4042-a456-fd9a0ff0320e","system_id":"levelo_inurba_marseille","lat":43.29963,"lon":5.38499,"is_reserved":false,"is_disabled":false,"rental_uris":{"android":"levelo://app?vid=ac1b079a-3f7a-4042-a456-fd9a0ff0320e","ios":"levelo://app?vid=ac1b079a-3f7a-4042-a456-fd9a0ff0320e"},"vehicle_type_id":"4","last_reported":1760893652,"current_range_meters":17200,"station_id":"ce4bgj92rcd13ifvqbd0","pricing_plan_id":"cebpf4jnsgd1na2vs0mg"},{"bike_id":"bb211116-29a7-4e48-93ed-d4ab1a1c4665","system_id":"levelo_inurba_marseille","lat":43.25938,"lon":5.409,"is_reserved":false,"is_disabled":false,"rental_uris":{"android":"levelo://app?vid=bb211116-29a7-4e48-93ed-d4ab1a1c4665","ios":"levelo://app?vid=bb211116-29a7-4e48-93ed-d4ab1a1c4665"},"vehicle_type_id":"4","last_reported":1760893652,"current_range_meters":17200,"station_id":"ce4bhm92rcd13ifvqglg","pricing_plan_id":"cebpf4jnsgd1na2vs0mg"},{"bike_id":"c38d4779-18e1-43c4-a71d-5d81c3a33a62","system_id":"levelo_inurba_marseille","lat":43.29766,"lon":5.38093,"is_reserved":false,"is_disabled":true,"rental_uris":{"android":"levelo://app?vid=c38d4779-18e1-43c4-a71d-5d81c3a33a62","ios":"levelo://app?vid=c38d4779-18e1-43c4-a71d-5d81c3a33a62"},"vehicle_type_id":"4","last_reported":1760893652,"current_range_meters":17200,"station_id":"ce4bgip2rcd13ifvqbb0","pricing_plan_id":"cebpf4jnsgd1na2vs0mg"},{"bike_id":"6c89110f-da9b-4661-9840-bf8b75fe6255","system_id":"levelo_inurba_marseille","lat":43.30884,"lon":5.39658,"is_reserved":false,"is_disabled":false,"rental_uris":{"android":"levelo://app?vid=6c89110f-da9b-4661-9840-bf8b75fe6255","ios":"levelo://app?vid=6c89110f-da9b-4661-9840-bf8b75fe6255"},"vehicle_type_id":"4","last_reported":1760893652,"current_range_meters":17200,"station_id":"ce4bh012rcd13ifvqcv0","pricing_plan_id":"cebpf4jnsgd1na2vs0mg"},{"bike_id":"10d8f9b2-43ec-44c7-ac26-a2089e0bb2c8","system_id":"levelo_inurba_marseille","lat":43.24668,"lon":5.38174,"is_reserved":false,"is_disabled":false,"rental_uris":{"android":"levelo://app?vid=10d8f9b2-43ec-44c7-ac26-a2089e0bb2c8","ios":"levelo://app?vid=10d8f9b2-43ec-44c7-ac26-a2089e0bb2c8"},"vehicle_type_id":"4","last_reported":1760893652,"current_range_meters":17200,"station_id":"ce4bhih2rcd13ifvqfr0","pricing_plan_id":"cebpf4jnsgd1na2vs0mg"},{"bike_id":"9d7942b1-c20d-4ca2-b3dd-8a1bd5989464","system_id":"levelo_inurba_marseille","lat":43.28835,"lon":5.39327,"is_reserved":false,"is_disabled":false,"rental_uris":{"android":"levelo://app?vid=9d7942b1-c20d-4ca2-b3dd-8a1bd5989464","ios":"levelo://app?vid=9d7942b1-c20d-4ca2-b3dd-8a1bd5989464"},"vehicle_type_id":"4","last_reported":1760893652,"current_range_meters":17200,"station_id":"ce4bh2p2rcd13ifvqdi0","pricing_plan_id":"cebpf4jnsgd1na2vs0mg"},{"bike_id":"c64cf9e7-7aa1-420d-a71d-83473319ba5f","system_id":"levelo_inurba_marseille","lat":43.29069,"lon":5.37161,"is_reserved":false,"is_disabled":false,"rental_uris":{"android":"levelo://app?vid=c64cf9e7-7aa1-420d-a71d-83473319ba5f","ios":"levelo://app?vid=c64cf9e7-7aa1-420d-a71d-83473319ba5f"},"vehicle_type_id":"4","last_reported":1760893652,"current_range_meters":17200,"station_id":"ce4bh5p2rcd13ifvqe4g","pricing_plan_id":"cebpf4jnsgd1na2vs0mg"},{"bike_id":"d80a8315-5108-453f-a407-278f47d1bb18","system_id":"levelo_inurba_marseille","lat":43.23184,"lon":5.35535,"is_reserved":false,"is_disabled":false,"rental_uris":{"android":"levelo://app?vid=d80a8315-5108-453f-a407-278f47d1bb18","ios":"levelo://app?vid=d80a8315-5108-453f-a407-278f47d1bb18"},"vehicle_type_id":"4","last_reported":1760893652,"current_range_meters":17600,"station_id":"ce4bhu92rcd13ifvqi70","pricing_plan_id":"cebpf4jnsgd1na2vs0mg"},{"bike_id":"909d1a0f-5535-4e0e-bef7-264d0b64c3ae","system_id":"levelo_inurba_marseille","lat":43.30237,"lon":5.40065,"is_reserved":false,"is_disabled":true,"rental_uris":{"android":"levelo://app?vid=909d1a0f-5535-4e0e-bef7-264d0b64c3ae","ios":"levelo://app?vid=909d1a0f-5535-4e0e-bef7-264d0b64c3ae"},"vehicle_type_id":"4","last_reported":1760893652,"current_range_meters":17600,"station_id":"ce4bgvh2rcd13ifvqcs0","pricing_plan_id":"cebpf4jnsgd1na2vs0mg"},{"bike_id":"5a5a6cd4-edff-4e0b-88e4-661722aece21","system_id":"levelo_inurba_marseille","lat":43.31377,"lon":5.38504,"is_reserved":false,"is_disabled":false,"rental_uris":{"android":"levelo://app?vid=5a5a6cd4-edff-4e0b-88e4-661722aece21","ios":"levelo://app?vid=5a5a6cd4-edff-4e0b-88e4-661722aece21"},"vehicle_type_id":"4","last_reported":1760893652,"current_range_meters":17600,"station_id":"ce4bgt92rcd13ifvqcf0","pricing_plan_id":"cebpf4jnsgd1na2vs0mg"},{"bike_id":"78fe83c7-5376-41e5-afa1-483e220954a6","system_id":"levelo_inurba_marseille","lat":43.291836,"lon":5.370652,"is_reserved":false,"is_disabled":false,"rental_uris":{"android":"levelo://app?vid=78fe83c7-5376-41e5-afa1-483e220954a6","ios":"levelo://app?vid=78fe83c7-5376-41e5-afa1-483e220954a6"},"vehicle_type_id":"4","last_reported":1760893652,"current_range_meters":17600,"station_id":"","pricing_plan_id":"cebpf4jnsgd1na2vs0mg"},{"bike_id":"11adb700-2f87-4aac-9ea7-5dcbff0ad5d7","system_id":"levelo_inurba_marseille","lat":43.255855,"lon":5.382268,"is_reserved":false,"is_disabled":false,"rental_uris":{"android":"levelo://app?vid=11adb700-2f87-4aac-9ea7-5dcbff0ad5d7","ios":"levelo://app?vid=11adb700-2f87-4aac-9ea7-5dcbff0ad5d7"},"vehicle_type_id":"4","last_reported":1760893652,"current_range_meters":17600,"station_id":"ce4bhih2rcd13ifvqfs0","pricing_plan_id":"cebpf4jnsgd1na2vs0mg"},{"bike_id":"6e8ed827-a6f7-46f1-ad28-2f0468b71691","system_id":"levelo_inurba_marseille","lat":43.32104,"lon":5.36783,"is_reserved":false,"is_disabled":true,"rental_uris":{"android":"levelo://app?vid=6e8ed827-a6f7-46f1-ad28-2f0468b71691","ios":"levelo://app?vid=6e8ed827-a6f7-46f1-ad28-2f0468b71691"},"vehicle_type_id":"4","last_reported":1760893652,"current_range_meters":17600,"station_id":"ce4bhrh2rcd13ifvqhug","pricing_plan_id":"cebpf4jnsgd1na2vs0mg"},{"bike_id":"5cc22663-6d39-4b43-a50e-d3540fc1e6d4","system_id":"levelo_inurba_marseille","lat":43.29967,"lon":5.38485,"is_reserved":false,"is_disabled":false,"rental_uris":{"android":"levelo://app?vid=5cc22663-6d39-4b43-a50e-d3540fc1e6d4","ios":"levelo://app?vid=5cc22663-6d39-4b43-a50e-d3540fc1e6d4"},"vehicle_type_id":"4","last_reported":1760893652,"current_range_meters":17600,"station_id":"ce4bgj92rcd13ifvqbd0","pricing_plan_id":"cebpf4jnsgd1na2vs0mg"},{"bike_id":"6548d380-a1d3-44ac-bc09-e277315ef487","system_id":"levelo_inurba_marseille","lat":43.292582,"lon":5.37633,"is_reserved":false,"is_disabled":false,"rental_uris":{"android":"levelo://app?vid=6548d380-a1d3-44ac-bc09-e277315ef487","ios":"levelo://app?vid=6548d380-a1d3-44ac-bc09-e277315ef487"},"vehicle_type_id":"4","last_reported":1760893652,"current_range_meters":17600,"station_id":"ce4bgi12rcd13ifvqb80","pricing_plan_id":"cebpf4jnsgd1na2vs0mg"},{"bike_id":"a470e1e9-0594-4b5c-9b26-2114268fb06d","system_id":"levelo_inurba_marseille","lat":43.29864,"lon":5.36291,"is_reserved":false,"is_disabled":true,"rental_uris":{"android":"levelo://app?vid=a470e1e9-0594-4b5c-9b26-2114268fb06d","ios":"levelo://app?vid=a470e1e9-0594-4b5c-9b26-2114268fb06d"},"vehicle_type_id":"4","last_reported":1760893652,"current_range_meters":17600,"station_id":"ce4bgpp2rcd13ifvqc3g","pricing_plan_id":"cebpf4jnsgd1na2vs0mg"},{"bike_id":"faa3e668-6719-4125-8206-72a0a37494c0","system_id":"levelo_inurba_marseille","lat":43.26921,"lon":5.40232,"is_reserved":false,"is_disabled":true,"rental_uris":{"android":"levelo://app?vid=faa3e668-6719-4125-8206-72a0a37494c0","ios":"levelo://app?vid=faa3e668-6719-4125-8206-72a0a37494c0"},