{"last_updated":1737227149,"ttl":60,"version":"2.2","data":{"bikes":[{"bike_id":"da7efe5c-a54d-4d59-b01d-febc88188125","system_id":"levelo_inurba_marseille","lat":43.30156,"lon":5.37443,"is_reserved":false,"is_disabled":false,"rental_uris":{"android":"levelo://app?vid=da7efe5c-a54d-4d59-b01d-febc88188125","ios":"levelo://app?vid=da7efe5c-a54d-4d59-b01d-febc88188125"},"vehicle_type_id":"4","last_reported":1737227149,"current_range_meters":26000,"station_id":"ce4bgs92rcd13ifvqcc0","pricing_plan_id":"cebpf4jnsgd1na2vs0mg"},{"bike_id":"a2acfcf5-a2f4-4227-800b-90a2385f3572","system_id":"levelo_inurba_marseille","lat":43.29073,"lon":5.37158,"is_reserved":false,"is_disabled":false,"rental_uris":{"android":"levelo://app?vid=a2acfcf5-a2f4-4227-800b-90a2385f3572","ios":"levelo://app?vid=a2acfcf5-a2f4-4227-800b-90a2385f3572"},"vehicle_type_id":"4","last_reported":1737227149,"current_range_meters":38800,"station_id":"ce4bh5p2rcd13ifvqe4g","pricing_plan_id":"cebpf4jnsgd1na2vs0mg"},{"bike_id":"6546dee9-d38f-4171-a07d-c255cc5fb27e","system_id":"levelo_inurba_marseille","lat":43.2511,"lon":5.40316,"is_reserved":false,"is_disabled":false,"rental_uris":{"android":"levelo://app?vid=6546dee9-d38f-4171-a07d-c255cc5fb27e","ios":"levelo://app?vid=6546dee9-d38f-4171-a07d-c255cc5fb27e"},"vehicle_type_id":"4","last_reported":1737227149,"current_range_meters":28400,"station_id":"ce4bhlh2rcd13ifvqgig","pricing_plan_id":"cebpf4jnsgd1na2vs0mg"},{"bike_id":"afbd402b-f228-467c-9014-d1c220bfa174","system_id":"levelo_inurba_marseille","lat":43.29238,"lon":5.3598,"is_reserved":false,"is_disabled":false,"rental_uris":{"android":"levelo://app?vid=afbd402b-f228-467c-9014-d1c220bfa174","ios":"levelo://app?vid=afbd402b-f228-467c-9014-d1c220bfa174"},"vehicle_type_id":"4","last_reported":1737227149,"current_range_meters":37600,"station_id":"","pricing_plan_id":"cebpf4jnsgd1na2vs0mg"},{"bike_id":"1cb71309-29df-40a0-83bb-abcb39431bb4","system_id":"levelo_inurba_marseille","lat":43.28724,"lon":5.3794,"is_reserved":false,"is_disabled":false,"rental_uris":{"android":"levelo://app?vid=1cb71309-29df-40a0-83bb-abcb39431bb4","ios":"levelo://app?vid=1cb71309-29df-40a0-83bb-abcb39431bb4"},"vehicle_type_id":"4","last_reported":1737227149,"current_range_meters":22400,"station_id":"ce4bh9p2rcd13ifvqec0","pricing_plan_id":"cebpf4jnsgd1na2vs0mg"},{"bike_id":"48dc0dc0-0476-4a51-ab5e-63119005b192","system_id":"levelo_inurba_marseille","lat":43.295215,"lon":5.3905,"is_reserved":false,"is_disabled":false,"rental_uris":{"android":"levelo://app?vid=48dc0dc0-0476-4a51-ab5e-63119005b192","ios":"levelo://app?vid=48dc0dc0-0476-4a51-ab5e-63119005b192"},"vehicle_type_id":"4","last_reported":1737227149,"current_range_meters":25600,"station_id":"ce4bh3p2rcd13ifvqdp0","pricing_plan_id":"cebpf4jnsgd1na2vs0mg"},{"bike_id":"a5cfd84d-4cae-4412-b199-dcb982d64799","system_id":"levelo_inurba_marseille","lat":43.28445,"lon":5.39183,"is_reserved":false,"is_disabled":true,"rental_uris":{"android":"levelo://app?vid=a5cfd84d-4cae-4412-b199-dcb982d64799","ios":"levelo://app?vid=a5cfd84d-4cae-4412-b199-dcb982d64799"},"vehicle_type_id":"4","last_reported":1737227149,"current_range_meters":1200,"station_id":"ce4bhoh2rcd13ifvqh5g","pricing_plan_id":"cebpf4jnsgd1na2vs0mg"},{"bike_id":"061af7aa-a512-4527-8785-52f8a5b22290","system_id":"levelo_inurba_marseille","lat":43.28676,"lon":5.37321,"is_reserved":false,"is_disabled":false,"rental_uris":{"android":"levelo://app?vid=061af7aa-a512-4527-8785-52f8a5b22290","ios":"levelo://app?vid=061af7aa-a512-4527-8785-52f8a5b22290"},"vehicle_type_id":"4","last_reported":1737227149,"current_range_meters":7200,"station_id":"","pricing_plan_id":"cebpf4jnsgd1na2vs0mg"},{"bike_id":"02ce3e8e-6ef8-48e8-8e39-50ed964e3fb8","system_id":"levelo_inurba_marseille","lat":43.29421,"lon":5.39396,"is_reserved":false,"is_disabled":true,"rental_uris":{"android":"levelo://app?vid=02ce3e8e-6ef8-48e8-8e39-50ed964e3fb8","ios":"levelo://app?vid=02ce3e8e-6ef8-48e8-8e39-50ed964e3fb8"},"vehicle_type_id":"4","last_reported":1737227149,"current_range_meters":0,"station_id":"","pricing_plan_id":"cebpf4jnsgd1na2vs0mg"},{"bike_id":"12c9b135-5b10-4666-b14c-9b21c31e1a34","system_id":"levelo_inurba_marseille","lat":43.26033,"lon":5.37557,"is_reserved":false,"is_disabled":false,"rental_uris":{"android":"levelo://app?vid=12c9b135-5b10-4666-b14c-9b21c31e1a34","ios":"levelo://app?vid=12c9b135-5b10-4666-b14c-9b21c31e1a34"},"vehicle_type_id":"4","last_reported":1737227149,"current_range_meters":28400,"station_id":"ce4bhgh2rcd13ifvqfa0","pricing_plan_id":"cebpf4jnsgd1na2vs0mg"},{"bike_id":"4fb6a51d-9d4a-4bf2-b0b9-93d4d4401950","system_id":"levelo_inurba_marseille","lat":43.32497,"lon":5.36552,"is_reserved":false,"is_disabled":false,"rental_uris":{"android":"levelo://app?vid=4fb6a51d-9d4a-4bf2-b0b9-93d4d4401950","ios":"levelo://app?vid=4fb6a51d-9d4a-4bf2-b0b9-93d4d4401950"},"vehicle_type_id":"4","last_reported":1737227149,"current_range_meters":31200,"station_id":"ce4bhs12rcd13ifvqhvg","pricing_plan_id":"cebpf4jnsgd1na2vs0mg"},{"bike_id":"2d609880-f86c-404f-816e-b645f857eeae","system_id":"levelo_inurba_marseille","lat":43.29191,"lon":5.39313,"is_reserved":false,"is_disabled":false,"rental_uris":{"android":"levelo://app?vid=2d609880-f86c-404f-816e-b645f857eeae","ios":"levelo://app?vid=2d609880-f86c-404f-816e-b645f857eeae"},"vehicle_type_id":"4","last_reported":1737227149,"current_range_meters":31200,"station_id":"ce4bh192rcd13ifvqdd0","pricing_plan_id":"cebpf4jnsgd1na2vs0mg"},{"bike_id":"7ee1237b-29eb-4929-908c-8cd94366fa7d","system_id":"levelo_inurba_marseille","lat":43.31237,"lon":5.36842,"is_reserved":false,"is_disabled":false,"rental_uris":{"android":"levelo://app?vid=7ee1237b-29eb-4929-908c-8cd94366fa7d","ios":"levelo://app?vid=7ee1237b-29eb-4929-908c-8cd94366fa7d"},"vehicle_type_id":"4","last_reported":1737227149,"current_range_meters":12800,"station_id":"ce4bgl92rcd13ifvqbq0","pricing_plan_id":"cebpf4jnsgd1na2vs0mg"},{"bike_id":"68cb969c-f4a1-4065-80b9-f18c8c18b4d8","system_id":"levelo_inurba_marseille","lat":43.29848,"lon":5.36286,"is_reserved":false,"is_disabled":false,"rental_uris":{"android":"levelo://app?vid=68cb969c-f4a1-4065-80b9-f18c8c18b4d8","ios":"levelo://app?vid=68cb969c-f4a1-4065-80b9-f18c8c18b4d8"},"vehicle_type_id":"4","last_reported":1737227149,"current_range_meters":25600,"station_id":"ce4bgpp2rcd13ifvqc3g","pricing_plan_id":"cebpf4jnsgd1na2vs0mg"},{"bike_id":"f7a63ba1-5b18-4d91-9187-68eace2ebd04","system_id":"levelo_inurba_marseille","lat":43.30607,"lon":5.37225,"is_reserved":false,"is_disabled":false,"rental_uris":{"android":"levelo://app?vid=f7a63ba1-5b18-4d91-9187-68eace2ebd04","ios":"levelo://app?vid=f7a63ba1-5b18-4d91-9187-68eace2ebd04"},"vehicle_type_id":"4","last_reported":1737227149,"current_range_meters":26800,"station_id":"ce4bgqh2rcd13ifvqc4g","pricing_plan_id":"cebpf4jnsgd1na2vs0mg"},{"bike_id":"2cdbac4a-b284-4379-8b89-6af10c9acbde","system_id":"levelo_inurba_marseille","lat":43.308282,"lon":5.382096,"is_reserved":false,"is_disabled":false,"rental_uris":{"android":"levelo://app?vid=2cdbac4a-b284-4379-8b89-6af10c9acbde","ios":"levelo://app?vid=2cdbac4a-b284-4379-8b89-6af10c9acbde"},"vehicle_type_id":"4","last_reported":1737227149,"current_range_meters":27200,"station_id":"ce4bgt12rcd13ifvqce0","pricing_plan_id":"cebpf4jnsgd1na2vs0mg"},{"bike_id":"6405abd0-9f93-43f6-b935-33e57255cfd0","system_id":"levelo_inurba_marseille","lat":43.30358,"lon":5.41882,"is_reserved":false,"is_disabled":false,"rental_uris":{"android":"levelo://app?vid=6405abd0-9f93-43f6-b935-33e57255cfd0","ios":"levelo://app?vid=6405abd0-9f93-43f6-b935-33e57255cfd0"},"vehicle_type_id":"4","last_reported":1737227149,"current_range_meters":4000,"station_id":"ce4bhop2rcd13ifvqh7g","pricing_plan_id":"cebpf4jnsgd1na2vs0mg"},{"bike_id":"778573e3-5668-46b5-8620-b750726d9fa6","system_id":"levelo_inurba_marseille","lat":43.30599,"lon":5.3722,"is_reserved":false,"is_disabled":false,"rental_uris":{"android":"levelo://app?vid=778573e3-5668-46b5-8620-b750726d9fa6","ios":"levelo://app?vid=778573e3-5668-46b5-8620-b750726d9fa6"},"vehicle_type_id":"4","last_reported":1737227149,"current_range_meters":24800,"station_id":"ce4bgqh2rcd13ifvqc4g","pricing_plan_id":"cebpf4jnsgd1na2vs0mg"},{"bike_id":"e8c020ad-3814-497a-bdf1-eabaf49410a7","system_id":"levelo_inurba_marseille","lat":43.28282,"lon":5.35082,"is_reserved":false,"is_disabled":false,"rental_uris":{"android":"levelo://app?vid=e8c020ad-3814-497a-bdf1-eabaf49410a7","ios":"levelo://app?vid=e8c020ad-3814-497a-bdf1-eabaf49410a7"},"vehicle_type_id":"4","last_reported":1737227149,"current_range_meters":18800,"station_id":"ce4bhbp2rcd13ifvqerg","pricing_plan_id":"cebpf4jnsgd1na2vs0mg"},{"bike_id":"763ed4fc-16fd-47a0-aedf-62c028daa66f","system_id":"levelo_inurba_marseille","lat":43.3639,"lon":5.35557,"is_reserved":false,"is_disabled":false,"rental_uris":{"android":"levelo://app?vid=763ed4fc-16fd-47a0-aedf-62c028daa66f","ios":"levelo://app?vid=763ed4fc-16fd-47a0-aedf-62c028daa66f"},"vehicle_type_id":"4","last_reported":1737227149,"current_range_meters":17200,"station_id":"","pricing_plan_id":"cebpf4jnsgd1na2vs0mg"},{"bike_id":"23af0b39-e151-454d-95df-fe8caca6e2f7","system_id":"levelo_inurba_marseille","lat":43.30915,"lon":5.36857,"is_reserved":false,"is_disabled":false,"rental_uris":{"android":"levelo://app?vid=23af0b39-e151-454d-95df-fe8caca6e2f7","ios":"levelo://app?vid=23af0b39-e151-454d-95df-fe8caca6e2f7"},"vehicle_type_id":"4","last_reported":1737227149,"current_range_meters":38800,"station_id":"ce4bgn92rcd13ifvqbvg","pricing_plan_id":"cebpf4jnsgd1na2vs0mg"},{"bike_id":"b42d349b-8767-4500-922c-77c53d2c4648","system_id":"levelo_inurba_marseille","lat":43.26047,"lon":5.39388,"is_reserved":false,"is_disabled":false,"rental_uris":{"android":"levelo://app?vid=b42d349b-8767-4500-922c-77c53d2c4648","ios":"levelo://app?vid=b42d349b-8767-4500-922c-77c53d2c4648"},"vehicle_type_id":"4","last_reported":1737227149,"current_range_meters":21600,"station_id":"ce4bhh92rcd13ifvqfj0","pricing_plan_id":"cebpf4jnsgd1na2vs0mg"},{"bike_id":"26ab88c5-3e61-48ec-b336-7b81daddc8e8","system_id":"levelo_inurba_marseille","lat":43.28366,"lon":5.38623,"is_reserved":false,"is_disabled":false,"rental_uris":{"android":"levelo://app?vid=26ab88c5-3e61-48ec-b336-7b81daddc8e8","ios":"levelo://app?vid=26ab88c5-3e61-48ec-b336-7b81daddc8e8"},"vehicle_type_id":"4","last_reported":1737227149,"current_range_meters":27200,"station_id":"ce4bh492rcd13ifvqdvg","pricing_plan_id":"cebpf4jnsgd1na2vs0mg"},{"bike_id":"415d90fa-e6d8-4b54-8c36-5e9472ab1fc5","system_id":"levelo_inurba_marseille","lat":43.29262,"lon":5.38443,"is_reserved":false,"is_disabled":false,"rental_uris":{"android":"levelo://app?vid=415d90fa-e6d8-4b54-8c36-5e9472ab1fc5","ios":"levelo://app?vid=415d90fa-e6d8-4b54-8c36-5e9472ab1fc5"},"vehicle_type_id":"4","last_reported":1737227149,"current_range_meters":7200,"station_id":"ce4bh692rcd13ifvqea0","pricing_plan_id":"cebpf4jnsgd1na2vs0mg"},{"bike_id":"e74d42f0-21b2-4108-b03e-fcf7ef7c9e6d","system_id":"levelo_inurba_marseille","lat":43.24671,"lon":5.38142,"is_reserved":false,"is_disabled":false,"rental_uris":{"android":"levelo://app?vid=e74d42f0-21b2-4108-b03e-fcf7ef7c9e6d","ios":"levelo://app?vid=e74d42f0-21b2-4108-b03e-fcf7ef7c9e6d"},"vehicle_type_id":"4","last_reported":1737227149,"current_range_meters":14400,"station_id":"ce4bhih2rcd13ifvqfr0","pricing_plan_id":"cebpf4jnsgd1na2vs0mg"},{"bike_id":"f3c94274-f861-4c89-8bb1-1ebe1a531935","system_id":"levelo_inurba_marseille","lat":43.2502,"lon":5.38924,"is_reserved":false,"is_disabled":false,"rental_uris":{"android":"levelo://app?vid=f3c94274-f861-4c89-8bb1-1ebe1a531935","ios":"levelo://app?vid=f3c94274-f861-4c89-8bb1-1ebe1a531935"},"vehicle_type_id":"4","last_reported":1737227149,"current_range_meters":38800,"station_id":"ce4bhgp2rcd13ifvqfd0","pricing_plan_id":"cebpf4jnsgd1na2vs0mg"},{"bike_id":"ea820ade-d81d-428e-82b9-7f165f7e8e75","system_id":"levelo_inurba_marseille","lat":43.32358,"lon":5.36761,"is_reserved":false,"is_disabled":false,"rental_uris":{"android":"levelo://app?vid=ea820ade-d81d-428e-82b9-7f165f7e8e75","ios":"levelo://app?vid=ea820ade-d81d-428e-82b9-7f165f7e8e75"},"vehicle_type_id":"4","last_reported":1737227149,"current_range_meters":21600,"station_id":"ce4bhsh2rcd13ifvqi2g","pricing_plan_id":"cebpf4jnsgd1na2vs0mg"},{"bike_id":"c29020e0-83ef-4b06-ac4f-c4422257f84a","system_id":"levelo_inurba_marseille","lat":43.363858,"lon":5.35638,"is_reserved":false,"is_disabled":false,"rental_uris":{"android":"levelo://app?vid=c29020e0-83ef-4b06-ac4f-c4422257f84a","ios":"levelo://app?vid=c29020e0-83ef-4b06-ac4f-c4422257f84a"},"vehicle_type_id":"4","last_reported":1737227149,"current_range_meters":22800,"station_id":"","pricing_plan_id":"cebpf4jnsgd1na2vs0mg"},{"bike_id":"5785e1fa-eae8-411c-9410-6f9b8c3a6d28","system_id":"levelo_inurba_marseille","lat":43.23191,"lon":5.35554,"is_reserved":false,"is_disabled":false,"rental_uris":{"android":"levelo://app?vid=5785e1fa-eae8-411c-9410-6f9b8c3a6d28","ios":"levelo://app?vid=5785e1fa-eae8-411c-9410-6f9b8c3a6d28"},"vehicle_type_id":"4","last_reported":1737227149,"current_range_meters":8800,"station_id":"ce4bhu92rcd13ifvqi70","pricing_plan_id":"cebpf4jnsgd1na2vs0mg"},{"bike_id":"23467ecc-03da-4936-961f-351fae98da1e","system_id":"levelo_inurba_marseille","lat":43.3043,"lon":5.38895,"is_reserved":false,"is_disabled":false,"rental_uris":{"android":"levelo://app?vid=23467ecc-03da-4936-961f-351fae98da1e","ios":"levelo://app?vid=23467ecc-03da-4936-961f-351fae98da1e"},"vehicle_type_id":"4","last_reported":1737227149,"current_range_meters":17200,"station_id":"ce4bgk12rcd13ifvqbi0","pricing_plan_id":"cebpf4jnsgd1na2vs0mg"},{"bike_id":"4d4ec566-516b-4793-a5be-68a8e0188dc4","system_id":"levelo_inurba_marseille","lat":43.33014,"lon":5.39052,"is_reserved":false,"is_disabled":false,"rental_uris":{"android":"levelo://app?vid=4d4ec566-516b-4793-a5be-68a8e0188dc4","ios":"levelo://app?vid=4d4ec566-516b-4793-a5be-68a8e0188dc4"},"vehicle_type_id":"4","last_reported":1737227149,"current_range_meters":38800,"station_id":"ce4bhr92rcd13ifvqhrg","pricing_plan_id":"cebpf4jnsgd1na2vs0mg"},{"bike_id":"b672b566-ae6e-4181-a2cb-0155be334a04","system_id":"levelo_inurba_marseille","lat":43.2893,"lon":5.36603,"is_reserved":false,"is_disabled":true,"rental_uris":{"android":"levelo://app?vid=b672b566-ae6e-4181-a2cb-0155be334a04","ios":"levelo://app?vid=b672b566-ae6e-4181-a2cb-0155be334a04"},"vehicle_type_id":"4","last_reported":1737227149,"current_range_meters":36800,"station_id":"ce4bhap2rcd13ifvqek0","pricing_plan_id":"cebpf4jnsgd1na2vs0mg"},{"bike_id":"4f7e72ca-419d-4030-a30d-49bcb011038e","system_id":"levelo_inurba_marseille","lat":43.28937,"lon":5.36642,"is_reserved":false,"is_disabled":false,"rental_uris":{"android":"levelo://app?vid=4f7e72ca-419d-4030-a30d-49bcb011038e","ios":"levelo://app?vid=4f7e72ca-419d-4030-a30d-49bcb011038e"},"vehicle_type_id":"4","last_reported":1737227149,"current_range_meters":28400,"station_id":"ce4bhap2rcd13ifvqek0","pricing_plan_id":"cebpf4jnsgd1na2vs0mg"},{"bike_id":"231f841f-a1ec-4be6-b98d-50e1fa0785de","system_id":"levelo_inurba_marseille","lat":43.29267,"lon":5.38448,"is_reserved":false,"is_disabled":false,"rental_uris":{"android":"levelo://app?vid=231f841f-a1ec-4be6-b98d-50e1fa0785de","ios":"levelo://app?vid=231f841f-a1ec-4be6-b98d-50e1fa0785de"},"vehicle_type_id":"4","last_reported":1737227149,"current_range_meters":38800,"station_id":"ce4bh692rcd13ifvqea0","pricing_plan_id":"cebpf4jnsgd1na2vs0mg"},{"bike_id":"4395dfba-4e3d-4b8b-aa73-f3e693689e94","system_id":"levelo_inurba_marseille","lat":43.25984,"lon":5.3866,"is_reserved":false,"is_disabled":false,"rental_uris":{"android":"levelo://app?vid=4395dfba-4e3d-4b8b-aa73-f3e693689e94","ios":"levelo://app?vid=4395dfba-4e3d-4b8b-aa73-f3e693689e94"},"vehicle_type_id":"4","last_reported":1737227149,"current_range_meters":26800,"station_id":"ce4bhih2rcd13ifvqfr0","pricing_plan_id":"cebpf4jnsgd1na2vs0mg"},{"bike_id":"1690ba2f-a90c-4ed8-b53c-f59932b9daca","system_id":"levelo_inurba_marseille","lat":43.27624,"lon":5.36105,"is_reserved":false,"is_disabled":false,"rental_uris":{"android":"levelo://app?vid=1690ba2f-a90c-4ed8-b53c-f59932b9daca","ios":"levelo://app?vid=1690ba2f-a90c-4ed8-b53c-f59932b9daca"},"vehicle_type_id":"4","last_reported":1737227149,"current_range_meters":38800,"station_id":"ce4bgj92rcd13ifvqbe0","pricing_plan_id":"cebpf4jnsgd1na2vs0mg"},{"bike_id":"c4e716a9-a2a2-4f4f-8127-37a0ede3fc8b","system_id":"levelo_inurba_marseille","lat":43.29622,"lon":5.377887,"is_reserved":false,"is_disabled":false,"rental_uris":{"android":"levelo://app?vid=c4e716a9-a2a2-4f4f-8127-37a0ede3fc8b","ios":"levelo://app?vid=c4e716a9-a2a2-4f4f-8127-37a0ede3fc8b"},"vehicle_type_id":"4","last_reported":1737227149,"current_range_meters":22000,"station_id":"ce4bgi92rcd13ifvqb90","pricing_plan_id":"cebpf4jnsgd1na2vs0mg"},{"bike_id":"df581145-fd95-4a77-a27c-2465bbb559bf","system_id":"levelo_inurba_marseille","lat":43.24661,"lon":5.38164,"is_reserved":false,"is_disabled":false,"rental_uris":{"android":"levelo://app?vid=df581145-fd95-4a77-a27c-2465bbb559bf","ios":"levelo://app?vid=df581145-fd95-4a77-a27c-2465bbb559bf"},"vehicle_type_id":"4","last_reported":1737227149,"current_range_meters":30400,"station_id":"ce4bhih2rcd13ifvqfr0","pricing_plan_id":"cebpf4jnsgd1na2vs0mg"},{"bike_id":"438e0458-2838-43d1-8ad6-7b85da43231c","system_id":"levelo_inurba_marseille","lat":43.26795,"lon":5.40266,"is_reserved":false,"is_disabled":false,"rental_uris":{"android":"levelo://app?vid=438e0458-2838-43d1-8ad6-7b85da43231c","ios":"levelo://app?vid=438e0458-2838-43d1-8ad6-7b85da43231c"},"vehicle_type_id":"4","last_reported":1737227149,"current_range_meters":38800,"station_id":"ce501612rcd8frsf0b60","pricing_plan_id":"cebpf4jnsgd1na2vs0mg"},{"bike_id":"6767abdc-3c6a-42d0-9e7b-2128533c47af","system_id":"levelo_inurba_marseille","lat":43.29031,"lon":5.38144,"is_reserved":false,"is_disabled":false,"rental_uris":{"android":"levelo://app?vid=6767abdc-3c6a-42d0-9e7b-2128533c47af","ios":"levelo://app?vid=6767abdc-3c6a-42d0-9e7b-2128533c47af"},"vehicle_type_id":"4","last_reported":1737227149,"current_range_meters":38800,"station_id":"ce4bh4p2rcd13ifvqe1g","pricing_plan_id":"cebpf4jnsgd1na2vs0mg"},{"bike_id":"e278c6f8-dda6-47fd-b240-5f45ee563423","system_id":"levelo_inurba_marseille","lat":43.30582,"lon":5.37187,"is_reserved":false,"is_disabled":false,"rental_uris":{"android":"levelo://app?vid=e278c6f8-dda6-47fd-b240-5f45ee563423","ios":"levelo://app?vid=e278c6f8-dda6-47fd-b240-5f45ee563423"},"vehicle_type_id":"4","last_reported":1737227149,"current_range_meters":38800,"station_id":"ce4bgqh2rcd13ifvqc4g","pricing_plan_id":"cebpf4jnsgd1na2vs0mg"},{"bike_id":"cbe1c294-c1ce-47fb-86e4-f8f279f2cd96","system_id":"levelo_inurba_marseille","lat":43.29693,"lon":5.37275,"is_reserved":false,"is_disabled":false,"rental_uris":{"android":"levelo://app?vid=cbe1c294-c1ce-47fb-86e4-f8f279f2cd96","ios":"levelo://app?vid=cbe1c294-c1ce-47fb-86e4-f8f279f2cd96"},"vehicle_type_id":"4","last_reported":1737227149,"current_range_meters":20000,"station_id":"ce4bgk12rcd13ifvqbj0","pricing_plan_id":"cebpf4jnsgd1na2vs0mg"},{"bike_id":"c4c3c31e-d1f9-4c03-b7b6-9ebc688cc109","system_id":"levelo_inurba_marseille","lat":43.30233,"lon":5.4005,"is_reserved":false,"is_disabled":false,"rental_uris":{"android":"levelo://app?vid=c4c3c31e-d1f9-4c03-b7b6-9ebc688cc109","ios":"levelo://app?vid=c4c3c31e-d1f9-4c03-b7b6-9ebc688cc109"},"vehicle_type_id":"4","last_reported":1737227149,"current_range_meters":800,"station_id":"","pricing_plan_id":"cebpf4jnsgd1na2vs0mg"},{"bike_id":"67dbf08f-d718-457a-957f-96cc92450e79","system_id":"levelo_inurba_marseille","lat":43.28343,"lon":5.38101,"is_reserved":false,"is_disabled":true,"rental_uris":{"android":"levelo://app?vid=67dbf08f-d718-457a-957f-96cc92450e79","ios":"levelo://app?vid=67dbf08f-d718-457a-957f-96cc92450e79"},"vehicle_type_id":"4","last_reported":1737227149,"current_range_meters":0,"station_id":"ce4bh412rcd13ifvqdr0","pricing_plan_id":"cebpf4jnsgd1na2vs0mg"},{"bike_id":"3d464d4e-4018-4385-8481-0870ba3d6cee","system_id":"levelo_inurba_marseille","lat":43.25915,"lon":5.40876,"is_reserved":false,"is_disabled":false,"rental_uris":{"android":"levelo://app?vid=3d464d4e-4018-4385-8481-0870ba3d6cee","ios":"levelo://app?vid=3d464d4e-4018-4385-8481-0870ba3d6cee"},"vehicle_type_id":"4","last_reported":1737227149,"current_range_meters":14400,"station_id":"ce4bhm92rcd13ifvqglg","pricing_plan_id":"cebpf4jnsgd1na2vs0mg"},{"bike_id":"7c9abcb3-970d-421a-a77c-7c7b6ec2878b","system_id":"levelo_inurba_marseille","lat":43.32655,"lon":5.40995,"is_reserved":false,"is_disabled":false,"rental_uris":{"android":"levelo://app?vid=7c9abcb3-970d-421a-a77c-7c7b6ec2878b","ios":"levelo://app?vid=7c9abcb3-970d-421a-a77c-7c7b6ec2878b"},"vehicle_type_id":"4","last_reported":1737227149,"current_range_meters":25200,"station_id":"ce4bhpp2rcd13ifvqhgg","pricing_plan_id":"cebpf4jnsgd1na2vs0mg"},{"bike_id":"06e0ceb1-9315-4f04-bab2-3144835ffdae","system_id":"levelo_inurba_marseille","lat":43.29535,"lon":5.38548,"is_reserved":false,"is_disabled":false,"rental_uris":{"android":"levelo://app?vid=06e0ceb1-9315-4f04-bab2-3144835ffdae","ios":"levelo://app?vid=06e0ceb1-9315-4f04-bab2-3144835ffdae"},"vehicle_type_id":"4","last_reported":1737227149,"current_range_meters":38800,"station_id":"ce4bgih2rcd13ifvqba0","pricing_plan_id":"cebpf4jnsgd1na2vs0mg"},{"bike_id":"b5a9404c-c4fa-41f6-ad04-1d4904b069eb","system_id":"levelo_inurba_marseille","lat":43.30422,"lon":5.41294,"is_reserved":false,"is_disabled":false,"rental_uris":{"android":"levelo://app?vid=b5a9404c-c4fa-41f6-ad04-1d4904b069eb","ios":"levelo://app?vid=b5a9404c-c4fa-41f6-ad04-1d4904b069eb"},"vehicle_type_id":"4","last_reported":1737227149,"current_range_meters":28000,"station_id":"ce4bhop2rcd13ifvqh8g","pricing_plan_id":"cebpf4jnsgd1na2vs0mg"},{"bike_id":"5228f23d-a3eb-4553-947e-5d4262a082b9","system_id":"levelo_inurba_marseille","lat":43.29272,"lon":5.36842,"is_reserved":false,"is_disabled":false,"rental_uris":{"android":"levelo://app?vid=5228f23d-a3eb-4553-947e-5d4262a082b9","ios":"levelo://app?vid=5228f23d-a3eb-4553-947e-5d4262a082b9"},"vehicle_type_id":"4","last_reported":1737227149,"current_range_meters":37600,"station_id":"ce4bhbp2rcd13ifvqesg","pricing_plan_id":"cebpf4jnsgd1na2vs0mg"},{"bike_id":"ca8aa51d-4833-4c77-8009-59b7c07323a3","system_id":"levelo_inurba_marseille","lat":43.32368,"lon":5.36769,"is_reserved":false,"is_disabled":false,"rental_uris":{"android":"levelo://app?vid=ca8aa51d-4833-4c77-8009-59b7c07323a3","ios":"levelo://app?vid=ca8aa51d-4833-4c77-8009-59b7c07323a3"},"vehicle_type_id":"4","last_reported":1737227149,"current_range_meters":9200,"station_id":"ce4bhsh2rcd13ifvqi2g","pricing_plan_id":"cebpf4jnsgd1na2vs0mg"},{"bike_id":"831a965d-7c8c-4252-8bd2-577b336f8919","system_id":"levelo_inurba_marseille","lat":43.28164,"lon":5.42626,"is_reserved":false,"is_disabled":false,"rental_uris":{"android":"levelo://app?vid=831a965d-7c8c-4252-8bd2-577b336f8919","ios":"levelo://app?vid=831a965d-7c8c-4252-8bd2-577b336f8919"},"vehicle_type_id":"4","last_reported":1737227149,"current_range_meters":20800,"station_id":"ce4bhnh2rcd13ifvqgug","pricing_plan_id":"cebpf4jnsgd1na2vs0mg"},{"bike_id":"d8813406-1500-43cb-b23c-0b3594d3b0c9","system_id":"levelo_inurba_marseille","lat":43.30131,"lon":5.39882,"is_reserved":false,"is_disabled":false,"rental_uris":{"android":"levelo://app?vid=d8813406-1500-43cb-b23c-0b3594d3b0c9","ios":"levelo://app?vid=d8813406-1500-43cb-b23c-0b3594d3b0c9"},"vehicle_type_id":"4","last_reported":1737227149,"current_range_meters":4000,"station_id":"ce4bh0h2rcd13ifvqd40","pricing_plan_id":"cebpf4jnsgd1na2vs0mg"},{"bike_id":"9dc49063-283d-43eb-bbfe-31fee7e70777","system_id":"levelo_inurba_marseille","lat":43.31225,"lon":5.36853,"is_reserved":false,"is_disabled":false,"rental_uris":{"android":"levelo://app?vid=9dc49063-283d-43eb-bbfe-31fee7e70777","ios":"levelo://app?vid=9dc49063-283d-43eb-bbfe-31fee7e70777"},"vehicle_type_id":"4","last_reported":1737227149,"current_range_meters":11200,"station_id":"ce4bgl92rcd13ifvqbq0","pricing_plan_id":"cebpf4jnsgd1na2vs0mg"},{"bike_id":"aaec7aad-2391-45d3-bb60-d4962409d945","system_id":"levelo_inurba_marseille","lat":43.28455,"lon":5.38534,"is_reserved":false,"is_disabled":false,"rental_uris":{"android":"levelo://app?vid=aaec7aad-2391-45d3-bb60-d4962409d945","ios":"levelo://app?vid=aaec7aad-2391-45d3-bb60-d4962409d945"},"vehicle_type_id":"4","last_reported":1737227149,"current_range_meters":38800,"station_id":"ce4bh8p2rcd13ifvqeb0","pricing_plan_id":"cebpf4jnsgd1na2vs0mg"},{"bike_id":"6a36970a-3119-4380-8c47-4abd430809eb","system_id":"levelo_inurba_marseille","lat":43.30802,"lon":5.38153,"is_reserved":false,"is_disabled":false,"rental_uris":{"android":"levelo://app?vid=6a36970a-3119-4380-8c47-4abd430809eb","ios":"levelo://app?vid=6a36970a-3119-4380-8c47-4abd430809eb"},"vehicle_type_id":"4","last_reported":1737227149,"current_range_meters":32000,"station_id":"ce4bgt12rcd13ifvqce0","pricing_plan_id":"cebpf4jnsgd1na2vs0mg"},{"bike_id":"ee6fb0f7-4f6e-4349-a1c8-e14c417d86f6","system_id":"levelo_inurba_marseille","lat":43.29704,"lon":5.37712,"is_reserved":false,"is_disabled":false,"rental_uris":{"android":"levelo://app?vid=ee6fb0f7-4f6e-4349-a1c8-e14c417d86f6","ios":"levelo://app?vid=ee6fb0f7-4f6e-4349-a1c8-e14c417d86f6"},"vehicle_type_id":"4","last_reported":1737227149,"current_range_meters":16000,"station_id":"ce4bgkh2rcd13ifvqbl0","pricing_plan_id":"cebpf4jnsgd1na2vs0mg"},{"bike_id":"57d9fa47-e597-4ea4-913f-9b45079bd718","system_id":"levelo_inurba_marseille","lat":43.33035,"lon":5.39032,"is_reserved":false,"is_disabled":false,"rental_uris":{"android":"levelo://app?vid=57d9fa47-e597-4ea4-913f-9b45079bd718","ios":"levelo://app?vid=57d9fa47-e597-4ea4-913f-9b45079bd718"},"vehicle_type_id":"4","last_reported":1737227149,"current_range_meters":10800,"station_id":"ce4bhr92rcd13ifvqhrg","pricing_plan_id":"cebpf4jnsgd1na2vs0mg"},{"bike_id":"50c70262-dbb4-4b61-88f4-99876f32b530","system_id":"levelo_inurba_marseille","lat":43.294201,"lon":5.386264,"is_reserved":false,"is_disabled":false,"rental_uris":{"android":"levelo://app?vid=50c70262-dbb4-4b61-88f4-99876f32b530","ios":"levelo://app?vid=50c70262-dbb4-4b61-88f4-99876f32b530"},"vehicle_type_id":"4","last_reported":1737227149,"current_range_meters":32400,"station_id":"ce4bh2h2rcd13ifvqdh0","pricing_plan_id":"cebpf4jnsgd1na2vs0mg"},{"bike_id":"220390ed-c10a-4d93-90e7-5563169ac42a","system_id":"levelo_inurba_marseille","lat":43.2418,"lon":5.39733,"is_reserved":false,"is_disabled":false,"rental_uris":{"android":"levelo://app?vid=220390ed-c10a-4d93-90e7-5563169ac42a","ios":"levelo://app?vid=220390ed-c10a-4d93-90e7-5563169ac42a"},"vehicle_type_id":"4","last_reported":1737227149,"current_range_meters":38800,"station_id":"ce4bhn12rcd13ifvqgpg","pricing_plan_id":"cebpf4jnsgd1na2vs0mg"},{"bike_id":"9ff8d400-8960-464d-ae48-b97bd29da180","system_id":"levelo_inurba_marseille","lat":43.3043,"lon":5.38888,"is_reserved":false,"is_disabled":false,"rental_uris":{"android":"levelo://app?vid=9ff8d400-8960-464d-ae48-b97bd29da180","ios":"levelo://app?vid=9ff8d400-8960-464d-ae48-b97bd29da180"},"vehicle_type_id":"4","last_reported":1737227149,"current_range_meters":18000,"station_id":"ce4bgk12rcd13ifvqbi0","pricing_plan_id":"cebpf4jnsgd1na2vs0mg"},{"bike_id":"9e515546-a20a-41af-a455-44307a595228","system_id":"levelo_inurba_marseille","lat":43.28427,"lon":5.38947,"is_reserved":false,"is_disabled":true,"rental_uris":{"android":"levelo://app?vid=9e515546-a20a-41af-a455-44307a595228","ios":"levelo://app?vid=9e515546-a20a-41af-a455-44307a595228"},"vehicle_type_id":"4","last_reported":1737227149,"current_range_meters":1200,"station_id":"","pricing_plan_id":"cebpf4jnsgd1na2vs0mg"},{"bike_id":"4104cbba-088f-4383-b2a0-261d17699731","system_id":"levelo_inurba_marseille","lat":43.23965,"lon":5.36623,"is_reserved":false,"is_disabled":false,"rental_uris":{"android":"levelo://app?vid=4104cbba-088f-4383-b2a0-261d17699731","ios":"levelo://app?vid=4104cbba-088f-4383-b2a0-261d17699731"},"vehicle_type_id":"4","last_reported":1737227149,"current_range_meters":38800,"station_id":"ce4bhi12rcd13ifvqfp0","pricing_plan_id":"cebpf4jnsgd1na2vs0mg"},{"bike_id":"616f06f9-7be6-4b8d-9f4b-237d76b666fd","system_id":"levelo_inurba_marseille","lat":43.23196,"lon":5.3555,"is_reserved":false,"is_disabled":false,"rental_uris":{"android":"levelo://app?vid=616f06f9-7be6-4b8d-9f4b-237d76b666fd","ios":"levelo://app?vid=616f06f9-7be6-4b8d-9f4b-237d76b666fd"},"vehicle_type_id":"4","last_reported":1737227149,"current_range_meters":9200,"station_id":"ce4bhu92rcd13ifvqi70","pricing_plan_id":"cebpf4jnsgd1na2vs0mg"},{"bike_id":"19825a97-3dc4-4e9e-b786-651d5f769bb3","system_id":"levelo_inurba_marseille","lat":43.26782,"lon":5.39424,"is_reserved":false,"is_disabled":false,"rental_uris":{"android":"levelo://app?vid=19825a97-3dc4-4e9e-b786-651d5f769bb3","ios":"levelo://app?vid=19825a97-3dc4-4e9e-b786-651d5f769bb3"},"vehicle_type_id":"4","last_reported":1737227149,"current_range_meters":39200,"station_id":"ce4bhh12rcd13ifvqfg0","pricing_plan_id":"cebpf4jnsgd1na2vs0mg"},{"bike_id":"881f5a56-0072-422c-a05d-eee833d8c733","system_id":"levelo_inurba_marseille","lat":43.33136,"lon":5.37835,"is_reserved":false,"is_disabled":false,"rental_uris":{"android":"levelo://app?vid=881f5a56-0072-422c-a05d-eee833d8c733","ios":"levelo://app?vid=881f5a56-0072-422c-a05d-eee833d8c733"},"vehicle_type_id":"4","last_reported":1737227149,"current_range_meters":38800,"station_id":"","pricing_plan_id":"cebpf4jnsgd1na2vs0mg"},{"bike_id":"28ef1c1e-dd89-43e8-817b-9b489831397b","system_id":"levelo_inurba_marseille","lat":43.27128,"lon":5.39608,"is_reserved":false,"is_disabled":true,"rental_uris":{"android":"levelo://app?vid=28ef1c1e-dd89-43e8-817b-9b489831397b","ios":"levelo://app?vid=28ef1c1e-dd89-43e8-817b-9b489831397b"},"vehicle_type_id":"4","last_reported":1737227149,"current_range_meters":0,"station_id":"","pricing_plan_id":"cebpf4jnsgd1na2vs0mg"},{"bike_id":"a9d9ec1b-178a-494a-a891-d10e5fd899ec","system_id":"levelo_inurba_marseille","lat":43.2319,"lon":5.39989,"is_reserved":false,"is_disabled":false,"rental_uris":{"android":"levelo://app?vid=a9d9ec1b-178a-494a-a891-d10e5fd899ec","ios":"levelo://app?vid=a9d9ec1b-178a-494a-a891-d10e5fd899ec"},"vehicle_type_id":"4","last_reported":1737227149,"current_range_meters":36400,"station_id":"ce4bhn12rcd13ifvqgqg","pricing_plan_id":"cebpf4jnsgd1na2vs0mg"},{"bike_id":"2ad52ef0-8080-4104-a5d3-4ad6b83e9c6d","system_id":"levelo_inurba_marseille","lat":43.29528,"lon":5.39024,"is_reserved":false,"is_disabled":true,"rental_uris":{"android":"levelo://app?vid=2ad52ef0-8080-4104-a5d3-4ad6b83e9c6d","ios":"levelo://app?vid=2ad52ef0-8080-4104-a5d3-4ad6b83e9c6d"},"vehicle_type_id":"4","last_reported":1737227149,"current_range_meters":3200,"station_id":"ce4bh3p2rcd13ifvqdp0","pricing_plan_id":"cebpf4jnsgd1na2vs0mg"},{"bike_id":"c77de84a-305d-47e5-b81a-44313d3b8aa9","system_id":"levelo_inurba_marseille","lat":43.25867,"lon":5.39903,"is_reserved":false,"is_disabled":false,"rental_uris":{"android":"levelo://app?vid=c77de84a-305d-47e5-b81a-44313d3b8aa9","ios":"levelo://app?vid=c77de84a-305d-47e5-b81a-44313d3b8aa9"},"vehicle_type_id":"4","last_reported":1737227149,"current_range_meters":30800,"station_id":"ce4bhl92rcd13ifvqghg","pricing_plan_id":"cebpf4jnsgd1na2vs0mg"},{"bike_id":"357eaeda-fef2-41f2-9ad0-621ae2cc5c09","system_id":"levelo_inurba_marseille","lat":43.33753,"lon":5.37518,"is_reserved":false,"is_disabled":false,"rental_uris":{"android":"levelo://app?vid=357eaeda-fef2-41f2-9ad0-621ae2cc5c09","ios":"levelo://app?vid=357eaeda-fef2-41f2-9ad0-621ae2cc5c09"},"vehicle_type_id":"4","last_reported":1737227149,"current_range_meters":36000,"station_id":"","pricing_plan_id":"cebpf4jnsgd1na2vs0mg"},{"bike_id":"24747ef3-c3b1-4bc4-b21e-7db78697d06a","system_id":"levelo_inurba_marseille","lat":43.30099,"lon":5.39076,"is_reserved":false,"is_disabled":false,"rental_uris":{"android":"levelo://app?vid=24747ef3-c3b1-4bc4-b21e-7db78697d06a","ios":"levelo://app?vid=24747ef3-c3b1-4bc4-b21e-7db78697d06a"},"vehicle_type_id":"4","last_reported":1737227149,"current_range_meters":33600,"station_id":"ce4bh192rcd13ifvqdb0","pricing_plan_id":"cebpf4jnsgd1na2vs0mg"},{"bike_id":"1510bc86-e075-4380-86dc-8159834db3db","system_id":"levelo_inurba_marseille","lat":43.24076,"lon":5.37753,"is_reserved":false,"is_disabled":false,"rental_uris":{"android":"levelo://app?vid=1510bc86-e075-4380-86dc-8159834db3db","ios":"levelo://app?vid=1510bc86-e075-4380-86dc-8159834db3db"},"vehicle_type_id":"4","last_reported":1737227149,"current_range_meters":38800,"station_id":"ce4bhnp2rcd13ifvqgvg","pricing_plan_id":"cebpf4jnsgd1na2vs0mg"},{"bike_id":"3c259f3a-b4f4-4c12-aa9e-0d630ba5d20c","system_id":"levelo_inurba_marseille","lat":43.29065,"lon":5.37153,"is_reserved":false,"is_disabled":true,"rental_uris":{"android":"levelo://app?vid=3c259f3a-b4f4-4c12-aa9e-0d630ba5d20c","ios":"levelo://app?vid=3c259f3a-b4f4-4c12-aa9e-0d630ba5d20c"},"vehicle_type_id":"4","last_reported":1737227149,"current_range_meters":2000,"station_id":"ce4bh5p2rcd13ifvqe4g","pricing_plan_id":"cebpf4jnsgd1na2vs0mg"},{"bike_id":"f3c5116c-b20f-433b-96be-9061aea2c693","system_id":"levelo_inurba_marseille","lat":43.31079,"lon":5.38353,"is_reserved":false,"is_disabled":false,"rental_uris":{"android":"levelo://app?vid=f3c5116c-b20f-433b-96be-9061aea2c693","ios":"levelo://app?vid=f3c5116c-b20f-433b-96be-9061aea2c693"},"vehicle_type_id":"4","last_reported":1737227149,"current_range_meters":32800,"station_id":"ce4bgv92rcd13ifvqcr0","pricing_plan_id":"cebpf4jnsgd1na2vs0mg"},{"bike_id":"1c792089-ee30-4f3b-b849-bbc8356461ce","system_id":"levelo_inurba_marseille","lat":43.27809,"lon":5.40725,"is_reserved":false,"is_disabled":false,"rental_uris":{"android":"levelo://app?vid=1c792089-ee30-4f3b-b849-bbc8356461ce","ios":"levelo://app?vid=1c792089-ee30-4f3b-b849-bbc8356461ce"},"vehicle_type_id":"4","last_reported":1737227149,"current_range_meters":16000,"station_id":"ce4bhnh2rcd13ifvqgtg","pricing_plan_id":"cebpf4jnsgd1na2vs0mg"},{"bike_id":"f6cacadb-8310-4def-b7d1-16b644ece7a7","system_id":"levelo_inurba_marseille","lat":43.31495,"lon":5.37304,"is_reserved":false,"is_disabled":false,"rental_uris":{"android":"levelo://app?vid=f6cacadb-8310-4def-b7d1-16b644ece7a7","ios":"levelo://app?vid=f6cacadb-8310-4def-b7d1-16b644ece7a7"},"vehicle_type_id":"4","last_reported":1737227149,"current_range_meters":22000,"station_id":"ce4bgt12rcd13ifvqcd0","pricing_plan_id":"cebpf4jnsgd1na2vs0mg"},{"bike_id":"2f2a6f92-6f9c-4bc4-b3dd-873c28c4c448","system_id":"levelo_inurba_marseille","lat":43.30787,"lon":5.37652,"is_reserved":false,"is_disabled":false,"rental_uris":{"android":"levelo://app?vid=2f2a6f92-6f9c-4bc4-b3dd-873c28c4c448","ios":"levelo://app?vid=2f2a6f92-6f9c-4bc4-b3dd-873c28c4c448"},"vehicle_type_id":"4","last_reported":1737227149,"current_range_meters":24800,"station_id":"ce4bgv92rcd13ifvqcq0","pricing_plan_id":"cebpf4jnsgd1na2vs0mg"},{"bike_id":"01a07bd9-36a1-4c19-a88b-7c9e3a6ee490","system_id":"levelo_inurba_marseille","lat":43.250883,"lon":5.395189,"is_reserved":false,"is_disabled":false,"rental_uris":{"android":"levelo://app?vid=01a07bd9-36a1-4c19-a88b-7c9e3a6ee490","ios":"levelo://app?vid=01a07bd9-36a1-4c19-a88b-7c9e3a6ee490"},"vehicle_type_id":"4","last_reported":1737227149,"current_range_meters":36400,"station_id":"ce4bhm12rcd13ifvqgkg","pricing_plan_id":"cebpf4jnsgd1na2vs0mg"},{"bike_id":"b0b5b450-5055-4cf9-9abc-490d41233b4e","system_id":"levelo_inurba_marseille","lat":43.28702,"lon":5.3791,"is_reserved":false,"is_disabled":false,"rental_uris":{"android":"levelo://app?vid=b0b5b450-5055-4cf9-9abc-490d41233b4e","ios":"levelo://app?vid=b0b5b450-5055-4cf9-9abc-490d41233b4e"},"vehicle_type_id":"4","last_reported":1737227149,"current_range_meters":22800,"station_id":"ce4bh9p2rcd13ifvqec0","pricing_plan_id":"cebpf4jnsgd1na2vs0mg"},{"bike_id":"d9aec5be-f129-4c5a-869c-37a0a9a9a72b","system_id":"levelo_inurba_marseille","lat":43.30508,"lon":5.38027,"is_reserved":false,"is_disabled":false,"rental_uris":{"android":"levelo://app?vid=d9aec5be-f129-4c5a-869c-37a0a9a9a72b","ios":"levelo://app?vid=d9aec5be-f129-4c5a-869c-37a0a9a9a72b"},"vehicle_type_id":"4","last_reported":1737227149,"current_range_meters":38800,"station_id":"ce4bgup2rcd13ifvqcn0","pricing_plan_id":"cebpf4jnsgd1na2vs0mg"},{"bike_id":"24d3b331-52fa-4564-a98e-732c1dea4a32","system_id":"levelo_inurba_marseille","lat":43.274898,"lon":5.424588,"is_reserved":false,"is_disabled":true,"rental_uris":{"android":"levelo://app?vid=24d3b331-52fa-4564-a98e-732c1dea4a32","ios":"levelo://app?vid=24d3b331-52fa-4564-a98e-732c1dea4a32"},"vehicle_type_id":"4","last_reported":1737227149,"current_range_meters":0,"station_id":"ce4bhn92rcd13ifvqgrg","pricing_plan_id":"cebpf4jnsgd1na2vs0mg"},{"bike_id":"9be957d2-26d1-49a4-9f85-b06ee3432064","system_id":"levelo_inurba_marseille","lat":43.33721,"lon":5.392,"is_reserved":false,"is_disabled":false,"rental_uris":{"android":"levelo://app?vid=9be957d2-26d1-49a4-9f85-b06ee3432064","ios":"levelo://app?vid=9be957d2-26d1-49a4-9f85-b06ee3432064"},"vehicle_type_id":"4","last_reported":1737227149,"current_range_meters":25600,"station_id":"ce4bhr92rcd13ifvqhsg","pricing_plan_id":"cebpf4jnsgd1na2vs0mg"},{"bike_id":"6b166ba3-951b-430d-af54-68dd3d9b762c","system_id":"levelo_inurba_marseille","lat":43.29882,"lon":5.38915,"is_reserved":false,"is_disabled":false,"rental_uris":{"android":"levelo://app?vid=6b166ba3-951b-430d-af54-68dd3d9b762c","ios":"levelo://app?vid=6b166ba3-951b-430d-af54-68dd3d9b762c"},"vehicle_type_id":"4","last_reported":1737227149,"current_range_meters":28000,"station_id":"ce4bh392rcd13ifvqdl0","pricing_plan_id":"cebpf4jnsgd1na2vs0mg"},{"bike_id":"524072f1-ace1-43cc-8007-f91dc732b1f7","system_id":"levelo_inurba_marseille","lat":43.25084,"lon":5.39513,"is_reserved":false,"is_disabled":false,"rental_uris":{"android":"levelo://app?vid=524072f1-ace1-43cc-8007-f91dc732b1f7","ios":"levelo://app?vid=524072f1-ace1-43cc-8007-f91dc732b1f7"},"vehicle_type_id":"4","last_reported":1737227149,"current_range_meters":34800,"station_id":"ce4bhm12rcd13ifvqgkg","pricing_plan_id":"cebpf4jnsgd1na2vs0mg"},{"bike_id":"1b2be027-dfb3-4677-9342-ca864f120aa3","system_id":"levelo_inurba_marseille","lat":43.27948,"lon":5.38691,"is_reserved":false,"is_disabled":false,"rental_uris":{"android":"levelo://app?vid=1b2be027-dfb3-4677-9342-ca864f120aa3","ios":"levelo://app?vid=1b2be027-dfb3-4677-9342-ca864f120aa3"},"vehicle_type_id":"4","last_reported":1737227149,"current_range_meters":35200,"station_id":"","pricing_plan_id":"cebpf4jnsgd1na2vs0mg"},{"bike_id":"fd597039-90c8-4dba-a85a-87e6b6a8b541","system_id":"levelo_inurba_marseille","lat":43.30549,"lon":5.36534,"is_reserved":false,"is_disabled":false,"rental_uris":{"android":"levelo://app?vid=fd597039-90c8-4dba-a85a-87e6b6a8b541","ios":"levelo://app?vid=fd597039-90c8-4dba-a85a-87e6b6a8b541"},"vehicle_type_id":"4","last_reported":1737227149,"current_range_meters":36000,"station_id":"ce4bgs12rcd13ifvqcag","pricing_plan_id":"cebpf4jnsgd1na2vs0mg"},{"bike_id":"59829282-52a1-4f2c-9ab6-c535355001fb","system_id":"levelo_inurba_marseille","lat":43.30437,"lon":5.38903,"is_reserved":false,"is_disabled":false,"rental_uris":{"android":"levelo://app?vid=59829282-52a1-4f2c-9ab6-c535355001fb","ios":"levelo://app?vid=59829282-52a1-4f2c-9ab6-c535355001fb"},"vehicle_type_id":"4","last_reported":1737227149,"current_range_meters":6800,"station_id":"ce4bgk12rcd13ifvqbi0","pricing_plan_id":"cebpf4jnsgd1na2vs0mg"},{"bike_id":"9c41bd3d-55df-4ba6-aaa5-f915b1794e94","system_id":"levelo_inurba_marseille","lat":43.30806,"lon":5.43536,"is_reserved":false,"is_disabled":false,"rental_uris":{"android":"levelo://app?vid=9c41bd3d-55df-4ba6-aaa5-f915b1794e94","ios":"levelo://app?vid=9c41bd3d-55df-4ba6-aaa5-f915b1794e94"},"vehicle_type_id":"4","last_reported":1737227149,"current_range_meters":31200,"station_id":"ce4bhph2rcd13ifvqheg","pricing_plan_id":"cebpf4jnsgd1na2vs0mg"},{"bike_id":"4291632b-b89c-4c47-8e03-1ac2c74e4815","system_id":"levelo_inurba_marseille","lat":43.24166,"lon":5.39693,"is_reserved":false,"is_disabled":false,"rental_uris":{"android":"levelo://app?vid=4291632b-b89c-4c47-8e03-1ac2c74e4815","ios":"levelo://app?vid=4291632b-b89c-4c47-8e03-1ac2c74e4815"},"vehicle_type_id":"4","last_reported":1737227149,"current_range_meters":12000,"station_id":"ce4bhn12rcd13ifvqgpg","pricing_plan_id":"cebpf4jnsgd1na2vs0mg"},{"bike_id":"8e2400b8-69d4-403d-861b-b41a34d956e5","system_id":"levelo_inurba_marseille","lat":43.2512,"lon":5.4032,"is_reserved":false,"is_disabled":false,"rental_uris":{"android":"levelo://app?vid=8e2400b8-69d4-403d-861b-b41a34d956e5","ios":"levelo://app?vid=8e2400b8-69d4-403d-861b-b41a34d956e5"},"vehicle_type_id":"4","last_reported":1737227149,"current_range_meters":4000,"station_id":"ce4bhlh2rcd13ifvqgig","pricing_plan_id":"cebpf4jnsgd1na2vs0mg"},{"bike_id":"aacbee97-7bfb-432e-af10-2324444f9913","system_id":"levelo_inurba_marseille","lat":43.29534,"lon":5.39397,"is_reserved":false,"is_disabled":false,"rental_uris":{"android":"levelo://app?vid=aacbee97-7bfb-432e-af10-2324444f9913","ios":"levelo://app?vid=aacbee97-7bfb-432e-af10-2324444f9913"},"vehicle_type_id":"4","last_reported":1737227149,"current_range_meters":31200,"station_id":"ce4bh292rcd13ifvqdf0","pricing_plan_id":"cebpf4jnsgd1na2vs0mg"},{"bike_id":"dfd96ebd-2cae-4ab5-8d13-f6e62258957e","system_id":"levelo_inurba_marseille","lat":43.31725,"lon":5.42395,"is_reserved":false,"is_disabled":false,"rental_uris":{"android":"levelo://app?vid=dfd96ebd-2cae-4ab5-8d13-f6e62258957e","ios":"levelo://app?vid=dfd96ebd-2cae-4ab5-8d13-f6e62258957e"},"vehicle_type_id":"4","last_reported":1737227149,"current_range_meters":38000,"station_id":"ce4bhp92rcd13ifvqhbg","pricing_plan_id":"cebpf4jnsgd1na2vs0mg"},{"bike_id":"8ed85cd7-6cf1-4beb-8d3d-9ebcc5d3271b","system_id":"levelo_inurba_marseille","lat":43.29202,"lon":5.39331,"is_reserved":false,"is_disabled":false,"rental_uris":{"android":"levelo://app?vid=8ed85cd7-6cf1-4beb-8d3d-9ebcc5d3271b","ios":"levelo://app?vid=8ed85cd7-6cf1-4beb-8d3d-9ebcc5d3271b"},"vehicle_type_id":"4","last_reported":1737227149,"current_range_meters":10800,"station_id":"ce4bh192rcd13ifvqdd0","pricing_plan_id":"cebpf4jnsgd1na2vs0mg"},{"bike_id":"13d3fd97-e21c-4164-8b58-6e6c0cfe1ec1","system_id":"levelo_inurba_marseille","lat":43.28019,"lon":5.36947,"is_reserved":false,"is_disabled":false,"rental_uris":{"android":"levelo://app?vid=13d3fd97-e21c-4164-8b58-6e6c0cfe1ec1","ios":"levelo://app?vid=13d3fd97-e21c-4164-8b58-6e6c0cfe1ec1"},"vehicle_type_id":"4","last_reported":1737227149,"current_range_meters":39200,"station_id":"ce4bha12rcd13ifvqef0","pricing_plan_id":"cebpf4jnsgd1na2vs0mg"},{"bike_id":"fae143cc-e0b7-42e0-ac41-6327643321d0","system_id":"levelo_inurba_marseille","lat":43.25825,"lon":5.39422,"is_reserved":false,"is_disabled":false,"rental_uris":{"android":"levelo://app?vid=fae143cc-e0b7-42e0-ac41-6327643321d0","ios":"levelo://app?vid=fae143cc-e0b7-42e0-ac41-6327643321d0"},"vehicle_type_id":"4","last_reported":1737227149,"current_range_meters":30800,"station_id":"ce4bhip2rcd13ifvqft0","pricing_plan_id":"cebpf4jnsgd1na2vs0mg"},{"bike_id":"635b1cf3-c820-4a23-a168-fd8e953f9a50","system_id":"levelo_inurba_marseille","lat":43.29547,"lon":5.3854,"is_reserved":false,"is_disabled":false,"rental_uris":{"android":"levelo://app?vid=635b1cf3-c820-4a23-a168-fd8e953f9a50","ios":"levelo://app?vid=635b1cf3-c820-4a23-a168-fd8e953f9a50"},"vehicle_type_id":"4","last_reported":1737227149,"current_range_meters":38800,"station_id":"ce4bgih2rcd13ifvqba0","pricing_plan_id":"cebpf4jnsgd1na2vs0mg"},{"bike_id":"6934a120-854e-46c6-8426-e359803eb595","system_id":"levelo_inurba_marseille","lat":43.2907,"lon":5.37166,"is_reserved":false,"is_disabled":false,"rental_uris":{"android":"levelo://app?vid=6934a120-854e-46c6-8426-e359803eb595","ios":"levelo://app?vid=6934a120-854e-46c6-8426-e359803eb595"},"vehicle_type_id":"4","last_reported":1737227149,"current_range_meters":36400,"station_id":"ce4bh5p2rcd13ifvqe4g","pricing_plan_id":"cebpf4jnsgd1na2vs0mg"},{"bike_id":"1e439018-c0d6-4a96-9cf0-6ec46d1fa22b","system_id":"levelo_inurba_marseille","lat":43.33032,"lon":5.39034,"is_reserved":false,"is_disabled":false,"rental_uris":{"android":"levelo://app?vid=1e439018-c0d6-4a96-9cf0-6ec46d1fa22b","ios":"levelo://app?vid=1e439018-c0d6-4a96-9cf0-6ec46d1fa22b"},"vehicle_type_id":"4","last_reported":1737227149,"current_range_meters":38000,"station_id":"ce4bhr92rcd13ifvqhrg","pricing_plan_id":"cebpf4jnsgd1na2vs0mg"},{"bike_id":"f4a4a406-b0a5-42fc-9236-32e93ac6f6b2","system_id":"levelo_inurba_marseille","lat":43.23167,"lon":5.43701,"is_reserved":false,"is_disabled":true,"rental_uris":{"android":"levelo://app?vid=f4a4a406-b0a5-42fc-9236-32e93ac6f6b2","ios":"levelo://app?vid=f4a4a406-b0a5-42fc-9236-32e93ac6f6b2"},"vehicle_type_id":"4","last_reported":1737227149,"current_range_meters":28400,"station_id":"ce4bhmp2rcd13ifvqgog","pricing_plan_id":"cebpf4jnsgd1na2vs0mg"},{"bike_id":"815ff0fd-c3c0-4f93-8ef0-c7b987aff6a9","system_id":"levelo_inurba_marseille","lat":43.28106,"lon":5.3784,"is_reserved":false,"is_disabled":false,"rental_uris":{"android":"levelo://app?vid=815ff0fd-c3c0-4f93-8ef0-c7b987aff6a9","ios":"levelo://app?vid=815ff0fd-c3c0-4f93-8ef0-c7b987aff6a9"},"vehicle_type_id":"4","last_reported":1737227149,"current_range_meters":28000,"station_id":"ce4bha12rcd13ifvqee0","pricing_plan_id":"cebpf4jnsgd1na2vs0mg"},{"bike_id":"e58842d1-b457-4207-9932-2223f4bcc961","system_id":"levelo_inurba_marseille","lat":43.29265,"lon":5.38442,"is_reserved":false,"is_disabled":false,"rental_uris":{"android":"levelo://app?vid=e58842d1-b457-4207-9932-2223f4bcc961","ios":"levelo://app?vid=e58842d1-b457-4207-9932-2223f4bcc961"},"vehicle_type_id":"4","last_reported":1737227149,"current_range_meters":26800,"station_id":"ce4bh692rcd13ifvqea0","pricing_plan_id":"cebpf4jnsgd1na2vs0mg"},{"bike_id":"d3ac4a84-4f85-4a01-9c84-b517fcd9f44c","system_id":"levelo_inurba_marseille","lat":43.32284,"lon":5.38268,"is_reserved":false,"is_disabled":false,"rental_uris":{"android":"levelo://app?vid=d3ac4a84-4f85-4a01-9c84-b517fcd9f44c","ios":"levelo://app?vid=d3ac4a84-4f85-4a01-9c84-b517fcd9f44c"},"vehicle_type_id":"4","last_reported":1737227149,"current_range_meters":38800,"station_id":"ce4bhr12rcd13ifvqhqg","pricing_plan_id":"cebpf4jnsgd1na2vs0mg"},{"bike_id":"d315f57c-2343-49ae-90f6-8fb4957bc107","system_id":"levelo_inurba_marseille","lat":43.28273,"lon":5.35066,"is_reserved":false,"is_disabled":false,"rental_uris":{"android":"levelo://app?vid=d315f57c-2343-49ae-90f6-8fb4957bc107","ios":"levelo://app?vid=d315f57c-2343-49ae-90f6-8fb4957bc107"},"vehicle_type_id":"4","last_reported":1737227149,"current_range_meters":38800,"station_id":"ce4bhbp2rcd13ifvqerg","pricing_plan_id":"cebpf4jnsgd1na2vs0mg"},{"bike_id":"041b3479-2f13-4d18-8dd0-e07d666bf4ab","system_id":"levelo_inurba_marseille","lat":43.29531,"lon":5.39394,"is_reserved":false,"is_disabled":false,"rental_uris":{"android":"levelo://app?vid=041b3479-2f13-4d18-8dd0-e07d666bf4ab","ios":"levelo://app?vid=041b3479-2f13-4d18-8dd0-e07d666bf4ab"},"vehicle_type_id":"4","last_reported":1737227149,"current_range_meters":34000,"station_id":"ce4bh292rcd13ifvqdf0","pricing_plan_id":"cebpf4jnsgd1na2vs0mg"},{"bike_id":"b58dcef5-cab9-4732-933d-c18fb8a74b04","system_id":"levelo_inurba_marseille","lat":43.23153,"lon":5.43718,"is_reserved":false,"is_disabled":true,"rental_uris":{"android":"levelo://app?vid=b58dcef5-cab9-4732-933d-c18fb8a74b04","ios":"levelo://app?vid=b58dcef5-cab9-4732-933d-c18fb8a74b04"},"vehicle_type_id":"4","last_reported":1737227149,"current_range_meters":0,"station_id":"ce4bhmp2rcd13ifvqgog","pricing_plan_id":"cebpf4jnsgd1na2vs0mg"},{"bike_id":"fb905c67-fce8-4902-8f37-5281591a6dc1","system_id":"levelo_inurba_marseille","lat":43.3107,"lon":5.3836,"is_reserved":false,"is_disabled":false,"rental_uris":{"android":"levelo://app?vid=fb905c67-fce8-4902-8f37-5281591a6dc1","ios":"levelo://app?vid=fb905c67-fce8-4902-8f37-5281591a6dc1"},"vehicle_type_id":"4","last_reported":1737227149,"current_range_meters":25200,"station_id":"ce4bgv92rcd13ifvqcr0","pricing_plan_id":"cebpf4jnsgd1na2vs0mg"},{"bike_id":"74a68bf0-f2f0-48e4-bf8e-cb92cded0484","system_id":"levelo_inurba_marseille","lat":43.26029,"lon":5.37555,"is_reserved":false,"is_disabled":false,"rental_uris":{"android":"levelo://app?vid=74a68bf0-f2f0-48e4-bf8e-cb92cded0484","ios":"levelo://app?vid=74a68bf0-f2f0-48e4-bf8e-cb92cded0484"},"vehicle_type_id":"4","last_reported":1737227149,"current_range_meters":18000,"station_id":"ce4bhgh2rcd13ifvqfa0","pricing_plan_id":"cebpf4jnsgd1na2vs0mg"},{"bike_id":"a2db4274-ccf5-421f-87c6-f7cc5d30f362","system_id":"levelo_inurba_marseille","lat":43.31075,"lon":5.38355,"is_reserved":false,"is_disabled":false,"rental_uris":{"android":"levelo://app?vid=a2db4274-ccf5-421f-87c6-f7cc5d30f362","ios":"levelo://app?vid=a2db4274-ccf5-421f-87c6-f7cc5d30f362"},"vehicle_type_id":"4","last_reported":1737227149,"current_range_meters":30800,"station_id":"ce4bgv92rcd13ifvqcr0","pricing_plan_id":"cebpf4jnsgd1na2vs0mg"},{"bike_id":"234d1550-b7dd-465b-9578-32049a642f2b","system_id":"levelo_inurba_marseille","lat":43.29958,"lon":5.4133,"is_reserved":false,"is_disabled":false,"rental_uris":{"android":"levelo://app?vid=234d1550-b7dd-465b-9578-32049a642f2b","ios":"levelo://app?vid=234d1550-b7dd-465b-9578-32049a642f2b"},"vehicle_type_id":"4","last_reported":1737227149,"current_range_meters":38000,"station_id":"ce4bhp12rcd13ifvqh9g","pricing_plan_id":"cebpf4jnsgd1na2vs0mg"},{"bike_id":"21492703-564a-4c1b-857f-d76f72786701","system_id":"levelo_inurba_marseille","lat":43.29357,"lon":5.37841,"is_reserved":false,"is_disabled":true,"rental_uris":{"android":"levelo://app?vid=21492703-564a-4c1b-857f-d76f72786701","ios":"levelo://app?vid=21492703-564a-4c1b-857f-d76f72786701"},"vehicle_type_id":"4","last_reported":1737227149,"current_range_meters":1200,"station_id":"ce4bgjh2rcd13ifvqbf0","pricing_plan_id":"cebpf4jnsgd1na2vs0mg"},{"bike_id":"3cc068a4-632c-4cdc-a8e3-9fbbb1c24022","system_id":"levelo_inurba_marseille","lat":43.30523,"lon":5.37277,"is_reserved":false,"is_disabled":false,"rental_uris":{"android":"levelo://app?vid=3cc068a4-632c-4cdc-a8e3-9fbbb1c24022","ios":"levelo://app?vid=3cc068a4-632c-4cdc-a8e3-9fbbb1c24022"},"vehicle_type_id":"4","last_reported":1737227149,"current_range_meters":32000,"station_id":"","pricing_plan_id":"cebpf4jnsgd1na2vs0mg"},{"bike_id":"96960263-8122-4b3a-9f60-4d15c809c06f","system_id":"levelo_inurba_marseille","lat":43.26053,"lon":5.39388,"is_reserved":false,"is_disabled":false,"rental_uris":{"android":"levelo://app?vid=96960263-8122-4b3a-9f60-4d15c809c06f","ios":"levelo://app?vid=96960263-8122-4b3a-9f60-4d15c809c06f"},"vehicle_type_id":"4","last_reported":1737227149,"current_range_meters":9600,"station_id":"ce4bhh92rcd13ifvqfj0","pricing_plan_id":"cebpf4jnsgd1na2vs0mg"},{"bike_id":"92ab380d-3485-4143-a7fc-baf461c7cec7","system_id":"levelo_inurba_marseille","lat":43.29531,"lon":5.39046,"is_reserved":false,"is_disabled":false,"rental_uris":{"android":"levelo://app?vid=92ab380d-3485-4143-a7fc-baf461c7cec7","ios":"levelo://app?vid=92ab380d-3485-4143-a7fc-baf461c7cec7"},"vehicle_type_id":"4","last_reported":1737227149,"current_range_meters":25200,"station_id":"ce4bh3p2rcd13ifvqdp0","pricing_plan_id":"cebpf4jnsgd1na2vs0mg"},{"bike_id":"28ffb8aa-aac5-4403-8015-c8585f5498c1","system_id":"levelo_inurba_marseille","lat":43.25003,"lon":5.38922,"is_reserved":false,"is_disabled":false,"rental_uris":{"android":"levelo://app?vid=28ffb8aa-aac5-4403-8015-c8585f5498c1","ios":"levelo://app?vid=28ffb8aa-aac5-4403-8015-c8585f5498c1"},"vehicle_type_id":"4","last_reported":1737227149,"current_range_meters":32800,"station_id":"ce4bhgp2rcd13ifvqfd0","pricing_plan_id":"cebpf4jnsgd1na2vs0mg"},{"bike_id":"41ed99f7-cea6-4199-88fd-5ca93e726d49","system_id":"levelo_inurba_marseille","lat":43.29538,"lon":5.38539,"is_reserved":false,"is_disabled":false,"rental_uris":{"android":"levelo://app?vid=41ed99f7-cea6-4199-88fd-5ca93e726d49","ios":"levelo://app?vid=41ed99f7-cea6-4199-88fd-5ca93e726d49"},"vehicle_type_id":"4","last_reported":1737227149,"current_range_meters":18000,"station_id":"ce4bgih2rcd13ifvqba0","pricing_plan_id":"cebpf4jnsgd1na2vs0mg"},{"bike_id":"56b8e9bc-f750-4815-bc98-9098414d16db","system_id":"levelo_inurba_marseille","lat":43.23199,"lon":5.35546,"is_reserved":false,"is_disabled":true,"rental_uris":{"android":"levelo://app?vid=56b8e9bc-f750-4815-bc98-9098414d16db","ios":"levelo://app?vid=56b8e9bc-f750-4815-bc98-9098414d16db"},"vehicle_type_id":"4","last_reported":1737227149,"current_range_meters":0,"station_id":"ce4bhu92rcd13ifvqi70","pricing_plan_id":"cebpf4jnsgd1na2vs0mg"},{"bike_id":"0e91b70c-1e42-4d65-a90a-72cbd40954b0","system_id":"levelo_inurba_marseille","lat":43.32361,"lon":5.36749,"is_reserved":false,"is_disabled":false,"rental_uris":{"android":"levelo://app?vid=0e91b70c-1e42-4d65-a90a-72cbd40954b0","ios":"levelo://app?vid=0e91b70c-1e42-4d65-a90a-72cbd40954b0"},"vehicle_type_id":"4","last_reported":1737227149,"current_range_meters":10000,"station_id":"ce4bhsh2rcd13ifvqi2g","pricing_plan_id":"cebpf4jnsgd1na2vs0mg"},{"bike_id":"41734cbb-181b-4da4-b173-9e0c3b763fc6","system_id":"levelo_inurba_marseille","lat":43.31074,"lon":5.38366,"is_reserved":false,"is_disabled":false,"rental_uris":{"android":"levelo://app?vid=41734cbb-181b-4da4-b173-9e0c3b763fc6","ios":"levelo://app?vid=41734cbb-181b-4da4-b173-9e0c3b763fc6"},"vehicle_type_id":"4","last_reported":1737227149,"current_range_meters":13600,"station_id":"ce4bgv92rcd13ifvqcr0","pricing_plan_id":"cebpf4jnsgd1na2vs0mg"},{"bike_id":"fcff8b6e-6484-4e4c-8d98-9ab325ed2e27","system_id":"levelo_inurba_marseille","lat":43.3248,"lon":5.36567,"is_reserved":false,"is_disabled":false,"rental_uris":{"android":"levelo://app?vid=fcff8b6e-6484-4e4c-8d98-9ab325ed2e27","ios":"levelo://app?vid=fcff8b6e-6484-4e4c-8d98-9ab325ed2e27"},"vehicle_type_id":"4","last_reported":1737227149,"current_range_meters":11600,"station_id":"ce4bhs12rcd13ifvqhvg","pricing_plan_id":"cebpf4jnsgd1na2vs0mg"},{"bike_id":"f82a92f3-88f0-4adc-92de-4c6bd3425679","system_id":"levelo_inurba_marseille","lat":43.29424,"lon":5.38631,"is_reserved":false,"is_disabled":false,"rental_uris":{"android":"levelo://app?vid=f82a92f3-88f0-4adc-92de-4c6bd3425679","ios":"levelo://app?vid=f82a92f3-88f0-4adc-92de-4c6bd3425679"},"vehicle_type_id":"4","last_reported":1737227149,"current_range_meters":15200,"station_id":"ce4bh2h2rcd13ifvqdh0","pricing_plan_id":"cebpf4jnsgd1na2vs0mg"},{"bike_id":"a7584588-485e-4489-aa81-ed5d3d2f4789","system_id":"levelo_inurba_marseille","lat":43.31126,"lon":5.37771,"is_reserved":false,"is_disabled":false,"rental_uris":{"android":"levelo://app?vid=a7584588-485e-4489-aa81-ed5d3d2f4789","ios":"levelo://app?vid=a7584588-485e-4489-aa81-ed5d3d2f4789"},"vehicle_type_id":"4","last_reported":1737227149,"current_range_meters":38800,"station_id":"ce4bgt92rcd13ifvqcg0","pricing_plan_id":"cebpf4jnsgd1na2vs0mg"},{"bike_id":"109157e6-212e-4848-a8d7-cec99b3c5237","system_id":"levelo_inurba_marseille","lat":43.29067,"lon":5.37192,"is_reserved":false,"is_disabled":false,"rental_uris":{"android":"levelo://app?vid=109157e6-212e-4848-a8d7-cec99b3c5237","ios":"levelo://app?vid=109157e6-212e-4848-a8d7-cec99b3c5237"},"vehicle_type_id":"4","last_reported":1737227149,"current_range_meters":8800,"station_id":"ce4bh5p2rcd13ifvqe4g","pricing_plan_id":"cebpf4jnsgd1na2vs0mg"},{"bike_id":"a06cdddf-55cb-4a63-88ab-603c20ac278f","system_id":"levelo_inurba_marseille","lat":43.26946,"lon":5.38676,"is_reserved":false,"is_disabled":false,"rental_uris":{"android":"levelo://app?vid=a06cdddf-55cb-4a63-88ab-603c20ac278f","ios":"levelo://app?vid=a06cdddf-55cb-4a63-88ab-603c20ac278f"},"vehicle_type_id":"4","last_reported":1737227149,"current_range_meters":20800,"station_id":"ce4bhh92rcd13ifvqfh0","pricing_plan_id":"cebpf4jnsgd1na2vs0mg"},{"bike_id":"346c98ad-ccd5-42e3-964e-79dce1a313da","system_id":"levelo_inurba_marseille","lat":43.29659,"lon":5.37671,"is_reserved":false,"is_disabled":false,"rental_uris":{"android":"levelo://app?vid=346c98ad-ccd5-42e3-964e-79dce1a313da","ios":"levelo://app?vid=346c98ad-ccd5-42e3-964e-79dce1a313da"},"vehicle_type_id":"4","last_reported":1737227149,"current_range_meters":38800,"station_id":"ce4bgkh2rcd13ifvqbl0","pricing_plan_id":"cebpf4jnsgd1na2vs0mg"},{"bike_id":"22465212-93af-4e0b-b803-6ee82bba56d5","system_id":"levelo_inurba_marseille","lat":43.33759,"lon":5.3748,"is_reserved":false,"is_disabled":false,"rental_uris":{"android":"levelo://app?vid=22465212-93af-4e0b-b803-6ee82bba56d5","ios":"levelo://app?vid=22465212-93af-4e0b-b803-6ee82bba56d5"},"vehicle_type_id":"4","last_reported":1737227149,"current_range_meters":32000,"station_id":"","pricing_plan_id":"cebpf4jnsgd1na2vs0mg"},{"bike_id":"2acc906a-c27a-49da-90e2-256aae51eb57","system_id":"levelo_inurba_marseille","lat":43.30814,"lon":5.43515,"is_reserved":false,"is_disabled":false,"rental_uris":{"android":"levelo://app?vid=2acc906a-c27a-49da-90e2-256aae51eb57","ios":"levelo://app?vid=2acc906a-c27a-49da-90e2-256aae51eb57"},"vehicle_type_id":"4","last_reported":1737227149,"current_range_meters":38400,"station_id":"ce4bhph2rcd13ifvqheg","pricing_plan_id":"cebpf4jnsgd1na2vs0mg"},{"bike_id":"ad0b9dc8-7a6a-42a5-ab48-bc8ffee01752","system_id":"levelo_inurba_marseille","lat":43.30133,"lon":5.38782,"is_reserved":false,"is_disabled":false,"rental_uris":{"android":"levelo://app?vid=ad0b9dc8-7a6a-42a5-ab48-bc8ffee01752","ios":"levelo://app?vid=ad0b9dc8-7a6a-42a5-ab48-bc8ffee01752"},"vehicle_type_id":"4","last_reported":1737227149,"current_range_meters":20400,"station_id":"ce4bghh2rcd13ifvqb60","pricing_plan_id":"cebpf4jnsgd1na2vs0mg"},{"bike_id":"2f28569c-d8e6-4cf0-856b-8cd603e451fd","system_id":"levelo_inurba_marseille","lat":43.26195,"lon":5.37447,"is_reserved":false,"is_disabled":false,"rental_uris":{"android":"levelo://app?vid=2f28569c-d8e6-4cf0-856b-8cd603e451fd","ios":"levelo://app?vid=2f28569c-d8e6-4cf0-856b-8cd603e451fd"},"vehicle_type_id":"4","last_reported":1737227149,"current_range_meters":35600,"station_id":"ce4bhgp2rcd13ifvqfc0","pricing_plan_id":"cebpf4jnsgd1na2vs0mg"},{"bike_id":"19fb1931-f075-402c-a076-088e72accb76","system_id":"levelo_inurba_marseille","lat":43.24812,"lon":5.37452,"is_reserved":false,"is_disabled":false,"rental_uris":{"android":"levelo://app?vid=19fb1931-f075-402c-a076-088e72accb76","ios":"levelo://app?vid=19fb1931-f075-402c-a076-088e72accb76"},"vehicle_type_id":"4","last_reported":1737227149,"current_range_meters":14800,"station_id":"ce4bhgh2rcd13ifvqfb0","pricing_plan_id":"cebpf4jnsgd1na2vs0mg"},{"bike_id":"081f780a-421e-4d29-9981-68dbb84da5f6","system_id":"levelo_inurba_marseille","lat":43.31762,"lon":5.39013,"is_reserved":false,"is_disabled":false,"rental_uris":{"android":"levelo://app?vid=081f780a-421e-4d29-9981-68dbb84da5f6","ios":"levelo://app?vid=081f780a-421e-4d29-9981-68dbb84da5f6"},"vehicle_type_id":"4","last_reported":1737227149,"current_range_meters":38800,"station_id":"ce4bhqp2rcd13ifvqhng","pricing_plan_id":"cebpf4jnsgd1na2vs0mg"},{"bike_id":"86b1129b-34c7-4cb1-acb7-46aa8942c62c","system_id":"levelo_inurba_marseille","lat":43.23139,"lon":5.43712,"is_reserved":false,"is_disabled":true,"rental_uris":{"android":"levelo://app?vid=86b1129b-34c7-4cb1-acb7-46aa8942c62c","ios":"levelo://app?vid=86b1129b-34c7-4cb1-acb7-46aa8942c62c"},"vehicle_type_id":"4","last_reported":1737227149,"current_range_meters":0,"station_id":"ce4bhmp2rcd13ifvqgog","pricing_plan_id":"cebpf4jnsgd1na2vs0mg"},{"bike_id":"590f7295-8479-41c9-a1a1-d371a87a5aab","system_id":"levelo_inurba_marseille","lat":43.26222,"lon":5.37463,"is_reserved":false,"is_disabled":false,"rental_uris":{"android":"levelo://app?vid=590f7295-8479-41c9-a1a1-d371a87a5aab","ios":"levelo://app?vid=590f7295-8479-41c9-a1a1-d371a87a5aab"},"vehicle_type_id":"4","last_reported":1737227149,"current_range_meters":9200,"station_id":"ce4bhgp2rcd13ifvqfc0","pricing_plan_id":"cebpf4jnsgd1na2vs0mg"},{"bike_id":"088e1344-51d2-4895-8a85-e57bb6831a61","system_id":"levelo_inurba_marseille","lat":43.29895,"lon":5.38886,"is_reserved":false,"is_disabled":false,"rental_uris":{"android":"levelo://app?vid=088e1344-51d2-4895-8a85-e57bb6831a61","ios":"levelo://app?vid=088e1344-51d2-4895-8a85-e57bb6831a61"},"vehicle_type_id":"4","last_reported":1737227149,"current_range_meters":12800,"station_id":"ce4bh392rcd13ifvqdl0","pricing_plan_id":"cebpf4jnsgd1na2vs0mg"},{"bike_id":"0a3b5238-d1e9-4715-a08c-7107b961f7e7","system_id":"levelo_inurba_marseille","lat":43.29578,"lon":5.42276,"is_reserved":false,"is_disabled":true,"rental_uris":{"android":"levelo://app?vid=0a3b5238-d1e9-4715-a08c-7107b961f7e7","ios":"levelo://app?vid=0a3b5238-d1e9-4715-a08c-7107b961f7e7"},"vehicle_type_id":"4","last_reported":1737227149,"current_range_meters":800,"station_id":"ce4bhph2rcd13ifvqhdg","pricing_plan_id":"cebpf4jnsgd1na2vs0mg"},{"bike_id":"d9c5424c-2ffb-407d-aa3f-ecdabb59fa0b","system_id":"levelo_inurba_marseille","lat":43.2907,"lon":5.37161,"is_reserved":false,"is_disabled":false,"rental_uris":{"android":"levelo://app?vid=d9c5424c-2ffb-407d-aa3f-ecdabb59fa0b","ios":"levelo://app?vid=d9c5424c-2ffb-407d-aa3f-ecdabb59fa0b"},"vehicle_type_id":"4","last_reported":1737227149,"current_range_meters":17600,"station_id":"ce4bh5p2rcd13ifvqe4g","pricing_plan_id":"cebpf4jnsgd1na2vs0mg"},{"bike_id":"c6f874ed-7baa-4ffa-b8dc-93b47368c64c","system_id":"levelo_inurba_marseille","lat":43.27379,"lon":5.36245,"is_reserved":false,"is_disabled":false,"rental_uris":{"android":"levelo://app?vid=c6f874ed-7baa-4ffa-b8dc-93b47368c64c","ios":"levelo://app?vid=c6f874ed-7baa-4ffa-b8dc-93b47368c64c"},"vehicle_type_id":"4","last_reported":1737227149,"current_range_meters":36000,"station_id":"ce4bhbh2rcd13ifvqeo0","pricing_plan_id":"cebpf4jnsgd1na2vs0mg"},{"bike_id":"82eafdac-bd81-479d-a7b0-05db8ca76c26","system_id":"levelo_inurba_marseille","lat":43.25832,"lon":5.39416,"is_reserved":false,"is_disabled":true,"rental_uris":{"android":"levelo://app?vid=82eafdac-bd81-479d-a7b0-05db8ca76c26","ios":"levelo://app?vid=82eafdac-bd81-479d-a7b0-05db8ca76c26"},"vehicle_type_id":"4","last_reported":1737227149,"current_range_meters":0,"station_id":"ce4bhip2rcd13ifvqft0","pricing_plan_id":"cebpf4jnsgd1na2vs0mg"},{"bike_id":"69f71ef4-35ff-491f-b999-c5850f4e11bb","system_id":"levelo_inurba_marseille","lat":43.29421,"lon":5.38639,"is_reserved":false,"is_disabled":false,"rental_uris":{"android":"levelo://app?vid=69f71ef4-35ff-491f-b999-c5850f4e11bb","ios":"levelo://app?vid=69f71ef4-35ff-491f-b999-c5850f4e11bb"},"vehicle_type_id":"4","last_reported":1737227149,"current_range_meters":24400,"station_id":"ce4bh2h2rcd13ifvqdh0","pricing_plan_id":"cebpf4jnsgd1na2vs0mg"},{"bike_id":"320f6cd8-2447-4404-8e9d-49dfff10dd89","system_id":"levelo_inurba_marseille","lat":43.28676,"lon":5.38672,"is_reserved":false,"is_disabled":false,"rental_uris":{"android":"levelo://app?vid=320f6cd8-2447-4404-8e9d-49dfff10dd89","ios":"levelo://app?vid=320f6cd8-2447-4404-8e9d-49dfff10dd89"},"vehicle_type_id":"4","last_reported":1737227149,"current_range_meters":24000,"station_id":"ce4bh492rcd13ifvqdug","pricing_plan_id":"cebpf4jnsgd1na2vs0mg"},{"bike_id":"0d51cdbb-323f-4a82-9d51-32fc344d7fab","system_id":"levelo_inurba_marseille","lat":43.29277,"lon":5.36837,"is_reserved":false,"is_disabled":false,"rental_uris":{"android":"levelo://app?vid=0d51cdbb-323f-4a82-9d51-32fc344d7fab","ios":"levelo://app?vid=0d51cdbb-323f-4a82-9d51-32fc344d7fab"},"vehicle_type_id":"4","last_reported":1737227149,"current_range_meters":6400,"station_id":"ce4bhbp2rcd13ifvqesg","pricing_plan_id":"cebpf4jnsgd1na2vs0mg"},{"bike_id":"f0af00e6-e353-43c0-a029-850cea077ff9","system_id":"levelo_inurba_marseille","lat":43.2706,"lon":5.40263,"is_reserved":false,"is_disabled":true,"rental_uris":{"android":"levelo://app?vid=f0af00e6-e353-43c0-a029-850cea077ff9","ios":"levelo://app?vid=f0af00e6-e353-43c0-a029-850cea077ff9"},"vehicle_type_id":"4","last_reported":1737227149,"current_range_meters":800,"station_id":"ce4bhk92rcd13ifvqgc0","pricing_plan_id":"cebpf4jnsgd1na2vs0mg"},{"bike_id":"795eecc7-29da-4261-9be8-c596d617221c","system_id":"levelo_inurba_marseille","lat":43.278185,"lon":5.406972,"is_reserved":false,"is_disabled":false,"rental_uris":{"android":"levelo://app?vid=795eecc7-29da-4261-9be8-c596d617221c","ios":"levelo://app?vid=795eecc7-29da-4261-9be8-c596d617221c"},"vehicle_type_id":"4","last_reported":1737227149,"current_range_meters":14000,"station_id":"ce4bhnh2rcd13ifvqgtg","pricing_plan_id":"cebpf4jnsgd1na2vs0mg"},{"bike_id":"35deb437-7ef2-4ee7-9ea5-27ce0001ca7b","system_id":"levelo_inurba_marseille","lat":43.26052,"lon":5.3938,"is_reserved":false,"is_disabled":false,"rental_uris":{"android":"levelo://app?vid=35deb437-7ef2-4ee7-9ea5-27ce0001ca7b","ios":"levelo://app?vid=35deb437-7ef2-4ee7-9ea5-27ce0001ca7b"},"vehicle_type_id":"4","last_reported":1737227149,"current_range_meters":37600,"station_id":"ce4bhh92rcd13ifvqfj0","pricing_plan_id":"cebpf4jnsgd1na2vs0mg"},{"bike_id":"38b1c776-0eca-46f3-b347-23d04a39a3c7","system_id":"levelo_inurba_marseille","lat":43.28704,"lon":5.39987,"is_reserved":false,"is_disabled":false,"rental_uris":{"android":"levelo://app?vid=38b1c776-0eca-46f3-b347-23d04a39a3c7","ios":"levelo://app?vid=38b1c776-0eca-46f3-b347-23d04a39a3c7"},"vehicle_type_id":"4","last_reported":1737227149,"current_range_meters":16800,"station_id":"ce4bho92rcd13ifvqh3g","pricing_plan_id":"cebpf4jnsgd1na2vs0mg"},{"bike_id":"f2390374-e060-4fe1-bcfa-cb2711193e58","system_id":"levelo_inurba_marseille","lat":43.2509,"lon":5.39518,"is_reserved":false,"is_disabled":false,"rental_uris":{"android":"levelo://app?vid=f2390374-e060-4fe1-bcfa-cb2711193e58","ios":"levelo://app?vid=f2390374-e060-4fe1-bcfa-cb2711193e58"},"vehicle_type_id":"4","last_reported":1737227149,"current_range_meters":9200,"station_id":"ce4bhm12rcd13ifvqgkg","pricing_plan_id":"cebpf4jnsgd1na2vs0mg"},{"bike_id":"3839dff0-5b89-4cd7-9bfc-f81bf27e098e","system_id":"levelo_inurba_marseille","lat":43.29026,"lon":5.38657,"is_reserved":false,"is_disabled":false,"rental_uris":{"android":"levelo://app?vid=3839dff0-5b89-4cd7-9bfc-f81bf27e098e","ios":"levelo://app?vid=3839dff0-5b89-4cd7-9bfc-f81bf27e098e"},"vehicle_type_id":"4","last_reported":1737227149,"current_range_meters":16800,"station_id":"ce4bh4p2rcd13ifvqe0g","pricing_plan_id":"cebpf4jnsgd1na2vs0mg"},{"bike_id":"f363a7de-e654-4c57-98ea-610ee3c38f29","system_id":"levelo_inurba_marseille","lat":43.28702,"lon":5.40002,"is_reserved":false,"is_disabled":false,"rental_uris":{"android":"levelo://app?vid=f363a7de-e654-4c57-98ea-610ee3c38f29","ios":"levelo://app?vid=f363a7de-e654-4c57-98ea-610ee3c38f29"},"vehicle_type_id":"4","last_reported":1737227149,"current_range_meters":38400,"station_id":"ce4bho92rcd13ifvqh3g","pricing_plan_id":"cebpf4jnsgd1na2vs0mg"},{"bike_id":"70343277-9077-46c3-8d76-0d148e2a5fe2","system_id":"levelo_inurba_marseille","lat":43.29199,"lon":5.39319,"is_reserved":false,"is_disabled":false,"rental_uris":{"android":"levelo://app?vid=70343277-9077-46c3-8d76-0d148e2a5fe2","ios":"levelo://app?vid=70343277-9077-46c3-8d76-0d148e2a5fe2"},"vehicle_type_id":"4","last_reported":1737227149,"current_range_meters":29600,"station_id":"ce4bh192rcd13ifvqdd0","pricing_plan_id":"cebpf4jnsgd1na2vs0mg"},{"bike_id":"d6161db6-0288-4eaf-b39b-605e25ca46ff","system_id":"levelo_inurba_marseille","lat":43.27422,"lon":5.39399,"is_reserved":false,"is_disabled":true,"rental_uris":{"android":"levelo://app?vid=d6161db6-0288-4eaf-b39b-605e25ca46ff","ios":"levelo://app?vid=d6161db6-0288-4eaf-b39b-605e25ca46ff"},"vehicle_type_id":"4","last_reported":1737227149,"current_range_meters":0,"station_id":"ce4bhdp2rcd13ifvqf20","pricing_plan_id":"cebpf4jnsgd1na2vs0mg"},{"bike_id":"c87bd272-e537-4ca8-8621-88fd6bdfad6e","system_id":"levelo_inurba_marseille","lat":43.29011,"lon":5.3815,"is_reserved":false,"is_disabled":false,"rental_uris":{"android":"levelo://app?vid=c87bd272-e537-4ca8-8621-88fd6bdfad6e","ios":"levelo://app?vid=c87bd272-e537-4ca8-8621-88fd6bdfad6e"},"vehicle_type_id":"4","last_reported":1737227149,"current_range_meters":27600,"station_id":"ce4bh4p2rcd13ifvqe1g","pricing_plan_id":"cebpf4jnsgd1na2vs0mg"},{"bike_id":"286a3f5f-47c7-4d49-b3d9-bdbca78ddca8","system_id":"levelo_inurba_marseille","lat":43.29526,"lon":5.39046,"is_reserved":false,"is_disabled":false,"rental_uris":{"android":"levelo://app?vid=286a3f5f-47c7-4d49-b3d9-bdbca78ddca8","ios":"levelo://app?vid=286a3f5f-47c7-4d49-b3d9-bdbca78ddca8"},"vehicle_type_id":"4","last_reported":1737227149,"current_range_meters":32800,"station_id":"ce4bh3p2rcd13ifvqdp0","pricing_plan_id":"cebpf4jnsgd1na2vs0mg"},{"bike_id":"127cf673-d8af-46e5-96fa-f6b4f37f1082","system_id":"levelo_inurba_marseille","lat":43.30645,"lon":5.40095,"is_reserved":false,"is_disabled":false,"rental_uris":{"android":"levelo://app?vid=127cf673-d8af-46e5-96fa-f6b4f37f1082","ios":"levelo://app?vid=127cf673-d8af-46e5-96fa-f6b4f37f1082"},"vehicle_type_id":"4","last_reported":1737227149,"current_range_meters":32000,"station_id":"ce4bh112rcd13ifvqda0","pricing_plan_id":"cebpf4jnsgd1na2vs0mg"},{"bike_id":"2a6c8aef-7633-4410-aa65-ead7161fa29b","system_id":"levelo_inurba_marseille","lat":43.31259,"lon":5.36827,"is_reserved":false,"is_disabled":false,"rental_uris":{"android":"levelo://app?vid=2a6c8aef-7633-4410-aa65-ead7161fa29b","ios":"levelo://app?vid=2a6c8aef-7633-4410-aa65-ead7161fa29b"},"vehicle_type_id":"4","last_reported":1737227149,"current_range_meters":37600,"station_id":"ce4bgl92rcd13ifvqbq0","pricing_plan_id":"cebpf4jnsgd1na2vs0mg"},{"bike_id":"1e43f0f8-4119-4f43-9f7c-8fe98515c149","system_id":"levelo_inurba_marseille","lat":43.30885,"lon":5.37193,"is_reserved":false,"is_disabled":false,"rental_uris":{"android":"levelo://app?vid=1e43f0f8-4119-4f43-9f7c-8fe98515c149","ios":"levelo://app?vid=1e43f0f8-4119-4f43-9f7c-8fe98515c149"},"vehicle_type_id":"4","last_reported":1737227149,"current_range_meters":38400,"station_id":"ce4bguh2rcd13ifvqckg","pricing_plan_id":"cebpf4jnsgd1na2vs0mg"},{"bike_id":"a95248e8-7ba2-479e-9b5c-9fb4d8e98c2b","system_id":"levelo_inurba_marseille","lat":43.28109,"lon":5.42196,"is_reserved":false,"is_disabled":true,"rental_uris":{"android":"levelo://app?vid=a95248e8-7ba2-479e-9b5c-9fb4d8e98c2b","ios":"levelo://app?vid=a95248e8-7ba2-479e-9b5c-9fb4d8e98c2b"},"vehicle_type_id":"4","last_reported":1737227149,"current_range_meters":0,"station_id":"","pricing_plan_id":"cebpf4jnsgd1na2vs0mg"},{"bike_id":"246f2aa1-d855-40ee-b8e2-0e541013d632","system_id":"levelo_inurba_marseille","lat":43.27812,"lon":5.40718,"is_reserved":false,"is_disabled":true,"rental_uris":{"android":"levelo://app?vid=246f2aa1-d855-40ee-b8e2-0e541013d632","ios":"levelo://app?vid=246f2aa1-d855-40ee-b8e2-0e541013d632"},"vehicle_type_id":"4","last_reported":1737227149,"current_range_meters":0,"station_id":"ce4bhnh2rcd13ifvqgtg","pricing_plan_id":"cebpf4jnsgd1na2vs0mg"},{"bike_id":"87cefc3a-e36a-4030-9c3f-9fc87455f3e3","system_id":"levelo_inurba_marseille","lat":43.27384,"lon":5.36254,"is_reserved":false,"is_disabled":false,"rental_uris":{"android":"levelo://app?vid=87cefc3a-e36a-4030-9c3f-9fc87455f3e3","ios":"levelo://app?vid=87cefc3a-e36a-4030-9c3f-9fc87455f3e3"},"vehicle_type_id":"4","last_reported":1737227149,"current_range_meters":38800,"station_id":"ce4bhbh2rcd13ifvqeo0","pricing_plan_id":"cebpf4jnsgd1na2vs0mg"},{"bike_id":"458283ee-1215-4adf-925f-85f17f14cef5","system_id":"levelo_inurba_marseille","lat":43.28434,"lon":5.39168,"is_reserved":false,"is_disabled":false,"rental_uris":{"android":"levelo://app?vid=458283ee-1215-4adf-925f-85f17f14cef5","ios":"levelo://app?vid=458283ee-1215-4adf-925f-85f17f14cef5"},"vehicle_type_id":"4","last_reported":1737227149,"current_range_meters":38800,"station_id":"ce4bhoh2rcd13ifvqh5g","pricing_plan_id":"cebpf4jnsgd1na2vs0mg"},{"bike_id":"4abb63f6-cf8d-4c9e-a79f-9848d6633504","system_id":"levelo_inurba_marseille","lat":43.26556,"lon":5.37283,"is_reserved":false,"is_disabled":false,"rental_uris":{"android":"levelo://app?vid=4abb63f6-cf8d-4c9e-a79f-9848d6633504","ios":"levelo://app?vid=4abb63f6-cf8d-4c9e-a79f-9848d6633504"},"vehicle_type_id":"4","last_reported":1737227149,"current_range_meters":27600,"station_id":"ce4bhg12rcd13ifvqf70","pricing_plan_id":"cebpf4jnsgd1na2vs0mg"},{"bike_id":"5e3d58e5-cdc9-46f3-841c-2b3858ff80a3","system_id":"levelo_inurba_marseille","lat":43.29894,"lon":5.39738,"is_reserved":false,"is_disabled":false,"rental_uris":{"android":"levelo://app?vid=5e3d58e5-cdc9-46f3-841c-2b3858ff80a3","ios":"levelo://app?vid=5e3d58e5-cdc9-46f3-841c-2b3858ff80a3"},"vehicle_type_id":"4","last_reported":1737227149,"current_range_meters":37600,"station_id":"ce4bh0h2rcd13ifvqd50","pricing_plan_id":"cebpf4jnsgd1na2vs0mg"},{"bike_id":"2189f33e-4cfd-4f76-9d91-913095d551c4","system_id":"levelo_inurba_marseille","lat":43.3036,"lon":5.39073,"is_reserved":false,"is_disabled":true,"rental_uris":{"android":"levelo://app?vid=2189f33e-4cfd-4f76-9d91-913095d551c4","ios":"levelo://app?vid=2189f33e-4cfd-4f76-9d91-913095d551c4"},"vehicle_type_id":"4","last_reported":1737227149,"current_range_meters":0,"station_id":"","pricing_plan_id":"cebpf4jnsgd1na2vs0mg"},{"bike_id":"4ce5de8a-e3f2-4902-89c6-b1cb470a240f","system_id":"levelo_inurba_marseille","lat":43.29625,"lon":5.37155,"is_reserved":false,"is_disabled":false,"rental_uris":{"android":"levelo://app?vid=4ce5de8a-e3f2-4902-89c6-b1cb470a240f","ios":"levelo://app?vid=4ce5de8a-e3f2-4902-89c6-b1cb470a240f"},"vehicle_type_id":"4","last_reported":1737227149,"current_range_meters":28800,"station_id":"ce4bgnh2rcd13ifvqc0g","pricing_plan_id":"cebpf4jnsgd1na2vs0mg"},{"bike_id":"6e451dab-afed-4c24-acff-00a9f906c1bb","system_id":"levelo_inurba_marseille","lat":43.27675,"lon":5.38875,"is_reserved":false,"is_disabled":false,"rental_uris":{"android":"levelo://app?vid=6e451dab-afed-4c24-acff-00a9f906c1bb","ios":"levelo://app?vid=6e451dab-afed-4c24-acff-00a9f906c1bb"},"vehicle_type_id":"4","last_reported":1737227149,"current_range_meters":16400,"station_id":"ce4bhi12rcd13ifvqfo0","pricing_plan_id":"cebpf4jnsgd1na2vs0mg"},{"bike_id":"7383474c-b45a-4438-837c-99d7ae866fe7","system_id":"levelo_inurba_marseille","lat":43.26056,"lon":5.39387,"is_reserved":false,"is_disabled":false,"rental_uris":{"android":"levelo://app?vid=7383474c-b45a-4438-837c-99d7ae866fe7","ios":"levelo://app?vid=7383474c-b45a-4438-837c-99d7ae866fe7"},"vehicle_type_id":"4","last_reported":1737227149,"current_range_meters":37600,"station_id":"ce4bhh92rcd13ifvqfj0","pricing_plan_id":"cebpf4jnsgd1na2vs0mg"},{"bike_id":"541b7769-8083-411e-ad4d-d20a4dfa7b91","system_id":"levelo_inurba_marseille","lat":43.31284,"lon":5.40152,"is_reserved":false,"is_disabled":false,"rental_uris":{"android":"levelo://app?vid=541b7769-8083-411e-ad4d-d20a4dfa7b91","ios":"levelo://app?vid=541b7769-8083-411e-ad4d-d20a4dfa7b91"},"vehicle_type_id":"4","last_reported":1737227149,"current_range_meters":38800,"station_id":"ce4bh092rcd13ifvqd30","pricing_plan_id":"cebpf4jnsgd1na2vs0mg"},{"bike_id":"b85be49b-1edb-48b9-8821-d881900df471","system_id":"levelo_inurba_marseille","lat":43.29638,"lon":5.37156,"is_reserved":false,"is_disabled":false,"rental_uris":{"android":"levelo://app?vid=b85be49b-1edb-48b9-8821-d881900df471","ios":"levelo://app?vid=b85be49b-1edb-48b9-8821-d881900df471"},"vehicle_type_id":"4","last_reported":1737227149,"current_range_meters":18800,"station_id":"ce4bgnh2rcd13ifvqc0g","pricing_plan_id":"cebpf4jnsgd1na2vs0mg"},{"bike_id":"0d5bf58b-8962-4322-87c4-754920ec04ac","system_id":"levelo_inurba_marseille","lat":43.31189,"lon":5.38725,"is_reserved":false,"is_disabled":true,"rental_uris":{"android":"levelo://app?vid=0d5bf58b-8962-4322-87c4-754920ec04ac","ios":"levelo://app?vid=0d5bf58b-8962-4322-87c4-754920ec04ac"},"vehicle_type_id":"4","last_reported":1737227149,"current_range_meters":36000,"station_id":"ce4bgv12rcd13ifvqcp0","pricing_plan_id":"cebpf4jnsgd1na2vs0mg"},{"bike_id":"c92cbb9f-5a8c-4f30-b00a-221ba31b944d","system_id":"levelo_inurba_marseille","lat":43.28418,"lon":5.34977,"is_reserved":false,"is_disabled":true,"rental_uris":{"android":"levelo://app?vid=c92cbb9f-5a8c-4f30-b00a-221ba31b944d","ios":"levelo://app?vid=c92cbb9f-5a8c-4f30-b00a-221ba31b944d"},"vehicle_type_id":"4","last_reported":1737227149,"current_range_meters":35200,"station_id":"ce4bhbh2rcd13ifvqepg","pricing_plan_id":"cebpf4jnsgd1na2vs0mg"},{"bike_id":"aa437464-0ed8-45e4-a41c-0f3cef63db78","system_id":"levelo_inurba_marseille","lat":43.30311,"lon":5.36901,"is_reserved":false,"is_disabled":false,"rental_uris":{"android":"levelo://app?vid=aa437464-0ed8-45e4-a41c-0f3cef63db78","ios":"levelo://app?vid=aa437464-0ed8-45e4-a41c-0f3cef63db78"},"vehicle_type_id":"4","last_reported":1737227149,"current_range_meters":25200,"station_id":"ce4bgqh2rcd13ifvqc5g","pricing_plan_id":"cebpf4jnsgd1na2vs0mg"},{"bike_id":"f928f9d6-2083-49a3-af2f-59474c5a2832","system_id":"levelo_inurba_marseille","lat":43.28928,"lon":5.38402,"is_reserved":false,"is_disabled":false,"rental_uris":{"android":"levelo://app?vid=f928f9d6-2083-49a3-af2f-59474c5a2832","ios":"levelo://app?vid=f928f9d6-2083-49a3-af2f-59474c5a2832"},"vehicle_type_id":"4","last_reported":1737227149,"current_range_meters":38800,"station_id":"ce4bh612rcd13ifvqe6g","pricing_plan_id":"cebpf4jnsgd1na2vs0mg"},{"bike_id":"2aa7af5c-8cdd-4fa3-b9ba-896e4268a6da","system_id":"levelo_inurba_marseille","lat":43.29533,"lon":5.38541,"is_reserved":false,"is_disabled":false,"rental_uris":{"android":"levelo://app?vid=2aa7af5c-8cdd-4fa3-b9ba-896e4268a6da","ios":"levelo://app?vid=2aa7af5c-8cdd-4fa3-b9ba-896e4268a6da"},"vehicle_type_id":"4","last_reported":1737227149,"current_range_meters":20400,"station_id":"ce4bgih2rcd13ifvqba0","pricing_plan_id":"cebpf4jnsgd1na2vs0mg"},{"bike_id":"fe90f7a6-3920-456a-9451-50d213b7000f","system_id":"levelo_inurba_marseille","lat":43.28488,"lon":5.38425,"is_reserved":false,"is_disabled":true,"rental_uris":{"android":"levelo://app?vid=fe90f7a6-3920-456a-9451-50d213b7000f","ios":"levelo://app?vid=fe90f7a6-3920-456a-9451-50d213b7000f"},"vehicle_type_id":"4","last_reported":1737227149,"current_range_meters":36000,"station_id":"ce4bh512rcd13ifvqe3g","pricing_plan_id":"cebpf4jnsgd1na2vs0mg"},{"bike_id":"c75a57a1-600f-4935-a0b3-f42bde8268df","system_id":"levelo_inurba_marseille","lat":43.29898,"lon":5.43664,"is_reserved":false,"is_disabled":false,"rental_uris":{"android":"levelo://app?vid=c75a57a1-600f-4935-a0b3-f42bde8268df","ios":"levelo://app?vid=c75a57a1-600f-4935-a0b3-f42bde8268df"},"vehicle_type_id":"4","last_reported":1737227149,"current_range_meters":14800,"station_id":"ce4bhpp2rcd13ifvqhfg","pricing_plan_id":"cebpf4jnsgd1na2vs0mg"},{"bike_id":"4eadf36c-a133-47d0-834f-7163aa503c9b","system_id":"levelo_inurba_marseille","lat":43.28477,"lon":5.38421,"is_reserved":false,"is_disabled":false,"rental_uris":{"android":"levelo://app?vid=4eadf36c-a133-47d0-834f-7163aa503c9b","ios":"levelo://app?vid=4eadf36c-a133-47d0-834f-7163aa503c9b"},"vehicle_type_id":"4","last_reported":1737227149,"current_range_meters":38800,"station_id":"ce4bh512rcd13ifvqe3g","pricing_plan_id":"cebpf4jnsgd1na2vs0mg"},{"bike_id":"a1993e4b-dda2-4a49-8512-d9258ad20858","system_id":"levelo_inurba_marseille","lat":43.299308,"lon":5.382147,"is_reserved":false,"is_disabled":false,"rental_uris":{"android":"levelo://app?vid=a1993e4b-dda2-4a49-8512-d9258ad20858","ios":"levelo://app?vid=a1993e4b-dda2-4a49-8512-d9258ad20858"},"vehicle_type_id":"4","last_reported":1737227149,"current_range_meters":30400,"station_id":"","pricing_plan_id":"cebpf4jnsgd1na2vs0mg"},{"bike_id":"82e192ed-8991-4b62-b4ba-49cc4138e08f","system_id":"levelo_inurba_marseille","lat":43.3081,"lon":5.37636,"is_reserved":false,"is_disabled":false,"rental_uris":{"android":"levelo://app?vid=82e192ed-8991-4b62-b4ba-49cc4138e08f","ios":"levelo://app?vid=82e192ed-8991-4b62-b4ba-49cc4138e08f"},"vehicle_type_id":"4","last_reported":1737227149,"current_range_meters":38000,"station_id":"ce4bgv92rcd13ifvqcq0","pricing_plan_id":"cebpf4jnsgd1na2vs0mg"},{"bike_id":"62b8620f-2bad-4b99-86b6-3ecbfb1fb840","system_id":"levelo_inurba_marseille","lat":43.30133,"lon":5.38766,"is_reserved":false,"is_disabled":false,"rental_uris":{"android":"levelo://app?vid=62b8620f-2bad-4b99-86b6-3ecbfb1fb840","ios":"levelo://app?vid=62b8620f-2bad-4b99-86b6-3ecbfb1fb840"},"vehicle_type_id":"4","last_reported":1737227149,"current_range_meters":38800,"station_id":"ce4bghh2rcd13ifvqb60","pricing_plan_id":"cebpf4jnsgd1na2vs0mg"},{"bike_id":"fcaf8c93-ae40-4672-ba1f-a455a006d19e","system_id":"levelo_inurba_marseille","lat":43.29273,"lon":5.36843,"is_reserved":false,"is_disabled":false,"rental_uris":{"android":"levelo://app?vid=fcaf8c93-ae40-4672-ba1f-a455a006d19e","ios":"levelo://app?vid=fcaf8c93-ae40-4672-ba1f-a455a006d19e"},"vehicle_type_id":"4","last_reported":1737227149,"current_range_meters":33600,"station_id":"ce4bhbp2rcd13ifvqesg","pricing_plan_id":"cebpf4jnsgd1na2vs0mg"},{"bike_id":"a9a0e60f-8e94-490a-988c-5a9cfc45d626","system_id":"levelo_inurba_marseille","lat":43.241734,"lon":5.363944,"is_reserved":false,"is_disabled":false,"rental_uris":{"android":"levelo://app?vid=a9a0e60f-8e94-490a-988c-5a9cfc45d626","ios":"levelo://app?vid=a9a0e60f-8e94-490a-988c-5a9cfc45d626"},"vehicle_type_id":"4","last_reported":1737227149,"current_range_meters":10000,"station_id":"cpo36qri1sfpv3e86is0","pricing_plan_id":"cebpf4jnsgd1na2vs0mg"},{"bike_id":"1e44658d-ba83-4212-b241-ec3d1b5534c8","system_id":"levelo_inurba_marseille","lat":43.27616,"lon":5.36124,"is_reserved":false,"is_disabled":false,"rental_uris":{"android":"levelo://app?vid=1e44658d-ba83-4212-b241-ec3d1b5534c8","ios":"levelo://app?vid=1e44658d-ba83-4212-b241-ec3d1b5534c8"},"vehicle_type_id":"4","last_reported":1737227149,"current_range_meters":18000,"station_id":"ce4bgj92rcd13ifvqbe0","pricing_plan_id":"cebpf4jnsgd1na2vs0mg"},{"bike_id":"5136cca2-dc79-42d5-a096-5120a2626c68","system_id":"levelo_inurba_marseille","lat":43.3093,"lon":5.40148,"is_reserved":false,"is_disabled":false,"rental_uris":{"android":"levelo://app?vid=5136cca2-dc79-42d5-a096-5120a2626c68","ios":"levelo://app?vid=5136cca2-dc79-42d5-a096-5120a2626c68"},"vehicle_type_id":"4","last_reported":1737227149,"current_range_meters":38800,"station_id":"ce4bgvp2rcd13ifvqct0","pricing_plan_id":"cebpf4jnsgd1na2vs0mg"},{"bike_id":"76dbf6ef-b4a8-4cef-8918-462b67116819","system_id":"levelo_inurba_marseille","lat":43.32272,"lon":5.38294,"is_reserved":false,"is_disabled":false,"rental_uris":{"android":"levelo://app?vid=76dbf6ef-b4a8-4cef-8918-462b67116819","ios":"levelo://app?vid=76dbf6ef-b4a8-4cef-8918-462b67116819"},"vehicle_type_id":"4","last_reported":1737227149,"current_range_meters":38800,"station_id":"ce4bhr12rcd13ifvqhqg","pricing_plan_id":"cebpf4jnsgd1na2vs0mg"},{"bike_id":"57198719-926f-40a5-bdfa-a0e2303ea3cd","system_id":"levelo_inurba_marseille","lat":43.25872,"lon":5.39897,"is_reserved":false,"is_disabled":false,"rental_uris":{"android":"levelo://app?vid=57198719-926f-40a5-bdfa-a0e2303ea3cd","ios":"levelo://app?vid=57198719-926f-40a5-bdfa-a0e2303ea3cd"},"vehicle_type_id":"4","last_reported":1737227149,"current_range_meters":39200,"station_id":"ce4bhl92rcd13ifvqghg","pricing_plan_id":"cebpf4jnsgd1na2vs0mg"},{"bike_id":"519e6aeb-4661-40b0-a9a0-273b8f0290d7","system_id":"levelo_inurba_marseille","lat":43.28488,"lon":5.3855,"is_reserved":false,"is_disabled":false,"rental_uris":{"android":"levelo://app?vid=519e6aeb-4661-40b0-a9a0-273b8f0290d7","ios":"levelo://app?vid=519e6aeb-4661-40b0-a9a0-273b8f0290d7"},"vehicle_type_id":"4","last_reported":1737227149,"current_range_meters":35600,"station_id":"ce4bh8p2rcd13ifvqeb0","pricing_plan_id":"cebpf4jnsgd1na2vs0mg"},{"bike_id":"8937c1c8-562a-495c-8124-976682d2ff2f","system_id":"levelo_inurba_marseille","lat":43.30934,"lon":5.40146,"is_reserved":false,"is_disabled":false,"rental_uris":{"android":"levelo://app?vid=8937c1c8-562a-495c-8124-976682d2ff2f","ios":"levelo://app?vid=8937c1c8-562a-495c-8124-976682d2ff2f"},"vehicle_type_id":"4","last_reported":1737227149,"current_range_meters":38800,"station_id":"ce4bgvp2rcd13ifvqct0","pricing_plan_id":"cebpf4jnsgd1na2vs0mg"},{"bike_id":"5539b369-041f-4e38-b0f8-84b8e3d28513","system_id":"levelo_inurba_marseille","lat":43.29263,"lon":5.38452,"is_reserved":false,"is_disabled":false,"rental_uris":{"android":"levelo://app?vid=5539b369-041f-4e38-b0f8-84b8e3d28513","ios":"levelo://app?vid=5539b369-041f-4e38-b0f8-84b8e3d28513"},"vehicle_type_id":"4","last_reported":1737227149,"current_range_meters":17600,"station_id":"ce4bh692rcd13ifvqea0","pricing_plan_id":"cebpf4jnsgd1na2vs0mg"},{"bike_id":"a6614ad9-36c5-4782-88c4-6856e10e703c","system_id":"levelo_inurba_marseille","lat":43.31476,"lon":5.37311,"is_reserved":false,"is_disabled":false,"rental_uris":{"android":"levelo://app?vid=a6614ad9-36c5-4782-88c4-6856e10e703c","ios":"levelo://app?vid=a6614ad9-36c5-4782-88c4-6856e10e703c"},"vehicle_type_id":"4","last_reported":1737227149,"current_range_meters":3200,"station_id":"ce4bgt12rcd13ifvqcd0","pricing_plan_id":"cebpf4jnsgd1na2vs0mg"},{"bike_id":"0fcb6675-0185-4a27-9dd5-3e147423cdf6","system_id":"levelo_inurba_marseille","lat":43.308818,"lon":5.372017,"is_reserved":false,"is_disabled":false,"rental_uris":{"android":"levelo://app?vid=0fcb6675-0185-4a27-9dd5-3e147423cdf6","ios":"levelo://app?vid=0fcb6675-0185-4a27-9dd5-3e147423cdf6"},"vehicle_type_id":"4","last_reported":1737227149,"current_range_meters":19600,"station_id":"ce4bguh2rcd13ifvqckg","pricing_plan_id":"cebpf4jnsgd1na2vs0mg"},{"bike_id":"f5863b18-13a1-4c6e-92de-5668ea912ad3","system_id":"levelo_inurba_marseille","lat":43.26313,"lon":5.40391,"is_reserved":false,"is_disabled":true,"rental_uris":{"android":"levelo://app?vid=f5863b18-13a1-4c6e-92de-5668ea912ad3","ios":"levelo://app?vid=f5863b18-13a1-4c6e-92de-5668ea912ad3"},"vehicle_type_id":"4","last_reported":1737227149,"current_range_meters":0,"station_id":"","pricing_plan_id":"cebpf4jnsgd1na2vs0mg"},{"bike_id":"17a615f6-6ac4-42da-9570-43c6086022ec","system_id":"levelo_inurba_marseille","lat":43.28977,"lon":5.37827,"is_reserved":false,"is_disabled":false,"rental_uris":{"android":"levelo://app?vid=17a615f6-6ac4-42da-9570-43c6086022ec","ios":"levelo://app?vid=17a615f6-6ac4-42da-9570-43c6086022ec"},"vehicle_type_id":"4","last_reported":1737227149,"current_range_meters":37600,"station_id":"ce4bh9p2rcd13ifvqed0","pricing_plan_id":"cebpf4jnsgd1na2vs0mg"},{"bike_id":"47b935dd-f1c3-4468-9bb1-4f34f7095ca1","system_id":"levelo_inurba_marseille","lat":43.27385,"lon":5.36256,"is_reserved":false,"is_disabled":false,"rental_uris":{"android":"levelo://app?vid=47b935dd-f1c3-4468-9bb1-4f34f7095ca1","ios":"levelo://app?vid=47b935dd-f1c3-4468-9bb1-4f34f7095ca1"},"vehicle_type_id":"4","last_reported":1737227149,"current_range_meters":38800,"station_id":"ce4bhbh2rcd13ifvqeo0","pricing_plan_id":"cebpf4jnsgd1na2vs0mg"},{"bike_id":"fc09874d-d598-4c3b-96f6-47944d7b0811","system_id":"levelo_inurba_marseille","lat":43.28271,"lon":5.35076,"is_reserved":false,"is_disabled":true,"rental_uris":{"android":"levelo://app?vid=fc09874d-d598-4c3b-96f6-47944d7b0811","ios":"levelo://app?vid=fc09874d-d598-4c3b-96f6-47944d7b0811"},"vehicle_type_id":"4","last_reported":1737227149,"current_range_meters":400,"station_id":"ce4bhbp2rcd13ifvqerg","pricing_plan_id":"cebpf4jnsgd1na2vs0mg"},{"bike_id":"ff799074-43a9-452a-9fe7-07dd0bd1c3b5","system_id":"levelo_inurba_marseille","lat":43.26215,"lon":5.37441,"is_reserved":false,"is_disabled":false,"rental_uris":{"android":"levelo://app?vid=ff799074-43a9-452a-9fe7-07dd0bd1c3b5","ios":"levelo://app?vid=ff799074-43a9-452a-9fe7-07dd0bd1c3b5"},"vehicle_type_id":"4","last_reported":1737227149,"current_range_meters":38800,"station_id":"ce4bhgp2rcd13ifvqfc0","pricing_plan_id":"cebpf4jnsgd1na2vs0mg"},{"bike_id":"46686b70-f375-4947-b209-2f4548c2edcf","system_id":"levelo_inurba_marseille","lat":43.28885,"lon":5.3945,"is_reserved":false,"is_disabled":true,"rental_uris":{"android":"levelo://app?vid=46686b70-f375-4947-b209-2f4548c2edcf","ios":"levelo://app?vid=46686b70-f375-4947-b209-2f4548c2edcf"},"vehicle_type_id":"4","last_reported":1737227149,"current_range_meters":0,"station_id":"","pricing_plan_id":"cebpf4jnsgd1na2vs0mg"},{"bike_id":"0cc939ab-dfbe-4f34-911e-3a1bfbf3e249","system_id":"levelo_inurba_marseille","lat":43.29533,"lon":5.39397,"is_reserved":false,"is_disabled":false,"rental_uris":{"android":"levelo://app?vid=0cc939ab-dfbe-4f34-911e-3a1bfbf3e249","ios":"levelo://app?vid=0cc939ab-dfbe-4f34-911e-3a1bfbf3e249"},"vehicle_type_id":"4","last_reported":1737227149,"current_range_meters":14400,"station_id":"ce4bh292rcd13ifvqdf0","pricing_plan_id":"cebpf4jnsgd1na2vs0mg"},{"bike_id":"d4053036-8a99-4ed7-a006-28cd491a2e5f","system_id":"levelo_inurba_marseille","lat":43.31365,"lon":5.38488,"is_reserved":false,"is_disabled":false,"rental_uris":{"android":"levelo://app?vid=d4053036-8a99-4ed7-a006-28cd491a2e5f","ios":"levelo://app?vid=d4053036-8a99-4ed7-a006-28cd491a2e5f"},"vehicle_type_id":"4","last_reported":1737227149,"current_range_meters":30800,"station_id":"ce4bgt92rcd13ifvqcf0","pricing_plan_id":"cebpf4jnsgd1na2vs0mg"},{"bike_id":"d40c98ec-4b6b-40f9-a65b-983d2be168b5","system_id":"levelo_inurba_marseille","lat":43.30144,"lon":5.37411,"is_reserved":false,"is_disabled":false,"rental_uris":{"android":"levelo://app?vid=d40c98ec-4b6b-40f9-a65b-983d2be168b5","ios":"levelo://app?vid=d40c98ec-4b6b-40f9-a65b-983d2be168b5"},"vehicle_type_id":"4","last_reported":1737227149,"current_range_meters":28000,"station_id":"ce4bgs92rcd13ifvqcc0","pricing_plan_id":"cebpf4jnsgd1na2vs0mg"},{"bike_id":"d98e02b5-63f8-41a9-a805-d3a01e1be788","system_id":"levelo_inurba_marseille","lat":43.2827,"lon":5.35068,"is_reserved":false,"is_disabled":false,"rental_uris":{"android":"levelo://app?vid=d98e02b5-63f8-41a9-a805-d3a01e1be788","ios":"levelo://app?vid=d98e02b5-63f8-41a9-a805-d3a01e1be788"},"vehicle_type_id":"4","last_reported":1737227149,"current_range_meters":38800,"station_id":"ce4bhbp2rcd13ifvqerg","pricing_plan_id":"cebpf4jnsgd1na2vs0mg"},{"bike_id":"883b7c07-8fdd-4195-9f5b-e8165f694368","system_id":"levelo_inurba_marseille","lat":43.25872,"lon":5.39906,"is_reserved":false,"is_disabled":false,"rental_uris":{"android":"levelo://app?vid=883b7c07-8fdd-4195-9f5b-e8165f694368","ios":"levelo://app?vid=883b7c07-8fdd-4195-9f5b-e8165f694368"},"vehicle_type_id":"4","last_reported":1737227149,"current_range_meters":24800,"station_id":"ce4bhl92rcd13ifvqghg","pricing_plan_id":"cebpf4jnsgd1na2vs0mg"},{"bike_id":"b7097a42-efed-4ad7-b54b-9b806bc8ae9d","system_id":"levelo_inurba_marseille","lat":43.30916,"lon":5.3685,"is_reserved":false,"is_disabled":false,"rental_uris":{"android":"levelo://app?vid=b7097a42-efed-4ad7-b54b-9b806bc8ae9d","ios":"levelo://app?vid=b7097a42-efed-4ad7-b54b-9b806bc8ae9d"},"vehicle_type_id":"4","last_reported":1737227149,"current_range_meters":37600,"station_id":"ce4bgn92rcd13ifvqbvg","pricing_plan_id":"cebpf4jnsgd1na2vs0mg"},{"bike_id":"4413d2d0-8a44-4c56-903c-7b2ddbfc50bc","system_id":"levelo_inurba_marseille","lat":43.26933,"lon":5.40267,"is_reserved":false,"is_disabled":false,"rental_uris":{"android":"levelo://app?vid=4413d2d0-8a44-4c56-903c-7b2ddbfc50bc","ios":"levelo://app?vid=4413d2d0-8a44-4c56-903c-7b2ddbfc50bc"},"vehicle_type_id":"4","last_reported":1737227149,"current_range_meters":38800,"station_id":"cjm6bp8fraef2m0cb0m0","pricing_plan_id":"cebpf4jnsgd1na2vs0mg"},{"bike_id":"5017336f-0fcc-4983-97cb-9f7de0ce7bf7","system_id":"levelo_inurba_marseille","lat":43.29533,"lon":5.38537,"is_reserved":false,"is_disabled":false,"rental_uris":{"android":"levelo://app?vid=5017336f-0fcc-4983-97cb-9f7de0ce7bf7","ios":"levelo://app?vid=5017336f-0fcc-4983-97cb-9f7de0ce7bf7"},"vehicle_type_id":"4","last_reported":1737227149,"current_range_meters":33600,"station_id":"ce4bgih2rcd13ifvqba0","pricing_plan_id":"cebpf4jnsgd1na2vs0mg"},{"bike_id":"8b379556-cd3c-4895-8fd6-65a44c58e0f2","system_id":"levelo_inurba_marseille","lat":43.29793,"lon":5.37105,"is_reserved":false,"is_disabled":false,"rental_uris":{"android":"levelo://app?vid=8b379556-cd3c-4895-8fd6-65a44c58e0f2","ios":"levelo://app?vid=8b379556-cd3c-4895-8fd6-65a44c58e0f2"},"vehicle_type_id":"4","last_reported":1737227149,"current_range_meters":9200,"station_id":"ce4bgop2rcd13ifvqc1g","pricing_plan_id":"cebpf4jnsgd1na2vs0mg"},{"bike_id":"5deef3b2-d489-42e2-b180-fce0dc75d0c7","system_id":"levelo_inurba_marseille","lat":43.29045,"lon":5.37564,"is_reserved":false,"is_disabled":false,"rental_uris":{"android":"levelo://app?vid=5deef3b2-d489-42e2-b180-fce0dc75d0c7","ios":"levelo://app?vid=5deef3b2-d489-42e2-b180-fce0dc75d0c7"},"vehicle_type_id":"4","last_reported":1737227149,"current_range_meters":38800,"station_id":"ce4bh692rcd13ifvqe90","pricing_plan_id":"cebpf4jnsgd1na2vs0mg"},{"bike_id":"6870a9e0-7988-452a-a0a6-84e136278682","system_id":"levelo_inurba_marseille","lat":43.26547,"lon":5.37286,"is_reserved":false,"is_disabled":false,"rental_uris":{"android":"levelo://app?vid=6870a9e0-7988-452a-a0a6-84e136278682","ios":"levelo://app?vid=6870a9e0-7988-452a-a0a6-84e136278682"},"vehicle_type_id":"4","last_reported":1737227149,"current_range_meters":36800,"station_id":"ce4bhg12rcd13ifvqf70","pricing_plan_id":"cebpf4jnsgd1na2vs0mg"},{"bike_id":"03ae46b2-9a3a-42b7-b4fa-c50b53d050cc","system_id":"levelo_inurba_marseille","lat":43.31492,"lon":5.37304,"is_reserved":false,"is_disabled":false,"rental_uris":{"android":"levelo://app?vid=03ae46b2-9a3a-42b7-b4fa-c50b53d050cc","ios":"levelo://app?vid=03ae46b2-9a3a-42b7-b4fa-c50b53d050cc"},"vehicle_type_id":"4","last_reported":1737227149,"current_range_meters":38800,"station_id":"ce4bgt12rcd13ifvqcd0","pricing_plan_id":"cebpf4jnsgd1na2vs0mg"},{"bike_id":"7e7e1ecc-6b1b-4d65-a58a-87b33d4a82d0","system_id":"levelo_inurba_marseille","lat":43.26552,"lon":5.37276,"is_reserved":false,"is_disabled":true,"rental_uris":{"android":"levelo://app?vid=7e7e1ecc-6b1b-4d65-a58a-87b33d4a82d0","ios":"levelo://app?vid=7e7e1ecc-6b1b-4d65-a58a-87b33d4a82d0"},"vehicle_type_id":"4","last_reported":1737227149,"current_range_meters":800,"station_id":"ce4bhg12rcd13ifvqf70","pricing_plan_id":"cebpf4jnsgd1na2vs0mg"},{"bike_id":"8d6893ce-9784-4f54-b1d2-57d54414c78c","system_id":"levelo_inurba_marseille","lat":43.280325,"lon":5.369504,"is_reserved":false,"is_disabled":false,"rental_uris":{"android":"levelo://app?vid=8d6893ce-9784-4f54-b1d2-57d54414c78c","ios":"levelo://app?vid=8d6893ce-9784-4f54-b1d2-57d54414c78c"},"vehicle_type_id":"4","last_reported":1737227149,"current_range_meters":38800,"station_id":"ce4bha12rcd13ifvqef0","pricing_plan_id":"cebpf4jnsgd1na2vs0mg"},{"bike_id":"f1a7f38f-da47-4d01-8e13-b9bd13fc5e6b","system_id":"levelo_inurba_marseille","lat":43.30212,"lon":5.39468,"is_reserved":false,"is_disabled":false,"rental_uris":{"android":"levelo://app?vid=f1a7f38f-da47-4d01-8e13-b9bd13fc5e6b","ios":"levelo://app?vid=f1a7f38f-da47-4d01-8e13-b9bd13fc5e6b"},"vehicle_type_id":"4","last_reported":1737227149,"current_range_meters":32000,"station_id":"ce4bh0p2rcd13ifvqd70","pricing_plan_id":"cebpf4jnsgd1na2vs0mg"},{"bike_id":"190c7cf9-d968-421b-9d28-8e089e9caee9","system_id":"levelo_inurba_marseille","lat":43.296211,"lon":5.371615,"is_reserved":false,"is_disabled":false,"rental_uris":{"android":"levelo://app?vid=190c7cf9-d968-421b-9d28-8e089e9caee9","ios":"levelo://app?vid=190c7cf9-d968-421b-9d28-8e089e9caee9"},"vehicle_type_id":"4","last_reported":1737227149,"current_range_meters":25600,"station_id":"ce4bhb12rcd13ifvqel0","pricing_plan_id":"cebpf4jnsgd1na2vs0mg"},{"bike_id":"c88c7dc3-f113-48b9-a5df-0edea0c627c9","system_id":"levelo_inurba_marseille","lat":43.28155,"lon":5.42646,"is_reserved":false,"is_disabled":false,"rental_uris":{"android":"levelo://app?vid=c88c7dc3-f113-48b9-a5df-0edea0c627c9","ios":"levelo://app?vid=c88c7dc3-f113-48b9-a5df-0edea0c627c9"},"vehicle_type_id":"4","last_reported":1737227149,"current_range_meters":24400,"station_id":"ce4bhnh2rcd13ifvqgug","pricing_plan_id":"cebpf4jnsgd1na2vs0mg"},{"bike_id":"cdead6a6-1ce1-42da-850d-2dbf4133c6ff","system_id":"levelo_inurba_marseille","lat":43.3189,"lon":5.4073,"is_reserved":false,"is_disabled":false,"rental_uris":{"android":"levelo://app?vid=cdead6a6-1ce1-42da-850d-2dbf4133c6ff","ios":"levelo://app?vid=cdead6a6-1ce1-42da-850d-2dbf4133c6ff"},"vehicle_type_id":"4","last_reported":1737227149,"current_range_meters":38800,"station_id":"ce4bhq12rcd13ifvqhig","pricing_plan_id":"cebpf4jnsgd1na2vs0mg"},{"bike_id":"ee76e385-dc29-4ac5-8128-a5afbe69cc79","system_id":"levelo_inurba_marseille","lat":43.25073,"lon":5.39505,"is_reserved":false,"is_disabled":false,"rental_uris":{"android":"levelo://app?vid=ee76e385-dc29-4ac5-8128-a5afbe69cc79","ios":"levelo://app?vid=ee76e385-dc29-4ac5-8128-a5afbe69cc79"},"vehicle_type_id":"4","last_reported":1737227149,"current_range_meters":38800,"station_id":"ce4bhm12rcd13ifvqgkg","pricing_plan_id":"cebpf4jnsgd1na2vs0mg"},{"bike_id":"841a803a-2245-4563-bb97-892e35a2f174","system_id":"levelo_inurba_marseille","lat":43.28038,"lon":5.36935,"is_reserved":false,"is_disabled":false,"rental_uris":{"android":"levelo://app?vid=841a803a-2245-4563-bb97-892e35a2f174","ios":"levelo://app?vid=841a803a-2245-4563-bb97-892e35a2f174"},"vehicle_type_id":"4","last_reported":1737227149,"current_range_meters":38800,"station_id":"ce4bha12rcd13ifvqef0","pricing_plan_id":"cebpf4jnsgd1na2vs0mg"},{"bike_id":"c73224c5-8662-473f-8844-f010af6d2952","system_id":"levelo_inurba_marseille","lat":43.27186,"lon":5.41,"is_reserved":false,"is_disabled":true,"rental_uris":{"android":"levelo://app?vid=c73224c5-8662-473f-8844-f010af6d2952","ios":"levelo://app?vid=c73224c5-8662-473f-8844-f010af6d2952"},"vehicle_type_id":"4","last_reported":1737227149,"current_range_meters":22800,"station_id":"ce4bhl12rcd13ifvqgf0","pricing_plan_id":"cebpf4jnsgd1na2vs0mg"},{"bike_id":"a02f959f-3599-45a1-bd6a-a2c2dc06dce4","system_id":"levelo_inurba_marseille","lat":43.290884,"lon":5.381094,"is_reserved":false,"is_disabled":false,"rental_uris":{"android":"levelo://app?vid=a02f959f-3599-45a1-bd6a-a2c2dc06dce4","ios":"levelo://app?vid=a02f959f-3599-45a1-bd6a-a2c2dc06dce4"},"vehicle_type_id":"4","last_reported":1737227149,"current_range_meters":33600,"station_id":"ce4bha92rcd13ifvqeg0","pricing_plan_id":"cebpf4jnsgd1na2vs0mg"},{"bike_id":"95b517d0-9dcf-47f9-8053-773bec6e6a69","system_id":"levelo_inurba_marseille","lat":43.2662,"lon":5.39424,"is_reserved":false,"is_disabled":false,"rental_uris":{"android":"levelo://app?vid=95b517d0-9dcf-47f9-8053-773bec6e6a69","ios":"levelo://app?vid=95b517d0-9dcf-47f9-8053-773bec6e6a69"},"vehicle_type_id":"4","last_reported":1737227149,"current_range_meters":16000,"station_id":"","pricing_plan_id":"cebpf4jnsgd1na2vs0mg"},{"bike_id":"4df1265a-29e0-438e-82d3-9139cadaf360","system_id":"levelo_inurba_marseille","lat":43.30875,"lon":5.37188,"is_reserved":false,"is_disabled":false,"rental_uris":{"android":"levelo://app?vid=4df1265a-29e0-438e-82d3-9139cadaf360","ios":"levelo://app?vid=4df1265a-29e0-438e-82d3-9139cadaf360"},"vehicle_type_id":"4","last_reported":1737227149,"current_range_meters":34800,"station_id":"ce4bguh2rcd13ifvqckg","pricing_plan_id":"cebpf4jnsgd1na2vs0mg"},{"bike_id":"dfbb894e-f0c3-43cb-b395-16d643e6b7c9","system_id":"levelo_inurba_marseille","lat":43.29703,"lon":5.37702,"is_reserved":false,"is_disabled":false,"rental_uris":{"android":"levelo://app?vid=dfbb894e-f0c3-43cb-b395-16d643e6b7c9","ios":"levelo://app?vid=dfbb894e-f0c3-43cb-b395-16d643e6b7c9"},"vehicle_type_id":"4","last_reported":1737227149,"current_range_meters":10000,"station_id":"ce4bgkh2rcd13ifvqbl0","pricing_plan_id":"cebpf4jnsgd1na2vs0mg"},{"bike_id":"426c6dbb-f325-4738-906d-29242f82afb0","system_id":"levelo_inurba_marseille","lat":43.31367,"lon":5.36698,"is_reserved":false,"is_disabled":false,"rental_uris":{"android":"levelo://app?vid=426c6dbb-f325-4738-906d-29242f82afb0","ios":"levelo://app?vid=426c6dbb-f325-4738-906d-29242f82afb0"},