{"last_updated":1756163358,"ttl":60,"version":"2.2","data":{"bikes":[{"bike_id":"c82f170e-1266-4f52-b259-298435bfc163","system_id":"levelo_inurba_marseille","lat":43.28498,"lon":5.38552,"is_reserved":false,"is_disabled":true,"rental_uris":{"android":"levelo://app?vid=c82f170e-1266-4f52-b259-298435bfc163","ios":"levelo://app?vid=c82f170e-1266-4f52-b259-298435bfc163"},"vehicle_type_id":"4","last_reported":1756163358,"current_range_meters":2800,"station_id":"ce4bh8p2rcd13ifvqeb0","pricing_plan_id":"cebpf4jnsgd1na2vs0mg"},{"bike_id":"8059e22e-3d98-4200-bee2-ef559efb3eb9","system_id":"levelo_inurba_marseille","lat":43.21759,"lon":5.34594,"is_reserved":false,"is_disabled":true,"rental_uris":{"android":"levelo://app?vid=8059e22e-3d98-4200-bee2-ef559efb3eb9","ios":"levelo://app?vid=8059e22e-3d98-4200-bee2-ef559efb3eb9"},"vehicle_type_id":"4","last_reported":1756163358,"current_range_meters":2800,"station_id":"st_cvj6r9ubvosntc0bgbag","pricing_plan_id":"cebpf4jnsgd1na2vs0mg"},{"bike_id":"c4f8c035-bea2-41a5-b52f-46d8b790723b","system_id":"levelo_inurba_marseille","lat":43.30891,"lon":5.39656,"is_reserved":false,"is_disabled":false,"rental_uris":{"android":"levelo://app?vid=c4f8c035-bea2-41a5-b52f-46d8b790723b","ios":"levelo://app?vid=c4f8c035-bea2-41a5-b52f-46d8b790723b"},"vehicle_type_id":"4","last_reported":1756163358,"current_range_meters":2800,"station_id":"ce4bh012rcd13ifvqcv0","pricing_plan_id":"cebpf4jnsgd1na2vs0mg"},{"bike_id":"7adbac07-0a90-46d2-a401-d44336298bdb","system_id":"levelo_inurba_marseille","lat":43.30036,"lon":5.3755,"is_reserved":false,"is_disabled":false,"rental_uris":{"android":"levelo://app?vid=7adbac07-0a90-46d2-a401-d44336298bdb","ios":"levelo://app?vid=7adbac07-0a90-46d2-a401-d44336298bdb"},"vehicle_type_id":"4","last_reported":1756163358,"current_range_meters":3200,"station_id":"","pricing_plan_id":"cebpf4jnsgd1na2vs0mg"},{"bike_id":"e31e9df9-7cf4-4041-849a-55499646b54e","system_id":"levelo_inurba_marseille","lat":43.212022,"lon":5.35081,"is_reserved":false,"is_disabled":false,"rental_uris":{"android":"levelo://app?vid=e31e9df9-7cf4-4041-849a-55499646b54e","ios":"levelo://app?vid=e31e9df9-7cf4-4041-849a-55499646b54e"},"vehicle_type_id":"4","last_reported":1756163358,"current_range_meters":3600,"station_id":"st_cvj6sg6p6f1abm77japg","pricing_plan_id":"cebpf4jnsgd1na2vs0mg"},{"bike_id":"e41c2647-2b7b-4da6-aebf-a51c7123fb42","system_id":"levelo_inurba_marseille","lat":43.31069,"lon":5.38355,"is_reserved":false,"is_disabled":false,"rental_uris":{"android":"levelo://app?vid=e41c2647-2b7b-4da6-aebf-a51c7123fb42","ios":"levelo://app?vid=e41c2647-2b7b-4da6-aebf-a51c7123fb42"},"vehicle_type_id":"4","last_reported":1756163358,"current_range_meters":4800,"station_id":"ce4bgv92rcd13ifvqcr0","pricing_plan_id":"cebpf4jnsgd1na2vs0mg"},{"bike_id":"6bc49109-648b-4519-8843-aec2ef72c5eb","system_id":"levelo_inurba_marseille","lat":43.24667,"lon":5.38166,"is_reserved":false,"is_disabled":false,"rental_uris":{"android":"levelo://app?vid=6bc49109-648b-4519-8843-aec2ef72c5eb","ios":"levelo://app?vid=6bc49109-648b-4519-8843-aec2ef72c5eb"},"vehicle_type_id":"4","last_reported":1756163358,"current_range_meters":4800,"station_id":"ce4bhih2rcd13ifvqfr0","pricing_plan_id":"cebpf4jnsgd1na2vs0mg"},{"bike_id":"b0452ab9-87a4-4799-bdf4-1014813af4e8","system_id":"levelo_inurba_marseille","lat":43.286122,"lon":5.351078,"is_reserved":false,"is_disabled":false,"rental_uris":{"android":"levelo://app?vid=b0452ab9-87a4-4799-bdf4-1014813af4e8","ios":"levelo://app?vid=b0452ab9-87a4-4799-bdf4-1014813af4e8"},"vehicle_type_id":"4","last_reported":1756163358,"current_range_meters":4800,"station_id":"ce4bhch2rcd13ifvqeug","pricing_plan_id":"cebpf4jnsgd1na2vs0mg"},{"bike_id":"f528eb2a-83cc-4ab3-b199-46af1988f13e","system_id":"levelo_inurba_marseille","lat":43.29283,"lon":5.36839,"is_reserved":false,"is_disabled":false,"rental_uris":{"android":"levelo://app?vid=f528eb2a-83cc-4ab3-b199-46af1988f13e","ios":"levelo://app?vid=f528eb2a-83cc-4ab3-b199-46af1988f13e"},"vehicle_type_id":"4","last_reported":1756163358,"current_range_meters":5600,"station_id":"ce4bhbp2rcd13ifvqesg","pricing_plan_id":"cebpf4jnsgd1na2vs0mg"},{"bike_id":"bdfcbd9f-91ba-4aff-afdd-0d6c5d79a03f","system_id":"levelo_inurba_marseille","lat":43.24798,"lon":5.37459,"is_reserved":false,"is_disabled":true,"rental_uris":{"android":"levelo://app?vid=bdfcbd9f-91ba-4aff-afdd-0d6c5d79a03f","ios":"levelo://app?vid=bdfcbd9f-91ba-4aff-afdd-0d6c5d79a03f"},"vehicle_type_id":"4","last_reported":1756163358,"current_range_meters":5600,"station_id":"ce4bhgh2rcd13ifvqfb0","pricing_plan_id":"cebpf4jnsgd1na2vs0mg"},{"bike_id":"5ea70c52-57c2-4df4-8d5a-590b4b3e1801","system_id":"levelo_inurba_marseille","lat":43.30883,"lon":5.39633,"is_reserved":false,"is_disabled":false,"rental_uris":{"android":"levelo://app?vid=5ea70c52-57c2-4df4-8d5a-590b4b3e1801","ios":"levelo://app?vid=5ea70c52-57c2-4df4-8d5a-590b4b3e1801"},"vehicle_type_id":"4","last_reported":1756163358,"current_range_meters":6000,"station_id":"ce4bh012rcd13ifvqcv0","pricing_plan_id":"cebpf4jnsgd1na2vs0mg"},{"bike_id":"188361b2-0033-4cc7-9eb0-63e28930165e","system_id":"levelo_inurba_marseille","lat":43.31075,"lon":5.38355,"is_reserved":false,"is_disabled":false,"rental_uris":{"android":"levelo://app?vid=188361b2-0033-4cc7-9eb0-63e28930165e","ios":"levelo://app?vid=188361b2-0033-4cc7-9eb0-63e28930165e"},"vehicle_type_id":"4","last_reported":1756163358,"current_range_meters":6400,"station_id":"ce4bgv92rcd13ifvqcr0","pricing_plan_id":"cebpf4jnsgd1na2vs0mg"},{"bike_id":"0490c530-845d-44f9-bf75-09a8b4d2b9b9","system_id":"levelo_inurba_marseille","lat":43.29747,"lon":5.38075,"is_reserved":false,"is_disabled":true,"rental_uris":{"android":"levelo://app?vid=0490c530-845d-44f9-bf75-09a8b4d2b9b9","ios":"levelo://app?vid=0490c530-845d-44f9-bf75-09a8b4d2b9b9"},"vehicle_type_id":"4","last_reported":1756163358,"current_range_meters":6400,"station_id":"ce4bgip2rcd13ifvqbb0","pricing_plan_id":"cebpf4jnsgd1na2vs0mg"},{"bike_id":"158fe4a9-48cc-491f-95fd-2aa73bd55cc0","system_id":"levelo_inurba_marseille","lat":43.30579,"lon":5.36907,"is_reserved":false,"is_disabled":false,"rental_uris":{"android":"levelo://app?vid=158fe4a9-48cc-491f-95fd-2aa73bd55cc0","ios":"levelo://app?vid=158fe4a9-48cc-491f-95fd-2aa73bd55cc0"},"vehicle_type_id":"4","last_reported":1756163358,"current_range_meters":6400,"station_id":"","pricing_plan_id":"cebpf4jnsgd1na2vs0mg"},{"bike_id":"3fcb1ecf-014d-414b-8e46-6cb5a3a18d8d","system_id":"levelo_inurba_marseille","lat":43.27102,"lon":5.38698,"is_reserved":false,"is_disabled":false,"rental_uris":{"android":"levelo://app?vid=3fcb1ecf-014d-414b-8e46-6cb5a3a18d8d","ios":"levelo://app?vid=3fcb1ecf-014d-414b-8e46-6cb5a3a18d8d"},"vehicle_type_id":"4","last_reported":1756163358,"current_range_meters":6800,"station_id":"","pricing_plan_id":"cebpf4jnsgd1na2vs0mg"},{"bike_id":"4b436764-b2fc-4112-a992-068bd3fbb63e","system_id":"levelo_inurba_marseille","lat":43.29631,"lon":5.40599,"is_reserved":false,"is_disabled":false,"rental_uris":{"android":"levelo://app?vid=4b436764-b2fc-4112-a992-068bd3fbb63e","ios":"levelo://app?vid=4b436764-b2fc-4112-a992-068bd3fbb63e"},"vehicle_type_id":"4","last_reported":1756163358,"current_range_meters":6400,"station_id":"ce4bh0h2rcd13ifvqd60","pricing_plan_id":"cebpf4jnsgd1na2vs0mg"},{"bike_id":"abf09c94-eccc-44a8-b7a3-bf8b6f1bd9a4","system_id":"levelo_inurba_marseille","lat":43.28622,"lon":5.351,"is_reserved":false,"is_disabled":false,"rental_uris":{"android":"levelo://app?vid=abf09c94-eccc-44a8-b7a3-bf8b6f1bd9a4","ios":"levelo://app?vid=abf09c94-eccc-44a8-b7a3-bf8b6f1bd9a4"},"vehicle_type_id":"4","last_reported":1756163358,"current_range_meters":6800,"station_id":"ce4bhch2rcd13ifvqeug","pricing_plan_id":"cebpf4jnsgd1na2vs0mg"},{"bike_id":"8e3c1d96-db3d-493f-9f1f-6750dcd1e8bc","system_id":"levelo_inurba_marseille","lat":43.32793,"lon":5.38799,"is_reserved":false,"is_disabled":false,"rental_uris":{"android":"levelo://app?vid=8e3c1d96-db3d-493f-9f1f-6750dcd1e8bc","ios":"levelo://app?vid=8e3c1d96-db3d-493f-9f1f-6750dcd1e8bc"},"vehicle_type_id":"4","last_reported":1756163358,"current_range_meters":6800,"station_id":"","pricing_plan_id":"cebpf4jnsgd1na2vs0mg"},{"bike_id":"379049dc-d847-4d55-9f68-f708f7ddf849","system_id":"levelo_inurba_marseille","lat":43.29259,"lon":5.40909,"is_reserved":false,"is_disabled":false,"rental_uris":{"android":"levelo://app?vid=379049dc-d847-4d55-9f68-f708f7ddf849","ios":"levelo://app?vid=379049dc-d847-4d55-9f68-f708f7ddf849"},"vehicle_type_id":"4","last_reported":1756163358,"current_range_meters":7200,"station_id":"ce4bh192rcd13ifvqdc0","pricing_plan_id":"cebpf4jnsgd1na2vs0mg"},{"bike_id":"8278d03d-5584-48a8-a86a-7847a162c713","system_id":"levelo_inurba_marseille","lat":43.30898,"lon":5.38098,"is_reserved":false,"is_disabled":false,"rental_uris":{"android":"levelo://app?vid=8278d03d-5584-48a8-a86a-7847a162c713","ios":"levelo://app?vid=8278d03d-5584-48a8-a86a-7847a162c713"},"vehicle_type_id":"4","last_reported":1756163358,"current_range_meters":7200,"station_id":"","pricing_plan_id":"cebpf4jnsgd1na2vs0mg"},{"bike_id":"dcaf843d-2fed-4374-a8c5-842750f2838c","system_id":"levelo_inurba_marseille","lat":43.27372,"lon":5.36263,"is_reserved":false,"is_disabled":false,"rental_uris":{"android":"levelo://app?vid=dcaf843d-2fed-4374-a8c5-842750f2838c","ios":"levelo://app?vid=dcaf843d-2fed-4374-a8c5-842750f2838c"},"vehicle_type_id":"4","last_reported":1756163358,"current_range_meters":8000,"station_id":"ce4bhbh2rcd13ifvqeo0","pricing_plan_id":"cebpf4jnsgd1na2vs0mg"},{"bike_id":"318a994a-51ff-465f-b40c-534a36bf7044","system_id":"levelo_inurba_marseille","lat":43.301638,"lon":5.382737,"is_reserved":false,"is_disabled":false,"rental_uris":{"android":"levelo://app?vid=318a994a-51ff-465f-b40c-534a36bf7044","ios":"levelo://app?vid=318a994a-51ff-465f-b40c-534a36bf7044"},"vehicle_type_id":"4","last_reported":1756163358,"current_range_meters":8000,"station_id":"","pricing_plan_id":"cebpf4jnsgd1na2vs0mg"},{"bike_id":"47085855-ec30-482c-8880-0593aad5795a","system_id":"levelo_inurba_marseille","lat":43.28358,"lon":5.38103,"is_reserved":false,"is_disabled":false,"rental_uris":{"android":"levelo://app?vid=47085855-ec30-482c-8880-0593aad5795a","ios":"levelo://app?vid=47085855-ec30-482c-8880-0593aad5795a"},"vehicle_type_id":"4","last_reported":1756163358,"current_range_meters":8000,"station_id":"ce4bh412rcd13ifvqdr0","pricing_plan_id":"cebpf4jnsgd1na2vs0mg"},{"bike_id":"3598888f-9da8-460a-8709-59830f09bd72","system_id":"levelo_inurba_marseille","lat":43.317083,"lon":5.43709,"is_reserved":false,"is_disabled":false,"rental_uris":{"android":"levelo://app?vid=3598888f-9da8-460a-8709-59830f09bd72","ios":"levelo://app?vid=3598888f-9da8-460a-8709-59830f09bd72"},"vehicle_type_id":"4","last_reported":1756163358,"current_range_meters":8400,"station_id":"ce4bhp92rcd13ifvqhcg","pricing_plan_id":"cebpf4jnsgd1na2vs0mg"},{"bike_id":"fb0ecd7c-2c0f-42f1-9e73-9448c9893367","system_id":"levelo_inurba_marseille","lat":43.26529,"lon":5.36995,"is_reserved":false,"is_disabled":false,"rental_uris":{"android":"levelo://app?vid=fb0ecd7c-2c0f-42f1-9e73-9448c9893367","ios":"levelo://app?vid=fb0ecd7c-2c0f-42f1-9e73-9448c9893367"},"vehicle_type_id":"4","last_reported":1756163358,"current_range_meters":8400,"station_id":"","pricing_plan_id":"cebpf4jnsgd1na2vs0mg"},{"bike_id":"8518bded-4733-4e5e-9522-f030c96f848a","system_id":"levelo_inurba_marseille","lat":43.21193,"lon":5.35078,"is_reserved":false,"is_disabled":true,"rental_uris":{"android":"levelo://app?vid=8518bded-4733-4e5e-9522-f030c96f848a","ios":"levelo://app?vid=8518bded-4733-4e5e-9522-f030c96f848a"},"vehicle_type_id":"4","last_reported":1756163358,"current_range_meters":8400,"station_id":"","pricing_plan_id":"cebpf4jnsgd1na2vs0mg"},{"bike_id":"44c28342-fb54-456d-a939-2ab644b80b19","system_id":"levelo_inurba_marseille","lat":43.28842,"lon":5.35864,"is_reserved":false,"is_disabled":false,"rental_uris":{"android":"levelo://app?vid=44c28342-fb54-456d-a939-2ab644b80b19","ios":"levelo://app?vid=44c28342-fb54-456d-a939-2ab644b80b19"},"vehicle_type_id":"4","last_reported":1756163358,"current_range_meters":8400,"station_id":"ce4bhb12rcd13ifvqem0","pricing_plan_id":"cebpf4jnsgd1na2vs0mg"},{"bike_id":"4a532269-48cb-427e-b43b-efabb500b7dd","system_id":"levelo_inurba_marseille","lat":43.28696,"lon":5.39995,"is_reserved":false,"is_disabled":false,"rental_uris":{"android":"levelo://app?vid=4a532269-48cb-427e-b43b-efabb500b7dd","ios":"levelo://app?vid=4a532269-48cb-427e-b43b-efabb500b7dd"},"vehicle_type_id":"4","last_reported":1756163358,"current_range_meters":9200,"station_id":"ce4bho92rcd13ifvqh3g","pricing_plan_id":"cebpf4jnsgd1na2vs0mg"},{"bike_id":"c0db8c7c-7625-47de-915a-e9bb274b322b","system_id":"levelo_inurba_marseille","lat":43.30925,"lon":5.40151,"is_reserved":false,"is_disabled":false,"rental_uris":{"android":"levelo://app?vid=c0db8c7c-7625-47de-915a-e9bb274b322b","ios":"levelo://app?vid=c0db8c7c-7625-47de-915a-e9bb274b322b"},"vehicle_type_id":"4","last_reported":1756163358,"current_range_meters":9200,"station_id":"ce4bgvp2rcd13ifvqct0","pricing_plan_id":"cebpf4jnsgd1na2vs0mg"},{"bike_id":"e8eb7a1e-ea14-4883-a1e0-2f92f1badc7e","system_id":"levelo_inurba_marseille","lat":43.3298,"lon":5.35901,"is_reserved":false,"is_disabled":false,"rental_uris":{"android":"levelo://app?vid=e8eb7a1e-ea14-4883-a1e0-2f92f1badc7e","ios":"levelo://app?vid=e8eb7a1e-ea14-4883-a1e0-2f92f1badc7e"},"vehicle_type_id":"4","last_reported":1756163358,"current_range_meters":10000,"station_id":"","pricing_plan_id":"cebpf4jnsgd1na2vs0mg"},{"bike_id":"236f1a17-bd84-4b8e-977f-7df7d8cf402c","system_id":"levelo_inurba_marseille","lat":43.30829,"lon":5.43516,"is_reserved":false,"is_disabled":true,"rental_uris":{"android":"levelo://app?vid=236f1a17-bd84-4b8e-977f-7df7d8cf402c","ios":"levelo://app?vid=236f1a17-bd84-4b8e-977f-7df7d8cf402c"},"vehicle_type_id":"4","last_reported":1756163358,"current_range_meters":10000,"station_id":"ce4bhph2rcd13ifvqheg","pricing_plan_id":"cebpf4jnsgd1na2vs0mg"},{"bike_id":"4df71f0f-c74e-4ac3-acf8-818e23b9a99b","system_id":"levelo_inurba_marseille","lat":43.29285,"lon":5.38582,"is_reserved":false,"is_disabled":false,"rental_uris":{"android":"levelo://app?vid=4df71f0f-c74e-4ac3-acf8-818e23b9a99b","ios":"levelo://app?vid=4df71f0f-c74e-4ac3-acf8-818e23b9a99b"},"vehicle_type_id":"4","last_reported":1756163358,"current_range_meters":10000,"station_id":"","pricing_plan_id":"cebpf4jnsgd1na2vs0mg"},{"bike_id":"07986bac-334c-4964-a17e-65f354ff931c","system_id":"levelo_inurba_marseille","lat":43.27941,"lon":5.41038,"is_reserved":false,"is_disabled":false,"rental_uris":{"android":"levelo://app?vid=07986bac-334c-4964-a17e-65f354ff931c","ios":"levelo://app?vid=07986bac-334c-4964-a17e-65f354ff931c"},"vehicle_type_id":"4","last_reported":1756163358,"current_range_meters":10000,"station_id":"ce4bhnp2rcd13ifvqh0g","pricing_plan_id":"cebpf4jnsgd1na2vs0mg"},{"bike_id":"471304ee-62ec-4f3c-bec6-d5e43f04cc6f","system_id":"levelo_inurba_marseille","lat":43.29187,"lon":5.39318,"is_reserved":false,"is_disabled":false,"rental_uris":{"android":"levelo://app?vid=471304ee-62ec-4f3c-bec6-d5e43f04cc6f","ios":"levelo://app?vid=471304ee-62ec-4f3c-bec6-d5e43f04cc6f"},"vehicle_type_id":"4","last_reported":1756163358,"current_range_meters":10000,"station_id":"ce4bh192rcd13ifvqdd0","pricing_plan_id":"cebpf4jnsgd1na2vs0mg"},{"bike_id":"5bc159b2-6625-4331-8d47-866182c3fe54","system_id":"levelo_inurba_marseille","lat":43.28722,"lon":5.37404,"is_reserved":false,"is_disabled":false,"rental_uris":{"android":"levelo://app?vid=5bc159b2-6625-4331-8d47-866182c3fe54","ios":"levelo://app?vid=5bc159b2-6625-4331-8d47-866182c3fe54"},"vehicle_type_id":"4","last_reported":1756163358,"current_range_meters":10800,"station_id":"ce4bh3p2rcd13ifvqdq0","pricing_plan_id":"cebpf4jnsgd1na2vs0mg"},{"bike_id":"bdf9cdaf-1841-4395-9aa4-66303e07210c","system_id":"levelo_inurba_marseille","lat":43.28946,"lon":5.36621,"is_reserved":false,"is_disabled":false,"rental_uris":{"android":"levelo://app?vid=bdf9cdaf-1841-4395-9aa4-66303e07210c","ios":"levelo://app?vid=bdf9cdaf-1841-4395-9aa4-66303e07210c"},"vehicle_type_id":"4","last_reported":1756163358,"current_range_meters":10800,"station_id":"ce4bhap2rcd13ifvqek0","pricing_plan_id":"cebpf4jnsgd1na2vs0mg"},{"bike_id":"7203aa12-6f27-4868-bb54-60c3b620f3ff","system_id":"levelo_inurba_marseille","lat":43.29518,"lon":5.39399,"is_reserved":false,"is_disabled":true,"rental_uris":{"android":"levelo://app?vid=7203aa12-6f27-4868-bb54-60c3b620f3ff","ios":"levelo://app?vid=7203aa12-6f27-4868-bb54-60c3b620f3ff"},"vehicle_type_id":"4","last_reported":1756163358,"current_range_meters":10800,"station_id":"ce4bh292rcd13ifvqdf0","pricing_plan_id":"cebpf4jnsgd1na2vs0mg"},{"bike_id":"dbdd3534-9e12-4e0b-a95a-e7db6454e82e","system_id":"levelo_inurba_marseille","lat":43.28704,"lon":5.37378,"is_reserved":false,"is_disabled":false,"rental_uris":{"android":"levelo://app?vid=dbdd3534-9e12-4e0b-a95a-e7db6454e82e","ios":"levelo://app?vid=dbdd3534-9e12-4e0b-a95a-e7db6454e82e"},"vehicle_type_id":"4","last_reported":1756163358,"current_range_meters":10800,"station_id":"ce4bh3p2rcd13ifvqdq0","pricing_plan_id":"cebpf4jnsgd1na2vs0mg"},{"bike_id":"f0f8f863-77de-49d8-8fa3-5b8f8bd420af","system_id":"levelo_inurba_marseille","lat":43.26683,"lon":5.382738,"is_reserved":false,"is_disabled":false,"rental_uris":{"android":"levelo://app?vid=f0f8f863-77de-49d8-8fa3-5b8f8bd420af","ios":"levelo://app?vid=f0f8f863-77de-49d8-8fa3-5b8f8bd420af"},"vehicle_type_id":"4","last_reported":1756163358,"current_range_meters":10800,"station_id":"ce4bhg92rcd13ifvqf90","pricing_plan_id":"cebpf4jnsgd1na2vs0mg"},{"bike_id":"a4a408b3-aa81-4fa0-99b2-8d0a08e384bc","system_id":"levelo_inurba_marseille","lat":43.32115,"lon":5.36776,"is_reserved":false,"is_disabled":true,"rental_uris":{"android":"levelo://app?vid=a4a408b3-aa81-4fa0-99b2-8d0a08e384bc","ios":"levelo://app?vid=a4a408b3-aa81-4fa0-99b2-8d0a08e384bc"},"vehicle_type_id":"4","last_reported":1756163358,"current_range_meters":10800,"station_id":"ce4bhrh2rcd13ifvqhug","pricing_plan_id":"cebpf4jnsgd1na2vs0mg"},{"bike_id":"df75f1fa-75ae-4074-a5b6-5911a8c1b6a8","system_id":"levelo_inurba_marseille","lat":43.30752,"lon":5.37172,"is_reserved":false,"is_disabled":false,"rental_uris":{"android":"levelo://app?vid=df75f1fa-75ae-4074-a5b6-5911a8c1b6a8","ios":"levelo://app?vid=df75f1fa-75ae-4074-a5b6-5911a8c1b6a8"},"vehicle_type_id":"4","last_reported":1756163358,"current_range_meters":11200,"station_id":"","pricing_plan_id":"cebpf4jnsgd1na2vs0mg"},{"bike_id":"6d9902ab-ef79-4f70-9701-f427eba3d159","system_id":"levelo_inurba_marseille","lat":43.303887,"lon":5.373754,"is_reserved":false,"is_disabled":false,"rental_uris":{"android":"levelo://app?vid=6d9902ab-ef79-4f70-9701-f427eba3d159","ios":"levelo://app?vid=6d9902ab-ef79-4f70-9701-f427eba3d159"},"vehicle_type_id":"4","last_reported":1756163358,"current_range_meters":11600,"station_id":"","pricing_plan_id":"cebpf4jnsgd1na2vs0mg"},{"bike_id":"ca68a09e-7a49-42de-bfe7-f4136abaacce","system_id":"levelo_inurba_marseille","lat":43.28617,"lon":5.37063,"is_reserved":false,"is_disabled":false,"rental_uris":{"android":"levelo://app?vid=ca68a09e-7a49-42de-bfe7-f4136abaacce","ios":"levelo://app?vid=ca68a09e-7a49-42de-bfe7-f4136abaacce"},"vehicle_type_id":"4","last_reported":1756163358,"current_range_meters":11600,"station_id":"ce4bht12rcd13ifvqi60","pricing_plan_id":"cebpf4jnsgd1na2vs0mg"},{"bike_id":"37ee34ea-f1e1-4241-a19a-4060e53b71a9","system_id":"levelo_inurba_marseille","lat":43.27413,"lon":5.36191,"is_reserved":false,"is_disabled":false,"rental_uris":{"android":"levelo://app?vid=37ee34ea-f1e1-4241-a19a-4060e53b71a9","ios":"levelo://app?vid=37ee34ea-f1e1-4241-a19a-4060e53b71a9"},"vehicle_type_id":"4","last_reported":1756163358,"current_range_meters":11600,"station_id":"","pricing_plan_id":"cebpf4jnsgd1na2vs0mg"},{"bike_id":"1cd21559-399f-4936-b4ac-cb1d7223c9c3","system_id":"levelo_inurba_marseille","lat":43.239982,"lon":5.362794,"is_reserved":false,"is_disabled":false,"rental_uris":{"android":"levelo://app?vid=1cd21559-399f-4936-b4ac-cb1d7223c9c3","ios":"levelo://app?vid=1cd21559-399f-4936-b4ac-cb1d7223c9c3"},"vehicle_type_id":"4","last_reported":1756163358,"current_range_meters":11600,"station_id":"","pricing_plan_id":"cebpf4jnsgd1na2vs0mg"},{"bike_id":"d94a3e2d-afbd-4e20-9e99-a5beeae0f186","system_id":"levelo_inurba_marseille","lat":43.28157,"lon":5.42642,"is_reserved":false,"is_disabled":false,"rental_uris":{"android":"levelo://app?vid=d94a3e2d-afbd-4e20-9e99-a5beeae0f186","ios":"levelo://app?vid=d94a3e2d-afbd-4e20-9e99-a5beeae0f186"},"vehicle_type_id":"4","last_reported":1756163358,"current_range_meters":12000,"station_id":"ce4bhnh2rcd13ifvqgug","pricing_plan_id":"cebpf4jnsgd1na2vs0mg"},{"bike_id":"01a29392-8b5c-42c8-9a48-f0ad02749a8b","system_id":"levelo_inurba_marseille","lat":43.273142,"lon":5.391119,"is_reserved":false,"is_disabled":true,"rental_uris":{"android":"levelo://app?vid=01a29392-8b5c-42c8-9a48-f0ad02749a8b","ios":"levelo://app?vid=01a29392-8b5c-42c8-9a48-f0ad02749a8b"},"vehicle_type_id":"4","last_reported":1756163358,"current_range_meters":12000,"station_id":"ce4bhgp2rcd13ifvqfe0","pricing_plan_id":"cebpf4jnsgd1na2vs0mg"},{"bike_id":"8afcdcc2-6272-4435-85a5-4adfffdfdac9","system_id":"levelo_inurba_marseille","lat":43.28073,"lon":5.39612,"is_reserved":false,"is_disabled":false,"rental_uris":{"android":"levelo://app?vid=8afcdcc2-6272-4435-85a5-4adfffdfdac9","ios":"levelo://app?vid=8afcdcc2-6272-4435-85a5-4adfffdfdac9"},"vehicle_type_id":"4","last_reported":1756163358,"current_range_meters":11600,"station_id":"ce4bho12rcd13ifvqh2g","pricing_plan_id":"cebpf4jnsgd1na2vs0mg"},{"bike_id":"3f4a45cc-e5bb-4b35-88d4-61431d4f60e6","system_id":"levelo_inurba_marseille","lat":43.32909,"lon":5.3906,"is_reserved":false,"is_disabled":false,"rental_uris":{"android":"levelo://app?vid=3f4a45cc-e5bb-4b35-88d4-61431d4f60e6","ios":"levelo://app?vid=3f4a45cc-e5bb-4b35-88d4-61431d4f60e6"},"vehicle_type_id":"4","last_reported":1756163358,"current_range_meters":12400,"station_id":"","pricing_plan_id":"cebpf4jnsgd1na2vs0mg"},{"bike_id":"13ca7797-00d8-41a0-8d1a-2644e37419ca","system_id":"levelo_inurba_marseille","lat":43.2862,"lon":5.351,"is_reserved":false,"is_disabled":true,"rental_uris":{"android":"levelo://app?vid=13ca7797-00d8-41a0-8d1a-2644e37419ca","ios":"levelo://app?vid=13ca7797-00d8-41a0-8d1a-2644e37419ca"},"vehicle_type_id":"4","last_reported":1756163358,"current_range_meters":12400,"station_id":"ce4bhch2rcd13ifvqeug","pricing_plan_id":"cebpf4jnsgd1na2vs0mg"},{"bike_id":"7189d6f5-1678-4c32-8153-93fc07bd4708","system_id":"levelo_inurba_marseille","lat":43.287108,"lon":5.399986,"is_reserved":false,"is_disabled":false,"rental_uris":{"android":"levelo://app?vid=7189d6f5-1678-4c32-8153-93fc07bd4708","ios":"levelo://app?vid=7189d6f5-1678-4c32-8153-93fc07bd4708"},"vehicle_type_id":"4","last_reported":1756163358,"current_range_meters":12400,"station_id":"ce4bho92rcd13ifvqh3g","pricing_plan_id":"cebpf4jnsgd1na2vs0mg"},{"bike_id":"d0999127-b16f-4437-8178-2bcfe37baaed","system_id":"levelo_inurba_marseille","lat":43.278211,"lon":5.40715,"is_reserved":false,"is_disabled":false,"rental_uris":{"android":"levelo://app?vid=d0999127-b16f-4437-8178-2bcfe37baaed","ios":"levelo://app?vid=d0999127-b16f-4437-8178-2bcfe37baaed"},"vehicle_type_id":"4","last_reported":1756163358,"current_range_meters":12400,"station_id":"ce4bhnh2rcd13ifvqgtg","pricing_plan_id":"cebpf4jnsgd1na2vs0mg"},{"bike_id":"d50716f3-dc34-4140-b468-148b5d1cc4a5","system_id":"levelo_inurba_marseille","lat":43.33606,"lon":5.41031,"is_reserved":false,"is_disabled":false,"rental_uris":{"android":"levelo://app?vid=d50716f3-dc34-4140-b468-148b5d1cc4a5","ios":"levelo://app?vid=d50716f3-dc34-4140-b468-148b5d1cc4a5"},"vehicle_type_id":"4","last_reported":1756163358,"current_range_meters":12400,"station_id":"ce4bhqh2rcd13ifvqhmg","pricing_plan_id":"cebpf4jnsgd1na2vs0mg"},{"bike_id":"f1fe5379-1bdf-4970-ae21-6bf7f8fac95a","system_id":"levelo_inurba_marseille","lat":43.294877,"lon":5.378683,"is_reserved":false,"is_disabled":false,"rental_uris":{"android":"levelo://app?vid=f1fe5379-1bdf-4970-ae21-6bf7f8fac95a","ios":"levelo://app?vid=f1fe5379-1bdf-4970-ae21-6bf7f8fac95a"},"vehicle_type_id":"4","last_reported":1756163358,"current_range_meters":12800,"station_id":"","pricing_plan_id":"cebpf4jnsgd1na2vs0mg"},{"bike_id":"78c01866-7c31-4b0c-93fb-94177f5e298a","system_id":"levelo_inurba_marseille","lat":43.229441,"lon":5.353908,"is_reserved":false,"is_disabled":false,"rental_uris":{"android":"levelo://app?vid=78c01866-7c31-4b0c-93fb-94177f5e298a","ios":"levelo://app?vid=78c01866-7c31-4b0c-93fb-94177f5e298a"},"vehicle_type_id":"4","last_reported":1756163358,"current_range_meters":12800,"station_id":"cpo3532slgdg3j2ikp40","pricing_plan_id":"cebpf4jnsgd1na2vs0mg"},{"bike_id":"10c53e5d-2b40-481f-9d83-f83d62281e5c","system_id":"levelo_inurba_marseille","lat":43.30882,"lon":5.39652,"is_reserved":false,"is_disabled":false,"rental_uris":{"android":"levelo://app?vid=10c53e5d-2b40-481f-9d83-f83d62281e5c","ios":"levelo://app?vid=10c53e5d-2b40-481f-9d83-f83d62281e5c"},"vehicle_type_id":"4","last_reported":1756163358,"current_range_meters":12800,"station_id":"ce4bh012rcd13ifvqcv0","pricing_plan_id":"cebpf4jnsgd1na2vs0mg"},{"bike_id":"0fdfa7ce-260e-4c83-baf2-39b1904c43e5","system_id":"levelo_inurba_marseille","lat":43.30376,"lon":5.4249,"is_reserved":false,"is_disabled":false,"rental_uris":{"android":"levelo://app?vid=0fdfa7ce-260e-4c83-baf2-39b1904c43e5","ios":"levelo://app?vid=0fdfa7ce-260e-4c83-baf2-39b1904c43e5"},"vehicle_type_id":"4","last_reported":1756163358,"current_range_meters":13600,"station_id":"ce4bhoh2rcd13ifvqh6g","pricing_plan_id":"cebpf4jnsgd1na2vs0mg"},{"bike_id":"c676dccd-ea96-467b-a7a4-8b7521ddd99d","system_id":"levelo_inurba_marseille","lat":43.25169,"lon":5.40323,"is_reserved":false,"is_disabled":false,"rental_uris":{"android":"levelo://app?vid=c676dccd-ea96-467b-a7a4-8b7521ddd99d","ios":"levelo://app?vid=c676dccd-ea96-467b-a7a4-8b7521ddd99d"},"vehicle_type_id":"4","last_reported":1756163358,"current_range_meters":13600,"station_id":"","pricing_plan_id":"cebpf4jnsgd1na2vs0mg"},{"bike_id":"4cd2ed9d-9748-4d2b-8c25-a7961f22d388","system_id":"levelo_inurba_marseille","lat":43.301,"lon":5.39076,"is_reserved":false,"is_disabled":false,"rental_uris":{"android":"levelo://app?vid=4cd2ed9d-9748-4d2b-8c25-a7961f22d388","ios":"levelo://app?vid=4cd2ed9d-9748-4d2b-8c25-a7961f22d388"},"vehicle_type_id":"4","last_reported":1756163358,"current_range_meters":13600,"station_id":"ce4bh192rcd13ifvqdb0","pricing_plan_id":"cebpf4jnsgd1na2vs0mg"},{"bike_id":"959685c0-6d9e-49e3-a405-c30ec1616e26","system_id":"levelo_inurba_marseille","lat":43.24671,"lon":5.38876,"is_reserved":false,"is_disabled":false,"rental_uris":{"android":"levelo://app?vid=959685c0-6d9e-49e3-a405-c30ec1616e26","ios":"levelo://app?vid=959685c0-6d9e-49e3-a405-c30ec1616e26"},"vehicle_type_id":"4","last_reported":1756163358,"current_range_meters":13600,"station_id":"ce4bhg12rcd13ifvqf60","pricing_plan_id":"cebpf4jnsgd1na2vs0mg"},{"bike_id":"322142a9-6cb3-49c2-bb0e-0e2c0fda1e2e","system_id":"levelo_inurba_marseille","lat":43.329,"lon":5.39006,"is_reserved":false,"is_disabled":false,"rental_uris":{"android":"levelo://app?vid=322142a9-6cb3-49c2-bb0e-0e2c0fda1e2e","ios":"levelo://app?vid=322142a9-6cb3-49c2-bb0e-0e2c0fda1e2e"},"vehicle_type_id":"4","last_reported":1756163358,"current_range_meters":13600,"station_id":"","pricing_plan_id":"cebpf4jnsgd1na2vs0mg"},{"bike_id":"fd4a67e8-6ee6-48ff-a9f2-0b08e1c025de","system_id":"levelo_inurba_marseille","lat":43.251135,"lon":5.403248,"is_reserved":false,"is_disabled":true,"rental_uris":{"android":"levelo://app?vid=fd4a67e8-6ee6-48ff-a9f2-0b08e1c025de","ios":"levelo://app?vid=fd4a67e8-6ee6-48ff-a9f2-0b08e1c025de"},"vehicle_type_id":"4","last_reported":1756163358,"current_range_meters":14000,"station_id":"ce4bhlh2rcd13ifvqgig","pricing_plan_id":"cebpf4jnsgd1na2vs0mg"},{"bike_id":"2cb3c564-fbdd-46e4-9a16-b8f4e6f31c63","system_id":"levelo_inurba_marseille","lat":43.260596,"lon":5.394094,"is_reserved":false,"is_disabled":true,"rental_uris":{"android":"levelo://app?vid=2cb3c564-fbdd-46e4-9a16-b8f4e6f31c63","ios":"levelo://app?vid=2cb3c564-fbdd-46e4-9a16-b8f4e6f31c63"},"vehicle_type_id":"4","last_reported":1756163358,"current_range_meters":14000,"station_id":"ce4bhh92rcd13ifvqfj0","pricing_plan_id":"cebpf4jnsgd1na2vs0mg"},{"bike_id":"23000702-b747-46d6-b1b0-02936b2436a2","system_id":"levelo_inurba_marseille","lat":43.317143,"lon":5.437084,"is_reserved":false,"is_disabled":false,"rental_uris":{"android":"levelo://app?vid=23000702-b747-46d6-b1b0-02936b2436a2","ios":"levelo://app?vid=23000702-b747-46d6-b1b0-02936b2436a2"},"vehicle_type_id":"4","last_reported":1756163358,"current_range_meters":14000,"station_id":"ce4bhp92rcd13ifvqhcg","pricing_plan_id":"cebpf4jnsgd1na2vs0mg"},{"bike_id":"f6ab8208-fdff-4e27-a025-d00fe690f9b7","system_id":"levelo_inurba_marseille","lat":43.27818,"lon":5.40703,"is_reserved":false,"is_disabled":false,"rental_uris":{"android":"levelo://app?vid=f6ab8208-fdff-4e27-a025-d00fe690f9b7","ios":"levelo://app?vid=f6ab8208-fdff-4e27-a025-d00fe690f9b7"},"vehicle_type_id":"4","last_reported":1756163358,"current_range_meters":14000,"station_id":"ce4bhnh2rcd13ifvqgtg","pricing_plan_id":"cebpf4jnsgd1na2vs0mg"},{"bike_id":"66fe0d3d-3f11-4f9b-b708-9233fa227550","system_id":"levelo_inurba_marseille","lat":43.31459,"lon":5.37367,"is_reserved":false,"is_disabled":false,"rental_uris":{"android":"levelo://app?vid=66fe0d3d-3f11-4f9b-b708-9233fa227550","ios":"levelo://app?vid=66fe0d3d-3f11-4f9b-b708-9233fa227550"},"vehicle_type_id":"4","last_reported":1756163358,"current_range_meters":14400,"station_id":"","pricing_plan_id":"cebpf4jnsgd1na2vs0mg"},{"bike_id":"8b09d6e8-3175-46a4-a882-3f13b9ad4be3","system_id":"levelo_inurba_marseille","lat":43.246268,"lon":5.431503,"is_reserved":false,"is_disabled":false,"rental_uris":{"android":"levelo://app?vid=8b09d6e8-3175-46a4-a882-3f13b9ad4be3","ios":"levelo://app?vid=8b09d6e8-3175-46a4-a882-3f13b9ad4be3"},"vehicle_type_id":"4","last_reported":1756163358,"current_range_meters":14000,"station_id":"st_d2m6c4gdas8pm72e190g","pricing_plan_id":"cebpf4jnsgd1na2vs0mg"},{"bike_id":"909f8a34-207c-47bc-a045-0789f6825cce","system_id":"levelo_inurba_marseille","lat":43.21764,"lon":5.3462,"is_reserved":false,"is_disabled":true,"rental_uris":{"android":"levelo://app?vid=909f8a34-207c-47bc-a045-0789f6825cce","ios":"levelo://app?vid=909f8a34-207c-47bc-a045-0789f6825cce"},"vehicle_type_id":"4","last_reported":1756163358,"current_range_meters":14000,"station_id":"st_cvj6r9ubvosntc0bgbag","pricing_plan_id":"cebpf4jnsgd1na2vs0mg"},{"bike_id":"89f7b340-1be7-40f8-a3ee-1bb5c0729786","system_id":"levelo_inurba_marseille","lat":43.32571,"lon":5.41443,"is_reserved":false,"is_disabled":true,"rental_uris":{"android":"levelo://app?vid=89f7b340-1be7-40f8-a3ee-1bb5c0729786","ios":"levelo://app?vid=89f7b340-1be7-40f8-a3ee-1bb5c0729786"},"vehicle_type_id":"4","last_reported":1756163358,"current_range_meters":14000,"station_id":"","pricing_plan_id":"cebpf4jnsgd1na2vs0mg"},{"bike_id":"b170ec16-763c-4116-ab72-2b64bc5a940e","system_id":"levelo_inurba_marseille","lat":43.27812,"lon":5.4071,"is_reserved":false,"is_disabled":false,"rental_uris":{"android":"levelo://app?vid=b170ec16-763c-4116-ab72-2b64bc5a940e","ios":"levelo://app?vid=b170ec16-763c-4116-ab72-2b64bc5a940e"},"vehicle_type_id":"4","last_reported":1756163358,"current_range_meters":14000,"station_id":"ce4bhnh2rcd13ifvqgtg","pricing_plan_id":"cebpf4jnsgd1na2vs0mg"},{"bike_id":"c8f19ab0-2650-42bf-bf99-315bb14cecb1","system_id":"levelo_inurba_marseille","lat":43.32361,"lon":5.36757,"is_reserved":false,"is_disabled":false,"rental_uris":{"android":"levelo://app?vid=c8f19ab0-2650-42bf-bf99-315bb14cecb1","ios":"levelo://app?vid=c8f19ab0-2650-42bf-bf99-315bb14cecb1"},"vehicle_type_id":"4","last_reported":1756163358,"current_range_meters":14400,"station_id":"ce4bhsh2rcd13ifvqi2g","pricing_plan_id":"cebpf4jnsgd1na2vs0mg"},{"bike_id":"999f1b99-11e2-4673-abf1-59581d0753f4","system_id":"levelo_inurba_marseille","lat":43.21753,"lon":5.34606,"is_reserved":false,"is_disabled":true,"rental_uris":{"android":"levelo://app?vid=999f1b99-11e2-4673-abf1-59581d0753f4","ios":"levelo://app?vid=999f1b99-11e2-4673-abf1-59581d0753f4"},"vehicle_type_id":"4","last_reported":1756163358,"current_range_meters":14400,"station_id":"st_cvj6r9ubvosntc0bgbag","pricing_plan_id":"cebpf4jnsgd1na2vs0mg"},{"bike_id":"268cd559-7a2d-4e5c-bedb-fd24d5efe9ac","system_id":"levelo_inurba_marseille","lat":43.32678,"lon":5.41,"is_reserved":false,"is_disabled":false,"rental_uris":{"android":"levelo://app?vid=268cd559-7a2d-4e5c-bedb-fd24d5efe9ac","ios":"levelo://app?vid=268cd559-7a2d-4e5c-bedb-fd24d5efe9ac"},"vehicle_type_id":"4","last_reported":1756163358,"current_range_meters":14400,"station_id":"ce4bhpp2rcd13ifvqhgg","pricing_plan_id":"cebpf4jnsgd1na2vs0mg"},{"bike_id":"b781a5a0-6633-425e-89d0-234145a32713","system_id":"levelo_inurba_marseille","lat":43.29612,"lon":5.38108,"is_reserved":false,"is_disabled":false,"rental_uris":{"android":"levelo://app?vid=b781a5a0-6633-425e-89d0-234145a32713","ios":"levelo://app?vid=b781a5a0-6633-425e-89d0-234145a32713"},"vehicle_type_id":"4","last_reported":1756163358,"current_range_meters":14400,"station_id":"ce4bgl12rcd13ifvqbo0","pricing_plan_id":"cebpf4jnsgd1na2vs0mg"},{"bike_id":"8857da2d-18c4-4517-ab0f-603ccd2730ac","system_id":"levelo_inurba_marseille","lat":43.30457,"lon":5.37898,"is_reserved":false,"is_disabled":true,"rental_uris":{"android":"levelo://app?vid=8857da2d-18c4-4517-ab0f-603ccd2730ac","ios":"levelo://app?vid=8857da2d-18c4-4517-ab0f-603ccd2730ac"},"vehicle_type_id":"4","last_reported":1756163358,"current_range_meters":14800,"station_id":"ce4bgup2rcd13ifvqcn0","pricing_plan_id":"cebpf4jnsgd1na2vs0mg"},{"bike_id":"3e3169e7-1702-48fc-825b-2fcd7adf6998","system_id":"levelo_inurba_marseille","lat":43.313254,"lon":5.396945,"is_reserved":false,"is_disabled":false,"rental_uris":{"android":"levelo://app?vid=3e3169e7-1702-48fc-825b-2fcd7adf6998","ios":"levelo://app?vid=3e3169e7-1702-48fc-825b-2fcd7adf6998"},"vehicle_type_id":"4","last_reported":1756163358,"current_range_meters":14800,"station_id":"ce4bgvp2rcd13ifvqcu0","pricing_plan_id":"cebpf4jnsgd1na2vs0mg"},{"bike_id":"5ba2d190-af21-4270-8e2a-52173ed48b6f","system_id":"levelo_inurba_marseille","lat":43.27917,"lon":5.39576,"is_reserved":false,"is_disabled":false,"rental_uris":{"android":"levelo://app?vid=5ba2d190-af21-4270-8e2a-52173ed48b6f","ios":"levelo://app?vid=5ba2d190-af21-4270-8e2a-52173ed48b6f"},"vehicle_type_id":"4","last_reported":1756163358,"current_range_meters":14800,"station_id":"ce4bhf92rcd13ifvqf40","pricing_plan_id":"cebpf4jnsgd1na2vs0mg"},{"bike_id":"a14433c3-7aa9-4f80-9c97-d039e5623647","system_id":"levelo_inurba_marseille","lat":43.28726,"lon":5.37408,"is_reserved":false,"is_disabled":false,"rental_uris":{"android":"levelo://app?vid=a14433c3-7aa9-4f80-9c97-d039e5623647","ios":"levelo://app?vid=a14433c3-7aa9-4f80-9c97-d039e5623647"},"vehicle_type_id":"4","last_reported":1756163358,"current_range_meters":14800,"station_id":"ce4bh3p2rcd13ifvqdq0","pricing_plan_id":"cebpf4jnsgd1na2vs0mg"},{"bike_id":"be11ee8e-d6e8-4b5a-9526-c98af2d376fa","system_id":"levelo_inurba_marseille","lat":43.28157,"lon":5.42652,"is_reserved":false,"is_disabled":false,"rental_uris":{"android":"levelo://app?vid=be11ee8e-d6e8-4b5a-9526-c98af2d376fa","ios":"levelo://app?vid=be11ee8e-d6e8-4b5a-9526-c98af2d376fa"},"vehicle_type_id":"4","last_reported":1756163358,"current_range_meters":14800,"station_id":"ce4bhnh2rcd13ifvqgug","pricing_plan_id":"cebpf4jnsgd1na2vs0mg"},{"bike_id":"af732ca8-2cea-448a-9928-59e03d12656f","system_id":"levelo_inurba_marseille","lat":43.33616,"lon":5.35883,"is_reserved":false,"is_disabled":false,"rental_uris":{"android":"levelo://app?vid=af732ca8-2cea-448a-9928-59e03d12656f","ios":"levelo://app?vid=af732ca8-2cea-448a-9928-59e03d12656f"},"vehicle_type_id":"4","last_reported":1756163358,"current_range_meters":14800,"station_id":"","pricing_plan_id":"cebpf4jnsgd1na2vs0mg"},{"bike_id":"7b43efcb-8762-4c7d-8e32-a6fa51130619","system_id":"levelo_inurba_marseille","lat":43.28412,"lon":5.37511,"is_reserved":false,"is_disabled":false,"rental_uris":{"android":"levelo://app?vid=7b43efcb-8762-4c7d-8e32-a6fa51130619","ios":"levelo://app?vid=7b43efcb-8762-4c7d-8e32-a6fa51130619"},"vehicle_type_id":"4","last_reported":1756163358,"current_range_meters":14800,"station_id":"ce4bh412rcd13ifvqds0","pricing_plan_id":"cebpf4jnsgd1na2vs0mg"},{"bike_id":"a67896b0-6111-4549-bbcd-9680519517b0","system_id":"levelo_inurba_marseille","lat":43.30592,"lon":5.39358,"is_reserved":false,"is_disabled":false,"rental_uris":{"android":"levelo://app?vid=a67896b0-6111-4549-bbcd-9680519517b0","ios":"levelo://app?vid=a67896b0-6111-4549-bbcd-9680519517b0"},"vehicle_type_id":"4","last_reported":1756163358,"current_range_meters":15200,"station_id":"ce4bh0p2rcd13ifvqd80","pricing_plan_id":"cebpf4jnsgd1na2vs0mg"},{"bike_id":"e71013d2-dbe3-4826-8a5b-4baa1d2a4ed9","system_id":"levelo_inurba_marseille","lat":43.29275,"lon":5.4013,"is_reserved":false,"is_disabled":false,"rental_uris":{"android":"levelo://app?vid=e71013d2-dbe3-4826-8a5b-4baa1d2a4ed9","ios":"levelo://app?vid=e71013d2-dbe3-4826-8a5b-4baa1d2a4ed9"},"vehicle_type_id":"4","last_reported":1756163358,"current_range_meters":15200,"station_id":"ce4bh312rcd13ifvqdk0","pricing_plan_id":"cebpf4jnsgd1na2vs0mg"},{"bike_id":"303d96e8-d989-478f-9cc7-6bbe699f0add","system_id":"levelo_inurba_marseille","lat":43.30539,"lon":5.38434,"is_reserved":false,"is_disabled":false,"rental_uris":{"android":"levelo://app?vid=303d96e8-d989-478f-9cc7-6bbe699f0add","ios":"levelo://app?vid=303d96e8-d989-478f-9cc7-6bbe699f0add"},"vehicle_type_id":"4","last_reported":1756163358,"current_range_meters":15200,"station_id":"ce4bgg92rcd13ifvqb30","pricing_plan_id":"cebpf4jnsgd1na2vs0mg"},{"bike_id":"61affd02-ee6c-42a4-8ae8-897d493e2a12","system_id":"levelo_inurba_marseille","lat":43.31713,"lon":5.43709,"is_reserved":false,"is_disabled":false,"rental_uris":{"android":"levelo://app?vid=61affd02-ee6c-42a4-8ae8-897d493e2a12","ios":"levelo://app?vid=61affd02-ee6c-42a4-8ae8-897d493e2a12"},"vehicle_type_id":"4","last_reported":1756163358,"current_range_meters":15200,"station_id":"ce4bhp92rcd13ifvqhcg","pricing_plan_id":"cebpf4jnsgd1na2vs0mg"},{"bike_id":"c30b301c-7f7b-494a-8ee4-1d6c5f9cce1b","system_id":"levelo_inurba_marseille","lat":43.28418,"lon":5.37497,"is_reserved":false,"is_disabled":true,"rental_uris":{"android":"levelo://app?vid=c30b301c-7f7b-494a-8ee4-1d6c5f9cce1b","ios":"levelo://app?vid=c30b301c-7f7b-494a-8ee4-1d6c5f9cce1b"},"vehicle_type_id":"4","last_reported":1756163358,"current_range_meters":16000,"station_id":"ce4bh412rcd13ifvqds0","pricing_plan_id":"cebpf4jnsgd1na2vs0mg"},{"bike_id":"1e717a90-c853-4831-a30a-21a593345e4c","system_id":"levelo_inurba_marseille","lat":43.28448,"lon":5.35895,"is_reserved":false,"is_disabled":false,"rental_uris":{"android":"levelo://app?vid=1e717a90-c853-4831-a30a-21a593345e4c","ios":"levelo://app?vid=1e717a90-c853-4831-a30a-21a593345e4c"},"vehicle_type_id":"4","last_reported":1756163358,"current_range_meters":15200,"station_id":"ce4bhah2rcd13ifvqei0","pricing_plan_id":"cebpf4jnsgd1na2vs0mg"},{"bike_id":"3e130ff4-87da-4c51-a264-44d1f277fd66","system_id":"levelo_inurba_marseille","lat":43.32118,"lon":5.36787,"is_reserved":false,"is_disabled":false,"rental_uris":{"android":"levelo://app?vid=3e130ff4-87da-4c51-a264-44d1f277fd66","ios":"levelo://app?vid=3e130ff4-87da-4c51-a264-44d1f277fd66"},"vehicle_type_id":"4","last_reported":1756163358,"current_range_meters":15200,"station_id":"ce4bhrh2rcd13ifvqhug","pricing_plan_id":"cebpf4jnsgd1na2vs0mg"},{"bike_id":"e2b0f307-cfe9-4ad5-b104-d661fcb0d809","system_id":"levelo_inurba_marseille","lat":43.229231,"lon":5.353791,"is_reserved":false,"is_disabled":false,"rental_uris":{"android":"levelo://app?vid=e2b0f307-cfe9-4ad5-b104-d661fcb0d809","ios":"levelo://app?vid=e2b0f307-cfe9-4ad5-b104-d661fcb0d809"},"vehicle_type_id":"4","last_reported":1756163358,"current_range_meters":16000,"station_id":"cpo3532slgdg3j2ikp40","pricing_plan_id":"cebpf4jnsgd1na2vs0mg"},{"bike_id":"6030ebdc-126c-463d-a229-e3b8a84b3c35","system_id":"levelo_inurba_marseille","lat":43.29785,"lon":5.39364,"is_reserved":false,"is_disabled":false,"rental_uris":{"android":"levelo://app?vid=6030ebdc-126c-463d-a229-e3b8a84b3c35","ios":"levelo://app?vid=6030ebdc-126c-463d-a229-e3b8a84b3c35"},"vehicle_type_id":"4","last_reported":1756163358,"current_range_meters":16000,"station_id":"chh1huq6cuj3fo74tm60","pricing_plan_id":"cebpf4jnsgd1na2vs0mg"},{"bike_id":"6be30591-0a99-4a51-b5fb-adc6a4519459","system_id":"levelo_inurba_marseille","lat":43.25615,"lon":5.38227,"is_reserved":false,"is_disabled":false,"rental_uris":{"android":"levelo://app?vid=6be30591-0a99-4a51-b5fb-adc6a4519459","ios":"levelo://app?vid=6be30591-0a99-4a51-b5fb-adc6a4519459"},"vehicle_type_id":"4","last_reported":1756163358,"current_range_meters":16000,"station_id":"ce4bhih2rcd13ifvqfs0","pricing_plan_id":"cebpf4jnsgd1na2vs0mg"},{"bike_id":"278443b4-269a-4082-9316-7b2e5ce64d5e","system_id":"levelo_inurba_marseille","lat":43.25139,"lon":5.40349,"is_reserved":false,"is_disabled":true,"rental_uris":{"android":"levelo://app?vid=278443b4-269a-4082-9316-7b2e5ce64d5e","ios":"levelo://app?vid=278443b4-269a-4082-9316-7b2e5ce64d5e"},"vehicle_type_id":"4","last_reported":1756163358,"current_range_meters":16000,"station_id":"ce4bhlh2rcd13ifvqgig","pricing_plan_id":"cebpf4jnsgd1na2vs0mg"},{"bike_id":"8ea70c9a-6664-4e1d-9b58-499929bd3925","system_id":"levelo_inurba_marseille","lat":43.287,"lon":5.37386,"is_reserved":false,"is_disabled":false,"rental_uris":{"android":"levelo://app?vid=8ea70c9a-6664-4e1d-9b58-499929bd3925","ios":"levelo://app?vid=8ea70c9a-6664-4e1d-9b58-499929bd3925"},"vehicle_type_id":"4","last_reported":1756163358,"current_range_meters":16000,"station_id":"ce4bh3p2rcd13ifvqdq0","pricing_plan_id":"cebpf4jnsgd1na2vs0mg"},{"bike_id":"0d502687-08ef-4491-8893-8a03d8688be8","system_id":"levelo_inurba_marseille","lat":43.29601,"lon":5.36123,"is_reserved":false,"is_disabled":false,"rental_uris":{"android":"levelo://app?vid=0d502687-08ef-4491-8893-8a03d8688be8","ios":"levelo://app?vid=0d502687-08ef-4491-8893-8a03d8688be8"},"vehicle_type_id":"4","last_reported":1756163358,"current_range_meters":16000,"station_id":"","pricing_plan_id":"cebpf4jnsgd1na2vs0mg"},{"bike_id":"43e3b119-bc6d-43d6-bd47-b924c0bea29c","system_id":"levelo_inurba_marseille","lat":43.27945,"lon":5.410477,"is_reserved":false,"is_disabled":false,"rental_uris":{"android":"levelo://app?vid=43e3b119-bc6d-43d6-bd47-b924c0bea29c","ios":"levelo://app?vid=43e3b119-bc6d-43d6-bd47-b924c0bea29c"},"vehicle_type_id":"4","last_reported":1756163358,"current_range_meters":16000,"station_id":"ce4bhnp2rcd13ifvqh0g","pricing_plan_id":"cebpf4jnsgd1na2vs0mg"},{"bike_id":"c8fdabc5-2920-449f-b01a-8b4bf7317060","system_id":"levelo_inurba_marseille","lat":43.31081,"lon":5.42436,"is_reserved":false,"is_disabled":false,"rental_uris":{"android":"levelo://app?vid=c8fdabc5-2920-449f-b01a-8b4bf7317060","ios":"levelo://app?vid=c8fdabc5-2920-449f-b01a-8b4bf7317060"},"vehicle_type_id":"4","last_reported":1756163358,"current_range_meters":16000,"station_id":"ce4bhp92rcd13ifvqhag","pricing_plan_id":"cebpf4jnsgd1na2vs0mg"},{"bike_id":"9e570ae1-33db-425d-9529-cbab626f0414","system_id":"levelo_inurba_marseille","lat":43.31382,"lon":5.38495,"is_reserved":false,"is_disabled":false,"rental_uris":{"android":"levelo://app?vid=9e570ae1-33db-425d-9529-cbab626f0414","ios":"levelo://app?vid=9e570ae1-33db-425d-9529-cbab626f0414"},"vehicle_type_id":"4","last_reported":1756163358,"current_range_meters":16400,"station_id":"ce4bgt92rcd13ifvqcf0","pricing_plan_id":"cebpf4jnsgd1na2vs0mg"},{"bike_id":"aa977a45-e946-4525-9cd1-e2a5ac5b0bcb","system_id":"levelo_inurba_marseille","lat":43.29312,"lon":5.4019,"is_reserved":false,"is_disabled":false,"rental_uris":{"android":"levelo://app?vid=aa977a45-e946-4525-9cd1-e2a5ac5b0bcb","ios":"levelo://app?vid=aa977a45-e946-4525-9cd1-e2a5ac5b0bcb"},"vehicle_type_id":"4","last_reported":1756163358,"current_range_meters":16400,"station_id":"","pricing_plan_id":"cebpf4jnsgd1na2vs0mg"},{"bike_id":"b375d41b-9575-4c77-a6a9-d089747042e7","system_id":"levelo_inurba_marseille","lat":43.32299,"lon":5.36779,"is_reserved":false,"is_disabled":false,"rental_uris":{"android":"levelo://app?vid=b375d41b-9575-4c77-a6a9-d089747042e7","ios":"levelo://app?vid=b375d41b-9575-4c77-a6a9-d089747042e7"},"vehicle_type_id":"4","last_reported":1756163358,"current_range_meters":16400,"station_id":"ce4bhsh2rcd13ifvqi2g","pricing_plan_id":"cebpf4jnsgd1na2vs0mg"},{"bike_id":"b891d3ff-c9da-40a4-99de-c8abd0aa5eb1","system_id":"levelo_inurba_marseille","lat":43.243973,"lon":5.370627,"is_reserved":false,"is_disabled":true,"rental_uris":{"android":"levelo://app?vid=b891d3ff-c9da-40a4-99de-c8abd0aa5eb1","ios":"levelo://app?vid=b891d3ff-c9da-40a4-99de-c8abd0aa5eb1"},"vehicle_type_id":"4","last_reported":1756163358,"current_range_meters":16400,"station_id":"ce4bhhh2rcd13ifvqfk0","pricing_plan_id":"cebpf4jnsgd1na2vs0mg"},{"bike_id":"2198d534-1e4e-4e7b-b2b3-d1e3dccee066","system_id":"levelo_inurba_marseille","lat":43.32169,"lon":5.36772,"is_reserved":false,"is_disabled":false,"rental_uris":{"android":"levelo://app?vid=2198d534-1e4e-4e7b-b2b3-d1e3dccee066","ios":"levelo://app?vid=2198d534-1e4e-4e7b-b2b3-d1e3dccee066"},"vehicle_type_id":"4","last_reported":1756163358,"current_range_meters":16400,"station_id":"","pricing_plan_id":"cebpf4jnsgd1na2vs0mg"},{"bike_id":"1ee55bf8-0332-46d8-a873-afb26ccc3d94","system_id":"levelo_inurba_marseille","lat":43.26583,"lon":5.39056,"is_reserved":false,"is_disabled":false,"rental_uris":{"android":"levelo://app?vid=1ee55bf8-0332-46d8-a873-afb26ccc3d94","ios":"levelo://app?vid=1ee55bf8-0332-46d8-a873-afb26ccc3d94"},"vehicle_type_id":"4","last_reported":1756163358,"current_range_meters":16400,"station_id":"","pricing_plan_id":"cebpf4jnsgd1na2vs0mg"},{"bike_id":"1e9dd87a-fcd8-4484-8cdf-a079cb9ece18","system_id":"levelo_inurba_marseille","lat":43.28504,"lon":5.3856,"is_reserved":false,"is_disabled":false,"rental_uris":{"android":"levelo://app?vid=1e9dd87a-fcd8-4484-8cdf-a079cb9ece18","ios":"levelo://app?vid=1e9dd87a-fcd8-4484-8cdf-a079cb9ece18"},"vehicle_type_id":"4","last_reported":1756163358,"current_range_meters":16400,"station_id":"ce4bh8p2rcd13ifvqeb0","pricing_plan_id":"cebpf4jnsgd1na2vs0mg"},{"bike_id":"7612c145-8535-4ccf-96ee-de62f40b9550","system_id":"levelo_inurba_marseille","lat":43.323814,"lon":5.389773,"is_reserved":false,"is_disabled":false,"rental_uris":{"android":"levelo://app?vid=7612c145-8535-4ccf-96ee-de62f40b9550","ios":"levelo://app?vid=7612c145-8535-4ccf-96ee-de62f40b9550"},"vehicle_type_id":"4","last_reported":1756163358,"current_range_meters":16400,"station_id":"","pricing_plan_id":"cebpf4jnsgd1na2vs0mg"},{"bike_id":"f84f46c8-243d-42cd-b308-2b289e4c09d3","system_id":"levelo_inurba_marseille","lat":43.334514,"lon":5.356717,"is_reserved":false,"is_disabled":false,"rental_uris":{"android":"levelo://app?vid=f84f46c8-243d-42cd-b308-2b289e4c09d3","ios":"levelo://app?vid=f84f46c8-243d-42cd-b308-2b289e4c09d3"},"vehicle_type_id":"4","last_reported":1756163358,"current_range_meters":16400,"station_id":"","pricing_plan_id":"cebpf4jnsgd1na2vs0mg"},{"bike_id":"5f9365e2-60dc-4158-a2c3-0e40911a7a32","system_id":"levelo_inurba_marseille","lat":43.33431,"lon":5.40031,"is_reserved":false,"is_disabled":false,"rental_uris":{"android":"levelo://app?vid=5f9365e2-60dc-4158-a2c3-0e40911a7a32","ios":"levelo://app?vid=5f9365e2-60dc-4158-a2c3-0e40911a7a32"},"vehicle_type_id":"4","last_reported":1756163358,"current_range_meters":16400,"station_id":"","pricing_plan_id":"cebpf4jnsgd1na2vs0mg"},{"bike_id":"d6114a40-95cc-411a-9c88-40f7bdfcc462","system_id":"levelo_inurba_marseille","lat":43.28155,"lon":5.42643,"is_reserved":false,"is_disabled":false,"rental_uris":{"android":"levelo://app?vid=d6114a40-95cc-411a-9c88-40f7bdfcc462","ios":"levelo://app?vid=d6114a40-95cc-411a-9c88-40f7bdfcc462"},"vehicle_type_id":"4","last_reported":1756163358,"current_range_meters":16400,"station_id":"ce4bhnh2rcd13ifvqgug","pricing_plan_id":"cebpf4jnsgd1na2vs0mg"},{"bike_id":"df00d23c-f251-4000-a7f0-91d5a6499b4c","system_id":"levelo_inurba_marseille","lat":43.296036,"lon":5.380867,"is_reserved":false,"is_disabled":false,"rental_uris":{"android":"levelo://app?vid=df00d23c-f251-4000-a7f0-91d5a6499b4c","ios":"levelo://app?vid=df00d23c-f251-4000-a7f0-91d5a6499b4c"},"vehicle_type_id":"4","last_reported":1756163358,"current_range_meters":16400,"station_id":"ce4bgl12rcd13ifvqbo0","pricing_plan_id":"cebpf4jnsgd1na2vs0mg"},{"bike_id":"43988c87-51ce-4992-a481-25f525deb229","system_id":"levelo_inurba_marseille","lat":43.30796,"lon":5.38153,"is_reserved":false,"is_disabled":false,"rental_uris":{"android":"levelo://app?vid=43988c87-51ce-4992-a481-25f525deb229","ios":"levelo://app?vid=43988c87-51ce-4992-a481-25f525deb229"},"vehicle_type_id":"4","last_reported":1756163358,"current_range_meters":16400,"station_id":"ce4bgt12rcd13ifvqce0","pricing_plan_id":"cebpf4jnsgd1na2vs0mg"},{"bike_id":"db7d3d83-f39a-4469-8445-29697e69fec4","system_id":"levelo_inurba_marseille","lat":43.32264,"lon":5.38547,"is_reserved":false,"is_disabled":false,"rental_uris":{"android":"levelo://app?vid=db7d3d83-f39a-4469-8445-29697e69fec4","ios":"levelo://app?vid=db7d3d83-f39a-4469-8445-29697e69fec4"},"vehicle_type_id":"4","last_reported":1756163358,"current_range_meters":16400,"station_id":"","pricing_plan_id":"cebpf4jnsgd1na2vs0mg"},{"bike_id":"6c60e48b-9c19-4b93-ab19-49f1ae62f60d","system_id":"levelo_inurba_marseille","lat":43.31716,"lon":5.43704,"is_reserved":false,"is_disabled":false,"rental_uris":{"android":"levelo://app?vid=6c60e48b-9c19-4b93-ab19-49f1ae62f60d","ios":"levelo://app?vid=6c60e48b-9c19-4b93-ab19-49f1ae62f60d"},"vehicle_type_id":"4","last_reported":1756163358,"current_range_meters":16400,"station_id":"ce4bhp92rcd13ifvqhcg","pricing_plan_id":"cebpf4jnsgd1na2vs0mg"},{"bike_id":"34b05bf9-5565-47a9-a704-66fe97becf52","system_id":"levelo_inurba_marseille","lat":43.30605,"lon":5.37213,"is_reserved":false,"is_disabled":false,"rental_uris":{"android":"levelo://app?vid=34b05bf9-5565-47a9-a704-66fe97becf52","ios":"levelo://app?vid=34b05bf9-5565-47a9-a704-66fe97becf52"},"vehicle_type_id":"4","last_reported":1756163358,"current_range_meters":16800,"station_id":"ce4bgqh2rcd13ifvqc4g","pricing_plan_id":"cebpf4jnsgd1na2vs0mg"},{"bike_id":"50080086-5ad6-41c2-b993-d4f4d5e2439a","system_id":"levelo_inurba_marseille","lat":43.32852,"lon":5.39097,"is_reserved":false,"is_disabled":false,"rental_uris":{"android":"levelo://app?vid=50080086-5ad6-41c2-b993-d4f4d5e2439a","ios":"levelo://app?vid=50080086-5ad6-41c2-b993-d4f4d5e2439a"},"vehicle_type_id":"4","last_reported":1756163358,"current_range_meters":16800,"station_id":"ce4bhr92rcd13ifvqhrg","pricing_plan_id":"cebpf4jnsgd1na2vs0mg"},{"bike_id":"e022ebb3-e2b1-4623-9b6a-f0e8d1502cf0","system_id":"levelo_inurba_marseille","lat":43.26239,"lon":5.40453,"is_reserved":false,"is_disabled":false,"rental_uris":{"android":"levelo://app?vid=e022ebb3-e2b1-4623-9b6a-f0e8d1502cf0","ios":"levelo://app?vid=e022ebb3-e2b1-4623-9b6a-f0e8d1502cf0"},"vehicle_type_id":"4","last_reported":1756163358,"current_range_meters":16800,"station_id":"ce4bhmh2rcd13ifvqgmg","pricing_plan_id":"cebpf4jnsgd1na2vs0mg"},{"bike_id":"56802e72-e1c5-446e-b49a-e8699acdd815","system_id":"levelo_inurba_marseille","lat":43.2917,"lon":5.37167,"is_reserved":false,"is_disabled":false,"rental_uris":{"android":"levelo://app?vid=56802e72-e1c5-446e-b49a-e8699acdd815","ios":"levelo://app?vid=56802e72-e1c5-446e-b49a-e8699acdd815"},"vehicle_type_id":"4","last_reported":1756163358,"current_range_meters":16400,"station_id":"ce4bha92rcd13ifvqeh0","pricing_plan_id":"cebpf4jnsgd1na2vs0mg"},{"bike_id":"c47b2876-c564-417f-9d7f-97cdd2f94270","system_id":"levelo_inurba_marseille","lat":43.24178,"lon":5.3639,"is_reserved":false,"is_disabled":false,"rental_uris":{"android":"levelo://app?vid=c47b2876-c564-417f-9d7f-97cdd2f94270","ios":"levelo://app?vid=c47b2876-c564-417f-9d7f-97cdd2f94270"},"vehicle_type_id":"4","last_reported":1756163358,"current_range_meters":16800,"station_id":"cpo36qri1sfpv3e86is0","pricing_plan_id":"cebpf4jnsgd1na2vs0mg"},{"bike_id":"35a10f98-aacb-42d2-85bd-d9895773a9d4","system_id":"levelo_inurba_marseille","lat":43.28617,"lon":5.351,"is_reserved":false,"is_disabled":false,"rental_uris":{"android":"levelo://app?vid=35a10f98-aacb-42d2-85bd-d9895773a9d4","ios":"levelo://app?vid=35a10f98-aacb-42d2-85bd-d9895773a9d4"},"vehicle_type_id":"4","last_reported":1756163358,"current_range_meters":16800,"station_id":"ce4bhch2rcd13ifvqeug","pricing_plan_id":"cebpf4jnsgd1na2vs0mg"},{"bike_id":"31fef4f9-2338-49d8-a486-1abcacc2b1f5","system_id":"levelo_inurba_marseille","lat":43.32341,"lon":5.40625,"is_reserved":false,"is_disabled":false,"rental_uris":{"android":"levelo://app?vid=31fef4f9-2338-49d8-a486-1abcacc2b1f5","ios":"levelo://app?vid=31fef4f9-2338-49d8-a486-1abcacc2b1f5"},"vehicle_type_id":"4","last_reported":1756163358,"current_range_meters":16800,"station_id":"ce4bhq92rcd13ifvqhjg","pricing_plan_id":"cebpf4jnsgd1na2vs0mg"},{"bike_id":"51842e17-ef10-4624-a23e-c8a182427991","system_id":"levelo_inurba_marseille","lat":43.31568,"lon":5.38201,"is_reserved":false,"is_disabled":false,"rental_uris":{"android":"levelo://app?vid=51842e17-ef10-4624-a23e-c8a182427991","ios":"levelo://app?vid=51842e17-ef10-4624-a23e-c8a182427991"},"vehicle_type_id":"4","last_reported":1756163358,"current_range_meters":16800,"station_id":"","pricing_plan_id":"cebpf4jnsgd1na2vs0mg"},{"bike_id":"fc44c56e-ee5a-45a6-935e-59b3ec343322","system_id":"levelo_inurba_marseille","lat":43.25195,"lon":5.40465,"is_reserved":false,"is_disabled":false,"rental_uris":{"android":"levelo://app?vid=fc44c56e-ee5a-45a6-935e-59b3ec343322","ios":"levelo://app?vid=fc44c56e-ee5a-45a6-935e-59b3ec343322"},"vehicle_type_id":"4","last_reported":1756163358,"current_range_meters":16800,"station_id":"","pricing_plan_id":"cebpf4jnsgd1na2vs0mg"},{"bike_id":"96a0eeab-9497-4ad3-944b-4bedd9f0993a","system_id":"levelo_inurba_marseille","lat":43.32466,"lon":5.36575,"is_reserved":false,"is_disabled":true,"rental_uris":{"android":"levelo://app?vid=96a0eeab-9497-4ad3-944b-4bedd9f0993a","ios":"levelo://app?vid=96a0eeab-9497-4ad3-944b-4bedd9f0993a"},"vehicle_type_id":"4","last_reported":1756163358,"current_range_meters":17200,"station_id":"ce4bhs12rcd13ifvqhvg","pricing_plan_id":"cebpf4jnsgd1na2vs0mg"},{"bike_id":"943d95a7-9535-411f-ba22-8068aaf6ac69","system_id":"levelo_inurba_marseille","lat":43.2958,"lon":5.38099,"is_reserved":false,"is_disabled":true,"rental_uris":{"android":"levelo://app?vid=943d95a7-9535-411f-ba22-8068aaf6ac69","ios":"levelo://app?vid=943d95a7-9535-411f-ba22-8068aaf6ac69"},"vehicle_type_id":"4","last_reported":1756163358,"current_range_meters":17200,"station_id":"ce4bgl12rcd13ifvqbo0","pricing_plan_id":"cebpf4jnsgd1na2vs0mg"},{"bike_id":"90106b61-39ba-4550-9728-cd6a51353a17","system_id":"levelo_inurba_marseille","lat":43.21205,"lon":5.35052,"is_reserved":false,"is_disabled":false,"rental_uris":{"android":"levelo://app?vid=90106b61-39ba-4550-9728-cd6a51353a17","ios":"levelo://app?vid=90106b61-39ba-4550-9728-cd6a51353a17"},"vehicle_type_id":"4","last_reported":1756163358,"current_range_meters":17200,"station_id":"st_cvj6sg6p6f1abm77japg","pricing_plan_id":"cebpf4jnsgd1na2vs0mg"},{"bike_id":"ab9c323f-acfb-496f-ac1a-5848eeece554","system_id":"levelo_inurba_marseille","lat":43.2816,"lon":5.37858,"is_reserved":false,"is_disabled":false,"rental_uris":{"android":"levelo://app?vid=ab9c323f-acfb-496f-ac1a-5848eeece554","ios":"levelo://app?vid=ab9c323f-acfb-496f-ac1a-5848eeece554"},"vehicle_type_id":"4","last_reported":1756163358,"current_range_meters":17200,"station_id":"","pricing_plan_id":"cebpf4jnsgd1na2vs0mg"},{"bike_id":"1c889b09-8cad-434d-bfd5-5f7e6198ad13","system_id":"levelo_inurba_marseille","lat":43.23176,"lon":5.39985,"is_reserved":false,"is_disabled":false,"rental_uris":{"android":"levelo://app?vid=1c889b09-8cad-434d-bfd5-5f7e6198ad13","ios":"levelo://app?vid=1c889b09-8cad-434d-bfd5-5f7e6198ad13"},"vehicle_type_id":"4","last_reported":1756163358,"current_range_meters":17200,"station_id":"ce4bhn12rcd13ifvqgqg","pricing_plan_id":"cebpf4jnsgd1na2vs0mg"},{"bike_id":"a15a1c44-718b-407d-acaa-0383628c87d7","system_id":"levelo_inurba_marseille","lat":43.32692,"lon":5.39202,"is_reserved":false,"is_disabled":false,"rental_uris":{"android":"levelo://app?vid=a15a1c44-718b-407d-acaa-0383628c87d7","ios":"levelo://app?vid=a15a1c44-718b-407d-acaa-0383628c87d7"},"vehicle_type_id":"4","last_reported":1756163358,"current_range_meters":17200,"station_id":"","pricing_plan_id":"cebpf4jnsgd1na2vs0mg"},{"bike_id":"f50e029c-78e4-4943-96e6-f587e062386c","system_id":"levelo_inurba_marseille","lat":43.31727,"lon":5.42428,"is_reserved":false,"is_disabled":false,"rental_uris":{"android":"levelo://app?vid=f50e029c-78e4-4943-96e6-f587e062386c","ios":"levelo://app?vid=f50e029c-78e4-4943-96e6-f587e062386c"},"vehicle_type_id":"4","last_reported":1756163358,"current_range_meters":17200,"station_id":"ce4bhp92rcd13ifvqhbg","pricing_plan_id":"cebpf4jnsgd1na2vs0mg"},{"bike_id":"bd1562d8-14ab-4cec-b766-66e9e9a64fa6","system_id":"levelo_inurba_marseille","lat":43.2502,"lon":5.3893,"is_reserved":false,"is_disabled":false,"rental_uris":{"android":"levelo://app?vid=bd1562d8-14ab-4cec-b766-66e9e9a64fa6","ios":"levelo://app?vid=bd1562d8-14ab-4cec-b766-66e9e9a64fa6"},"vehicle_type_id":"4","last_reported":1756163358,"current_range_meters":17200,"station_id":"ce4bhgp2rcd13ifvqfd0","pricing_plan_id":"cebpf4jnsgd1na2vs0mg"},{"bike_id":"45bc046a-ccea-4c00-b616-232704e6d7df","system_id":"levelo_inurba_marseille","lat":43.33096,"lon":5.39055,"is_reserved":false,"is_disabled":false,"rental_uris":{"android":"levelo://app?vid=45bc046a-ccea-4c00-b616-232704e6d7df","ios":"levelo://app?vid=45bc046a-ccea-4c00-b616-232704e6d7df"},"vehicle_type_id":"4","last_reported":1756163358,"current_range_meters":17200,"station_id":"","pricing_plan_id":"cebpf4jnsgd1na2vs0mg"},{"bike_id":"8712f85a-a105-41d0-8d5b-173a8d0d8c70","system_id":"levelo_inurba_marseille","lat":43.30423,"lon":5.38888,"is_reserved":false,"is_disabled":false,"rental_uris":{"android":"levelo://app?vid=8712f85a-a105-41d0-8d5b-173a8d0d8c70","ios":"levelo://app?vid=8712f85a-a105-41d0-8d5b-173a8d0d8c70"},"vehicle_type_id":"4","last_reported":1756163358,"current_range_meters":17200,"station_id":"ce4bgk12rcd13ifvqbi0","pricing_plan_id":"cebpf4jnsgd1na2vs0mg"},{"bike_id":"c52af379-7ffc-4800-a6f9-6e5ea70df2d5","system_id":"levelo_inurba_marseille","lat":43.24667,"lon":5.38162,"is_reserved":false,"is_disabled":false,"rental_uris":{"android":"levelo://app?vid=c52af379-7ffc-4800-a6f9-6e5ea70df2d5","ios":"levelo://app?vid=c52af379-7ffc-4800-a6f9-6e5ea70df2d5"},"vehicle_type_id":"4","last_reported":1756163358,"current_range_meters":17200,"station_id":"ce4bhih2rcd13ifvqfr0","pricing_plan_id":"cebpf4jnsgd1na2vs0mg"},{"bike_id":"72f6893b-e1a6-4741-aa57-e762849eda44","system_id":"levelo_inurba_marseille","lat":43.3175,"lon":5.39004,"is_reserved":false,"is_disabled":true,"rental_uris":{"android":"levelo://app?vid=72f6893b-e1a6-4741-aa57-e762849eda44","ios":"levelo://app?vid=72f6893b-e1a6-4741-aa57-e762849eda44"},"vehicle_type_id":"4","last_reported":1756163358,"current_range_meters":17600,"station_id":"ce4bhqp2rcd13ifvqhng","pricing_plan_id":"cebpf4jnsgd1na2vs0mg"},{"bike_id":"00749c5a-2954-4755-9f4f-2b966581ffb4","system_id":"levelo_inurba_marseille","lat":43.250022,"lon":5.389323,"is_reserved":false,"is_disabled":false,"rental_uris":{"android":"levelo://app?vid=00749c5a-2954-4755-9f4f-2b966581ffb4","ios":"levelo://app?vid=00749c5a-2954-4755-9f4f-2b966581ffb4"},"vehicle_type_id":"4","last_reported":1756163358,"current_range_meters":17600,"station_id":"ce4bhgp2rcd13ifvqfd0","pricing_plan_id":"cebpf4jnsgd1na2vs0mg"},{"bike_id":"96b831ad-46a8-4a91-bc52-948869fed356","system_id":"levelo_inurba_marseille","lat":43.27944,"lon":5.3958,"is_reserved":false,"is_disabled":false,"rental_uris":{"android":"levelo://app?vid=96b831ad-46a8-4a91-bc52-948869fed356","ios":"levelo://app?vid=96b831ad-46a8-4a91-bc52-948869fed356"},"vehicle_type_id":"4","last_reported":1756163358,"current_range_meters":17600,"station_id":"ce4bhf92rcd13ifvqf40","pricing_plan_id":"cebpf4jnsgd1na2vs0mg"},{"bike_id":"b08d0d63-d495-4173-8c85-a055b48de9dc","system_id":"levelo_inurba_marseille","lat":43.290045,"lon":5.356109,"is_reserved":false,"is_disabled":true,"rental_uris":{"android":"levelo://app?vid=b08d0d63-d495-4173-8c85-a055b48de9dc","ios":"levelo://app?vid=b08d0d63-d495-4173-8c85-a055b48de9dc"},"vehicle_type_id":"4","last_reported":1756163358,"current_range_meters":17600,"station_id":"ce4bhb92rcd13ifvqen0","pricing_plan_id":"cebpf4jnsgd1na2vs0mg"},{"bike_id":"e6f38f7d-899e-411c-93ee-626295149899","system_id":"levelo_inurba_marseille","lat":43.26214,"lon":5.37443,"is_reserved":false,"is_disabled":false,"rental_uris":{"android":"levelo://app?vid=e6f38f7d-899e-411c-93ee-626295149899","ios":"levelo://app?vid=e6f38f7d-899e-411c-93ee-626295149899"},"vehicle_type_id":"4","last_reported":1756163358,"current_range_meters":18000,"station_id":"ce4bhgp2rcd13ifvqfc0","pricing_plan_id":"cebpf4jnsgd1na2vs0mg"},{"bike_id":"826f9c0a-980b-43d8-bf4c-e43d77c221ed","system_id":"levelo_inurba_marseille","lat":43.23186,"lon":5.39982,"is_reserved":false,"is_disabled":false,"rental_uris":{"android":"levelo://app?vid=826f9c0a-980b-43d8-bf4c-e43d77c221ed","ios":"levelo://app?vid=826f9c0a-980b-43d8-bf4c-e43d77c221ed"},"vehicle_type_id":"4","last_reported":1756163358,"current_range_meters":18000,"station_id":"ce4bhn12rcd13ifvqgqg","pricing_plan_id":"cebpf4jnsgd1na2vs0mg"},{"bike_id":"f0c85809-eae3-4667-93f3-6a8b97e55bc3","system_id":"levelo_inurba_marseille","lat":43.28794,"lon":5.42891,"is_reserved":false,"is_disabled":false,"rental_uris":{"android":"levelo://app?vid=f0c85809-eae3-4667-93f3-6a8b97e55bc3","ios":"levelo://app?vid=f0c85809-eae3-4667-93f3-6a8b97e55bc3"},"vehicle_type_id":"4","last_reported":1756163358,"current_range_meters":18000,"station_id":"","pricing_plan_id":"cebpf4jnsgd1na2vs0mg"},{"bike_id":"ecb43efe-4976-4c63-bc05-65cd8f38e28b","system_id":"levelo_inurba_marseille","lat":43.29284,"lon":5.4012,"is_reserved":false,"is_disabled":false,"rental_uris":{"android":"levelo://app?vid=ecb43efe-4976-4c63-bc05-65cd8f38e28b","ios":"levelo://app?vid=ecb43efe-4976-4c63-bc05-65cd8f38e28b"},"vehicle_type_id":"4","last_reported":1756163358,"current_range_meters":18000,"station_id":"ce4bh312rcd13ifvqdk0","pricing_plan_id":"cebpf4jnsgd1na2vs0mg"},{"bike_id":"db84aae5-bd74-44c2-877e-c6a4b9a0199c","system_id":"levelo_inurba_marseille","lat":43.29311,"lon":5.37192,"is_reserved":false,"is_disabled":true,"rental_uris":{"android":"levelo://app?vid=db84aae5-bd74-44c2-877e-c6a4b9a0199c","ios":"levelo://app?vid=db84aae5-bd74-44c2-877e-c6a4b9a0199c"},"vehicle_type_id":"4","last_reported":1756163358,"current_range_meters":18000,"station_id":"ce4bgh92rcd13ifvqb40","pricing_plan_id":"cebpf4jnsgd1na2vs0mg"},{"bike_id":"ff1cb3c0-6938-4213-b3d9-db0ef56b8bd3","system_id":"levelo_inurba_marseille","lat":43.31279,"lon":5.40164,"is_reserved":false,"is_disabled":false,"rental_uris":{"android":"levelo://app?vid=ff1cb3c0-6938-4213-b3d9-db0ef56b8bd3","ios":"levelo://app?vid=ff1cb3c0-6938-4213-b3d9-db0ef56b8bd3"},"vehicle_type_id":"4","last_reported":1756163358,"current_range_meters":18000,"station_id":"ce4bh092rcd13ifvqd30","pricing_plan_id":"cebpf4jnsgd1na2vs0mg"},{"bike_id":"e627202f-33fe-48e9-b420-92cf3279a2e7","system_id":"levelo_inurba_marseille","lat":43.30932,"lon":5.40147,"is_reserved":false,"is_disabled":false,"rental_uris":{"android":"levelo://app?vid=e627202f-33fe-48e9-b420-92cf3279a2e7","ios":"levelo://app?vid=e627202f-33fe-48e9-b420-92cf3279a2e7"},"vehicle_type_id":"4","last_reported":1756163358,"current_range_meters":18000,"station_id":"ce4bgvp2rcd13ifvqct0","pricing_plan_id":"cebpf4jnsgd1na2vs0mg"},{"bike_id":"6ea4042e-31ac-46ff-92fb-d490e7c2b172","system_id":"levelo_inurba_marseille","lat":43.31327,"lon":5.39695,"is_reserved":false,"is_disabled":false,"rental_uris":{"android":"levelo://app?vid=6ea4042e-31ac-46ff-92fb-d490e7c2b172","ios":"levelo://app?vid=6ea4042e-31ac-46ff-92fb-d490e7c2b172"},"vehicle_type_id":"4","last_reported":1756163358,"current_range_meters":18000,"station_id":"ce4bgvp2rcd13ifvqcu0","pricing_plan_id":"cebpf4jnsgd1na2vs0mg"},{"bike_id":"bc4fabc1-49d3-4d30-ae41-26261331568a","system_id":"levelo_inurba_marseille","lat":43.28173,"lon":5.42655,"is_reserved":false,"is_disabled":false,"rental_uris":{"android":"levelo://app?vid=bc4fabc1-49d3-4d30-ae41-26261331568a","ios":"levelo://app?vid=bc4fabc1-49d3-4d30-ae41-26261331568a"},"vehicle_type_id":"4","last_reported":1756163358,"current_range_meters":18000,"station_id":"ce4bhnh2rcd13ifvqgug","pricing_plan_id":"cebpf4jnsgd1na2vs0mg"},{"bike_id":"777a8c83-aed8-4881-84b6-34465956e738","system_id":"levelo_inurba_marseille","lat":43.25767,"lon":5.41046,"is_reserved":false,"is_disabled":false,"rental_uris":{"android":"levelo://app?vid=777a8c83-aed8-4881-84b6-34465956e738","ios":"levelo://app?vid=777a8c83-aed8-4881-84b6-34465956e738"},"vehicle_type_id":"4","last_reported":1756163358,"current_range_meters":18000,"station_id":"","pricing_plan_id":"cebpf4jnsgd1na2vs0mg"},{"bike_id":"af744081-2681-4d1e-9525-a9843cca33d2","system_id":"levelo_inurba_marseille","lat":43.32549,"lon":5.3647,"is_reserved":false,"is_disabled":false,"rental_uris":{"android":"levelo://app?vid=af744081-2681-4d1e-9525-a9843cca33d2","ios":"levelo://app?vid=af744081-2681-4d1e-9525-a9843cca33d2"},"vehicle_type_id":"4","last_reported":1756163358,"current_range_meters":18000,"station_id":"","pricing_plan_id":"cebpf4jnsgd1na2vs0mg"},{"bike_id":"f6ea3250-5bfb-4676-a021-d7591ec86f25","system_id":"levelo_inurba_marseille","lat":43.25759,"lon":5.41084,"is_reserved":false,"is_disabled":false,"rental_uris":{"android":"levelo://app?vid=f6ea3250-5bfb-4676-a021-d7591ec86f25","ios":"levelo://app?vid=f6ea3250-5bfb-4676-a021-d7591ec86f25"},"vehicle_type_id":"4","last_reported":1756163358,"current_range_meters":18800,"station_id":"ce4bhkp2rcd13ifvqgd0","pricing_plan_id":"cebpf4jnsgd1na2vs0mg"},{"bike_id":"f0400c37-c7f6-4929-b1ac-d92430ff6f2d","system_id":"levelo_inurba_marseille","lat":43.276398,"lon":5.396681,"is_reserved":false,"is_disabled":false,"rental_uris":{"android":"levelo://app?vid=f0400c37-c7f6-4929-b1ac-d92430ff6f2d","ios":"levelo://app?vid=f0400c37-c7f6-4929-b1ac-d92430ff6f2d"},"vehicle_type_id":"4","last_reported":1756163358,"current_range_meters":18800,"station_id":"","pricing_plan_id":"cebpf4jnsgd1na2vs0mg"},{"bike_id":"67e8b54b-a1a6-4abf-820c-93867c6e5613","system_id":"levelo_inurba_marseille","lat":43.28462,"lon":5.35902,"is_reserved":false,"is_disabled":false,"rental_uris":{"android":"levelo://app?vid=67e8b54b-a1a6-4abf-820c-93867c6e5613","ios":"levelo://app?vid=67e8b54b-a1a6-4abf-820c-93867c6e5613"},"vehicle_type_id":"4","last_reported":1756163358,"current_range_meters":18800,"station_id":"ce4bhah2rcd13ifvqei0","pricing_plan_id":"cebpf4jnsgd1na2vs0mg"},{"bike_id":"150e78ac-a5f4-4248-9747-4c3d95090267","system_id":"levelo_inurba_marseille","lat":43.30952,"lon":5.40177,"is_reserved":false,"is_disabled":false,"rental_uris":{"android":"levelo://app?vid=150e78ac-a5f4-4248-9747-4c3d95090267","ios":"levelo://app?vid=150e78ac-a5f4-4248-9747-4c3d95090267"},"vehicle_type_id":"4","last_reported":1756163358,"current_range_meters":18800,"station_id":"ce4bgvp2rcd13ifvqct0","pricing_plan_id":"cebpf4jnsgd1na2vs0mg"},{"bike_id":"de66a995-ebeb-45b9-b3d9-e37c2103b9b5","system_id":"levelo_inurba_marseille","lat":43.27179,"lon":5.40989,"is_reserved":false,"is_disabled":false,"rental_uris":{"android":"levelo://app?vid=de66a995-ebeb-45b9-b3d9-e37c2103b9b5","ios":"levelo://app?vid=de66a995-ebeb-45b9-b3d9-e37c2103b9b5"},"vehicle_type_id":"4","last_reported":1756163358,"current_range_meters":18800,"station_id":"ce4bhl12rcd13ifvqgf0","pricing_plan_id":"cebpf4jnsgd1na2vs0mg"},{"bike_id":"547e9b96-9c55-431a-bfba-68a5bf6594bc","system_id":"levelo_inurba_marseille","lat":43.28997,"lon":5.35625,"is_reserved":false,"is_disabled":true,"rental_uris":{"android":"levelo://app?vid=547e9b96-9c55-431a-bfba-68a5bf6594bc","ios":"levelo://app?vid=547e9b96-9c55-431a-bfba-68a5bf6594bc"},"vehicle_type_id":"4","last_reported":1756163358,"current_range_meters":18800,"station_id":"ce4bhb92rcd13ifvqen0","pricing_plan_id":"cebpf4jnsgd1na2vs0mg"},{"bike_id":"c074df6b-f094-42e8-9430-f2f34f0ef1eb","system_id":"levelo_inurba_marseille","lat":43.29856,"lon":5.36279,"is_reserved":false,"is_disabled":true,"rental_uris":{"android":"levelo://app?vid=c074df6b-f094-42e8-9430-f2f34f0ef1eb","ios":"levelo://app?vid=c074df6b-f094-42e8-9430-f2f34f0ef1eb"},"vehicle_type_id":"4","last_reported":1756163358,"current_range_meters":18800,"station_id":"ce4bgpp2rcd13ifvqc3g","pricing_plan_id":"cebpf4jnsgd1na2vs0mg"},{"bike_id":"507bfa7a-77ad-4faf-874f-5e94ad334f53","system_id":"levelo_inurba_marseille","lat":43.23199,"lon":5.39989,"is_reserved":false,"is_disabled":false,"rental_uris":{"android":"levelo://app?vid=507bfa7a-77ad-4faf-874f-5e94ad334f53","ios":"levelo://app?vid=507bfa7a-77ad-4faf-874f-5e94ad334f53"},"vehicle_type_id":"4","last_reported":1756163358,"current_range_meters":18800,"station_id":"ce4bhn12rcd13ifvqgqg","pricing_plan_id":"cebpf4jnsgd1na2vs0mg"},{"bike_id":"a5e51e24-ab9a-41f2-b8a9-101abf1cf291","system_id":"levelo_inurba_marseille","lat":43.260564,"lon":5.394056,"is_reserved":false,"is_disabled":true,"rental_uris":{"android":"levelo://app?vid=a5e51e24-ab9a-41f2-b8a9-101abf1cf291","ios":"levelo://app?vid=a5e51e24-ab9a-41f2-b8a9-101abf1cf291"},"vehicle_type_id":"4","last_reported":1756163358,"current_range_meters":18800,"station_id":"ce4bhh92rcd13ifvqfj0","pricing_plan_id":"cebpf4jnsgd1na2vs0mg"},{"bike_id":"070c5c08-8102-4233-9aa2-6dc44cc7988e","system_id":"levelo_inurba_marseille","lat":43.30267,"lon":5.38446,"is_reserved":false,"is_disabled":false,"rental_uris":{"android":"levelo://app?vid=070c5c08-8102-4233-9aa2-6dc44cc7988e","ios":"levelo://app?vid=070c5c08-8102-4233-9aa2-6dc44cc7988e"},"vehicle_type_id":"4","last_reported":1756163358,"current_range_meters":19200,"station_id":"","pricing_plan_id":"cebpf4jnsgd1na2vs0mg"},{"bike_id":"39665dfe-0da4-401a-a163-a7c2423711a2","system_id":"levelo_inurba_marseille","lat":43.28702,"lon":5.37374,"is_reserved":false,"is_disabled":false,"rental_uris":{"android":"levelo://app?vid=39665dfe-0da4-401a-a163-a7c2423711a2","ios":"levelo://app?vid=39665dfe-0da4-401a-a163-a7c2423711a2"},"vehicle_type_id":"4","last_reported":1756163358,"current_range_meters":19200,"station_id":"ce4bh3p2rcd13ifvqdq0","pricing_plan_id":"cebpf4jnsgd1na2vs0mg"},{"bike_id":"7a0f78c0-de72-441e-9980-f61fdfbfcdeb","system_id":"levelo_inurba_marseille","lat":43.30173,"lon":5.37376,"is_reserved":false,"is_disabled":false,"rental_uris":{"android":"levelo://app?vid=7a0f78c0-de72-441e-9980-f61fdfbfcdeb","ios":"levelo://app?vid=7a0f78c0-de72-441e-9980-f61fdfbfcdeb"},"vehicle_type_id":"4","last_reported":1756163358,"current_range_meters":19200,"station_id":"ce4bgs92rcd13ifvqcc0","pricing_plan_id":"cebpf4jnsgd1na2vs0mg"},{"bike_id":"709d0951-ebff-42c5-b9f9-92d89de2f8fb","system_id":"levelo_inurba_marseille","lat":43.29597,"lon":5.37697,"is_reserved":false,"is_disabled":true,"rental_uris":{"android":"levelo://app?vid=709d0951-ebff-42c5-b9f9-92d89de2f8fb","ios":"levelo://app?vid=709d0951-ebff-42c5-b9f9-92d89de2f8fb"},"vehicle_type_id":"4","last_reported":1756163358,"current_range_meters":19200,"station_id":"ce4bgi92rcd13ifvqb90","pricing_plan_id":"cebpf4jnsgd1na2vs0mg"},{"bike_id":"1f8abda0-b398-458e-b1d4-8f630b737e5e","system_id":"levelo_inurba_marseille","lat":43.257237,"lon":5.411177,"is_reserved":false,"is_disabled":false,"rental_uris":{"android":"levelo://app?vid=1f8abda0-b398-458e-b1d4-8f630b737e5e","ios":"levelo://app?vid=1f8abda0-b398-458e-b1d4-8f630b737e5e"},"vehicle_type_id":"4","last_reported":1756163358,"current_range_meters":19200,"station_id":"ce4bhkp2rcd13ifvqgd0","pricing_plan_id":"cebpf4jnsgd1na2vs0mg"},{"bike_id":"4b47784a-5ba4-49c7-8eff-9b806c61b45b","system_id":"levelo_inurba_marseille","lat":43.29438,"lon":5.39756,"is_reserved":false,"is_disabled":false,"rental_uris":{"android":"levelo://app?vid=4b47784a-5ba4-49c7-8eff-9b806c61b45b","ios":"levelo://app?vid=4b47784a-5ba4-49c7-8eff-9b806c61b45b"},"vehicle_type_id":"4","last_reported":1756163358,"current_range_meters":19200,"station_id":"ce4bh3h2rcd13ifvqdo0","pricing_plan_id":"cebpf4jnsgd1na2vs0mg"},{"bike_id":"0c05f254-89c0-4f94-abdb-f664c97a78a0","system_id":"levelo_inurba_marseille","lat":43.30611,"lon":5.37235,"is_reserved":false,"is_disabled":false,"rental_uris":{"android":"levelo://app?vid=0c05f254-89c0-4f94-abdb-f664c97a78a0","ios":"levelo://app?vid=0c05f254-89c0-4f94-abdb-f664c97a78a0"},"vehicle_type_id":"4","last_reported":1756163358,"current_range_meters":19200,"station_id":"ce4bgqh2rcd13ifvqc4g","pricing_plan_id":"cebpf4jnsgd1na2vs0mg"},{"bike_id":"03fbdc52-e58a-47b6-96a9-5694cce10130","system_id":"levelo_inurba_marseille","lat":43.30646,"lon":5.40079,"is_reserved":false,"is_disabled":false,"rental_uris":{"android":"levelo://app?vid=03fbdc52-e58a-47b6-96a9-5694cce10130","ios":"levelo://app?vid=03fbdc52-e58a-47b6-96a9-5694cce10130"},"vehicle_type_id":"4","last_reported":1756163358,"current_range_meters":19200,"station_id":"ce4bh112rcd13ifvqda0","pricing_plan_id":"cebpf4jnsgd1na2vs0mg"},{"bike_id":"66f0c22b-fa80-41d2-a10b-1a2dfa5ab5f0","system_id":"levelo_inurba_marseille","lat":43.30888,"lon":5.39657,"is_reserved":false,"is_disabled":false,"rental_uris":{"android":"levelo://app?vid=66f0c22b-fa80-41d2-a10b-1a2dfa5ab5f0","ios":"levelo://app?vid=66f0c22b-fa80-41d2-a10b-1a2dfa5ab5f0"},"vehicle_type_id":"4","last_reported":1756163358,"current_range_meters":19200,"station_id":"ce4bh012rcd13ifvqcv0","pricing_plan_id":"cebpf4jnsgd1na2vs0mg"},{"bike_id":"166836b7-c092-475d-92d1-bef42af7ae43","system_id":"levelo_inurba_marseille","lat":43.30542,"lon":5.38418,"is_reserved":false,"is_disabled":false,"rental_uris":{"android":"levelo://app?vid=166836b7-c092-475d-92d1-bef42af7ae43","ios":"levelo://app?vid=166836b7-c092-475d-92d1-bef42af7ae43"},"vehicle_type_id":"4","last_reported":1756163358,"current_range_meters":19200,"station_id":"ce4bgg92rcd13ifvqb30","pricing_plan_id":"cebpf4jnsgd1na2vs0mg"},{"bike_id":"48e7ad94-900b-4776-bfff-ead3cff25a01","system_id":"levelo_inurba_marseille","lat":43.29523,"lon":5.39039,"is_reserved":false,"is_disabled":false,"rental_uris":{"android":"levelo://app?vid=48e7ad94-900b-4776-bfff-ead3cff25a01","ios":"levelo://app?vid=48e7ad94-900b-4776-bfff-ead3cff25a01"},"vehicle_type_id":"4","last_reported":1756163358,"current_range_meters":19200,"station_id":"ce4bh3p2rcd13ifvqdp0","pricing_plan_id":"cebpf4jnsgd1na2vs0mg"},{"bike_id":"b999567b-fb99-4c3c-b2b0-ef1bc7a89235","system_id":"levelo_inurba_marseille","lat":43.300967,"lon":5.390753,"is_reserved":false,"is_disabled":false,"rental_uris":{"android":"levelo://app?vid=b999567b-fb99-4c3c-b2b0-ef1bc7a89235","ios":"levelo://app?vid=b999567b-fb99-4c3c-b2b0-ef1bc7a89235"},"vehicle_type_id":"4","last_reported":1756163358,"current_range_meters":19200,"station_id":"ce4bh192rcd13ifvqdb0","pricing_plan_id":"cebpf4jnsgd1na2vs0mg"},{"bike_id":"17c022af-d289-46e8-9b3f-6c6dca80c62d","system_id":"levelo_inurba_marseille","lat":43.3078,"lon":5.37646,"is_reserved":false,"is_disabled":false,"rental_uris":{"android":"levelo://app?vid=17c022af-d289-46e8-9b3f-6c6dca80c62d","ios":"levelo://app?vid=17c022af-d289-46e8-9b3f-6c6dca80c62d"},"vehicle_type_id":"4","last_reported":1756163358,"current_range_meters":19600,"station_id":"ce4bgv92rcd13ifvqcq0","pricing_plan_id":"cebpf4jnsgd1na2vs0mg"},{"bike_id":"12b52f93-1c3a-4d46-9ac3-2c24be81660a","system_id":"levelo_inurba_marseille","lat":43.212093,"lon":5.350771,"is_reserved":false,"is_disabled":false,"rental_uris":{"android":"levelo://app?vid=12b52f93-1c3a-4d46-9ac3-2c24be81660a","ios":"levelo://app?vid=12b52f93-1c3a-4d46-9ac3-2c24be81660a"},"vehicle_type_id":"4","last_reported":1756163358,"current_range_meters":19600,"station_id":"st_cvj6sg6p6f1abm77japg","pricing_plan_id":"cebpf4jnsgd1na2vs0mg"},{"bike_id":"7be24791-031e-4449-ae63-6f7c90c7de96","system_id":"levelo_inurba_marseille","lat":43.30641,"lon":5.40062,"is_reserved":false,"is_disabled":false,"rental_uris":{"android":"levelo://app?vid=7be24791-031e-4449-ae63-6f7c90c7de96","ios":"levelo://app?vid=7be24791-031e-4449-ae63-6f7c90c7de96"},"vehicle_type_id":"4","last_reported":1756163358,"current_range_meters":19600,"station_id":"ce4bh112rcd13ifvqda0","pricing_plan_id":"cebpf4jnsgd1na2vs0mg"},{"bike_id":"0005b112-9341-46f3-983d-4174eb3a8e0b","system_id":"levelo_inurba_marseille","lat":43.30309,"lon":5.39187,"is_reserved":false,"is_disabled":true,"rental_uris":{"android":"levelo://app?vid=0005b112-9341-46f3-983d-4174eb3a8e0b","ios":"levelo://app?vid=0005b112-9341-46f3-983d-4174eb3a8e0b"},"vehicle_type_id":"4","last_reported":1756163358,"current_range_meters":19600,"station_id":"ce4bgkh2rcd13ifvqbk0","pricing_plan_id":"cebpf4jnsgd1na2vs0mg"},{"bike_id":"1c9aa376-cf03-43e6-bd79-a69ad984688d","system_id":"levelo_inurba_marseille","lat":43.27102,"lon":5.42269,"is_reserved":false,"is_disabled":false,"rental_uris":{"android":"levelo://app?vid=1c9aa376-cf03-43e6-bd79-a69ad984688d","ios":"levelo://app?vid=1c9aa376-cf03-43e6-bd79-a69ad984688d"},"vehicle_type_id":"4","last_reported":1756163358,"current_range_meters":19600,"station_id":"ce4bhk92rcd13ifvqgb0","pricing_plan_id":"cebpf4jnsgd1na2vs0mg"},{"bike_id":"534df56e-9c38-4341-9dfd-f105fa072c74","system_id":"levelo_inurba_marseille","lat":43.30083,"lon":5.39101,"is_reserved":false,"is_disabled":false,"rental_uris":{"android":"levelo://app?vid=534df56e-9c38-4341-9dfd-f105fa072c74","ios":"levelo://app?vid=534df56e-9c38-4341-9dfd-f105fa072c74"},"vehicle_type_id":"4","last_reported":1756163358,"current_range_meters":19600,"station_id":"ce4bh192rcd13ifvqdb0","pricing_plan_id":"cebpf4jnsgd1na2vs0mg"},{"bike_id":"b4330464-2203-4dca-a614-3112ed0839a1","system_id":"levelo_inurba_marseille","lat":43.28736,"lon":5.39971,"is_reserved":false,"is_disabled":false,"rental_uris":{"android":"levelo://app?vid=b4330464-2203-4dca-a614-3112ed0839a1","ios":"levelo://app?vid=b4330464-2203-4dca-a614-3112ed0839a1"},"vehicle_type_id":"4","last_reported":1756163358,"current_range_meters":19600,"station_id":"ce4bho92rcd13ifvqh3g","pricing_plan_id":"cebpf4jnsgd1na2vs0mg"},{"bike_id":"9ff18348-555f-4cde-bb7b-dc1f37d18527","system_id":"levelo_inurba_marseille","lat":43.28342,"lon":5.38101,"is_reserved":false,"is_disabled":false,"rental_uris":{"android":"levelo://app?vid=9ff18348-555f-4cde-bb7b-dc1f37d18527","ios":"levelo://app?vid=9ff18348-555f-4cde-bb7b-dc1f37d18527"},"vehicle_type_id":"4","last_reported":1756163358,"current_range_meters":19600,"station_id":"ce4bh412rcd13ifvqdr0","pricing_plan_id":"cebpf4jnsgd1na2vs0mg"},{"bike_id":"d8eaf8ad-6c3f-4888-8227-c610affa2d19","system_id":"levelo_inurba_marseille","lat":43.30145,"lon":5.3987,"is_reserved":false,"is_disabled":true,"rental_uris":{"android":"levelo://app?vid=d8eaf8ad-6c3f-4888-8227-c610affa2d19","ios":"levelo://app?vid=d8eaf8ad-6c3f-4888-8227-c610affa2d19"},"vehicle_type_id":"4","last_reported":1756163358,"current_range_meters":19600,"station_id":"ce4bh0h2rcd13ifvqd40","pricing_plan_id":"cebpf4jnsgd1na2vs0mg"},{"bike_id":"7bcee3a5-b2f0-40b3-ac35-58ad6f7aa7c7","system_id":"levelo_inurba_marseille","lat":43.28022,"lon":5.365622,"is_reserved":false,"is_disabled":false,"rental_uris":{"android":"levelo://app?vid=7bcee3a5-b2f0-40b3-ac35-58ad6f7aa7c7","ios":"levelo://app?vid=7bcee3a5-b2f0-40b3-ac35-58ad6f7aa7c7"},"vehicle_type_id":"4","last_reported":1756163358,"current_range_meters":19600,"station_id":"","pricing_plan_id":"cebpf4jnsgd1na2vs0mg"},{"bike_id":"a610f857-6803-4aa7-8dc2-44ac01e95d58","system_id":"levelo_inurba_marseille","lat":43.28711,"lon":5.36326,"is_reserved":false,"is_disabled":false,"rental_uris":{"android":"levelo://app?vid=a610f857-6803-4aa7-8dc2-44ac01e95d58","ios":"levelo://app?vid=a610f857-6803-4aa7-8dc2-44ac01e95d58"},"vehicle_type_id":"4","last_reported":1756163358,"current_range_meters":19200,"station_id":"ce4bhah2rcd13ifvqej0","pricing_plan_id":"cebpf4jnsgd1na2vs0mg"},{"bike_id":"9f504e60-59ed-408a-bbc4-8023cc0a4488","system_id":"levelo_inurba_marseille","lat":43.28947,"lon":5.36595,"is_reserved":false,"is_disabled":false,"rental_uris":{"android":"levelo://app?vid=9f504e60-59ed-408a-bbc4-8023cc0a4488","ios":"levelo://app?vid=9f504e60-59ed-408a-bbc4-8023cc0a4488"},"vehicle_type_id":"4","last_reported":1756163358,"current_range_meters":19600,"station_id":"ce4bhap2rcd13ifvqek0","pricing_plan_id":"cebpf4jnsgd1na2vs0mg"},{"bike_id":"fd29ef02-0c4c-4676-a7e3-a84467b88cf7","system_id":"levelo_inurba_marseille","lat":43.28342,"lon":5.3809,"is_reserved":false,"is_disabled":true,"rental_uris":{"android":"levelo://app?vid=fd29ef02-0c4c-4676-a7e3-a84467b88cf7","ios":"levelo://app?vid=fd29ef02-0c4c-4676-a7e3-a84467b88cf7"},"vehicle_type_id":"4","last_reported":1756163358,"current_range_meters":19600,"station_id":"ce4bh412rcd13ifvqdr0","pricing_plan_id":"cebpf4jnsgd1na2vs0mg"},{"bike_id":"21c37970-c9a1-4ed2-b171-97ab7e4a15a1","system_id":"levelo_inurba_marseille","lat":43.28923,"lon":5.364,"is_reserved":false,"is_disabled":false,"rental_uris":{"android":"levelo://app?vid=21c37970-c9a1-4ed2-b171-97ab7e4a15a1","ios":"levelo://app?vid=21c37970-c9a1-4ed2-b171-97ab7e4a15a1"},"vehicle_type_id":"4","last_reported":1756163358,"current_range_meters":20000,"station_id":"ce4bhc92rcd13ifvqetg","pricing_plan_id":"cebpf4jnsgd1na2vs0mg"},{"bike_id":"a7cf380d-ca55-46f9-88ca-c0606390f591","system_id":"levelo_inurba_marseille","lat":43.240697,"lon":5.377786,"is_reserved":false,"is_disabled":false,"rental_uris":{"android":"levelo://app?vid=a7cf380d-ca55-46f9-88ca-c0606390f591","ios":"levelo://app?vid=a7cf380d-ca55-46f9-88ca-c0606390f591"},"vehicle_type_id":"4","last_reported":1756163358,"current_range_meters":18800,"station_id":"ce4bhnp2rcd13ifvqgvg","pricing_plan_id":"cebpf4jnsgd1na2vs0mg"},{"bike_id":"b6769fe8-4c93-4d75-b2a3-a0ccd2ec704d","system_id":"levelo_inurba_marseille","lat":43.32474,"lon":5.36578,"is_reserved":false,"is_disabled":true,"rental_uris":{"android":"levelo://app?vid=b6769fe8-4c93-4d75-b2a3-a0ccd2ec704d","ios":"levelo://app?vid=b6769fe8-4c93-4d75-b2a3-a0ccd2ec704d"},"vehicle_type_id":"4","last_reported":1756163358,"current_range_meters":20000,"station_id":"ce4bhs12rcd13ifvqhvg","pricing_plan_id":"cebpf4jnsgd1na2vs0mg"},{"bike_id":"3dff11d5-3872-4ffe-8cce-b5631d6c6058","system_id":"levelo_inurba_marseille","lat":43.32681,"lon":5.39217,"is_reserved":false,"is_disabled":false,"rental_uris":{"android":"levelo://app?vid=3dff11d5-3872-4ffe-8cce-b5631d6c6058","ios":"levelo://app?vid=3dff11d5-3872-4ffe-8cce-b5631d6c6058"},"vehicle_type_id":"4","last_reported":1756163358,"current_range_meters":20000,"station_id":"","pricing_plan_id":"cebpf4jnsgd1na2vs0mg"},{"bike_id":"a738a844-9d20-4104-bbcd-de3ca251bc90","system_id":"levelo_inurba_marseille","lat":43.29956,"lon":5.38484,"is_reserved":false,"is_disabled":false,"rental_uris":{"android":"levelo://app?vid=a738a844-9d20-4104-bbcd-de3ca251bc90","ios":"levelo://app?vid=a738a844-9d20-4104-bbcd-de3ca251bc90"},"vehicle_type_id":"4","last_reported":1756163358,"current_range_meters":20000,"station_id":"ce4bgj92rcd13ifvqbd0","pricing_plan_id":"cebpf4jnsgd1na2vs0mg"},{"bike_id":"22d37b03-64c1-44b3-a429-9f0476ecd808","system_id":"levelo_inurba_marseille","lat":43.29386,"lon":5.37484,"is_reserved":false,"is_disabled":false,"rental_uris":{"android":"levelo://app?vid=22d37b03-64c1-44b3-a429-9f0476ecd808","ios":"levelo://app?vid=22d37b03-64c1-44b3-a429-9f0476ecd808"},"vehicle_type_id":"4","last_reported":1756163358,"current_range_meters":20000,"station_id":"","pricing_plan_id":"cebpf4jnsgd1na2vs0mg"},{"bike_id":"16c49e2e-3c8f-4190-90b5-7730b897aa84","system_id":"levelo_inurba_marseille","lat":43.29962,"lon":5.38491,"is_reserved":false,"is_disabled":false,"rental_uris":{"android":"levelo://app?vid=16c49e2e-3c8f-4190-90b5-7730b897aa84","ios":"levelo://app?vid=16c49e2e-3c8f-4190-90b5-7730b897aa84"},"vehicle_type_id":"4","last_reported":1756163358,"current_range_meters":20800,"station_id":"ce4bgj92rcd13ifvqbd0","pricing_plan_id":"cebpf4jnsgd1na2vs0mg"},{"bike_id":"819eee7a-7a3b-436f-8d28-7c4bae46dbf4","system_id":"levelo_inurba_marseille","lat":43.24663,"lon":5.38174,"is_reserved":false,"is_disabled":false,"rental_uris":{"android":"levelo://app?vid=819eee7a-7a3b-436f-8d28-7c4bae46dbf4","ios":"levelo://app?vid=819eee7a-7a3b-436f-8d28-7c4bae46dbf4"},"vehicle_type_id":"4","last_reported":1756163358,"current_range_meters":20400,"station_id":"ce4bhih2rcd13ifvqfr0","pricing_plan_id":"cebpf4jnsgd1na2vs0mg"},{"bike_id":"01475f28-2a66-4fe3-a338-cba308225507","system_id":"levelo_inurba_marseille","lat":43.298775,"lon":5.397257,"is_reserved":false,"is_disabled":false,"rental_uris":{"android":"levelo://app?vid=01475f28-2a66-4fe3-a338-cba308225507","ios":"levelo://app?vid=01475f28-2a66-4fe3-a338-cba308225507"},"vehicle_type_id":"4","last_reported":1756163358,"current_range_meters":20800,"station_id":"","pricing_plan_id":"cebpf4jnsgd1na2vs0mg"},{"bike_id":"cb33e38f-38d6-4ceb-8fbf-31dfa003a345","system_id":"levelo_inurba_marseille","lat":43.31278,"lon":5.40172,"is_reserved":false,"is_disabled":false,"rental_uris":{"android":"levelo://app?vid=cb33e38f-38d6-4ceb-8fbf-31dfa003a345","ios":"levelo://app?vid=cb33e38f-38d6-4ceb-8fbf-31dfa003a345"},"vehicle_type_id":"4","last_reported":1756163358,"current_range_meters":20800,"station_id":"ce4bh092rcd13ifvqd30","pricing_plan_id":"cebpf4jnsgd1na2vs0mg"},{"bike_id":"162441e5-2e3b-4dc8-93f8-80ae2457d49c","system_id":"levelo_inurba_marseille","lat":43.28101,"lon":5.37839,"is_reserved":false,"is_disabled":true,"rental_uris":{"android":"levelo://app?vid=162441e5-2e3b-4dc8-93f8-80ae2457d49c","ios":"levelo://app?vid=162441e5-2e3b-4dc8-93f8-80ae2457d49c"},"vehicle_type_id":"4","last_reported":1756163358,"current_range_meters":20800,"station_id":"ce4bha12rcd13ifvqee0","pricing_plan_id":"cebpf4jnsgd1na2vs0mg"},{"bike_id":"ede3b0a3-5dde-4d38-b5e6-a55a4f1428bc","system_id":"levelo_inurba_marseille","lat":43.31493,"lon":5.3731,"is_reserved":false,"is_disabled":false,"rental_uris":{"android":"levelo://app?vid=ede3b0a3-5dde-4d38-b5e6-a55a4f1428bc","ios":"levelo://app?vid=ede3b0a3-5dde-4d38-b5e6-a55a4f1428bc"},"vehicle_type_id":"4","last_reported":1756163358,"current_range_meters":20800,"station_id":"ce4bgt12rcd13ifvqcd0","pricing_plan_id":"cebpf4jnsgd1na2vs0mg"},{"bike_id":"c521bf79-f50a-4594-af3a-4a8af984b289","system_id":"levelo_inurba_marseille","lat":43.30678,"lon":5.40087,"is_reserved":false,"is_disabled":false,"rental_uris":{"android":"levelo://app?vid=c521bf79-f50a-4594-af3a-4a8af984b289","ios":"levelo://app?vid=c521bf79-f50a-4594-af3a-4a8af984b289"},"vehicle_type_id":"4","last_reported":1756163358,"current_range_meters":20800,"station_id":"ce4bh112rcd13ifvqda0","pricing_plan_id":"cebpf4jnsgd1na2vs0mg"},{"bike_id":"abaf99ca-5823-4460-ba5c-ff01280743d0","system_id":"levelo_inurba_marseille","lat":43.27075,"lon":5.42298,"is_reserved":false,"is_disabled":false,"rental_uris":{"android":"levelo://app?vid=abaf99ca-5823-4460-ba5c-ff01280743d0","ios":"levelo://app?vid=abaf99ca-5823-4460-ba5c-ff01280743d0"},"vehicle_type_id":"4","last_reported":1756163358,"current_range_meters":20800,"station_id":"ce4bhk92rcd13ifvqgb0","pricing_plan_id":"cebpf4jnsgd1na2vs0mg"},{"bike_id":"0ee329fa-d181-4774-99d7-504535030df1","system_id":"levelo_inurba_marseille","lat":43.2918,"lon":5.38542,"is_reserved":false,"is_disabled":false,"rental_uris":{"android":"levelo://app?vid=0ee329fa-d181-4774-99d7-504535030df1","ios":"levelo://app?vid=0ee329fa-d181-4774-99d7-504535030df1"},"vehicle_type_id":"4","last_reported":1756163358,"current_range_meters":20800,"station_id":"","pricing_plan_id":"cebpf4jnsgd1na2vs0mg"},{"bike_id":"fd0865b3-af49-4c3e-86f4-49934bd2d289","system_id":"levelo_inurba_marseille","lat":43.29721,"lon":5.36624,"is_reserved":false,"is_disabled":true,"rental_uris":{"android":"levelo://app?vid=fd0865b3-af49-4c3e-86f4-49934bd2d289","ios":"levelo://app?vid=fd0865b3-af49-4c3e-86f4-49934bd2d289"},"vehicle_type_id":"4","last_reported":1756163358,"current_range_meters":20800,"station_id":"ce4bgn12rcd13ifvqbt0","pricing_plan_id":"cebpf4jnsgd1na2vs0mg"},{"bike_id":"4dd066a3-5039-4c08-96e4-92ee4cbb306d","system_id":"levelo_inurba_marseille","lat":43.23182,"lon":5.35544,"is_reserved":false,"is_disabled":false,"rental_uris":{"android":"levelo://app?vid=4dd066a3-5039-4c08-96e4-92ee4cbb306d","ios":"levelo://app?vid=4dd066a3-5039-4c08-96e4-92ee4cbb306d"},"vehicle_type_id":"4","last_reported":1756163358,"current_range_meters":20800,"station_id":"ce4bhu92rcd13ifvqi70","pricing_plan_id":"cebpf4jnsgd1na2vs0mg"},{"bike_id":"f9182c4b-ce39-4e98-b64b-2897f40a8141","system_id":"levelo_inurba_marseille","lat":43.31328,"lon":5.39711,"is_reserved":false,"is_disabled":false,"rental_uris":{"android":"levelo://app?vid=f9182c4b-ce39-4e98-b64b-2897f40a8141","ios":"levelo://app?vid=f9182c4b-ce39-4e98-b64b-2897f40a8141"},"vehicle_type_id":"4","last_reported":1756163358,"current_range_meters":21600,"station_id":"ce4bgvp2rcd13ifvqcu0","pricing_plan_id":"cebpf4jnsgd1na2vs0mg"},{"bike_id":"28518127-acdb-46a6-aaca-50eb9f6059f9","system_id":"levelo_inurba_marseille","lat":43.31535,"lon":5.37274,"is_reserved":false,"is_disabled":false,"rental_uris":{"android":"levelo://app?vid=28518127-acdb-46a6-aaca-50eb9f6059f9","ios":"levelo://app?vid=28518127-acdb-46a6-aaca-50eb9f6059f9"},"vehicle_type_id":"4","last_reported":1756163358,"current_range_meters":21600,"station_id":"ce4bgt12rcd13ifvqcd0","pricing_plan_id":"cebpf4jnsgd1na2vs0mg"},{"bike_id":"4c8b79b7-987c-400b-9e41-e8e9a6baaf03","system_id":"levelo_inurba_marseille","lat":43.30322,"lon":5.40444,"is_reserved":false,"is_disabled":false,"rental_uris":{"android":"levelo://app?vid=4c8b79b7-987c-400b-9e41-e8e9a6baaf03","ios":"levelo://app?vid=4c8b79b7-987c-400b-9e41-e8e9a6baaf03"},"vehicle_type_id":"4","last_reported":1756163358,"current_range_meters":21600,"station_id":"ce4bh012rcd13ifvqd10","pricing_plan_id":"cebpf4jnsgd1na2vs0mg"},{"bike_id":"3c4876c0-7670-4af2-8017-9035f4c63e4e","system_id":"levelo_inurba_marseille","lat":43.23154,"lon":5.43724,"is_reserved":false,"is_disabled":false,"rental_uris":{"android":"levelo://app?vid=3c4876c0-7670-4af2-8017-9035f4c63e4e","ios":"levelo://app?vid=3c4876c0-7670-4af2-8017-9035f4c63e4e"},"vehicle_type_id":"4","last_reported":1756163358,"current_range_meters":21600,"station_id":"ce4bhmp2rcd13ifvqgog","pricing_plan_id":"cebpf4jnsgd1na2vs0mg"},{"bike_id":"55e366fc-40f8-4879-9031-d7d131c436f8","system_id":"levelo_inurba_marseille","lat":43.2517,"lon":5.40329,"is_reserved":false,"is_disabled":false,"rental_uris":{"android":"levelo://app?vid=55e366fc-40f8-4879-9031-d7d131c436f8","ios":"levelo://app?vid=55e366fc-40f8-4879-9031-d7d131c436f8"},"vehicle_type_id":"4","last_reported":1756163358,"current_range_meters":21600,"station_id":"","pricing_plan_id":"cebpf4jnsgd1na2vs0mg"},{"bike_id":"94631eae-f3ac-4496-92b1-7b0edd1a685e","system_id":"levelo_inurba_marseille","lat":43.29775,"lon":5.39375,"is_reserved":false,"is_disabled":false,"rental_uris":{"android":"levelo://app?vid=94631eae-f3ac-4496-92b1-7b0edd1a685e","ios":"levelo://app?vid=94631eae-f3ac-4496-92b1-7b0edd1a685e"},"vehicle_type_id":"4","last_reported":1756163358,"current_range_meters":21600,"station_id":"chh1huq6cuj3fo74tm60","pricing_plan_id":"cebpf4jnsgd1na2vs0mg"},{"bike_id":"ceba6558-969b-4826-b4e2-200f04fcc328","system_id":"levelo_inurba_marseille","lat":43.30805,"lon":5.38149,"is_reserved":false,"is_disabled":false,"rental_uris":{"android":"levelo://app?vid=ceba6558-969b-4826-b4e2-200f04fcc328","ios":"levelo://app?vid=ceba6558-969b-4826-b4e2-200f04fcc328"},"vehicle_type_id":"4","last_reported":1756163358,"current_range_meters":22000,"station_id":"ce4bgt12rcd13ifvqce0","pricing_plan_id":"cebpf4jnsgd1na2vs0mg"},{"bike_id":"758b2606-6f80-4b27-b596-019d40336b10","system_id":"levelo_inurba_marseille","lat":43.2979,"lon":5.3935,"is_reserved":false,"is_disabled":false,"rental_uris":{"android":"levelo://app?vid=758b2606-6f80-4b27-b596-019d40336b10","ios":"levelo://app?vid=758b2606-6f80-4b27-b596-019d40336b10"},"vehicle_type_id":"4","last_reported":1756163358,"current_range_meters":22000,"station_id":"chh1huq6cuj3fo74tm60","pricing_plan_id":"cebpf4jnsgd1na2vs0mg"},{"bike_id":"0acc39f7-82d9-4ee5-99e0-3bcf19e8b8e4","system_id":"levelo_inurba_marseille","lat":43.2454,"lon":5.39551,"is_reserved":false,"is_disabled":true,"rental_uris":{"android":"levelo://app?vid=0acc39f7-82d9-4ee5-99e0-3bcf19e8b8e4","ios":"levelo://app?vid=0acc39f7-82d9-4ee5-99e0-3bcf19e8b8e4"},"vehicle_type_id":"4","last_reported":1756163358,"current_range_meters":22000,"station_id":"ce4bhlp2rcd13ifvqgjg","pricing_plan_id":"cebpf4jnsgd1na2vs0mg"},{"bike_id":"a7374ad5-1b64-41d9-baf9-2cb1c79e3304","system_id":"levelo_inurba_marseille","lat":43.31999,"lon":5.38169,"is_reserved":false,"is_disabled":false,"rental_uris":{"android":"levelo://app?vid=a7374ad5-1b64-41d9-baf9-2cb1c79e3304","ios":"levelo://app?vid=a7374ad5-1b64-41d9-baf9-2cb1c79e3304"},"vehicle_type_id":"4","last_reported":1756163358,"current_range_meters":22000,"station_id":"ce4bhr12rcd13ifvqhpg","pricing_plan_id":"cebpf4jnsgd1na2vs0mg"},{"bike_id":"156a2f4b-7edf-4406-87c9-26d8ef4d8c3c","system_id":"levelo_inurba_marseille","lat":43.26602,"lon":5.38995,"is_reserved":false,"is_disabled":false,"rental_uris":{"android":"levelo://app?vid=156a2f4b-7edf-4406-87c9-26d8ef4d8c3c","ios":"levelo://app?vid=156a2f4b-7edf-4406-87c9-26d8ef4d8c3c"},"vehicle_type_id":"4","last_reported":1756163358,"current_range_meters":22000,"station_id":"","pricing_plan_id":"cebpf4jnsgd1na2vs0mg"},{"bike_id":"1c2b2755-e061-435b-8c46-233658b54ef9","system_id":"levelo_inurba_marseille","lat":43.30736,"lon":5.42431,"is_reserved":false,"is_disabled":false,"rental_uris":{"android":"levelo://app?vid=1c2b2755-e061-435b-8c46-233658b54ef9","ios":"levelo://app?vid=1c2b2755-e061-435b-8c46-233658b54ef9"},"vehicle_type_id":"4","last_reported":1756163358,"current_range_meters":22000,"station_id":"","pricing_plan_id":"cebpf4jnsgd1na2vs0mg"},{"bike_id":"7a9e3a50-b3f7-4c6f-a2bc-dcd59ceb22bf","system_id":"levelo_inurba_marseille","lat":43.289438,"lon":5.36401,"is_reserved":false,"is_disabled":false,"rental_uris":{"android":"levelo://app?vid=7a9e3a50-b3f7-4c6f-a2bc-dcd59ceb22bf","ios":"levelo://app?vid=7a9e3a50-b3f7-4c6f-a2bc-dcd59ceb22bf"},"vehicle_type_id":"4","last_reported":1756163358,"current_range_meters":22400,"station_id":"ce4bhc92rcd13ifvqetg","pricing_plan_id":"cebpf4jnsgd1na2vs0mg"},{"bike_id":"71136ea1-3aaf-4521-8084-554abe261412","system_id":"levelo_inurba_marseille","lat":43.303037,"lon":5.369059,"is_reserved":false,"is_disabled":true,"rental_uris":{"android":"levelo://app?vid=71136ea1-3aaf-4521-8084-554abe261412","ios":"levelo://app?vid=71136ea1-3aaf-4521-8084-554abe261412"},"vehicle_type_id":"4","last_reported":1756163358,"current_range_meters":22400,"station_id":"","pricing_plan_id":"cebpf4jnsgd1na2vs0mg"},{"bike_id":"e5eabf25-4e1c-476e-b130-9f83cdcfc80c","system_id":"levelo_inurba_marseille","lat":43.29897,"lon":5.41734,"is_reserved":false,"is_disabled":false,"rental_uris":{"android":"levelo://app?vid=e5eabf25-4e1c-476e-b130-9f83cdcfc80c","ios":"levelo://app?vid=e5eabf25-4e1c-476e-b130-9f83cdcfc80c"},"vehicle_type_id":"4","last_reported":1756163358,"current_range_meters":22400,"station_id":"","pricing_plan_id":"cebpf4jnsgd1na2vs0mg"},{"bike_id":"af6caebb-061d-46d3-b2cb-03df68e94fce","system_id":"levelo_inurba_marseille","lat":43.28698,"lon":5.37946,"is_reserved":false,"is_disabled":false,"rental_uris":{"android":"levelo://app?vid=af6caebb-061d-46d3-b2cb-03df68e94fce","ios":"levelo://app?vid=af6caebb-061d-46d3-b2cb-03df68e94fce"},"vehicle_type_id":"4","last_reported":1756163358,"current_range_meters":22400,"station_id":"ce4bh9p2rcd13ifvqec0","pricing_plan_id":"cebpf4jnsgd1na2vs0mg"},{"bike_id":"5c26a54e-1e97-4ad3-a16d-614ad930b130","system_id":"levelo_inurba_marseille","lat":43.32104,"lon":5.36762,"is_reserved":false,"is_disabled":false,"rental_uris":{"android":"levelo://app?vid=5c26a54e-1e97-4ad3-a16d-614ad930b130","ios":"levelo://app?vid=5c26a54e-1e97-4ad3-a16d-614ad930b130"},"vehicle_type_id":"4","last_reported":1756163358,"current_range_meters":22800,"station_id":"ce4bhrh2rcd13ifvqhug","pricing_plan_id":"cebpf4jnsgd1na2vs0mg"},{"bike_id":"d5c57a1a-928a-455d-918b-cbd133cfbe71","system_id":"levelo_inurba_marseille","lat":43.21749,"lon":5.34605,"is_reserved":false,"is_disabled":false,"rental_uris":{"android":"levelo://app?vid=d5c57a1a-928a-455d-918b-cbd133cfbe71","ios":"levelo://app?vid=d5c57a1a-928a-455d-918b-cbd133cfbe71"},"vehicle_type_id":"4","last_reported":1756163358,"current_range_meters":22800,"station_id":"","pricing_plan_id":"cebpf4jnsgd1na2vs0mg"},{"bike_id":"e6dfd505-b8fc-41ba-a42c-873433ef4234","system_id":"levelo_inurba_marseille","lat":43.21237,"lon":5.35054,"is_reserved":false,"is_disabled":false,"rental_uris":{"android":"levelo://app?vid=e6dfd505-b8fc-41ba-a42c-873433ef4234","ios":"levelo://app?vid=e6dfd505-b8fc-41ba-a42c-873433ef4234"},"vehicle_type_id":"4","last_reported":1756163358,"current_range_meters":22800,"station_id":"","pricing_plan_id":"cebpf4jnsgd1na2vs0mg"},{"bike_id":"3115c199-1541-45cb-a98a-f6ff5bbd4b1f","system_id":"levelo_inurba_marseille","lat":43.30809,"lon":5.36993,"is_reserved":false,"is_disabled":false,"rental_uris":{"android":"levelo://app?vid=3115c199-1541-45cb-a98a-f6ff5bbd4b1f","ios":"levelo://app?vid=3115c199-1541-45cb-a98a-f6ff5bbd4b1f"},"vehicle_type_id":"4","last_reported":1756163358,"current_range_meters":22800,"station_id":"","pricing_plan_id":"cebpf4jnsgd1na2vs0mg"},{"bike_id":"478fbea3-1fd8-4100-9ca7-646a0cb8f8bd","system_id":"levelo_inurba_marseille","lat":43.28463,"lon":5.3589,"is_reserved":false,"is_disabled":false,"rental_uris":{"android":"levelo://app?vid=478fbea3-1fd8-4100-9ca7-646a0cb8f8bd","ios":"levelo://app?vid=478fbea3-1fd8-4100-9ca7-646a0cb8f8bd"},"vehicle_type_id":"4","last_reported":1756163358,"current_range_meters":22800,"station_id":"ce4bhah2rcd13ifvqei0","pricing_plan_id":"cebpf4jnsgd1na2vs0mg"},{"bike_id":"a9d83b21-9821-4029-bb59-40c830188146","system_id":"levelo_inurba_marseille","lat":43.32382,"lon":5.36719,"is_reserved":false,"is_disabled":false,"rental_uris":{"android":"levelo://app?vid=a9d83b21-9821-4029-bb59-40c830188146","ios":"levelo://app?vid=a9d83b21-9821-4029-bb59-40c830188146"},"vehicle_type_id":"4","last_reported":1756163358,"current_range_meters":22800,"station_id":"","pricing_plan_id":"cebpf4jnsgd1na2vs0mg"},{"bike_id":"f67c8e5e-7af8-4847-a4ce-1e12088b4291","system_id":"levelo_inurba_marseille","lat":43.3253,"lon":5.36848,"is_reserved":false,"is_disabled":false,"rental_uris":{"android":"levelo://app?vid=f67c8e5e-7af8-4847-a4ce-1e12088b4291","ios":"levelo://app?vid=f67c8e5e-7af8-4847-a4ce-1e12088b4291"},"vehicle_type_id":"4","last_reported":1756163358,"current_range_meters":22800,"station_id":"","pricing_plan_id":"cebpf4jnsgd1na2vs0mg"},{"bike_id":"8baf0c10-60f7-4c5f-b6db-cc324b5801b0","system_id":"levelo_inurba_marseille","lat":43.30745,"lon":5.37669,"is_reserved":false,"is_disabled":false,"rental_uris":{"android":"levelo://app?vid=8baf0c10-60f7-4c5f-b6db-cc324b5801b0","ios":"levelo://app?vid=8baf0c10-60f7-4c5f-b6db-cc324b5801b0"},"vehicle_type_id":"4","last_reported":1756163358,"current_range_meters":22800,"station_id":"","pricing_plan_id":"cebpf4jnsgd1na2vs0mg"},