{"last_updated":1728637808,"ttl":60,"version":"2.2","data":{"bikes":[{"bike_id":"2a0f480b-8c15-4e08-9694-4c2ed23795a6","system_id":"levelo_inurba_marseille","lat":43.29001,"lon":5.35613,"is_reserved":false,"is_disabled":false,"rental_uris":{"android":"levelo://app?vid=2a0f480b-8c15-4e08-9694-4c2ed23795a6","ios":"levelo://app?vid=2a0f480b-8c15-4e08-9694-4c2ed23795a6"},"vehicle_type_id":"4","last_reported":1728637809,"current_range_meters":37600,"station_id":"ce4bhb92rcd13ifvqen0","pricing_plan_id":"cebpf4jnsgd1na2vs0mg"},{"bike_id":"5cab2a62-7389-4b27-ad0c-dd657f2e602b","system_id":"levelo_inurba_marseille","lat":43.24546,"lon":5.39518,"is_reserved":false,"is_disabled":false,"rental_uris":{"android":"levelo://app?vid=5cab2a62-7389-4b27-ad0c-dd657f2e602b","ios":"levelo://app?vid=5cab2a62-7389-4b27-ad0c-dd657f2e602b"},"vehicle_type_id":"4","last_reported":1728637809,"current_range_meters":34000,"station_id":"ce4bhlp2rcd13ifvqgjg","pricing_plan_id":"cebpf4jnsgd1na2vs0mg"},{"bike_id":"c34082b9-8125-4e21-96ba-89284316e611","system_id":"levelo_inurba_marseille","lat":43.23154,"lon":5.43701,"is_reserved":false,"is_disabled":false,"rental_uris":{"android":"levelo://app?vid=c34082b9-8125-4e21-96ba-89284316e611","ios":"levelo://app?vid=c34082b9-8125-4e21-96ba-89284316e611"},"vehicle_type_id":"4","last_reported":1728637809,"current_range_meters":33200,"station_id":"ce4bhmp2rcd13ifvqgog","pricing_plan_id":"cebpf4jnsgd1na2vs0mg"},{"bike_id":"a06d12d4-999c-43c4-b93f-b6824d162e18","system_id":"levelo_inurba_marseille","lat":43.29782,"lon":5.38108,"is_reserved":false,"is_disabled":false,"rental_uris":{"android":"levelo://app?vid=a06d12d4-999c-43c4-b93f-b6824d162e18","ios":"levelo://app?vid=a06d12d4-999c-43c4-b93f-b6824d162e18"},"vehicle_type_id":"4","last_reported":1728637809,"current_range_meters":36000,"station_id":"ce4bgip2rcd13ifvqbb0","pricing_plan_id":"cebpf4jnsgd1na2vs0mg"},{"bike_id":"51dd5005-a195-4642-bd5f-8cbea71cb3b3","system_id":"levelo_inurba_marseille","lat":43.22927,"lon":5.35375,"is_reserved":false,"is_disabled":false,"rental_uris":{"android":"levelo://app?vid=51dd5005-a195-4642-bd5f-8cbea71cb3b3","ios":"levelo://app?vid=51dd5005-a195-4642-bd5f-8cbea71cb3b3"},"vehicle_type_id":"4","last_reported":1728637809,"current_range_meters":6400,"station_id":"cpo3532slgdg3j2ikp40","pricing_plan_id":"cebpf4jnsgd1na2vs0mg"},{"bike_id":"269e4679-5640-4203-896b-262ecedc64e0","system_id":"levelo_inurba_marseille","lat":43.29182,"lon":5.35796,"is_reserved":false,"is_disabled":false,"rental_uris":{"android":"levelo://app?vid=269e4679-5640-4203-896b-262ecedc64e0","ios":"levelo://app?vid=269e4679-5640-4203-896b-262ecedc64e0"},"vehicle_type_id":"4","last_reported":1728637809,"current_range_meters":38800,"station_id":"ce4bhb12rcd13ifvqel0","pricing_plan_id":"cebpf4jnsgd1na2vs0mg"},{"bike_id":"ce3d5dbb-eed0-448d-a319-b855acba4210","system_id":"levelo_inurba_marseille","lat":43.29899,"lon":5.37485,"is_reserved":false,"is_disabled":false,"rental_uris":{"android":"levelo://app?vid=ce3d5dbb-eed0-448d-a319-b855acba4210","ios":"levelo://app?vid=ce3d5dbb-eed0-448d-a319-b855acba4210"},"vehicle_type_id":"4","last_reported":1728637809,"current_range_meters":22800,"station_id":"ce4bgjh2rcd13ifvqbg0","pricing_plan_id":"cebpf4jnsgd1na2vs0mg"},{"bike_id":"c0b880de-9452-4986-9101-27057b3ba16f","system_id":"levelo_inurba_marseille","lat":43.29567,"lon":5.37509,"is_reserved":false,"is_disabled":false,"rental_uris":{"android":"levelo://app?vid=c0b880de-9452-4986-9101-27057b3ba16f","ios":"levelo://app?vid=c0b880de-9452-4986-9101-27057b3ba16f"},"vehicle_type_id":"4","last_reported":1728637809,"current_range_meters":23200,"station_id":"ce4bgh92rcd13ifvqb50","pricing_plan_id":"cebpf4jnsgd1na2vs0mg"},{"bike_id":"81a94aa0-1345-4656-900c-180819b6bae9","system_id":"levelo_inurba_marseille","lat":43.33611,"lon":5.41022,"is_reserved":false,"is_disabled":false,"rental_uris":{"android":"levelo://app?vid=81a94aa0-1345-4656-900c-180819b6bae9","ios":"levelo://app?vid=81a94aa0-1345-4656-900c-180819b6bae9"},"vehicle_type_id":"4","last_reported":1728637809,"current_range_meters":36000,"station_id":"ce4bhqh2rcd13ifvqhmg","pricing_plan_id":"cebpf4jnsgd1na2vs0mg"},{"bike_id":"4f1ac9db-36fd-4126-b3cc-b859636a6a29","system_id":"levelo_inurba_marseille","lat":43.22928,"lon":5.35375,"is_reserved":false,"is_disabled":false,"rental_uris":{"android":"levelo://app?vid=4f1ac9db-36fd-4126-b3cc-b859636a6a29","ios":"levelo://app?vid=4f1ac9db-36fd-4126-b3cc-b859636a6a29"},"vehicle_type_id":"4","last_reported":1728637809,"current_range_meters":14000,"station_id":"cpo3532slgdg3j2ikp40","pricing_plan_id":"cebpf4jnsgd1na2vs0mg"},{"bike_id":"c45d268e-694c-4c29-957e-db29c7ece015","system_id":"levelo_inurba_marseille","lat":43.28034,"lon":5.36949,"is_reserved":false,"is_disabled":false,"rental_uris":{"android":"levelo://app?vid=c45d268e-694c-4c29-957e-db29c7ece015","ios":"levelo://app?vid=c45d268e-694c-4c29-957e-db29c7ece015"},"vehicle_type_id":"4","last_reported":1728637809,"current_range_meters":30000,"station_id":"ce4bha12rcd13ifvqef0","pricing_plan_id":"cebpf4jnsgd1na2vs0mg"},{"bike_id":"77689480-1102-4362-9bd6-4215d753152c","system_id":"levelo_inurba_marseille","lat":43.24069,"lon":5.37753,"is_reserved":false,"is_disabled":false,"rental_uris":{"android":"levelo://app?vid=77689480-1102-4362-9bd6-4215d753152c","ios":"levelo://app?vid=77689480-1102-4362-9bd6-4215d753152c"},"vehicle_type_id":"4","last_reported":1728637809,"current_range_meters":18000,"station_id":"ce4bhnp2rcd13ifvqgvg","pricing_plan_id":"cebpf4jnsgd1na2vs0mg"},{"bike_id":"0183368c-96d7-4f89-82c5-74922cac2536","system_id":"levelo_inurba_marseille","lat":43.24079,"lon":5.37752,"is_reserved":false,"is_disabled":false,"rental_uris":{"android":"levelo://app?vid=0183368c-96d7-4f89-82c5-74922cac2536","ios":"levelo://app?vid=0183368c-96d7-4f89-82c5-74922cac2536"},"vehicle_type_id":"4","last_reported":1728637809,"current_range_meters":19200,"station_id":"ce4bhnp2rcd13ifvqgvg","pricing_plan_id":"cebpf4jnsgd1na2vs0mg"},{"bike_id":"4e202a74-ec2f-4d0c-bbcd-fb09784346ff","system_id":"levelo_inurba_marseille","lat":43.30308,"lon":5.36898,"is_reserved":false,"is_disabled":false,"rental_uris":{"android":"levelo://app?vid=4e202a74-ec2f-4d0c-bbcd-fb09784346ff","ios":"levelo://app?vid=4e202a74-ec2f-4d0c-bbcd-fb09784346ff"},"vehicle_type_id":"4","last_reported":1728637809,"current_range_meters":18800,"station_id":"ce4bgqh2rcd13ifvqc5g","pricing_plan_id":"cebpf4jnsgd1na2vs0mg"},{"bike_id":"4467b12f-f4e9-4f00-b440-80e1eb47234c","system_id":"levelo_inurba_marseille","lat":43.29682,"lon":5.37302,"is_reserved":false,"is_disabled":false,"rental_uris":{"android":"levelo://app?vid=4467b12f-f4e9-4f00-b440-80e1eb47234c","ios":"levelo://app?vid=4467b12f-f4e9-4f00-b440-80e1eb47234c"},"vehicle_type_id":"4","last_reported":1728637809,"current_range_meters":3200,"station_id":"ce4bgk12rcd13ifvqbj0","pricing_plan_id":"cebpf4jnsgd1na2vs0mg"},{"bike_id":"78545a56-8c6d-4801-87b8-fc882a3cb7a0","system_id":"levelo_inurba_marseille","lat":43.25007,"lon":5.38186,"is_reserved":false,"is_disabled":false,"rental_uris":{"android":"levelo://app?vid=78545a56-8c6d-4801-87b8-fc882a3cb7a0","ios":"levelo://app?vid=78545a56-8c6d-4801-87b8-fc882a3cb7a0"},"vehicle_type_id":"4","last_reported":1728637809,"current_range_meters":26000,"station_id":"ce4bhih2rcd13ifvqfr0","pricing_plan_id":"cebpf4jnsgd1na2vs0mg"},{"bike_id":"58714ee7-544a-4419-b22f-d7e363d45639","system_id":"levelo_inurba_marseille","lat":43.24081,"lon":5.37744,"is_reserved":false,"is_disabled":false,"rental_uris":{"android":"levelo://app?vid=58714ee7-544a-4419-b22f-d7e363d45639","ios":"levelo://app?vid=58714ee7-544a-4419-b22f-d7e363d45639"},"vehicle_type_id":"4","last_reported":1728637809,"current_range_meters":16800,"station_id":"ce4bhnp2rcd13ifvqgvg","pricing_plan_id":"cebpf4jnsgd1na2vs0mg"},{"bike_id":"de2fefe7-ec38-4c33-9087-6bdff6c0e489","system_id":"levelo_inurba_marseille","lat":43.27067,"lon":5.42275,"is_reserved":false,"is_disabled":false,"rental_uris":{"android":"levelo://app?vid=de2fefe7-ec38-4c33-9087-6bdff6c0e489","ios":"levelo://app?vid=de2fefe7-ec38-4c33-9087-6bdff6c0e489"},"vehicle_type_id":"4","last_reported":1728637809,"current_range_meters":20000,"station_id":"ce4bhk92rcd13ifvqgb0","pricing_plan_id":"cebpf4jnsgd1na2vs0mg"},{"bike_id":"5ce2a66a-b949-4239-ae17-6ee1644fc5f2","system_id":"levelo_inurba_marseille","lat":43.25488,"lon":5.3764,"is_reserved":false,"is_disabled":false,"rental_uris":{"android":"levelo://app?vid=5ce2a66a-b949-4239-ae17-6ee1644fc5f2","ios":"levelo://app?vid=5ce2a66a-b949-4239-ae17-6ee1644fc5f2"},"vehicle_type_id":"4","last_reported":1728637809,"current_range_meters":15200,"station_id":"ce4bhh12rcd13ifvqff0","pricing_plan_id":"cebpf4jnsgd1na2vs0mg"},{"bike_id":"6cb2fd54-0aca-4f7d-aadb-bc057dc4fb59","system_id":"levelo_inurba_marseille","lat":43.23058,"lon":5.3549,"is_reserved":false,"is_disabled":false,"rental_uris":{"android":"levelo://app?vid=6cb2fd54-0aca-4f7d-aadb-bc057dc4fb59","ios":"levelo://app?vid=6cb2fd54-0aca-4f7d-aadb-bc057dc4fb59"},"vehicle_type_id":"4","last_reported":1728637809,"current_range_meters":28400,"station_id":"cpo3342slgdg3j2ifvpg","pricing_plan_id":"cebpf4jnsgd1na2vs0mg"},{"bike_id":"997a9d73-9903-4a4d-b693-c7cc13a6f9ad","system_id":"levelo_inurba_marseille","lat":43.31219,"lon":5.36864,"is_reserved":false,"is_disabled":false,"rental_uris":{"android":"levelo://app?vid=997a9d73-9903-4a4d-b693-c7cc13a6f9ad","ios":"levelo://app?vid=997a9d73-9903-4a4d-b693-c7cc13a6f9ad"},"vehicle_type_id":"4","last_reported":1728637809,"current_range_meters":20000,"station_id":"ce4bgl92rcd13ifvqbq0","pricing_plan_id":"cebpf4jnsgd1na2vs0mg"},{"bike_id":"5ceebadd-f2cb-4596-b5c1-c14711977291","system_id":"levelo_inurba_marseille","lat":43.29096,"lon":5.38132,"is_reserved":false,"is_disabled":false,"rental_uris":{"android":"levelo://app?vid=5ceebadd-f2cb-4596-b5c1-c14711977291","ios":"levelo://app?vid=5ceebadd-f2cb-4596-b5c1-c14711977291"},"vehicle_type_id":"4","last_reported":1728637809,"current_range_meters":20800,"station_id":"ce4bh512rcd13ifvqe2g","pricing_plan_id":"cebpf4jnsgd1na2vs0mg"},{"bike_id":"6829a20b-a9a8-4dd6-ba6c-3e317f623d08","system_id":"levelo_inurba_marseille","lat":43.30524,"lon":5.36705,"is_reserved":false,"is_disabled":false,"rental_uris":{"android":"levelo://app?vid=6829a20b-a9a8-4dd6-ba6c-3e317f623d08","ios":"levelo://app?vid=6829a20b-a9a8-4dd6-ba6c-3e317f623d08"},"vehicle_type_id":"4","last_reported":1728637809,"current_range_meters":36000,"station_id":"ce4bgrp2rcd13ifvqc9g","pricing_plan_id":"cebpf4jnsgd1na2vs0mg"},{"bike_id":"7ae79265-a4f3-408c-9c9a-ba4aa51d6423","system_id":"levelo_inurba_marseille","lat":43.24671,"lon":5.38148,"is_reserved":false,"is_disabled":false,"rental_uris":{"android":"levelo://app?vid=7ae79265-a4f3-408c-9c9a-ba4aa51d6423","ios":"levelo://app?vid=7ae79265-a4f3-408c-9c9a-ba4aa51d6423"},"vehicle_type_id":"4","last_reported":1728637809,"current_range_meters":35600,"station_id":"ce4bhih2rcd13ifvqfr0","pricing_plan_id":"cebpf4jnsgd1na2vs0mg"},{"bike_id":"2909648b-39f2-4b1f-bb7d-ba41a7b3f5aa","system_id":"levelo_inurba_marseille","lat":43.28463,"lon":5.38413,"is_reserved":false,"is_disabled":false,"rental_uris":{"android":"levelo://app?vid=2909648b-39f2-4b1f-bb7d-ba41a7b3f5aa","ios":"levelo://app?vid=2909648b-39f2-4b1f-bb7d-ba41a7b3f5aa"},"vehicle_type_id":"4","last_reported":1728637809,"current_range_meters":38800,"station_id":"ce4bh512rcd13ifvqe3g","pricing_plan_id":"cebpf4jnsgd1na2vs0mg"},{"bike_id":"c0a7cc04-d44f-4fee-bfa6-9c2c8bef66d2","system_id":"levelo_inurba_marseille","lat":43.3015,"lon":5.38078,"is_reserved":false,"is_disabled":false,"rental_uris":{"android":"levelo://app?vid=c0a7cc04-d44f-4fee-bfa6-9c2c8bef66d2","ios":"levelo://app?vid=c0a7cc04-d44f-4fee-bfa6-9c2c8bef66d2"},"vehicle_type_id":"4","last_reported":1728637809,"current_range_meters":28800,"station_id":"ce4bgjp2rcd13ifvqbh0","pricing_plan_id":"cebpf4jnsgd1na2vs0mg"},{"bike_id":"585c907e-6a61-4d8e-ab91-6f2d1481f774","system_id":"levelo_inurba_marseille","lat":43.31755,"lon":5.39013,"is_reserved":false,"is_disabled":false,"rental_uris":{"android":"levelo://app?vid=585c907e-6a61-4d8e-ab91-6f2d1481f774","ios":"levelo://app?vid=585c907e-6a61-4d8e-ab91-6f2d1481f774"},"vehicle_type_id":"4","last_reported":1728637809,"current_range_meters":7200,"station_id":"ce4bhqp2rcd13ifvqhng","pricing_plan_id":"cebpf4jnsgd1na2vs0mg"},{"bike_id":"ae32036e-6ed7-468f-b050-acdf92171761","system_id":"levelo_inurba_marseille","lat":43.28478,"lon":5.38411,"is_reserved":false,"is_disabled":false,"rental_uris":{"android":"levelo://app?vid=ae32036e-6ed7-468f-b050-acdf92171761","ios":"levelo://app?vid=ae32036e-6ed7-468f-b050-acdf92171761"},"vehicle_type_id":"4","last_reported":1728637809,"current_range_meters":32800,"station_id":"ce4bh512rcd13ifvqe3g","pricing_plan_id":"cebpf4jnsgd1na2vs0mg"},{"bike_id":"34ce14c0-f173-4074-8103-4e09e52b3938","system_id":"levelo_inurba_marseille","lat":43.26199,"lon":5.37931,"is_reserved":false,"is_disabled":false,"rental_uris":{"android":"levelo://app?vid=34ce14c0-f173-4074-8103-4e09e52b3938","ios":"levelo://app?vid=34ce14c0-f173-4074-8103-4e09e52b3938"},"vehicle_type_id":"4","last_reported":1728637809,"current_range_meters":37600,"station_id":"ce4bhjp2rcd13ifvqg90","pricing_plan_id":"cebpf4jnsgd1na2vs0mg"},{"bike_id":"10ef6356-7130-46ff-9fa5-93d2c5941a0e","system_id":"levelo_inurba_marseille","lat":43.24801,"lon":5.37453,"is_reserved":false,"is_disabled":false,"rental_uris":{"android":"levelo://app?vid=10ef6356-7130-46ff-9fa5-93d2c5941a0e","ios":"levelo://app?vid=10ef6356-7130-46ff-9fa5-93d2c5941a0e"},"vehicle_type_id":"4","last_reported":1728637809,"current_range_meters":36800,"station_id":"ce4bhgh2rcd13ifvqfb0","pricing_plan_id":"cebpf4jnsgd1na2vs0mg"},{"bike_id":"5c89462a-42e9-4fe1-a27a-2bc821d0f4d0","system_id":"levelo_inurba_marseille","lat":43.33778,"lon":5.3744,"is_reserved":false,"is_disabled":false,"rental_uris":{"android":"levelo://app?vid=5c89462a-42e9-4fe1-a27a-2bc821d0f4d0","ios":"levelo://app?vid=5c89462a-42e9-4fe1-a27a-2bc821d0f4d0"},"vehicle_type_id":"4","last_reported":1728637809,"current_range_meters":9600,"station_id":"","pricing_plan_id":"cebpf4jnsgd1na2vs0mg"},{"bike_id":"db80fd74-23f3-4513-a22f-15b454e564ad","system_id":"levelo_inurba_marseille","lat":43.26682,"lon":5.38275,"is_reserved":false,"is_disabled":false,"rental_uris":{"android":"levelo://app?vid=db80fd74-23f3-4513-a22f-15b454e564ad","ios":"levelo://app?vid=db80fd74-23f3-4513-a22f-15b454e564ad"},"vehicle_type_id":"4","last_reported":1728637809,"current_range_meters":14000,"station_id":"ce4bhg92rcd13ifvqf90","pricing_plan_id":"cebpf4jnsgd1na2vs0mg"},{"bike_id":"f21ff7cf-a5e7-4036-9a78-a2aa83b6340b","system_id":"levelo_inurba_marseille","lat":43.2319,"lon":5.35548,"is_reserved":false,"is_disabled":false,"rental_uris":{"android":"levelo://app?vid=f21ff7cf-a5e7-4036-9a78-a2aa83b6340b","ios":"levelo://app?vid=f21ff7cf-a5e7-4036-9a78-a2aa83b6340b"},"vehicle_type_id":"4","last_reported":1728637809,"current_range_meters":36800,"station_id":"ce4bhu92rcd13ifvqi70","pricing_plan_id":"cebpf4jnsgd1na2vs0mg"},{"bike_id":"3d28e407-78b0-4910-80a4-994e71ca33cb","system_id":"levelo_inurba_marseille","lat":43.28435,"lon":5.3919,"is_reserved":false,"is_disabled":false,"rental_uris":{"android":"levelo://app?vid=3d28e407-78b0-4910-80a4-994e71ca33cb","ios":"levelo://app?vid=3d28e407-78b0-4910-80a4-994e71ca33cb"},"vehicle_type_id":"4","last_reported":1728637809,"current_range_meters":10800,"station_id":"ce4bhoh2rcd13ifvqh5g","pricing_plan_id":"cebpf4jnsgd1na2vs0mg"},{"bike_id":"511d8527-a04d-48ce-98e3-9408ae888b96","system_id":"levelo_inurba_marseille","lat":43.30855,"lon":5.36853,"is_reserved":false,"is_disabled":false,"rental_uris":{"android":"levelo://app?vid=511d8527-a04d-48ce-98e3-9408ae888b96","ios":"levelo://app?vid=511d8527-a04d-48ce-98e3-9408ae888b96"},"vehicle_type_id":"4","last_reported":1728637809,"current_range_meters":36000,"station_id":"","pricing_plan_id":"cebpf4jnsgd1na2vs0mg"},{"bike_id":"cff5374c-aa07-46df-a0b1-ce6c4e44bddd","system_id":"levelo_inurba_marseille","lat":43.26678,"lon":5.38272,"is_reserved":false,"is_disabled":false,"rental_uris":{"android":"levelo://app?vid=cff5374c-aa07-46df-a0b1-ce6c4e44bddd","ios":"levelo://app?vid=cff5374c-aa07-46df-a0b1-ce6c4e44bddd"},"vehicle_type_id":"4","last_reported":1728637809,"current_range_meters":28800,"station_id":"ce4bhg92rcd13ifvqf90","pricing_plan_id":"cebpf4jnsgd1na2vs0mg"},{"bike_id":"3d99fb8b-90fd-44d4-9875-1f0c0430dc0c","system_id":"levelo_inurba_marseille","lat":43.2959,"lon":5.3865,"is_reserved":false,"is_disabled":false,"rental_uris":{"android":"levelo://app?vid=3d99fb8b-90fd-44d4-9875-1f0c0430dc0c","ios":"levelo://app?vid=3d99fb8b-90fd-44d4-9875-1f0c0430dc0c"},"vehicle_type_id":"4","last_reported":1728637809,"current_range_meters":28800,"station_id":"ce4bh2h2rcd13ifvqdh0","pricing_plan_id":"cebpf4jnsgd1na2vs0mg"},{"bike_id":"e05e04f4-e651-424c-a6aa-8f864e46be12","system_id":"levelo_inurba_marseille","lat":43.28413,"lon":5.34984,"is_reserved":false,"is_disabled":false,"rental_uris":{"android":"levelo://app?vid=e05e04f4-e651-424c-a6aa-8f864e46be12","ios":"levelo://app?vid=e05e04f4-e651-424c-a6aa-8f864e46be12"},"vehicle_type_id":"4","last_reported":1728637809,"current_range_meters":6400,"station_id":"ce4bhbh2rcd13ifvqepg","pricing_plan_id":"cebpf4jnsgd1na2vs0mg"},{"bike_id":"a0efacd8-e569-45d0-a5c7-9ef3274c0675","system_id":"levelo_inurba_marseille","lat":43.23154,"lon":5.43702,"is_reserved":false,"is_disabled":false,"rental_uris":{"android":"levelo://app?vid=a0efacd8-e569-45d0-a5c7-9ef3274c0675","ios":"levelo://app?vid=a0efacd8-e569-45d0-a5c7-9ef3274c0675"},"vehicle_type_id":"4","last_reported":1728637809,"current_range_meters":26800,"station_id":"ce4bhmp2rcd13ifvqgog","pricing_plan_id":"cebpf4jnsgd1na2vs0mg"},{"bike_id":"66c13e0c-9f90-45a1-8006-938903b2da28","system_id":"levelo_inurba_marseille","lat":43.2903,"lon":5.38123,"is_reserved":false,"is_disabled":false,"rental_uris":{"android":"levelo://app?vid=66c13e0c-9f90-45a1-8006-938903b2da28","ios":"levelo://app?vid=66c13e0c-9f90-45a1-8006-938903b2da28"},"vehicle_type_id":"4","last_reported":1728637809,"current_range_meters":800,"station_id":"ce4bh4p2rcd13ifvqe1g","pricing_plan_id":"cebpf4jnsgd1na2vs0mg"},{"bike_id":"73a6bcc2-4b1c-49eb-b9c2-5de6cd993e3e","system_id":"levelo_inurba_marseille","lat":43.29515,"lon":5.37503,"is_reserved":false,"is_disabled":false,"rental_uris":{"android":"levelo://app?vid=73a6bcc2-4b1c-49eb-b9c2-5de6cd993e3e","ios":"levelo://app?vid=73a6bcc2-4b1c-49eb-b9c2-5de6cd993e3e"},"vehicle_type_id":"4","last_reported":1728637809,"current_range_meters":14000,"station_id":"ce4bgkp2rcd13ifvqbmg","pricing_plan_id":"cebpf4jnsgd1na2vs0mg"},{"bike_id":"1f414c8b-63c3-44b5-9ced-9e0bb0817876","system_id":"levelo_inurba_marseille","lat":43.23181,"lon":5.39989,"is_reserved":false,"is_disabled":false,"rental_uris":{"android":"levelo://app?vid=1f414c8b-63c3-44b5-9ced-9e0bb0817876","ios":"levelo://app?vid=1f414c8b-63c3-44b5-9ced-9e0bb0817876"},"vehicle_type_id":"4","last_reported":1728637809,"current_range_meters":8800,"station_id":"ce4bhn12rcd13ifvqgqg","pricing_plan_id":"cebpf4jnsgd1na2vs0mg"},{"bike_id":"5f77f637-4178-4039-bec1-a7e349f0937e","system_id":"levelo_inurba_marseille","lat":43.29506,"lon":5.37503,"is_reserved":false,"is_disabled":false,"rental_uris":{"android":"levelo://app?vid=5f77f637-4178-4039-bec1-a7e349f0937e","ios":"levelo://app?vid=5f77f637-4178-4039-bec1-a7e349f0937e"},"vehicle_type_id":"4","last_reported":1728637809,"current_range_meters":27600,"station_id":"ce4bgkp2rcd13ifvqbmg","pricing_plan_id":"cebpf4jnsgd1na2vs0mg"},{"bike_id":"6c8969f8-75bd-4ba3-8a18-9873a5dd3456","system_id":"levelo_inurba_marseille","lat":43.28925,"lon":5.38386,"is_reserved":false,"is_disabled":false,"rental_uris":{"android":"levelo://app?vid=6c8969f8-75bd-4ba3-8a18-9873a5dd3456","ios":"levelo://app?vid=6c8969f8-75bd-4ba3-8a18-9873a5dd3456"},"vehicle_type_id":"4","last_reported":1728637809,"current_range_meters":18000,"station_id":"ce4bh612rcd13ifvqe6g","pricing_plan_id":"cebpf4jnsgd1na2vs0mg"},{"bike_id":"9db4d985-7949-4b7f-b898-6a0ca7ba3693","system_id":"levelo_inurba_marseille","lat":43.28417,"lon":5.34996,"is_reserved":false,"is_disabled":false,"rental_uris":{"android":"levelo://app?vid=9db4d985-7949-4b7f-b898-6a0ca7ba3693","ios":"levelo://app?vid=9db4d985-7949-4b7f-b898-6a0ca7ba3693"},"vehicle_type_id":"4","last_reported":1728637809,"current_range_meters":38400,"station_id":"ce4bhbh2rcd13ifvqepg","pricing_plan_id":"cebpf4jnsgd1na2vs0mg"},{"bike_id":"3d39173c-21d9-4ccd-a1a2-871998e246df","system_id":"levelo_inurba_marseille","lat":43.26561,"lon":5.39001,"is_reserved":false,"is_disabled":false,"rental_uris":{"android":"levelo://app?vid=3d39173c-21d9-4ccd-a1a2-871998e246df","ios":"levelo://app?vid=3d39173c-21d9-4ccd-a1a2-871998e246df"},"vehicle_type_id":"4","last_reported":1728637809,"current_range_meters":16400,"station_id":"ce4bhe12rcd13ifvqf30","pricing_plan_id":"cebpf4jnsgd1na2vs0mg"},{"bike_id":"0f26fbcc-6594-4e72-bd84-0b3e53dc6ed8","system_id":"levelo_inurba_marseille","lat":43.29568,"lon":5.37501,"is_reserved":false,"is_disabled":false,"rental_uris":{"android":"levelo://app?vid=0f26fbcc-6594-4e72-bd84-0b3e53dc6ed8","ios":"levelo://app?vid=0f26fbcc-6594-4e72-bd84-0b3e53dc6ed8"},"vehicle_type_id":"4","last_reported":1728637809,"current_range_meters":27200,"station_id":"ce4bgh92rcd13ifvqb50","pricing_plan_id":"cebpf4jnsgd1na2vs0mg"},{"bike_id":"a36eb572-6a51-41d8-98a6-8a2436fa2d19","system_id":"levelo_inurba_marseille","lat":43.30915,"lon":5.36855,"is_reserved":false,"is_disabled":false,"rental_uris":{"android":"levelo://app?vid=a36eb572-6a51-41d8-98a6-8a2436fa2d19","ios":"levelo://app?vid=a36eb572-6a51-41d8-98a6-8a2436fa2d19"},"vehicle_type_id":"4","last_reported":1728637809,"current_range_meters":24400,"station_id":"ce4bgn92rcd13ifvqbvg","pricing_plan_id":"cebpf4jnsgd1na2vs0mg"},{"bike_id":"25b1fb8d-043b-40f4-aa3f-c415f5d84a10","system_id":"levelo_inurba_marseille","lat":43.31353,"lon":5.36703,"is_reserved":false,"is_disabled":false,"rental_uris":{"android":"levelo://app?vid=25b1fb8d-043b-40f4-aa3f-c415f5d84a10","ios":"levelo://app?vid=25b1fb8d-043b-40f4-aa3f-c415f5d84a10"},"vehicle_type_id":"4","last_reported":1728637809,"current_range_meters":39200,"station_id":"ce4bgr92rcd13ifvqc6g","pricing_plan_id":"cebpf4jnsgd1na2vs0mg"},{"bike_id":"c4c93f34-128e-4af1-a3c5-46d82d2220f0","system_id":"levelo_inurba_marseille","lat":43.27621,"lon":5.36109,"is_reserved":false,"is_disabled":false,"rental_uris":{"android":"levelo://app?vid=c4c93f34-128e-4af1-a3c5-46d82d2220f0","ios":"levelo://app?vid=c4c93f34-128e-4af1-a3c5-46d82d2220f0"},"vehicle_type_id":"4","last_reported":1728637809,"current_range_meters":38800,"station_id":"ce4bgj92rcd13ifvqbe0","pricing_plan_id":"cebpf4jnsgd1na2vs0mg"},{"bike_id":"c2709d8c-182c-4c66-9678-32143d413767","system_id":"levelo_inurba_marseille","lat":43.22934,"lon":5.35381,"is_reserved":false,"is_disabled":false,"rental_uris":{"android":"levelo://app?vid=c2709d8c-182c-4c66-9678-32143d413767","ios":"levelo://app?vid=c2709d8c-182c-4c66-9678-32143d413767"},"vehicle_type_id":"4","last_reported":1728637809,"current_range_meters":32000,"station_id":"cpo3532slgdg3j2ikp40","pricing_plan_id":"cebpf4jnsgd1na2vs0mg"},{"bike_id":"297df78e-c3b9-4f3d-91c7-456c86ecaea1","system_id":"levelo_inurba_marseille","lat":43.32535,"lon":5.41427,"is_reserved":false,"is_disabled":false,"rental_uris":{"android":"levelo://app?vid=297df78e-c3b9-4f3d-91c7-456c86ecaea1","ios":"levelo://app?vid=297df78e-c3b9-4f3d-91c7-456c86ecaea1"},"vehicle_type_id":"4","last_reported":1728637809,"current_range_meters":16000,"station_id":"ce4bhq12rcd13ifvqhhg","pricing_plan_id":"cebpf4jnsgd1na2vs0mg"},{"bike_id":"89594668-a42e-4977-be13-cd2bbbb6856c","system_id":"levelo_inurba_marseille","lat":43.30281,"lon":5.37717,"is_reserved":false,"is_disabled":false,"rental_uris":{"android":"levelo://app?vid=89594668-a42e-4977-be13-cd2bbbb6856c","ios":"levelo://app?vid=89594668-a42e-4977-be13-cd2bbbb6856c"},"vehicle_type_id":"4","last_reported":1728637809,"current_range_meters":40000,"station_id":"ce4bguh2rcd13ifvqcj0","pricing_plan_id":"cebpf4jnsgd1na2vs0mg"},{"bike_id":"ac5d5e52-b2f7-4efe-a367-19ef27578c4d","system_id":"levelo_inurba_marseille","lat":43.29069,"lon":5.39964,"is_reserved":false,"is_disabled":false,"rental_uris":{"android":"levelo://app?vid=ac5d5e52-b2f7-4efe-a367-19ef27578c4d","ios":"levelo://app?vid=ac5d5e52-b2f7-4efe-a367-19ef27578c4d"},"vehicle_type_id":"4","last_reported":1728637809,"current_range_meters":39200,"station_id":"ce4bh392rcd13ifvqdm0","pricing_plan_id":"cebpf4jnsgd1na2vs0mg"},{"bike_id":"679012bb-976f-4b0e-8bc3-d5c47c03c256","system_id":"levelo_inurba_marseille","lat":43.29839,"lon":5.3627,"is_reserved":false,"is_disabled":false,"rental_uris":{"android":"levelo://app?vid=679012bb-976f-4b0e-8bc3-d5c47c03c256","ios":"levelo://app?vid=679012bb-976f-4b0e-8bc3-d5c47c03c256"},"vehicle_type_id":"4","last_reported":1728637809,"current_range_meters":30400,"station_id":"ce4bgpp2rcd13ifvqc3g","pricing_plan_id":"cebpf4jnsgd1na2vs0mg"},{"bike_id":"092023c4-00ce-4107-9e99-3058d7161d52","system_id":"levelo_inurba_marseille","lat":43.24078,"lon":5.37742,"is_reserved":false,"is_disabled":false,"rental_uris":{"android":"levelo://app?vid=092023c4-00ce-4107-9e99-3058d7161d52","ios":"levelo://app?vid=092023c4-00ce-4107-9e99-3058d7161d52"},"vehicle_type_id":"4","last_reported":1728637809,"current_range_meters":29600,"station_id":"ce4bhnp2rcd13ifvqgvg","pricing_plan_id":"cebpf4jnsgd1na2vs0mg"},{"bike_id":"843e8910-1929-496a-bc6c-734abbe1836f","system_id":"levelo_inurba_marseille","lat":43.31084,"lon":5.42429,"is_reserved":false,"is_disabled":false,"rental_uris":{"android":"levelo://app?vid=843e8910-1929-496a-bc6c-734abbe1836f","ios":"levelo://app?vid=843e8910-1929-496a-bc6c-734abbe1836f"},"vehicle_type_id":"4","last_reported":1728637809,"current_range_meters":26800,"station_id":"ce4bhp92rcd13ifvqhag","pricing_plan_id":"cebpf4jnsgd1na2vs0mg"},{"bike_id":"ed53c3a3-64cf-42c5-ba33-1b7d69b6ede7","system_id":"levelo_inurba_marseille","lat":43.24809,"lon":5.37468,"is_reserved":false,"is_disabled":false,"rental_uris":{"android":"levelo://app?vid=ed53c3a3-64cf-42c5-ba33-1b7d69b6ede7","ios":"levelo://app?vid=ed53c3a3-64cf-42c5-ba33-1b7d69b6ede7"},"vehicle_type_id":"4","last_reported":1728637809,"current_range_meters":38800,"station_id":"ce4bhgh2rcd13ifvqfb0","pricing_plan_id":"cebpf4jnsgd1na2vs0mg"},{"bike_id":"14b07fed-aacd-4f67-bc2e-4b35e6570c46","system_id":"levelo_inurba_marseille","lat":43.292134,"lon":5.399966,"is_reserved":false,"is_disabled":false,"rental_uris":{"android":"levelo://app?vid=14b07fed-aacd-4f67-bc2e-4b35e6570c46","ios":"levelo://app?vid=14b07fed-aacd-4f67-bc2e-4b35e6570c46"},"vehicle_type_id":"4","last_reported":1728637809,"current_range_meters":8800,"station_id":"","pricing_plan_id":"cebpf4jnsgd1na2vs0mg"},{"bike_id":"50e00a09-dbb7-4ec7-8883-063d7bdb7c6d","system_id":"levelo_inurba_marseille","lat":43.28999,"lon":5.35602,"is_reserved":false,"is_disabled":false,"rental_uris":{"android":"levelo://app?vid=50e00a09-dbb7-4ec7-8883-063d7bdb7c6d","ios":"levelo://app?vid=50e00a09-dbb7-4ec7-8883-063d7bdb7c6d"},"vehicle_type_id":"4","last_reported":1728637809,"current_range_meters":34800,"station_id":"ce4bhb92rcd13ifvqen0","pricing_plan_id":"cebpf4jnsgd1na2vs0mg"},{"bike_id":"2f8db975-0884-4dc5-a4df-cb34c6827e2a","system_id":"levelo_inurba_marseille","lat":43.28473,"lon":5.38411,"is_reserved":false,"is_disabled":false,"rental_uris":{"android":"levelo://app?vid=2f8db975-0884-4dc5-a4df-cb34c6827e2a","ios":"levelo://app?vid=2f8db975-0884-4dc5-a4df-cb34c6827e2a"},"vehicle_type_id":"4","last_reported":1728637809,"current_range_meters":8000,"station_id":"ce4bh512rcd13ifvqe3g","pricing_plan_id":"cebpf4jnsgd1na2vs0mg"},{"bike_id":"e378531d-5997-473c-9d89-e1b54835f033","system_id":"levelo_inurba_marseille","lat":43.29196,"lon":5.35799,"is_reserved":false,"is_disabled":false,"rental_uris":{"android":"levelo://app?vid=e378531d-5997-473c-9d89-e1b54835f033","ios":"levelo://app?vid=e378531d-5997-473c-9d89-e1b54835f033"},"vehicle_type_id":"4","last_reported":1728637809,"current_range_meters":36800,"station_id":"ce4bhb12rcd13ifvqel0","pricing_plan_id":"cebpf4jnsgd1na2vs0mg"},{"bike_id":"f92a9fb8-9f73-4cf9-bc9b-2bdf5b520248","system_id":"levelo_inurba_marseille","lat":43.32527,"lon":5.41431,"is_reserved":false,"is_disabled":false,"rental_uris":{"android":"levelo://app?vid=f92a9fb8-9f73-4cf9-bc9b-2bdf5b520248","ios":"levelo://app?vid=f92a9fb8-9f73-4cf9-bc9b-2bdf5b520248"},"vehicle_type_id":"4","last_reported":1728637809,"current_range_meters":37600,"station_id":"ce4bhq12rcd13ifvqhhg","pricing_plan_id":"cebpf4jnsgd1na2vs0mg"},{"bike_id":"2f5f3f97-7515-4583-a368-fc4adf2cf4d5","system_id":"levelo_inurba_marseille","lat":43.34135,"lon":5.40904,"is_reserved":false,"is_disabled":false,"rental_uris":{"android":"levelo://app?vid=2f5f3f97-7515-4583-a368-fc4adf2cf4d5","ios":"levelo://app?vid=2f5f3f97-7515-4583-a368-fc4adf2cf4d5"},"vehicle_type_id":"4","last_reported":1728637809,"current_range_meters":28000,"station_id":"ce4bhqh2rcd13ifvqhlg","pricing_plan_id":"cebpf4jnsgd1na2vs0mg"},{"bike_id":"c9487c44-68b1-4b3f-bbcd-aeb80010a4cc","system_id":"levelo_inurba_marseille","lat":43.30931,"lon":5.40144,"is_reserved":false,"is_disabled":false,"rental_uris":{"android":"levelo://app?vid=c9487c44-68b1-4b3f-bbcd-aeb80010a4cc","ios":"levelo://app?vid=c9487c44-68b1-4b3f-bbcd-aeb80010a4cc"},"vehicle_type_id":"4","last_reported":1728637809,"current_range_meters":38000,"station_id":"ce4bgvp2rcd13ifvqct0","pricing_plan_id":"cebpf4jnsgd1na2vs0mg"},{"bike_id":"71afc88c-f31a-4d35-8f41-3a6da9afe2a7","system_id":"levelo_inurba_marseille","lat":43.33724,"lon":5.39185,"is_reserved":false,"is_disabled":false,"rental_uris":{"android":"levelo://app?vid=71afc88c-f31a-4d35-8f41-3a6da9afe2a7","ios":"levelo://app?vid=71afc88c-f31a-4d35-8f41-3a6da9afe2a7"},"vehicle_type_id":"4","last_reported":1728637809,"current_range_meters":28800,"station_id":"ce4bhr92rcd13ifvqhsg","pricing_plan_id":"cebpf4jnsgd1na2vs0mg"},{"bike_id":"50aa4af7-94b4-48c9-959d-eeec3eaec001","system_id":"levelo_inurba_marseille","lat":43.23189,"lon":5.35541,"is_reserved":false,"is_disabled":false,"rental_uris":{"android":"levelo://app?vid=50aa4af7-94b4-48c9-959d-eeec3eaec001","ios":"levelo://app?vid=50aa4af7-94b4-48c9-959d-eeec3eaec001"},"vehicle_type_id":"4","last_reported":1728637809,"current_range_meters":37600,"station_id":"ce4bhu92rcd13ifvqi70","pricing_plan_id":"cebpf4jnsgd1na2vs0mg"},{"bike_id":"dade3d2f-3f22-4b1e-92c9-4504fc72033e","system_id":"levelo_inurba_marseille","lat":43.26946,"lon":5.38628,"is_reserved":false,"is_disabled":false,"rental_uris":{"android":"levelo://app?vid=dade3d2f-3f22-4b1e-92c9-4504fc72033e","ios":"levelo://app?vid=dade3d2f-3f22-4b1e-92c9-4504fc72033e"},"vehicle_type_id":"4","last_reported":1728637809,"current_range_meters":27600,"station_id":"ce4bhh92rcd13ifvqfh0","pricing_plan_id":"cebpf4jnsgd1na2vs0mg"},{"bike_id":"38811800-990c-4b4f-93b0-519c6d818a43","system_id":"levelo_inurba_marseille","lat":43.33605,"lon":5.41027,"is_reserved":false,"is_disabled":false,"rental_uris":{"android":"levelo://app?vid=38811800-990c-4b4f-93b0-519c6d818a43","ios":"levelo://app?vid=38811800-990c-4b4f-93b0-519c6d818a43"},"vehicle_type_id":"4","last_reported":1728637809,"current_range_meters":37600,"station_id":"ce4bhqh2rcd13ifvqhmg","pricing_plan_id":"cebpf4jnsgd1na2vs0mg"},{"bike_id":"6befb0b6-7f57-4a04-8f6c-6f71aec95de3","system_id":"levelo_inurba_marseille","lat":43.33719,"lon":5.39173,"is_reserved":false,"is_disabled":false,"rental_uris":{"android":"levelo://app?vid=6befb0b6-7f57-4a04-8f6c-6f71aec95de3","ios":"levelo://app?vid=6befb0b6-7f57-4a04-8f6c-6f71aec95de3"},"vehicle_type_id":"4","last_reported":1728637809,"current_range_meters":24000,"station_id":"ce4bhr92rcd13ifvqhsg","pricing_plan_id":"cebpf4jnsgd1na2vs0mg"},{"bike_id":"cc30f4e8-b794-4f51-8729-f3d484429798","system_id":"levelo_inurba_marseille","lat":43.29242,"lon":5.38446,"is_reserved":false,"is_disabled":false,"rental_uris":{"android":"levelo://app?vid=cc30f4e8-b794-4f51-8729-f3d484429798","ios":"levelo://app?vid=cc30f4e8-b794-4f51-8729-f3d484429798"},"vehicle_type_id":"4","last_reported":1728637809,"current_range_meters":24400,"station_id":"ce4bh692rcd13ifvqea0","pricing_plan_id":"cebpf4jnsgd1na2vs0mg"},{"bike_id":"e78251a7-1b20-4e2f-bd9d-b431a65e58b0","system_id":"levelo_inurba_marseille","lat":43.23151,"lon":5.43712,"is_reserved":false,"is_disabled":false,"rental_uris":{"android":"levelo://app?vid=e78251a7-1b20-4e2f-bd9d-b431a65e58b0","ios":"levelo://app?vid=e78251a7-1b20-4e2f-bd9d-b431a65e58b0"},"vehicle_type_id":"4","last_reported":1728637809,"current_range_meters":18000,"station_id":"ce4bhmp2rcd13ifvqgog","pricing_plan_id":"cebpf4jnsgd1na2vs0mg"},{"bike_id":"84c30ed3-60f2-43c6-a6ef-72b2abd8f6b1","system_id":"levelo_inurba_marseille","lat":43.26687,"lon":5.38265,"is_reserved":false,"is_disabled":false,"rental_uris":{"android":"levelo://app?vid=84c30ed3-60f2-43c6-a6ef-72b2abd8f6b1","ios":"levelo://app?vid=84c30ed3-60f2-43c6-a6ef-72b2abd8f6b1"},"vehicle_type_id":"4","last_reported":1728637809,"current_range_meters":33600,"station_id":"ce4bhg92rcd13ifvqf90","pricing_plan_id":"cebpf4jnsgd1na2vs0mg"},{"bike_id":"3d819519-2feb-41f9-9ba5-7980c2cc54aa","system_id":"levelo_inurba_marseille","lat":43.30542,"lon":5.3654,"is_reserved":false,"is_disabled":false,"rental_uris":{"android":"levelo://app?vid=3d819519-2feb-41f9-9ba5-7980c2cc54aa","ios":"levelo://app?vid=3d819519-2feb-41f9-9ba5-7980c2cc54aa"},"vehicle_type_id":"4","last_reported":1728637809,"current_range_meters":39200,"station_id":"ce4bgs12rcd13ifvqcag","pricing_plan_id":"cebpf4jnsgd1na2vs0mg"},{"bike_id":"c6938137-c0d6-4ace-b751-67f074547a5a","system_id":"levelo_inurba_marseille","lat":43.23151,"lon":5.43711,"is_reserved":false,"is_disabled":false,"rental_uris":{"android":"levelo://app?vid=c6938137-c0d6-4ace-b751-67f074547a5a","ios":"levelo://app?vid=c6938137-c0d6-4ace-b751-67f074547a5a"},"vehicle_type_id":"4","last_reported":1728637809,"current_range_meters":14800,"station_id":"ce4bhmp2rcd13ifvqgog","pricing_plan_id":"cebpf4jnsgd1na2vs0mg"},{"bike_id":"da0154d2-d867-4566-a0de-0ccc91e96e81","system_id":"levelo_inurba_marseille","lat":43.29507,"lon":5.37503,"is_reserved":false,"is_disabled":false,"rental_uris":{"android":"levelo://app?vid=da0154d2-d867-4566-a0de-0ccc91e96e81","ios":"levelo://app?vid=da0154d2-d867-4566-a0de-0ccc91e96e81"},"vehicle_type_id":"4","last_reported":1728637809,"current_range_meters":38000,"station_id":"ce4bgkp2rcd13ifvqbmg","pricing_plan_id":"cebpf4jnsgd1na2vs0mg"},{"bike_id":"7c512273-1b1d-461f-a4be-dd0ccda8c83c","system_id":"levelo_inurba_marseille","lat":43.27813,"lon":5.40708,"is_reserved":false,"is_disabled":false,"rental_uris":{"android":"levelo://app?vid=7c512273-1b1d-461f-a4be-dd0ccda8c83c","ios":"levelo://app?vid=7c512273-1b1d-461f-a4be-dd0ccda8c83c"},"vehicle_type_id":"4","last_reported":1728637809,"current_range_meters":37600,"station_id":"ce4bhnh2rcd13ifvqgtg","pricing_plan_id":"cebpf4jnsgd1na2vs0mg"},{"bike_id":"e3cc55ec-82ab-4c88-aa2f-71a4741aeb97","system_id":"levelo_inurba_marseille","lat":43.28412,"lon":5.34987,"is_reserved":false,"is_disabled":false,"rental_uris":{"android":"levelo://app?vid=e3cc55ec-82ab-4c88-aa2f-71a4741aeb97","ios":"levelo://app?vid=e3cc55ec-82ab-4c88-aa2f-71a4741aeb97"},"vehicle_type_id":"4","last_reported":1728637809,"current_range_meters":16400,"station_id":"ce4bhbh2rcd13ifvqepg","pricing_plan_id":"cebpf4jnsgd1na2vs0mg"},{"bike_id":"03060462-bb52-4770-93cd-4fd90c8f7ff5","system_id":"levelo_inurba_marseille","lat":43.27305,"lon":5.39083,"is_reserved":false,"is_disabled":false,"rental_uris":{"android":"levelo://app?vid=03060462-bb52-4770-93cd-4fd90c8f7ff5","ios":"levelo://app?vid=03060462-bb52-4770-93cd-4fd90c8f7ff5"},"vehicle_type_id":"4","last_reported":1728637809,"current_range_meters":30400,"station_id":"ce4bhgp2rcd13ifvqfe0","pricing_plan_id":"cebpf4jnsgd1na2vs0mg"},{"bike_id":"a64fbc67-3742-4a62-9f2e-7dce7179e917","system_id":"levelo_inurba_marseille","lat":43.28969,"lon":5.37847,"is_reserved":false,"is_disabled":false,"rental_uris":{"android":"levelo://app?vid=a64fbc67-3742-4a62-9f2e-7dce7179e917","ios":"levelo://app?vid=a64fbc67-3742-4a62-9f2e-7dce7179e917"},"vehicle_type_id":"4","last_reported":1728637809,"current_range_meters":22800,"station_id":"ce4bh9p2rcd13ifvqed0","pricing_plan_id":"cebpf4jnsgd1na2vs0mg"},{"bike_id":"6018068f-d576-4678-8c0f-f3984d2ba140","system_id":"levelo_inurba_marseille","lat":43.2979,"lon":5.37109,"is_reserved":false,"is_disabled":false,"rental_uris":{"android":"levelo://app?vid=6018068f-d576-4678-8c0f-f3984d2ba140","ios":"levelo://app?vid=6018068f-d576-4678-8c0f-f3984d2ba140"},"vehicle_type_id":"4","last_reported":1728637809,"current_range_meters":22000,"station_id":"ce4bgop2rcd13ifvqc1g","pricing_plan_id":"cebpf4jnsgd1na2vs0mg"},{"bike_id":"a907ec0b-168c-4960-b1e3-12e8d767dc35","system_id":"levelo_inurba_marseille","lat":43.28159,"lon":5.42642,"is_reserved":false,"is_disabled":false,"rental_uris":{"android":"levelo://app?vid=a907ec0b-168c-4960-b1e3-12e8d767dc35","ios":"levelo://app?vid=a907ec0b-168c-4960-b1e3-12e8d767dc35"},"vehicle_type_id":"4","last_reported":1728637809,"current_range_meters":24000,"station_id":"ce4bhnh2rcd13ifvqgug","pricing_plan_id":"cebpf4jnsgd1na2vs0mg"},{"bike_id":"ff68b789-7173-415f-860f-fb58c1b9d01d","system_id":"levelo_inurba_marseille","lat":43.22929,"lon":5.3538,"is_reserved":false,"is_disabled":false,"rental_uris":{"android":"levelo://app?vid=ff68b789-7173-415f-860f-fb58c1b9d01d","ios":"levelo://app?vid=ff68b789-7173-415f-860f-fb58c1b9d01d"},"vehicle_type_id":"4","last_reported":1728637809,"current_range_meters":32000,"station_id":"cpo3532slgdg3j2ikp40","pricing_plan_id":"cebpf4jnsgd1na2vs0mg"},{"bike_id":"cab964bc-e57f-4882-9c3b-4fe78f7ac2ed","system_id":"levelo_inurba_marseille","lat":43.2695,"lon":5.38632,"is_reserved":false,"is_disabled":false,"rental_uris":{"android":"levelo://app?vid=cab964bc-e57f-4882-9c3b-4fe78f7ac2ed","ios":"levelo://app?vid=cab964bc-e57f-4882-9c3b-4fe78f7ac2ed"},"vehicle_type_id":"4","last_reported":1728637809,"current_range_meters":38800,"station_id":"ce4bhh92rcd13ifvqfh0","pricing_plan_id":"cebpf4jnsgd1na2vs0mg"},{"bike_id":"2217b65a-9e72-45d5-b077-4446f20164c2","system_id":"levelo_inurba_marseille","lat":43.24069,"lon":5.3774,"is_reserved":false,"is_disabled":false,"rental_uris":{"android":"levelo://app?vid=2217b65a-9e72-45d5-b077-4446f20164c2","ios":"levelo://app?vid=2217b65a-9e72-45d5-b077-4446f20164c2"},"vehicle_type_id":"4","last_reported":1728637809,"current_range_meters":19200,"station_id":"ce4bhnp2rcd13ifvqgvg","pricing_plan_id":"cebpf4jnsgd1na2vs0mg"},{"bike_id":"d09a9fcf-fb9f-4373-a651-bf0e08460105","system_id":"levelo_inurba_marseille","lat":43.27173,"lon":5.40985,"is_reserved":false,"is_disabled":false,"rental_uris":{"android":"levelo://app?vid=d09a9fcf-fb9f-4373-a651-bf0e08460105","ios":"levelo://app?vid=d09a9fcf-fb9f-4373-a651-bf0e08460105"},"vehicle_type_id":"4","last_reported":1728637809,"current_range_meters":37600,"station_id":"ce4bhl12rcd13ifvqgf0","pricing_plan_id":"cebpf4jnsgd1na2vs0mg"},{"bike_id":"d8693de2-65db-4794-af5a-3d2d4640a82b","system_id":"levelo_inurba_marseille","lat":43.27994,"lon":5.40016,"is_reserved":false,"is_disabled":false,"rental_uris":{"android":"levelo://app?vid=d8693de2-65db-4794-af5a-3d2d4640a82b","ios":"levelo://app?vid=d8693de2-65db-4794-af5a-3d2d4640a82b"},"vehicle_type_id":"4","last_reported":1728637809,"current_range_meters":30800,"station_id":"ce4bho92rcd13ifvqh4g","pricing_plan_id":"cebpf4jnsgd1na2vs0mg"},{"bike_id":"6cb5b02c-2401-484a-8b7d-b4d2106d6b08","system_id":"levelo_inurba_marseille","lat":43.23189,"lon":5.35566,"is_reserved":false,"is_disabled":false,"rental_uris":{"android":"levelo://app?vid=6cb5b02c-2401-484a-8b7d-b4d2106d6b08","ios":"levelo://app?vid=6cb5b02c-2401-484a-8b7d-b4d2106d6b08"},"vehicle_type_id":"4","last_reported":1728637809,"current_range_meters":36400,"station_id":"ce4bhu92rcd13ifvqi70","pricing_plan_id":"cebpf4jnsgd1na2vs0mg"},{"bike_id":"b9bae01e-a991-4bd9-b77d-6ad2e798ca18","system_id":"levelo_inurba_marseille","lat":43.337444,"lon":5.374475,"is_reserved":false,"is_disabled":false,"rental_uris":{"android":"levelo://app?vid=b9bae01e-a991-4bd9-b77d-6ad2e798ca18","ios":"levelo://app?vid=b9bae01e-a991-4bd9-b77d-6ad2e798ca18"},"vehicle_type_id":"4","last_reported":1728637809,"current_range_meters":7200,"station_id":"","pricing_plan_id":"cebpf4jnsgd1na2vs0mg"},{"bike_id":"efd588d8-d969-4ce7-8835-d733b94cce7a","system_id":"levelo_inurba_marseille","lat":43.32487,"lon":5.36557,"is_reserved":false,"is_disabled":false,"rental_uris":{"android":"levelo://app?vid=efd588d8-d969-4ce7-8835-d733b94cce7a","ios":"levelo://app?vid=efd588d8-d969-4ce7-8835-d733b94cce7a"},"vehicle_type_id":"4","last_reported":1728637809,"current_range_meters":11200,"station_id":"ce4bhs12rcd13ifvqhvg","pricing_plan_id":"cebpf4jnsgd1na2vs0mg"},{"bike_id":"44f15e4f-bcec-4cd2-8c1c-3ebf9fc6ffff","system_id":"levelo_inurba_marseille","lat":43.30149,"lon":5.38079,"is_reserved":false,"is_disabled":false,"rental_uris":{"android":"levelo://app?vid=44f15e4f-bcec-4cd2-8c1c-3ebf9fc6ffff","ios":"levelo://app?vid=44f15e4f-bcec-4cd2-8c1c-3ebf9fc6ffff"},"vehicle_type_id":"4","last_reported":1728637809,"current_range_meters":35600,"station_id":"ce4bgjp2rcd13ifvqbh0","pricing_plan_id":"cebpf4jnsgd1na2vs0mg"},{"bike_id":"c0e4a014-ca14-4b68-83f2-36f84ed73d82","system_id":"levelo_inurba_marseille","lat":43.30285,"lon":5.37688,"is_reserved":false,"is_disabled":false,"rental_uris":{"android":"levelo://app?vid=c0e4a014-ca14-4b68-83f2-36f84ed73d82","ios":"levelo://app?vid=c0e4a014-ca14-4b68-83f2-36f84ed73d82"},"vehicle_type_id":"4","last_reported":1728637809,"current_range_meters":22400,"station_id":"ce4bguh2rcd13ifvqcj0","pricing_plan_id":"cebpf4jnsgd1na2vs0mg"},{"bike_id":"90bd72ed-7174-40aa-97e4-3709605dcc88","system_id":"levelo_inurba_marseille","lat":43.281565,"lon":5.428677,"is_reserved":false,"is_disabled":false,"rental_uris":{"android":"levelo://app?vid=90bd72ed-7174-40aa-97e4-3709605dcc88","ios":"levelo://app?vid=90bd72ed-7174-40aa-97e4-3709605dcc88"},"vehicle_type_id":"4","last_reported":1728637809,"current_range_meters":20800,"station_id":"","pricing_plan_id":"cebpf4jnsgd1na2vs0mg"},{"bike_id":"c417019c-5367-4191-a213-8153b6c2ea08","system_id":"levelo_inurba_marseille","lat":43.32476,"lon":5.36572,"is_reserved":false,"is_disabled":false,"rental_uris":{"android":"levelo://app?vid=c417019c-5367-4191-a213-8153b6c2ea08","ios":"levelo://app?vid=c417019c-5367-4191-a213-8153b6c2ea08"},"vehicle_type_id":"4","last_reported":1728637809,"current_range_meters":25600,"station_id":"ce4bhs12rcd13ifvqhvg","pricing_plan_id":"cebpf4jnsgd1na2vs0mg"},{"bike_id":"03710508-b213-40ad-afff-575d253e4f5b","system_id":"levelo_inurba_marseille","lat":43.28938,"lon":5.36636,"is_reserved":false,"is_disabled":false,"rental_uris":{"android":"levelo://app?vid=03710508-b213-40ad-afff-575d253e4f5b","ios":"levelo://app?vid=03710508-b213-40ad-afff-575d253e4f5b"},"vehicle_type_id":"4","last_reported":1728637809,"current_range_meters":38000,"station_id":"ce4bhap2rcd13ifvqek0","pricing_plan_id":"cebpf4jnsgd1na2vs0mg"},{"bike_id":"70e8d9e5-8396-4d7d-be39-1fc17a440db7","system_id":"levelo_inurba_marseille","lat":43.3361,"lon":5.41019,"is_reserved":false,"is_disabled":false,"rental_uris":{"android":"levelo://app?vid=70e8d9e5-8396-4d7d-be39-1fc17a440db7","ios":"levelo://app?vid=70e8d9e5-8396-4d7d-be39-1fc17a440db7"},"vehicle_type_id":"4","last_reported":1728637809,"current_range_meters":39200,"station_id":"ce4bhqh2rcd13ifvqhmg","pricing_plan_id":"cebpf4jnsgd1na2vs0mg"},{"bike_id":"38162bc2-26ca-494d-9a88-62a9cde566ec","system_id":"levelo_inurba_marseille","lat":43.29935,"lon":5.36531,"is_reserved":false,"is_disabled":false,"rental_uris":{"android":"levelo://app?vid=38162bc2-26ca-494d-9a88-62a9cde566ec","ios":"levelo://app?vid=38162bc2-26ca-494d-9a88-62a9cde566ec"},"vehicle_type_id":"4","last_reported":1728637809,"current_range_meters":38800,"station_id":"ce4bgm92rcd13ifvqbr0","pricing_plan_id":"cebpf4jnsgd1na2vs0mg"},{"bike_id":"7feda03c-1689-4827-a0fb-310bf8a90726","system_id":"levelo_inurba_marseille","lat":43.24995,"lon":5.38926,"is_reserved":false,"is_disabled":false,"rental_uris":{"android":"levelo://app?vid=7feda03c-1689-4827-a0fb-310bf8a90726","ios":"levelo://app?vid=7feda03c-1689-4827-a0fb-310bf8a90726"},"vehicle_type_id":"4","last_reported":1728637809,"current_range_meters":39200,"station_id":"ce4bhgp2rcd13ifvqfd0","pricing_plan_id":"cebpf4jnsgd1na2vs0mg"},{"bike_id":"b662a697-8f40-4ab5-85b6-65442d9227e9","system_id":"levelo_inurba_marseille","lat":43.28925,"lon":5.38387,"is_reserved":false,"is_disabled":false,"rental_uris":{"android":"levelo://app?vid=b662a697-8f40-4ab5-85b6-65442d9227e9","ios":"levelo://app?vid=b662a697-8f40-4ab5-85b6-65442d9227e9"},"vehicle_type_id":"4","last_reported":1728637809,"current_range_meters":38400,"station_id":"ce4bh612rcd13ifvqe6g","pricing_plan_id":"cebpf4jnsgd1na2vs0mg"},{"bike_id":"f80c2e75-b47f-4161-9783-8454957aba75","system_id":"levelo_inurba_marseille","lat":43.32108,"lon":5.36767,"is_reserved":false,"is_disabled":false,"rental_uris":{"android":"levelo://app?vid=f80c2e75-b47f-4161-9783-8454957aba75","ios":"levelo://app?vid=f80c2e75-b47f-4161-9783-8454957aba75"},"vehicle_type_id":"4","last_reported":1728637809,"current_range_meters":5600,"station_id":"ce4bhrh2rcd13ifvqhug","pricing_plan_id":"cebpf4jnsgd1na2vs0mg"},{"bike_id":"18bef7fb-5b8c-4c61-9fdf-ed85e58ea64a","system_id":"levelo_inurba_marseille","lat":43.28458,"lon":5.35888,"is_reserved":false,"is_disabled":false,"rental_uris":{"android":"levelo://app?vid=18bef7fb-5b8c-4c61-9fdf-ed85e58ea64a","ios":"levelo://app?vid=18bef7fb-5b8c-4c61-9fdf-ed85e58ea64a"},"vehicle_type_id":"4","last_reported":1728637809,"current_range_meters":33600,"station_id":"ce4bhah2rcd13ifvqei0","pricing_plan_id":"cebpf4jnsgd1na2vs0mg"},{"bike_id":"7cbd71f4-cef0-41ea-b8d7-9bda6c58e1d5","system_id":"levelo_inurba_marseille","lat":43.2794,"lon":5.41044,"is_reserved":false,"is_disabled":false,"rental_uris":{"android":"levelo://app?vid=7cbd71f4-cef0-41ea-b8d7-9bda6c58e1d5","ios":"levelo://app?vid=7cbd71f4-cef0-41ea-b8d7-9bda6c58e1d5"},"vehicle_type_id":"4","last_reported":1728637809,"current_range_meters":16800,"station_id":"ce4bhnp2rcd13ifvqh0g","pricing_plan_id":"cebpf4jnsgd1na2vs0mg"},{"bike_id":"7c603d15-6dad-4d4c-81c9-2d22912e3ceb","system_id":"levelo_inurba_marseille","lat":43.29364,"lon":5.37832,"is_reserved":false,"is_disabled":false,"rental_uris":{"android":"levelo://app?vid=7c603d15-6dad-4d4c-81c9-2d22912e3ceb","ios":"levelo://app?vid=7c603d15-6dad-4d4c-81c9-2d22912e3ceb"},"vehicle_type_id":"4","last_reported":1728637809,"current_range_meters":38800,"station_id":"ce4bgjh2rcd13ifvqbf0","pricing_plan_id":"cebpf4jnsgd1na2vs0mg"},{"bike_id":"0b5b3704-17fc-4599-a425-4a7cb06c8b32","system_id":"levelo_inurba_marseille","lat":43.245375,"lon":5.441911,"is_reserved":false,"is_disabled":false,"rental_uris":{"android":"levelo://app?vid=0b5b3704-17fc-4599-a425-4a7cb06c8b32","ios":"levelo://app?vid=0b5b3704-17fc-4599-a425-4a7cb06c8b32"},"vehicle_type_id":"4","last_reported":1728637809,"current_range_meters":30000,"station_id":"","pricing_plan_id":"cebpf4jnsgd1na2vs0mg"},{"bike_id":"094f27a8-0ae0-45f6-a946-b4e9fed288f7","system_id":"levelo_inurba_marseille","lat":43.26947,"lon":5.38641,"is_reserved":false,"is_disabled":false,"rental_uris":{"android":"levelo://app?vid=094f27a8-0ae0-45f6-a946-b4e9fed288f7","ios":"levelo://app?vid=094f27a8-0ae0-45f6-a946-b4e9fed288f7"},"vehicle_type_id":"4","last_reported":1728637809,"current_range_meters":33200,"station_id":"ce4bhh92rcd13ifvqfh0","pricing_plan_id":"cebpf4jnsgd1na2vs0mg"},{"bike_id":"68f80261-7865-4cf1-b41a-e63d89c761c3","system_id":"levelo_inurba_marseille","lat":43.27206,"lon":5.3918,"is_reserved":false,"is_disabled":false,"rental_uris":{"android":"levelo://app?vid=68f80261-7865-4cf1-b41a-e63d89c761c3","ios":"levelo://app?vid=68f80261-7865-4cf1-b41a-e63d89c761c3"},"vehicle_type_id":"4","last_reported":1728637809,"current_range_meters":27200,"station_id":"ce4bhhp2rcd13ifvqfm0","pricing_plan_id":"cebpf4jnsgd1na2vs0mg"},{"bike_id":"a9a9c221-5070-4158-8cfd-fdde4b98e8f7","system_id":"levelo_inurba_marseille","lat":43.23184,"lon":5.39977,"is_reserved":false,"is_disabled":false,"rental_uris":{"android":"levelo://app?vid=a9a9c221-5070-4158-8cfd-fdde4b98e8f7","ios":"levelo://app?vid=a9a9c221-5070-4158-8cfd-fdde4b98e8f7"},"vehicle_type_id":"4","last_reported":1728637809,"current_range_meters":8000,"station_id":"ce4bhn12rcd13ifvqgqg","pricing_plan_id":"cebpf4jnsgd1na2vs0mg"},{"bike_id":"608abe2b-e6c6-4788-a441-a4579be1f717","system_id":"levelo_inurba_marseille","lat":43.29575,"lon":5.36735,"is_reserved":false,"is_disabled":false,"rental_uris":{"android":"levelo://app?vid=608abe2b-e6c6-4788-a441-a4579be1f717","ios":"levelo://app?vid=608abe2b-e6c6-4788-a441-a4579be1f717"},"vehicle_type_id":"4","last_reported":1728637809,"current_range_meters":6800,"station_id":"ce4bgph2rcd13ifvqc2g","pricing_plan_id":"cebpf4jnsgd1na2vs0mg"},{"bike_id":"aea5ff72-47c5-4fe1-a025-5ecb93309ff2","system_id":"levelo_inurba_marseille","lat":43.27068,"lon":5.4228,"is_reserved":false,"is_disabled":false,"rental_uris":{"android":"levelo://app?vid=aea5ff72-47c5-4fe1-a025-5ecb93309ff2","ios":"levelo://app?vid=aea5ff72-47c5-4fe1-a025-5ecb93309ff2"},"vehicle_type_id":"4","last_reported":1728637809,"current_range_meters":8800,"station_id":"ce4bhk92rcd13ifvqgb0","pricing_plan_id":"cebpf4jnsgd1na2vs0mg"},{"bike_id":"b933402b-d1ca-49a8-bbf7-fb19281d941c","system_id":"levelo_inurba_marseille","lat":43.2319,"lon":5.35554,"is_reserved":false,"is_disabled":false,"rental_uris":{"android":"levelo://app?vid=b933402b-d1ca-49a8-bbf7-fb19281d941c","ios":"levelo://app?vid=b933402b-d1ca-49a8-bbf7-fb19281d941c"},"vehicle_type_id":"4","last_reported":1728637809,"current_range_meters":38400,"station_id":"ce4bhu92rcd13ifvqi70","pricing_plan_id":"cebpf4jnsgd1na2vs0mg"},{"bike_id":"f5025c91-10ce-417c-b0cc-aa63fb454c26","system_id":"levelo_inurba_marseille","lat":43.24654,"lon":5.38894,"is_reserved":false,"is_disabled":false,"rental_uris":{"android":"levelo://app?vid=f5025c91-10ce-417c-b0cc-aa63fb454c26","ios":"levelo://app?vid=f5025c91-10ce-417c-b0cc-aa63fb454c26"},"vehicle_type_id":"4","last_reported":1728637809,"current_range_meters":36000,"station_id":"ce4bhg12rcd13ifvqf60","pricing_plan_id":"cebpf4jnsgd1na2vs0mg"},{"bike_id":"c2aa5632-0343-4f3e-bf1c-87dfcffb0325","system_id":"levelo_inurba_marseille","lat":43.30458,"lon":5.39757,"is_reserved":false,"is_disabled":false,"rental_uris":{"android":"levelo://app?vid=c2aa5632-0343-4f3e-bf1c-87dfcffb0325","ios":"levelo://app?vid=c2aa5632-0343-4f3e-bf1c-87dfcffb0325"},"vehicle_type_id":"4","last_reported":1728637809,"current_range_meters":38000,"station_id":"ce4bgvp2rcd13ifvqcu0","pricing_plan_id":"cebpf4jnsgd1na2vs0mg"},{"bike_id":"1bf39129-7013-4caa-8d33-ef279b792ee7","system_id":"levelo_inurba_marseille","lat":43.25575,"lon":5.38239,"is_reserved":false,"is_disabled":false,"rental_uris":{"android":"levelo://app?vid=1bf39129-7013-4caa-8d33-ef279b792ee7","ios":"levelo://app?vid=1bf39129-7013-4caa-8d33-ef279b792ee7"},"vehicle_type_id":"4","last_reported":1728637809,"current_range_meters":8000,"station_id":"ce4bhih2rcd13ifvqfs0","pricing_plan_id":"cebpf4jnsgd1na2vs0mg"},{"bike_id":"e0e54892-9e24-42b9-8b78-0c7ef30b1879","system_id":"levelo_inurba_marseille","lat":43.29579,"lon":5.37504,"is_reserved":false,"is_disabled":false,"rental_uris":{"android":"levelo://app?vid=e0e54892-9e24-42b9-8b78-0c7ef30b1879","ios":"levelo://app?vid=e0e54892-9e24-42b9-8b78-0c7ef30b1879"},"vehicle_type_id":"4","last_reported":1728637809,"current_range_meters":20000,"station_id":"ce4bgh92rcd13ifvqb50","pricing_plan_id":"cebpf4jnsgd1na2vs0mg"},{"bike_id":"b599186e-3d14-4361-942b-54c26c5aff27","system_id":"levelo_inurba_marseille","lat":43.2984,"lon":5.36269,"is_reserved":false,"is_disabled":false,"rental_uris":{"android":"levelo://app?vid=b599186e-3d14-4361-942b-54c26c5aff27","ios":"levelo://app?vid=b599186e-3d14-4361-942b-54c26c5aff27"},"vehicle_type_id":"4","last_reported":1728637809,"current_range_meters":30400,"station_id":"ce4bgpp2rcd13ifvqc3g","pricing_plan_id":"cebpf4jnsgd1na2vs0mg"},{"bike_id":"86a17ff7-b397-49c1-a4c7-be0dc4b9a849","system_id":"levelo_inurba_marseille","lat":43.28478,"lon":5.38417,"is_reserved":false,"is_disabled":false,"rental_uris":{"android":"levelo://app?vid=86a17ff7-b397-49c1-a4c7-be0dc4b9a849","ios":"levelo://app?vid=86a17ff7-b397-49c1-a4c7-be0dc4b9a849"},"vehicle_type_id":"4","last_reported":1728637809,"current_range_meters":38800,"station_id":"ce4bh512rcd13ifvqe3g","pricing_plan_id":"cebpf4jnsgd1na2vs0mg"},{"bike_id":"31976e81-9cc0-455d-93cf-052ff67948dc","system_id":"levelo_inurba_marseille","lat":43.27051,"lon":5.40259,"is_reserved":false,"is_disabled":false,"rental_uris":{"android":"levelo://app?vid=31976e81-9cc0-455d-93cf-052ff67948dc","ios":"levelo://app?vid=31976e81-9cc0-455d-93cf-052ff67948dc"},"vehicle_type_id":"4","last_reported":1728637809,"current_range_meters":11600,"station_id":"ce4bhk92rcd13ifvqgc0","pricing_plan_id":"cebpf4jnsgd1na2vs0mg"},{"bike_id":"25f5ad3f-b338-4c25-bbde-1e49cca3a07c","system_id":"levelo_inurba_marseille","lat":43.27804,"lon":5.407127,"is_reserved":false,"is_disabled":false,"rental_uris":{"android":"levelo://app?vid=25f5ad3f-b338-4c25-bbde-1e49cca3a07c","ios":"levelo://app?vid=25f5ad3f-b338-4c25-bbde-1e49cca3a07c"},"vehicle_type_id":"4","last_reported":1728637809,"current_range_meters":33600,"station_id":"ce4bhnh2rcd13ifvqgtg","pricing_plan_id":"cebpf4jnsgd1na2vs0mg"},{"bike_id":"f5bc53fb-4be7-4462-8efb-e3a87649f7e1","system_id":"levelo_inurba_marseille","lat":43.28472,"lon":5.38416,"is_reserved":false,"is_disabled":false,"rental_uris":{"android":"levelo://app?vid=f5bc53fb-4be7-4462-8efb-e3a87649f7e1","ios":"levelo://app?vid=f5bc53fb-4be7-4462-8efb-e3a87649f7e1"},"vehicle_type_id":"4","last_reported":1728637809,"current_range_meters":26800,"station_id":"ce4bh512rcd13ifvqe3g","pricing_plan_id":"cebpf4jnsgd1na2vs0mg"},{"bike_id":"1e2b2861-7287-41f4-b0d5-46f398bb9db4","system_id":"levelo_inurba_marseille","lat":43.29584,"lon":5.36736,"is_reserved":false,"is_disabled":false,"rental_uris":{"android":"levelo://app?vid=1e2b2861-7287-41f4-b0d5-46f398bb9db4","ios":"levelo://app?vid=1e2b2861-7287-41f4-b0d5-46f398bb9db4"},"vehicle_type_id":"4","last_reported":1728637809,"current_range_meters":3600,"station_id":"ce4bgph2rcd13ifvqc2g","pricing_plan_id":"cebpf4jnsgd1na2vs0mg"},{"bike_id":"d479b2a9-b82e-47e5-9ee8-9a8383e6fda4","system_id":"levelo_inurba_marseille","lat":43.29556,"lon":5.42292,"is_reserved":false,"is_disabled":false,"rental_uris":{"android":"levelo://app?vid=d479b2a9-b82e-47e5-9ee8-9a8383e6fda4","ios":"levelo://app?vid=d479b2a9-b82e-47e5-9ee8-9a8383e6fda4"},"vehicle_type_id":"4","last_reported":1728637809,"current_range_meters":30000,"station_id":"ce4bhph2rcd13ifvqhdg","pricing_plan_id":"cebpf4jnsgd1na2vs0mg"},{"bike_id":"1430f6f2-73dd-42ca-8307-5f209eb4a512","system_id":"levelo_inurba_marseille","lat":43.29443,"lon":5.37616,"is_reserved":false,"is_disabled":false,"rental_uris":{"android":"levelo://app?vid=1430f6f2-73dd-42ca-8307-5f209eb4a512","ios":"levelo://app?vid=1430f6f2-73dd-42ca-8307-5f209eb4a512"},"vehicle_type_id":"4","last_reported":1728637809,"current_range_meters":8000,"station_id":"","pricing_plan_id":"cebpf4jnsgd1na2vs0mg"},{"bike_id":"e8a44845-8b8c-4f0e-b1b3-e7d7dc6ac991","system_id":"levelo_inurba_marseille","lat":43.28151,"lon":5.42648,"is_reserved":false,"is_disabled":false,"rental_uris":{"android":"levelo://app?vid=e8a44845-8b8c-4f0e-b1b3-e7d7dc6ac991","ios":"levelo://app?vid=e8a44845-8b8c-4f0e-b1b3-e7d7dc6ac991"},"vehicle_type_id":"4","last_reported":1728637809,"current_range_meters":10800,"station_id":"ce4bhnh2rcd13ifvqgug","pricing_plan_id":"cebpf4jnsgd1na2vs0mg"},{"bike_id":"484a4c63-4ef1-4433-b27a-9a9ca5ad2f9a","system_id":"levelo_inurba_marseille","lat":43.22932,"lon":5.35371,"is_reserved":false,"is_disabled":false,"rental_uris":{"android":"levelo://app?vid=484a4c63-4ef1-4433-b27a-9a9ca5ad2f9a","ios":"levelo://app?vid=484a4c63-4ef1-4433-b27a-9a9ca5ad2f9a"},"vehicle_type_id":"4","last_reported":1728637809,"current_range_meters":17200,"station_id":"cpo3532slgdg3j2ikp40","pricing_plan_id":"cebpf4jnsgd1na2vs0mg"},{"bike_id":"bf9a8dbd-a3ff-4226-a25b-1015d3103cd4","system_id":"levelo_inurba_marseille","lat":43.3035,"lon":5.41873,"is_reserved":false,"is_disabled":false,"rental_uris":{"android":"levelo://app?vid=bf9a8dbd-a3ff-4226-a25b-1015d3103cd4","ios":"levelo://app?vid=bf9a8dbd-a3ff-4226-a25b-1015d3103cd4"},"vehicle_type_id":"4","last_reported":1728637809,"current_range_meters":4000,"station_id":"ce4bhop2rcd13ifvqh7g","pricing_plan_id":"cebpf4jnsgd1na2vs0mg"},{"bike_id":"514df2f7-0a1f-47fb-bf7d-3f7f0bf83196","system_id":"levelo_inurba_marseille","lat":43.286957,"lon":5.399864,"is_reserved":false,"is_disabled":false,"rental_uris":{"android":"levelo://app?vid=514df2f7-0a1f-47fb-bf7d-3f7f0bf83196","ios":"levelo://app?vid=514df2f7-0a1f-47fb-bf7d-3f7f0bf83196"},"vehicle_type_id":"4","last_reported":1728637809,"current_range_meters":37600,"station_id":"ce4bho92rcd13ifvqh3g","pricing_plan_id":"cebpf4jnsgd1na2vs0mg"},{"bike_id":"6b93c72e-f7b4-415b-b9c6-a8d7d1722493","system_id":"levelo_inurba_marseille","lat":43.232635,"lon":5.436039,"is_reserved":false,"is_disabled":false,"rental_uris":{"android":"levelo://app?vid=6b93c72e-f7b4-415b-b9c6-a8d7d1722493","ios":"levelo://app?vid=6b93c72e-f7b4-415b-b9c6-a8d7d1722493"},"vehicle_type_id":"4","last_reported":1728637809,"current_range_meters":24400,"station_id":"ce4bhmp2rcd13ifvqgog","pricing_plan_id":"cebpf4jnsgd1na2vs0mg"},{"bike_id":"77d13cda-27f2-4024-8daa-784aa417f74a","system_id":"levelo_inurba_marseille","lat":43.23189,"lon":5.39975,"is_reserved":false,"is_disabled":false,"rental_uris":{"android":"levelo://app?vid=77d13cda-27f2-4024-8daa-784aa417f74a","ios":"levelo://app?vid=77d13cda-27f2-4024-8daa-784aa417f74a"},"vehicle_type_id":"4","last_reported":1728637809,"current_range_meters":15200,"station_id":"ce4bhn12rcd13ifvqgqg","pricing_plan_id":"cebpf4jnsgd1na2vs0mg"},{"bike_id":"544afb48-1f79-4020-a327-5b6a2938dd06","system_id":"levelo_inurba_marseille","lat":43.24644,"lon":5.38897,"is_reserved":false,"is_disabled":false,"rental_uris":{"android":"levelo://app?vid=544afb48-1f79-4020-a327-5b6a2938dd06","ios":"levelo://app?vid=544afb48-1f79-4020-a327-5b6a2938dd06"},"vehicle_type_id":"4","last_reported":1728637809,"current_range_meters":15200,"station_id":"ce4bhg12rcd13ifvqf60","pricing_plan_id":"cebpf4jnsgd1na2vs0mg"},{"bike_id":"bbbbc871-92da-4653-aa76-f59be91aa962","system_id":"levelo_inurba_marseille","lat":43.30537,"lon":5.36545,"is_reserved":false,"is_disabled":false,"rental_uris":{"android":"levelo://app?vid=bbbbc871-92da-4653-aa76-f59be91aa962","ios":"levelo://app?vid=bbbbc871-92da-4653-aa76-f59be91aa962"},"vehicle_type_id":"4","last_reported":1728637809,"current_range_meters":24000,"station_id":"ce4bgs12rcd13ifvqcag","pricing_plan_id":"cebpf4jnsgd1na2vs0mg"},{"bike_id":"380db172-78be-4e4f-b52e-f8369320be95","system_id":"levelo_inurba_marseille","lat":43.28475,"lon":5.38413,"is_reserved":false,"is_disabled":false,"rental_uris":{"android":"levelo://app?vid=380db172-78be-4e4f-b52e-f8369320be95","ios":"levelo://app?vid=380db172-78be-4e4f-b52e-f8369320be95"},"vehicle_type_id":"4","last_reported":1728637809,"current_range_meters":38800,"station_id":"ce4bh512rcd13ifvqe3g","pricing_plan_id":"cebpf4jnsgd1na2vs0mg"},{"bike_id":"65987b29-aa2c-4733-be91-82374c8ff43b","system_id":"levelo_inurba_marseille","lat":43.2749,"lon":5.42459,"is_reserved":false,"is_disabled":false,"rental_uris":{"android":"levelo://app?vid=65987b29-aa2c-4733-be91-82374c8ff43b","ios":"levelo://app?vid=65987b29-aa2c-4733-be91-82374c8ff43b"},"vehicle_type_id":"4","last_reported":1728637809,"current_range_meters":6400,"station_id":"ce4bhn92rcd13ifvqgrg","pricing_plan_id":"cebpf4jnsgd1na2vs0mg"},{"bike_id":"1a77e98a-356c-44c1-a180-5d2a812667a3","system_id":"levelo_inurba_marseille","lat":43.29822,"lon":5.38102,"is_reserved":false,"is_disabled":false,"rental_uris":{"android":"levelo://app?vid=1a77e98a-356c-44c1-a180-5d2a812667a3","ios":"levelo://app?vid=1a77e98a-356c-44c1-a180-5d2a812667a3"},"vehicle_type_id":"4","last_reported":1728637809,"current_range_meters":31200,"station_id":"ce4bgip2rcd13ifvqbb0","pricing_plan_id":"cebpf4jnsgd1na2vs0mg"},{"bike_id":"c92fba34-aea6-4d2c-b710-21b825d7faaa","system_id":"levelo_inurba_marseille","lat":43.305418,"lon":5.367125,"is_reserved":false,"is_disabled":false,"rental_uris":{"android":"levelo://app?vid=c92fba34-aea6-4d2c-b710-21b825d7faaa","ios":"levelo://app?vid=c92fba34-aea6-4d2c-b710-21b825d7faaa"},"vehicle_type_id":"4","last_reported":1728637809,"current_range_meters":39200,"station_id":"ce4bgrp2rcd13ifvqc9g","pricing_plan_id":"cebpf4jnsgd1na2vs0mg"},{"bike_id":"016cc7db-a2a8-4cef-b1be-651ffed90720","system_id":"levelo_inurba_marseille","lat":43.32525,"lon":5.41436,"is_reserved":false,"is_disabled":false,"rental_uris":{"android":"levelo://app?vid=016cc7db-a2a8-4cef-b1be-651ffed90720","ios":"levelo://app?vid=016cc7db-a2a8-4cef-b1be-651ffed90720"},"vehicle_type_id":"4","last_reported":1728637809,"current_range_meters":8400,"station_id":"ce4bhq12rcd13ifvqhhg","pricing_plan_id":"cebpf4jnsgd1na2vs0mg"},{"bike_id":"b9ead9a5-f02a-4963-b5ff-bbd5ac1faa80","system_id":"levelo_inurba_marseille","lat":43.30903,"lon":5.36857,"is_reserved":false,"is_disabled":false,"rental_uris":{"android":"levelo://app?vid=b9ead9a5-f02a-4963-b5ff-bbd5ac1faa80","ios":"levelo://app?vid=b9ead9a5-f02a-4963-b5ff-bbd5ac1faa80"},"vehicle_type_id":"4","last_reported":1728637809,"current_range_meters":24400,"station_id":"ce4bgn92rcd13ifvqbvg","pricing_plan_id":"cebpf4jnsgd1na2vs0mg"},{"bike_id":"85e864a9-04e5-46b9-a0fd-716fb158861e","system_id":"levelo_inurba_marseille","lat":43.250001,"lon":5.389259,"is_reserved":false,"is_disabled":false,"rental_uris":{"android":"levelo://app?vid=85e864a9-04e5-46b9-a0fd-716fb158861e","ios":"levelo://app?vid=85e864a9-04e5-46b9-a0fd-716fb158861e"},"vehicle_type_id":"4","last_reported":1728637809,"current_range_meters":30400,"station_id":"ce4bhgp2rcd13ifvqfd0","pricing_plan_id":"cebpf4jnsgd1na2vs0mg"},{"bike_id":"579714a2-42ad-4bce-ae20-3427065d8cb8","system_id":"levelo_inurba_marseille","lat":43.2836,"lon":5.38628,"is_reserved":false,"is_disabled":false,"rental_uris":{"android":"levelo://app?vid=579714a2-42ad-4bce-ae20-3427065d8cb8","ios":"levelo://app?vid=579714a2-42ad-4bce-ae20-3427065d8cb8"},"vehicle_type_id":"4","last_reported":1728637809,"current_range_meters":8800,"station_id":"ce4bh492rcd13ifvqdvg","pricing_plan_id":"cebpf4jnsgd1na2vs0mg"},{"bike_id":"5a5649e8-a9bc-4d0f-be41-ed6fc56a9baf","system_id":"levelo_inurba_marseille","lat":43.22925,"lon":5.35374,"is_reserved":false,"is_disabled":false,"rental_uris":{"android":"levelo://app?vid=5a5649e8-a9bc-4d0f-be41-ed6fc56a9baf","ios":"levelo://app?vid=5a5649e8-a9bc-4d0f-be41-ed6fc56a9baf"},"vehicle_type_id":"4","last_reported":1728637809,"current_range_meters":37600,"station_id":"cpo3532slgdg3j2ikp40","pricing_plan_id":"cebpf4jnsgd1na2vs0mg"},{"bike_id":"4d80ff99-3d68-46ff-b173-ab6806ac288c","system_id":"levelo_inurba_marseille","lat":43.2668,"lon":5.38264,"is_reserved":false,"is_disabled":false,"rental_uris":{"android":"levelo://app?vid=4d80ff99-3d68-46ff-b173-ab6806ac288c","ios":"levelo://app?vid=4d80ff99-3d68-46ff-b173-ab6806ac288c"},"vehicle_type_id":"4","last_reported":1728637809,"current_range_meters":39200,"station_id":"ce4bhg92rcd13ifvqf90","pricing_plan_id":"cebpf4jnsgd1na2vs0mg"},{"bike_id":"104dce3b-2862-44f7-bb64-f1cb1800c635","system_id":"levelo_inurba_marseille","lat":43.33605,"lon":5.41031,"is_reserved":false,"is_disabled":false,"rental_uris":{"android":"levelo://app?vid=104dce3b-2862-44f7-bb64-f1cb1800c635","ios":"levelo://app?vid=104dce3b-2862-44f7-bb64-f1cb1800c635"},"vehicle_type_id":"4","last_reported":1728637809,"current_range_meters":39200,"station_id":"ce4bhqh2rcd13ifvqhmg","pricing_plan_id":"cebpf4jnsgd1na2vs0mg"},{"bike_id":"f0434810-a555-42c3-b13e-8b05b41ed638","system_id":"levelo_inurba_marseille","lat":43.24088,"lon":5.37746,"is_reserved":false,"is_disabled":false,"rental_uris":{"android":"levelo://app?vid=f0434810-a555-42c3-b13e-8b05b41ed638","ios":"levelo://app?vid=f0434810-a555-42c3-b13e-8b05b41ed638"},"vehicle_type_id":"4","last_reported":1728637809,"current_range_meters":22800,"station_id":"ce4bhnp2rcd13ifvqgvg","pricing_plan_id":"cebpf4jnsgd1na2vs0mg"},{"bike_id":"6ff1e6e3-23b7-4d88-8066-c74fd4d12231","system_id":"levelo_inurba_marseille","lat":43.2466,"lon":5.38165,"is_reserved":false,"is_disabled":false,"rental_uris":{"android":"levelo://app?vid=6ff1e6e3-23b7-4d88-8066-c74fd4d12231","ios":"levelo://app?vid=6ff1e6e3-23b7-4d88-8066-c74fd4d12231"},"vehicle_type_id":"4","last_reported":1728637809,"current_range_meters":35600,"station_id":"ce4bhih2rcd13ifvqfr0","pricing_plan_id":"cebpf4jnsgd1na2vs0mg"},{"bike_id":"df97f6ce-50ef-4e46-9e5e-930330d7e696","system_id":"levelo_inurba_marseille","lat":43.25925,"lon":5.4091,"is_reserved":false,"is_disabled":false,"rental_uris":{"android":"levelo://app?vid=df97f6ce-50ef-4e46-9e5e-930330d7e696","ios":"levelo://app?vid=df97f6ce-50ef-4e46-9e5e-930330d7e696"},"vehicle_type_id":"4","last_reported":1728637809,"current_range_meters":17600,"station_id":"ce4bhm92rcd13ifvqglg","pricing_plan_id":"cebpf4jnsgd1na2vs0mg"},{"bike_id":"2f1b88ce-1c4f-416e-bf39-e8dab48e55a1","system_id":"levelo_inurba_marseille","lat":43.30351,"lon":5.41871,"is_reserved":false,"is_disabled":false,"rental_uris":{"android":"levelo://app?vid=2f1b88ce-1c4f-416e-bf39-e8dab48e55a1","ios":"levelo://app?vid=2f1b88ce-1c4f-416e-bf39-e8dab48e55a1"},"vehicle_type_id":"4","last_reported":1728637809,"current_range_meters":35200,"station_id":"ce4bhop2rcd13ifvqh7g","pricing_plan_id":"cebpf4jnsgd1na2vs0mg"},{"bike_id":"e20677fd-f85e-48f9-9ca6-1a9d3ac6f403","system_id":"levelo_inurba_marseille","lat":43.305263,"lon":5.384233,"is_reserved":false,"is_disabled":false,"rental_uris":{"android":"levelo://app?vid=e20677fd-f85e-48f9-9ca6-1a9d3ac6f403","ios":"levelo://app?vid=e20677fd-f85e-48f9-9ca6-1a9d3ac6f403"},"vehicle_type_id":"4","last_reported":1728637809,"current_range_meters":33600,"station_id":"ce4bgg92rcd13ifvqb30","pricing_plan_id":"cebpf4jnsgd1na2vs0mg"},{"bike_id":"54450814-df47-4d6d-a7d4-7b81546d0d48","system_id":"levelo_inurba_marseille","lat":43.24991,"lon":5.38935,"is_reserved":false,"is_disabled":false,"rental_uris":{"android":"levelo://app?vid=54450814-df47-4d6d-a7d4-7b81546d0d48","ios":"levelo://app?vid=54450814-df47-4d6d-a7d4-7b81546d0d48"},"vehicle_type_id":"4","last_reported":1728637809,"current_range_meters":27200,"station_id":"ce4bhgp2rcd13ifvqfd0","pricing_plan_id":"cebpf4jnsgd1na2vs0mg"},{"bike_id":"552d576d-c4ca-4667-b9fd-ec397d26150e","system_id":"levelo_inurba_marseille","lat":43.30944,"lon":5.39027,"is_reserved":false,"is_disabled":false,"rental_uris":{"android":"levelo://app?vid=552d576d-c4ca-4667-b9fd-ec397d26150e","ios":"levelo://app?vid=552d576d-c4ca-4667-b9fd-ec397d26150e"},"vehicle_type_id":"4","last_reported":1728637809,"current_range_meters":20000,"station_id":"ce4bgup2rcd13ifvqco0","pricing_plan_id":"cebpf4jnsgd1na2vs0mg"},{"bike_id":"8fb2b431-bcb9-46ba-80fb-e26e84592fc5","system_id":"levelo_inurba_marseille","lat":43.23188,"lon":5.35553,"is_reserved":false,"is_disabled":false,"rental_uris":{"android":"levelo://app?vid=8fb2b431-bcb9-46ba-80fb-e26e84592fc5","ios":"levelo://app?vid=8fb2b431-bcb9-46ba-80fb-e26e84592fc5"},"vehicle_type_id":"4","last_reported":1728637809,"current_range_meters":36800,"station_id":"ce4bhu92rcd13ifvqi70","pricing_plan_id":"cebpf4jnsgd1na2vs0mg"},{"bike_id":"0505e1cf-8f9b-4c0d-af15-071b9742f141","system_id":"levelo_inurba_marseille","lat":43.24084,"lon":5.37752,"is_reserved":false,"is_disabled":false,"rental_uris":{"android":"levelo://app?vid=0505e1cf-8f9b-4c0d-af15-071b9742f141","ios":"levelo://app?vid=0505e1cf-8f9b-4c0d-af15-071b9742f141"},"vehicle_type_id":"4","last_reported":1728637809,"current_range_meters":36400,"station_id":"ce4bhnp2rcd13ifvqgvg","pricing_plan_id":"cebpf4jnsgd1na2vs0mg"},{"bike_id":"424b5bca-9391-4a25-9b73-84cb97c4a95d","system_id":"levelo_inurba_marseille","lat":43.284779,"lon":5.384358,"is_reserved":false,"is_disabled":false,"rental_uris":{"android":"levelo://app?vid=424b5bca-9391-4a25-9b73-84cb97c4a95d","ios":"levelo://app?vid=424b5bca-9391-4a25-9b73-84cb97c4a95d"},"vehicle_type_id":"4","last_reported":1728637809,"current_range_meters":17600,"station_id":"ce4bh512rcd13ifvqe3g","pricing_plan_id":"cebpf4jnsgd1na2vs0mg"},{"bike_id":"0001886a-fc99-4b51-b97b-0a2db99d1ee4","system_id":"levelo_inurba_marseille","lat":43.26939,"lon":5.38629,"is_reserved":false,"is_disabled":false,"rental_uris":{"android":"levelo://app?vid=0001886a-fc99-4b51-b97b-0a2db99d1ee4","ios":"levelo://app?vid=0001886a-fc99-4b51-b97b-0a2db99d1ee4"},"vehicle_type_id":"4","last_reported":1728637809,"current_range_meters":7200,"station_id":"ce4bhh92rcd13ifvqfh0","pricing_plan_id":"cebpf4jnsgd1na2vs0mg"},{"bike_id":"bb071bcd-2f53-415d-94b0-d7c42ca3770b","system_id":"levelo_inurba_marseille","lat":43.3091,"lon":5.36856,"is_reserved":false,"is_disabled":false,"rental_uris":{"android":"levelo://app?vid=bb071bcd-2f53-415d-94b0-d7c42ca3770b","ios":"levelo://app?vid=bb071bcd-2f53-415d-94b0-d7c42ca3770b"},"vehicle_type_id":"4","last_reported":1728637809,"current_range_meters":38000,"station_id":"ce4bgn92rcd13ifvqbvg","pricing_plan_id":"cebpf4jnsgd1na2vs0mg"},{"bike_id":"36bce714-9268-4965-8bcb-2b55be54b262","system_id":"levelo_inurba_marseille","lat":43.302618,"lon":5.400692,"is_reserved":false,"is_disabled":false,"rental_uris":{"android":"levelo://app?vid=36bce714-9268-4965-8bcb-2b55be54b262","ios":"levelo://app?vid=36bce714-9268-4965-8bcb-2b55be54b262"},"vehicle_type_id":"4","last_reported":1728637809,"current_range_meters":38800,"station_id":"ce4bgvh2rcd13ifvqcs0","pricing_plan_id":"cebpf4jnsgd1na2vs0mg"},{"bike_id":"90f2ecaa-b005-44cd-baeb-fbbc685b37eb","system_id":"levelo_inurba_marseille","lat":43.26583,"lon":5.39035,"is_reserved":false,"is_disabled":false,"rental_uris":{"android":"levelo://app?vid=90f2ecaa-b005-44cd-baeb-fbbc685b37eb","ios":"levelo://app?vid=90f2ecaa-b005-44cd-baeb-fbbc685b37eb"},"vehicle_type_id":"4","last_reported":1728637809,"current_range_meters":38800,"station_id":"ce4bhe12rcd13ifvqf30","pricing_plan_id":"cebpf4jnsgd1na2vs0mg"},{"bike_id":"99e305c7-4107-43ac-b933-f31e349db727","system_id":"levelo_inurba_marseille","lat":43.299866,"lon":5.397888,"is_reserved":false,"is_disabled":false,"rental_uris":{"android":"levelo://app?vid=99e305c7-4107-43ac-b933-f31e349db727","ios":"levelo://app?vid=99e305c7-4107-43ac-b933-f31e349db727"},"vehicle_type_id":"4","last_reported":1728637809,"current_range_meters":18000,"station_id":"ce4bh9p2rcd13ifvqed0","pricing_plan_id":"cebpf4jnsgd1na2vs0mg"},{"bike_id":"2e57e480-a324-489b-8946-f7d9d9edcf00","system_id":"levelo_inurba_marseille","lat":43.33614,"lon":5.41027,"is_reserved":false,"is_disabled":false,"rental_uris":{"android":"levelo://app?vid=2e57e480-a324-489b-8946-f7d9d9edcf00","ios":"levelo://app?vid=2e57e480-a324-489b-8946-f7d9d9edcf00"},"vehicle_type_id":"4","last_reported":1728637809,"current_range_meters":39200,"station_id":"ce4bhqh2rcd13ifvqhmg","pricing_plan_id":"cebpf4jnsgd1na2vs0mg"},{"bike_id":"960082f3-c2cb-4dbd-af2b-bcb698245dec","system_id":"levelo_inurba_marseille","lat":43.28214,"lon":5.37906,"is_reserved":false,"is_disabled":false,"rental_uris":{"android":"levelo://app?vid=960082f3-c2cb-4dbd-af2b-bcb698245dec","ios":"levelo://app?vid=960082f3-c2cb-4dbd-af2b-bcb698245dec"},"vehicle_type_id":"4","last_reported":1728637809,"current_range_meters":2000,"station_id":"","pricing_plan_id":"cebpf4jnsgd1na2vs0mg"},{"bike_id":"edc976c4-a61b-4651-bb75-035f1fe9cfc3","system_id":"levelo_inurba_marseille","lat":43.23149,"lon":5.43724,"is_reserved":false,"is_disabled":false,"rental_uris":{"android":"levelo://app?vid=edc976c4-a61b-4651-bb75-035f1fe9cfc3","ios":"levelo://app?vid=edc976c4-a61b-4651-bb75-035f1fe9cfc3"},"vehicle_type_id":"4","last_reported":1728637809,"current_range_meters":17200,"station_id":"ce4bhmp2rcd13ifvqgog","pricing_plan_id":"cebpf4jnsgd1na2vs0mg"},{"bike_id":"b8a55e00-439a-4080-abe2-6f3d12cbfc09","system_id":"levelo_inurba_marseille","lat":43.27302,"lon":5.3908,"is_reserved":false,"is_disabled":false,"rental_uris":{"android":"levelo://app?vid=b8a55e00-439a-4080-abe2-6f3d12cbfc09","ios":"levelo://app?vid=b8a55e00-439a-4080-abe2-6f3d12cbfc09"},"vehicle_type_id":"4","last_reported":1728637809,"current_range_meters":6400,"station_id":"ce4bhgp2rcd13ifvqfe0","pricing_plan_id":"cebpf4jnsgd1na2vs0mg"},{"bike_id":"1c2cee1a-f346-4c9a-aed6-9d8fd625c746","system_id":"levelo_inurba_marseille","lat":43.288503,"lon":5.358336,"is_reserved":false,"is_disabled":false,"rental_uris":{"android":"levelo://app?vid=1c2cee1a-f346-4c9a-aed6-9d8fd625c746","ios":"levelo://app?vid=1c2cee1a-f346-4c9a-aed6-9d8fd625c746"},"vehicle_type_id":"4","last_reported":1728637809,"current_range_meters":30400,"station_id":"ce4bhb12rcd13ifvqem0","pricing_plan_id":"cebpf4jnsgd1na2vs0mg"},{"bike_id":"e60040c5-6499-47ec-b308-b61e476221da","system_id":"levelo_inurba_marseille","lat":43.29362,"lon":5.37846,"is_reserved":false,"is_disabled":false,"rental_uris":{"android":"levelo://app?vid=e60040c5-6499-47ec-b308-b61e476221da","ios":"levelo://app?vid=e60040c5-6499-47ec-b308-b61e476221da"},"vehicle_type_id":"4","last_reported":1728637809,"current_range_meters":27200,"station_id":"ce4bgjh2rcd13ifvqbf0","pricing_plan_id":"cebpf4jnsgd1na2vs0mg"},{"bike_id":"49ee55c5-54c7-4ee8-bfac-d986f1b16134","system_id":"levelo_inurba_marseille","lat":43.29292,"lon":5.37444,"is_reserved":false,"is_disabled":false,"rental_uris":{"android":"levelo://app?vid=49ee55c5-54c7-4ee8-bfac-d986f1b16134","ios":"levelo://app?vid=49ee55c5-54c7-4ee8-bfac-d986f1b16134"},"vehicle_type_id":"4","last_reported":1728637809,"current_range_meters":24000,"station_id":"ce4bgi12rcd13ifvqb70","pricing_plan_id":"cebpf4jnsgd1na2vs0mg"},{"bike_id":"68c9eb99-bb5d-4f70-9d1d-267866aae462","system_id":"levelo_inurba_marseille","lat":43.25124,"lon":5.40314,"is_reserved":false,"is_disabled":false,"rental_uris":{"android":"levelo://app?vid=68c9eb99-bb5d-4f70-9d1d-267866aae462","ios":"levelo://app?vid=68c9eb99-bb5d-4f70-9d1d-267866aae462"},"vehicle_type_id":"4","last_reported":1728637809,"current_range_meters":10000,"station_id":"ce4bhlh2rcd13ifvqgig","pricing_plan_id":"cebpf4jnsgd1na2vs0mg"},{"bike_id":"68674aea-8688-4c47-b75f-697b30ee7d9b","system_id":"levelo_inurba_marseille","lat":43.30953,"lon":5.39041,"is_reserved":false,"is_disabled":false,"rental_uris":{"android":"levelo://app?vid=68674aea-8688-4c47-b75f-697b30ee7d9b","ios":"levelo://app?vid=68674aea-8688-4c47-b75f-697b30ee7d9b"},"vehicle_type_id":"4","last_reported":1728637809,"current_range_meters":9600,"station_id":"ce4bgup2rcd13ifvqco0","pricing_plan_id":"cebpf4jnsgd1na2vs0mg"},{"bike_id":"a16567ee-8663-415e-88a2-3a019332e0dc","system_id":"levelo_inurba_marseille","lat":43.25574,"lon":5.38235,"is_reserved":false,"is_disabled":false,"rental_uris":{"android":"levelo://app?vid=a16567ee-8663-415e-88a2-3a019332e0dc","ios":"levelo://app?vid=a16567ee-8663-415e-88a2-3a019332e0dc"},"vehicle_type_id":"4","last_reported":1728637809,"current_range_meters":28800,"station_id":"ce4bhih2rcd13ifvqfs0","pricing_plan_id":"cebpf4jnsgd1na2vs0mg"},{"bike_id":"921c0842-7b8d-4d23-8f66-93d0c7d41208","system_id":"levelo_inurba_marseille","lat":43.28947,"lon":5.36628,"is_reserved":false,"is_disabled":false,"rental_uris":{"android":"levelo://app?vid=921c0842-7b8d-4d23-8f66-93d0c7d41208","ios":"levelo://app?vid=921c0842-7b8d-4d23-8f66-93d0c7d41208"},"vehicle_type_id":"4","last_reported":1728637809,"current_range_meters":38800,"station_id":"ce4bhap2rcd13ifvqek0","pricing_plan_id":"cebpf4jnsgd1na2vs0mg"},{"bike_id":"de204f37-9c78-4051-93c5-774e6b39f395","system_id":"levelo_inurba_marseille","lat":43.27648,"lon":5.38876,"is_reserved":false,"is_disabled":false,"rental_uris":{"android":"levelo://app?vid=de204f37-9c78-4051-93c5-774e6b39f395","ios":"levelo://app?vid=de204f37-9c78-4051-93c5-774e6b39f395"},"vehicle_type_id":"4","last_reported":1728637809,"current_range_meters":38800,"station_id":"","pricing_plan_id":"cebpf4jnsgd1na2vs0mg"},{"bike_id":"2abf1491-8ede-4e11-9180-d791c70c70ca","system_id":"levelo_inurba_marseille","lat":43.30082,"lon":5.3907,"is_reserved":false,"is_disabled":false,"rental_uris":{"android":"levelo://app?vid=2abf1491-8ede-4e11-9180-d791c70c70ca","ios":"levelo://app?vid=2abf1491-8ede-4e11-9180-d791c70c70ca"},"vehicle_type_id":"4","last_reported":1728637809,"current_range_meters":20400,"station_id":"ce4bh192rcd13ifvqdb0","pricing_plan_id":"cebpf4jnsgd1na2vs0mg"},{"bike_id":"aa75c41c-1391-4d5a-b0ad-fb29c317877d","system_id":"levelo_inurba_marseille","lat":43.23063,"lon":5.35493,"is_reserved":false,"is_disabled":false,"rental_uris":{"android":"levelo://app?vid=aa75c41c-1391-4d5a-b0ad-fb29c317877d","ios":"levelo://app?vid=aa75c41c-1391-4d5a-b0ad-fb29c317877d"},"vehicle_type_id":"4","last_reported":1728637809,"current_range_meters":7200,"station_id":"cpo3342slgdg3j2ifvpg","pricing_plan_id":"cebpf4jnsgd1na2vs0mg"},{"bike_id":"75694230-900d-4a20-bf22-8d3f46b3577f","system_id":"levelo_inurba_marseille","lat":43.29,"lon":5.3561,"is_reserved":false,"is_disabled":false,"rental_uris":{"android":"levelo://app?vid=75694230-900d-4a20-bf22-8d3f46b3577f","ios":"levelo://app?vid=75694230-900d-4a20-bf22-8d3f46b3577f"},"vehicle_type_id":"4","last_reported":1728637809,"current_range_meters":36000,"station_id":"ce4bhb92rcd13ifvqen0","pricing_plan_id":"cebpf4jnsgd1na2vs0mg"},{"bike_id":"773b10cd-4140-4e1a-af4b-72bc0c858471","system_id":"levelo_inurba_marseille","lat":43.31351,"lon":5.36708,"is_reserved":false,"is_disabled":false,"rental_uris":{"android":"levelo://app?vid=773b10cd-4140-4e1a-af4b-72bc0c858471","ios":"levelo://app?vid=773b10cd-4140-4e1a-af4b-72bc0c858471"},"vehicle_type_id":"4","last_reported":1728637809,"current_range_meters":36800,"station_id":"ce4bgr92rcd13ifvqc6g","pricing_plan_id":"cebpf4jnsgd1na2vs0mg"},{"bike_id":"5afdb8c9-d96d-4c0e-b591-d8ec4a6bd3ae","system_id":"levelo_inurba_marseille","lat":43.26945,"lon":5.3863,"is_reserved":false,"is_disabled":false,"rental_uris":{"android":"levelo://app?vid=5afdb8c9-d96d-4c0e-b591-d8ec4a6bd3ae","ios":"levelo://app?vid=5afdb8c9-d96d-4c0e-b591-d8ec4a6bd3ae"},"vehicle_type_id":"4","last_reported":1728637809,"current_range_meters":32000,"station_id":"ce4bhh92rcd13ifvqfh0","pricing_plan_id":"cebpf4jnsgd1na2vs0mg"},{"bike_id":"587e7843-2440-4b82-8eeb-1f23ea1ee6e5","system_id":"levelo_inurba_marseille","lat":43.27421,"lon":5.39409,"is_reserved":false,"is_disabled":false,"rental_uris":{"android":"levelo://app?vid=587e7843-2440-4b82-8eeb-1f23ea1ee6e5","ios":"levelo://app?vid=587e7843-2440-4b82-8eeb-1f23ea1ee6e5"},"vehicle_type_id":"4","last_reported":1728637809,"current_range_meters":38400,"station_id":"ce4bhdp2rcd13ifvqf20","pricing_plan_id":"cebpf4jnsgd1na2vs0mg"},{"bike_id":"6ac0c957-14ec-463a-9313-78cac548e912","system_id":"levelo_inurba_marseille","lat":43.30544,"lon":5.36699,"is_reserved":false,"is_disabled":false,"rental_uris":{"android":"levelo://app?vid=6ac0c957-14ec-463a-9313-78cac548e912","ios":"levelo://app?vid=6ac0c957-14ec-463a-9313-78cac548e912"},"vehicle_type_id":"4","last_reported":1728637809,"current_range_meters":30800,"station_id":"ce4bgrp2rcd13ifvqc9g","pricing_plan_id":"cebpf4jnsgd1na2vs0mg"},{"bike_id":"956bad1d-e2b5-457b-a72c-20ea6c6fa6ac","system_id":"levelo_inurba_marseille","lat":43.29621,"lon":5.37172,"is_reserved":false,"is_disabled":false,"rental_uris":{"android":"levelo://app?vid=956bad1d-e2b5-457b-a72c-20ea6c6fa6ac","ios":"levelo://app?vid=956bad1d-e2b5-457b-a72c-20ea6c6fa6ac"},"vehicle_type_id":"4","last_reported":1728637809,"current_range_meters":38800,"station_id":"ce4bgnh2rcd13ifvqc0g","pricing_plan_id":"cebpf4jnsgd1na2vs0mg"},{"bike_id":"215f7dd5-6c27-420c-899f-dd33221146a7","system_id":"levelo_inurba_marseille","lat":43.2315,"lon":5.43709,"is_reserved":false,"is_disabled":false,"rental_uris":{"android":"levelo://app?vid=215f7dd5-6c27-420c-899f-dd33221146a7","ios":"levelo://app?vid=215f7dd5-6c27-420c-899f-dd33221146a7"},"vehicle_type_id":"4","last_reported":1728637809,"current_range_meters":6800,"station_id":"ce4bhmp2rcd13ifvqgog","pricing_plan_id":"cebpf4jnsgd1na2vs0mg"},{"bike_id":"d4e7c199-5b07-4cc4-b4e1-e0fc91d98728","system_id":"levelo_inurba_marseille","lat":43.25579,"lon":5.38239,"is_reserved":false,"is_disabled":false,"rental_uris":{"android":"levelo://app?vid=d4e7c199-5b07-4cc4-b4e1-e0fc91d98728","ios":"levelo://app?vid=d4e7c199-5b07-4cc4-b4e1-e0fc91d98728"},"vehicle_type_id":"4","last_reported":1728637809,"current_range_meters":38000,"station_id":"ce4bhih2rcd13ifvqfs0","pricing_plan_id":"cebpf4jnsgd1na2vs0mg"},{"bike_id":"b1009450-6152-462c-a724-90df51eeb6db","system_id":"levelo_inurba_marseille","lat":43.32382,"lon":5.38917,"is_reserved":false,"is_disabled":false,"rental_uris":{"android":"levelo://app?vid=b1009450-6152-462c-a724-90df51eeb6db","ios":"levelo://app?vid=b1009450-6152-462c-a724-90df51eeb6db"},"vehicle_type_id":"4","last_reported":1728637809,"current_range_meters":6400,"station_id":"ce4bhqp2rcd13ifvqhog","pricing_plan_id":"cebpf4jnsgd1na2vs0mg"},{"bike_id":"e7ff8a71-08f6-4d85-81cd-23e686b45531","system_id":"levelo_inurba_marseille","lat":43.23196,"lon":5.35553,"is_reserved":false,"is_disabled":false,"rental_uris":{"android":"levelo://app?vid=e7ff8a71-08f6-4d85-81cd-23e686b45531","ios":"levelo://app?vid=e7ff8a71-08f6-4d85-81cd-23e686b45531"},"vehicle_type_id":"4","last_reported":1728637809,"current_range_meters":26000,"station_id":"ce4bhu92rcd13ifvqi70","pricing_plan_id":"cebpf4jnsgd1na2vs0mg"},{"bike_id":"19f5f42a-6adc-4145-8932-c12d978bc3e8","system_id":"levelo_inurba_marseille","lat":43.29109,"lon":5.38089,"is_reserved":false,"is_disabled":false,"rental_uris":{"android":"levelo://app?vid=19f5f42a-6adc-4145-8932-c12d978bc3e8","ios":"levelo://app?vid=19f5f42a-6adc-4145-8932-c12d978bc3e8"},"vehicle_type_id":"4","last_reported":1728637809,"current_range_meters":14400,"station_id":"ce4bgpp2rcd13ifvqc3g","pricing_plan_id":"cebpf4jnsgd1na2vs0mg"},{"bike_id":"e57eee6e-49c8-4cfb-a61d-0bf39603ab36","system_id":"levelo_inurba_marseille","lat":43.25501,"lon":5.37646,"is_reserved":false,"is_disabled":false,"rental_uris":{"android":"levelo://app?vid=e57eee6e-49c8-4cfb-a61d-0bf39603ab36","ios":"levelo://app?vid=e57eee6e-49c8-4cfb-a61d-0bf39603ab36"},"vehicle_type_id":"4","last_reported":1728637809,"current_range_meters":10000,"station_id":"ce4bhh12rcd13ifvqff0","pricing_plan_id":"cebpf4jnsgd1na2vs0mg"},{"bike_id":"ac88c9c3-7b97-4b15-9d64-52646be3df0e","system_id":"levelo_inurba_marseille","lat":43.300559,"lon":5.374383,"is_reserved":false,"is_disabled":false,"rental_uris":{"android":"levelo://app?vid=ac88c9c3-7b97-4b15-9d64-52646be3df0e","ios":"levelo://app?vid=ac88c9c3-7b97-4b15-9d64-52646be3df0e"},"vehicle_type_id":"4","last_reported":1728637809,"current_range_meters":9200,"station_id":"","pricing_plan_id":"cebpf4jnsgd1na2vs0mg"},{"bike_id":"144fa27b-4393-4404-953e-b972f1542b01","system_id":"levelo_inurba_marseille","lat":43.28471,"lon":5.38416,"is_reserved":false,"is_disabled":false,"rental_uris":{"android":"levelo://app?vid=144fa27b-4393-4404-953e-b972f1542b01","ios":"levelo://app?vid=144fa27b-4393-4404-953e-b972f1542b01"},"vehicle_type_id":"4","last_reported":1728637809,"current_range_meters":39200,"station_id":"ce4bh512rcd13ifvqe3g","pricing_plan_id":"cebpf4jnsgd1na2vs0mg"},{"bike_id":"125cbcbd-2b3e-4eb0-ba6c-a7a2f5180356","system_id":"levelo_inurba_marseille","lat":43.26773,"lon":5.3942,"is_reserved":false,"is_disabled":false,"rental_uris":{"android":"levelo://app?vid=125cbcbd-2b3e-4eb0-ba6c-a7a2f5180356","ios":"levelo://app?vid=125cbcbd-2b3e-4eb0-ba6c-a7a2f5180356"},"vehicle_type_id":"4","last_reported":1728637809,"current_range_meters":37600,"station_id":"","pricing_plan_id":"cebpf4jnsgd1na2vs0mg"},{"bike_id":"2415d4c2-2068-40cd-a8a0-cfce7a5272d4","system_id":"levelo_inurba_marseille","lat":43.28566,"lon":5.39496,"is_reserved":false,"is_disabled":false,"rental_uris":{"android":"levelo://app?vid=2415d4c2-2068-40cd-a8a0-cfce7a5272d4","ios":"levelo://app?vid=2415d4c2-2068-40cd-a8a0-cfce7a5272d4"},"vehicle_type_id":"4","last_reported":1728637809,"current_range_meters":37600,"station_id":"ce4bh292rcd13ifvqdg0","pricing_plan_id":"cebpf4jnsgd1na2vs0mg"},{"bike_id":"a00ff575-f7d8-4aac-beb7-1c7f5704a051","system_id":"levelo_inurba_marseille","lat":43.2407,"lon":5.37761,"is_reserved":false,"is_disabled":false,"rental_uris":{"android":"levelo://app?vid=a00ff575-f7d8-4aac-beb7-1c7f5704a051","ios":"levelo://app?vid=a00ff575-f7d8-4aac-beb7-1c7f5704a051"},"vehicle_type_id":"4","last_reported":1728637809,"current_range_meters":24800,"station_id":"ce4bhnp2rcd13ifvqgvg","pricing_plan_id":"cebpf4jnsgd1na2vs0mg"},{"bike_id":"92b66a06-2fce-4e1c-9f31-8ddf846de508","system_id":"levelo_inurba_marseille","lat":43.27307,"lon":5.3908,"is_reserved":false,"is_disabled":false,"rental_uris":{"android":"levelo://app?vid=92b66a06-2fce-4e1c-9f31-8ddf846de508","ios":"levelo://app?vid=92b66a06-2fce-4e1c-9f31-8ddf846de508"},"vehicle_type_id":"4","last_reported":1728637809,"current_range_meters":13600,"station_id":"ce4bhgp2rcd13ifvqfe0","pricing_plan_id":"cebpf4jnsgd1na2vs0mg"},{"bike_id":"2624cadc-20e3-425f-99de-41302338f5b6","system_id":"levelo_inurba_marseille","lat":43.23184,"lon":5.39975,"is_reserved":false,"is_disabled":false,"rental_uris":{"android":"levelo://app?vid=2624cadc-20e3-425f-99de-41302338f5b6","ios":"levelo://app?vid=2624cadc-20e3-425f-99de-41302338f5b6"},"vehicle_type_id":"4","last_reported":1728637809,"current_range_meters":36400,"station_id":"ce4bhn12rcd13ifvqgqg","pricing_plan_id":"cebpf4jnsgd1na2vs0mg"},{"bike_id":"a1f9acd4-c2e4-45fc-b38b-0e0aceb1d442","system_id":"levelo_inurba_marseille","lat":43.24663,"lon":5.38161,"is_reserved":false,"is_disabled":false,"rental_uris":{"android":"levelo://app?vid=a1f9acd4-c2e4-45fc-b38b-0e0aceb1d442","ios":"levelo://app?vid=a1f9acd4-c2e4-45fc-b38b-0e0aceb1d442"},"vehicle_type_id":"4","last_reported":1728637809,"current_range_meters":8800,"station_id":"ce4bhih2rcd13ifvqfr0","pricing_plan_id":"cebpf4jnsgd1na2vs0mg"},{"bike_id":"665330bb-bbc0-4fee-8917-a960c6698c14","system_id":"levelo_inurba_marseille","lat":43.292938,"lon":5.36917,"is_reserved":false,"is_disabled":false,"rental_uris":{"android":"levelo://app?vid=665330bb-bbc0-4fee-8917-a960c6698c14","ios":"levelo://app?vid=665330bb-bbc0-4fee-8917-a960c6698c14"},"vehicle_type_id":"4","last_reported":1728637809,"current_range_meters":8000,"station_id":"ce4bhbp2rcd13ifvqesg","pricing_plan_id":"cebpf4jnsgd1na2vs0mg"},{"bike_id":"6fb583d7-a1fe-4d3e-ad1c-36fa96c6814e","system_id":"levelo_inurba_marseille","lat":43.26208,"lon":5.37443,"is_reserved":false,"is_disabled":false,"rental_uris":{"android":"levelo://app?vid=6fb583d7-a1fe-4d3e-ad1c-36fa96c6814e","ios":"levelo://app?vid=6fb583d7-a1fe-4d3e-ad1c-36fa96c6814e"},"vehicle_type_id":"4","last_reported":1728637809,"current_range_meters":19200,"station_id":"ce4bhgp2rcd13ifvqfc0","pricing_plan_id":"cebpf4jnsgd1na2vs0mg"},{"bike_id":"b8a87ab0-d055-4a8f-adad-dfa9d208369b","system_id":"levelo_inurba_marseille","lat":43.33757,"lon":5.37444,"is_reserved":false,"is_disabled":false,"rental_uris":{"android":"levelo://app?vid=b8a87ab0-d055-4a8f-adad-dfa9d208369b","ios":"levelo://app?vid=b8a87ab0-d055-4a8f-adad-dfa9d208369b"},"vehicle_type_id":"4","last_reported":1728637809,"current_range_meters":32000,"station_id":"","pricing_plan_id":"cebpf4jnsgd1na2vs0mg"},{"bike_id":"e8b356b2-207d-449d-9811-d5deb7267288","system_id":"levelo_inurba_marseille","lat":43.27051,"lon":5.40262,"is_reserved":false,"is_disabled":false,"rental_uris":{"android":"levelo://app?vid=e8b356b2-207d-449d-9811-d5deb7267288","ios":"levelo://app?vid=e8b356b2-207d-449d-9811-d5deb7267288"},"vehicle_type_id":"4","last_reported":1728637809,"current_range_meters":24000,"station_id":"ce4bhk92rcd13ifvqgc0","pricing_plan_id":"cebpf4jnsgd1na2vs0mg"},{"bike_id":"ed4ff37c-7b37-4616-af17-dad19155e98d","system_id":"levelo_inurba_marseille","lat":43.30125,"lon":5.37423,"is_reserved":false,"is_disabled":false,"rental_uris":{"android":"levelo://app?vid=ed4ff37c-7b37-4616-af17-dad19155e98d","ios":"levelo://app?vid=ed4ff37c-7b37-4616-af17-dad19155e98d"},"vehicle_type_id":"4","last_reported":1728637809,"current_range_meters":29600,"station_id":"ce4bgs92rcd13ifvqcc0","pricing_plan_id":"cebpf4jnsgd1na2vs0mg"},{"bike_id":"b01a1585-c8c3-4589-8156-a9557ffcd4d2","system_id":"levelo_inurba_marseille","lat":43.275656,"lon":5.38425,"is_reserved":false,"is_disabled":false,"rental_uris":{"android":"levelo://app?vid=b01a1585-c8c3-4589-8156-a9557ffcd4d2","ios":"levelo://app?vid=b01a1585-c8c3-4589-8156-a9557ffcd4d2"},"vehicle_type_id":"4","last_reported":1728637809,"current_range_meters":38400,"station_id":"ce4bhh92rcd13ifvqfi0","pricing_plan_id":"cebpf4jnsgd1na2vs0mg"},{"bike_id":"b3a4c503-3f0b-4831-93cd-884712e78b73","system_id":"levelo_inurba_marseille","lat":43.29847,"lon":5.36275,"is_reserved":false,"is_disabled":false,"rental_uris":{"android":"levelo://app?vid=b3a4c503-3f0b-4831-93cd-884712e78b73","ios":"levelo://app?vid=b3a4c503-3f0b-4831-93cd-884712e78b73"},"vehicle_type_id":"4","last_reported":1728637809,"current_range_meters":38800,"station_id":"ce4bgpp2rcd13ifvqc3g","pricing_plan_id":"cebpf4jnsgd1na2vs0mg"},{"bike_id":"eabaafd4-ab60-47f8-89ce-ef0e72c20579","system_id":"levelo_inurba_marseille","lat":43.33717,"lon":5.39179,"is_reserved":false,"is_disabled":false,"rental_uris":{"android":"levelo://app?vid=eabaafd4-ab60-47f8-89ce-ef0e72c20579","ios":"levelo://app?vid=eabaafd4-ab60-47f8-89ce-ef0e72c20579"},"vehicle_type_id":"4","last_reported":1728637809,"current_range_meters":39200,"station_id":"ce4bhr92rcd13ifvqhsg","pricing_plan_id":"cebpf4jnsgd1na2vs0mg"},{"bike_id":"0b80d610-f7d7-4cb7-9623-daa439866bb6","system_id":"levelo_inurba_marseille","lat":43.30297,"lon":5.36905,"is_reserved":false,"is_disabled":false,"rental_uris":{"android":"levelo://app?vid=0b80d610-f7d7-4cb7-9623-daa439866bb6","ios":"levelo://app?vid=0b80d610-f7d7-4cb7-9623-daa439866bb6"},"vehicle_type_id":"4","last_reported":1728637809,"current_range_meters":31200,"station_id":"ce4bgqh2rcd13ifvqc5g","pricing_plan_id":"cebpf4jnsgd1na2vs0mg"},{"bike_id":"7cf81f3f-937d-445e-8722-f142709f106a","system_id":"levelo_inurba_marseille","lat":43.29618,"lon":5.3717,"is_reserved":false,"is_disabled":false,"rental_uris":{"android":"levelo://app?vid=7cf81f3f-937d-445e-8722-f142709f106a","ios":"levelo://app?vid=7cf81f3f-937d-445e-8722-f142709f106a"},"vehicle_type_id":"4","last_reported":1728637809,"current_range_meters":36400,"station_id":"ce4bgnh2rcd13ifvqc0g","pricing_plan_id":"cebpf4jnsgd1na2vs0mg"},{"bike_id":"08fc8c91-d2c9-499e-808b-81e455f4e3b3","system_id":"levelo_inurba_marseille","lat":43.24075,"lon":5.37761,"is_reserved":false,"is_disabled":false,"rental_uris":{"android":"levelo://app?vid=08fc8c91-d2c9-499e-808b-81e455f4e3b3","ios":"levelo://app?vid=08fc8c91-d2c9-499e-808b-81e455f4e3b3"},"vehicle_type_id":"4","last_reported":1728637809,"current_range_meters":34800,"station_id":"ce4bhnp2rcd13ifvqgvg","pricing_plan_id":"cebpf4jnsgd1na2vs0mg"},{"bike_id":"ce04f614-a320-42df-8776-6146f8ec634d","system_id":"levelo_inurba_marseille","lat":43.25576,"lon":5.38235,"is_reserved":false,"is_disabled":false,"rental_uris":{"android":"levelo://app?vid=ce04f614-a320-42df-8776-6146f8ec634d","ios":"levelo://app?vid=ce04f614-a320-42df-8776-6146f8ec634d"},"vehicle_type_id":"4","last_reported":1728637809,"current_range_meters":37600,"station_id":"ce4bhih2rcd13ifvqfs0","pricing_plan_id":"cebpf4jnsgd1na2vs0mg"},{"bike_id":"31d0db0e-bef6-49bb-9ed6-4328dc531c70","system_id":"levelo_inurba_marseille","lat":43.30536,"lon":5.36545,"is_reserved":false,"is_disabled":false,"rental_uris":{"android":"levelo://app?vid=31d0db0e-bef6-49bb-9ed6-4328dc531c70","ios":"levelo://app?vid=31d0db0e-bef6-49bb-9ed6-4328dc531c70"},"vehicle_type_id":"4","last_reported":1728637809,"current_range_meters":33200,"station_id":"ce4bgs12rcd13ifvqcag","pricing_plan_id":"cebpf4jnsgd1na2vs0mg"},{"bike_id":"c1ee1e32-312f-4f53-b4e4-e3687713eb8e","system_id":"levelo_inurba_marseille","lat":43.30518,"lon":5.36712,"is_reserved":false,"is_disabled":false,"rental_uris":{"android":"levelo://app?vid=c1ee1e32-312f-4f53-b4e4-e3687713eb8e","ios":"levelo://app?vid=c1ee1e32-312f-4f53-b4e4-e3687713eb8e"},"vehicle_type_id":"4","last_reported":1728637809,"current_range_meters":11600,"station_id":"ce4bgrp2rcd13ifvqc9g","pricing_plan_id":"cebpf4jnsgd1na2vs0mg"},{"bike_id":"7a398225-e65e-4047-9e9f-b53c3e44ece6","system_id":"levelo_inurba_marseille","lat":43.27304,"lon":5.39075,"is_reserved":false,"is_disabled":false,"rental_uris":{"android":"levelo://app?vid=7a398225-e65e-4047-9e9f-b53c3e44ece6","ios":"levelo://app?vid=7a398225-e65e-4047-9e9f-b53c3e44ece6"},"vehicle_type_id":"4","last_reported":1728637809,"current_range_meters":14400,"station_id":"ce4bhgp2rcd13ifvqfe0","pricing_plan_id":"cebpf4jnsgd1na2vs0mg"},{"bike_id":"014787a8-8077-47d6-a618-31446b315bf1","system_id":"levelo_inurba_marseille","lat":43.3015,"lon":5.38072,"is_reserved":false,"is_disabled":false,"rental_uris":{"android":"levelo://app?vid=014787a8-8077-47d6-a618-31446b315bf1","ios":"levelo://app?vid=014787a8-8077-47d6-a618-31446b315bf1"},"vehicle_type_id":"4","last_reported":1728637809,"current_range_meters":16400,"station_id":"ce4bgjp2rcd13ifvqbh0","pricing_plan_id":"cebpf4jnsgd1na2vs0mg"},{"bike_id":"250295e3-b711-4b59-a0ba-ec9634c32ffc","system_id":"levelo_inurba_marseille","lat":43.31279,"lon":5.38506,"is_reserved":false,"is_disabled":false,"rental_uris":{"android":"levelo://app?vid=250295e3-b711-4b59-a0ba-ec9634c32ffc","ios":"levelo://app?vid=250295e3-b711-4b59-a0ba-ec9634c32ffc"},"vehicle_type_id":"4","last_reported":1728637809,"current_range_meters":5600,"station_id":"ce4bgt92rcd13ifvqcf0","pricing_plan_id":"cebpf4jnsgd1na2vs0mg"},{"bike_id":"a95529f2-2129-4a9b-a5db-1cf3f96206f6","system_id":"levelo_inurba_marseille","lat":43.26804,"lon":5.40262,"is_reserved":false,"is_disabled":false,"rental_uris":{"android":"levelo://app?vid=a95529f2-2129-4a9b-a5db-1cf3f96206f6","ios":"levelo://app?vid=a95529f2-2129-4a9b-a5db-1cf3f96206f6"},"vehicle_type_id":"4","last_reported":1728637809,"current_range_meters":28400,"station_id":"ce501612rcd8frsf0b60","pricing_plan_id":"cebpf4jnsgd1na2vs0mg"},{"bike_id":"655a4d1b-b7f3-48ec-bed6-2092bfff8cb7","system_id":"levelo_inurba_marseille","lat":43.29572,"lon":5.37511,"is_reserved":false,"is_disabled":false,"rental_uris":{"android":"levelo://app?vid=655a4d1b-b7f3-48ec-bed6-2092bfff8cb7","ios":"levelo://app?vid=655a4d1b-b7f3-48ec-bed6-2092bfff8cb7"},"vehicle_type_id":"4","last_reported":1728637809,"current_range_meters":18800,"station_id":"ce4bgh92rcd13ifvqb50","pricing_plan_id":"cebpf4jnsgd1na2vs0mg"},{"bike_id":"a63c97c3-ebea-49ea-bee8-7810aed349f3","system_id":"levelo_inurba_marseille","lat":43.24545,"lon":5.39523,"is_reserved":false,"is_disabled":false,"rental_uris":{"android":"levelo://app?vid=a63c97c3-ebea-49ea-bee8-7810aed349f3","ios":"levelo://app?vid=a63c97c3-ebea-49ea-bee8-7810aed349f3"},"vehicle_type_id":"4","last_reported":1728637809,"current_range_meters":22000,"station_id":"ce4bhlp2rcd13ifvqgjg","pricing_plan_id":"cebpf4jnsgd1na2vs0mg"},{"bike_id":"bba6feaf-c739-4e64-afef-2ed6cedffab1","system_id":"levelo_inurba_marseille","lat":43.2847,"lon":5.38433,"is_reserved":false,"is_disabled":false,"rental_uris":{"android":"levelo://app?vid=bba6feaf-c739-4e64-afef-2ed6cedffab1","ios":"levelo://app?vid=bba6feaf-c739-4e64-afef-2ed6cedffab1"},"vehicle_type_id":"4","last_reported":1728637809,"current_range_meters":38800,"station_id":"ce4bh512rcd13ifvqe3g","pricing_plan_id":"cebpf4jnsgd1na2vs0mg"},{"bike_id":"6e952a5f-2835-4607-9cf0-2b8fa84d86ea","system_id":"levelo_inurba_marseille","lat":43.24075,"lon":5.37756,"is_reserved":false,"is_disabled":false,"rental_uris":{"android":"levelo://app?vid=6e952a5f-2835-4607-9cf0-2b8fa84d86ea","ios":"levelo://app?vid=6e952a5f-2835-4607-9cf0-2b8fa84d86ea"},"vehicle_type_id":"4","last_reported":1728637809,"current_range_meters":12800,"station_id":"ce4bhnp2rcd13ifvqgvg","pricing_plan_id":"cebpf4jnsgd1na2vs0mg"},{"bike_id":"70d8f9cb-28c6-49d6-a345-8d13b6911786","system_id":"levelo_inurba_marseille","lat":43.29007,"lon":5.35621,"is_reserved":false,"is_disabled":false,"rental_uris":{"android":"levelo://app?vid=70d8f9cb-28c6-49d6-a345-8d13b6911786","ios":"levelo://app?vid=70d8f9cb-28c6-49d6-a345-8d13b6911786"},"vehicle_type_id":"4","last_reported":1728637809,"current_range_meters":36800,"station_id":"ce4bhb92rcd13ifvqen0","pricing_plan_id":"cebpf4jnsgd1na2vs0mg"},{"bike_id":"a9e96e67-4bf5-497d-b94c-a24fe84b8bcf","system_id":"levelo_inurba_marseille","lat":43.30913,"lon":5.36857,"is_reserved":false,"is_disabled":false,"rental_uris":{"android":"levelo://app?vid=a9e96e67-4bf5-497d-b94c-a24fe84b8bcf","ios":"levelo://app?vid=a9e96e67-4bf5-497d-b94c-a24fe84b8bcf"},"vehicle_type_id":"4","last_reported":1728637809,"current_range_meters":37600,"station_id":"ce4bgn92rcd13ifvqbvg","pricing_plan_id":"cebpf4jnsgd1na2vs0mg"},{"bike_id":"41848746-9ecd-4c89-b9b5-855656ccb932","system_id":"levelo_inurba_marseille","lat":43.29244,"lon":5.39814,"is_reserved":false,"is_disabled":false,"rental_uris":{"android":"levelo://app?vid=41848746-9ecd-4c89-b9b5-855656ccb932","ios":"levelo://app?vid=41848746-9ecd-4c89-b9b5-855656ccb932"},"vehicle_type_id":"4","last_reported":1728637809,"current_range_meters":34800,"station_id":"ce4bh192rcd13ifvqdc0","pricing_plan_id":"cebpf4jnsgd1na2vs0mg"},{"bike_id":"ee30d47b-87fd-4a38-8d60-4bb375e9d4b1","system_id":"levelo_inurba_marseille","lat":43.33759,"lon":5.37432,"is_reserved":false,"is_disabled":false,"rental_uris":{"android":"levelo://app?vid=ee30d47b-87fd-4a38-8d60-4bb375e9d4b1","ios":"levelo://app?vid=ee30d47b-87fd-4a38-8d60-4bb375e9d4b1"},"vehicle_type_id":"4","last_reported":1728637809,"current_range_meters":26800,"station_id":"","pricing_plan_id":"cebpf4jnsgd1na2vs0mg"},{"bike_id":"f7fca811-7bd9-4603-8d52-d827efffd549","system_id":"levelo_inurba_marseille","lat":43.269368,"lon":5.389135,"is_reserved":false,"is_disabled":false,"rental_uris":{"android":"levelo://app?vid=f7fca811-7bd9-4603-8d52-d827efffd549","ios":"levelo://app?vid=f7fca811-7bd9-4603-8d52-d827efffd549"},"vehicle_type_id":"4","last_reported":1728637809,"current_range_meters":36400,"station_id":"ce4bhhh2rcd13ifvqfl0","pricing_plan_id":"cebpf4jnsgd1na2vs0mg"},{"bike_id":"4258e283-c9b2-4abb-b0da-fbaa438577cb","system_id":"levelo_inurba_marseille","lat":43.23156,"lon":5.43701,"is_reserved":false,"is_disabled":false,"rental_uris":{"android":"levelo://app?vid=4258e283-c9b2-4abb-b0da-fbaa438577cb","ios":"levelo://app?vid=4258e283-c9b2-4abb-b0da-fbaa438577cb"},"vehicle_type_id":"4","last_reported":1728637809,"current_range_meters":6400,"station_id":"ce4bhmp2rcd13ifvqgog","pricing_plan_id":"cebpf4jnsgd1na2vs0mg"},{"bike_id":"171a17ea-8e73-4cac-aa94-957ccaf9c2d4","system_id":"levelo_inurba_marseille","lat":43.29715,"lon":5.36608,"is_reserved":false,"is_disabled":false,"rental_uris":{"android":"levelo://app?vid=171a17ea-8e73-4cac-aa94-957ccaf9c2d4","ios":"levelo://app?vid=171a17ea-8e73-4cac-aa94-957ccaf9c2d4"},"vehicle_type_id":"4","last_reported":1728637809,"current_range_meters":38400,"station_id":"ce4bgn12rcd13ifvqbt0","pricing_plan_id":"cebpf4jnsgd1na2vs0mg"},