{"last_updated":1713895742,"ttl":30,"version":"2.2","data":{"bikes":[{"bike_id":"42a21cde-c0f2-4f89-84ee-b246f7b7d676","system_id":"levelo_inurba_marseille","lat":43.309076,"lon":5.368465,"is_reserved":false,"is_disabled":false,"rental_uris":{"android":"levelo://app?vid=42a21cde-c0f2-4f89-84ee-b246f7b7d676","ios":"levelo://app?vid=42a21cde-c0f2-4f89-84ee-b246f7b7d676"},"vehicle_type_id":"4","last_reported":1713895742,"current_range_meters":4800,"station_id":"ce4bgn92rcd13ifvqbvg","pricing_plan_id":"cebpf4jnsgd1na2vs0mg"},{"bike_id":"46742dc9-e727-49dc-a5ac-bce5cfeb9696","system_id":"levelo_inurba_marseille","lat":43.309,"lon":5.3684,"is_reserved":false,"is_disabled":false,"rental_uris":{"android":"levelo://app?vid=46742dc9-e727-49dc-a5ac-bce5cfeb9696","ios":"levelo://app?vid=46742dc9-e727-49dc-a5ac-bce5cfeb9696"},"vehicle_type_id":"4","last_reported":1713895742,"current_range_meters":2400,"station_id":"ce4bgn92rcd13ifvqbvg","pricing_plan_id":"cebpf4jnsgd1na2vs0mg"},{"bike_id":"45595f92-12e6-48de-894d-370bc434057a","system_id":"levelo_inurba_marseille","lat":43.314811,"lon":5.373103,"is_reserved":false,"is_disabled":false,"rental_uris":{"android":"levelo://app?vid=45595f92-12e6-48de-894d-370bc434057a","ios":"levelo://app?vid=45595f92-12e6-48de-894d-370bc434057a"},"vehicle_type_id":"4","last_reported":1713895742,"current_range_meters":14800,"station_id":"ce4bgt12rcd13ifvqcd0","pricing_plan_id":"cebpf4jnsgd1na2vs0mg"},{"bike_id":"f6b6a2e5-78db-4166-b515-5cb955e250b7","system_id":"levelo_inurba_marseille","lat":43.314811,"lon":5.373103,"is_reserved":false,"is_disabled":false,"rental_uris":{"android":"levelo://app?vid=f6b6a2e5-78db-4166-b515-5cb955e250b7","ios":"levelo://app?vid=f6b6a2e5-78db-4166-b515-5cb955e250b7"},"vehicle_type_id":"4","last_reported":1713895742,"current_range_meters":6400,"station_id":"ce4bgt12rcd13ifvqcd0","pricing_plan_id":"cebpf4jnsgd1na2vs0mg"},{"bike_id":"054243ba-80e2-4d75-bbd6-a777a5a3acec","system_id":"levelo_inurba_marseille","lat":43.304606,"lon":5.379026,"is_reserved":false,"is_disabled":false,"rental_uris":{"android":"levelo://app?vid=054243ba-80e2-4d75-bbd6-a777a5a3acec","ios":"levelo://app?vid=054243ba-80e2-4d75-bbd6-a777a5a3acec"},"vehicle_type_id":"4","last_reported":1713895742,"current_range_meters":6400,"station_id":"ce4bgup2rcd13ifvqcn0","pricing_plan_id":"cebpf4jnsgd1na2vs0mg"},{"bike_id":"be1621d5-6f64-4bea-800e-a7f3fd1bfc19","system_id":"levelo_inurba_marseille","lat":43.308867,"lon":5.371944,"is_reserved":false,"is_disabled":false,"rental_uris":{"android":"levelo://app?vid=be1621d5-6f64-4bea-800e-a7f3fd1bfc19","ios":"levelo://app?vid=be1621d5-6f64-4bea-800e-a7f3fd1bfc19"},"vehicle_type_id":"4","last_reported":1713895742,"current_range_meters":0,"station_id":"ce4bguh2rcd13ifvqckg","pricing_plan_id":"cebpf4jnsgd1na2vs0mg"},{"bike_id":"8c395149-c248-44f3-9ed5-11a7c51301c3","system_id":"levelo_inurba_marseille","lat":43.307003,"lon":5.36558,"is_reserved":false,"is_disabled":false,"rental_uris":{"android":"levelo://app?vid=8c395149-c248-44f3-9ed5-11a7c51301c3","ios":"levelo://app?vid=8c395149-c248-44f3-9ed5-11a7c51301c3"},"vehicle_type_id":"4","last_reported":1713895742,"current_range_meters":6000,"station_id":"","pricing_plan_id":"cebpf4jnsgd1na2vs0mg"},{"bike_id":"f1751c9a-17ca-4408-988f-de5d0f880a76","system_id":"levelo_inurba_marseille","lat":43.311125,"lon":5.377624,"is_reserved":false,"is_disabled":false,"rental_uris":{"android":"levelo://app?vid=f1751c9a-17ca-4408-988f-de5d0f880a76","ios":"levelo://app?vid=f1751c9a-17ca-4408-988f-de5d0f880a76"},"vehicle_type_id":"4","last_reported":1713895742,"current_range_meters":5600,"station_id":"ce4bgt92rcd13ifvqcg0","pricing_plan_id":"cebpf4jnsgd1na2vs0mg"},{"bike_id":"eb019ad4-2236-4d67-8cd7-8622bbd1a83e","system_id":"levelo_inurba_marseille","lat":43.311117,"lon":5.37763,"is_reserved":false,"is_disabled":false,"rental_uris":{"android":"levelo://app?vid=eb019ad4-2236-4d67-8cd7-8622bbd1a83e","ios":"levelo://app?vid=eb019ad4-2236-4d67-8cd7-8622bbd1a83e"},"vehicle_type_id":"4","last_reported":1713895742,"current_range_meters":7200,"station_id":"ce4bgt92rcd13ifvqcg0","pricing_plan_id":"cebpf4jnsgd1na2vs0mg"},{"bike_id":"7a301813-2da4-44b1-81b1-52f885b9e8aa","system_id":"levelo_inurba_marseille","lat":43.311201,"lon":5.377739,"is_reserved":false,"is_disabled":false,"rental_uris":{"android":"levelo://app?vid=7a301813-2da4-44b1-81b1-52f885b9e8aa","ios":"levelo://app?vid=7a301813-2da4-44b1-81b1-52f885b9e8aa"},"vehicle_type_id":"4","last_reported":1713895742,"current_range_meters":9200,"station_id":"ce4bgt92rcd13ifvqcg0","pricing_plan_id":"cebpf4jnsgd1na2vs0mg"},{"bike_id":"357e0c4a-99b7-4017-973b-1fe7181be160","system_id":"levelo_inurba_marseille","lat":43.31109,"lon":5.37779,"is_reserved":false,"is_disabled":false,"rental_uris":{"android":"levelo://app?vid=357e0c4a-99b7-4017-973b-1fe7181be160","ios":"levelo://app?vid=357e0c4a-99b7-4017-973b-1fe7181be160"},"vehicle_type_id":"4","last_reported":1713895742,"current_range_meters":400,"station_id":"ce4bgt92rcd13ifvqcg0","pricing_plan_id":"cebpf4jnsgd1na2vs0mg"},{"bike_id":"aab3e3e1-23fb-4426-824a-61ee8a9f9e10","system_id":"levelo_inurba_marseille","lat":43.314811,"lon":5.373103,"is_reserved":false,"is_disabled":false,"rental_uris":{"android":"levelo://app?vid=aab3e3e1-23fb-4426-824a-61ee8a9f9e10","ios":"levelo://app?vid=aab3e3e1-23fb-4426-824a-61ee8a9f9e10"},"vehicle_type_id":"4","last_reported":1713895742,"current_range_meters":10800,"station_id":"ce4bgt12rcd13ifvqcd0","pricing_plan_id":"cebpf4jnsgd1na2vs0mg"},{"bike_id":"52239be2-b5e6-4ca0-8bb5-e7a3e4a159f2","system_id":"levelo_inurba_marseille","lat":43.31112,"lon":5.37794,"is_reserved":false,"is_disabled":false,"rental_uris":{"android":"levelo://app?vid=52239be2-b5e6-4ca0-8bb5-e7a3e4a159f2","ios":"levelo://app?vid=52239be2-b5e6-4ca0-8bb5-e7a3e4a159f2"},"vehicle_type_id":"4","last_reported":1713895742,"current_range_meters":23600,"station_id":"ce4bgt92rcd13ifvqcg0","pricing_plan_id":"cebpf4jnsgd1na2vs0mg"},{"bike_id":"cafad043-67a0-4fd9-8f90-8eb9336c4ede","system_id":"levelo_inurba_marseille","lat":43.30787,"lon":5.37646,"is_reserved":false,"is_disabled":false,"rental_uris":{"android":"levelo://app?vid=cafad043-67a0-4fd9-8f90-8eb9336c4ede","ios":"levelo://app?vid=cafad043-67a0-4fd9-8f90-8eb9336c4ede"},"vehicle_type_id":"4","last_reported":1713895742,"current_range_meters":20000,"station_id":"ce4bgv92rcd13ifvqcq0","pricing_plan_id":"cebpf4jnsgd1na2vs0mg"},{"bike_id":"08e3e0ee-05fe-4ee2-a7e5-e2082aaad53f","system_id":"levelo_inurba_marseille","lat":43.307945,"lon":5.376487,"is_reserved":false,"is_disabled":false,"rental_uris":{"android":"levelo://app?vid=08e3e0ee-05fe-4ee2-a7e5-e2082aaad53f","ios":"levelo://app?vid=08e3e0ee-05fe-4ee2-a7e5-e2082aaad53f"},"vehicle_type_id":"4","last_reported":1713895742,"current_range_meters":7600,"station_id":"ce4bgv92rcd13ifvqcq0","pricing_plan_id":"cebpf4jnsgd1na2vs0mg"},{"bike_id":"2775bb1f-91bb-4b61-bd58-b93d2d567984","system_id":"levelo_inurba_marseille","lat":43.307945,"lon":5.376487,"is_reserved":false,"is_disabled":false,"rental_uris":{"android":"levelo://app?vid=2775bb1f-91bb-4b61-bd58-b93d2d567984","ios":"levelo://app?vid=2775bb1f-91bb-4b61-bd58-b93d2d567984"},"vehicle_type_id":"4","last_reported":1713895742,"current_range_meters":14000,"station_id":"ce4bgv92rcd13ifvqcq0","pricing_plan_id":"cebpf4jnsgd1na2vs0mg"},{"bike_id":"11d29c44-25c3-4cfd-a8fd-cbb3659711d3","system_id":"levelo_inurba_marseille","lat":43.307945,"lon":5.376487,"is_reserved":false,"is_disabled":false,"rental_uris":{"android":"levelo://app?vid=11d29c44-25c3-4cfd-a8fd-cbb3659711d3","ios":"levelo://app?vid=11d29c44-25c3-4cfd-a8fd-cbb3659711d3"},"vehicle_type_id":"4","last_reported":1713895742,"current_range_meters":29600,"station_id":"ce4bgv92rcd13ifvqcq0","pricing_plan_id":"cebpf4jnsgd1na2vs0mg"},{"bike_id":"73d8b4b6-3f91-4f14-a84b-93df2118ac6b","system_id":"levelo_inurba_marseille","lat":43.307945,"lon":5.376487,"is_reserved":false,"is_disabled":false,"rental_uris":{"android":"levelo://app?vid=73d8b4b6-3f91-4f14-a84b-93df2118ac6b","ios":"levelo://app?vid=73d8b4b6-3f91-4f14-a84b-93df2118ac6b"},"vehicle_type_id":"4","last_reported":1713895742,"current_range_meters":13600,"station_id":"ce4bgv92rcd13ifvqcq0","pricing_plan_id":"cebpf4jnsgd1na2vs0mg"},{"bike_id":"4bc12c00-6728-49e9-8e31-f68d4e76f95c","system_id":"levelo_inurba_marseille","lat":43.307797,"lon":5.376467,"is_reserved":false,"is_disabled":false,"rental_uris":{"android":"levelo://app?vid=4bc12c00-6728-49e9-8e31-f68d4e76f95c","ios":"levelo://app?vid=4bc12c00-6728-49e9-8e31-f68d4e76f95c"},"vehicle_type_id":"4","last_reported":1713895742,"current_range_meters":0,"station_id":"ce4bgv92rcd13ifvqcq0","pricing_plan_id":"cebpf4jnsgd1na2vs0mg"},{"bike_id":"40ac654f-0367-405c-a54e-ded371a72343","system_id":"levelo_inurba_marseille","lat":43.307945,"lon":5.376487,"is_reserved":false,"is_disabled":false,"rental_uris":{"android":"levelo://app?vid=40ac654f-0367-405c-a54e-ded371a72343","ios":"levelo://app?vid=40ac654f-0367-405c-a54e-ded371a72343"},"vehicle_type_id":"4","last_reported":1713895742,"current_range_meters":11600,"station_id":"ce4bgv92rcd13ifvqcq0","pricing_plan_id":"cebpf4jnsgd1na2vs0mg"},{"bike_id":"88031a16-c107-438f-b4bf-7a98330b2a89","system_id":"levelo_inurba_marseille","lat":43.307945,"lon":5.376487,"is_reserved":false,"is_disabled":false,"rental_uris":{"android":"levelo://app?vid=88031a16-c107-438f-b4bf-7a98330b2a89","ios":"levelo://app?vid=88031a16-c107-438f-b4bf-7a98330b2a89"},"vehicle_type_id":"4","last_reported":1713895742,"current_range_meters":2400,"station_id":"ce4bgv92rcd13ifvqcq0","pricing_plan_id":"cebpf4jnsgd1na2vs0mg"},{"bike_id":"bcd00e71-3c5e-408c-9f39-c7caf7f9f1d6","system_id":"levelo_inurba_marseille","lat":43.307945,"lon":5.376487,"is_reserved":false,"is_disabled":false,"rental_uris":{"android":"levelo://app?vid=bcd00e71-3c5e-408c-9f39-c7caf7f9f1d6","ios":"levelo://app?vid=bcd00e71-3c5e-408c-9f39-c7caf7f9f1d6"},"vehicle_type_id":"4","last_reported":1713895742,"current_range_meters":31200,"station_id":"ce4bgv92rcd13ifvqcq0","pricing_plan_id":"cebpf4jnsgd1na2vs0mg"},{"bike_id":"a91864a4-f3e0-437e-9b02-97c3648728be","system_id":"levelo_inurba_marseille","lat":43.307763,"lon":5.376497,"is_reserved":false,"is_disabled":false,"rental_uris":{"android":"levelo://app?vid=a91864a4-f3e0-437e-9b02-97c3648728be","ios":"levelo://app?vid=a91864a4-f3e0-437e-9b02-97c3648728be"},"vehicle_type_id":"4","last_reported":1713895742,"current_range_meters":20800,"station_id":"ce4bgv92rcd13ifvqcq0","pricing_plan_id":"cebpf4jnsgd1na2vs0mg"},{"bike_id":"21a28926-c8ee-437b-9ee2-82b234999561","system_id":"levelo_inurba_marseille","lat":43.30778,"lon":5.37652,"is_reserved":false,"is_disabled":false,"rental_uris":{"android":"levelo://app?vid=21a28926-c8ee-437b-9ee2-82b234999561","ios":"levelo://app?vid=21a28926-c8ee-437b-9ee2-82b234999561"},"vehicle_type_id":"4","last_reported":1713895742,"current_range_meters":0,"station_id":"","pricing_plan_id":"cebpf4jnsgd1na2vs0mg"},{"bike_id":"05d05ad0-4bb8-499d-82f0-aa0297336982","system_id":"levelo_inurba_marseille","lat":43.317075,"lon":5.377367,"is_reserved":false,"is_disabled":false,"rental_uris":{"android":"levelo://app?vid=05d05ad0-4bb8-499d-82f0-aa0297336982","ios":"levelo://app?vid=05d05ad0-4bb8-499d-82f0-aa0297336982"},"vehicle_type_id":"4","last_reported":1713895742,"current_range_meters":15200,"station_id":"ce4bgth2rcd13ifvqch0","pricing_plan_id":"cebpf4jnsgd1na2vs0mg"},{"bike_id":"b4854735-77a2-4b8e-975d-f5ec26df9228","system_id":"levelo_inurba_marseille","lat":43.317075,"lon":5.377367,"is_reserved":false,"is_disabled":false,"rental_uris":{"android":"levelo://app?vid=b4854735-77a2-4b8e-975d-f5ec26df9228","ios":"levelo://app?vid=b4854735-77a2-4b8e-975d-f5ec26df9228"},"vehicle_type_id":"4","last_reported":1713895742,"current_range_meters":22400,"station_id":"ce4bgth2rcd13ifvqch0","pricing_plan_id":"cebpf4jnsgd1na2vs0mg"},{"bike_id":"aa5ec48f-9f21-4e10-94f1-5cf77fa622c0","system_id":"levelo_inurba_marseille","lat":43.317056,"lon":5.377484,"is_reserved":false,"is_disabled":false,"rental_uris":{"android":"levelo://app?vid=aa5ec48f-9f21-4e10-94f1-5cf77fa622c0","ios":"levelo://app?vid=aa5ec48f-9f21-4e10-94f1-5cf77fa622c0"},"vehicle_type_id":"4","last_reported":1713895742,"current_range_meters":18800,"station_id":"ce4bgth2rcd13ifvqch0","pricing_plan_id":"cebpf4jnsgd1na2vs0mg"},{"bike_id":"3deaa35e-21a4-49a6-b77b-d4c017b7642e","system_id":"levelo_inurba_marseille","lat":43.317075,"lon":5.377367,"is_reserved":false,"is_disabled":false,"rental_uris":{"android":"levelo://app?vid=3deaa35e-21a4-49a6-b77b-d4c017b7642e","ios":"levelo://app?vid=3deaa35e-21a4-49a6-b77b-d4c017b7642e"},"vehicle_type_id":"4","last_reported":1713895742,"current_range_meters":17600,"station_id":"ce4bgth2rcd13ifvqch0","pricing_plan_id":"cebpf4jnsgd1na2vs0mg"},{"bike_id":"ecdcf3cc-7f50-4c48-a458-1601f9df5d62","system_id":"levelo_inurba_marseille","lat":43.31701,"lon":5.37763,"is_reserved":false,"is_disabled":false,"rental_uris":{"android":"levelo://app?vid=ecdcf3cc-7f50-4c48-a458-1601f9df5d62","ios":"levelo://app?vid=ecdcf3cc-7f50-4c48-a458-1601f9df5d62"},"vehicle_type_id":"4","last_reported":1713895742,"current_range_meters":3200,"station_id":"ce4bgth2rcd13ifvqch0","pricing_plan_id":"cebpf4jnsgd1na2vs0mg"},{"bike_id":"9b6ab9a1-561b-4147-a306-878900fb29cc","system_id":"levelo_inurba_marseille","lat":43.317075,"lon":5.377367,"is_reserved":false,"is_disabled":false,"rental_uris":{"android":"levelo://app?vid=9b6ab9a1-561b-4147-a306-878900fb29cc","ios":"levelo://app?vid=9b6ab9a1-561b-4147-a306-878900fb29cc"},"vehicle_type_id":"4","last_reported":1713895742,"current_range_meters":26800,"station_id":"ce4bgth2rcd13ifvqch0","pricing_plan_id":"cebpf4jnsgd1na2vs0mg"},{"bike_id":"7bd9dcd7-cfa4-4720-b545-724872c01541","system_id":"levelo_inurba_marseille","lat":43.317096,"lon":5.377616,"is_reserved":false,"is_disabled":false,"rental_uris":{"android":"levelo://app?vid=7bd9dcd7-cfa4-4720-b545-724872c01541","ios":"levelo://app?vid=7bd9dcd7-cfa4-4720-b545-724872c01541"},"vehicle_type_id":"4","last_reported":1713895742,"current_range_meters":21600,"station_id":"ce4bgth2rcd13ifvqch0","pricing_plan_id":"cebpf4jnsgd1na2vs0mg"},{"bike_id":"20617b6f-01e4-4823-8a20-199bfedddf1d","system_id":"levelo_inurba_marseille","lat":43.315289,"lon":5.380349,"is_reserved":false,"is_disabled":false,"rental_uris":{"android":"levelo://app?vid=20617b6f-01e4-4823-8a20-199bfedddf1d","ios":"levelo://app?vid=20617b6f-01e4-4823-8a20-199bfedddf1d"},"vehicle_type_id":"4","last_reported":1713895742,"current_range_meters":29600,"station_id":"ce4bhsp2rcd13ifvqi50","pricing_plan_id":"cebpf4jnsgd1na2vs0mg"},{"bike_id":"50640bc6-0027-4947-a154-1a86e7844c8a","system_id":"levelo_inurba_marseille","lat":43.315289,"lon":5.380349,"is_reserved":false,"is_disabled":false,"rental_uris":{"android":"levelo://app?vid=50640bc6-0027-4947-a154-1a86e7844c8a","ios":"levelo://app?vid=50640bc6-0027-4947-a154-1a86e7844c8a"},"vehicle_type_id":"4","last_reported":1713895742,"current_range_meters":29200,"station_id":"ce4bhsp2rcd13ifvqi50","pricing_plan_id":"cebpf4jnsgd1na2vs0mg"},{"bike_id":"da3ba2a3-e2a9-4ba3-9ccc-1cf48025aa51","system_id":"levelo_inurba_marseille","lat":43.308012,"lon":5.381511,"is_reserved":false,"is_disabled":false,"rental_uris":{"android":"levelo://app?vid=da3ba2a3-e2a9-4ba3-9ccc-1cf48025aa51","ios":"levelo://app?vid=da3ba2a3-e2a9-4ba3-9ccc-1cf48025aa51"},"vehicle_type_id":"4","last_reported":1713895742,"current_range_meters":0,"station_id":"ce4bgt12rcd13ifvqce0","pricing_plan_id":"cebpf4jnsgd1na2vs0mg"},{"bike_id":"2fde4afb-274e-4b45-9bc8-530f810b47dc","system_id":"levelo_inurba_marseille","lat":43.308012,"lon":5.381511,"is_reserved":false,"is_disabled":false,"rental_uris":{"android":"levelo://app?vid=2fde4afb-274e-4b45-9bc8-530f810b47dc","ios":"levelo://app?vid=2fde4afb-274e-4b45-9bc8-530f810b47dc"},"vehicle_type_id":"4","last_reported":1713895742,"current_range_meters":18800,"station_id":"ce4bgt12rcd13ifvqce0","pricing_plan_id":"cebpf4jnsgd1na2vs0mg"},{"bike_id":"e0707e42-4f87-4399-b3fb-82d1ffe11d1a","system_id":"levelo_inurba_marseille","lat":43.3199,"lon":5.381565,"is_reserved":false,"is_disabled":false,"rental_uris":{"android":"levelo://app?vid=e0707e42-4f87-4399-b3fb-82d1ffe11d1a","ios":"levelo://app?vid=e0707e42-4f87-4399-b3fb-82d1ffe11d1a"},"vehicle_type_id":"4","last_reported":1713895742,"current_range_meters":4800,"station_id":"ce4bhr12rcd13ifvqhpg","pricing_plan_id":"cebpf4jnsgd1na2vs0mg"},{"bike_id":"ee9a046b-73eb-4916-b03c-05198acabf71","system_id":"levelo_inurba_marseille","lat":43.313571,"lon":5.384829,"is_reserved":false,"is_disabled":false,"rental_uris":{"android":"levelo://app?vid=ee9a046b-73eb-4916-b03c-05198acabf71","ios":"levelo://app?vid=ee9a046b-73eb-4916-b03c-05198acabf71"},"vehicle_type_id":"4","last_reported":1713895742,"current_range_meters":18800,"station_id":"ce4bgt92rcd13ifvqcf0","pricing_plan_id":"cebpf4jnsgd1na2vs0mg"},{"bike_id":"882851c9-7d28-4284-b645-28323f9809e1","system_id":"levelo_inurba_marseille","lat":43.313571,"lon":5.384829,"is_reserved":false,"is_disabled":false,"rental_uris":{"android":"levelo://app?vid=882851c9-7d28-4284-b645-28323f9809e1","ios":"levelo://app?vid=882851c9-7d28-4284-b645-28323f9809e1"},"vehicle_type_id":"4","last_reported":1713895742,"current_range_meters":14800,"station_id":"ce4bgt92rcd13ifvqcf0","pricing_plan_id":"cebpf4jnsgd1na2vs0mg"},{"bike_id":"035cc228-6e3d-4d45-8715-2c2c42b94ef6","system_id":"levelo_inurba_marseille","lat":43.301429,"lon":5.37413,"is_reserved":false,"is_disabled":false,"rental_uris":{"android":"levelo://app?vid=035cc228-6e3d-4d45-8715-2c2c42b94ef6","ios":"levelo://app?vid=035cc228-6e3d-4d45-8715-2c2c42b94ef6"},"vehicle_type_id":"4","last_reported":1713895742,"current_range_meters":0,"station_id":"ce4bgs92rcd13ifvqcc0","pricing_plan_id":"cebpf4jnsgd1na2vs0mg"},{"bike_id":"57cc027a-5f05-41f3-a1d9-4a9ec26bfbcc","system_id":"levelo_inurba_marseille","lat":43.299222,"lon":5.365554,"is_reserved":false,"is_disabled":false,"rental_uris":{"android":"levelo://app?vid=57cc027a-5f05-41f3-a1d9-4a9ec26bfbcc","ios":"levelo://app?vid=57cc027a-5f05-41f3-a1d9-4a9ec26bfbcc"},"vehicle_type_id":"4","last_reported":1713895742,"current_range_meters":23200,"station_id":"ce4bgm92rcd13ifvqbr0","pricing_plan_id":"cebpf4jnsgd1na2vs0mg"},{"bike_id":"c625f90d-ffa5-4d44-992f-fe8b13357d78","system_id":"levelo_inurba_marseille","lat":43.299222,"lon":5.365554,"is_reserved":false,"is_disabled":false,"rental_uris":{"android":"levelo://app?vid=c625f90d-ffa5-4d44-992f-fe8b13357d78","ios":"levelo://app?vid=c625f90d-ffa5-4d44-992f-fe8b13357d78"},"vehicle_type_id":"4","last_reported":1713895742,"current_range_meters":0,"station_id":"ce4bgm92rcd13ifvqbr0","pricing_plan_id":"cebpf4jnsgd1na2vs0mg"},{"bike_id":"95cd0611-a969-4f78-91b7-2baf601378ba","system_id":"levelo_inurba_marseille","lat":43.303046,"lon":5.368981,"is_reserved":false,"is_disabled":false,"rental_uris":{"android":"levelo://app?vid=95cd0611-a969-4f78-91b7-2baf601378ba","ios":"levelo://app?vid=95cd0611-a969-4f78-91b7-2baf601378ba"},"vehicle_type_id":"4","last_reported":1713895742,"current_range_meters":2400,"station_id":"ce4bgqh2rcd13ifvqc5g","pricing_plan_id":"cebpf4jnsgd1na2vs0mg"},{"bike_id":"5112912f-68f8-414b-bb45-6f72bab273fb","system_id":"levelo_inurba_marseille","lat":43.29981,"lon":5.371798,"is_reserved":false,"is_disabled":false,"rental_uris":{"android":"levelo://app?vid=5112912f-68f8-414b-bb45-6f72bab273fb","ios":"levelo://app?vid=5112912f-68f8-414b-bb45-6f72bab273fb"},"vehicle_type_id":"4","last_reported":1713895742,"current_range_meters":28000,"station_id":"ce4bgrp2rcd13ifvqc9g","pricing_plan_id":"cebpf4jnsgd1na2vs0mg"},{"bike_id":"bbeeeb78-8002-4334-95df-701298fe189f","system_id":"levelo_inurba_marseille","lat":43.29937,"lon":5.36549,"is_reserved":false,"is_disabled":false,"rental_uris":{"android":"levelo://app?vid=bbeeeb78-8002-4334-95df-701298fe189f","ios":"levelo://app?vid=bbeeeb78-8002-4334-95df-701298fe189f"},"vehicle_type_id":"4","last_reported":1713895742,"current_range_meters":25600,"station_id":"ce4bgm92rcd13ifvqbr0","pricing_plan_id":"cebpf4jnsgd1na2vs0mg"},{"bike_id":"a168535c-bbaa-4547-971a-4a8d35d3ed4a","system_id":"levelo_inurba_marseille","lat":43.29935,"lon":5.36539,"is_reserved":false,"is_disabled":false,"rental_uris":{"android":"levelo://app?vid=a168535c-bbaa-4547-971a-4a8d35d3ed4a","ios":"levelo://app?vid=a168535c-bbaa-4547-971a-4a8d35d3ed4a"},"vehicle_type_id":"4","last_reported":1713895742,"current_range_meters":0,"station_id":"ce4bgm92rcd13ifvqbr0","pricing_plan_id":"cebpf4jnsgd1na2vs0mg"},{"bike_id":"b18f2633-1e45-48fc-90c7-7f3c5ca561ea","system_id":"levelo_inurba_marseille","lat":43.299718,"lon":5.37175,"is_reserved":false,"is_disabled":false,"rental_uris":{"android":"levelo://app?vid=b18f2633-1e45-48fc-90c7-7f3c5ca561ea","ios":"levelo://app?vid=b18f2633-1e45-48fc-90c7-7f3c5ca561ea"},"vehicle_type_id":"4","last_reported":1713895742,"current_range_meters":0,"station_id":"ce4bgr92rcd13ifvqc7g","pricing_plan_id":"cebpf4jnsgd1na2vs0mg"},{"bike_id":"bea8eece-a67d-4e27-8c47-5b0be0a8092a","system_id":"levelo_inurba_marseille","lat":43.298433,"lon":5.362774,"is_reserved":false,"is_disabled":false,"rental_uris":{"android":"levelo://app?vid=bea8eece-a67d-4e27-8c47-5b0be0a8092a","ios":"levelo://app?vid=bea8eece-a67d-4e27-8c47-5b0be0a8092a"},"vehicle_type_id":"4","last_reported":1713895742,"current_range_meters":26400,"station_id":"ce4bgpp2rcd13ifvqc3g","pricing_plan_id":"cebpf4jnsgd1na2vs0mg"},{"bike_id":"6e1b619e-4c7b-453c-855a-4417648d3557","system_id":"levelo_inurba_marseille","lat":43.29849,"lon":5.36283,"is_reserved":false,"is_disabled":false,"rental_uris":{"android":"levelo://app?vid=6e1b619e-4c7b-453c-855a-4417648d3557","ios":"levelo://app?vid=6e1b619e-4c7b-453c-855a-4417648d3557"},"vehicle_type_id":"4","last_reported":1713895742,"current_range_meters":1600,"station_id":"ce4bgpp2rcd13ifvqc3g","pricing_plan_id":"cebpf4jnsgd1na2vs0mg"},{"bike_id":"04b03e48-31ff-4b54-ab4c-0cb5f6551ae4","system_id":"levelo_inurba_marseille","lat":43.2985,"lon":5.36272,"is_reserved":false,"is_disabled":false,"rental_uris":{"android":"levelo://app?vid=04b03e48-31ff-4b54-ab4c-0cb5f6551ae4","ios":"levelo://app?vid=04b03e48-31ff-4b54-ab4c-0cb5f6551ae4"},"vehicle_type_id":"4","last_reported":1713895742,"current_range_meters":12800,"station_id":"ce4bgpp2rcd13ifvqc3g","pricing_plan_id":"cebpf4jnsgd1na2vs0mg"},{"bike_id":"1154dfa3-c05d-4815-801c-00cbef5d970c","system_id":"levelo_inurba_marseille","lat":43.305364,"lon":5.384119,"is_reserved":false,"is_disabled":false,"rental_uris":{"android":"levelo://app?vid=1154dfa3-c05d-4815-801c-00cbef5d970c","ios":"levelo://app?vid=1154dfa3-c05d-4815-801c-00cbef5d970c"},"vehicle_type_id":"4","last_reported":1713895742,"current_range_meters":11200,"station_id":"ce4bgg92rcd13ifvqb30","pricing_plan_id":"cebpf4jnsgd1na2vs0mg"},{"bike_id":"ef47ff87-ee60-40ad-a0d5-4b01c0367469","system_id":"levelo_inurba_marseille","lat":43.305364,"lon":5.384119,"is_reserved":false,"is_disabled":false,"rental_uris":{"android":"levelo://app?vid=ef47ff87-ee60-40ad-a0d5-4b01c0367469","ios":"levelo://app?vid=ef47ff87-ee60-40ad-a0d5-4b01c0367469"},"vehicle_type_id":"4","last_reported":1713895742,"current_range_meters":14800,"station_id":"ce4bgg92rcd13ifvqb30","pricing_plan_id":"cebpf4jnsgd1na2vs0mg"},{"bike_id":"947652e3-b630-4e3a-8852-9a3823855f2b","system_id":"levelo_inurba_marseille","lat":43.311722,"lon":5.387247,"is_reserved":false,"is_disabled":false,"rental_uris":{"android":"levelo://app?vid=947652e3-b630-4e3a-8852-9a3823855f2b","ios":"levelo://app?vid=947652e3-b630-4e3a-8852-9a3823855f2b"},"vehicle_type_id":"4","last_reported":1713895742,"current_range_meters":3200,"station_id":"ce4bgv12rcd13ifvqcp0","pricing_plan_id":"cebpf4jnsgd1na2vs0mg"},{"bike_id":"513e1a0b-665c-4d98-8f18-ef07384678da","system_id":"levelo_inurba_marseille","lat":43.311722,"lon":5.387247,"is_reserved":false,"is_disabled":false,"rental_uris":{"android":"levelo://app?vid=513e1a0b-665c-4d98-8f18-ef07384678da","ios":"levelo://app?vid=513e1a0b-665c-4d98-8f18-ef07384678da"},"vehicle_type_id":"4","last_reported":1713895742,"current_range_meters":14800,"station_id":"ce4bgv12rcd13ifvqcp0","pricing_plan_id":"cebpf4jnsgd1na2vs0mg"},{"bike_id":"34041765-6b26-4eaf-a88f-736f29e42c97","system_id":"levelo_inurba_marseille","lat":43.29916,"lon":5.37496,"is_reserved":false,"is_disabled":false,"rental_uris":{"android":"levelo://app?vid=34041765-6b26-4eaf-a88f-736f29e42c97","ios":"levelo://app?vid=34041765-6b26-4eaf-a88f-736f29e42c97"},"vehicle_type_id":"4","last_reported":1713895742,"current_range_meters":8400,"station_id":"ce4bgjh2rcd13ifvqbg0","pricing_plan_id":"cebpf4jnsgd1na2vs0mg"},{"bike_id":"623effa6-a2eb-483a-96c6-f9c6177b8c44","system_id":"levelo_inurba_marseille","lat":43.31159,"lon":5.3872,"is_reserved":false,"is_disabled":false,"rental_uris":{"android":"levelo://app?vid=623effa6-a2eb-483a-96c6-f9c6177b8c44","ios":"levelo://app?vid=623effa6-a2eb-483a-96c6-f9c6177b8c44"},"vehicle_type_id":"4","last_reported":1713895742,"current_range_meters":0,"station_id":"ce4bgv12rcd13ifvqcp0","pricing_plan_id":"cebpf4jnsgd1na2vs0mg"},{"bike_id":"8e5b7119-723b-43fd-b462-85400ec91126","system_id":"levelo_inurba_marseille","lat":43.29909,"lon":5.37489,"is_reserved":false,"is_disabled":false,"rental_uris":{"android":"levelo://app?vid=8e5b7119-723b-43fd-b462-85400ec91126","ios":"levelo://app?vid=8e5b7119-723b-43fd-b462-85400ec91126"},"vehicle_type_id":"4","last_reported":1713895742,"current_range_meters":9600,"station_id":"ce4bgjh2rcd13ifvqbg0","pricing_plan_id":"cebpf4jnsgd1na2vs0mg"},{"bike_id":"27ed7e3b-1e10-4778-b7ec-a12b5d711d4d","system_id":"levelo_inurba_marseille","lat":43.322872,"lon":5.382756,"is_reserved":false,"is_disabled":false,"rental_uris":{"android":"levelo://app?vid=27ed7e3b-1e10-4778-b7ec-a12b5d711d4d","ios":"levelo://app?vid=27ed7e3b-1e10-4778-b7ec-a12b5d711d4d"},"vehicle_type_id":"4","last_reported":1713895742,"current_range_meters":20800,"station_id":"ce4bhr12rcd13ifvqhqg","pricing_plan_id":"cebpf4jnsgd1na2vs0mg"},{"bike_id":"b9ec29b6-b6bb-400d-ab8c-da1fe7ce1b0e","system_id":"levelo_inurba_marseille","lat":43.322872,"lon":5.382756,"is_reserved":false,"is_disabled":false,"rental_uris":{"android":"levelo://app?vid=b9ec29b6-b6bb-400d-ab8c-da1fe7ce1b0e","ios":"levelo://app?vid=b9ec29b6-b6bb-400d-ab8c-da1fe7ce1b0e"},"vehicle_type_id":"4","last_reported":1713895742,"current_range_meters":4800,"station_id":"ce4bhr12rcd13ifvqhqg","pricing_plan_id":"cebpf4jnsgd1na2vs0mg"},{"bike_id":"0748efb8-2dec-4add-a4a0-bf67f45f2495","system_id":"levelo_inurba_marseille","lat":43.32289,"lon":5.38285,"is_reserved":false,"is_disabled":false,"rental_uris":{"android":"levelo://app?vid=0748efb8-2dec-4add-a4a0-bf67f45f2495","ios":"levelo://app?vid=0748efb8-2dec-4add-a4a0-bf67f45f2495"},"vehicle_type_id":"4","last_reported":1713895742,"current_range_meters":2000,"station_id":"ce4bhr12rcd13ifvqhqg","pricing_plan_id":"cebpf4jnsgd1na2vs0mg"},{"bike_id":"e90aa3de-9e8e-4e06-a22b-d89ad903247a","system_id":"levelo_inurba_marseille","lat":43.297163,"lon":5.365866,"is_reserved":false,"is_disabled":false,"rental_uris":{"android":"levelo://app?vid=e90aa3de-9e8e-4e06-a22b-d89ad903247a","ios":"levelo://app?vid=e90aa3de-9e8e-4e06-a22b-d89ad903247a"},"vehicle_type_id":"4","last_reported":1713895742,"current_range_meters":1600,"station_id":"ce4bgn12rcd13ifvqbt0","pricing_plan_id":"cebpf4jnsgd1na2vs0mg"},{"bike_id":"b6e50aa8-5365-49d3-be49-8a84d95af441","system_id":"levelo_inurba_marseille","lat":43.308012,"lon":5.381511,"is_reserved":false,"is_disabled":false,"rental_uris":{"android":"levelo://app?vid=b6e50aa8-5365-49d3-be49-8a84d95af441","ios":"levelo://app?vid=b6e50aa8-5365-49d3-be49-8a84d95af441"},"vehicle_type_id":"4","last_reported":1713895742,"current_range_meters":7600,"station_id":"ce4bgt12rcd13ifvqce0","pricing_plan_id":"cebpf4jnsgd1na2vs0mg"},{"bike_id":"59d3d458-587c-4e69-ba7e-a5658bec1554","system_id":"levelo_inurba_marseille","lat":43.298433,"lon":5.362774,"is_reserved":false,"is_disabled":false,"rental_uris":{"android":"levelo://app?vid=59d3d458-587c-4e69-ba7e-a5658bec1554","ios":"levelo://app?vid=59d3d458-587c-4e69-ba7e-a5658bec1554"},"vehicle_type_id":"4","last_reported":1713895742,"current_range_meters":18400,"station_id":"ce4bgpp2rcd13ifvqc3g","pricing_plan_id":"cebpf4jnsgd1na2vs0mg"},{"bike_id":"22ee16ca-a245-4dc1-ad8a-db06da73955c","system_id":"levelo_inurba_marseille","lat":43.295971,"lon":5.368773,"is_reserved":false,"is_disabled":false,"rental_uris":{"android":"levelo://app?vid=22ee16ca-a245-4dc1-ad8a-db06da73955c","ios":"levelo://app?vid=22ee16ca-a245-4dc1-ad8a-db06da73955c"},"vehicle_type_id":"4","last_reported":1713895742,"current_range_meters":12400,"station_id":"","pricing_plan_id":"cebpf4jnsgd1na2vs0mg"},{"bike_id":"1771b405-93b5-474f-8218-9489835fa55c","system_id":"levelo_inurba_marseille","lat":43.299028,"lon":5.381509,"is_reserved":false,"is_disabled":false,"rental_uris":{"android":"levelo://app?vid=1771b405-93b5-474f-8218-9489835fa55c","ios":"levelo://app?vid=1771b405-93b5-474f-8218-9489835fa55c"},"vehicle_type_id":"4","last_reported":1713895742,"current_range_meters":2000,"station_id":"ce4bgj12rcd13ifvqbc0","pricing_plan_id":"cebpf4jnsgd1na2vs0mg"},{"bike_id":"cdafd072-9dc5-4610-a6dd-2768103934e8","system_id":"levelo_inurba_marseille","lat":43.296129,"lon":5.370777,"is_reserved":false,"is_disabled":false,"rental_uris":{"android":"levelo://app?vid=cdafd072-9dc5-4610-a6dd-2768103934e8","ios":"levelo://app?vid=cdafd072-9dc5-4610-a6dd-2768103934e8"},"vehicle_type_id":"4","last_reported":1713895742,"current_range_meters":4800,"station_id":"ce4bgnh2rcd13ifvqc0g","pricing_plan_id":"cebpf4jnsgd1na2vs0mg"},{"bike_id":"26739c7e-87a6-4b55-b68f-c8225a6ac1cc","system_id":"levelo_inurba_marseille","lat":43.29573,"lon":5.367355,"is_reserved":false,"is_disabled":false,"rental_uris":{"android":"levelo://app?vid=26739c7e-87a6-4b55-b68f-c8225a6ac1cc","ios":"levelo://app?vid=26739c7e-87a6-4b55-b68f-c8225a6ac1cc"},"vehicle_type_id":"4","last_reported":1713895742,"current_range_meters":17200,"station_id":"ce4bgph2rcd13ifvqc2g","pricing_plan_id":"cebpf4jnsgd1na2vs0mg"},{"bike_id":"ce5bbb5c-3624-477e-b86e-316786e043ca","system_id":"levelo_inurba_marseille","lat":43.297198,"lon":5.376305,"is_reserved":false,"is_disabled":false,"rental_uris":{"android":"levelo://app?vid=ce5bbb5c-3624-477e-b86e-316786e043ca","ios":"levelo://app?vid=ce5bbb5c-3624-477e-b86e-316786e043ca"},"vehicle_type_id":"4","last_reported":1713895742,"current_range_meters":12400,"station_id":"ce4bgkh2rcd13ifvqbl0","pricing_plan_id":"cebpf4jnsgd1na2vs0mg"},{"bike_id":"2527efa2-b2aa-4aad-99ff-3aa8984cd0a8","system_id":"levelo_inurba_marseille","lat":43.309589,"lon":5.390258,"is_reserved":false,"is_disabled":false,"rental_uris":{"android":"levelo://app?vid=2527efa2-b2aa-4aad-99ff-3aa8984cd0a8","ios":"levelo://app?vid=2527efa2-b2aa-4aad-99ff-3aa8984cd0a8"},"vehicle_type_id":"4","last_reported":1713895742,"current_range_meters":11600,"station_id":"ce4bgup2rcd13ifvqco0","pricing_plan_id":"cebpf4jnsgd1na2vs0mg"},{"bike_id":"d6284202-a5d2-4d08-81f7-aaf493e14f35","system_id":"levelo_inurba_marseille","lat":43.314811,"lon":5.373103,"is_reserved":false,"is_disabled":false,"rental_uris":{"android":"levelo://app?vid=d6284202-a5d2-4d08-81f7-aaf493e14f35","ios":"levelo://app?vid=d6284202-a5d2-4d08-81f7-aaf493e14f35"},"vehicle_type_id":"4","last_reported":1713895742,"current_range_meters":10000,"station_id":"ce4bgt12rcd13ifvqcd0","pricing_plan_id":"cebpf4jnsgd1na2vs0mg"},{"bike_id":"8ca3ec5b-cca1-46c0-81d0-be883cff6b3e","system_id":"levelo_inurba_marseille","lat":43.317557,"lon":5.390173,"is_reserved":false,"is_disabled":false,"rental_uris":{"android":"levelo://app?vid=8ca3ec5b-cca1-46c0-81d0-be883cff6b3e","ios":"levelo://app?vid=8ca3ec5b-cca1-46c0-81d0-be883cff6b3e"},"vehicle_type_id":"4","last_reported":1713895742,"current_range_meters":31200,"station_id":"ce4bhqp2rcd13ifvqhng","pricing_plan_id":"cebpf4jnsgd1na2vs0mg"},{"bike_id":"e9c6a310-d581-485b-96a5-a51d288a12eb","system_id":"levelo_inurba_marseille","lat":43.317557,"lon":5.390173,"is_reserved":false,"is_disabled":false,"rental_uris":{"android":"levelo://app?vid=e9c6a310-d581-485b-96a5-a51d288a12eb","ios":"levelo://app?vid=e9c6a310-d581-485b-96a5-a51d288a12eb"},"vehicle_type_id":"4","last_reported":1713895742,"current_range_meters":9600,"station_id":"ce4bhqp2rcd13ifvqhng","pricing_plan_id":"cebpf4jnsgd1na2vs0mg"},{"bike_id":"4c1c9136-01fa-4b35-ac84-be4f4c949ef5","system_id":"levelo_inurba_marseille","lat":43.317557,"lon":5.390173,"is_reserved":false,"is_disabled":false,"rental_uris":{"android":"levelo://app?vid=4c1c9136-01fa-4b35-ac84-be4f4c949ef5","ios":"levelo://app?vid=4c1c9136-01fa-4b35-ac84-be4f4c949ef5"},"vehicle_type_id":"4","last_reported":1713895742,"current_range_meters":16800,"station_id":"ce4bhqp2rcd13ifvqhng","pricing_plan_id":"cebpf4jnsgd1na2vs0mg"},{"bike_id":"730fa032-1821-42e7-b61f-572075c353a4","system_id":"levelo_inurba_marseille","lat":43.317557,"lon":5.390173,"is_reserved":false,"is_disabled":false,"rental_uris":{"android":"levelo://app?vid=730fa032-1821-42e7-b61f-572075c353a4","ios":"levelo://app?vid=730fa032-1821-42e7-b61f-572075c353a4"},"vehicle_type_id":"4","last_reported":1713895742,"current_range_meters":10800,"station_id":"ce4bhqp2rcd13ifvqhng","pricing_plan_id":"cebpf4jnsgd1na2vs0mg"},{"bike_id":"b3162447-a02b-4826-b223-727a02d3ae9f","system_id":"levelo_inurba_marseille","lat":43.317557,"lon":5.390173,"is_reserved":false,"is_disabled":false,"rental_uris":{"android":"levelo://app?vid=b3162447-a02b-4826-b223-727a02d3ae9f","ios":"levelo://app?vid=b3162447-a02b-4826-b223-727a02d3ae9f"},"vehicle_type_id":"4","last_reported":1713895742,"current_range_meters":12400,"station_id":"ce4bhqp2rcd13ifvqhng","pricing_plan_id":"cebpf4jnsgd1na2vs0mg"},{"bike_id":"9ccbfc68-8660-444d-9ad7-7384fb15cc70","system_id":"levelo_inurba_marseille","lat":43.304378,"lon":5.388676,"is_reserved":false,"is_disabled":false,"rental_uris":{"android":"levelo://app?vid=9ccbfc68-8660-444d-9ad7-7384fb15cc70","ios":"levelo://app?vid=9ccbfc68-8660-444d-9ad7-7384fb15cc70"},"vehicle_type_id":"4","last_reported":1713895742,"current_range_meters":10000,"station_id":"ce4bh012rcd13ifvqcv0","pricing_plan_id":"cebpf4jnsgd1na2vs0mg"},{"bike_id":"3def7f89-7943-4742-ab61-c725d3df3e24","system_id":"levelo_inurba_marseille","lat":43.29582,"lon":5.37503,"is_reserved":false,"is_disabled":false,"rental_uris":{"android":"levelo://app?vid=3def7f89-7943-4742-ab61-c725d3df3e24","ios":"levelo://app?vid=3def7f89-7943-4742-ab61-c725d3df3e24"},"vehicle_type_id":"4","last_reported":1713895742,"current_range_meters":0,"station_id":"ce4bgh92rcd13ifvqb50","pricing_plan_id":"cebpf4jnsgd1na2vs0mg"},{"bike_id":"0df778c9-a191-46e7-bb12-1f3d6ff82d2b","system_id":"levelo_inurba_marseille","lat":43.295748,"lon":5.37522,"is_reserved":false,"is_disabled":false,"rental_uris":{"android":"levelo://app?vid=0df778c9-a191-46e7-bb12-1f3d6ff82d2b","ios":"levelo://app?vid=0df778c9-a191-46e7-bb12-1f3d6ff82d2b"},"vehicle_type_id":"4","last_reported":1713895742,"current_range_meters":2400,"station_id":"ce4bgh92rcd13ifvqb50","pricing_plan_id":"cebpf4jnsgd1na2vs0mg"},{"bike_id":"bbae126f-0126-4df8-8b3e-322752d7dfe2","system_id":"levelo_inurba_marseille","lat":43.304274,"lon":5.388873,"is_reserved":false,"is_disabled":false,"rental_uris":{"android":"levelo://app?vid=bbae126f-0126-4df8-8b3e-322752d7dfe2","ios":"levelo://app?vid=bbae126f-0126-4df8-8b3e-322752d7dfe2"},"vehicle_type_id":"4","last_reported":1713895742,"current_range_meters":26800,"station_id":"ce4bgk12rcd13ifvqbi0","pricing_plan_id":"cebpf4jnsgd1na2vs0mg"},{"bike_id":"47a80bb3-a408-483e-9d6a-de83dab03df4","system_id":"levelo_inurba_marseille","lat":43.304274,"lon":5.388873,"is_reserved":false,"is_disabled":false,"rental_uris":{"android":"levelo://app?vid=47a80bb3-a408-483e-9d6a-de83dab03df4","ios":"levelo://app?vid=47a80bb3-a408-483e-9d6a-de83dab03df4"},"vehicle_type_id":"4","last_reported":1713895742,"current_range_meters":11600,"station_id":"ce4bgk12rcd13ifvqbi0","pricing_plan_id":"cebpf4jnsgd1na2vs0mg"},{"bike_id":"bfc691c6-2dcf-45a1-a90e-cf4c3d19eb6e","system_id":"levelo_inurba_marseille","lat":43.304274,"lon":5.388873,"is_reserved":false,"is_disabled":false,"rental_uris":{"android":"levelo://app?vid=bfc691c6-2dcf-45a1-a90e-cf4c3d19eb6e","ios":"levelo://app?vid=bfc691c6-2dcf-45a1-a90e-cf4c3d19eb6e"},"vehicle_type_id":"4","last_reported":1713895742,"current_range_meters":2400,"station_id":"ce4bgk12rcd13ifvqbi0","pricing_plan_id":"cebpf4jnsgd1na2vs0mg"},{"bike_id":"958f8321-5eb0-461c-b31b-c6efbfa33b2d","system_id":"levelo_inurba_marseille","lat":43.304274,"lon":5.388873,"is_reserved":false,"is_disabled":false,"rental_uris":{"android":"levelo://app?vid=958f8321-5eb0-461c-b31b-c6efbfa33b2d","ios":"levelo://app?vid=958f8321-5eb0-461c-b31b-c6efbfa33b2d"},"vehicle_type_id":"4","last_reported":1713895742,"current_range_meters":16800,"station_id":"ce4bgk12rcd13ifvqbi0","pricing_plan_id":"cebpf4jnsgd1na2vs0mg"},{"bike_id":"85ce1730-d93c-455d-b9a5-5998e6d90da3","system_id":"levelo_inurba_marseille","lat":43.296277,"lon":5.377108,"is_reserved":false,"is_disabled":false,"rental_uris":{"android":"levelo://app?vid=85ce1730-d93c-455d-b9a5-5998e6d90da3","ios":"levelo://app?vid=85ce1730-d93c-455d-b9a5-5998e6d90da3"},"vehicle_type_id":"4","last_reported":1713895742,"current_range_meters":27600,"station_id":"ce4bgi92rcd13ifvqb90","pricing_plan_id":"cebpf4jnsgd1na2vs0mg"},{"bike_id":"9327dac3-105f-4e6d-96eb-6f6db4afaec8","system_id":"levelo_inurba_marseille","lat":43.278399,"lon":5.392139,"is_reserved":false,"is_disabled":false,"rental_uris":{"android":"levelo://app?vid=9327dac3-105f-4e6d-96eb-6f6db4afaec8","ios":"levelo://app?vid=9327dac3-105f-4e6d-96eb-6f6db4afaec8"},"vehicle_type_id":"4","last_reported":1713895742,"current_range_meters":20400,"station_id":"ce4bhjp2rcd13ifvqga0","pricing_plan_id":"cebpf4jnsgd1na2vs0mg"},{"bike_id":"1593f166-ac0a-48cc-943f-cd9d2fea8de3","system_id":"levelo_inurba_marseille","lat":43.304393,"lon":5.388899,"is_reserved":false,"is_disabled":false,"rental_uris":{"android":"levelo://app?vid=1593f166-ac0a-48cc-943f-cd9d2fea8de3","ios":"levelo://app?vid=1593f166-ac0a-48cc-943f-cd9d2fea8de3"},"vehicle_type_id":"4","last_reported":1713895742,"current_range_meters":1600,"station_id":"ce4bgk12rcd13ifvqbi0","pricing_plan_id":"cebpf4jnsgd1na2vs0mg"},{"bike_id":"34563e26-8501-4cdf-b3a2-793270621ec9","system_id":"levelo_inurba_marseille","lat":43.309589,"lon":5.390258,"is_reserved":false,"is_disabled":false,"rental_uris":{"android":"levelo://app?vid=34563e26-8501-4cdf-b3a2-793270621ec9","ios":"levelo://app?vid=34563e26-8501-4cdf-b3a2-793270621ec9"},"vehicle_type_id":"4","last_reported":1713895742,"current_range_meters":14000,"station_id":"ce4bgup2rcd13ifvqco0","pricing_plan_id":"cebpf4jnsgd1na2vs0mg"},{"bike_id":"3f9ad79f-39a3-4062-97ce-203091f78020","system_id":"levelo_inurba_marseille","lat":43.304274,"lon":5.388873,"is_reserved":false,"is_disabled":false,"rental_uris":{"android":"levelo://app?vid=3f9ad79f-39a3-4062-97ce-203091f78020","ios":"levelo://app?vid=3f9ad79f-39a3-4062-97ce-203091f78020"},"vehicle_type_id":"4","last_reported":1713895742,"current_range_meters":14800,"station_id":"ce4bgk12rcd13ifvqbi0","pricing_plan_id":"cebpf4jnsgd1na2vs0mg"},{"bike_id":"d53764c1-5a05-4117-90db-b4f4290835cd","system_id":"levelo_inurba_marseille","lat":43.304403,"lon":5.388927,"is_reserved":false,"is_disabled":false,"rental_uris":{"android":"levelo://app?vid=d53764c1-5a05-4117-90db-b4f4290835cd","ios":"levelo://app?vid=d53764c1-5a05-4117-90db-b4f4290835cd"},"vehicle_type_id":"4","last_reported":1713895742,"current_range_meters":12800,"station_id":"ce4bgk12rcd13ifvqbi0","pricing_plan_id":"cebpf4jnsgd1na2vs0mg"},{"bike_id":"75534077-5cef-4f58-a8a7-7958b47e2240","system_id":"levelo_inurba_marseille","lat":43.304274,"lon":5.388873,"is_reserved":false,"is_disabled":false,"rental_uris":{"android":"levelo://app?vid=75534077-5cef-4f58-a8a7-7958b47e2240","ios":"levelo://app?vid=75534077-5cef-4f58-a8a7-7958b47e2240"},"vehicle_type_id":"4","last_reported":1713895742,"current_range_meters":6000,"station_id":"ce4bgk12rcd13ifvqbi0","pricing_plan_id":"cebpf4jnsgd1na2vs0mg"},{"bike_id":"20bd3878-ac56-41ad-84b6-77b7c3326fd4","system_id":"levelo_inurba_marseille","lat":43.30423,"lon":5.38882,"is_reserved":false,"is_disabled":false,"rental_uris":{"android":"levelo://app?vid=20bd3878-ac56-41ad-84b6-77b7c3326fd4","ios":"levelo://app?vid=20bd3878-ac56-41ad-84b6-77b7c3326fd4"},"vehicle_type_id":"4","last_reported":1713895742,"current_range_meters":9600,"station_id":"ce4bgk12rcd13ifvqbi0","pricing_plan_id":"cebpf4jnsgd1na2vs0mg"},{"bike_id":"5a17ab96-1138-48e7-83c5-d6e4c7e31bd9","system_id":"levelo_inurba_marseille","lat":43.30426,"lon":5.38887,"is_reserved":false,"is_disabled":false,"rental_uris":{"android":"levelo://app?vid=5a17ab96-1138-48e7-83c5-d6e4c7e31bd9","ios":"levelo://app?vid=5a17ab96-1138-48e7-83c5-d6e4c7e31bd9"},"vehicle_type_id":"4","last_reported":1713895742,"current_range_meters":18000,"station_id":"ce4bgk12rcd13ifvqbi0","pricing_plan_id":"cebpf4jnsgd1na2vs0mg"},{"bike_id":"e84a950c-fff5-479b-a747-42e67ebf37eb","system_id":"levelo_inurba_marseille","lat":43.304274,"lon":5.388873,"is_reserved":false,"is_disabled":false,"rental_uris":{"android":"levelo://app?vid=e84a950c-fff5-479b-a747-42e67ebf37eb","ios":"levelo://app?vid=e84a950c-fff5-479b-a747-42e67ebf37eb"},"vehicle_type_id":"4","last_reported":1713895742,"current_range_meters":27600,"station_id":"ce4bgk12rcd13ifvqbi0","pricing_plan_id":"cebpf4jnsgd1na2vs0mg"},{"bike_id":"2e0a561a-b8a8-47f1-965a-a591b4681fd6","system_id":"levelo_inurba_marseille","lat":43.274103,"lon":5.394016,"is_reserved":false,"is_disabled":false,"rental_uris":{"android":"levelo://app?vid=2e0a561a-b8a8-47f1-965a-a591b4681fd6","ios":"levelo://app?vid=2e0a561a-b8a8-47f1-965a-a591b4681fd6"},"vehicle_type_id":"4","last_reported":1713895742,"current_range_meters":13600,"station_id":"ce4bhdp2rcd13ifvqf20","pricing_plan_id":"cebpf4jnsgd1na2vs0mg"},{"bike_id":"c0deccaf-bc42-40ce-987c-bbd94746a6b7","system_id":"levelo_inurba_marseille","lat":43.304278,"lon":5.388868,"is_reserved":false,"is_disabled":false,"rental_uris":{"android":"levelo://app?vid=c0deccaf-bc42-40ce-987c-bbd94746a6b7","ios":"levelo://app?vid=c0deccaf-bc42-40ce-987c-bbd94746a6b7"},"vehicle_type_id":"4","last_reported":1713895742,"current_range_meters":25200,"station_id":"ce4bgk12rcd13ifvqbi0","pricing_plan_id":"cebpf4jnsgd1na2vs0mg"},{"bike_id":"373cba61-4aa4-47e6-8dd7-2742fbcc2887","system_id":"levelo_inurba_marseille","lat":43.30425,"lon":5.38889,"is_reserved":false,"is_disabled":false,"rental_uris":{"android":"levelo://app?vid=373cba61-4aa4-47e6-8dd7-2742fbcc2887","ios":"levelo://app?vid=373cba61-4aa4-47e6-8dd7-2742fbcc2887"},"vehicle_type_id":"4","last_reported":1713895742,"current_range_meters":17600,"station_id":"ce4bgk12rcd13ifvqbi0","pricing_plan_id":"cebpf4jnsgd1na2vs0mg"},{"bike_id":"0e09c011-2325-4840-9b70-b4918b7608c5","system_id":"levelo_inurba_marseille","lat":43.304278,"lon":5.388868,"is_reserved":false,"is_disabled":false,"rental_uris":{"android":"levelo://app?vid=0e09c011-2325-4840-9b70-b4918b7608c5","ios":"levelo://app?vid=0e09c011-2325-4840-9b70-b4918b7608c5"},"vehicle_type_id":"4","last_reported":1713895742,"current_range_meters":1600,"station_id":"ce4bgk12rcd13ifvqbi0","pricing_plan_id":"cebpf4jnsgd1na2vs0mg"},{"bike_id":"23dc7b60-2004-4f58-856a-129617d82d35","system_id":"levelo_inurba_marseille","lat":43.304408,"lon":5.389028,"is_reserved":false,"is_disabled":false,"rental_uris":{"android":"levelo://app?vid=23dc7b60-2004-4f58-856a-129617d82d35","ios":"levelo://app?vid=23dc7b60-2004-4f58-856a-129617d82d35"},"vehicle_type_id":"4","last_reported":1713895742,"current_range_meters":7600,"station_id":"ce4bgk12rcd13ifvqbi0","pricing_plan_id":"cebpf4jnsgd1na2vs0mg"},{"bike_id":"a00b3990-a373-4fdc-88cb-7bc4f571c907","system_id":"levelo_inurba_marseille","lat":43.304278,"lon":5.388868,"is_reserved":false,"is_disabled":false,"rental_uris":{"android":"levelo://app?vid=a00b3990-a373-4fdc-88cb-7bc4f571c907","ios":"levelo://app?vid=a00b3990-a373-4fdc-88cb-7bc4f571c907"},"vehicle_type_id":"4","last_reported":1713895742,"current_range_meters":10400,"station_id":"ce4bgk12rcd13ifvqbi0","pricing_plan_id":"cebpf4jnsgd1na2vs0mg"},{"bike_id":"81d067f4-3abe-4078-8ce6-4e9075c6cab6","system_id":"levelo_inurba_marseille","lat":43.295279,"lon":5.375048,"is_reserved":false,"is_disabled":false,"rental_uris":{"android":"levelo://app?vid=81d067f4-3abe-4078-8ce6-4e9075c6cab6","ios":"levelo://app?vid=81d067f4-3abe-4078-8ce6-4e9075c6cab6"},"vehicle_type_id":"4","last_reported":1713895742,"current_range_meters":15600,"station_id":"ce4bgkp2rcd13ifvqbmg","pricing_plan_id":"cebpf4jnsgd1na2vs0mg"},{"bike_id":"9c2aa964-4e54-4cb8-83a4-f1a2fdb6e3ac","system_id":"levelo_inurba_marseille","lat":43.295279,"lon":5.375048,"is_reserved":false,"is_disabled":false,"rental_uris":{"android":"levelo://app?vid=9c2aa964-4e54-4cb8-83a4-f1a2fdb6e3ac","ios":"levelo://app?vid=9c2aa964-4e54-4cb8-83a4-f1a2fdb6e3ac"},"vehicle_type_id":"4","last_reported":1713895742,"current_range_meters":400,"station_id":"ce4bgkp2rcd13ifvqbmg","pricing_plan_id":"cebpf4jnsgd1na2vs0mg"},{"bike_id":"4e712b90-9282-4e9f-b717-f7f06e655b0e","system_id":"levelo_inurba_marseille","lat":43.299767,"lon":5.384921,"is_reserved":false,"is_disabled":false,"rental_uris":{"android":"levelo://app?vid=4e712b90-9282-4e9f-b717-f7f06e655b0e","ios":"levelo://app?vid=4e712b90-9282-4e9f-b717-f7f06e655b0e"},"vehicle_type_id":"4","last_reported":1713895742,"current_range_meters":10400,"station_id":"ce4bgj92rcd13ifvqbd0","pricing_plan_id":"cebpf4jnsgd1na2vs0mg"},{"bike_id":"73583e0d-fbb1-4ea8-b933-7211d45c1d91","system_id":"levelo_inurba_marseille","lat":43.293009,"lon":5.374584,"is_reserved":false,"is_disabled":false,"rental_uris":{"android":"levelo://app?vid=73583e0d-fbb1-4ea8-b933-7211d45c1d91","ios":"levelo://app?vid=73583e0d-fbb1-4ea8-b933-7211d45c1d91"},"vehicle_type_id":"4","last_reported":1713895742,"current_range_meters":30000,"station_id":"ce4bgi12rcd13ifvqb70","pricing_plan_id":"cebpf4jnsgd1na2vs0mg"},{"bike_id":"97c27b79-b8a4-4883-9732-4b49616cf6e7","system_id":"levelo_inurba_marseille","lat":43.29972,"lon":5.38492,"is_reserved":false,"is_disabled":false,"rental_uris":{"android":"levelo://app?vid=97c27b79-b8a4-4883-9732-4b49616cf6e7","ios":"levelo://app?vid=97c27b79-b8a4-4883-9732-4b49616cf6e7"},"vehicle_type_id":"4","last_reported":1713895742,"current_range_meters":18000,"station_id":"ce4bgj92rcd13ifvqbd0","pricing_plan_id":"cebpf4jnsgd1na2vs0mg"},{"bike_id":"d8649792-7668-4e5b-b191-b29c9d801703","system_id":"levelo_inurba_marseille","lat":43.29965,"lon":5.38492,"is_reserved":false,"is_disabled":false,"rental_uris":{"android":"levelo://app?vid=d8649792-7668-4e5b-b191-b29c9d801703","ios":"levelo://app?vid=d8649792-7668-4e5b-b191-b29c9d801703"},"vehicle_type_id":"4","last_reported":1713895742,"current_range_meters":31200,"station_id":"ce4bgj92rcd13ifvqbd0","pricing_plan_id":"cebpf4jnsgd1na2vs0mg"},{"bike_id":"0444bdda-25f0-4925-85f9-31e16a569c4e","system_id":"levelo_inurba_marseille","lat":43.2997,"lon":5.38503,"is_reserved":false,"is_disabled":false,"rental_uris":{"android":"levelo://app?vid=0444bdda-25f0-4925-85f9-31e16a569c4e","ios":"levelo://app?vid=0444bdda-25f0-4925-85f9-31e16a569c4e"},"vehicle_type_id":"4","last_reported":1713895742,"current_range_meters":18800,"station_id":"ce4bgj92rcd13ifvqbd0","pricing_plan_id":"cebpf4jnsgd1na2vs0mg"},{"bike_id":"ea5ceaf8-72ef-4aaf-b667-e071bd4f7e7d","system_id":"levelo_inurba_marseille","lat":43.29967,"lon":5.38499,"is_reserved":false,"is_disabled":false,"rental_uris":{"android":"levelo://app?vid=ea5ceaf8-72ef-4aaf-b667-e071bd4f7e7d","ios":"levelo://app?vid=ea5ceaf8-72ef-4aaf-b667-e071bd4f7e7d"},"vehicle_type_id":"4","last_reported":1713895742,"current_range_meters":18800,"station_id":"ce4bgj92rcd13ifvqbd0","pricing_plan_id":"cebpf4jnsgd1na2vs0mg"},{"bike_id":"7c8b18e5-783e-4bb3-91a3-1637cfaeb5f0","system_id":"levelo_inurba_marseille","lat":43.29967,"lon":5.385,"is_reserved":false,"is_disabled":false,"rental_uris":{"android":"levelo://app?vid=7c8b18e5-783e-4bb3-91a3-1637cfaeb5f0","ios":"levelo://app?vid=7c8b18e5-783e-4bb3-91a3-1637cfaeb5f0"},"vehicle_type_id":"4","last_reported":1713895742,"current_range_meters":20000,"station_id":"ce4bgj92rcd13ifvqbd0","pricing_plan_id":"cebpf4jnsgd1na2vs0mg"},{"bike_id":"d877e927-d1d2-4348-abc9-9ffe6d013330","system_id":"levelo_inurba_marseille","lat":43.299717,"lon":5.384845,"is_reserved":false,"is_disabled":false,"rental_uris":{"android":"levelo://app?vid=d877e927-d1d2-4348-abc9-9ffe6d013330","ios":"levelo://app?vid=d877e927-d1d2-4348-abc9-9ffe6d013330"},"vehicle_type_id":"4","last_reported":1713895742,"current_range_meters":11600,"station_id":"ce4bgj92rcd13ifvqbd0","pricing_plan_id":"cebpf4jnsgd1na2vs0mg"},{"bike_id":"d04ce2fc-318b-45b4-9276-13e3e4e4a38c","system_id":"levelo_inurba_marseille","lat":43.299717,"lon":5.384845,"is_reserved":false,"is_disabled":false,"rental_uris":{"android":"levelo://app?vid=d04ce2fc-318b-45b4-9276-13e3e4e4a38c","ios":"levelo://app?vid=d04ce2fc-318b-45b4-9276-13e3e4e4a38c"},"vehicle_type_id":"4","last_reported":1713895742,"current_range_meters":19200,"station_id":"ce4bgj92rcd13ifvqbd0","pricing_plan_id":"cebpf4jnsgd1na2vs0mg"},{"bike_id":"260aca18-648f-4fc8-8f6f-cfed7500afa5","system_id":"levelo_inurba_marseille","lat":43.300046,"lon":5.385555,"is_reserved":false,"is_disabled":false,"rental_uris":{"android":"levelo://app?vid=260aca18-648f-4fc8-8f6f-cfed7500afa5","ios":"levelo://app?vid=260aca18-648f-4fc8-8f6f-cfed7500afa5"},"vehicle_type_id":"4","last_reported":1713895742,"current_range_meters":25200,"station_id":"ce4bgj92rcd13ifvqbd0","pricing_plan_id":"cebpf4jnsgd1na2vs0mg"},{"bike_id":"4dbc8b81-0b61-4471-aaeb-d9f418bf7f91","system_id":"levelo_inurba_marseille","lat":43.32365,"lon":5.38885,"is_reserved":false,"is_disabled":false,"rental_uris":{"android":"levelo://app?vid=4dbc8b81-0b61-4471-aaeb-d9f418bf7f91","ios":"levelo://app?vid=4dbc8b81-0b61-4471-aaeb-d9f418bf7f91"},"vehicle_type_id":"4","last_reported":1713895742,"current_range_meters":5600,"station_id":"ce4bhqp2rcd13ifvqhog","pricing_plan_id":"cebpf4jnsgd1na2vs0mg"},{"bike_id":"4029d2de-566f-4179-9d03-4e5ea347aa85","system_id":"levelo_inurba_marseille","lat":43.29607,"lon":5.38101,"is_reserved":false,"is_disabled":false,"rental_uris":{"android":"levelo://app?vid=4029d2de-566f-4179-9d03-4e5ea347aa85","ios":"levelo://app?vid=4029d2de-566f-4179-9d03-4e5ea347aa85"},"vehicle_type_id":"4","last_reported":1713895742,"current_range_meters":23600,"station_id":"ce4bgl12rcd13ifvqbo0","pricing_plan_id":"cebpf4jnsgd1na2vs0mg"},{"bike_id":"0e1eb2d6-aff7-464a-b2f8-7aa17c220977","system_id":"levelo_inurba_marseille","lat":43.29602,"lon":5.381084,"is_reserved":false,"is_disabled":false,"rental_uris":{"android":"levelo://app?vid=0e1eb2d6-aff7-464a-b2f8-7aa17c220977","ios":"levelo://app?vid=0e1eb2d6-aff7-464a-b2f8-7aa17c220977"},"vehicle_type_id":"4","last_reported":1713895742,"current_range_meters":13600,"station_id":"ce4bgl12rcd13ifvqbo0","pricing_plan_id":"cebpf4jnsgd1na2vs0mg"},{"bike_id":"f3a6b3d8-6ff4-4ed9-a7e1-695ac1f9d609","system_id":"levelo_inurba_marseille","lat":43.295952,"lon":5.381036,"is_reserved":false,"is_disabled":false,"rental_uris":{"android":"levelo://app?vid=f3a6b3d8-6ff4-4ed9-a7e1-695ac1f9d609","ios":"levelo://app?vid=f3a6b3d8-6ff4-4ed9-a7e1-695ac1f9d609"},"vehicle_type_id":"4","last_reported":1713895742,"current_range_meters":10800,"station_id":"ce4bgl12rcd13ifvqbo0","pricing_plan_id":"cebpf4jnsgd1na2vs0mg"},{"bike_id":"87708d70-1f9b-47c0-9c93-34476891a8de","system_id":"levelo_inurba_marseille","lat":43.29592,"lon":5.38107,"is_reserved":false,"is_disabled":false,"rental_uris":{"android":"levelo://app?vid=87708d70-1f9b-47c0-9c93-34476891a8de","ios":"levelo://app?vid=87708d70-1f9b-47c0-9c93-34476891a8de"},"vehicle_type_id":"4","last_reported":1713895742,"current_range_meters":13200,"station_id":"ce4bgl12rcd13ifvqbo0","pricing_plan_id":"cebpf4jnsgd1na2vs0mg"},{"bike_id":"ad07bfbc-f572-4385-b77f-718223317e1e","system_id":"levelo_inurba_marseille","lat":43.29312,"lon":5.37179,"is_reserved":false,"is_disabled":false,"rental_uris":{"android":"levelo://app?vid=ad07bfbc-f572-4385-b77f-718223317e1e","ios":"levelo://app?vid=ad07bfbc-f572-4385-b77f-718223317e1e"},"vehicle_type_id":"4","last_reported":1713895742,"current_range_meters":14800,"station_id":"ce4bgh92rcd13ifvqb40","pricing_plan_id":"cebpf4jnsgd1na2vs0mg"},{"bike_id":"e5e4321d-9a15-4438-bb1a-956ae8bd001d","system_id":"levelo_inurba_marseille","lat":43.29311,"lon":5.37173,"is_reserved":false,"is_disabled":false,"rental_uris":{"android":"levelo://app?vid=e5e4321d-9a15-4438-bb1a-956ae8bd001d","ios":"levelo://app?vid=e5e4321d-9a15-4438-bb1a-956ae8bd001d"},"vehicle_type_id":"4","last_reported":1713895742,"current_range_meters":0,"station_id":"ce4bgh92rcd13ifvqb40","pricing_plan_id":"cebpf4jnsgd1na2vs0mg"},{"bike_id":"4c7c6755-e8bc-4562-a7d5-20bc6c6fe7d4","system_id":"levelo_inurba_marseille","lat":43.29309,"lon":5.37183,"is_reserved":false,"is_disabled":false,"rental_uris":{"android":"levelo://app?vid=4c7c6755-e8bc-4562-a7d5-20bc6c6fe7d4","ios":"levelo://app?vid=4c7c6755-e8bc-4562-a7d5-20bc6c6fe7d4"},"vehicle_type_id":"4","last_reported":1713895742,"current_range_meters":17200,"station_id":"ce4bgh92rcd13ifvqb40","pricing_plan_id":"cebpf4jnsgd1na2vs0mg"},{"bike_id":"d276a9b2-b3a3-457a-a99d-caa70b43011f","system_id":"levelo_inurba_marseille","lat":43.29305,"lon":5.37177,"is_reserved":false,"is_disabled":false,"rental_uris":{"android":"levelo://app?vid=d276a9b2-b3a3-457a-a99d-caa70b43011f","ios":"levelo://app?vid=d276a9b2-b3a3-457a-a99d-caa70b43011f"},"vehicle_type_id":"4","last_reported":1713895742,"current_range_meters":25200,"station_id":"ce4bgh92rcd13ifvqb40","pricing_plan_id":"cebpf4jnsgd1na2vs0mg"},{"bike_id":"76ef4a58-9cfc-4a14-838c-7ce5dc68ebf5","system_id":"levelo_inurba_marseille","lat":43.29303,"lon":5.37178,"is_reserved":false,"is_disabled":false,"rental_uris":{"android":"levelo://app?vid=76ef4a58-9cfc-4a14-838c-7ce5dc68ebf5","ios":"levelo://app?vid=76ef4a58-9cfc-4a14-838c-7ce5dc68ebf5"},"vehicle_type_id":"4","last_reported":1713895742,"current_range_meters":11200,"station_id":"ce4bgh92rcd13ifvqb40","pricing_plan_id":"cebpf4jnsgd1na2vs0mg"},{"bike_id":"cce331dd-468e-476d-829c-ac5d97eb46f1","system_id":"levelo_inurba_marseille","lat":43.292749,"lon":5.368402,"is_reserved":false,"is_disabled":false,"rental_uris":{"android":"levelo://app?vid=cce331dd-468e-476d-829c-ac5d97eb46f1","ios":"levelo://app?vid=cce331dd-468e-476d-829c-ac5d97eb46f1"},"vehicle_type_id":"4","last_reported":1713895742,"current_range_meters":3600,"station_id":"ce4bhbp2rcd13ifvqesg","pricing_plan_id":"cebpf4jnsgd1na2vs0mg"},{"bike_id":"684b5fb4-556d-4da6-bae9-5b525aed2cea","system_id":"levelo_inurba_marseille","lat":43.292749,"lon":5.368402,"is_reserved":false,"is_disabled":false,"rental_uris":{"android":"levelo://app?vid=684b5fb4-556d-4da6-bae9-5b525aed2cea","ios":"levelo://app?vid=684b5fb4-556d-4da6-bae9-5b525aed2cea"},"vehicle_type_id":"4","last_reported":1713895742,"current_range_meters":24000,"station_id":"ce4bhbp2rcd13ifvqesg","pricing_plan_id":"cebpf4jnsgd1na2vs0mg"},{"bike_id":"291492ff-14ba-45d3-a6ed-37bc022326a1","system_id":"levelo_inurba_marseille","lat":43.292311,"lon":5.360731,"is_reserved":false,"is_disabled":false,"rental_uris":{"android":"levelo://app?vid=291492ff-14ba-45d3-a6ed-37bc022326a1","ios":"levelo://app?vid=291492ff-14ba-45d3-a6ed-37bc022326a1"},"vehicle_type_id":"4","last_reported":1713895742,"current_range_meters":400,"station_id":"ce4bhbh2rcd13ifvqeqg","pricing_plan_id":"cebpf4jnsgd1na2vs0mg"},{"bike_id":"d50f020f-1dbb-439f-a5cf-aec78f9e17f6","system_id":"levelo_inurba_marseille","lat":43.29301,"lon":5.3745,"is_reserved":false,"is_disabled":false,"rental_uris":{"android":"levelo://app?vid=d50f020f-1dbb-439f-a5cf-aec78f9e17f6","ios":"levelo://app?vid=d50f020f-1dbb-439f-a5cf-aec78f9e17f6"},"vehicle_type_id":"4","last_reported":1713895742,"current_range_meters":0,"station_id":"ce4bgi12rcd13ifvqb70","pricing_plan_id":"cebpf4jnsgd1na2vs0mg"},{"bike_id":"2c62173c-9008-4d50-8fb8-b6753eba37ac","system_id":"levelo_inurba_marseille","lat":43.305994,"lon":5.393687,"is_reserved":false,"is_disabled":false,"rental_uris":{"android":"levelo://app?vid=2c62173c-9008-4d50-8fb8-b6753eba37ac","ios":"levelo://app?vid=2c62173c-9008-4d50-8fb8-b6753eba37ac"},"vehicle_type_id":"4","last_reported":1713895742,"current_range_meters":6800,"station_id":"ce4bh0p2rcd13ifvqd80","pricing_plan_id":"cebpf4jnsgd1na2vs0mg"},{"bike_id":"47c6b21e-ff9f-4fa1-b5fd-1c7e9a85fbf8","system_id":"levelo_inurba_marseille","lat":43.305994,"lon":5.393687,"is_reserved":false,"is_disabled":false,"rental_uris":{"android":"levelo://app?vid=47c6b21e-ff9f-4fa1-b5fd-1c7e9a85fbf8","ios":"levelo://app?vid=47c6b21e-ff9f-4fa1-b5fd-1c7e9a85fbf8"},"vehicle_type_id":"4","last_reported":1713895742,"current_range_meters":5200,"station_id":"ce4bh0p2rcd13ifvqd80","pricing_plan_id":"cebpf4jnsgd1na2vs0mg"},{"bike_id":"0e5522a5-1f07-4843-8d68-4083cc92c59a","system_id":"levelo_inurba_marseille","lat":43.312609,"lon":5.401662,"is_reserved":false,"is_disabled":false,"rental_uris":{"android":"levelo://app?vid=0e5522a5-1f07-4843-8d68-4083cc92c59a","ios":"levelo://app?vid=0e5522a5-1f07-4843-8d68-4083cc92c59a"},"vehicle_type_id":"4","last_reported":1713895742,"current_range_meters":6800,"station_id":"ce4bh092rcd13ifvqd30","pricing_plan_id":"cebpf4jnsgd1na2vs0mg"},{"bike_id":"9e39986a-d26e-469f-b8ca-39e49ad238b0","system_id":"levelo_inurba_marseille","lat":43.293009,"lon":5.374584,"is_reserved":false,"is_disabled":false,"rental_uris":{"android":"levelo://app?vid=9e39986a-d26e-469f-b8ca-39e49ad238b0","ios":"levelo://app?vid=9e39986a-d26e-469f-b8ca-39e49ad238b0"},"vehicle_type_id":"4","last_reported":1713895742,"current_range_meters":6000,"station_id":"ce4bgi12rcd13ifvqb70","pricing_plan_id":"cebpf4jnsgd1na2vs0mg"},{"bike_id":"b6cd2437-71a7-4c54-a073-a290524b07ed","system_id":"levelo_inurba_marseille","lat":43.293009,"lon":5.374584,"is_reserved":false,"is_disabled":false,"rental_uris":{"android":"levelo://app?vid=b6cd2437-71a7-4c54-a073-a290524b07ed","ios":"levelo://app?vid=b6cd2437-71a7-4c54-a073-a290524b07ed"},"vehicle_type_id":"4","last_reported":1713895742,"current_range_meters":21600,"station_id":"ce4bgi12rcd13ifvqb70","pricing_plan_id":"cebpf4jnsgd1na2vs0mg"},{"bike_id":"4a622338-f290-4bbf-a5f1-a948a45a2259","system_id":"levelo_inurba_marseille","lat":43.293009,"lon":5.374584,"is_reserved":false,"is_disabled":false,"rental_uris":{"android":"levelo://app?vid=4a622338-f290-4bbf-a5f1-a948a45a2259","ios":"levelo://app?vid=4a622338-f290-4bbf-a5f1-a948a45a2259"},"vehicle_type_id":"4","last_reported":1713895742,"current_range_meters":0,"station_id":"ce4bgi12rcd13ifvqb70","pricing_plan_id":"cebpf4jnsgd1na2vs0mg"},{"bike_id":"c1443701-262f-4196-9a1e-1d7d5b605a80","system_id":"levelo_inurba_marseille","lat":43.305994,"lon":5.393687,"is_reserved":false,"is_disabled":false,"rental_uris":{"android":"levelo://app?vid=c1443701-262f-4196-9a1e-1d7d5b605a80","ios":"levelo://app?vid=c1443701-262f-4196-9a1e-1d7d5b605a80"},"vehicle_type_id":"4","last_reported":1713895742,"current_range_meters":15200,"station_id":"ce4bh0p2rcd13ifvqd80","pricing_plan_id":"cebpf4jnsgd1na2vs0mg"},{"bike_id":"ea553df3-d60c-4b3a-9d1a-aaae09188a36","system_id":"levelo_inurba_marseille","lat":43.305994,"lon":5.393687,"is_reserved":false,"is_disabled":false,"rental_uris":{"android":"levelo://app?vid=ea553df3-d60c-4b3a-9d1a-aaae09188a36","ios":"levelo://app?vid=ea553df3-d60c-4b3a-9d1a-aaae09188a36"},"vehicle_type_id":"4","last_reported":1713895742,"current_range_meters":24400,"station_id":"ce4bh0p2rcd13ifvqd80","pricing_plan_id":"cebpf4jnsgd1na2vs0mg"},{"bike_id":"7ad5ec0e-14f9-41ef-895a-8a9be2f27239","system_id":"levelo_inurba_marseille","lat":43.286591,"lon":5.363346,"is_reserved":false,"is_disabled":false,"rental_uris":{"android":"levelo://app?vid=7ad5ec0e-14f9-41ef-895a-8a9be2f27239","ios":"levelo://app?vid=7ad5ec0e-14f9-41ef-895a-8a9be2f27239"},"vehicle_type_id":"4","last_reported":1713895742,"current_range_meters":22800,"station_id":"ce4bhah2rcd13ifvqej0","pricing_plan_id":"cebpf4jnsgd1na2vs0mg"},{"bike_id":"b716da3b-6157-4f7e-bdd6-169c429375df","system_id":"levelo_inurba_marseille","lat":43.293009,"lon":5.374584,"is_reserved":false,"is_disabled":false,"rental_uris":{"android":"levelo://app?vid=b716da3b-6157-4f7e-bdd6-169c429375df","ios":"levelo://app?vid=b716da3b-6157-4f7e-bdd6-169c429375df"},"vehicle_type_id":"4","last_reported":1713895742,"current_range_meters":400,"station_id":"ce4bgi12rcd13ifvqb70","pricing_plan_id":"cebpf4jnsgd1na2vs0mg"},{"bike_id":"fd00da7b-443c-463d-84d4-94f3d330afba","system_id":"levelo_inurba_marseille","lat":43.293009,"lon":5.374584,"is_reserved":false,"is_disabled":false,"rental_uris":{"android":"levelo://app?vid=fd00da7b-443c-463d-84d4-94f3d330afba","ios":"levelo://app?vid=fd00da7b-443c-463d-84d4-94f3d330afba"},"vehicle_type_id":"4","last_reported":1713895742,"current_range_meters":400,"station_id":"ce4bgi12rcd13ifvqb70","pricing_plan_id":"cebpf4jnsgd1na2vs0mg"},{"bike_id":"41a16ad8-1ff9-4c79-92c3-50c17e3cc77b","system_id":"levelo_inurba_marseille","lat":43.293009,"lon":5.374584,"is_reserved":false,"is_disabled":false,"rental_uris":{"android":"levelo://app?vid=41a16ad8-1ff9-4c79-92c3-50c17e3cc77b","ios":"levelo://app?vid=41a16ad8-1ff9-4c79-92c3-50c17e3cc77b"},"vehicle_type_id":"4","last_reported":1713895742,"current_range_meters":1600,"station_id":"ce4bgi12rcd13ifvqb70","pricing_plan_id":"cebpf4jnsgd1na2vs0mg"},{"bike_id":"08161e0f-63dc-4594-a412-ecce42d8ac7c","system_id":"levelo_inurba_marseille","lat":43.293009,"lon":5.374584,"is_reserved":false,"is_disabled":false,"rental_uris":{"android":"levelo://app?vid=08161e0f-63dc-4594-a412-ecce42d8ac7c","ios":"levelo://app?vid=08161e0f-63dc-4594-a412-ecce42d8ac7c"},"vehicle_type_id":"4","last_reported":1713895742,"current_range_meters":21600,"station_id":"ce4bgi12rcd13ifvqb70","pricing_plan_id":"cebpf4jnsgd1na2vs0mg"},{"bike_id":"4fd274d0-4f9c-4087-b797-897023ffcb33","system_id":"levelo_inurba_marseille","lat":43.303067,"lon":5.392016,"is_reserved":false,"is_disabled":false,"rental_uris":{"android":"levelo://app?vid=4fd274d0-4f9c-4087-b797-897023ffcb33","ios":"levelo://app?vid=4fd274d0-4f9c-4087-b797-897023ffcb33"},"vehicle_type_id":"4","last_reported":1713895742,"current_range_meters":25600,"station_id":"ce4bgkh2rcd13ifvqbk0","pricing_plan_id":"cebpf4jnsgd1na2vs0mg"},{"bike_id":"f4aee84e-524c-44f7-bc69-85c11a586763","system_id":"levelo_inurba_marseille","lat":43.3031,"lon":5.3921,"is_reserved":false,"is_disabled":false,"rental_uris":{"android":"levelo://app?vid=f4aee84e-524c-44f7-bc69-85c11a586763","ios":"levelo://app?vid=f4aee84e-524c-44f7-bc69-85c11a586763"},"vehicle_type_id":"4","last_reported":1713895742,"current_range_meters":10400,"station_id":"ce4bgkh2rcd13ifvqbk0","pricing_plan_id":"cebpf4jnsgd1na2vs0mg"},{"bike_id":"165634ad-53bd-47db-a631-2cac0d1efcc5","system_id":"levelo_inurba_marseille","lat":43.303002,"lon":5.392142,"is_reserved":false,"is_disabled":false,"rental_uris":{"android":"levelo://app?vid=165634ad-53bd-47db-a631-2cac0d1efcc5","ios":"levelo://app?vid=165634ad-53bd-47db-a631-2cac0d1efcc5"},"vehicle_type_id":"4","last_reported":1713895742,"current_range_meters":5600,"station_id":"ce4bgkh2rcd13ifvqbk0","pricing_plan_id":"cebpf4jnsgd1na2vs0mg"},{"bike_id":"6a1bf0db-f46f-4908-8dea-916beff56b5f","system_id":"levelo_inurba_marseille","lat":43.303002,"lon":5.392142,"is_reserved":false,"is_disabled":false,"rental_uris":{"android":"levelo://app?vid=6a1bf0db-f46f-4908-8dea-916beff56b5f","ios":"levelo://app?vid=6a1bf0db-f46f-4908-8dea-916beff56b5f"},"vehicle_type_id":"4","last_reported":1713895742,"current_range_meters":13600,"station_id":"ce4bgkh2rcd13ifvqbk0","pricing_plan_id":"cebpf4jnsgd1na2vs0mg"},{"bike_id":"aac96630-89cd-4d5c-93cb-6302e1b94eef","system_id":"levelo_inurba_marseille","lat":43.303002,"lon":5.392142,"is_reserved":false,"is_disabled":false,"rental_uris":{"android":"levelo://app?vid=aac96630-89cd-4d5c-93cb-6302e1b94eef","ios":"levelo://app?vid=aac96630-89cd-4d5c-93cb-6302e1b94eef"},"vehicle_type_id":"4","last_reported":1713895742,"current_range_meters":11600,"station_id":"ce4bgkh2rcd13ifvqbk0","pricing_plan_id":"cebpf4jnsgd1na2vs0mg"},{"bike_id":"55358bab-35f3-4ec0-a2f8-93b83406fd58","system_id":"levelo_inurba_marseille","lat":43.302992,"lon":5.392136,"is_reserved":false,"is_disabled":false,"rental_uris":{"android":"levelo://app?vid=55358bab-35f3-4ec0-a2f8-93b83406fd58","ios":"levelo://app?vid=55358bab-35f3-4ec0-a2f8-93b83406fd58"},"vehicle_type_id":"4","last_reported":1713895742,"current_range_meters":31200,"station_id":"ce4bgkh2rcd13ifvqbk0","pricing_plan_id":"cebpf4jnsgd1na2vs0mg"},{"bike_id":"f2400b45-19ce-41e2-bd8b-d8d441e50e2b","system_id":"levelo_inurba_marseille","lat":43.292311,"lon":5.360731,"is_reserved":false,"is_disabled":false,"rental_uris":{"android":"levelo://app?vid=f2400b45-19ce-41e2-bd8b-d8d441e50e2b","ios":"levelo://app?vid=f2400b45-19ce-41e2-bd8b-d8d441e50e2b"},"vehicle_type_id":"4","last_reported":1713895742,"current_range_meters":8400,"station_id":"ce4bhbh2rcd13ifvqeqg","pricing_plan_id":"cebpf4jnsgd1na2vs0mg"},{"bike_id":"b8ee0954-a85f-4da2-9392-a11e6b9d21bd","system_id":"levelo_inurba_marseille","lat":43.2968,"lon":5.37291,"is_reserved":false,"is_disabled":false,"rental_uris":{"android":"levelo://app?vid=b8ee0954-a85f-4da2-9392-a11e6b9d21bd","ios":"levelo://app?vid=b8ee0954-a85f-4da2-9392-a11e6b9d21bd"},"vehicle_type_id":"4","last_reported":1713895742,"current_range_meters":13200,"station_id":"ce4bgk12rcd13ifvqbj0","pricing_plan_id":"cebpf4jnsgd1na2vs0mg"},{"bike_id":"313015ce-7a3d-4e74-bb87-86ddbb60203b","system_id":"levelo_inurba_marseille","lat":43.2936,"lon":5.37835,"is_reserved":false,"is_disabled":false,"rental_uris":{"android":"levelo://app?vid=313015ce-7a3d-4e74-bb87-86ddbb60203b","ios":"levelo://app?vid=313015ce-7a3d-4e74-bb87-86ddbb60203b"},"vehicle_type_id":"4","last_reported":1713895742,"current_range_meters":6400,"station_id":"ce4bgjh2rcd13ifvqbf0","pricing_plan_id":"cebpf4jnsgd1na2vs0mg"},{"bike_id":"392d772d-d376-4fa8-9237-65499055f926","system_id":"levelo_inurba_marseille","lat":43.2936,"lon":5.37835,"is_reserved":false,"is_disabled":false,"rental_uris":{"android":"levelo://app?vid=392d772d-d376-4fa8-9237-65499055f926","ios":"levelo://app?vid=392d772d-d376-4fa8-9237-65499055f926"},"vehicle_type_id":"4","last_reported":1713895742,"current_range_meters":6400,"station_id":"ce4bgjh2rcd13ifvqbf0","pricing_plan_id":"cebpf4jnsgd1na2vs0mg"},{"bike_id":"76ea192c-143a-49bd-b108-2230e55d36fb","system_id":"levelo_inurba_marseille","lat":43.241782,"lon":5.397261,"is_reserved":false,"is_disabled":false,"rental_uris":{"android":"levelo://app?vid=76ea192c-143a-49bd-b108-2230e55d36fb","ios":"levelo://app?vid=76ea192c-143a-49bd-b108-2230e55d36fb"},"vehicle_type_id":"4","last_reported":1713895742,"current_range_meters":14000,"station_id":"ce4bhn12rcd13ifvqgpg","pricing_plan_id":"cebpf4jnsgd1na2vs0mg"},{"bike_id":"934889b4-f84b-4dc3-879a-0db25446b78d","system_id":"levelo_inurba_marseille","lat":43.30095,"lon":5.390707,"is_reserved":false,"is_disabled":false,"rental_uris":{"android":"levelo://app?vid=934889b4-f84b-4dc3-879a-0db25446b78d","ios":"levelo://app?vid=934889b4-f84b-4dc3-879a-0db25446b78d"},"vehicle_type_id":"4","last_reported":1713895742,"current_range_meters":20400,"station_id":"ce4bh192rcd13ifvqdb0","pricing_plan_id":"cebpf4jnsgd1na2vs0mg"},{"bike_id":"ebaf2b72-2e76-41f3-b39f-5431a648b5dd","system_id":"levelo_inurba_marseille","lat":43.292311,"lon":5.360731,"is_reserved":false,"is_disabled":false,"rental_uris":{"android":"levelo://app?vid=ebaf2b72-2e76-41f3-b39f-5431a648b5dd","ios":"levelo://app?vid=ebaf2b72-2e76-41f3-b39f-5431a648b5dd"},"vehicle_type_id":"4","last_reported":1713895742,"current_range_meters":3600,"station_id":"ce4bhbh2rcd13ifvqeqg","pricing_plan_id":"cebpf4jnsgd1na2vs0mg"},{"bike_id":"e3452ebd-1c69-4ec9-8a8d-6853cc26cc22","system_id":"levelo_inurba_marseille","lat":43.300983,"lon":5.390824,"is_reserved":false,"is_disabled":false,"rental_uris":{"android":"levelo://app?vid=e3452ebd-1c69-4ec9-8a8d-6853cc26cc22","ios":"levelo://app?vid=e3452ebd-1c69-4ec9-8a8d-6853cc26cc22"},"vehicle_type_id":"4","last_reported":1713895742,"current_range_meters":30000,"station_id":"ce4bh192rcd13ifvqdb0","pricing_plan_id":"cebpf4jnsgd1na2vs0mg"},{"bike_id":"eec93a94-c64e-4291-9c82-44fd1544bd1a","system_id":"levelo_inurba_marseille","lat":43.2936,"lon":5.37835,"is_reserved":false,"is_disabled":false,"rental_uris":{"android":"levelo://app?vid=eec93a94-c64e-4291-9c82-44fd1544bd1a","ios":"levelo://app?vid=eec93a94-c64e-4291-9c82-44fd1544bd1a"},"vehicle_type_id":"4","last_reported":1713895742,"current_range_meters":6000,"station_id":"ce4bgjh2rcd13ifvqbf0","pricing_plan_id":"cebpf4jnsgd1na2vs0mg"},{"bike_id":"4096d155-c87a-4249-8f5a-8771855d906b","system_id":"levelo_inurba_marseille","lat":43.30101,"lon":5.39091,"is_reserved":false,"is_disabled":false,"rental_uris":{"android":"levelo://app?vid=4096d155-c87a-4249-8f5a-8771855d906b","ios":"levelo://app?vid=4096d155-c87a-4249-8f5a-8771855d906b"},"vehicle_type_id":"4","last_reported":1713895742,"current_range_meters":7600,"station_id":"","pricing_plan_id":"cebpf4jnsgd1na2vs0mg"},{"bike_id":"69b79154-3fdd-4212-af0d-b9523f24adfb","system_id":"levelo_inurba_marseille","lat":43.293009,"lon":5.374584,"is_reserved":false,"is_disabled":false,"rental_uris":{"android":"levelo://app?vid=69b79154-3fdd-4212-af0d-b9523f24adfb","ios":"levelo://app?vid=69b79154-3fdd-4212-af0d-b9523f24adfb"},"vehicle_type_id":"4","last_reported":1713895742,"current_range_meters":14800,"station_id":"ce4bgi12rcd13ifvqb70","pricing_plan_id":"cebpf4jnsgd1na2vs0mg"},{"bike_id":"3332da14-161c-46c4-a398-996988cecec2","system_id":"levelo_inurba_marseille","lat":43.29268,"lon":5.376265,"is_reserved":false,"is_disabled":false,"rental_uris":{"android":"levelo://app?vid=3332da14-161c-46c4-a398-996988cecec2","ios":"levelo://app?vid=3332da14-161c-46c4-a398-996988cecec2"},"vehicle_type_id":"4","last_reported":1713895742,"current_range_meters":2800,"station_id":"","pricing_plan_id":"cebpf4jnsgd1na2vs0mg"},{"bike_id":"0f4a7a2e-4fab-4fb0-ad6b-903d255f7e73","system_id":"levelo_inurba_marseille","lat":43.30085,"lon":5.390856,"is_reserved":false,"is_disabled":false,"rental_uris":{"android":"levelo://app?vid=0f4a7a2e-4fab-4fb0-ad6b-903d255f7e73","ios":"levelo://app?vid=0f4a7a2e-4fab-4fb0-ad6b-903d255f7e73"},"vehicle_type_id":"4","last_reported":1713895742,"current_range_meters":8800,"station_id":"ce4bh192rcd13ifvqdb0","pricing_plan_id":"cebpf4jnsgd1na2vs0mg"},{"bike_id":"1512ebf4-46a5-437a-b1ce-d91fba433743","system_id":"levelo_inurba_marseille","lat":43.29267,"lon":5.376273,"is_reserved":false,"is_disabled":false,"rental_uris":{"android":"levelo://app?vid=1512ebf4-46a5-437a-b1ce-d91fba433743","ios":"levelo://app?vid=1512ebf4-46a5-437a-b1ce-d91fba433743"},"vehicle_type_id":"4","last_reported":1713895742,"current_range_meters":10800,"station_id":"","pricing_plan_id":"cebpf4jnsgd1na2vs0mg"},{"bike_id":"5c2094b6-6a28-45e1-a4ed-585003b26214","system_id":"levelo_inurba_marseille","lat":43.29176,"lon":5.37143,"is_reserved":false,"is_disabled":false,"rental_uris":{"android":"levelo://app?vid=5c2094b6-6a28-45e1-a4ed-585003b26214","ios":"levelo://app?vid=5c2094b6-6a28-45e1-a4ed-585003b26214"},"vehicle_type_id":"4","last_reported":1713895742,"current_range_meters":0,"station_id":"ce4bha92rcd13ifvqeh0","pricing_plan_id":"cebpf4jnsgd1na2vs0mg"},{"bike_id":"ec73e063-1251-4c09-bde2-7b8f5ad12e31","system_id":"levelo_inurba_marseille","lat":43.29888,"lon":5.38908,"is_reserved":false,"is_disabled":false,"rental_uris":{"android":"levelo://app?vid=ec73e063-1251-4c09-bde2-7b8f5ad12e31","ios":"levelo://app?vid=ec73e063-1251-4c09-bde2-7b8f5ad12e31"},"vehicle_type_id":"4","last_reported":1713895742,"current_range_meters":19200,"station_id":"ce4bh392rcd13ifvqdl0","pricing_plan_id":"cebpf4jnsgd1na2vs0mg"},{"bike_id":"172bd764-1a79-4717-a22d-bad353fbe96c","system_id":"levelo_inurba_marseille","lat":43.29886,"lon":5.38916,"is_reserved":false,"is_disabled":false,"rental_uris":{"android":"levelo://app?vid=172bd764-1a79-4717-a22d-bad353fbe96c","ios":"levelo://app?vid=172bd764-1a79-4717-a22d-bad353fbe96c"},"vehicle_type_id":"4","last_reported":1713895742,"current_range_meters":2400,"station_id":"ce4bh392rcd13ifvqdl0","pricing_plan_id":"cebpf4jnsgd1na2vs0mg"},{"bike_id":"aa5aa651-10bc-4297-a98b-d944ee584c16","system_id":"levelo_inurba_marseille","lat":43.291675,"lon":5.371583,"is_reserved":false,"is_disabled":false,"rental_uris":{"android":"levelo://app?vid=aa5aa651-10bc-4297-a98b-d944ee584c16","ios":"levelo://app?vid=aa5aa651-10bc-4297-a98b-d944ee584c16"},"vehicle_type_id":"4","last_reported":1713895742,"current_range_meters":25200,"station_id":"ce4bha92rcd13ifvqeh0","pricing_plan_id":"cebpf4jnsgd1na2vs0mg"},{"bike_id":"35fba041-b40b-498e-89b4-e728d130612a","system_id":"levelo_inurba_marseille","lat":43.291675,"lon":5.371583,"is_reserved":false,"is_disabled":false,"rental_uris":{"android":"levelo://app?vid=35fba041-b40b-498e-89b4-e728d130612a","ios":"levelo://app?vid=35fba041-b40b-498e-89b4-e728d130612a"},"vehicle_type_id":"4","last_reported":1713895742,"current_range_meters":9200,"station_id":"ce4bha92rcd13ifvqeh0","pricing_plan_id":"cebpf4jnsgd1na2vs0mg"},{"bike_id":"f5cb8e14-f78f-48ce-9eab-2919039b927a","system_id":"levelo_inurba_marseille","lat":43.301235,"lon":5.391779,"is_reserved":false,"is_disabled":false,"rental_uris":{"android":"levelo://app?vid=f5cb8e14-f78f-48ce-9eab-2919039b927a","ios":"levelo://app?vid=f5cb8e14-f78f-48ce-9eab-2919039b927a"},"vehicle_type_id":"4","last_reported":1713895742,"current_range_meters":7600,"station_id":"ce4bh192rcd13ifvqdb0","pricing_plan_id":"cebpf4jnsgd1na2vs0mg"},{"bike_id":"5cd225d1-12a1-4dbd-980c-6ab328c5e0b8","system_id":"levelo_inurba_marseille","lat":43.291675,"lon":5.371583,"is_reserved":false,"is_disabled":false,"rental_uris":{"android":"levelo://app?vid=5cd225d1-12a1-4dbd-980c-6ab328c5e0b8","ios":"levelo://app?vid=5cd225d1-12a1-4dbd-980c-6ab328c5e0b8"},"vehicle_type_id":"4","last_reported":1713895742,"current_range_meters":13600,"station_id":"ce4bha92rcd13ifvqeh0","pricing_plan_id":"cebpf4jnsgd1na2vs0mg"},{"bike_id":"b4bc48bc-fb6f-4dcc-add6-78f85e6c0fc1","system_id":"levelo_inurba_marseille","lat":43.313291,"lon":5.396838,"is_reserved":false,"is_disabled":false,"rental_uris":{"android":"levelo://app?vid=b4bc48bc-fb6f-4dcc-add6-78f85e6c0fc1","ios":"levelo://app?vid=b4bc48bc-fb6f-4dcc-add6-78f85e6c0fc1"},"vehicle_type_id":"4","last_reported":1713895742,"current_range_meters":14000,"station_id":"ce4bgvp2rcd13ifvqcu0","pricing_plan_id":"cebpf4jnsgd1na2vs0mg"},{"bike_id":"78de36d7-6df8-4fc5-8535-1faf25075482","system_id":"levelo_inurba_marseille","lat":43.309047,"lon":5.396551,"is_reserved":false,"is_disabled":false,"rental_uris":{"android":"levelo://app?vid=78de36d7-6df8-4fc5-8535-1faf25075482","ios":"levelo://app?vid=78de36d7-6df8-4fc5-8535-1faf25075482"},"vehicle_type_id":"4","last_reported":1713895742,"current_range_meters":27600,"station_id":"ce4bh012rcd13ifvqcv0","pricing_plan_id":"cebpf4jnsgd1na2vs0mg"},{"bike_id":"585944e5-b174-4f1c-a9ed-aedd20aef470","system_id":"levelo_inurba_marseille","lat":43.309047,"lon":5.396551,"is_reserved":false,"is_disabled":false,"rental_uris":{"android":"levelo://app?vid=585944e5-b174-4f1c-a9ed-aedd20aef470","ios":"levelo://app?vid=585944e5-b174-4f1c-a9ed-aedd20aef470"},"vehicle_type_id":"4","last_reported":1713895742,"current_range_meters":28000,"station_id":"ce4bh012rcd13ifvqcv0","pricing_plan_id":"cebpf4jnsgd1na2vs0mg"},{"bike_id":"e321408b-0e43-41da-993e-0db2c5de41c4","system_id":"levelo_inurba_marseille","lat":43.30881,"lon":5.39634,"is_reserved":false,"is_disabled":false,"rental_uris":{"android":"levelo://app?vid=e321408b-0e43-41da-993e-0db2c5de41c4","ios":"levelo://app?vid=e321408b-0e43-41da-993e-0db2c5de41c4"},"vehicle_type_id":"4","last_reported":1713895742,"current_range_meters":2800,"station_id":"ce4bh012rcd13ifvqcv0","pricing_plan_id":"cebpf4jnsgd1na2vs0mg"},{"bike_id":"aa417b79-ce70-47cd-832a-b382e3c22c19","system_id":"levelo_inurba_marseille","lat":43.313291,"lon":5.396838,"is_reserved":false,"is_disabled":false,"rental_uris":{"android":"levelo://app?vid=aa417b79-ce70-47cd-832a-b382e3c22c19","ios":"levelo://app?vid=aa417b79-ce70-47cd-832a-b382e3c22c19"},"vehicle_type_id":"4","last_reported":1713895742,"current_range_meters":0,"station_id":"ce4bgvp2rcd13ifvqcu0","pricing_plan_id":"cebpf4jnsgd1na2vs0mg"},{"bike_id":"988e45bb-4a60-439a-842a-a194c5547e71","system_id":"levelo_inurba_marseille","lat":43.309047,"lon":5.396551,"is_reserved":false,"is_disabled":false,"rental_uris":{"android":"levelo://app?vid=988e45bb-4a60-439a-842a-a194c5547e71","ios":"levelo://app?vid=988e45bb-4a60-439a-842a-a194c5547e71"},"vehicle_type_id":"4","last_reported":1713895742,"current_range_meters":16400,"station_id":"ce4bh012rcd13ifvqcv0","pricing_plan_id":"cebpf4jnsgd1na2vs0mg"},{"bike_id":"b8d3d99f-1a52-4caa-a75d-eb88999b9fd9","system_id":"levelo_inurba_marseille","lat":43.308928,"lon":5.396426,"is_reserved":false,"is_disabled":false,"rental_uris":{"android":"levelo://app?vid=b8d3d99f-1a52-4caa-a75d-eb88999b9fd9","ios":"levelo://app?vid=b8d3d99f-1a52-4caa-a75d-eb88999b9fd9"},"vehicle_type_id":"4","last_reported":1713895742,"current_range_meters":12000,"station_id":"ce4bh012rcd13ifvqcv0","pricing_plan_id":"cebpf4jnsgd1na2vs0mg"},{"bike_id":"b30e7edd-4d60-409e-9a56-ed46e4c3cda1","system_id":"levelo_inurba_marseille","lat":43.309038,"lon":5.396546,"is_reserved":false,"is_disabled":false,"rental_uris":{"android":"levelo://app?vid=b30e7edd-4d60-409e-9a56-ed46e4c3cda1","ios":"levelo://app?vid=b30e7edd-4d60-409e-9a56-ed46e4c3cda1"},"vehicle_type_id":"4","last_reported":1713895742,"current_range_meters":16400,"station_id":"ce4bh012rcd13ifvqcv0","pricing_plan_id":"cebpf4jnsgd1na2vs0mg"},{"bike_id":"596a3b1a-09e1-49a5-a078-65fef0cd7bf1","system_id":"levelo_inurba_marseille","lat":43.313291,"lon":5.396838,"is_reserved":false,"is_disabled":false,"rental_uris":{"android":"levelo://app?vid=596a3b1a-09e1-49a5-a078-65fef0cd7bf1","ios":"levelo://app?vid=596a3b1a-09e1-49a5-a078-65fef0cd7bf1"},"vehicle_type_id":"4","last_reported":1713895742,"current_range_meters":29600,"station_id":"ce4bgvp2rcd13ifvqcu0","pricing_plan_id":"cebpf4jnsgd1na2vs0mg"},{"bike_id":"f5785a2e-b517-4871-9602-0cb15eddc062","system_id":"levelo_inurba_marseille","lat":43.308906,"lon":5.396434,"is_reserved":false,"is_disabled":false,"rental_uris":{"android":"levelo://app?vid=f5785a2e-b517-4871-9602-0cb15eddc062","ios":"levelo://app?vid=f5785a2e-b517-4871-9602-0cb15eddc062"},"vehicle_type_id":"4","last_reported":1713895742,"current_range_meters":18400,"station_id":"ce4bh012rcd13ifvqcv0","pricing_plan_id":"cebpf4jnsgd1na2vs0mg"},{"bike_id":"0b695e1c-647f-480e-8712-dbb92db41e5b","system_id":"levelo_inurba_marseille","lat":43.313313,"lon":5.396905,"is_reserved":false,"is_disabled":false,"rental_uris":{"android":"levelo://app?vid=0b695e1c-647f-480e-8712-dbb92db41e5b","ios":"levelo://app?vid=0b695e1c-647f-480e-8712-dbb92db41e5b"},"vehicle_type_id":"4","last_reported":1713895742,"current_range_meters":12800,"station_id":"","pricing_plan_id":"cebpf4jnsgd1na2vs0mg"},{"bike_id":"09ac5ef4-0872-43a5-a251-263d8ee24ba8","system_id":"levelo_inurba_marseille","lat":43.313291,"lon":5.396838,"is_reserved":false,"is_disabled":false,"rental_uris":{"android":"levelo://app?vid=09ac5ef4-0872-43a5-a251-263d8ee24ba8","ios":"levelo://app?vid=09ac5ef4-0872-43a5-a251-263d8ee24ba8"},"vehicle_type_id":"4","last_reported":1713895742,"current_range_meters":400,"station_id":"ce4bgvp2rcd13ifvqcu0","pricing_plan_id":"cebpf4jnsgd1na2vs0mg"},{"bike_id":"abcc733a-6b50-4997-899d-6817c31810da","system_id":"levelo_inurba_marseille","lat":43.309047,"lon":5.396551,"is_reserved":false,"is_disabled":false,"rental_uris":{"android":"levelo://app?vid=abcc733a-6b50-4997-899d-6817c31810da","ios":"levelo://app?vid=abcc733a-6b50-4997-899d-6817c31810da"},"vehicle_type_id":"4","last_reported":1713895742,"current_range_meters":31200,"station_id":"ce4bh012rcd13ifvqcv0","pricing_plan_id":"cebpf4jnsgd1na2vs0mg"},{"bike_id":"7d76386a-a335-49ae-ad58-56e87e886a8d","system_id":"levelo_inurba_marseille","lat":43.313291,"lon":5.396838,"is_reserved":false,"is_disabled":false,"rental_uris":{"android":"levelo://app?vid=7d76386a-a335-49ae-ad58-56e87e886a8d","ios":"levelo://app?vid=7d76386a-a335-49ae-ad58-56e87e886a8d"},"vehicle_type_id":"4","last_reported":1713895742,"current_range_meters":15200,"station_id":"ce4bgvp2rcd13ifvqcu0","pricing_plan_id":"cebpf4jnsgd1na2vs0mg"},{"bike_id":"52483cf1-79e4-4bf8-9d12-66153df1640e","system_id":"levelo_inurba_marseille","lat":43.3089,"lon":5.39648,"is_reserved":false,"is_disabled":false,"rental_uris":{"android":"levelo://app?vid=52483cf1-79e4-4bf8-9d12-66153df1640e","ios":"levelo://app?vid=52483cf1-79e4-4bf8-9d12-66153df1640e"},"vehicle_type_id":"4","last_reported":1713895742,"current_range_meters":26400,"station_id":"ce4bh012rcd13ifvqcv0","pricing_plan_id":"cebpf4jnsgd1na2vs0mg"},{"bike_id":"24e8dbe9-0ac4-4075-be82-678ac838b0e8","system_id":"levelo_inurba_marseille","lat":43.313291,"lon":5.396838,"is_reserved":false,"is_disabled":false,"rental_uris":{"android":"levelo://app?vid=24e8dbe9-0ac4-4075-be82-678ac838b0e8","ios":"levelo://app?vid=24e8dbe9-0ac4-4075-be82-678ac838b0e8"},"vehicle_type_id":"4","last_reported":1713895742,"current_range_meters":15600,"station_id":"ce4bgvp2rcd13ifvqcu0","pricing_plan_id":"cebpf4jnsgd1na2vs0mg"},{"bike_id":"492f64a9-3812-4ebb-a564-705b63508815","system_id":"levelo_inurba_marseille","lat":43.308856,"lon":5.396502,"is_reserved":false,"is_disabled":false,"rental_uris":{"android":"levelo://app?vid=492f64a9-3812-4ebb-a564-705b63508815","ios":"levelo://app?vid=492f64a9-3812-4ebb-a564-705b63508815"},"vehicle_type_id":"4","last_reported":1713895742,"current_range_meters":4800,"station_id":"ce4bh012rcd13ifvqcv0","pricing_plan_id":"cebpf4jnsgd1na2vs0mg"},{"bike_id":"0877e327-e0dc-4d90-9a35-fb9bc0dab67f","system_id":"levelo_inurba_marseille","lat":43.30886,"lon":5.39652,"is_reserved":false,"is_disabled":false,"rental_uris":{"android":"levelo://app?vid=0877e327-e0dc-4d90-9a35-fb9bc0dab67f","ios":"levelo://app?vid=0877e327-e0dc-4d90-9a35-fb9bc0dab67f"},"vehicle_type_id":"4","last_reported":1713895742,"current_range_meters":15200,"station_id":"ce4bh012rcd13ifvqcv0","pricing_plan_id":"cebpf4jnsgd1na2vs0mg"},{"bike_id":"000b1709-3316-4747-a950-00540ffbb5e8","system_id":"levelo_inurba_marseille","lat":43.308938,"lon":5.396548,"is_reserved":false,"is_disabled":false,"rental_uris":{"android":"levelo://app?vid=000b1709-3316-4747-a950-00540ffbb5e8","ios":"levelo://app?vid=000b1709-3316-4747-a950-00540ffbb5e8"},"vehicle_type_id":"4","last_reported":1713895742,"current_range_meters":11200,"station_id":"ce4bh012rcd13ifvqcv0","pricing_plan_id":"cebpf4jnsgd1na2vs0mg"},{"bike_id":"c73c08af-827f-44ec-86a2-6b264f02b9a4","system_id":"levelo_inurba_marseille","lat":43.308855,"lon":5.39653,"is_reserved":false,"is_disabled":false,"rental_uris":{"android":"levelo://app?vid=c73c08af-827f-44ec-86a2-6b264f02b9a4","ios":"levelo://app?vid=c73c08af-827f-44ec-86a2-6b264f02b9a4"},"vehicle_type_id":"4","last_reported":1713895742,"current_range_meters":4400,"station_id":"ce4bh012rcd13ifvqcv0","pricing_plan_id":"cebpf4jnsgd1na2vs0mg"},{"bike_id":"57675b19-7617-428a-a0de-10096834b2db","system_id":"levelo_inurba_marseille","lat":43.30886,"lon":5.39654,"is_reserved":false,"is_disabled":false,"rental_uris":{"android":"levelo://app?vid=57675b19-7617-428a-a0de-10096834b2db","ios":"levelo://app?vid=57675b19-7617-428a-a0de-10096834b2db"},"vehicle_type_id":"4","last_reported":1713895742,"current_range_meters":0,"station_id":"ce4bh012rcd13ifvqcv0","pricing_plan_id":"cebpf4jnsgd1na2vs0mg"},{"bike_id":"52287e25-70c5-4e3e-9e2d-f48e72f730f7","system_id":"levelo_inurba_marseille","lat":43.30888,"lon":5.39656,"is_reserved":false,"is_disabled":false,"rental_uris":{"android":"levelo://app?vid=52287e25-70c5-4e3e-9e2d-f48e72f730f7","ios":"levelo://app?vid=52287e25-70c5-4e3e-9e2d-f48e72f730f7"},"vehicle_type_id":"4","last_reported":1713895742,"current_range_meters":2000,"station_id":"ce4bh012rcd13ifvqcv0","pricing_plan_id":"cebpf4jnsgd1na2vs0mg"},{"bike_id":"fb5456be-8533-4916-a1ef-21263ee217f7","system_id":"levelo_inurba_marseille","lat":43.30891,"lon":5.39657,"is_reserved":false,"is_disabled":false,"rental_uris":{"android":"levelo://app?vid=fb5456be-8533-4916-a1ef-21263ee217f7","ios":"levelo://app?vid=fb5456be-8533-4916-a1ef-21263ee217f7"},"vehicle_type_id":"4","last_reported":1713895742,"current_range_meters":4000,"station_id":"ce4bh012rcd13ifvqcv0","pricing_plan_id":"cebpf4jnsgd1na2vs0mg"},{"bike_id":"46e9dd12-09e4-4f13-b400-11d60dc908e2","system_id":"levelo_inurba_marseille","lat":43.308827,"lon":5.39655,"is_reserved":false,"is_disabled":false,"rental_uris":{"android":"levelo://app?vid=46e9dd12-09e4-4f13-b400-11d60dc908e2","ios":"levelo://app?vid=46e9dd12-09e4-4f13-b400-11d60dc908e2"},"vehicle_type_id":"4","last_reported":1713895742,"current_range_meters":9600,"station_id":"ce4bh012rcd13ifvqcv0","pricing_plan_id":"cebpf4jnsgd1na2vs0mg"},{"bike_id":"7f226c65-311d-47c6-b702-65f9fa5194ea","system_id":"levelo_inurba_marseille","lat":43.29529,"lon":5.385581,"is_reserved":false,"is_disabled":false,"rental_uris":{"android":"levelo://app?vid=7f226c65-311d-47c6-b702-65f9fa5194ea","ios":"levelo://app?vid=7f226c65-311d-47c6-b702-65f9fa5194ea"},"vehicle_type_id":"4","last_reported":1713895742,"current_range_meters":22000,"station_id":"ce4bgih2rcd13ifvqba0","pricing_plan_id":"cebpf4jnsgd1na2vs0mg"},{"bike_id":"c2b97416-8671-4ed2-868f-4f247ab1ec74","system_id":"levelo_inurba_marseille","lat":43.29529,"lon":5.385581,"is_reserved":false,"is_disabled":false,"rental_uris":{"android":"levelo://app?vid=c2b97416-8671-4ed2-868f-4f247ab1ec74","ios":"levelo://app?vid=c2b97416-8671-4ed2-868f-4f247ab1ec74"},"vehicle_type_id":"4","last_reported":1713895742,"current_range_meters":25600,"station_id":"ce4bgih2rcd13ifvqba0","pricing_plan_id":"cebpf4jnsgd1na2vs0mg"},{"bike_id":"e2339371-d416-44d5-b1d6-5a6c5c5413af","system_id":"levelo_inurba_marseille","lat":43.29529,"lon":5.385581,"is_reserved":false,"is_disabled":false,"rental_uris":{"android":"levelo://app?vid=e2339371-d416-44d5-b1d6-5a6c5c5413af","ios":"levelo://app?vid=e2339371-d416-44d5-b1d6-5a6c5c5413af"},"vehicle_type_id":"4","last_reported":1713895742,"current_range_meters":30000,"station_id":"ce4bgih2rcd13ifvqba0","pricing_plan_id":"cebpf4jnsgd1na2vs0mg"},{"bike_id":"02230193-af71-4a20-8901-5f9a16103a51","system_id":"levelo_inurba_marseille","lat":43.29529,"lon":5.385581,"is_reserved":false,"is_disabled":false,"rental_uris":{"android":"levelo://app?vid=02230193-af71-4a20-8901-5f9a16103a51","ios":"levelo://app?vid=02230193-af71-4a20-8901-5f9a16103a51"},"vehicle_type_id":"4","last_reported":1713895742,"current_range_meters":29200,"station_id":"ce4bgih2rcd13ifvqba0","pricing_plan_id":"cebpf4jnsgd1na2vs0mg"},{"bike_id":"ddc0faac-de68-4bb4-b567-e4c319c4f59a","system_id":"levelo_inurba_marseille","lat":43.29529,"lon":5.385581,"is_reserved":false,"is_disabled":false,"rental_uris":{"android":"levelo://app?vid=ddc0faac-de68-4bb4-b567-e4c319c4f59a","ios":"levelo://app?vid=ddc0faac-de68-4bb4-b567-e4c319c4f59a"},"vehicle_type_id":"4","last_reported":1713895742,"current_range_meters":8000,"station_id":"ce4bgih2rcd13ifvqba0","pricing_plan_id":"cebpf4jnsgd1na2vs0mg"},{"bike_id":"d6a1a1fa-785d-4343-b8f6-a9348be5f30f","system_id":"levelo_inurba_marseille","lat":43.29529,"lon":5.385581,"is_reserved":false,"is_disabled":false,"rental_uris":{"android":"levelo://app?vid=d6a1a1fa-785d-4343-b8f6-a9348be5f30f","ios":"levelo://app?vid=d6a1a1fa-785d-4343-b8f6-a9348be5f30f"},"vehicle_type_id":"4","last_reported":1713895742,"current_range_meters":24400,"station_id":"ce4bgih2rcd13ifvqba0","pricing_plan_id":"cebpf4jnsgd1na2vs0mg"},{"bike_id":"e76eb82a-312a-4220-8dfc-4bbab4c2ed07","system_id":"levelo_inurba_marseille","lat":43.29529,"lon":5.385581,"is_reserved":false,"is_disabled":false,"rental_uris":{"android":"levelo://app?vid=e76eb82a-312a-4220-8dfc-4bbab4c2ed07","ios":"levelo://app?vid=e76eb82a-312a-4220-8dfc-4bbab4c2ed07"},"vehicle_type_id":"4","last_reported":1713895742,"current_range_meters":28800,"station_id":"ce4bgih2rcd13ifvqba0","pricing_plan_id":"cebpf4jnsgd1na2vs0mg"},{"bike_id":"69dc9699-fd57-4d57-a7be-fc2286320763","system_id":"levelo_inurba_marseille","lat":43.29529,"lon":5.385581,"is_reserved":false,"is_disabled":false,"rental_uris":{"android":"levelo://app?vid=69dc9699-fd57-4d57-a7be-fc2286320763","ios":"levelo://app?vid=69dc9699-fd57-4d57-a7be-fc2286320763"},"vehicle_type_id":"4","last_reported":1713895742,"current_range_meters":25600,"station_id":"ce4bgih2rcd13ifvqba0","pricing_plan_id":"cebpf4jnsgd1na2vs0mg"},{"bike_id":"57a1b444-a0de-447e-9acc-75ce2f1fc709","system_id":"levelo_inurba_marseille","lat":43.29529,"lon":5.385581,"is_reserved":false,"is_disabled":false,"rental_uris":{"android":"levelo://app?vid=57a1b444-a0de-447e-9acc-75ce2f1fc709","ios":"levelo://app?vid=57a1b444-a0de-447e-9acc-75ce2f1fc709"},"vehicle_type_id":"4","last_reported":1713895742,"current_range_meters":1600,"station_id":"ce4bgih2rcd13ifvqba0","pricing_plan_id":"cebpf4jnsgd1na2vs0mg"},{"bike_id":"2ca983f4-00ed-4350-9852-3cdcf2748ac9","system_id":"levelo_inurba_marseille","lat":43.29529,"lon":5.385581,"is_reserved":false,"is_disabled":false,"rental_uris":{"android":"levelo://app?vid=2ca983f4-00ed-4350-9852-3cdcf2748ac9","ios":"levelo://app?vid=2ca983f4-00ed-4350-9852-3cdcf2748ac9"},"vehicle_type_id":"4","last_reported":1713895742,"current_range_meters":16800,"station_id":"ce4bgih2rcd13ifvqba0","pricing_plan_id":"cebpf4jnsgd1na2vs0mg"},{"bike_id":"d88c3f8d-7e71-4328-907b-ab3c3158dff9","system_id":"levelo_inurba_marseille","lat":43.2993,"lon":5.39104,"is_reserved":false,"is_disabled":false,"rental_uris":{"android":"levelo://app?vid=d88c3f8d-7e71-4328-907b-ab3c3158dff9","ios":"levelo://app?vid=d88c3f8d-7e71-4328-907b-ab3c3158dff9"},"vehicle_type_id":"4","last_reported":1713895742,"current_range_meters":2800,"station_id":"ce4bh392rcd13ifvqdl0","pricing_plan_id":"cebpf4jnsgd1na2vs0mg"},{"bike_id":"74976aba-afac-454a-aba5-ede029182162","system_id":"levelo_inurba_marseille","lat":43.308906,"lon":5.396865,"is_reserved":false,"is_disabled":false,"rental_uris":{"android":"levelo://app?vid=74976aba-afac-454a-aba5-ede029182162","ios":"levelo://app?vid=74976aba-afac-454a-aba5-ede029182162"},"vehicle_type_id":"4","last_reported":1713895742,"current_range_meters":5200,"station_id":"ce4bh012rcd13ifvqcv0","pricing_plan_id":"cebpf4jnsgd1na2vs0mg"},{"bike_id":"75229b9c-6376-4ea1-b569-afa95fc2a416","system_id":"levelo_inurba_marseille","lat":43.290779,"lon":5.371482,"is_reserved":false,"is_disabled":false,"rental_uris":{"android":"levelo://app?vid=75229b9c-6376-4ea1-b569-afa95fc2a416","ios":"levelo://app?vid=75229b9c-6376-4ea1-b569-afa95fc2a416"},"vehicle_type_id":"4","last_reported":1713895742,"current_range_meters":16800,"station_id":"ce4bh5p2rcd13ifvqe4g","pricing_plan_id":"cebpf4jnsgd1na2vs0mg"},{"bike_id":"81085eb5-d6e3-43f0-ada7-8ee65564d968","system_id":"levelo_inurba_marseille","lat":43.290779,"lon":5.371482,"is_reserved":false,"is_disabled":false,"rental_uris":{"android":"levelo://app?vid=81085eb5-d6e3-43f0-ada7-8ee65564d968","ios":"levelo://app?vid=81085eb5-d6e3-43f0-ada7-8ee65564d968"},"vehicle_type_id":"4","last_reported":1713895742,"current_range_meters":25200,"station_id":"ce4bh5p2rcd13ifvqe4g","pricing_plan_id":"cebpf4jnsgd1na2vs0mg"},{"bike_id":"b43786a0-cdbc-43bb-bf82-f1e474b97d30","system_id":"levelo_inurba_marseille","lat":43.290779,"lon":5.371482,"is_reserved":false,"is_disabled":false,"rental_uris":{"android":"levelo://app?vid=b43786a0-cdbc-43bb-bf82-f1e474b97d30","ios":"levelo://app?vid=b43786a0-cdbc-43bb-bf82-f1e474b97d30"},"vehicle_type_id":"4","last_reported":1713895742,"current_range_meters":20000,"station_id":"ce4bh5p2rcd13ifvqe4g","pricing_plan_id":"cebpf4jnsgd1na2vs0mg"},{"bike_id":"f72253f3-3a15-455c-b870-9f12961cfa1d","system_id":"levelo_inurba_marseille","lat":43.290779,"lon":5.371482,"is_reserved":false,"is_disabled":false,"rental_uris":{"android":"levelo://app?vid=f72253f3-3a15-455c-b870-9f12961cfa1d","ios":"levelo://app?vid=f72253f3-3a15-455c-b870-9f12961cfa1d"},"vehicle_type_id":"4","last_reported":1713895742,"current_range_meters":5200,"station_id":"ce4bh5p2rcd13ifvqe4g","pricing_plan_id":"cebpf4jnsgd1na2vs0mg"},{"bike_id":"18b4376d-7ad2-49dd-8500-a540e5c75068","system_id":"levelo_inurba_marseille","lat":43.302008,"lon":5.394694,"is_reserved":false,"is_disabled":false,"rental_uris":{"android":"levelo://app?vid=18b4376d-7ad2-49dd-8500-a540e5c75068","ios":"levelo://app?vid=18b4376d-7ad2-49dd-8500-a540e5c75068"},"vehicle_type_id":"4","last_reported":1713895742,"current_range_meters":16800,"station_id":"ce4bh0p2rcd13ifvqd70","pricing_plan_id":"cebpf4jnsgd1na2vs0mg"},{"bike_id":"b2b55794-e2d4-40f6-bf36-812e7bb54505","system_id":"levelo_inurba_marseille","lat":43.302008,"lon":5.394694,"is_reserved":false,"is_disabled":false,"rental_uris":{"android":"levelo://app?vid=b2b55794-e2d4-40f6-bf36-812e7bb54505","ios":"levelo://app?vid=b2b55794-e2d4-40f6-bf36-812e7bb54505"},"vehicle_type_id":"4","last_reported":1713895742,"current_range_meters":14000,"station_id":"ce4bh0p2rcd13ifvqd70","pricing_plan_id":"cebpf4jnsgd1na2vs0mg"},{"bike_id":"c32d1791-2040-4f39-b66b-f27a252989c8","system_id":"levelo_inurba_marseille","lat":43.302008,"lon":5.394694,"is_reserved":false,"is_disabled":false,"rental_uris":{"android":"levelo://app?vid=c32d1791-2040-4f39-b66b-f27a252989c8","ios":"levelo://app?vid=c32d1791-2040-4f39-b66b-f27a252989c8"},"vehicle_type_id":"4","last_reported":1713895742,"current_range_meters":26000,"station_id":"ce4bh0p2rcd13ifvqd70","pricing_plan_id":"cebpf4jnsgd1na2vs0mg"},{"bike_id":"ba0a90df-997c-4280-b4f4-b264f1746343","system_id":"levelo_inurba_marseille","lat":43.294153,"lon":5.386305,"is_reserved":false,"is_disabled":false,"rental_uris":{"android":"levelo://app?vid=ba0a90df-997c-4280-b4f4-b264f1746343","ios":"levelo://app?vid=ba0a90df-997c-4280-b4f4-b264f1746343"},"vehicle_type_id":"4","last_reported":1713895742,"current_range_meters":19200,"station_id":"ce4bh2h2rcd13ifvqdh0","pricing_plan_id":"cebpf4jnsgd1na2vs0mg"},{"bike_id":"4e58720a-6f4c-4217-b6e0-2038526a0980","system_id":"levelo_inurba_marseille","lat":43.294153,"lon":5.386305,"is_reserved":false,"is_disabled":false,"rental_uris":{"android":"levelo://app?vid=4e58720a-6f4c-4217-b6e0-2038526a0980","ios":"levelo://app?vid=4e58720a-6f4c-4217-b6e0-2038526a0980"},"vehicle_type_id":"4","last_reported":1713895742,"current_range_meters":24800,"station_id":"ce4bh2h2rcd13ifvqdh0","pricing_plan_id":"cebpf4jnsgd1na2vs0mg"},{"bike_id":"b8ad5140-a5e7-4e44-ab92-b60518a34257","system_id":"levelo_inurba_marseille","lat":43.294153,"lon":5.386305,"is_reserved":false,"is_disabled":false,"rental_uris":{"android":"levelo://app?vid=b8ad5140-a5e7-4e44-ab92-b60518a34257","ios":"levelo://app?vid=b8ad5140-a5e7-4e44-ab92-b60518a34257"},"vehicle_type_id":"4","last_reported":1713895742,"current_range_meters":9600,"station_id":"ce4bh2h2rcd13ifvqdh0","pricing_plan_id":"cebpf4jnsgd1na2vs0mg"},{"bike_id":"1e099f5a-d701-472c-8023-1e7b5eb832ce","system_id":"levelo_inurba_marseille","lat":43.294153,"lon":5.386305,"is_reserved":false,"is_disabled":false,"rental_uris":{"android":"levelo://app?vid=1e099f5a-d701-472c-8023-1e7b5eb832ce","ios":"levelo://app?vid=1e099f5a-d701-472c-8023-1e7b5eb832ce"},"vehicle_type_id":"4","last_reported":1713895742,"current_range_meters":31600,"station_id":"ce4bh2h2rcd13ifvqdh0","pricing_plan_id":"cebpf4jnsgd1na2vs0mg"},{"bike_id":"0682e91f-4b0b-41d2-af3a-69dfeb2824ef","system_id":"levelo_inurba_marseille","lat":43.29428,"lon":5.38633,"is_reserved":false,"is_disabled":false,"rental_uris":{"android":"levelo://app?vid=0682e91f-4b0b-41d2-af3a-69dfeb2824ef","ios":"levelo://app?vid=0682e91f-4b0b-41d2-af3a-69dfeb2824ef"},"vehicle_type_id":"4","last_reported":1713895742,"current_range_meters":10000,"station_id":"ce4bh2h2rcd13ifvqdh0","pricing_plan_id":"cebpf4jnsgd1na2vs0mg"},{"bike_id":"92b07895-045f-4819-a7fd-bedb7debb83f","system_id":"levelo_inurba_marseille","lat":43.29418,"lon":5.38623,"is_reserved":false,"is_disabled":false,"rental_uris":{"android":"levelo://app?vid=92b07895-045f-4819-a7fd-bedb7debb83f","ios":"levelo://app?vid=92b07895-045f-4819-a7fd-bedb7debb83f"},"vehicle_type_id":"4","last_reported":1713895742,"current_range_meters":20000,"station_id":"ce4bh2h2rcd13ifvqdh0","pricing_plan_id":"cebpf4jnsgd1na2vs0mg"},{"bike_id":"97366554-ca6b-47d5-bf1a-f15f3e1bc0c8","system_id":"levelo_inurba_marseille","lat":43.275625,"lon":5.384392,"is_reserved":false,"is_disabled":false,"rental_uris":{"android":"levelo://app?vid=97366554-ca6b-47d5-bf1a-f15f3e1bc0c8","ios":"levelo://app?vid=97366554-ca6b-47d5-bf1a-f15f3e1bc0c8"},"vehicle_type_id":"4","last_reported":1713895742,"current_range_meters":400,"station_id":"ce4bhh92rcd13ifvqfi0","pricing_plan_id":"cebpf4jnsgd1na2vs0mg"},{"bike_id":"632fd4c0-30ab-450d-b895-3190ed420156","system_id":"levelo_inurba_marseille","lat":43.294153,"lon":5.386305,"is_reserved":false,"is_disabled":false,"rental_uris":{"android":"levelo://app?vid=632fd4c0-30ab-450d-b895-3190ed420156","ios":"levelo://app?vid=632fd4c0-30ab-450d-b895-3190ed420156"},"vehicle_type_id":"4","last_reported":1713895742,"current_range_meters":27200,"station_id":"ce4bh2h2rcd13ifvqdh0","pricing_plan_id":"cebpf4jnsgd1na2vs0mg"},{"bike_id":"fb00486c-0166-4e91-9a8f-bfd5299bf668","system_id":"levelo_inurba_marseille","lat":43.29419,"lon":5.3863,"is_reserved":false,"is_disabled":false,"rental_uris":{"android":"levelo://app?vid=fb00486c-0166-4e91-9a8f-bfd5299bf668","ios":"levelo://app?vid=fb00486c-0166-4e91-9a8f-bfd5299bf668"},"vehicle_type_id":"4","last_reported":1713895742,"current_range_meters":11600,"station_id":"ce4bh2h2rcd13ifvqdh0","pricing_plan_id":"cebpf4jnsgd1na2vs0mg"},{"bike_id":"0a0f32a4-c25f-4f74-9039-a99ef138c1f1","system_id":"levelo_inurba_marseille","lat":43.29414,"lon":5.38622,"is_reserved":false,"is_disabled":false,"rental_uris":{"android":"levelo://app?vid=0a0f32a4-c25f-4f74-9039-a99ef138c1f1","ios":"levelo://app?vid=0a0f32a4-c25f-4f74-9039-a99ef138c1f1"},"vehicle_type_id":"4","last_reported":1713895742,"current_range_meters":15600,"station_id":"ce4bh2h2rcd13ifvqdh0","pricing_plan_id":"cebpf4jnsgd1na2vs0mg"},{"bike_id":"e65ae59b-5b71-4f71-a427-1a748fe8bada","system_id":"levelo_inurba_marseille","lat":43.307945,"lon":5.376487,"is_reserved":false,"is_disabled":false,"rental_uris":{"android":"levelo://app?vid=e65ae59b-5b71-4f71-a427-1a748fe8bada","ios":"levelo://app?vid=e65ae59b-5b71-4f71-a427-1a748fe8bada"},"vehicle_type_id":"4","last_reported":1713895742,"current_range_meters":20800,"station_id":"ce4bgv92rcd13ifvqcq0","pricing_plan_id":"cebpf4jnsgd1na2vs0mg"},{"bike_id":"0f72e55c-aed7-46aa-8ee5-c02c647dc0a9","system_id":"levelo_inurba_marseille","lat":43.29416,"lon":5.38626,"is_reserved":false,"is_disabled":false,"rental_uris":{"android":"levelo://app?vid=0f72e55c-aed7-46aa-8ee5-c02c647dc0a9","ios":"levelo://app?vid=0f72e55c-aed7-46aa-8ee5-c02c647dc0a9"},"vehicle_type_id":"4","last_reported":1713895742,"current_range_meters":5600,"station_id":"ce4bh2h2rcd13ifvqdh0","pricing_plan_id":"cebpf4jnsgd1na2vs0mg"},