{"last_updated":1751814583,"ttl":60,"version":"2.2","data":{"bikes":[{"bike_id":"3da29fb8-fc97-44c6-b9ac-31dd456b2fd4","system_id":"levelo_inurba_marseille","lat":43.33771,"lon":5.37424,"is_reserved":false,"is_disabled":true,"rental_uris":{"android":"levelo://app?vid=3da29fb8-fc97-44c6-b9ac-31dd456b2fd4","ios":"levelo://app?vid=3da29fb8-fc97-44c6-b9ac-31dd456b2fd4"},"vehicle_type_id":"4","last_reported":1751814583,"current_range_meters":0,"station_id":"","pricing_plan_id":"cebpf4jnsgd1na2vs0mg"},{"bike_id":"01861ad8-a8d7-4be6-816e-651927c87584","system_id":"levelo_inurba_marseille","lat":43.33751,"lon":5.37456,"is_reserved":false,"is_disabled":true,"rental_uris":{"android":"levelo://app?vid=01861ad8-a8d7-4be6-816e-651927c87584","ios":"levelo://app?vid=01861ad8-a8d7-4be6-816e-651927c87584"},"vehicle_type_id":"4","last_reported":1751814583,"current_range_meters":0,"station_id":"","pricing_plan_id":"cebpf4jnsgd1na2vs0mg"},{"bike_id":"c1af52b7-f892-4de0-adb4-fb0c70d1c4e6","system_id":"levelo_inurba_marseille","lat":43.32254,"lon":5.44022,"is_reserved":false,"is_disabled":true,"rental_uris":{"android":"levelo://app?vid=c1af52b7-f892-4de0-adb4-fb0c70d1c4e6","ios":"levelo://app?vid=c1af52b7-f892-4de0-adb4-fb0c70d1c4e6"},"vehicle_type_id":"4","last_reported":1751814583,"current_range_meters":0,"station_id":"","pricing_plan_id":"cebpf4jnsgd1na2vs0mg"},{"bike_id":"1ad7dec6-0d72-44b8-8a91-8bff1291b188","system_id":"levelo_inurba_marseille","lat":43.28888,"lon":5.46048,"is_reserved":false,"is_disabled":true,"rental_uris":{"android":"levelo://app?vid=1ad7dec6-0d72-44b8-8a91-8bff1291b188","ios":"levelo://app?vid=1ad7dec6-0d72-44b8-8a91-8bff1291b188"},"vehicle_type_id":"4","last_reported":1751814583,"current_range_meters":0,"station_id":"","pricing_plan_id":"cebpf4jnsgd1na2vs0mg"},{"bike_id":"5e4fccb6-1c76-4083-a352-a6af734b928a","system_id":"levelo_inurba_marseille","lat":43.32212,"lon":5.44039,"is_reserved":false,"is_disabled":true,"rental_uris":{"android":"levelo://app?vid=5e4fccb6-1c76-4083-a352-a6af734b928a","ios":"levelo://app?vid=5e4fccb6-1c76-4083-a352-a6af734b928a"},"vehicle_type_id":"4","last_reported":1751814583,"current_range_meters":0,"station_id":"","pricing_plan_id":"cebpf4jnsgd1na2vs0mg"},{"bike_id":"b6b9d97c-6ca0-4865-934a-d403cd3bfc5e","system_id":"levelo_inurba_marseille","lat":43.283033,"lon":5.35234,"is_reserved":false,"is_disabled":true,"rental_uris":{"android":"levelo://app?vid=b6b9d97c-6ca0-4865-934a-d403cd3bfc5e","ios":"levelo://app?vid=b6b9d97c-6ca0-4865-934a-d403cd3bfc5e"},"vehicle_type_id":"4","last_reported":1751814583,"current_range_meters":0,"station_id":"","pricing_plan_id":"cebpf4jnsgd1na2vs0mg"},{"bike_id":"1c57a3c7-1fe2-49b4-93b2-29842e960d9b","system_id":"levelo_inurba_marseille","lat":43.2542,"lon":5.38151,"is_reserved":false,"is_disabled":true,"rental_uris":{"android":"levelo://app?vid=1c57a3c7-1fe2-49b4-93b2-29842e960d9b","ios":"levelo://app?vid=1c57a3c7-1fe2-49b4-93b2-29842e960d9b"},"vehicle_type_id":"4","last_reported":1751814583,"current_range_meters":0,"station_id":"","pricing_plan_id":"cebpf4jnsgd1na2vs0mg"},{"bike_id":"cda68521-7c9e-4f75-99fa-2df8a8f7eff0","system_id":"levelo_inurba_marseille","lat":43.30923,"lon":5.401548,"is_reserved":false,"is_disabled":true,"rental_uris":{"android":"levelo://app?vid=cda68521-7c9e-4f75-99fa-2df8a8f7eff0","ios":"levelo://app?vid=cda68521-7c9e-4f75-99fa-2df8a8f7eff0"},"vehicle_type_id":"4","last_reported":1751814583,"current_range_meters":0,"station_id":"ce4bgvp2rcd13ifvqct0","pricing_plan_id":"cebpf4jnsgd1na2vs0mg"},{"bike_id":"3b1ae5d9-9675-4c5d-bf57-e6a91f296fe2","system_id":"levelo_inurba_marseille","lat":43.2871,"lon":5.37923,"is_reserved":false,"is_disabled":true,"rental_uris":{"android":"levelo://app?vid=3b1ae5d9-9675-4c5d-bf57-e6a91f296fe2","ios":"levelo://app?vid=3b1ae5d9-9675-4c5d-bf57-e6a91f296fe2"},"vehicle_type_id":"4","last_reported":1751814583,"current_range_meters":0,"station_id":"ce4bh9p2rcd13ifvqec0","pricing_plan_id":"cebpf4jnsgd1na2vs0mg"},{"bike_id":"4ff4c22e-a296-427e-94a4-ccc833119fc9","system_id":"levelo_inurba_marseille","lat":43.265509,"lon":5.372784,"is_reserved":false,"is_disabled":true,"rental_uris":{"android":"levelo://app?vid=4ff4c22e-a296-427e-94a4-ccc833119fc9","ios":"levelo://app?vid=4ff4c22e-a296-427e-94a4-ccc833119fc9"},"vehicle_type_id":"4","last_reported":1751814583,"current_range_meters":0,"station_id":"ce4bhb12rcd13ifvqel0","pricing_plan_id":"cebpf4jnsgd1na2vs0mg"},{"bike_id":"1cf1b316-b728-47a2-90de-fea43c8c01e6","system_id":"levelo_inurba_marseille","lat":43.28268,"lon":5.35061,"is_reserved":false,"is_disabled":true,"rental_uris":{"android":"levelo://app?vid=1cf1b316-b728-47a2-90de-fea43c8c01e6","ios":"levelo://app?vid=1cf1b316-b728-47a2-90de-fea43c8c01e6"},"vehicle_type_id":"4","last_reported":1751814583,"current_range_meters":0,"station_id":"ce4bhbp2rcd13ifvqerg","pricing_plan_id":"cebpf4jnsgd1na2vs0mg"},{"bike_id":"51ce4dfb-dc16-42f1-a7f4-641e866c395c","system_id":"levelo_inurba_marseille","lat":43.2862,"lon":5.35105,"is_reserved":false,"is_disabled":true,"rental_uris":{"android":"levelo://app?vid=51ce4dfb-dc16-42f1-a7f4-641e866c395c","ios":"levelo://app?vid=51ce4dfb-dc16-42f1-a7f4-641e866c395c"},"vehicle_type_id":"4","last_reported":1751814583,"current_range_meters":0,"station_id":"ce4bhch2rcd13ifvqeug","pricing_plan_id":"cebpf4jnsgd1na2vs0mg"},{"bike_id":"ebcfc7e0-6ef3-484c-8a11-16130f09014a","system_id":"levelo_inurba_marseille","lat":43.24806,"lon":5.37456,"is_reserved":false,"is_disabled":true,"rental_uris":{"android":"levelo://app?vid=ebcfc7e0-6ef3-484c-8a11-16130f09014a","ios":"levelo://app?vid=ebcfc7e0-6ef3-484c-8a11-16130f09014a"},"vehicle_type_id":"4","last_reported":1751814583,"current_range_meters":0,"station_id":"ce4bhgh2rcd13ifvqfb0","pricing_plan_id":"cebpf4jnsgd1na2vs0mg"},{"bike_id":"e293ab62-f8e3-48e8-ad0c-3da0ee45326d","system_id":"levelo_inurba_marseille","lat":43.26197,"lon":5.37449,"is_reserved":false,"is_disabled":true,"rental_uris":{"android":"levelo://app?vid=e293ab62-f8e3-48e8-ad0c-3da0ee45326d","ios":"levelo://app?vid=e293ab62-f8e3-48e8-ad0c-3da0ee45326d"},"vehicle_type_id":"4","last_reported":1751814583,"current_range_meters":0,"station_id":"ce4bhgp2rcd13ifvqfc0","pricing_plan_id":"cebpf4jnsgd1na2vs0mg"},{"bike_id":"e7bf7879-45ba-4104-befd-ce8e669190a1","system_id":"levelo_inurba_marseille","lat":43.32359,"lon":5.3675,"is_reserved":false,"is_disabled":true,"rental_uris":{"android":"levelo://app?vid=e7bf7879-45ba-4104-befd-ce8e669190a1","ios":"levelo://app?vid=e7bf7879-45ba-4104-befd-ce8e669190a1"},"vehicle_type_id":"4","last_reported":1751814583,"current_range_meters":0,"station_id":"ce4bhsh2rcd13ifvqi2g","pricing_plan_id":"cebpf4jnsgd1na2vs0mg"},{"bike_id":"d1444e94-489f-4fa9-9e06-4bdf6ba47149","system_id":"levelo_inurba_marseille","lat":43.22504,"lon":5.34773,"is_reserved":false,"is_disabled":true,"rental_uris":{"android":"levelo://app?vid=d1444e94-489f-4fa9-9e06-4bdf6ba47149","ios":"levelo://app?vid=d1444e94-489f-4fa9-9e06-4bdf6ba47149"},"vehicle_type_id":"4","last_reported":1751814583,"current_range_meters":0,"station_id":"st_cvj5dfep6f1abm77gieg","pricing_plan_id":"cebpf4jnsgd1na2vs0mg"},{"bike_id":"8e705061-bdf0-422d-b178-e50353401331","system_id":"levelo_inurba_marseille","lat":43.21747,"lon":5.345967,"is_reserved":false,"is_disabled":true,"rental_uris":{"android":"levelo://app?vid=8e705061-bdf0-422d-b178-e50353401331","ios":"levelo://app?vid=8e705061-bdf0-422d-b178-e50353401331"},"vehicle_type_id":"4","last_reported":1751814583,"current_range_meters":0,"station_id":"st_cvj6r9ubvosntc0bgbag","pricing_plan_id":"cebpf4jnsgd1na2vs0mg"},{"bike_id":"cd1b69f3-983e-4e3a-b585-8a68b3780105","system_id":"levelo_inurba_marseille","lat":43.21763,"lon":5.34601,"is_reserved":false,"is_disabled":true,"rental_uris":{"android":"levelo://app?vid=cd1b69f3-983e-4e3a-b585-8a68b3780105","ios":"levelo://app?vid=cd1b69f3-983e-4e3a-b585-8a68b3780105"},"vehicle_type_id":"4","last_reported":1751814583,"current_range_meters":0,"station_id":"st_cvj6r9ubvosntc0bgbag","pricing_plan_id":"cebpf4jnsgd1na2vs0mg"},{"bike_id":"01e7b5f2-8f67-4e49-aba6-db3c1b32897d","system_id":"levelo_inurba_marseille","lat":43.21189,"lon":5.35084,"is_reserved":false,"is_disabled":true,"rental_uris":{"android":"levelo://app?vid=01e7b5f2-8f67-4e49-aba6-db3c1b32897d","ios":"levelo://app?vid=01e7b5f2-8f67-4e49-aba6-db3c1b32897d"},"vehicle_type_id":"4","last_reported":1751814583,"current_range_meters":0,"station_id":"st_cvj6sg6p6f1abm77japg","pricing_plan_id":"cebpf4jnsgd1na2vs0mg"},{"bike_id":"c8c4de1a-846f-4f5b-aace-9fb14bf7ad52","system_id":"levelo_inurba_marseille","lat":43.211898,"lon":5.350656,"is_reserved":false,"is_disabled":true,"rental_uris":{"android":"levelo://app?vid=c8c4de1a-846f-4f5b-aace-9fb14bf7ad52","ios":"levelo://app?vid=c8c4de1a-846f-4f5b-aace-9fb14bf7ad52"},"vehicle_type_id":"4","last_reported":1751814583,"current_range_meters":0,"station_id":"st_cvj6sg6p6f1abm77japg","pricing_plan_id":"cebpf4jnsgd1na2vs0mg"},{"bike_id":"e86ba8c9-208d-482c-a826-4c100938472a","system_id":"levelo_inurba_marseille","lat":43.211976,"lon":5.350768,"is_reserved":false,"is_disabled":true,"rental_uris":{"android":"levelo://app?vid=e86ba8c9-208d-482c-a826-4c100938472a","ios":"levelo://app?vid=e86ba8c9-208d-482c-a826-4c100938472a"},"vehicle_type_id":"4","last_reported":1751814583,"current_range_meters":0,"station_id":"st_cvj6sg6p6f1abm77japg","pricing_plan_id":"cebpf4jnsgd1na2vs0mg"},{"bike_id":"4aaad0bc-c153-4a09-8f5f-e2c5865e51ea","system_id":"levelo_inurba_marseille","lat":43.27939,"lon":5.38709,"is_reserved":false,"is_disabled":true,"rental_uris":{"android":"levelo://app?vid=4aaad0bc-c153-4a09-8f5f-e2c5865e51ea","ios":"levelo://app?vid=4aaad0bc-c153-4a09-8f5f-e2c5865e51ea"},"vehicle_type_id":"4","last_reported":1751814583,"current_range_meters":400,"station_id":"ce4bhg12rcd13ifvqf80","pricing_plan_id":"cebpf4jnsgd1na2vs0mg"},{"bike_id":"bfb455e5-e27a-42e5-9328-a16d4df5a347","system_id":"levelo_inurba_marseille","lat":43.22512,"lon":5.34783,"is_reserved":false,"is_disabled":true,"rental_uris":{"android":"levelo://app?vid=bfb455e5-e27a-42e5-9328-a16d4df5a347","ios":"levelo://app?vid=bfb455e5-e27a-42e5-9328-a16d4df5a347"},"vehicle_type_id":"4","last_reported":1751814583,"current_range_meters":400,"station_id":"st_cvj5dfep6f1abm77gieg","pricing_plan_id":"cebpf4jnsgd1na2vs0mg"},{"bike_id":"0c214b5c-c6b2-4568-8313-bcb1af973010","system_id":"levelo_inurba_marseille","lat":43.2927,"lon":5.40138,"is_reserved":false,"is_disabled":true,"rental_uris":{"android":"levelo://app?vid=0c214b5c-c6b2-4568-8313-bcb1af973010","ios":"levelo://app?vid=0c214b5c-c6b2-4568-8313-bcb1af973010"},"vehicle_type_id":"4","last_reported":1751814583,"current_range_meters":800,"station_id":"ce4bh312rcd13ifvqdk0","pricing_plan_id":"cebpf4jnsgd1na2vs0mg"},{"bike_id":"ae91fdf8-d09c-4979-8092-51d73c1de831","system_id":"levelo_inurba_marseille","lat":43.29974,"lon":5.38489,"is_reserved":false,"is_disabled":true,"rental_uris":{"android":"levelo://app?vid=ae91fdf8-d09c-4979-8092-51d73c1de831","ios":"levelo://app?vid=ae91fdf8-d09c-4979-8092-51d73c1de831"},"vehicle_type_id":"4","last_reported":1751814583,"current_range_meters":1200,"station_id":"ce4bgj92rcd13ifvqbd0","pricing_plan_id":"cebpf4jnsgd1na2vs0mg"},{"bike_id":"2532423a-b76b-4365-bfb5-2d710127d67a","system_id":"levelo_inurba_marseille","lat":43.30276,"lon":5.37712,"is_reserved":false,"is_disabled":true,"rental_uris":{"android":"levelo://app?vid=2532423a-b76b-4365-bfb5-2d710127d67a","ios":"levelo://app?vid=2532423a-b76b-4365-bfb5-2d710127d67a"},"vehicle_type_id":"4","last_reported":1751814583,"current_range_meters":1600,"station_id":"ce4bguh2rcd13ifvqcj0","pricing_plan_id":"cebpf4jnsgd1na2vs0mg"},{"bike_id":"6c8f2a94-b297-4068-9e65-735b429fb79e","system_id":"levelo_inurba_marseille","lat":43.25496,"lon":5.3765,"is_reserved":false,"is_disabled":true,"rental_uris":{"android":"levelo://app?vid=6c8f2a94-b297-4068-9e65-735b429fb79e","ios":"levelo://app?vid=6c8f2a94-b297-4068-9e65-735b429fb79e"},"vehicle_type_id":"4","last_reported":1751814583,"current_range_meters":1600,"station_id":"ce4bhh12rcd13ifvqff0","pricing_plan_id":"cebpf4jnsgd1na2vs0mg"},{"bike_id":"ad0cd0f9-bee8-4154-8ca0-356acc2fabce","system_id":"levelo_inurba_marseille","lat":43.217455,"lon":5.346029,"is_reserved":false,"is_disabled":true,"rental_uris":{"android":"levelo://app?vid=ad0cd0f9-bee8-4154-8ca0-356acc2fabce","ios":"levelo://app?vid=ad0cd0f9-bee8-4154-8ca0-356acc2fabce"},"vehicle_type_id":"4","last_reported":1751814583,"current_range_meters":1600,"station_id":"st_cvj6r9ubvosntc0bgbag","pricing_plan_id":"cebpf4jnsgd1na2vs0mg"},{"bike_id":"013ac8ab-92cb-441b-9ba6-c0296074631c","system_id":"levelo_inurba_marseille","lat":43.30656,"lon":5.39659,"is_reserved":false,"is_disabled":true,"rental_uris":{"android":"levelo://app?vid=013ac8ab-92cb-441b-9ba6-c0296074631c","ios":"levelo://app?vid=013ac8ab-92cb-441b-9ba6-c0296074631c"},"vehicle_type_id":"4","last_reported":1751814583,"current_range_meters":2000,"station_id":"","pricing_plan_id":"cebpf4jnsgd1na2vs0mg"},{"bike_id":"883a31b2-32d0-40ae-abfb-0a8cad9f140f","system_id":"levelo_inurba_marseille","lat":43.30907,"lon":5.38666,"is_reserved":false,"is_disabled":false,"rental_uris":{"android":"levelo://app?vid=883a31b2-32d0-40ae-abfb-0a8cad9f140f","ios":"levelo://app?vid=883a31b2-32d0-40ae-abfb-0a8cad9f140f"},"vehicle_type_id":"4","last_reported":1751814583,"current_range_meters":3200,"station_id":"","pricing_plan_id":"cebpf4jnsgd1na2vs0mg"},{"bike_id":"af6c71e5-74f2-4141-973e-ddd2298fb1b8","system_id":"levelo_inurba_marseille","lat":43.304576,"lon":5.379112,"is_reserved":false,"is_disabled":false,"rental_uris":{"android":"levelo://app?vid=af6c71e5-74f2-4141-973e-ddd2298fb1b8","ios":"levelo://app?vid=af6c71e5-74f2-4141-973e-ddd2298fb1b8"},"vehicle_type_id":"4","last_reported":1751814583,"current_range_meters":3200,"station_id":"ce4bgup2rcd13ifvqcn0","pricing_plan_id":"cebpf4jnsgd1na2vs0mg"},{"bike_id":"ee09f587-de40-4c53-8a97-511a237c476a","system_id":"levelo_inurba_marseille","lat":43.286117,"lon":5.383573,"is_reserved":false,"is_disabled":false,"rental_uris":{"android":"levelo://app?vid=ee09f587-de40-4c53-8a97-511a237c476a","ios":"levelo://app?vid=ee09f587-de40-4c53-8a97-511a237c476a"},"vehicle_type_id":"4","last_reported":1751814583,"current_range_meters":3600,"station_id":"ce4bh512rcd13ifvqe3g","pricing_plan_id":"cebpf4jnsgd1na2vs0mg"},{"bike_id":"f2031e47-a3ff-4ab0-b033-ea16cdff8510","system_id":"levelo_inurba_marseille","lat":43.286313,"lon":5.386927,"is_reserved":false,"is_disabled":false,"rental_uris":{"android":"levelo://app?vid=f2031e47-a3ff-4ab0-b033-ea16cdff8510","ios":"levelo://app?vid=f2031e47-a3ff-4ab0-b033-ea16cdff8510"},"vehicle_type_id":"4","last_reported":1751814583,"current_range_meters":4000,"station_id":"ce4bh492rcd13ifvqdug","pricing_plan_id":"cebpf4jnsgd1na2vs0mg"},{"bike_id":"3886fc26-7b2e-4203-ade6-f65563097e53","system_id":"levelo_inurba_marseille","lat":43.29264,"lon":5.384366,"is_reserved":false,"is_disabled":false,"rental_uris":{"android":"levelo://app?vid=3886fc26-7b2e-4203-ade6-f65563097e53","ios":"levelo://app?vid=3886fc26-7b2e-4203-ade6-f65563097e53"},"vehicle_type_id":"4","last_reported":1751814583,"current_range_meters":4000,"station_id":"ce4bh512rcd13ifvqe2g","pricing_plan_id":"cebpf4jnsgd1na2vs0mg"},{"bike_id":"d75f97b3-3904-4640-8fbd-f7455abb4bab","system_id":"levelo_inurba_marseille","lat":43.26195,"lon":5.37452,"is_reserved":false,"is_disabled":false,"rental_uris":{"android":"levelo://app?vid=d75f97b3-3904-4640-8fbd-f7455abb4bab","ios":"levelo://app?vid=d75f97b3-3904-4640-8fbd-f7455abb4bab"},"vehicle_type_id":"4","last_reported":1751814583,"current_range_meters":4000,"station_id":"ce4bhgp2rcd13ifvqfc0","pricing_plan_id":"cebpf4jnsgd1na2vs0mg"},{"bike_id":"54bc607a-dbe3-45b0-8f0f-0ff5ddf59489","system_id":"levelo_inurba_marseille","lat":43.26228,"lon":5.4045,"is_reserved":false,"is_disabled":false,"rental_uris":{"android":"levelo://app?vid=54bc607a-dbe3-45b0-8f0f-0ff5ddf59489","ios":"levelo://app?vid=54bc607a-dbe3-45b0-8f0f-0ff5ddf59489"},"vehicle_type_id":"4","last_reported":1751814583,"current_range_meters":4000,"station_id":"ce4bhmh2rcd13ifvqgmg","pricing_plan_id":"cebpf4jnsgd1na2vs0mg"},{"bike_id":"2fc2bc77-9eaa-4cde-aa0b-d9d763915090","system_id":"levelo_inurba_marseille","lat":43.30135,"lon":5.3878,"is_reserved":false,"is_disabled":false,"rental_uris":{"android":"levelo://app?vid=2fc2bc77-9eaa-4cde-aa0b-d9d763915090","ios":"levelo://app?vid=2fc2bc77-9eaa-4cde-aa0b-d9d763915090"},"vehicle_type_id":"4","last_reported":1751814583,"current_range_meters":4400,"station_id":"ce4bghh2rcd13ifvqb60","pricing_plan_id":"cebpf4jnsgd1na2vs0mg"},{"bike_id":"2d8c8d4d-8741-4028-9c69-3f135a4d38dc","system_id":"levelo_inurba_marseille","lat":43.30307,"lon":5.36885,"is_reserved":false,"is_disabled":false,"rental_uris":{"android":"levelo://app?vid=2d8c8d4d-8741-4028-9c69-3f135a4d38dc","ios":"levelo://app?vid=2d8c8d4d-8741-4028-9c69-3f135a4d38dc"},"vehicle_type_id":"4","last_reported":1751814583,"current_range_meters":4400,"station_id":"ce4bgqh2rcd13ifvqc5g","pricing_plan_id":"cebpf4jnsgd1na2vs0mg"},{"bike_id":"e332016a-eed1-4e58-bb37-6a7fd0151114","system_id":"levelo_inurba_marseille","lat":43.21764,"lon":5.34591,"is_reserved":false,"is_disabled":true,"rental_uris":{"android":"levelo://app?vid=e332016a-eed1-4e58-bb37-6a7fd0151114","ios":"levelo://app?vid=e332016a-eed1-4e58-bb37-6a7fd0151114"},"vehicle_type_id":"4","last_reported":1751814583,"current_range_meters":4400,"station_id":"st_cvj6r9ubvosntc0bgbag","pricing_plan_id":"cebpf4jnsgd1na2vs0mg"},{"bike_id":"b26fae72-751e-4090-a9c4-76ff5de1ad66","system_id":"levelo_inurba_marseille","lat":43.33277,"lon":5.38045,"is_reserved":false,"is_disabled":false,"rental_uris":{"android":"levelo://app?vid=b26fae72-751e-4090-a9c4-76ff5de1ad66","ios":"levelo://app?vid=b26fae72-751e-4090-a9c4-76ff5de1ad66"},"vehicle_type_id":"4","last_reported":1751814583,"current_range_meters":4800,"station_id":"","pricing_plan_id":"cebpf4jnsgd1na2vs0mg"},{"bike_id":"f0a19a9e-f150-4c1e-bcc6-db3195370cac","system_id":"levelo_inurba_marseille","lat":43.32702,"lon":5.43137,"is_reserved":false,"is_disabled":false,"rental_uris":{"android":"levelo://app?vid=f0a19a9e-f150-4c1e-bcc6-db3195370cac","ios":"levelo://app?vid=f0a19a9e-f150-4c1e-bcc6-db3195370cac"},"vehicle_type_id":"4","last_reported":1751814583,"current_range_meters":5600,"station_id":"","pricing_plan_id":"cebpf4jnsgd1na2vs0mg"},{"bike_id":"1c8ab180-05fd-405f-9922-b2b2c2d5142f","system_id":"levelo_inurba_marseille","lat":43.33795,"lon":5.38143,"is_reserved":false,"is_disabled":false,"rental_uris":{"android":"levelo://app?vid=1c8ab180-05fd-405f-9922-b2b2c2d5142f","ios":"levelo://app?vid=1c8ab180-05fd-405f-9922-b2b2c2d5142f"},"vehicle_type_id":"4","last_reported":1751814583,"current_range_meters":5600,"station_id":"","pricing_plan_id":"cebpf4jnsgd1na2vs0mg"},{"bike_id":"01b598e3-87cd-476f-af06-64ab3cdb1875","system_id":"levelo_inurba_marseille","lat":43.29714,"lon":5.36596,"is_reserved":false,"is_disabled":false,"rental_uris":{"android":"levelo://app?vid=01b598e3-87cd-476f-af06-64ab3cdb1875","ios":"levelo://app?vid=01b598e3-87cd-476f-af06-64ab3cdb1875"},"vehicle_type_id":"4","last_reported":1751814583,"current_range_meters":5600,"station_id":"ce4bgn12rcd13ifvqbt0","pricing_plan_id":"cebpf4jnsgd1na2vs0mg"},{"bike_id":"b13fdfa4-0aec-4d30-9cf5-399b27c14f28","system_id":"levelo_inurba_marseille","lat":43.28723,"lon":5.37943,"is_reserved":false,"is_disabled":false,"rental_uris":{"android":"levelo://app?vid=b13fdfa4-0aec-4d30-9cf5-399b27c14f28","ios":"levelo://app?vid=b13fdfa4-0aec-4d30-9cf5-399b27c14f28"},"vehicle_type_id":"4","last_reported":1751814583,"current_range_meters":6000,"station_id":"ce4bh9p2rcd13ifvqec0","pricing_plan_id":"cebpf4jnsgd1na2vs0mg"},{"bike_id":"297c9dc7-05f0-48a5-8464-5a5da58e209e","system_id":"levelo_inurba_marseille","lat":43.30815,"lon":5.43522,"is_reserved":false,"is_disabled":false,"rental_uris":{"android":"levelo://app?vid=297c9dc7-05f0-48a5-8464-5a5da58e209e","ios":"levelo://app?vid=297c9dc7-05f0-48a5-8464-5a5da58e209e"},"vehicle_type_id":"4","last_reported":1751814583,"current_range_meters":6000,"station_id":"ce4bhph2rcd13ifvqheg","pricing_plan_id":"cebpf4jnsgd1na2vs0mg"},{"bike_id":"9cf7120c-ee89-4785-beb6-a3081c8a051b","system_id":"levelo_inurba_marseille","lat":43.29303,"lon":5.37461,"is_reserved":false,"is_disabled":false,"rental_uris":{"android":"levelo://app?vid=9cf7120c-ee89-4785-beb6-a3081c8a051b","ios":"levelo://app?vid=9cf7120c-ee89-4785-beb6-a3081c8a051b"},"vehicle_type_id":"4","last_reported":1751814583,"current_range_meters":6400,"station_id":"ce4bgi12rcd13ifvqb70","pricing_plan_id":"cebpf4jnsgd1na2vs0mg"},{"bike_id":"04a06513-7609-4c98-ba4e-e0e8a25589d4","system_id":"levelo_inurba_marseille","lat":43.284241,"lon":5.349794,"is_reserved":false,"is_disabled":false,"rental_uris":{"android":"levelo://app?vid=04a06513-7609-4c98-ba4e-e0e8a25589d4","ios":"levelo://app?vid=04a06513-7609-4c98-ba4e-e0e8a25589d4"},"vehicle_type_id":"4","last_reported":1751814583,"current_range_meters":6400,"station_id":"ce4bhbh2rcd13ifvqepg","pricing_plan_id":"cebpf4jnsgd1na2vs0mg"},{"bike_id":"645082d1-87d0-4c02-825b-41359f707c0d","system_id":"levelo_inurba_marseille","lat":43.27808,"lon":5.40708,"is_reserved":false,"is_disabled":false,"rental_uris":{"android":"levelo://app?vid=645082d1-87d0-4c02-825b-41359f707c0d","ios":"levelo://app?vid=645082d1-87d0-4c02-825b-41359f707c0d"},"vehicle_type_id":"4","last_reported":1751814583,"current_range_meters":6400,"station_id":"ce4bhnh2rcd13ifvqgtg","pricing_plan_id":"cebpf4jnsgd1na2vs0mg"},{"bike_id":"d6fad1cd-43a2-4160-a8ff-3ecfe7970850","system_id":"levelo_inurba_marseille","lat":43.21746,"lon":5.34606,"is_reserved":false,"is_disabled":false,"rental_uris":{"android":"levelo://app?vid=d6fad1cd-43a2-4160-a8ff-3ecfe7970850","ios":"levelo://app?vid=d6fad1cd-43a2-4160-a8ff-3ecfe7970850"},"vehicle_type_id":"4","last_reported":1751814583,"current_range_meters":6400,"station_id":"st_cvj6r9ubvosntc0bgbag","pricing_plan_id":"cebpf4jnsgd1na2vs0mg"},{"bike_id":"4b8da722-ee9e-48a4-a5e5-3a8a10364708","system_id":"levelo_inurba_marseille","lat":43.31232,"lon":5.37823,"is_reserved":false,"is_disabled":false,"rental_uris":{"android":"levelo://app?vid=4b8da722-ee9e-48a4-a5e5-3a8a10364708","ios":"levelo://app?vid=4b8da722-ee9e-48a4-a5e5-3a8a10364708"},"vehicle_type_id":"4","last_reported":1751814583,"current_range_meters":6800,"station_id":"","pricing_plan_id":"cebpf4jnsgd1na2vs0mg"},{"bike_id":"69c2280d-9883-47db-99f2-c073a6babae6","system_id":"levelo_inurba_marseille","lat":43.30849,"lon":5.37017,"is_reserved":false,"is_disabled":false,"rental_uris":{"android":"levelo://app?vid=69c2280d-9883-47db-99f2-c073a6babae6","ios":"levelo://app?vid=69c2280d-9883-47db-99f2-c073a6babae6"},"vehicle_type_id":"4","last_reported":1751814583,"current_range_meters":6800,"station_id":"","pricing_plan_id":"cebpf4jnsgd1na2vs0mg"},{"bike_id":"71ae1b96-3c87-47f6-84c1-eb797576bd71","system_id":"levelo_inurba_marseille","lat":43.31553,"lon":5.38382,"is_reserved":false,"is_disabled":false,"rental_uris":{"android":"levelo://app?vid=71ae1b96-3c87-47f6-84c1-eb797576bd71","ios":"levelo://app?vid=71ae1b96-3c87-47f6-84c1-eb797576bd71"},"vehicle_type_id":"4","last_reported":1751814583,"current_range_meters":6800,"station_id":"","pricing_plan_id":"cebpf4jnsgd1na2vs0mg"},{"bike_id":"d934d842-6e8b-4396-b0ab-0bc67f4c9a6a","system_id":"levelo_inurba_marseille","lat":43.257095,"lon":5.410652,"is_reserved":false,"is_disabled":false,"rental_uris":{"android":"levelo://app?vid=d934d842-6e8b-4396-b0ab-0bc67f4c9a6a","ios":"levelo://app?vid=d934d842-6e8b-4396-b0ab-0bc67f4c9a6a"},"vehicle_type_id":"4","last_reported":1751814583,"current_range_meters":6800,"station_id":"ce4bhkp2rcd13ifvqgd0","pricing_plan_id":"cebpf4jnsgd1na2vs0mg"},{"bike_id":"9740e325-defc-4fdf-9c41-dd540e24be2e","system_id":"levelo_inurba_marseille","lat":43.2998,"lon":5.38495,"is_reserved":false,"is_disabled":false,"rental_uris":{"android":"levelo://app?vid=9740e325-defc-4fdf-9c41-dd540e24be2e","ios":"levelo://app?vid=9740e325-defc-4fdf-9c41-dd540e24be2e"},"vehicle_type_id":"4","last_reported":1751814583,"current_range_meters":7200,"station_id":"ce4bgj92rcd13ifvqbd0","pricing_plan_id":"cebpf4jnsgd1na2vs0mg"},{"bike_id":"3a82685a-6ac9-4173-8f93-158aba1ea125","system_id":"levelo_inurba_marseille","lat":43.28406,"lon":5.37514,"is_reserved":false,"is_disabled":false,"rental_uris":{"android":"levelo://app?vid=3a82685a-6ac9-4173-8f93-158aba1ea125","ios":"levelo://app?vid=3a82685a-6ac9-4173-8f93-158aba1ea125"},"vehicle_type_id":"4","last_reported":1751814583,"current_range_meters":7200,"station_id":"ce4bh412rcd13ifvqds0","pricing_plan_id":"cebpf4jnsgd1na2vs0mg"},{"bike_id":"e62b2b2e-617c-436b-ab60-4e81b04df382","system_id":"levelo_inurba_marseille","lat":43.27309,"lon":5.39081,"is_reserved":false,"is_disabled":false,"rental_uris":{"android":"levelo://app?vid=e62b2b2e-617c-436b-ab60-4e81b04df382","ios":"levelo://app?vid=e62b2b2e-617c-436b-ab60-4e81b04df382"},"vehicle_type_id":"4","last_reported":1751814583,"current_range_meters":7200,"station_id":"ce4bhgp2rcd13ifvqfe0","pricing_plan_id":"cebpf4jnsgd1na2vs0mg"},{"bike_id":"4491453e-16db-4814-8644-bf1c84d219e5","system_id":"levelo_inurba_marseille","lat":43.25865,"lon":5.39902,"is_reserved":false,"is_disabled":false,"rental_uris":{"android":"levelo://app?vid=4491453e-16db-4814-8644-bf1c84d219e5","ios":"levelo://app?vid=4491453e-16db-4814-8644-bf1c84d219e5"},"vehicle_type_id":"4","last_reported":1751814583,"current_range_meters":7200,"station_id":"ce4bhl92rcd13ifvqghg","pricing_plan_id":"cebpf4jnsgd1na2vs0mg"},{"bike_id":"1e04b9e2-27c6-4b30-b902-6c81e18716e2","system_id":"levelo_inurba_marseille","lat":43.311828,"lon":5.377511,"is_reserved":false,"is_disabled":false,"rental_uris":{"android":"levelo://app?vid=1e04b9e2-27c6-4b30-b902-6c81e18716e2","ios":"levelo://app?vid=1e04b9e2-27c6-4b30-b902-6c81e18716e2"},"vehicle_type_id":"4","last_reported":1751814583,"current_range_meters":8000,"station_id":"","pricing_plan_id":"cebpf4jnsgd1na2vs0mg"},{"bike_id":"c5ff0c4a-5b05-497b-bb72-b9fd0869962c","system_id":"levelo_inurba_marseille","lat":43.272104,"lon":5.39023,"is_reserved":false,"is_disabled":false,"rental_uris":{"android":"levelo://app?vid=c5ff0c4a-5b05-497b-bb72-b9fd0869962c","ios":"levelo://app?vid=c5ff0c4a-5b05-497b-bb72-b9fd0869962c"},"vehicle_type_id":"4","last_reported":1751814583,"current_range_meters":8000,"station_id":"ce4bhh92rcd13ifvqfh0","pricing_plan_id":"cebpf4jnsgd1na2vs0mg"},{"bike_id":"8eb283fe-44c7-4bb1-836e-cde6c55f1adf","system_id":"levelo_inurba_marseille","lat":43.31803,"lon":5.3682,"is_reserved":false,"is_disabled":false,"rental_uris":{"android":"levelo://app?vid=8eb283fe-44c7-4bb1-836e-cde6c55f1adf","ios":"levelo://app?vid=8eb283fe-44c7-4bb1-836e-cde6c55f1adf"},"vehicle_type_id":"4","last_reported":1751814583,"current_range_meters":8400,"station_id":"","pricing_plan_id":"cebpf4jnsgd1na2vs0mg"},{"bike_id":"87209bfc-8c3a-422f-80b4-fcc59facb9c1","system_id":"levelo_inurba_marseille","lat":43.31382,"lon":5.38505,"is_reserved":false,"is_disabled":false,"rental_uris":{"android":"levelo://app?vid=87209bfc-8c3a-422f-80b4-fcc59facb9c1","ios":"levelo://app?vid=87209bfc-8c3a-422f-80b4-fcc59facb9c1"},"vehicle_type_id":"4","last_reported":1751814583,"current_range_meters":8400,"station_id":"ce4bgt92rcd13ifvqcf0","pricing_plan_id":"cebpf4jnsgd1na2vs0mg"},{"bike_id":"ea822dc6-81d7-4cdf-8ac7-ab2b5a12a7ed","system_id":"levelo_inurba_marseille","lat":43.28692,"lon":5.37393,"is_reserved":false,"is_disabled":false,"rental_uris":{"android":"levelo://app?vid=ea822dc6-81d7-4cdf-8ac7-ab2b5a12a7ed","ios":"levelo://app?vid=ea822dc6-81d7-4cdf-8ac7-ab2b5a12a7ed"},"vehicle_type_id":"4","last_reported":1751814583,"current_range_meters":8400,"station_id":"ce4bh3p2rcd13ifvqdq0","pricing_plan_id":"cebpf4jnsgd1na2vs0mg"},{"bike_id":"452e8211-4f44-45d0-814a-3e9e25b8c44e","system_id":"levelo_inurba_marseille","lat":43.21193,"lon":5.3508,"is_reserved":false,"is_disabled":false,"rental_uris":{"android":"levelo://app?vid=452e8211-4f44-45d0-814a-3e9e25b8c44e","ios":"levelo://app?vid=452e8211-4f44-45d0-814a-3e9e25b8c44e"},"vehicle_type_id":"4","last_reported":1751814583,"current_range_meters":8400,"station_id":"st_cvj6sg6p6f1abm77japg","pricing_plan_id":"cebpf4jnsgd1na2vs0mg"},{"bike_id":"8b939a63-5034-47ec-9acc-2afb185288bf","system_id":"levelo_inurba_marseille","lat":43.306,"lon":5.37233,"is_reserved":false,"is_disabled":false,"rental_uris":{"android":"levelo://app?vid=8b939a63-5034-47ec-9acc-2afb185288bf","ios":"levelo://app?vid=8b939a63-5034-47ec-9acc-2afb185288bf"},"vehicle_type_id":"4","last_reported":1751814583,"current_range_meters":8800,"station_id":"ce4bgqh2rcd13ifvqc4g","pricing_plan_id":"cebpf4jnsgd1na2vs0mg"},{"bike_id":"70ce5529-93a9-4484-9a30-a124e4c68a72","system_id":"levelo_inurba_marseille","lat":43.25492,"lon":5.37646,"is_reserved":false,"is_disabled":false,"rental_uris":{"android":"levelo://app?vid=70ce5529-93a9-4484-9a30-a124e4c68a72","ios":"levelo://app?vid=70ce5529-93a9-4484-9a30-a124e4c68a72"},"vehicle_type_id":"4","last_reported":1751814583,"current_range_meters":8800,"station_id":"ce4bhh12rcd13ifvqff0","pricing_plan_id":"cebpf4jnsgd1na2vs0mg"},{"bike_id":"c4eb00ea-d062-4a56-bf50-d27257be7cf3","system_id":"levelo_inurba_marseille","lat":43.28602,"lon":5.37072,"is_reserved":false,"is_disabled":false,"rental_uris":{"android":"levelo://app?vid=c4eb00ea-d062-4a56-bf50-d27257be7cf3","ios":"levelo://app?vid=c4eb00ea-d062-4a56-bf50-d27257be7cf3"},"vehicle_type_id":"4","last_reported":1751814583,"current_range_meters":8800,"station_id":"ce4bht12rcd13ifvqi60","pricing_plan_id":"cebpf4jnsgd1na2vs0mg"},{"bike_id":"4d59d020-ea15-4b32-a9d3-4489e240b788","system_id":"levelo_inurba_marseille","lat":43.21774,"lon":5.3462,"is_reserved":false,"is_disabled":false,"rental_uris":{"android":"levelo://app?vid=4d59d020-ea15-4b32-a9d3-4489e240b788","ios":"levelo://app?vid=4d59d020-ea15-4b32-a9d3-4489e240b788"},"vehicle_type_id":"4","last_reported":1751814583,"current_range_meters":8800,"station_id":"st_cvj6r9ubvosntc0bgbag","pricing_plan_id":"cebpf4jnsgd1na2vs0mg"},{"bike_id":"b1d40197-e49c-4962-8cd8-0babe05d31a6","system_id":"levelo_inurba_marseille","lat":43.21276,"lon":5.35245,"is_reserved":false,"is_disabled":false,"rental_uris":{"android":"levelo://app?vid=b1d40197-e49c-4962-8cd8-0babe05d31a6","ios":"levelo://app?vid=b1d40197-e49c-4962-8cd8-0babe05d31a6"},"vehicle_type_id":"4","last_reported":1751814583,"current_range_meters":9200,"station_id":"","pricing_plan_id":"cebpf4jnsgd1na2vs0mg"},{"bike_id":"e55cea4f-26d4-4f9c-bf7a-025fd9a4a22d","system_id":"levelo_inurba_marseille","lat":43.23436,"lon":5.35923,"is_reserved":false,"is_disabled":false,"rental_uris":{"android":"levelo://app?vid=e55cea4f-26d4-4f9c-bf7a-025fd9a4a22d","ios":"levelo://app?vid=e55cea4f-26d4-4f9c-bf7a-025fd9a4a22d"},"vehicle_type_id":"4","last_reported":1751814583,"current_range_meters":9200,"station_id":"","pricing_plan_id":"cebpf4jnsgd1na2vs0mg"},{"bike_id":"312945de-387f-469c-8093-76820ea9009c","system_id":"levelo_inurba_marseille","lat":43.29033,"lon":5.37569,"is_reserved":false,"is_disabled":false,"rental_uris":{"android":"levelo://app?vid=312945de-387f-469c-8093-76820ea9009c","ios":"levelo://app?vid=312945de-387f-469c-8093-76820ea9009c"},"vehicle_type_id":"4","last_reported":1751814583,"current_range_meters":9200,"station_id":"ce4bh692rcd13ifvqe90","pricing_plan_id":"cebpf4jnsgd1na2vs0mg"},{"bike_id":"6a9c90d7-48bb-44b3-a6d4-1c285b660191","system_id":"levelo_inurba_marseille","lat":43.28286,"lon":5.35075,"is_reserved":false,"is_disabled":false,"rental_uris":{"android":"levelo://app?vid=6a9c90d7-48bb-44b3-a6d4-1c285b660191","ios":"levelo://app?vid=6a9c90d7-48bb-44b3-a6d4-1c285b660191"},"vehicle_type_id":"4","last_reported":1751814583,"current_range_meters":9200,"station_id":"ce4bhbp2rcd13ifvqerg","pricing_plan_id":"cebpf4jnsgd1na2vs0mg"},{"bike_id":"14b4bfa3-f52f-4d58-a625-19fd74ef83ea","system_id":"levelo_inurba_marseille","lat":43.27806,"lon":5.40716,"is_reserved":false,"is_disabled":false,"rental_uris":{"android":"levelo://app?vid=14b4bfa3-f52f-4d58-a625-19fd74ef83ea","ios":"levelo://app?vid=14b4bfa3-f52f-4d58-a625-19fd74ef83ea"},"vehicle_type_id":"4","last_reported":1751814583,"current_range_meters":9200,"station_id":"ce4bhnh2rcd13ifvqgtg","pricing_plan_id":"cebpf4jnsgd1na2vs0mg"},{"bike_id":"d858b784-4fd9-41d7-8169-6d2f7e176251","system_id":"levelo_inurba_marseille","lat":43.30008,"lon":5.37815,"is_reserved":false,"is_disabled":false,"rental_uris":{"android":"levelo://app?vid=d858b784-4fd9-41d7-8169-6d2f7e176251","ios":"levelo://app?vid=d858b784-4fd9-41d7-8169-6d2f7e176251"},"vehicle_type_id":"4","last_reported":1751814583,"current_range_meters":9600,"station_id":"","pricing_plan_id":"cebpf4jnsgd1na2vs0mg"},{"bike_id":"86c92dc1-b4da-49d9-acb8-ba390f939865","system_id":"levelo_inurba_marseille","lat":43.33036,"lon":5.39231,"is_reserved":false,"is_disabled":false,"rental_uris":{"android":"levelo://app?vid=86c92dc1-b4da-49d9-acb8-ba390f939865","ios":"levelo://app?vid=86c92dc1-b4da-49d9-acb8-ba390f939865"},"vehicle_type_id":"4","last_reported":1751814583,"current_range_meters":9600,"station_id":"","pricing_plan_id":"cebpf4jnsgd1na2vs0mg"},{"bike_id":"af49b832-1416-49c0-89a1-fdae241b06f6","system_id":"levelo_inurba_marseille","lat":43.29895,"lon":5.43662,"is_reserved":false,"is_disabled":false,"rental_uris":{"android":"levelo://app?vid=af49b832-1416-49c0-89a1-fdae241b06f6","ios":"levelo://app?vid=af49b832-1416-49c0-89a1-fdae241b06f6"},"vehicle_type_id":"4","last_reported":1751814583,"current_range_meters":9600,"station_id":"ce4bhpp2rcd13ifvqhfg","pricing_plan_id":"cebpf4jnsgd1na2vs0mg"},{"bike_id":"adf1d38d-1f03-40cf-9b57-0a8f15f62b2d","system_id":"levelo_inurba_marseille","lat":43.3293,"lon":5.36423,"is_reserved":false,"is_disabled":false,"rental_uris":{"android":"levelo://app?vid=adf1d38d-1f03-40cf-9b57-0a8f15f62b2d","ios":"levelo://app?vid=adf1d38d-1f03-40cf-9b57-0a8f15f62b2d"},"vehicle_type_id":"4","last_reported":1751814583,"current_range_meters":10000,"station_id":"","pricing_plan_id":"cebpf4jnsgd1na2vs0mg"},{"bike_id":"56aa68f6-6b03-415b-a725-cfa86db21b9b","system_id":"levelo_inurba_marseille","lat":43.28705,"lon":5.37392,"is_reserved":false,"is_disabled":false,"rental_uris":{"android":"levelo://app?vid=56aa68f6-6b03-415b-a725-cfa86db21b9b","ios":"levelo://app?vid=56aa68f6-6b03-415b-a725-cfa86db21b9b"},"vehicle_type_id":"4","last_reported":1751814583,"current_range_meters":10000,"station_id":"ce4bh3p2rcd13ifvqdq0","pricing_plan_id":"cebpf4jnsgd1na2vs0mg"},{"bike_id":"fe8ee84c-fdfc-40aa-a1c2-6e36409c0740","system_id":"levelo_inurba_marseille","lat":43.2682,"lon":5.39061,"is_reserved":false,"is_disabled":false,"rental_uris":{"android":"levelo://app?vid=fe8ee84c-fdfc-40aa-a1c2-6e36409c0740","ios":"levelo://app?vid=fe8ee84c-fdfc-40aa-a1c2-6e36409c0740"},"vehicle_type_id":"4","last_reported":1751814583,"current_range_meters":10800,"station_id":"","pricing_plan_id":"cebpf4jnsgd1na2vs0mg"},{"bike_id":"f24de232-65c7-4be7-9e98-e4a9a828fd58","system_id":"levelo_inurba_marseille","lat":43.24272,"lon":5.38843,"is_reserved":false,"is_disabled":false,"rental_uris":{"android":"levelo://app?vid=f24de232-65c7-4be7-9e98-e4a9a828fd58","ios":"levelo://app?vid=f24de232-65c7-4be7-9e98-e4a9a828fd58"},"vehicle_type_id":"4","last_reported":1751814583,"current_range_meters":10800,"station_id":"","pricing_plan_id":"cebpf4jnsgd1na2vs0mg"},{"bike_id":"bc9794a1-6805-4849-b980-ad6e6a8e9d53","system_id":"levelo_inurba_marseille","lat":43.29973,"lon":5.38495,"is_reserved":false,"is_disabled":false,"rental_uris":{"android":"levelo://app?vid=bc9794a1-6805-4849-b980-ad6e6a8e9d53","ios":"levelo://app?vid=bc9794a1-6805-4849-b980-ad6e6a8e9d53"},"vehicle_type_id":"4","last_reported":1751814583,"current_range_meters":10800,"station_id":"ce4bgj92rcd13ifvqbd0","pricing_plan_id":"cebpf4jnsgd1na2vs0mg"},{"bike_id":"4680d1c2-34e4-466c-8ccb-31e52012f189","system_id":"levelo_inurba_marseille","lat":43.26192,"lon":5.37448,"is_reserved":false,"is_disabled":false,"rental_uris":{"android":"levelo://app?vid=4680d1c2-34e4-466c-8ccb-31e52012f189","ios":"levelo://app?vid=4680d1c2-34e4-466c-8ccb-31e52012f189"},"vehicle_type_id":"4","last_reported":1751814583,"current_range_meters":10800,"station_id":"ce4bhgp2rcd13ifvqfc0","pricing_plan_id":"cebpf4jnsgd1na2vs0mg"},{"bike_id":"e6447eff-34e4-4551-a772-997b95c9bc0d","system_id":"levelo_inurba_marseille","lat":43.2573,"lon":5.41107,"is_reserved":false,"is_disabled":false,"rental_uris":{"android":"levelo://app?vid=e6447eff-34e4-4551-a772-997b95c9bc0d","ios":"levelo://app?vid=e6447eff-34e4-4551-a772-997b95c9bc0d"},"vehicle_type_id":"4","last_reported":1751814583,"current_range_meters":10800,"station_id":"ce501612rcd8frsf0b60","pricing_plan_id":"cebpf4jnsgd1na2vs0mg"},{"bike_id":"242b724f-fe88-483c-89a3-315957136a70","system_id":"levelo_inurba_marseille","lat":43.21744,"lon":5.34608,"is_reserved":false,"is_disabled":false,"rental_uris":{"android":"levelo://app?vid=242b724f-fe88-483c-89a3-315957136a70","ios":"levelo://app?vid=242b724f-fe88-483c-89a3-315957136a70"},"vehicle_type_id":"4","last_reported":1751814583,"current_range_meters":10800,"station_id":"st_cvj6r9ubvosntc0bgbag","pricing_plan_id":"cebpf4jnsgd1na2vs0mg"},{"bike_id":"5721378a-4fab-4eae-86af-0685cd9383f4","system_id":"levelo_inurba_marseille","lat":43.21752,"lon":5.34609,"is_reserved":false,"is_disabled":false,"rental_uris":{"android":"levelo://app?vid=5721378a-4fab-4eae-86af-0685cd9383f4","ios":"levelo://app?vid=5721378a-4fab-4eae-86af-0685cd9383f4"},"vehicle_type_id":"4","last_reported":1751814583,"current_range_meters":10800,"station_id":"st_cvj6r9ubvosntc0bgbag","pricing_plan_id":"cebpf4jnsgd1na2vs0mg"},{"bike_id":"ed290504-6948-4f69-8584-2e2b0286febf","system_id":"levelo_inurba_marseille","lat":43.21218,"lon":5.35062,"is_reserved":false,"is_disabled":false,"rental_uris":{"android":"levelo://app?vid=ed290504-6948-4f69-8584-2e2b0286febf","ios":"levelo://app?vid=ed290504-6948-4f69-8584-2e2b0286febf"},"vehicle_type_id":"4","last_reported":1751814583,"current_range_meters":10800,"station_id":"st_cvj6sg6p6f1abm77japg","pricing_plan_id":"cebpf4jnsgd1na2vs0mg"},{"bike_id":"8d5130e2-66b3-4f55-9669-3d5655840abb","system_id":"levelo_inurba_marseille","lat":43.30431,"lon":5.38897,"is_reserved":false,"is_disabled":false,"rental_uris":{"android":"levelo://app?vid=8d5130e2-66b3-4f55-9669-3d5655840abb","ios":"levelo://app?vid=8d5130e2-66b3-4f55-9669-3d5655840abb"},"vehicle_type_id":"4","last_reported":1751814583,"current_range_meters":11200,"station_id":"ce4bgk12rcd13ifvqbi0","pricing_plan_id":"cebpf4jnsgd1na2vs0mg"},{"bike_id":"73c6cb82-2b48-465b-9f9a-9d12d2efd06e","system_id":"levelo_inurba_marseille","lat":43.30463,"lon":5.37898,"is_reserved":false,"is_disabled":false,"rental_uris":{"android":"levelo://app?vid=73c6cb82-2b48-465b-9f9a-9d12d2efd06e","ios":"levelo://app?vid=73c6cb82-2b48-465b-9f9a-9d12d2efd06e"},"vehicle_type_id":"4","last_reported":1751814583,"current_range_meters":11600,"station_id":"ce4bgup2rcd13ifvqcn0","pricing_plan_id":"cebpf4jnsgd1na2vs0mg"},{"bike_id":"e934df3a-55ad-4287-be0e-970eb81a614c","system_id":"levelo_inurba_marseille","lat":43.337342,"lon":5.391865,"is_reserved":false,"is_disabled":false,"rental_uris":{"android":"levelo://app?vid=e934df3a-55ad-4287-be0e-970eb81a614c","ios":"levelo://app?vid=e934df3a-55ad-4287-be0e-970eb81a614c"},"vehicle_type_id":"4","last_reported":1751814583,"current_range_meters":11600,"station_id":"ce4bhr92rcd13ifvqhsg","pricing_plan_id":"cebpf4jnsgd1na2vs0mg"},{"bike_id":"674e9914-92c3-4f12-95eb-5c63047d2994","system_id":"levelo_inurba_marseille","lat":43.23224,"lon":5.35533,"is_reserved":false,"is_disabled":false,"rental_uris":{"android":"levelo://app?vid=674e9914-92c3-4f12-95eb-5c63047d2994","ios":"levelo://app?vid=674e9914-92c3-4f12-95eb-5c63047d2994"},"vehicle_type_id":"4","last_reported":1751814583,"current_range_meters":11600,"station_id":"ce4bhu92rcd13ifvqi70","pricing_plan_id":"cebpf4jnsgd1na2vs0mg"},{"bike_id":"5453a09e-bbbd-4f57-9bae-7c3568913cd7","system_id":"levelo_inurba_marseille","lat":43.30962,"lon":5.39034,"is_reserved":false,"is_disabled":false,"rental_uris":{"android":"levelo://app?vid=5453a09e-bbbd-4f57-9bae-7c3568913cd7","ios":"levelo://app?vid=5453a09e-bbbd-4f57-9bae-7c3568913cd7"},"vehicle_type_id":"4","last_reported":1751814583,"current_range_meters":12400,"station_id":"ce4bgup2rcd13ifvqco0","pricing_plan_id":"cebpf4jnsgd1na2vs0mg"},{"bike_id":"c81dc2e6-92e1-4ae2-b690-46addd796bdb","system_id":"levelo_inurba_marseille","lat":43.28622,"lon":5.35092,"is_reserved":false,"is_disabled":false,"rental_uris":{"android":"levelo://app?vid=c81dc2e6-92e1-4ae2-b690-46addd796bdb","ios":"levelo://app?vid=c81dc2e6-92e1-4ae2-b690-46addd796bdb"},"vehicle_type_id":"4","last_reported":1751814583,"current_range_meters":12400,"station_id":"ce4bhch2rcd13ifvqeug","pricing_plan_id":"cebpf4jnsgd1na2vs0mg"},{"bike_id":"09974754-5967-48d5-9fed-336861c46718","system_id":"levelo_inurba_marseille","lat":43.26187,"lon":5.37454,"is_reserved":false,"is_disabled":false,"rental_uris":{"android":"levelo://app?vid=09974754-5967-48d5-9fed-336861c46718","ios":"levelo://app?vid=09974754-5967-48d5-9fed-336861c46718"},"vehicle_type_id":"4","last_reported":1751814583,"current_range_meters":12400,"station_id":"ce4bhgp2rcd13ifvqfc0","pricing_plan_id":"cebpf4jnsgd1na2vs0mg"},{"bike_id":"c5f51cfb-00e7-42bc-90bd-fb84cad64c1c","system_id":"levelo_inurba_marseille","lat":43.26067,"lon":5.39402,"is_reserved":false,"is_disabled":false,"rental_uris":{"android":"levelo://app?vid=c5f51cfb-00e7-42bc-90bd-fb84cad64c1c","ios":"levelo://app?vid=c5f51cfb-00e7-42bc-90bd-fb84cad64c1c"},"vehicle_type_id":"4","last_reported":1751814583,"current_range_meters":12400,"station_id":"ce4bhh92rcd13ifvqfj0","pricing_plan_id":"cebpf4jnsgd1na2vs0mg"},{"bike_id":"40aaa29a-f2ea-4ba9-9cc6-e2090d4dd7b7","system_id":"levelo_inurba_marseille","lat":43.230576,"lon":5.354893,"is_reserved":false,"is_disabled":false,"rental_uris":{"android":"levelo://app?vid=40aaa29a-f2ea-4ba9-9cc6-e2090d4dd7b7","ios":"levelo://app?vid=40aaa29a-f2ea-4ba9-9cc6-e2090d4dd7b7"},"vehicle_type_id":"4","last_reported":1751814583,"current_range_meters":12400,"station_id":"cpo3342slgdg3j2ifvpg","pricing_plan_id":"cebpf4jnsgd1na2vs0mg"},{"bike_id":"f0f5480c-40ba-4897-b55b-fcab9ada1fbe","system_id":"levelo_inurba_marseille","lat":43.27932,"lon":5.41069,"is_reserved":false,"is_disabled":false,"rental_uris":{"android":"levelo://app?vid=f0f5480c-40ba-4897-b55b-fcab9ada1fbe","ios":"levelo://app?vid=f0f5480c-40ba-4897-b55b-fcab9ada1fbe"},"vehicle_type_id":"4","last_reported":1751814583,"current_range_meters":12800,"station_id":"ce4bhnp2rcd13ifvqh0g","pricing_plan_id":"cebpf4jnsgd1na2vs0mg"},{"bike_id":"44c5d8b4-a09b-481c-b3d7-d51bb5029874","system_id":"levelo_inurba_marseille","lat":43.21764,"lon":5.34603,"is_reserved":false,"is_disabled":false,"rental_uris":{"android":"levelo://app?vid=44c5d8b4-a09b-481c-b3d7-d51bb5029874","ios":"levelo://app?vid=44c5d8b4-a09b-481c-b3d7-d51bb5029874"},"vehicle_type_id":"4","last_reported":1751814583,"current_range_meters":12800,"station_id":"st_cvj6r9ubvosntc0bgbag","pricing_plan_id":"cebpf4jnsgd1na2vs0mg"},{"bike_id":"f013c48f-7c8e-4431-b7aa-7fb936bd95af","system_id":"levelo_inurba_marseille","lat":43.29699,"lon":5.377022,"is_reserved":false,"is_disabled":false,"rental_uris":{"android":"levelo://app?vid=f013c48f-7c8e-4431-b7aa-7fb936bd95af","ios":"levelo://app?vid=f013c48f-7c8e-4431-b7aa-7fb936bd95af"},"vehicle_type_id":"4","last_reported":1751814583,"current_range_meters":13600,"station_id":"ce4bgkh2rcd13ifvqbl0","pricing_plan_id":"cebpf4jnsgd1na2vs0mg"},{"bike_id":"aca47642-4ceb-4a40-bae0-66b7f0d6dee2","system_id":"levelo_inurba_marseille","lat":43.22499,"lon":5.3478,"is_reserved":false,"is_disabled":false,"rental_uris":{"android":"levelo://app?vid=aca47642-4ceb-4a40-bae0-66b7f0d6dee2","ios":"levelo://app?vid=aca47642-4ceb-4a40-bae0-66b7f0d6dee2"},"vehicle_type_id":"4","last_reported":1751814583,"current_range_meters":13600,"station_id":"st_cvj5dfep6f1abm77gieg","pricing_plan_id":"cebpf4jnsgd1na2vs0mg"},{"bike_id":"b5f7697c-1651-425b-9e4d-d5929cda941f","system_id":"levelo_inurba_marseille","lat":43.26212,"lon":5.37446,"is_reserved":false,"is_disabled":false,"rental_uris":{"android":"levelo://app?vid=b5f7697c-1651-425b-9e4d-d5929cda941f","ios":"levelo://app?vid=b5f7697c-1651-425b-9e4d-d5929cda941f"},"vehicle_type_id":"4","last_reported":1751814583,"current_range_meters":14000,"station_id":"ce4bhgp2rcd13ifvqfc0","pricing_plan_id":"cebpf4jnsgd1na2vs0mg"},{"bike_id":"d0ef1ddc-fd9d-4564-9c4c-7ff79ec5d156","system_id":"levelo_inurba_marseille","lat":43.229286,"lon":5.353774,"is_reserved":false,"is_disabled":false,"rental_uris":{"android":"levelo://app?vid=d0ef1ddc-fd9d-4564-9c4c-7ff79ec5d156","ios":"levelo://app?vid=d0ef1ddc-fd9d-4564-9c4c-7ff79ec5d156"},"vehicle_type_id":"4","last_reported":1751814583,"current_range_meters":14000,"station_id":"cpo3342slgdg3j2ifvpg","pricing_plan_id":"cebpf4jnsgd1na2vs0mg"},{"bike_id":"93a35d15-5468-4450-82ae-fa416818f1e6","system_id":"levelo_inurba_marseille","lat":43.27834,"lon":5.39211,"is_reserved":false,"is_disabled":false,"rental_uris":{"android":"levelo://app?vid=93a35d15-5468-4450-82ae-fa416818f1e6","ios":"levelo://app?vid=93a35d15-5468-4450-82ae-fa416818f1e6"},"vehicle_type_id":"4","last_reported":1751814583,"current_range_meters":14400,"station_id":"ce4bhjp2rcd13ifvqga0","pricing_plan_id":"cebpf4jnsgd1na2vs0mg"},{"bike_id":"620fefc1-e5b4-4a64-ba84-900a4230038f","system_id":"levelo_inurba_marseille","lat":43.27053,"lon":5.40262,"is_reserved":false,"is_disabled":false,"rental_uris":{"android":"levelo://app?vid=620fefc1-e5b4-4a64-ba84-900a4230038f","ios":"levelo://app?vid=620fefc1-e5b4-4a64-ba84-900a4230038f"},"vehicle_type_id":"4","last_reported":1751814583,"current_range_meters":14400,"station_id":"ce4bhk92rcd13ifvqgc0","pricing_plan_id":"cebpf4jnsgd1na2vs0mg"},{"bike_id":"1666c958-931d-445e-9197-718e727f181d","system_id":"levelo_inurba_marseille","lat":43.28727,"lon":5.36091,"is_reserved":false,"is_disabled":false,"rental_uris":{"android":"levelo://app?vid=1666c958-931d-445e-9197-718e727f181d","ios":"levelo://app?vid=1666c958-931d-445e-9197-718e727f181d"},"vehicle_type_id":"4","last_reported":1751814583,"current_range_meters":14400,"station_id":"cki0cbj6b192h4jlfktg","pricing_plan_id":"cebpf4jnsgd1na2vs0mg"},{"bike_id":"cd6f91d4-bdaf-4e38-b4f5-14f6e83055e8","system_id":"levelo_inurba_marseille","lat":43.21195,"lon":5.35077,"is_reserved":false,"is_disabled":false,"rental_uris":{"android":"levelo://app?vid=cd6f91d4-bdaf-4e38-b4f5-14f6e83055e8","ios":"levelo://app?vid=cd6f91d4-bdaf-4e38-b4f5-14f6e83055e8"},"vehicle_type_id":"4","last_reported":1751814583,"current_range_meters":14400,"station_id":"st_cvj6sg6p6f1abm77japg","pricing_plan_id":"cebpf4jnsgd1na2vs0mg"},{"bike_id":"e9afba1d-7358-4b44-bce9-1863d6be0d0f","system_id":"levelo_inurba_marseille","lat":43.26553,"lon":5.37287,"is_reserved":false,"is_disabled":false,"rental_uris":{"android":"levelo://app?vid=e9afba1d-7358-4b44-bce9-1863d6be0d0f","ios":"levelo://app?vid=e9afba1d-7358-4b44-bce9-1863d6be0d0f"},"vehicle_type_id":"4","last_reported":1751814583,"current_range_meters":14800,"station_id":"ce4bhg12rcd13ifvqf70","pricing_plan_id":"cebpf4jnsgd1na2vs0mg"},{"bike_id":"78aaff7a-6a00-4c7e-a26d-b39ebcd7b11f","system_id":"levelo_inurba_marseille","lat":43.25007,"lon":5.38927,"is_reserved":false,"is_disabled":false,"rental_uris":{"android":"levelo://app?vid=78aaff7a-6a00-4c7e-a26d-b39ebcd7b11f","ios":"levelo://app?vid=78aaff7a-6a00-4c7e-a26d-b39ebcd7b11f"},"vehicle_type_id":"4","last_reported":1751814583,"current_range_meters":14800,"station_id":"ce4bhgp2rcd13ifvqfd0","pricing_plan_id":"cebpf4jnsgd1na2vs0mg"},{"bike_id":"a0b1194b-9a30-4ee0-9436-de32243b64e0","system_id":"levelo_inurba_marseille","lat":43.32109,"lon":5.36771,"is_reserved":false,"is_disabled":false,"rental_uris":{"android":"levelo://app?vid=a0b1194b-9a30-4ee0-9436-de32243b64e0","ios":"levelo://app?vid=a0b1194b-9a30-4ee0-9436-de32243b64e0"},"vehicle_type_id":"4","last_reported":1751814583,"current_range_meters":14800,"station_id":"ce4bhrh2rcd13ifvqhug","pricing_plan_id":"cebpf4jnsgd1na2vs0mg"},{"bike_id":"e113175a-26c2-4709-bd2e-8b90ec8dd3ee","system_id":"levelo_inurba_marseille","lat":43.274913,"lon":5.424594,"is_reserved":false,"is_disabled":false,"rental_uris":{"android":"levelo://app?vid=e113175a-26c2-4709-bd2e-8b90ec8dd3ee","ios":"levelo://app?vid=e113175a-26c2-4709-bd2e-8b90ec8dd3ee"},"vehicle_type_id":"4","last_reported":1751814583,"current_range_meters":15200,"station_id":"ce4bhn92rcd13ifvqgrg","pricing_plan_id":"cebpf4jnsgd1na2vs0mg"},{"bike_id":"3b22f952-d0bc-4c00-8fd3-7e27b88aea23","system_id":"levelo_inurba_marseille","lat":43.29659,"lon":5.36245,"is_reserved":false,"is_disabled":false,"rental_uris":{"android":"levelo://app?vid=3b22f952-d0bc-4c00-8fd3-7e27b88aea23","ios":"levelo://app?vid=3b22f952-d0bc-4c00-8fd3-7e27b88aea23"},"vehicle_type_id":"4","last_reported":1751814583,"current_range_meters":16000,"station_id":"","pricing_plan_id":"cebpf4jnsgd1na2vs0mg"},{"bike_id":"9fd87248-a46e-4863-a942-f40b310cc0b2","system_id":"levelo_inurba_marseille","lat":43.30261,"lon":5.40083,"is_reserved":false,"is_disabled":false,"rental_uris":{"android":"levelo://app?vid=9fd87248-a46e-4863-a942-f40b310cc0b2","ios":"levelo://app?vid=9fd87248-a46e-4863-a942-f40b310cc0b2"},"vehicle_type_id":"4","last_reported":1751814583,"current_range_meters":16000,"station_id":"ce4bgvh2rcd13ifvqcs0","pricing_plan_id":"cebpf4jnsgd1na2vs0mg"},{"bike_id":"539efdf3-0520-48fb-a5e8-3147a9ad8070","system_id":"levelo_inurba_marseille","lat":43.28478,"lon":5.38415,"is_reserved":false,"is_disabled":false,"rental_uris":{"android":"levelo://app?vid=539efdf3-0520-48fb-a5e8-3147a9ad8070","ios":"levelo://app?vid=539efdf3-0520-48fb-a5e8-3147a9ad8070"},"vehicle_type_id":"4","last_reported":1751814583,"current_range_meters":16000,"station_id":"ce4bh512rcd13ifvqe3g","pricing_plan_id":"cebpf4jnsgd1na2vs0mg"},{"bike_id":"1c12da94-d788-4db7-bea9-aa04743baa20","system_id":"levelo_inurba_marseille","lat":43.26211,"lon":5.37432,"is_reserved":false,"is_disabled":false,"rental_uris":{"android":"levelo://app?vid=1c12da94-d788-4db7-bea9-aa04743baa20","ios":"levelo://app?vid=1c12da94-d788-4db7-bea9-aa04743baa20"},"vehicle_type_id":"4","last_reported":1751814583,"current_range_meters":16000,"station_id":"ce4bhgp2rcd13ifvqfc0","pricing_plan_id":"cebpf4jnsgd1na2vs0mg"},{"bike_id":"d624d198-a4a1-48e1-a133-b0e72e94efad","system_id":"levelo_inurba_marseille","lat":43.27942,"lon":5.4105,"is_reserved":false,"is_disabled":false,"rental_uris":{"android":"levelo://app?vid=d624d198-a4a1-48e1-a133-b0e72e94efad","ios":"levelo://app?vid=d624d198-a4a1-48e1-a133-b0e72e94efad"},"vehicle_type_id":"4","last_reported":1751814583,"current_range_meters":16000,"station_id":"ce4bhnp2rcd13ifvqh0g","pricing_plan_id":"cebpf4jnsgd1na2vs0mg"},{"bike_id":"7fbe4325-9f3f-4695-972a-53bbf1a31ef7","system_id":"levelo_inurba_marseille","lat":43.21181,"lon":5.35051,"is_reserved":false,"is_disabled":false,"rental_uris":{"android":"levelo://app?vid=7fbe4325-9f3f-4695-972a-53bbf1a31ef7","ios":"levelo://app?vid=7fbe4325-9f3f-4695-972a-53bbf1a31ef7"},"vehicle_type_id":"4","last_reported":1751814583,"current_range_meters":16000,"station_id":"st_cvj6sg6p6f1abm77japg","pricing_plan_id":"cebpf4jnsgd1na2vs0mg"},{"bike_id":"80955d0f-8669-4c02-b90f-c6fe20790c37","system_id":"levelo_inurba_marseille","lat":43.23191,"lon":5.35043,"is_reserved":false,"is_disabled":false,"rental_uris":{"android":"levelo://app?vid=80955d0f-8669-4c02-b90f-c6fe20790c37","ios":"levelo://app?vid=80955d0f-8669-4c02-b90f-c6fe20790c37"},"vehicle_type_id":"4","last_reported":1751814583,"current_range_meters":16400,"station_id":"","pricing_plan_id":"cebpf4jnsgd1na2vs0mg"},{"bike_id":"c259904e-c6a9-4384-81e7-be6d6de4c913","system_id":"levelo_inurba_marseille","lat":43.309466,"lon":5.390232,"is_reserved":false,"is_disabled":false,"rental_uris":{"android":"levelo://app?vid=c259904e-c6a9-4384-81e7-be6d6de4c913","ios":"levelo://app?vid=c259904e-c6a9-4384-81e7-be6d6de4c913"},"vehicle_type_id":"4","last_reported":1751814583,"current_range_meters":16400,"station_id":"ce4bgup2rcd13ifvqco0","pricing_plan_id":"cebpf4jnsgd1na2vs0mg"},{"bike_id":"a97cac17-ea26-469e-9de0-b7cad6f0a551","system_id":"levelo_inurba_marseille","lat":43.30953,"lon":5.39038,"is_reserved":false,"is_disabled":false,"rental_uris":{"android":"levelo://app?vid=a97cac17-ea26-469e-9de0-b7cad6f0a551","ios":"levelo://app?vid=a97cac17-ea26-469e-9de0-b7cad6f0a551"},"vehicle_type_id":"4","last_reported":1751814583,"current_range_meters":16400,"station_id":"ce4bgup2rcd13ifvqco0","pricing_plan_id":"cebpf4jnsgd1na2vs0mg"},{"bike_id":"fef329ec-1885-4823-b1c5-45026d8cae52","system_id":"levelo_inurba_marseille","lat":43.2901,"lon":5.35607,"is_reserved":false,"is_disabled":false,"rental_uris":{"android":"levelo://app?vid=fef329ec-1885-4823-b1c5-45026d8cae52","ios":"levelo://app?vid=fef329ec-1885-4823-b1c5-45026d8cae52"},"vehicle_type_id":"4","last_reported":1751814583,"current_range_meters":16400,"station_id":"ce4bhb92rcd13ifvqen0","pricing_plan_id":"cebpf4jnsgd1na2vs0mg"},{"bike_id":"799eabc5-b610-4ac4-948e-1f7fde07ea20","system_id":"levelo_inurba_marseille","lat":43.27564,"lon":5.38427,"is_reserved":false,"is_disabled":false,"rental_uris":{"android":"levelo://app?vid=799eabc5-b610-4ac4-948e-1f7fde07ea20","ios":"levelo://app?vid=799eabc5-b610-4ac4-948e-1f7fde07ea20"},"vehicle_type_id":"4","last_reported":1751814583,"current_range_meters":16400,"station_id":"ce4bhh92rcd13ifvqfi0","pricing_plan_id":"cebpf4jnsgd1na2vs0mg"},{"bike_id":"37f2becd-23f9-4f13-a711-38b8024eeec7","system_id":"levelo_inurba_marseille","lat":43.33768,"lon":5.37516,"is_reserved":false,"is_disabled":false,"rental_uris":{"android":"levelo://app?vid=37f2becd-23f9-4f13-a711-38b8024eeec7","ios":"levelo://app?vid=37f2becd-23f9-4f13-a711-38b8024eeec7"},"vehicle_type_id":"4","last_reported":1751814583,"current_range_meters":16800,"station_id":"","pricing_plan_id":"cebpf4jnsgd1na2vs0mg"},{"bike_id":"fbb6eb26-f5ee-4d8b-a185-17f748b796b4","system_id":"levelo_inurba_marseille","lat":43.32301,"lon":5.44014,"is_reserved":false,"is_disabled":false,"rental_uris":{"android":"levelo://app?vid=fbb6eb26-f5ee-4d8b-a185-17f748b796b4","ios":"levelo://app?vid=fbb6eb26-f5ee-4d8b-a185-17f748b796b4"},"vehicle_type_id":"4","last_reported":1751814583,"current_range_meters":16800,"station_id":"","pricing_plan_id":"cebpf4jnsgd1na2vs0mg"},{"bike_id":"f658a814-1441-47a0-8738-7d54af2d97a6","system_id":"levelo_inurba_marseille","lat":43.34146,"lon":5.40906,"is_reserved":false,"is_disabled":false,"rental_uris":{"android":"levelo://app?vid=f658a814-1441-47a0-8738-7d54af2d97a6","ios":"levelo://app?vid=f658a814-1441-47a0-8738-7d54af2d97a6"},"vehicle_type_id":"4","last_reported":1751814583,"current_range_meters":16800,"station_id":"ce4bhqh2rcd13ifvqhlg","pricing_plan_id":"cebpf4jnsgd1na2vs0mg"},{"bike_id":"aa8f61d8-323f-47e5-890f-90ad80dab82c","system_id":"levelo_inurba_marseille","lat":43.33739,"lon":5.39196,"is_reserved":false,"is_disabled":false,"rental_uris":{"android":"levelo://app?vid=aa8f61d8-323f-47e5-890f-90ad80dab82c","ios":"levelo://app?vid=aa8f61d8-323f-47e5-890f-90ad80dab82c"},"vehicle_type_id":"4","last_reported":1751814583,"current_range_meters":16800,"station_id":"ce4bhr92rcd13ifvqhsg","pricing_plan_id":"cebpf4jnsgd1na2vs0mg"},{"bike_id":"2c93791b-9eec-4e50-81e6-d714eea3a7fc","system_id":"levelo_inurba_marseille","lat":43.24167,"lon":5.36401,"is_reserved":false,"is_disabled":false,"rental_uris":{"android":"levelo://app?vid=2c93791b-9eec-4e50-81e6-d714eea3a7fc","ios":"levelo://app?vid=2c93791b-9eec-4e50-81e6-d714eea3a7fc"},"vehicle_type_id":"4","last_reported":1751814583,"current_range_meters":16800,"station_id":"cpo36qri1sfpv3e86is0","pricing_plan_id":"cebpf4jnsgd1na2vs0mg"},{"bike_id":"e8d7fcf5-14a0-430b-a247-ddceafd06b95","system_id":"levelo_inurba_marseille","lat":43.22498,"lon":5.3479,"is_reserved":false,"is_disabled":false,"rental_uris":{"android":"levelo://app?vid=e8d7fcf5-14a0-430b-a247-ddceafd06b95","ios":"levelo://app?vid=e8d7fcf5-14a0-430b-a247-ddceafd06b95"},"vehicle_type_id":"4","last_reported":1751814583,"current_range_meters":16800,"station_id":"st_cvj5dfep6f1abm77gieg","pricing_plan_id":"cebpf4jnsgd1na2vs0mg"},{"bike_id":"7d3ff233-0eee-4c35-bb3b-478bf2bec50c","system_id":"levelo_inurba_marseille","lat":43.21748,"lon":5.34599,"is_reserved":false,"is_disabled":false,"rental_uris":{"android":"levelo://app?vid=7d3ff233-0eee-4c35-bb3b-478bf2bec50c","ios":"levelo://app?vid=7d3ff233-0eee-4c35-bb3b-478bf2bec50c"},"vehicle_type_id":"4","last_reported":1751814583,"current_range_meters":16800,"station_id":"st_cvj6r9ubvosntc0bgbag","pricing_plan_id":"cebpf4jnsgd1na2vs0mg"},{"bike_id":"7b6120de-7b13-47a6-97f0-486439cc110c","system_id":"levelo_inurba_marseille","lat":43.2175,"lon":5.34594,"is_reserved":false,"is_disabled":false,"rental_uris":{"android":"levelo://app?vid=7b6120de-7b13-47a6-97f0-486439cc110c","ios":"levelo://app?vid=7b6120de-7b13-47a6-97f0-486439cc110c"},"vehicle_type_id":"4","last_reported":1751814583,"current_range_meters":16800,"station_id":"st_cvj6r9ubvosntc0bgbag","pricing_plan_id":"cebpf4jnsgd1na2vs0mg"},{"bike_id":"7b527f00-f6ea-4963-b59d-8da04a2feedb","system_id":"levelo_inurba_marseille","lat":43.32081,"lon":5.401228,"is_reserved":false,"is_disabled":false,"rental_uris":{"android":"levelo://app?vid=7b527f00-f6ea-4963-b59d-8da04a2feedb","ios":"levelo://app?vid=7b527f00-f6ea-4963-b59d-8da04a2feedb"},"vehicle_type_id":"4","last_reported":1751814583,"current_range_meters":17200,"station_id":"","pricing_plan_id":"cebpf4jnsgd1na2vs0mg"},{"bike_id":"ccc29df5-1113-42b5-b8de-771b9f206409","system_id":"levelo_inurba_marseille","lat":43.26275,"lon":5.374,"is_reserved":false,"is_disabled":false,"rental_uris":{"android":"levelo://app?vid=ccc29df5-1113-42b5-b8de-771b9f206409","ios":"levelo://app?vid=ccc29df5-1113-42b5-b8de-771b9f206409"},"vehicle_type_id":"4","last_reported":1751814583,"current_range_meters":17200,"station_id":"","pricing_plan_id":"cebpf4jnsgd1na2vs0mg"},{"bike_id":"7eb7d907-e2f2-45c5-8353-102a1b507e52","system_id":"levelo_inurba_marseille","lat":43.3055,"lon":5.36527,"is_reserved":false,"is_disabled":false,"rental_uris":{"android":"levelo://app?vid=7eb7d907-e2f2-45c5-8353-102a1b507e52","ios":"levelo://app?vid=7eb7d907-e2f2-45c5-8353-102a1b507e52"},"vehicle_type_id":"4","last_reported":1751814583,"current_range_meters":17200,"station_id":"ce4bgs12rcd13ifvqcag","pricing_plan_id":"cebpf4jnsgd1na2vs0mg"},{"bike_id":"94a38e64-8dd8-4e2e-bcd6-3aa7bd281314","system_id":"levelo_inurba_marseille","lat":43.25117,"lon":5.40342,"is_reserved":false,"is_disabled":false,"rental_uris":{"android":"levelo://app?vid=94a38e64-8dd8-4e2e-bcd6-3aa7bd281314","ios":"levelo://app?vid=94a38e64-8dd8-4e2e-bcd6-3aa7bd281314"},"vehicle_type_id":"4","last_reported":1751814583,"current_range_meters":17200,"station_id":"ce4bhlh2rcd13ifvqgig","pricing_plan_id":"cebpf4jnsgd1na2vs0mg"},{"bike_id":"680ee95d-9c1e-41c3-8af6-acd7ca043aca","system_id":"levelo_inurba_marseille","lat":43.30434,"lon":5.41269,"is_reserved":false,"is_disabled":false,"rental_uris":{"android":"levelo://app?vid=680ee95d-9c1e-41c3-8af6-acd7ca043aca","ios":"levelo://app?vid=680ee95d-9c1e-41c3-8af6-acd7ca043aca"},"vehicle_type_id":"4","last_reported":1751814583,"current_range_meters":17200,"station_id":"ce4bhop2rcd13ifvqh8g","pricing_plan_id":"cebpf4jnsgd1na2vs0mg"},{"bike_id":"c7397c87-5738-4812-9f4b-0d531a6f59f6","system_id":"levelo_inurba_marseille","lat":43.27998,"lon":5.40016,"is_reserved":false,"is_disabled":false,"rental_uris":{"android":"levelo://app?vid=c7397c87-5738-4812-9f4b-0d531a6f59f6","ios":"levelo://app?vid=c7397c87-5738-4812-9f4b-0d531a6f59f6"},"vehicle_type_id":"4","last_reported":1751814583,"current_range_meters":17600,"station_id":"","pricing_plan_id":"cebpf4jnsgd1na2vs0mg"},{"bike_id":"e7137259-a8cc-465f-80c9-301193a6bbc3","system_id":"levelo_inurba_marseille","lat":43.21231,"lon":5.35113,"is_reserved":false,"is_disabled":false,"rental_uris":{"android":"levelo://app?vid=e7137259-a8cc-465f-80c9-301193a6bbc3","ios":"levelo://app?vid=e7137259-a8cc-465f-80c9-301193a6bbc3"},"vehicle_type_id":"4","last_reported":1751814583,"current_range_meters":17600,"station_id":"","pricing_plan_id":"cebpf4jnsgd1na2vs0mg"},{"bike_id":"4ce9a064-53fd-4eb5-852c-d7f976265e16","system_id":"levelo_inurba_marseille","lat":43.31179,"lon":5.37217,"is_reserved":false,"is_disabled":false,"rental_uris":{"android":"levelo://app?vid=4ce9a064-53fd-4eb5-852c-d7f976265e16","ios":"levelo://app?vid=4ce9a064-53fd-4eb5-852c-d7f976265e16"},"vehicle_type_id":"4","last_reported":1751814583,"current_range_meters":17600,"station_id":"","pricing_plan_id":"cebpf4jnsgd1na2vs0mg"},{"bike_id":"4377d5c2-2819-4de9-adf3-86500cdc932e","system_id":"levelo_inurba_marseille","lat":43.31071,"lon":5.38355,"is_reserved":false,"is_disabled":false,"rental_uris":{"android":"levelo://app?vid=4377d5c2-2819-4de9-adf3-86500cdc932e","ios":"levelo://app?vid=4377d5c2-2819-4de9-adf3-86500cdc932e"},"vehicle_type_id":"4","last_reported":1751814583,"current_range_meters":17600,"station_id":"ce4bgv92rcd13ifvqcr0","pricing_plan_id":"cebpf4jnsgd1na2vs0mg"},{"bike_id":"78c59e31-a103-4d01-9f76-1277462ef325","system_id":"levelo_inurba_marseille","lat":43.29189,"lon":5.35795,"is_reserved":false,"is_disabled":false,"rental_uris":{"android":"levelo://app?vid=78c59e31-a103-4d01-9f76-1277462ef325","ios":"levelo://app?vid=78c59e31-a103-4d01-9f76-1277462ef325"},"vehicle_type_id":"4","last_reported":1751814583,"current_range_meters":17600,"station_id":"ce4bhb12rcd13ifvqel0","pricing_plan_id":"cebpf4jnsgd1na2vs0mg"},{"bike_id":"91154bec-0cbc-4843-a7db-56b64e6bafd9","system_id":"levelo_inurba_marseille","lat":43.28434,"lon":5.34982,"is_reserved":false,"is_disabled":false,"rental_uris":{"android":"levelo://app?vid=91154bec-0cbc-4843-a7db-56b64e6bafd9","ios":"levelo://app?vid=91154bec-0cbc-4843-a7db-56b64e6bafd9"},"vehicle_type_id":"4","last_reported":1751814583,"current_range_meters":17600,"station_id":"ce4bhbh2rcd13ifvqepg","pricing_plan_id":"cebpf4jnsgd1na2vs0mg"},{"bike_id":"a4b8b055-7a95-4589-ba5e-9fd64e6d9da2","system_id":"levelo_inurba_marseille","lat":43.286373,"lon":5.370651,"is_reserved":false,"is_disabled":false,"rental_uris":{"android":"levelo://app?vid=a4b8b055-7a95-4589-ba5e-9fd64e6d9da2","ios":"levelo://app?vid=a4b8b055-7a95-4589-ba5e-9fd64e6d9da2"},"vehicle_type_id":"4","last_reported":1751814583,"current_range_meters":17600,"station_id":"ce4bht12rcd13ifvqi60","pricing_plan_id":"cebpf4jnsgd1na2vs0mg"},{"bike_id":"13e73522-903f-424e-a24d-ac279998d396","system_id":"levelo_inurba_marseille","lat":43.22932,"lon":5.35392,"is_reserved":false,"is_disabled":false,"rental_uris":{"android":"levelo://app?vid=13e73522-903f-424e-a24d-ac279998d396","ios":"levelo://app?vid=13e73522-903f-424e-a24d-ac279998d396"},"vehicle_type_id":"4","last_reported":1751814583,"current_range_meters":17600,"station_id":"cpo3532slgdg3j2ikp40","pricing_plan_id":"cebpf4jnsgd1na2vs0mg"},{"bike_id":"d5ef770d-9759-47e3-b3a5-7d2785ef76db","system_id":"levelo_inurba_marseille","lat":43.3288,"lon":5.39056,"is_reserved":false,"is_disabled":false,"rental_uris":{"android":"levelo://app?vid=d5ef770d-9759-47e3-b3a5-7d2785ef76db","ios":"levelo://app?vid=d5ef770d-9759-47e3-b3a5-7d2785ef76db"},"vehicle_type_id":"4","last_reported":1751814583,"current_range_meters":18000,"station_id":"","pricing_plan_id":"cebpf4jnsgd1na2vs0mg"},{"bike_id":"8a9a85a9-ac3f-4600-93ed-f469497657c7","system_id":"levelo_inurba_marseille","lat":43.29035,"lon":5.37566,"is_reserved":false,"is_disabled":false,"rental_uris":{"android":"levelo://app?vid=8a9a85a9-ac3f-4600-93ed-f469497657c7","ios":"levelo://app?vid=8a9a85a9-ac3f-4600-93ed-f469497657c7"},"vehicle_type_id":"4","last_reported":1751814583,"current_range_meters":18000,"station_id":"ce4bh692rcd13ifvqe90","pricing_plan_id":"cebpf4jnsgd1na2vs0mg"},{"bike_id":"369c8dd5-1813-419d-a4e5-23b99d5734f3","system_id":"levelo_inurba_marseille","lat":43.211983,"lon":5.351147,"is_reserved":false,"is_disabled":false,"rental_uris":{"android":"levelo://app?vid=369c8dd5-1813-419d-a4e5-23b99d5734f3","ios":"levelo://app?vid=369c8dd5-1813-419d-a4e5-23b99d5734f3"},"vehicle_type_id":"4","last_reported":1751814583,"current_range_meters":18000,"station_id":"st_cvj6sg6p6f1abm77japg","pricing_plan_id":"cebpf4jnsgd1na2vs0mg"},{"bike_id":"61780595-a674-455f-8c2d-22baa902746d","system_id":"levelo_inurba_marseille","lat":43.26207,"lon":5.37446,"is_reserved":false,"is_disabled":false,"rental_uris":{"android":"levelo://app?vid=61780595-a674-455f-8c2d-22baa902746d","ios":"levelo://app?vid=61780595-a674-455f-8c2d-22baa902746d"},"vehicle_type_id":"4","last_reported":1751814583,"current_range_meters":18800,"station_id":"ce4bhgp2rcd13ifvqfc0","pricing_plan_id":"cebpf4jnsgd1na2vs0mg"},{"bike_id":"01b9cfea-6b6d-40b8-83fe-bbdf4aa8c92d","system_id":"levelo_inurba_marseille","lat":43.265518,"lon":5.372844,"is_reserved":false,"is_disabled":false,"rental_uris":{"android":"levelo://app?vid=01b9cfea-6b6d-40b8-83fe-bbdf4aa8c92d","ios":"levelo://app?vid=01b9cfea-6b6d-40b8-83fe-bbdf4aa8c92d"},"vehicle_type_id":"4","last_reported":1751814583,"current_range_meters":18800,"station_id":"ce4bhh12rcd13ifvqff0","pricing_plan_id":"cebpf4jnsgd1na2vs0mg"},{"bike_id":"5f22506e-f57d-48f1-99cc-23ad0b080983","system_id":"levelo_inurba_marseille","lat":43.270686,"lon":5.422953,"is_reserved":false,"is_disabled":false,"rental_uris":{"android":"levelo://app?vid=5f22506e-f57d-48f1-99cc-23ad0b080983","ios":"levelo://app?vid=5f22506e-f57d-48f1-99cc-23ad0b080983"},"vehicle_type_id":"4","last_reported":1751814583,"current_range_meters":18800,"station_id":"ce4bhk92rcd13ifvqgb0","pricing_plan_id":"cebpf4jnsgd1na2vs0mg"},{"bike_id":"e7af0a00-6167-4e68-bd0f-3f5a807e7848","system_id":"levelo_inurba_marseille","lat":43.32361,"lon":5.38887,"is_reserved":false,"is_disabled":false,"rental_uris":{"android":"levelo://app?vid=e7af0a00-6167-4e68-bd0f-3f5a807e7848","ios":"levelo://app?vid=e7af0a00-6167-4e68-bd0f-3f5a807e7848"},"vehicle_type_id":"4","last_reported":1751814583,"current_range_meters":18800,"station_id":"ce4bhqp2rcd13ifvqhog","pricing_plan_id":"cebpf4jnsgd1na2vs0mg"},{"bike_id":"89e2352f-f58b-4095-8a03-e2b9f796df9d","system_id":"levelo_inurba_marseille","lat":43.30536,"lon":5.36532,"is_reserved":false,"is_disabled":false,"rental_uris":{"android":"levelo://app?vid=89e2352f-f58b-4095-8a03-e2b9f796df9d","ios":"levelo://app?vid=89e2352f-f58b-4095-8a03-e2b9f796df9d"},"vehicle_type_id":"4","last_reported":1751814583,"current_range_meters":19200,"station_id":"ce4bgs12rcd13ifvqcag","pricing_plan_id":"cebpf4jnsgd1na2vs0mg"},{"bike_id":"97adfe75-4667-4110-971e-0d802b9b3644","system_id":"levelo_inurba_marseille","lat":43.28667,"lon":5.36355,"is_reserved":false,"is_disabled":false,"rental_uris":{"android":"levelo://app?vid=97adfe75-4667-4110-971e-0d802b9b3644","ios":"levelo://app?vid=97adfe75-4667-4110-971e-0d802b9b3644"},"vehicle_type_id":"4","last_reported":1751814583,"current_range_meters":19200,"station_id":"ce4bhah2rcd13ifvqej0","pricing_plan_id":"cebpf4jnsgd1na2vs0mg"},{"bike_id":"e3dd042b-63d4-41f0-a954-a6779524ad5f","system_id":"levelo_inurba_marseille","lat":43.28401,"lon":5.34998,"is_reserved":false,"is_disabled":false,"rental_uris":{"android":"levelo://app?vid=e3dd042b-63d4-41f0-a954-a6779524ad5f","ios":"levelo://app?vid=e3dd042b-63d4-41f0-a954-a6779524ad5f"},"vehicle_type_id":"4","last_reported":1751814583,"current_range_meters":19200,"station_id":"ce4bhbh2rcd13ifvqepg","pricing_plan_id":"cebpf4jnsgd1na2vs0mg"},{"bike_id":"2ba89e04-9389-46c0-8332-f71ab425c714","system_id":"levelo_inurba_marseille","lat":43.22506,"lon":5.347837,"is_reserved":false,"is_disabled":false,"rental_uris":{"android":"levelo://app?vid=2ba89e04-9389-46c0-8332-f71ab425c714","ios":"levelo://app?vid=2ba89e04-9389-46c0-8332-f71ab425c714"},"vehicle_type_id":"4","last_reported":1751814583,"current_range_meters":19200,"station_id":"st_cvj5dfep6f1abm77gieg","pricing_plan_id":"cebpf4jnsgd1na2vs0mg"},{"bike_id":"ce829d78-ac63-4fa2-9e2f-f05c85df4dc7","system_id":"levelo_inurba_marseille","lat":43.27607,"lon":5.36113,"is_reserved":false,"is_disabled":false,"rental_uris":{"android":"levelo://app?vid=ce829d78-ac63-4fa2-9e2f-f05c85df4dc7","ios":"levelo://app?vid=ce829d78-ac63-4fa2-9e2f-f05c85df4dc7"},"vehicle_type_id":"4","last_reported":1751814583,"current_range_meters":19600,"station_id":"ce4bgj92rcd13ifvqbe0","pricing_plan_id":"cebpf4jnsgd1na2vs0mg"},{"bike_id":"7ebc6c2d-c708-4644-b152-51d24191045e","system_id":"levelo_inurba_marseille","lat":43.283997,"lon":5.375171,"is_reserved":false,"is_disabled":false,"rental_uris":{"android":"levelo://app?vid=7ebc6c2d-c708-4644-b152-51d24191045e","ios":"levelo://app?vid=7ebc6c2d-c708-4644-b152-51d24191045e"},"vehicle_type_id":"4","last_reported":1751814583,"current_range_meters":20000,"station_id":"ce4bh412rcd13ifvqds0","pricing_plan_id":"cebpf4jnsgd1na2vs0mg"},{"bike_id":"0ce95632-4154-4bce-a3be-c43d2c582498","system_id":"levelo_inurba_marseille","lat":43.286156,"lon":5.351021,"is_reserved":false,"is_disabled":false,"rental_uris":{"android":"levelo://app?vid=0ce95632-4154-4bce-a3be-c43d2c582498","ios":"levelo://app?vid=0ce95632-4154-4bce-a3be-c43d2c582498"},"vehicle_type_id":"4","last_reported":1751814583,"current_range_meters":20000,"station_id":"ce4bhch2rcd13ifvqeug","pricing_plan_id":"cebpf4jnsgd1na2vs0mg"},{"bike_id":"5ed49339-7408-478a-93e6-a83736aae6bb","system_id":"levelo_inurba_marseille","lat":43.2782,"lon":5.4072,"is_reserved":false,"is_disabled":false,"rental_uris":{"android":"levelo://app?vid=5ed49339-7408-478a-93e6-a83736aae6bb","ios":"levelo://app?vid=5ed49339-7408-478a-93e6-a83736aae6bb"},"vehicle_type_id":"4","last_reported":1751814583,"current_range_meters":20000,"station_id":"ce4bhnh2rcd13ifvqgtg","pricing_plan_id":"cebpf4jnsgd1na2vs0mg"},{"bike_id":"3b7bb2ed-fae5-4259-aef0-4347f3b50332","system_id":"levelo_inurba_marseille","lat":43.23197,"lon":5.35546,"is_reserved":false,"is_disabled":false,"rental_uris":{"android":"levelo://app?vid=3b7bb2ed-fae5-4259-aef0-4347f3b50332","ios":"levelo://app?vid=3b7bb2ed-fae5-4259-aef0-4347f3b50332"},"vehicle_type_id":"4","last_reported":1751814583,"current_range_meters":20000,"station_id":"ce4bhu92rcd13ifvqi70","pricing_plan_id":"cebpf4jnsgd1na2vs0mg"},{"bike_id":"ec3f65cf-8046-4295-9468-2979cb218118","system_id":"levelo_inurba_marseille","lat":43.22819,"lon":5.34957,"is_reserved":false,"is_disabled":false,"rental_uris":{"android":"levelo://app?vid=ec3f65cf-8046-4295-9468-2979cb218118","ios":"levelo://app?vid=ec3f65cf-8046-4295-9468-2979cb218118"},"vehicle_type_id":"4","last_reported":1751814583,"current_range_meters":20400,"station_id":"","pricing_plan_id":"cebpf4jnsgd1na2vs0mg"},{"bike_id":"b85b1c43-2a92-4e8a-888c-f159a903f72d","system_id":"levelo_inurba_marseille","lat":43.27263,"lon":5.41625,"is_reserved":false,"is_disabled":false,"rental_uris":{"android":"levelo://app?vid=b85b1c43-2a92-4e8a-888c-f159a903f72d","ios":"levelo://app?vid=b85b1c43-2a92-4e8a-888c-f159a903f72d"},"vehicle_type_id":"4","last_reported":1751814583,"current_range_meters":20400,"station_id":"","pricing_plan_id":"cebpf4jnsgd1na2vs0mg"},{"bike_id":"afb2e258-496f-4b3f-b71b-6253851f352e","system_id":"levelo_inurba_marseille","lat":43.30276,"lon":5.37711,"is_reserved":false,"is_disabled":false,"rental_uris":{"android":"levelo://app?vid=afb2e258-496f-4b3f-b71b-6253851f352e","ios":"levelo://app?vid=afb2e258-496f-4b3f-b71b-6253851f352e"},"vehicle_type_id":"4","last_reported":1751814583,"current_range_meters":20400,"station_id":"ce4bguh2rcd13ifvqcj0","pricing_plan_id":"cebpf4jnsgd1na2vs0mg"},{"bike_id":"2e933973-3f50-4499-86a8-1317fd85a233","system_id":"levelo_inurba_marseille","lat":43.2119,"lon":5.35077,"is_reserved":false,"is_disabled":false,"rental_uris":{"android":"levelo://app?vid=2e933973-3f50-4499-86a8-1317fd85a233","ios":"levelo://app?vid=2e933973-3f50-4499-86a8-1317fd85a233"},"vehicle_type_id":"4","last_reported":1751814583,"current_range_meters":20400,"station_id":"st_cvj6sg6p6f1abm77japg","pricing_plan_id":"cebpf4jnsgd1na2vs0mg"},{"bike_id":"58aae648-2b49-43c5-9658-8c2b502cf334","system_id":"levelo_inurba_marseille","lat":43.31593,"lon":5.38443,"is_reserved":false,"is_disabled":false,"rental_uris":{"android":"levelo://app?vid=58aae648-2b49-43c5-9658-8c2b502cf334","ios":"levelo://app?vid=58aae648-2b49-43c5-9658-8c2b502cf334"},"vehicle_type_id":"4","last_reported":1751814583,"current_range_meters":20800,"station_id":"","pricing_plan_id":"cebpf4jnsgd1na2vs0mg"},{"bike_id":"f01bbda7-15e5-43a5-a2f3-091269ac813b","system_id":"levelo_inurba_marseille","lat":43.23967,"lon":5.36628,"is_reserved":false,"is_disabled":false,"rental_uris":{"android":"levelo://app?vid=f01bbda7-15e5-43a5-a2f3-091269ac813b","ios":"levelo://app?vid=f01bbda7-15e5-43a5-a2f3-091269ac813b"},"vehicle_type_id":"4","last_reported":1751814583,"current_range_meters":20800,"station_id":"ce4bhi12rcd13ifvqfp0","pricing_plan_id":"cebpf4jnsgd1na2vs0mg"},{"bike_id":"d6899acf-e5c7-4edf-b0bc-83b97c128a58","system_id":"levelo_inurba_marseille","lat":43.3091,"lon":5.36837,"is_reserved":false,"is_disabled":false,"rental_uris":{"android":"levelo://app?vid=d6899acf-e5c7-4edf-b0bc-83b97c128a58","ios":"levelo://app?vid=d6899acf-e5c7-4edf-b0bc-83b97c128a58"},"vehicle_type_id":"4","last_reported":1751814583,"current_range_meters":21600,"station_id":"ce4bgn92rcd13ifvqbvg","pricing_plan_id":"cebpf4jnsgd1na2vs0mg"},{"bike_id":"23746e0a-2909-43bc-8a6d-4bf5e9fffd57","system_id":"levelo_inurba_marseille","lat":43.241793,"lon":5.397349,"is_reserved":false,"is_disabled":false,"rental_uris":{"android":"levelo://app?vid=23746e0a-2909-43bc-8a6d-4bf5e9fffd57","ios":"levelo://app?vid=23746e0a-2909-43bc-8a6d-4bf5e9fffd57"},"vehicle_type_id":"4","last_reported":1751814583,"current_range_meters":21600,"station_id":"ce4bhn12rcd13ifvqgpg","pricing_plan_id":"cebpf4jnsgd1na2vs0mg"},{"bike_id":"c9d4b074-a657-42e4-a289-d2302d03c2ca","system_id":"levelo_inurba_marseille","lat":43.28722,"lon":5.43236,"is_reserved":false,"is_disabled":false,"rental_uris":{"android":"levelo://app?vid=c9d4b074-a657-42e4-a289-d2302d03c2ca","ios":"levelo://app?vid=c9d4b074-a657-42e4-a289-d2302d03c2ca"},"vehicle_type_id":"4","last_reported":1751814583,"current_range_meters":22000,"station_id":"","pricing_plan_id":"cebpf4jnsgd1na2vs0mg"},{"bike_id":"a6fe2d37-0a1f-4a2c-9531-8385d8c4c810","system_id":"levelo_inurba_marseille","lat":43.29027,"lon":5.38638,"is_reserved":false,"is_disabled":false,"rental_uris":{"android":"levelo://app?vid=a6fe2d37-0a1f-4a2c-9531-8385d8c4c810","ios":"levelo://app?vid=a6fe2d37-0a1f-4a2c-9531-8385d8c4c810"},"vehicle_type_id":"4","last_reported":1751814583,"current_range_meters":22000,"station_id":"ce4bh4p2rcd13ifvqe0g","pricing_plan_id":"cebpf4jnsgd1na2vs0mg"},{"bike_id":"f3eb45ac-38f3-4840-8ad1-68d001c7c3dc","system_id":"levelo_inurba_marseille","lat":43.28273,"lon":5.35063,"is_reserved":false,"is_disabled":false,"rental_uris":{"android":"levelo://app?vid=f3eb45ac-38f3-4840-8ad1-68d001c7c3dc","ios":"levelo://app?vid=f3eb45ac-38f3-4840-8ad1-68d001c7c3dc"},"vehicle_type_id":"4","last_reported":1751814583,"current_range_meters":22000,"station_id":"ce4bhbp2rcd13ifvqerg","pricing_plan_id":"cebpf4jnsgd1na2vs0mg"},{"bike_id":"cfddacc6-f20a-4b8f-9483-cc95be1400ce","system_id":"levelo_inurba_marseille","lat":43.28632,"lon":5.3509,"is_reserved":false,"is_disabled":false,"rental_uris":{"android":"levelo://app?vid=cfddacc6-f20a-4b8f-9483-cc95be1400ce","ios":"levelo://app?vid=cfddacc6-f20a-4b8f-9483-cc95be1400ce"},"vehicle_type_id":"4","last_reported":1751814583,"current_range_meters":22000,"station_id":"ce4bhch2rcd13ifvqeug","pricing_plan_id":"cebpf4jnsgd1na2vs0mg"},{"bike_id":"6a3a3e65-1839-43d5-b574-3a73e4e32dac","system_id":"levelo_inurba_marseille","lat":43.32321,"lon":5.3887,"is_reserved":false,"is_disabled":false,"rental_uris":{"android":"levelo://app?vid=6a3a3e65-1839-43d5-b574-3a73e4e32dac","ios":"levelo://app?vid=6a3a3e65-1839-43d5-b574-3a73e4e32dac"},"vehicle_type_id":"4","last_reported":1751814583,"current_range_meters":22400,"station_id":"","pricing_plan_id":"cebpf4jnsgd1na2vs0mg"},{"bike_id":"f58ee066-18f8-4707-847a-df6d62722327","system_id":"levelo_inurba_marseille","lat":43.309401,"lon":5.390524,"is_reserved":false,"is_disabled":false,"rental_uris":{"android":"levelo://app?vid=f58ee066-18f8-4707-847a-df6d62722327","ios":"levelo://app?vid=f58ee066-18f8-4707-847a-df6d62722327"},"vehicle_type_id":"4","last_reported":1751814583,"current_range_meters":22400,"station_id":"ce4bgup2rcd13ifvqco0","pricing_plan_id":"cebpf4jnsgd1na2vs0mg"},{"bike_id":"87920946-536b-442d-b1e2-8560261916aa","system_id":"levelo_inurba_marseille","lat":43.286097,"lon":5.351073,"is_reserved":false,"is_disabled":false,"rental_uris":{"android":"levelo://app?vid=87920946-536b-442d-b1e2-8560261916aa","ios":"levelo://app?vid=87920946-536b-442d-b1e2-8560261916aa"},"vehicle_type_id":"4","last_reported":1751814583,"current_range_meters":22400,"station_id":"ce4bhch2rcd13ifvqeug","pricing_plan_id":"cebpf4jnsgd1na2vs0mg"},{"bike_id":"b0d55032-6351-4ef8-a430-58335ed08aaf","system_id":"levelo_inurba_marseille","lat":43.262258,"lon":5.404466,"is_reserved":false,"is_disabled":false,"rental_uris":{"android":"levelo://app?vid=b0d55032-6351-4ef8-a430-58335ed08aaf","ios":"levelo://app?vid=b0d55032-6351-4ef8-a430-58335ed08aaf"},"vehicle_type_id":"4","last_reported":1751814583,"current_range_meters":22400,"station_id":"ce4bhmh2rcd13ifvqgmg","pricing_plan_id":"cebpf4jnsgd1na2vs0mg"},{"bike_id":"d40dded5-2a66-486c-830e-ded2ed9ebfd0","system_id":"levelo_inurba_marseille","lat":43.279949,"lon":5.400122,"is_reserved":false,"is_disabled":false,"rental_uris":{"android":"levelo://app?vid=d40dded5-2a66-486c-830e-ded2ed9ebfd0","ios":"levelo://app?vid=d40dded5-2a66-486c-830e-ded2ed9ebfd0"},"vehicle_type_id":"4","last_reported":1751814583,"current_range_meters":22400,"station_id":"ce4bho92rcd13ifvqh4g","pricing_plan_id":"cebpf4jnsgd1na2vs0mg"},{"bike_id":"4117424d-2cdf-4341-942c-114b77d3d3f7","system_id":"levelo_inurba_marseille","lat":43.30418,"lon":5.41282,"is_reserved":false,"is_disabled":false,"rental_uris":{"android":"levelo://app?vid=4117424d-2cdf-4341-942c-114b77d3d3f7","ios":"levelo://app?vid=4117424d-2cdf-4341-942c-114b77d3d3f7"},"vehicle_type_id":"4","last_reported":1751814583,"current_range_meters":22400,"station_id":"ce4bhop2rcd13ifvqh8g","pricing_plan_id":"cebpf4jnsgd1na2vs0mg"},{"bike_id":"d2cdccef-dff6-4fac-b0f7-c9018d1b2b9a","system_id":"levelo_inurba_marseille","lat":43.30424,"lon":5.41288,"is_reserved":false,"is_disabled":false,"rental_uris":{"android":"levelo://app?vid=d2cdccef-dff6-4fac-b0f7-c9018d1b2b9a","ios":"levelo://app?vid=d2cdccef-dff6-4fac-b0f7-c9018d1b2b9a"},"vehicle_type_id":"4","last_reported":1751814583,"current_range_meters":22400,"station_id":"ce4bhop2rcd13ifvqh8g","pricing_plan_id":"cebpf4jnsgd1na2vs0mg"},{"bike_id":"6fe224a1-e28a-4dd4-ac0b-e0b679fa313b","system_id":"levelo_inurba_marseille","lat":43.29896,"lon":5.43651,"is_reserved":false,"is_disabled":false,"rental_uris":{"android":"levelo://app?vid=6fe224a1-e28a-4dd4-ac0b-e0b679fa313b","ios":"levelo://app?vid=6fe224a1-e28a-4dd4-ac0b-e0b679fa313b"},"vehicle_type_id":"4","last_reported":1751814583,"current_range_meters":22400,"station_id":"ce4bhpp2rcd13ifvqhfg","pricing_plan_id":"cebpf4jnsgd1na2vs0mg"},{"bike_id":"c2fb0d5f-790f-46eb-ae9e-e6015526241b","system_id":"levelo_inurba_marseille","lat":43.21191,"lon":5.35081,"is_reserved":false,"is_disabled":false,"rental_uris":{"android":"levelo://app?vid=c2fb0d5f-790f-46eb-ae9e-e6015526241b","ios":"levelo://app?vid=c2fb0d5f-790f-46eb-ae9e-e6015526241b"},"vehicle_type_id":"4","last_reported":1751814583,"current_range_meters":22400,"station_id":"st_cvj6sg6p6f1abm77japg","pricing_plan_id":"cebpf4jnsgd1na2vs0mg"},{"bike_id":"7d43a9ca-ef5c-4c5a-9fb7-68a13ba78113","system_id":"levelo_inurba_marseille","lat":43.288627,"lon":5.359127,"is_reserved":false,"is_disabled":false,"rental_uris":{"android":"levelo://app?vid=7d43a9ca-ef5c-4c5a-9fb7-68a13ba78113","ios":"levelo://app?vid=7d43a9ca-ef5c-4c5a-9fb7-68a13ba78113"},"vehicle_type_id":"4","last_reported":1751814583,"current_range_meters":22800,"station_id":"","pricing_plan_id":"cebpf4jnsgd1na2vs0mg"},{"bike_id":"5a66d250-2a08-40f3-826e-ff3217e04cec","system_id":"levelo_inurba_marseille","lat":43.26831,"lon":5.41115,"is_reserved":false,"is_disabled":false,"rental_uris":{"android":"levelo://app?vid=5a66d250-2a08-40f3-826e-ff3217e04cec","ios":"levelo://app?vid=5a66d250-2a08-40f3-826e-ff3217e04cec"},"vehicle_type_id":"4","last_reported":1751814583,"current_range_meters":22800,"station_id":"","pricing_plan_id":"cebpf4jnsgd1na2vs0mg"},{"bike_id":"fa795352-c052-46d7-b8a1-7eb43b872aad","system_id":"levelo_inurba_marseille","lat":43.26199,"lon":5.37451,"is_reserved":false,"is_disabled":false,"rental_uris":{"android":"levelo://app?vid=fa795352-c052-46d7-b8a1-7eb43b872aad","ios":"levelo://app?vid=fa795352-c052-46d7-b8a1-7eb43b872aad"},"vehicle_type_id":"4","last_reported":1751814583,"current_range_meters":22800,"station_id":"ce4bhgp2rcd13ifvqfc0","pricing_plan_id":"cebpf4jnsgd1na2vs0mg"},{"bike_id":"8f03969b-3e6d-45a2-920d-cd715a38fc69","system_id":"levelo_inurba_marseille","lat":43.211921,"lon":5.350863,"is_reserved":false,"is_disabled":false,"rental_uris":{"android":"levelo://app?vid=8f03969b-3e6d-45a2-920d-cd715a38fc69","ios":"levelo://app?vid=8f03969b-3e6d-45a2-920d-cd715a38fc69"},"vehicle_type_id":"4","last_reported":1751814583,"current_range_meters":22800,"station_id":"st_cvj6sg6p6f1abm77japg","pricing_plan_id":"cebpf4jnsgd1na2vs0mg"},{"bike_id":"9bfc7d3d-4e60-4f8a-9c32-ef3d0e77ec5b","system_id":"levelo_inurba_marseille","lat":43.21212,"lon":5.35101,"is_reserved":false,"is_disabled":false,"rental_uris":{"android":"levelo://app?vid=9bfc7d3d-4e60-4f8a-9c32-ef3d0e77ec5b","ios":"levelo://app?vid=9bfc7d3d-4e60-4f8a-9c32-ef3d0e77ec5b"},"vehicle_type_id":"4","last_reported":1751814583,"current_range_meters":22800,"station_id":"st_cvj6sg6p6f1abm77japg","pricing_plan_id":"cebpf4jnsgd1na2vs0mg"},{"bike_id":"0984473e-59cf-4f12-a598-7b378699d33a","system_id":"levelo_inurba_marseille","lat":43.28612,"lon":5.35111,"is_reserved":false,"is_disabled":false,"rental_uris":{"android":"levelo://app?vid=0984473e-59cf-4f12-a598-7b378699d33a","ios":"levelo://app?vid=0984473e-59cf-4f12-a598-7b378699d33a"},"vehicle_type_id":"4","last_reported":1751814583,"current_range_meters":23200,"station_id":"ce4bhch2rcd13ifvqeug","pricing_plan_id":"cebpf4jnsgd1na2vs0mg"},{"bike_id":"0509d1c8-16bc-44f6-9b17-208f37f23fcf","system_id":"levelo_inurba_marseille","lat":43.24805,"lon":5.37456,"is_reserved":false,"is_disabled":false,"rental_uris":{"android":"levelo://app?vid=0509d1c8-16bc-44f6-9b17-208f37f23fcf","ios":"levelo://app?vid=0509d1c8-16bc-44f6-9b17-208f37f23fcf"},"vehicle_type_id":"4","last_reported":1751814583,"current_range_meters":23200,"station_id":"ce4bhgh2rcd13ifvqfb0","pricing_plan_id":"cebpf4jnsgd1na2vs0mg"},{"bike_id":"3b70cdc9-6a7d-43fb-bee7-88fe7cf74fae","system_id":"levelo_inurba_marseille","lat":43.27943,"lon":5.4105,"is_reserved":false,"is_disabled":false,"rental_uris":{"android":"levelo://app?vid=3b70cdc9-6a7d-43fb-bee7-88fe7cf74fae","ios":"levelo://app?vid=3b70cdc9-6a7d-43fb-bee7-88fe7cf74fae"},"vehicle_type_id":"4","last_reported":1751814583,"current_range_meters":23200,"station_id":"ce4bhnp2rcd13ifvqh0g","pricing_plan_id":"cebpf4jnsgd1na2vs0mg"},{"bike_id":"7c950583-8bac-4742-862c-e657874b2760","system_id":"levelo_inurba_marseille","lat":43.32345,"lon":5.40625,"is_reserved":false,"is_disabled":false,"rental_uris":{"android":"levelo://app?vid=7c950583-8bac-4742-862c-e657874b2760","ios":"levelo://app?vid=7c950583-8bac-4742-862c-e657874b2760"},"vehicle_type_id":"4","last_reported":1751814583,"current_range_meters":23200,"station_id":"ce4bhq92rcd13ifvqhjg","pricing_plan_id":"cebpf4jnsgd1na2vs0mg"},{"bike_id":"87c2d236-4978-4760-be77-27d7f5a212e4","system_id":"levelo_inurba_marseille","lat":43.29644,"lon":5.36205,"is_reserved":false,"is_disabled":false,"rental_uris":{"android":"levelo://app?vid=87c2d236-4978-4760-be77-27d7f5a212e4","ios":"levelo://app?vid=87c2d236-4978-4760-be77-27d7f5a212e4"},"vehicle_type_id":"4","last_reported":1751814583,"current_range_meters":24000,"station_id":"","pricing_plan_id":"cebpf4jnsgd1na2vs0mg"},{"bike_id":"28312ae1-ced9-4b11-888a-0a8bee609339","system_id":"levelo_inurba_marseille","lat":43.26217,"lon":5.37443,"is_reserved":false,"is_disabled":false,"rental_uris":{"android":"levelo://app?vid=28312ae1-ced9-4b11-888a-0a8bee609339","ios":"levelo://app?vid=28312ae1-ced9-4b11-888a-0a8bee609339"},"vehicle_type_id":"4","last_reported":1751814583,"current_range_meters":24000,"station_id":"ce4bhgp2rcd13ifvqfc0","pricing_plan_id":"cebpf4jnsgd1na2vs0mg"},{"bike_id":"a80ce6e7-b496-431b-bbc3-e3a41c66bc81","system_id":"levelo_inurba_marseille","lat":43.26224,"lon":5.40443,"is_reserved":false,"is_disabled":false,"rental_uris":{"android":"levelo://app?vid=a80ce6e7-b496-431b-bbc3-e3a41c66bc81","ios":"levelo://app?vid=a80ce6e7-b496-431b-bbc3-e3a41c66bc81"},"vehicle_type_id":"4","last_reported":1751814583,"current_range_meters":24000,"station_id":"ce4bhmh2rcd13ifvqgmg","pricing_plan_id":"cebpf4jnsgd1na2vs0mg"},{"bike_id":"da5466a5-d01e-45ee-9f4a-b8b1a2d2041c","system_id":"levelo_inurba_marseille","lat":43.298965,"lon":5.436586,"is_reserved":false,"is_disabled":false,"rental_uris":{"android":"levelo://app?vid=da5466a5-d01e-45ee-9f4a-b8b1a2d2041c","ios":"levelo://app?vid=da5466a5-d01e-45ee-9f4a-b8b1a2d2041c"},"vehicle_type_id":"4","last_reported":1751814583,"current_range_meters":24000,"station_id":"ce4bhpp2rcd13ifvqhfg","pricing_plan_id":"cebpf4jnsgd1na2vs0mg"},{"bike_id":"ab05386f-27dc-4a7c-814e-d9dd9d00b153","system_id":"levelo_inurba_marseille","lat":43.23195,"lon":5.35545,"is_reserved":false,"is_disabled":false,"rental_uris":{"android":"levelo://app?vid=ab05386f-27dc-4a7c-814e-d9dd9d00b153","ios":"levelo://app?vid=ab05386f-27dc-4a7c-814e-d9dd9d00b153"},"vehicle_type_id":"4","last_reported":1751814583,"current_range_meters":24000,"station_id":"ce4bhu92rcd13ifvqi70","pricing_plan_id":"cebpf4jnsgd1na2vs0mg"},{"bike_id":"51890362-46b0-4ee7-9f02-afbf036d064e","system_id":"levelo_inurba_marseille","lat":43.21195,"lon":5.35098,"is_reserved":false,"is_disabled":false,"rental_uris":{"android":"levelo://app?vid=51890362-46b0-4ee7-9f02-afbf036d064e","ios":"levelo://app?vid=51890362-46b0-4ee7-9f02-afbf036d064e"},"vehicle_type_id":"4","last_reported":1751814583,"current_range_meters":24000,"station_id":"st_cvj6sg6p6f1abm77japg","pricing_plan_id":"cebpf4jnsgd1na2vs0mg"},{"bike_id":"084f14d4-0bc9-446c-902e-a4f3b90135fe","system_id":"levelo_inurba_marseille","lat":43.324397,"lon":5.42866,"is_reserved":false,"is_disabled":false,"rental_uris":{"android":"levelo://app?vid=084f14d4-0bc9-446c-902e-a4f3b90135fe","ios":"levelo://app?vid=084f14d4-0bc9-446c-902e-a4f3b90135fe"},"vehicle_type_id":"4","last_reported":1751814583,"current_range_meters":24400,"station_id":"","pricing_plan_id":"cebpf4jnsgd1na2vs0mg"},{"bike_id":"682f7488-59e0-4795-93a7-410a15ab3fe4","system_id":"levelo_inurba_marseille","lat":43.27911,"lon":5.39583,"is_reserved":false,"is_disabled":false,"rental_uris":{"android":"levelo://app?vid=682f7488-59e0-4795-93a7-410a15ab3fe4","ios":"levelo://app?vid=682f7488-59e0-4795-93a7-410a15ab3fe4"},"vehicle_type_id":"4","last_reported":1751814583,"current_range_meters":24400,"station_id":"ce4bhf92rcd13ifvqf40","pricing_plan_id":"cebpf4jnsgd1na2vs0mg"},{"bike_id":"4512955b-0157-4b0b-bf41-e2b9c7327ebe","system_id":"levelo_inurba_marseille","lat":43.262134,"lon":5.374402,"is_reserved":false,"is_disabled":false,"rental_uris":{"android":"levelo://app?vid=4512955b-0157-4b0b-bf41-e2b9c7327ebe","ios":"levelo://app?vid=4512955b-0157-4b0b-bf41-e2b9c7327ebe"},"vehicle_type_id":"4","last_reported":1751814583,"current_range_meters":24400,"station_id":"ce4bhgp2rcd13ifvqfc0","pricing_plan_id":"cebpf4jnsgd1na2vs0mg"},{"bike_id":"77618724-5e01-4eec-ae66-bf33a0aefe0a","system_id":"levelo_inurba_marseille","lat":43.25579,"lon":5.3824,"is_reserved":false,"is_disabled":false,"rental_uris":{"android":"levelo://app?vid=77618724-5e01-4eec-ae66-bf33a0aefe0a","ios":"levelo://app?vid=77618724-5e01-4eec-ae66-bf33a0aefe0a"},"vehicle_type_id":"4","last_reported":1751814583,"current_range_meters":24400,"station_id":"ce4bhih2rcd13ifvqfs0","pricing_plan_id":"cebpf4jnsgd1na2vs0mg"},{"bike_id":"204d2520-38f5-4bd2-9872-ba64a310c898","system_id":"levelo_inurba_marseille","lat":43.23208,"lon":5.39981,"is_reserved":false,"is_disabled":false,"rental_uris":{"android":"levelo://app?vid=204d2520-38f5-4bd2-9872-ba64a310c898","ios":"levelo://app?vid=204d2520-38f5-4bd2-9872-ba64a310c898"},"vehicle_type_id":"4","last_reported":1751814583,"current_range_meters":24400,"station_id":"ce4bhn12rcd13ifvqgqg","pricing_plan_id":"cebpf4jnsgd1na2vs0mg"},{"bike_id":"8054f38b-e5f9-4c48-bd64-dfa11b7866e7","system_id":"levelo_inurba_marseille","lat":43.298968,"lon":5.436783,"is_reserved":false,"is_disabled":false,"rental_uris":{"android":"levelo://app?vid=8054f38b-e5f9-4c48-bd64-dfa11b7866e7","ios":"levelo://app?vid=8054f38b-e5f9-4c48-bd64-dfa11b7866e7"},"vehicle_type_id":"4","last_reported":1751814583,"current_range_meters":24400,"station_id":"ce4bhpp2rcd13ifvqhfg","pricing_plan_id":"cebpf4jnsgd1na2vs0mg"},{"bike_id":"5547829e-de9f-42a2-a566-6f7c4a28ba54","system_id":"levelo_inurba_marseille","lat":43.3152,"lon":5.38046,"is_reserved":false,"is_disabled":false,"rental_uris":{"android":"levelo://app?vid=5547829e-de9f-42a2-a566-6f7c4a28ba54","ios":"levelo://app?vid=5547829e-de9f-42a2-a566-6f7c4a28ba54"},"vehicle_type_id":"4","last_reported":1751814583,"current_range_meters":24400,"station_id":"ce4bhsp2rcd13ifvqi50","pricing_plan_id":"cebpf4jnsgd1na2vs0mg"},{"bike_id":"070c3554-da17-403b-af34-9cd6a0405400","system_id":"levelo_inurba_marseille","lat":43.29717,"lon":5.366,"is_reserved":false,"is_disabled":false,"rental_uris":{"android":"levelo://app?vid=070c3554-da17-403b-af34-9cd6a0405400","ios":"levelo://app?vid=070c3554-da17-403b-af34-9cd6a0405400"},"vehicle_type_id":"4","last_reported":1751814583,"current_range_meters":24800,"station_id":"ce4bgn12rcd13ifvqbt0","pricing_plan_id":"cebpf4jnsgd1na2vs0mg"},{"bike_id":"39d5050d-a077-4cc4-9218-e121c4799e4f","system_id":"levelo_inurba_marseille","lat":43.28613,"lon":5.35107,"is_reserved":false,"is_disabled":false,"rental_uris":{"android":"levelo://app?vid=39d5050d-a077-4cc4-9218-e121c4799e4f","ios":"levelo://app?vid=39d5050d-a077-4cc4-9218-e121c4799e4f"},"vehicle_type_id":"4","last_reported":1751814583,"current_range_meters":24800,"station_id":"ce4bhch2rcd13ifvqeug","pricing_plan_id":"cebpf4jnsgd1na2vs0mg"},{"bike_id":"e59e19b7-a7e9-420d-80ef-2f5d3c7b61ef","system_id":"levelo_inurba_marseille","lat":43.271,"lon":5.4224,"is_reserved":false,"is_disabled":false,"rental_uris":{"android":"levelo://app?vid=e59e19b7-a7e9-420d-80ef-2f5d3c7b61ef","ios":"levelo://app?vid=e59e19b7-a7e9-420d-80ef-2f5d3c7b61ef"},"vehicle_type_id":"4","last_reported":1751814583,"current_range_meters":24800,"station_id":"ce4bhk92rcd13ifvqgb0","pricing_plan_id":"cebpf4jnsgd1na2vs0mg"},{"bike_id":"5b33c4a4-5802-46d3-9e87-1c2e42887469","system_id":"levelo_inurba_marseille","lat":43.281594,"lon":5.426423,"is_reserved":false,"is_disabled":false,"rental_uris":{"android":"levelo://app?vid=5b33c4a4-5802-46d3-9e87-1c2e42887469","ios":"levelo://app?vid=5b33c4a4-5802-46d3-9e87-1c2e42887469"},"vehicle_type_id":"4","last_reported":1751814583,"current_range_meters":24800,"station_id":"ce4bhnh2rcd13ifvqgug","pricing_plan_id":"cebpf4jnsgd1na2vs0mg"},{"bike_id":"a71a93bc-729a-4530-b693-dd9f563213bf","system_id":"levelo_inurba_marseille","lat":43.31885,"lon":5.40741,"is_reserved":false,"is_disabled":false,"rental_uris":{"android":"levelo://app?vid=a71a93bc-729a-4530-b693-dd9f563213bf","ios":"levelo://app?vid=a71a93bc-729a-4530-b693-dd9f563213bf"},"vehicle_type_id":"4","last_reported":1751814583,"current_range_meters":24800,"station_id":"ce4bhq12rcd13ifvqhig","pricing_plan_id":"cebpf4jnsgd1na2vs0mg"},{"bike_id":"bfcb9c54-30f9-40ab-b035-97972ac838c9","system_id":"levelo_inurba_marseille","lat":43.21744,"lon":5.34604,"is_reserved":false,"is_disabled":false,"rental_uris":{"android":"levelo://app?vid=bfcb9c54-30f9-40ab-b035-97972ac838c9","ios":"levelo://app?vid=bfcb9c54-30f9-40ab-b035-97972ac838c9"},"vehicle_type_id":"4","last_reported":1751814583,"current_range_meters":25200,"station_id":"st_cvj6r9ubvosntc0bgbag","pricing_plan_id":"cebpf4jnsgd1na2vs0mg"},{"bike_id":"35d41f41-e942-42c5-97f1-40ccdd96f7a4","system_id":"levelo_inurba_marseille","lat":43.2121,"lon":5.35064,"is_reserved":false,"is_disabled":false,"rental_uris":{"android":"levelo://app?vid=35d41f41-e942-42c5-97f1-40ccdd96f7a4","ios":"levelo://app?vid=35d41f41-e942-42c5-97f1-40ccdd96f7a4"},"vehicle_type_id":"4","last_reported":1751814583,"current_range_meters":25200,"station_id":"st_cvj6sg6p6f1abm77japg","pricing_plan_id":"cebpf4jnsgd1na2vs0mg"},{"bike_id":"e5394c82-ec8c-4a61-92c8-bc686e9b2daf","system_id":"levelo_inurba_marseille","lat":43.293848,"lon":5.410412,"is_reserved":false,"is_disabled":false,"rental_uris":{"android":"levelo://app?vid=e5394c82-ec8c-4a61-92c8-bc686e9b2daf","ios":"levelo://app?vid=e5394c82-ec8c-4a61-92c8-bc686e9b2daf"},"vehicle_type_id":"4","last_reported":1751814583,"current_range_meters":25600,"station_id":"","pricing_plan_id":"cebpf4jnsgd1na2vs0mg"},{"bike_id":"f5c16f07-bc6f-4121-91a7-5ad90eec4f34","system_id":"levelo_inurba_marseille","lat":43.3121,"lon":5.37307,"is_reserved":false,"is_disabled":false,"rental_uris":{"android":"levelo://app?vid=f5c16f07-bc6f-4121-91a7-5ad90eec4f34","ios":"levelo://app?vid=f5c16f07-bc6f-4121-91a7-5ad90eec4f34"},"vehicle_type_id":"4","last_reported":1751814583,"current_range_meters":26000,"station_id":"","pricing_plan_id":"cebpf4jnsgd1na2vs0mg"},{"bike_id":"f8c5dac2-4f41-4570-8fc2-27480b02a395","system_id":"levelo_inurba_marseille","lat":43.28621,"lon":5.35107,"is_reserved":false,"is_disabled":false,"rental_uris":{"android":"levelo://app?vid=f8c5dac2-4f41-4570-8fc2-27480b02a395","ios":"levelo://app?vid=f8c5dac2-4f41-4570-8fc2-27480b02a395"},"vehicle_type_id":"4","last_reported":1751814583,"current_range_meters":26000,"station_id":"ce4bhch2rcd13ifvqeug","pricing_plan_id":"cebpf4jnsgd1na2vs0mg"},{"bike_id":"c9246992-5ec4-4bf9-be17-e99dbf8dbff1","system_id":"levelo_inurba_marseille","lat":43.3304,"lon":5.39039,"is_reserved":false,"is_disabled":false,"rental_uris":{"android":"levelo://app?vid=c9246992-5ec4-4bf9-be17-e99dbf8dbff1","ios":"levelo://app?vid=c9246992-5ec4-4bf9-be17-e99dbf8dbff1"},"vehicle_type_id":"4","last_reported":1751814583,"current_range_meters":26000,"station_id":"ce4bhr92rcd13ifvqhrg","pricing_plan_id":"cebpf4jnsgd1na2vs0mg"},{"bike_id":"b287377f-3d0b-47ac-86fe-9e0dfc1563de","system_id":"levelo_inurba_marseille","lat":43.22516,"lon":5.34773,"is_reserved":false,"is_disabled":false,"rental_uris":{"android":"levelo://app?vid=b287377f-3d0b-47ac-86fe-9e0dfc1563de","ios":"levelo://app?vid=b287377f-3d0b-47ac-86fe-9e0dfc1563de"},"vehicle_type_id":"4","last_reported":1751814583,"current_range_meters":26000,"station_id":"st_cvj5dfep6f1abm77gieg","pricing_plan_id":"cebpf4jnsgd1na2vs0mg"},{"bike_id":"24a592c9-3ac9-42f9-af23-1bd200a0faa6","system_id":"levelo_inurba_marseille","lat":43.21756,"lon":5.34619,"is_reserved":false,"is_disabled":false,"rental_uris":{"android":"levelo://app?vid=24a592c9-3ac9-42f9-af23-1bd200a0faa6","ios":"levelo://app?vid=24a592c9-3ac9-42f9-af23-1bd200a0faa6"},"vehicle_type_id":"4","last_reported":1751814583,"current_range_meters":26000,"station_id":"st_cvj6r9ubvosntc0bgbag","pricing_plan_id":"cebpf4jnsgd1na2vs0mg"},{"bike_id":"71492c1b-834c-407f-ac7c-8499a8d7f1b3","system_id":"levelo_inurba_marseille","lat":43.31835,"lon":5.39034,"is_reserved":false,"is_disabled":false,"rental_uris":{"android":"levelo://app?vid=71492c1b-834c-407f-ac7c-8499a8d7f1b3","ios":"levelo://app?vid=71492c1b-834c-407f-ac7c-8499a8d7f1b3"},"vehicle_type_id":"4","last_reported":1751814583,"current_range_meters":26800,"station_id":"","pricing_plan_id":"cebpf4jnsgd1na2vs0mg"},{"bike_id":"e4793d5e-b4cd-4c12-b9d4-446cb97752b9","system_id":"levelo_inurba_marseille","lat":43.292745,"lon":5.39054,"is_reserved":false,"is_disabled":false,"rental_uris":{"android":"levelo://app?vid=e4793d5e-b4cd-4c12-b9d4-446cb97752b9","ios":"levelo://app?vid=e4793d5e-b4cd-4c12-b9d4-446cb97752b9"},"vehicle_type_id":"4","last_reported":1751814583,"current_range_meters":26800,"station_id":"","pricing_plan_id":"cebpf4jnsgd1na2vs0mg"},{"bike_id":"8b37d39a-4114-4739-a2b7-5d5733ccb2c4","system_id":"levelo_inurba_marseille","lat":43.28698,"lon":5.37389,"is_reserved":false,"is_disabled":false,"rental_uris":{"android":"levelo://app?vid=8b37d39a-4114-4739-a2b7-5d5733ccb2c4","ios":"levelo://app?vid=8b37d39a-4114-4739-a2b7-5d5733ccb2c4"},"vehicle_type_id":"4","last_reported":1751814583,"current_range_meters":26800,"station_id":"ce4bh3p2rcd13ifvqdq0","pricing_plan_id":"cebpf4jnsgd1na2vs0mg"},{"bike_id":"e6329591-0376-489f-9047-757692b71897","system_id":"levelo_inurba_marseille","lat":43.27813,"lon":5.40713,"is_reserved":false,"is_disabled":false,"rental_uris":{"android":"levelo://app?vid=e6329591-0376-489f-9047-757692b71897","ios":"levelo://app?vid=e6329591-0376-489f-9047-757692b71897"},"vehicle_type_id":"4","last_reported":1751814583,"current_range_meters":26800,"station_id":"ce4bhnh2rcd13ifvqgtg","pricing_plan_id":"cebpf4jnsgd1na2vs0mg"},{"bike_id":"f7e9b051-509f-4c07-92af-cfea5e6c161b","system_id":"levelo_inurba_marseille","lat":43.27948,"lon":5.41056,"is_reserved":false,"is_disabled":false,"rental_uris":{"android":"levelo://app?vid=f7e9b051-509f-4c07-92af-cfea5e6c161b","ios":"levelo://app?vid=f7e9b051-509f-4c07-92af-cfea5e6c161b"},"vehicle_type_id":"4","last_reported":1751814583,"current_range_meters":26800,"station_id":"ce4bhnp2rcd13ifvqh0g","pricing_plan_id":"cebpf4jnsgd1na2vs0mg"},{"bike_id":"5afe1b92-4c0a-4abf-9095-e6e6c25651b7","system_id":"levelo_inurba_marseille","lat":43.30359,"lon":5.41883,"is_reserved":false,"is_disabled":false,"rental_uris":{"android":"levelo://app?vid=5afe1b92-4c0a-4abf-9095-e6e6c25651b7","ios":"levelo://app?vid=5afe1b92-4c0a-4abf-9095-e6e6c25651b7"},"vehicle_type_id":"4","last_reported":1751814583,"current_range_meters":26800,"station_id":"ce4bhop2rcd13ifvqh7g","pricing_plan_id":"cebpf4jnsgd1na2vs0mg"},{"bike_id":"c59f543b-ae76-4c38-a473-5ccdda16b503","system_id":"levelo_inurba_marseille","lat":43.23167,"lon":5.356,"is_reserved":false,"is_disabled":false,"rental_uris":{"android":"levelo://app?vid=c59f543b-ae76-4c38-a473-5ccdda16b503","ios":"levelo://app?vid=c59f543b-ae76-4c38-a473-5ccdda16b503"},"vehicle_type_id":"4","last_reported":1751814583,"current_range_meters":26800,"station_id":"ce4bhu92rcd13ifvqi70","pricing_plan_id":"cebpf4jnsgd1na2vs0mg"},{"bike_id":"579ed5f7-7045-4db5-8984-9360be78cf7f","system_id":"levelo_inurba_marseille","lat":43.21754,"lon":5.34606,"is_reserved":false,"is_disabled":false,"rental_uris":{"android":"levelo://app?vid=579ed5f7-7045-4db5-8984-9360be78cf7f","ios":"levelo://app?vid=579ed5f7-7045-4db5-8984-9360be78cf7f"},"vehicle_type_id":"4","last_reported":1751814583,"current_range_meters":26800,"station_id":"st_cvj6r9ubvosntc0bgbag","pricing_plan_id":"cebpf4jnsgd1na2vs0mg"},{"bike_id":"58415449-af35-426b-adb6-fb769193a5cc","system_id":"levelo_inurba_marseille","lat":43.30393,"lon":5.42465,"is_reserved":false,"is_disabled":false,"rental_uris":{"android":"levelo://app?vid=58415449-af35-426b-adb6-fb769193a5cc","ios":"levelo://app?vid=58415449-af35-426b-adb6-fb769193a5cc"},