{"last_updated":1761851276,"ttl":60,"version":"2.2","data":{"bikes":[{"bike_id":"aacc01e3-6d9f-491a-b1ed-d10f639e29e2","system_id":"levelo_inurba_marseille","lat":43.337444,"lon":5.374475,"is_reserved":false,"is_disabled":false,"rental_uris":{"android":"levelo://app?vid=aacc01e3-6d9f-491a-b1ed-d10f639e29e2","ios":"levelo://app?vid=aacc01e3-6d9f-491a-b1ed-d10f639e29e2"},"vehicle_type_id":"4","last_reported":1761851276,"current_range_meters":0,"station_id":"","pricing_plan_id":"cebpf4jnsgd1na2vs0mg"},{"bike_id":"35ef2eb9-fe09-4124-a7ab-f792dcbd6ddc","system_id":"levelo_inurba_marseille","lat":43.337444,"lon":5.374475,"is_reserved":false,"is_disabled":false,"rental_uris":{"android":"levelo://app?vid=35ef2eb9-fe09-4124-a7ab-f792dcbd6ddc","ios":"levelo://app?vid=35ef2eb9-fe09-4124-a7ab-f792dcbd6ddc"},"vehicle_type_id":"4","last_reported":1761851276,"current_range_meters":0,"station_id":"","pricing_plan_id":"cebpf4jnsgd1na2vs0mg"},{"bike_id":"49ddb7e7-127c-434c-8992-2e05f2e3428d","system_id":"levelo_inurba_marseille","lat":43.337444,"lon":5.374475,"is_reserved":false,"is_disabled":false,"rental_uris":{"android":"levelo://app?vid=49ddb7e7-127c-434c-8992-2e05f2e3428d","ios":"levelo://app?vid=49ddb7e7-127c-434c-8992-2e05f2e3428d"},"vehicle_type_id":"4","last_reported":1761851276,"current_range_meters":0,"station_id":"","pricing_plan_id":"cebpf4jnsgd1na2vs0mg"},{"bike_id":"b3b460c5-2faa-45c2-8fde-7b54e8b4eaf5","system_id":"levelo_inurba_marseille","lat":43.337444,"lon":5.374475,"is_reserved":false,"is_disabled":false,"rental_uris":{"android":"levelo://app?vid=b3b460c5-2faa-45c2-8fde-7b54e8b4eaf5","ios":"levelo://app?vid=b3b460c5-2faa-45c2-8fde-7b54e8b4eaf5"},"vehicle_type_id":"4","last_reported":1761851276,"current_range_meters":0,"station_id":"","pricing_plan_id":"cebpf4jnsgd1na2vs0mg"},{"bike_id":"6b8eeff3-ec31-445f-be43-f1e3ba63fb37","system_id":"levelo_inurba_marseille","lat":43.337416,"lon":5.374586,"is_reserved":false,"is_disabled":false,"rental_uris":{"android":"levelo://app?vid=6b8eeff3-ec31-445f-be43-f1e3ba63fb37","ios":"levelo://app?vid=6b8eeff3-ec31-445f-be43-f1e3ba63fb37"},"vehicle_type_id":"4","last_reported":1761851276,"current_range_meters":0,"station_id":"","pricing_plan_id":"cebpf4jnsgd1na2vs0mg"},{"bike_id":"e0e86d10-d79a-47b9-82ad-a00ae7a62a8a","system_id":"levelo_inurba_marseille","lat":43.337444,"lon":5.374475,"is_reserved":false,"is_disabled":false,"rental_uris":{"android":"levelo://app?vid=e0e86d10-d79a-47b9-82ad-a00ae7a62a8a","ios":"levelo://app?vid=e0e86d10-d79a-47b9-82ad-a00ae7a62a8a"},"vehicle_type_id":"4","last_reported":1761851276,"current_range_meters":0,"station_id":"","pricing_plan_id":"cebpf4jnsgd1na2vs0mg"},{"bike_id":"548f1c45-4f2a-4cfe-b981-5bc1daecb21b","system_id":"levelo_inurba_marseille","lat":43.337444,"lon":5.374475,"is_reserved":false,"is_disabled":false,"rental_uris":{"android":"levelo://app?vid=548f1c45-4f2a-4cfe-b981-5bc1daecb21b","ios":"levelo://app?vid=548f1c45-4f2a-4cfe-b981-5bc1daecb21b"},"vehicle_type_id":"4","last_reported":1761851276,"current_range_meters":0,"station_id":"","pricing_plan_id":"cebpf4jnsgd1na2vs0mg"},{"bike_id":"5260dce0-6ede-4de4-b006-1466527b5fbe","system_id":"levelo_inurba_marseille","lat":43.337444,"lon":5.374475,"is_reserved":false,"is_disabled":false,"rental_uris":{"android":"levelo://app?vid=5260dce0-6ede-4de4-b006-1466527b5fbe","ios":"levelo://app?vid=5260dce0-6ede-4de4-b006-1466527b5fbe"},"vehicle_type_id":"4","last_reported":1761851276,"current_range_meters":0,"station_id":"","pricing_plan_id":"cebpf4jnsgd1na2vs0mg"},{"bike_id":"fb1816a3-8e74-463a-88d2-d6b63cf0a426","system_id":"levelo_inurba_marseille","lat":43.337444,"lon":5.374475,"is_reserved":false,"is_disabled":false,"rental_uris":{"android":"levelo://app?vid=fb1816a3-8e74-463a-88d2-d6b63cf0a426","ios":"levelo://app?vid=fb1816a3-8e74-463a-88d2-d6b63cf0a426"},"vehicle_type_id":"4","last_reported":1761851276,"current_range_meters":0,"station_id":"","pricing_plan_id":"cebpf4jnsgd1na2vs0mg"},{"bike_id":"3c881d8d-608f-4c39-9df3-b2aa54f8afcf","system_id":"levelo_inurba_marseille","lat":43.337444,"lon":5.374475,"is_reserved":false,"is_disabled":false,"rental_uris":{"android":"levelo://app?vid=3c881d8d-608f-4c39-9df3-b2aa54f8afcf","ios":"levelo://app?vid=3c881d8d-608f-4c39-9df3-b2aa54f8afcf"},"vehicle_type_id":"4","last_reported":1761851276,"current_range_meters":0,"station_id":"","pricing_plan_id":"cebpf4jnsgd1na2vs0mg"},{"bike_id":"a26e4937-215f-44d2-a8de-a7d3ec75d32b","system_id":"levelo_inurba_marseille","lat":43.337444,"lon":5.374475,"is_reserved":false,"is_disabled":false,"rental_uris":{"android":"levelo://app?vid=a26e4937-215f-44d2-a8de-a7d3ec75d32b","ios":"levelo://app?vid=a26e4937-215f-44d2-a8de-a7d3ec75d32b"},"vehicle_type_id":"4","last_reported":1761851276,"current_range_meters":0,"station_id":"","pricing_plan_id":"cebpf4jnsgd1na2vs0mg"},{"bike_id":"fadc4e19-b9ad-4402-a5bc-a0eff5c2b634","system_id":"levelo_inurba_marseille","lat":43.337444,"lon":5.374475,"is_reserved":false,"is_disabled":false,"rental_uris":{"android":"levelo://app?vid=fadc4e19-b9ad-4402-a5bc-a0eff5c2b634","ios":"levelo://app?vid=fadc4e19-b9ad-4402-a5bc-a0eff5c2b634"},"vehicle_type_id":"4","last_reported":1761851276,"current_range_meters":0,"station_id":"","pricing_plan_id":"cebpf4jnsgd1na2vs0mg"},{"bike_id":"e294c151-4441-4e4a-a116-13c66dfb9429","system_id":"levelo_inurba_marseille","lat":43.337444,"lon":5.374475,"is_reserved":false,"is_disabled":false,"rental_uris":{"android":"levelo://app?vid=e294c151-4441-4e4a-a116-13c66dfb9429","ios":"levelo://app?vid=e294c151-4441-4e4a-a116-13c66dfb9429"},"vehicle_type_id":"4","last_reported":1761851276,"current_range_meters":0,"station_id":"","pricing_plan_id":"cebpf4jnsgd1na2vs0mg"},{"bike_id":"0baff1cc-f548-40f7-a934-77958566d6a5","system_id":"levelo_inurba_marseille","lat":43.337444,"lon":5.374475,"is_reserved":false,"is_disabled":false,"rental_uris":{"android":"levelo://app?vid=0baff1cc-f548-40f7-a934-77958566d6a5","ios":"levelo://app?vid=0baff1cc-f548-40f7-a934-77958566d6a5"},"vehicle_type_id":"4","last_reported":1761851276,"current_range_meters":0,"station_id":"","pricing_plan_id":"cebpf4jnsgd1na2vs0mg"},{"bike_id":"1310c5d0-e39d-4b9c-84d7-1872f297ff18","system_id":"levelo_inurba_marseille","lat":43.337444,"lon":5.374475,"is_reserved":false,"is_disabled":false,"rental_uris":{"android":"levelo://app?vid=1310c5d0-e39d-4b9c-84d7-1872f297ff18","ios":"levelo://app?vid=1310c5d0-e39d-4b9c-84d7-1872f297ff18"},"vehicle_type_id":"4","last_reported":1761851276,"current_range_meters":0,"station_id":"","pricing_plan_id":"cebpf4jnsgd1na2vs0mg"},{"bike_id":"01eaacf7-8682-4054-bf38-52456d06e6f6","system_id":"levelo_inurba_marseille","lat":43.337444,"lon":5.374475,"is_reserved":false,"is_disabled":false,"rental_uris":{"android":"levelo://app?vid=01eaacf7-8682-4054-bf38-52456d06e6f6","ios":"levelo://app?vid=01eaacf7-8682-4054-bf38-52456d06e6f6"},"vehicle_type_id":"4","last_reported":1761851276,"current_range_meters":0,"station_id":"","pricing_plan_id":"cebpf4jnsgd1na2vs0mg"},{"bike_id":"4dbab57a-b708-409a-b815-3b9a5d92f753","system_id":"levelo_inurba_marseille","lat":43.337444,"lon":5.374475,"is_reserved":false,"is_disabled":false,"rental_uris":{"android":"levelo://app?vid=4dbab57a-b708-409a-b815-3b9a5d92f753","ios":"levelo://app?vid=4dbab57a-b708-409a-b815-3b9a5d92f753"},"vehicle_type_id":"4","last_reported":1761851276,"current_range_meters":0,"station_id":"","pricing_plan_id":"cebpf4jnsgd1na2vs0mg"},{"bike_id":"00f1260a-63f9-4663-ac1e-51258f9213bd","system_id":"levelo_inurba_marseille","lat":43.337444,"lon":5.374475,"is_reserved":false,"is_disabled":false,"rental_uris":{"android":"levelo://app?vid=00f1260a-63f9-4663-ac1e-51258f9213bd","ios":"levelo://app?vid=00f1260a-63f9-4663-ac1e-51258f9213bd"},"vehicle_type_id":"4","last_reported":1761851276,"current_range_meters":0,"station_id":"","pricing_plan_id":"cebpf4jnsgd1na2vs0mg"},{"bike_id":"50aa746e-d71a-437c-bb7a-ed648a03f81b","system_id":"levelo_inurba_marseille","lat":43.337444,"lon":5.374475,"is_reserved":false,"is_disabled":false,"rental_uris":{"android":"levelo://app?vid=50aa746e-d71a-437c-bb7a-ed648a03f81b","ios":"levelo://app?vid=50aa746e-d71a-437c-bb7a-ed648a03f81b"},"vehicle_type_id":"4","last_reported":1761851276,"current_range_meters":0,"station_id":"","pricing_plan_id":"cebpf4jnsgd1na2vs0mg"},{"bike_id":"3e68cf6e-17b6-46f5-8b08-d049449e0ca4","system_id":"levelo_inurba_marseille","lat":43.337444,"lon":5.374475,"is_reserved":false,"is_disabled":false,"rental_uris":{"android":"levelo://app?vid=3e68cf6e-17b6-46f5-8b08-d049449e0ca4","ios":"levelo://app?vid=3e68cf6e-17b6-46f5-8b08-d049449e0ca4"},"vehicle_type_id":"4","last_reported":1761851276,"current_range_meters":0,"station_id":"","pricing_plan_id":"cebpf4jnsgd1na2vs0mg"},{"bike_id":"b06c4997-7e4f-467a-922f-92f2f2e27e9d","system_id":"levelo_inurba_marseille","lat":43.337444,"lon":5.374475,"is_reserved":false,"is_disabled":false,"rental_uris":{"android":"levelo://app?vid=b06c4997-7e4f-467a-922f-92f2f2e27e9d","ios":"levelo://app?vid=b06c4997-7e4f-467a-922f-92f2f2e27e9d"},"vehicle_type_id":"4","last_reported":1761851276,"current_range_meters":0,"station_id":"","pricing_plan_id":"cebpf4jnsgd1na2vs0mg"},{"bike_id":"bb49b980-4cfb-49a5-9add-f3f9d4fc6db5","system_id":"levelo_inurba_marseille","lat":43.337444,"lon":5.374475,"is_reserved":false,"is_disabled":false,"rental_uris":{"android":"levelo://app?vid=bb49b980-4cfb-49a5-9add-f3f9d4fc6db5","ios":"levelo://app?vid=bb49b980-4cfb-49a5-9add-f3f9d4fc6db5"},"vehicle_type_id":"4","last_reported":1761851276,"current_range_meters":0,"station_id":"","pricing_plan_id":"cebpf4jnsgd1na2vs0mg"},{"bike_id":"b97206fc-6c94-4378-926a-a788d4f71c09","system_id":"levelo_inurba_marseille","lat":43.337444,"lon":5.374475,"is_reserved":false,"is_disabled":false,"rental_uris":{"android":"levelo://app?vid=b97206fc-6c94-4378-926a-a788d4f71c09","ios":"levelo://app?vid=b97206fc-6c94-4378-926a-a788d4f71c09"},"vehicle_type_id":"4","last_reported":1761851276,"current_range_meters":0,"station_id":"","pricing_plan_id":"cebpf4jnsgd1na2vs0mg"},{"bike_id":"37d7ebf5-2b3d-4af3-a7cd-4f29f464d5a0","system_id":"levelo_inurba_marseille","lat":43.337444,"lon":5.374475,"is_reserved":false,"is_disabled":false,"rental_uris":{"android":"levelo://app?vid=37d7ebf5-2b3d-4af3-a7cd-4f29f464d5a0","ios":"levelo://app?vid=37d7ebf5-2b3d-4af3-a7cd-4f29f464d5a0"},"vehicle_type_id":"4","last_reported":1761851276,"current_range_meters":0,"station_id":"","pricing_plan_id":"cebpf4jnsgd1na2vs0mg"},{"bike_id":"4ce4318f-b763-4325-8589-2aecbcc80add","system_id":"levelo_inurba_marseille","lat":43.337444,"lon":5.374475,"is_reserved":false,"is_disabled":false,"rental_uris":{"android":"levelo://app?vid=4ce4318f-b763-4325-8589-2aecbcc80add","ios":"levelo://app?vid=4ce4318f-b763-4325-8589-2aecbcc80add"},"vehicle_type_id":"4","last_reported":1761851276,"current_range_meters":0,"station_id":"","pricing_plan_id":"cebpf4jnsgd1na2vs0mg"},{"bike_id":"a6a3a590-5c2a-4683-a516-e9f5572de0f8","system_id":"levelo_inurba_marseille","lat":43.337444,"lon":5.374475,"is_reserved":false,"is_disabled":false,"rental_uris":{"android":"levelo://app?vid=a6a3a590-5c2a-4683-a516-e9f5572de0f8","ios":"levelo://app?vid=a6a3a590-5c2a-4683-a516-e9f5572de0f8"},"vehicle_type_id":"4","last_reported":1761851276,"current_range_meters":0,"station_id":"","pricing_plan_id":"cebpf4jnsgd1na2vs0mg"},{"bike_id":"111bdd74-3ae9-48f5-979c-2e177e7747d9","system_id":"levelo_inurba_marseille","lat":43.337444,"lon":5.374475,"is_reserved":false,"is_disabled":false,"rental_uris":{"android":"levelo://app?vid=111bdd74-3ae9-48f5-979c-2e177e7747d9","ios":"levelo://app?vid=111bdd74-3ae9-48f5-979c-2e177e7747d9"},"vehicle_type_id":"4","last_reported":1761851276,"current_range_meters":0,"station_id":"","pricing_plan_id":"cebpf4jnsgd1na2vs0mg"},{"bike_id":"b9d871b8-65b0-40af-afa3-0bf2492a45a9","system_id":"levelo_inurba_marseille","lat":43.337444,"lon":5.374475,"is_reserved":false,"is_disabled":false,"rental_uris":{"android":"levelo://app?vid=b9d871b8-65b0-40af-afa3-0bf2492a45a9","ios":"levelo://app?vid=b9d871b8-65b0-40af-afa3-0bf2492a45a9"},"vehicle_type_id":"4","last_reported":1761851276,"current_range_meters":0,"station_id":"","pricing_plan_id":"cebpf4jnsgd1na2vs0mg"},{"bike_id":"5bec735e-fcf4-48c7-8bdc-29590fc410b1","system_id":"levelo_inurba_marseille","lat":43.337444,"lon":5.374475,"is_reserved":false,"is_disabled":false,"rental_uris":{"android":"levelo://app?vid=5bec735e-fcf4-48c7-8bdc-29590fc410b1","ios":"levelo://app?vid=5bec735e-fcf4-48c7-8bdc-29590fc410b1"},"vehicle_type_id":"4","last_reported":1761851276,"current_range_meters":0,"station_id":"","pricing_plan_id":"cebpf4jnsgd1na2vs0mg"},{"bike_id":"026e76ec-bb30-48a3-8407-a17635ff5e4d","system_id":"levelo_inurba_marseille","lat":43.337444,"lon":5.374475,"is_reserved":false,"is_disabled":false,"rental_uris":{"android":"levelo://app?vid=026e76ec-bb30-48a3-8407-a17635ff5e4d","ios":"levelo://app?vid=026e76ec-bb30-48a3-8407-a17635ff5e4d"},"vehicle_type_id":"4","last_reported":1761851276,"current_range_meters":0,"station_id":"","pricing_plan_id":"cebpf4jnsgd1na2vs0mg"},{"bike_id":"46d34bff-7ac4-476c-bd3e-8e7dba53c807","system_id":"levelo_inurba_marseille","lat":43.337444,"lon":5.374475,"is_reserved":false,"is_disabled":false,"rental_uris":{"android":"levelo://app?vid=46d34bff-7ac4-476c-bd3e-8e7dba53c807","ios":"levelo://app?vid=46d34bff-7ac4-476c-bd3e-8e7dba53c807"},"vehicle_type_id":"4","last_reported":1761851276,"current_range_meters":0,"station_id":"","pricing_plan_id":"cebpf4jnsgd1na2vs0mg"},{"bike_id":"2c7e37d6-d4ca-47ae-a0e0-a648dd4e1706","system_id":"levelo_inurba_marseille","lat":43.337444,"lon":5.374475,"is_reserved":false,"is_disabled":false,"rental_uris":{"android":"levelo://app?vid=2c7e37d6-d4ca-47ae-a0e0-a648dd4e1706","ios":"levelo://app?vid=2c7e37d6-d4ca-47ae-a0e0-a648dd4e1706"},"vehicle_type_id":"4","last_reported":1761851276,"current_range_meters":0,"station_id":"","pricing_plan_id":"cebpf4jnsgd1na2vs0mg"},{"bike_id":"94eee6a6-2463-4d2a-b222-3ef19356212a","system_id":"levelo_inurba_marseille","lat":43.337444,"lon":5.374475,"is_reserved":false,"is_disabled":false,"rental_uris":{"android":"levelo://app?vid=94eee6a6-2463-4d2a-b222-3ef19356212a","ios":"levelo://app?vid=94eee6a6-2463-4d2a-b222-3ef19356212a"},"vehicle_type_id":"4","last_reported":1761851276,"current_range_meters":0,"station_id":"","pricing_plan_id":"cebpf4jnsgd1na2vs0mg"},{"bike_id":"4592e008-320c-4bcd-ae3b-d140e613f684","system_id":"levelo_inurba_marseille","lat":43.337444,"lon":5.374475,"is_reserved":false,"is_disabled":false,"rental_uris":{"android":"levelo://app?vid=4592e008-320c-4bcd-ae3b-d140e613f684","ios":"levelo://app?vid=4592e008-320c-4bcd-ae3b-d140e613f684"},"vehicle_type_id":"4","last_reported":1761851276,"current_range_meters":0,"station_id":"","pricing_plan_id":"cebpf4jnsgd1na2vs0mg"},{"bike_id":"5807ce94-1b62-42db-8c77-9488accc83d5","system_id":"levelo_inurba_marseille","lat":43.337444,"lon":5.374475,"is_reserved":false,"is_disabled":false,"rental_uris":{"android":"levelo://app?vid=5807ce94-1b62-42db-8c77-9488accc83d5","ios":"levelo://app?vid=5807ce94-1b62-42db-8c77-9488accc83d5"},"vehicle_type_id":"4","last_reported":1761851276,"current_range_meters":0,"station_id":"","pricing_plan_id":"cebpf4jnsgd1na2vs0mg"},{"bike_id":"e0a21577-337e-43fd-9ab6-ea480342b194","system_id":"levelo_inurba_marseille","lat":43.28938,"lon":5.3663,"is_reserved":false,"is_disabled":false,"rental_uris":{"android":"levelo://app?vid=e0a21577-337e-43fd-9ab6-ea480342b194","ios":"levelo://app?vid=e0a21577-337e-43fd-9ab6-ea480342b194"},"vehicle_type_id":"4","last_reported":1761851276,"current_range_meters":2800,"station_id":"ce4bhap2rcd13ifvqek0","pricing_plan_id":"cebpf4jnsgd1na2vs0mg"},{"bike_id":"f9ea47d7-58a3-46aa-a5e5-205394b3cbe8","system_id":"levelo_inurba_marseille","lat":43.28614,"lon":5.35107,"is_reserved":false,"is_disabled":false,"rental_uris":{"android":"levelo://app?vid=f9ea47d7-58a3-46aa-a5e5-205394b3cbe8","ios":"levelo://app?vid=f9ea47d7-58a3-46aa-a5e5-205394b3cbe8"},"vehicle_type_id":"4","last_reported":1761851276,"current_range_meters":2800,"station_id":"ce4bhch2rcd13ifvqeug","pricing_plan_id":"cebpf4jnsgd1na2vs0mg"},{"bike_id":"3d5ac530-9a73-4a13-a045-72cff71cd27d","system_id":"levelo_inurba_marseille","lat":43.2534,"lon":5.42158,"is_reserved":false,"is_disabled":false,"rental_uris":{"android":"levelo://app?vid=3d5ac530-9a73-4a13-a045-72cff71cd27d","ios":"levelo://app?vid=3d5ac530-9a73-4a13-a045-72cff71cd27d"},"vehicle_type_id":"4","last_reported":1761851276,"current_range_meters":2800,"station_id":"st_d2m65c5bi1j21697t3ng","pricing_plan_id":"cebpf4jnsgd1na2vs0mg"},{"bike_id":"d5ca831f-8041-403e-ada8-7b4196c3d5be","system_id":"levelo_inurba_marseille","lat":43.293714,"lon":5.379385,"is_reserved":false,"is_disabled":false,"rental_uris":{"android":"levelo://app?vid=d5ca831f-8041-403e-ada8-7b4196c3d5be","ios":"levelo://app?vid=d5ca831f-8041-403e-ada8-7b4196c3d5be"},"vehicle_type_id":"4","last_reported":1761851276,"current_range_meters":2800,"station_id":"","pricing_plan_id":"cebpf4jnsgd1na2vs0mg"},{"bike_id":"680801fd-1056-42ed-996d-1744a1bbef33","system_id":"levelo_inurba_marseille","lat":43.27974,"lon":5.38737,"is_reserved":false,"is_disabled":false,"rental_uris":{"android":"levelo://app?vid=680801fd-1056-42ed-996d-1744a1bbef33","ios":"levelo://app?vid=680801fd-1056-42ed-996d-1744a1bbef33"},"vehicle_type_id":"4","last_reported":1761851276,"current_range_meters":3200,"station_id":"ce4bhg12rcd13ifvqf80","pricing_plan_id":"cebpf4jnsgd1na2vs0mg"},{"bike_id":"5cc3052a-e78a-489c-b99e-f478b8ae3cb8","system_id":"levelo_inurba_marseille","lat":43.30586,"lon":5.39358,"is_reserved":false,"is_disabled":false,"rental_uris":{"android":"levelo://app?vid=5cc3052a-e78a-489c-b99e-f478b8ae3cb8","ios":"levelo://app?vid=5cc3052a-e78a-489c-b99e-f478b8ae3cb8"},"vehicle_type_id":"4","last_reported":1761851276,"current_range_meters":3200,"station_id":"ce4bh0p2rcd13ifvqd80","pricing_plan_id":"cebpf4jnsgd1na2vs0mg"},{"bike_id":"db72bb41-b8fe-478b-8762-0d9a52924f75","system_id":"levelo_inurba_marseille","lat":43.292633,"lon":5.401326,"is_reserved":false,"is_disabled":false,"rental_uris":{"android":"levelo://app?vid=db72bb41-b8fe-478b-8762-0d9a52924f75","ios":"levelo://app?vid=db72bb41-b8fe-478b-8762-0d9a52924f75"},"vehicle_type_id":"4","last_reported":1761851276,"current_range_meters":3600,"station_id":"ce4bh312rcd13ifvqdk0","pricing_plan_id":"cebpf4jnsgd1na2vs0mg"},{"bike_id":"26a73359-349e-420d-bd3e-64c79e9a54dd","system_id":"levelo_inurba_marseille","lat":43.23961,"lon":5.36623,"is_reserved":false,"is_disabled":false,"rental_uris":{"android":"levelo://app?vid=26a73359-349e-420d-bd3e-64c79e9a54dd","ios":"levelo://app?vid=26a73359-349e-420d-bd3e-64c79e9a54dd"},"vehicle_type_id":"4","last_reported":1761851276,"current_range_meters":3600,"station_id":"ce4bhi12rcd13ifvqfp0","pricing_plan_id":"cebpf4jnsgd1na2vs0mg"},{"bike_id":"808f27de-6223-44b2-9988-7f24e1e56127","system_id":"levelo_inurba_marseille","lat":43.319957,"lon":5.413481,"is_reserved":false,"is_disabled":false,"rental_uris":{"android":"levelo://app?vid=808f27de-6223-44b2-9988-7f24e1e56127","ios":"levelo://app?vid=808f27de-6223-44b2-9988-7f24e1e56127"},"vehicle_type_id":"4","last_reported":1761851276,"current_range_meters":3600,"station_id":"ce4bhq92rcd13ifvqhkg","pricing_plan_id":"cebpf4jnsgd1na2vs0mg"},{"bike_id":"a4800283-a52c-41ba-ae8d-ba5ccd4da333","system_id":"levelo_inurba_marseille","lat":43.23179,"lon":5.39986,"is_reserved":false,"is_disabled":false,"rental_uris":{"android":"levelo://app?vid=a4800283-a52c-41ba-ae8d-ba5ccd4da333","ios":"levelo://app?vid=a4800283-a52c-41ba-ae8d-ba5ccd4da333"},"vehicle_type_id":"4","last_reported":1761851276,"current_range_meters":4000,"station_id":"ce4bhn12rcd13ifvqgqg","pricing_plan_id":"cebpf4jnsgd1na2vs0mg"},{"bike_id":"61e69835-9ecd-4ea0-95b3-72ab283c2620","system_id":"levelo_inurba_marseille","lat":43.29799,"lon":5.40409,"is_reserved":false,"is_disabled":false,"rental_uris":{"android":"levelo://app?vid=61e69835-9ecd-4ea0-95b3-72ab283c2620","ios":"levelo://app?vid=61e69835-9ecd-4ea0-95b3-72ab283c2620"},"vehicle_type_id":"4","last_reported":1761851276,"current_range_meters":4000,"station_id":"ce4bh112rcd13ifvqd90","pricing_plan_id":"cebpf4jnsgd1na2vs0mg"},{"bike_id":"b72c502e-f9e9-45f9-a593-0b851187ee18","system_id":"levelo_inurba_marseille","lat":43.26558,"lon":5.37286,"is_reserved":false,"is_disabled":false,"rental_uris":{"android":"levelo://app?vid=b72c502e-f9e9-45f9-a593-0b851187ee18","ios":"levelo://app?vid=b72c502e-f9e9-45f9-a593-0b851187ee18"},"vehicle_type_id":"4","last_reported":1761851276,"current_range_meters":4000,"station_id":"ce4bhg12rcd13ifvqf70","pricing_plan_id":"cebpf4jnsgd1na2vs0mg"},{"bike_id":"c1b5cd39-b0dd-4841-ae0e-6507857fd10b","system_id":"levelo_inurba_marseille","lat":43.30426,"lon":5.41284,"is_reserved":false,"is_disabled":false,"rental_uris":{"android":"levelo://app?vid=c1b5cd39-b0dd-4841-ae0e-6507857fd10b","ios":"levelo://app?vid=c1b5cd39-b0dd-4841-ae0e-6507857fd10b"},"vehicle_type_id":"4","last_reported":1761851276,"current_range_meters":4000,"station_id":"ce4bhop2rcd13ifvqh8g","pricing_plan_id":"cebpf4jnsgd1na2vs0mg"},{"bike_id":"f6adb9c1-4a78-4322-baec-aa5f6f5d93b6","system_id":"levelo_inurba_marseille","lat":43.33766,"lon":5.37431,"is_reserved":false,"is_disabled":false,"rental_uris":{"android":"levelo://app?vid=f6adb9c1-4a78-4322-baec-aa5f6f5d93b6","ios":"levelo://app?vid=f6adb9c1-4a78-4322-baec-aa5f6f5d93b6"},"vehicle_type_id":"4","last_reported":1761851276,"current_range_meters":4000,"station_id":"","pricing_plan_id":"cebpf4jnsgd1na2vs0mg"},{"bike_id":"4446983b-64a7-41ee-88c4-0fc2b737c3ef","system_id":"levelo_inurba_marseille","lat":43.314946,"lon":5.373063,"is_reserved":false,"is_disabled":false,"rental_uris":{"android":"levelo://app?vid=4446983b-64a7-41ee-88c4-0fc2b737c3ef","ios":"levelo://app?vid=4446983b-64a7-41ee-88c4-0fc2b737c3ef"},"vehicle_type_id":"4","last_reported":1761851276,"current_range_meters":4400,"station_id":"ce4bgth2rcd13ifvqch0","pricing_plan_id":"cebpf4jnsgd1na2vs0mg"},{"bike_id":"df4a7072-9a99-4388-960f-688f83a92f17","system_id":"levelo_inurba_marseille","lat":43.295489,"lon":5.42287,"is_reserved":false,"is_disabled":false,"rental_uris":{"android":"levelo://app?vid=df4a7072-9a99-4388-960f-688f83a92f17","ios":"levelo://app?vid=df4a7072-9a99-4388-960f-688f83a92f17"},"vehicle_type_id":"4","last_reported":1761851276,"current_range_meters":4400,"station_id":"ce4bhph2rcd13ifvqhdg","pricing_plan_id":"cebpf4jnsgd1na2vs0mg"},{"bike_id":"42673695-35eb-43c8-960a-3d0d776b753c","system_id":"levelo_inurba_marseille","lat":43.284088,"lon":5.375164,"is_reserved":false,"is_disabled":true,"rental_uris":{"android":"levelo://app?vid=42673695-35eb-43c8-960a-3d0d776b753c","ios":"levelo://app?vid=42673695-35eb-43c8-960a-3d0d776b753c"},"vehicle_type_id":"4","last_reported":1761851276,"current_range_meters":4400,"station_id":"ce4bh412rcd13ifvqds0","pricing_plan_id":"cebpf4jnsgd1na2vs0mg"},{"bike_id":"60fae49c-3dbb-49b3-94b6-bc8a548bac43","system_id":"levelo_inurba_marseille","lat":43.25496,"lon":5.37651,"is_reserved":false,"is_disabled":false,"rental_uris":{"android":"levelo://app?vid=60fae49c-3dbb-49b3-94b6-bc8a548bac43","ios":"levelo://app?vid=60fae49c-3dbb-49b3-94b6-bc8a548bac43"},"vehicle_type_id":"4","last_reported":1761851276,"current_range_meters":4800,"station_id":"ce4bhh12rcd13ifvqff0","pricing_plan_id":"cebpf4jnsgd1na2vs0mg"},{"bike_id":"1c223a56-8029-44d8-98e6-4705507ad770","system_id":"levelo_inurba_marseille","lat":43.28612,"lon":5.35102,"is_reserved":false,"is_disabled":false,"rental_uris":{"android":"levelo://app?vid=1c223a56-8029-44d8-98e6-4705507ad770","ios":"levelo://app?vid=1c223a56-8029-44d8-98e6-4705507ad770"},"vehicle_type_id":"4","last_reported":1761851276,"current_range_meters":4800,"station_id":"ce4bhch2rcd13ifvqeug","pricing_plan_id":"cebpf4jnsgd1na2vs0mg"},{"bike_id":"5cb3f363-ac2f-4bc2-ad50-da3965e1e89b","system_id":"levelo_inurba_marseille","lat":43.24579,"lon":5.416,"is_reserved":false,"is_disabled":false,"rental_uris":{"android":"levelo://app?vid=5cb3f363-ac2f-4bc2-ad50-da3965e1e89b","ios":"levelo://app?vid=5cb3f363-ac2f-4bc2-ad50-da3965e1e89b"},"vehicle_type_id":"4","last_reported":1761851276,"current_range_meters":4800,"station_id":"","pricing_plan_id":"cebpf4jnsgd1na2vs0mg"},{"bike_id":"ae8ebe94-fc0f-4409-8f77-39eb5c613a67","system_id":"levelo_inurba_marseille","lat":43.337444,"lon":5.374475,"is_reserved":false,"is_disabled":false,"rental_uris":{"android":"levelo://app?vid=ae8ebe94-fc0f-4409-8f77-39eb5c613a67","ios":"levelo://app?vid=ae8ebe94-fc0f-4409-8f77-39eb5c613a67"},"vehicle_type_id":"4","last_reported":1761851276,"current_range_meters":5600,"station_id":"","pricing_plan_id":"cebpf4jnsgd1na2vs0mg"},{"bike_id":"248542ad-706a-42c3-9b0b-25573af30d88","system_id":"levelo_inurba_marseille","lat":43.31995,"lon":5.38165,"is_reserved":false,"is_disabled":false,"rental_uris":{"android":"levelo://app?vid=248542ad-706a-42c3-9b0b-25573af30d88","ios":"levelo://app?vid=248542ad-706a-42c3-9b0b-25573af30d88"},"vehicle_type_id":"4","last_reported":1761851276,"current_range_meters":5600,"station_id":"ce4bhr12rcd13ifvqhpg","pricing_plan_id":"cebpf4jnsgd1na2vs0mg"},{"bike_id":"234905c9-ff64-4e1a-98b9-cc903859697e","system_id":"levelo_inurba_marseille","lat":43.2997,"lon":5.38492,"is_reserved":false,"is_disabled":false,"rental_uris":{"android":"levelo://app?vid=234905c9-ff64-4e1a-98b9-cc903859697e","ios":"levelo://app?vid=234905c9-ff64-4e1a-98b9-cc903859697e"},"vehicle_type_id":"4","last_reported":1761851276,"current_range_meters":5600,"station_id":"ce4bgj92rcd13ifvqbd0","pricing_plan_id":"cebpf4jnsgd1na2vs0mg"},{"bike_id":"646f7ee4-c28f-4818-b256-328e1cfc7abd","system_id":"levelo_inurba_marseille","lat":43.28419,"lon":5.37505,"is_reserved":false,"is_disabled":false,"rental_uris":{"android":"levelo://app?vid=646f7ee4-c28f-4818-b256-328e1cfc7abd","ios":"levelo://app?vid=646f7ee4-c28f-4818-b256-328e1cfc7abd"},"vehicle_type_id":"4","last_reported":1761851276,"current_range_meters":5600,"station_id":"ce4bh412rcd13ifvqds0","pricing_plan_id":"cebpf4jnsgd1na2vs0mg"},{"bike_id":"b2213cc0-3e8f-4938-b4b1-cef095bd37b9","system_id":"levelo_inurba_marseille","lat":43.241624,"lon":5.398376,"is_reserved":false,"is_disabled":false,"rental_uris":{"android":"levelo://app?vid=b2213cc0-3e8f-4938-b4b1-cef095bd37b9","ios":"levelo://app?vid=b2213cc0-3e8f-4938-b4b1-cef095bd37b9"},"vehicle_type_id":"4","last_reported":1761851276,"current_range_meters":6000,"station_id":"ce4bhn12rcd13ifvqgpg","pricing_plan_id":"cebpf4jnsgd1na2vs0mg"},{"bike_id":"f885ec6e-2708-4a7e-b11e-8cba7e6bd29a","system_id":"levelo_inurba_marseille","lat":43.29787,"lon":5.40409,"is_reserved":false,"is_disabled":false,"rental_uris":{"android":"levelo://app?vid=f885ec6e-2708-4a7e-b11e-8cba7e6bd29a","ios":"levelo://app?vid=f885ec6e-2708-4a7e-b11e-8cba7e6bd29a"},"vehicle_type_id":"4","last_reported":1761851276,"current_range_meters":6000,"station_id":"ce4bh112rcd13ifvqd90","pricing_plan_id":"cebpf4jnsgd1na2vs0mg"},{"bike_id":"592c8d61-0def-4375-a956-e2164180bd56","system_id":"levelo_inurba_marseille","lat":43.30909,"lon":5.36847,"is_reserved":false,"is_disabled":false,"rental_uris":{"android":"levelo://app?vid=592c8d61-0def-4375-a956-e2164180bd56","ios":"levelo://app?vid=592c8d61-0def-4375-a956-e2164180bd56"},"vehicle_type_id":"4","last_reported":1761851276,"current_range_meters":6000,"station_id":"ce4bgn92rcd13ifvqbvg","pricing_plan_id":"cebpf4jnsgd1na2vs0mg"},{"bike_id":"0ad2f5a4-5f4c-49e2-8306-85e0fe3e6be2","system_id":"levelo_inurba_marseille","lat":43.30797,"lon":5.38152,"is_reserved":false,"is_disabled":false,"rental_uris":{"android":"levelo://app?vid=0ad2f5a4-5f4c-49e2-8306-85e0fe3e6be2","ios":"levelo://app?vid=0ad2f5a4-5f4c-49e2-8306-85e0fe3e6be2"},"vehicle_type_id":"4","last_reported":1761851276,"current_range_meters":6000,"station_id":"ce4bgt12rcd13ifvqce0","pricing_plan_id":"cebpf4jnsgd1na2vs0mg"},{"bike_id":"ec1ab57f-a3a6-4b3d-800b-4f49f9268e61","system_id":"levelo_inurba_marseille","lat":43.28462,"lon":5.38403,"is_reserved":false,"is_disabled":true,"rental_uris":{"android":"levelo://app?vid=ec1ab57f-a3a6-4b3d-800b-4f49f9268e61","ios":"levelo://app?vid=ec1ab57f-a3a6-4b3d-800b-4f49f9268e61"},"vehicle_type_id":"4","last_reported":1761851276,"current_range_meters":6000,"station_id":"ce4bh512rcd13ifvqe3g","pricing_plan_id":"cebpf4jnsgd1na2vs0mg"},{"bike_id":"bb1408fd-0515-4f06-a508-7ff5c9aa7be5","system_id":"levelo_inurba_marseille","lat":43.295258,"lon":5.390389,"is_reserved":false,"is_disabled":false,"rental_uris":{"android":"levelo://app?vid=bb1408fd-0515-4f06-a508-7ff5c9aa7be5","ios":"levelo://app?vid=bb1408fd-0515-4f06-a508-7ff5c9aa7be5"},"vehicle_type_id":"4","last_reported":1761851276,"current_range_meters":6000,"station_id":"ce4bh3p2rcd13ifvqdp0","pricing_plan_id":"cebpf4jnsgd1na2vs0mg"},{"bike_id":"438c6319-efe3-494e-9996-5652de2b843d","system_id":"levelo_inurba_marseille","lat":43.29911,"lon":5.37483,"is_reserved":false,"is_disabled":false,"rental_uris":{"android":"levelo://app?vid=438c6319-efe3-494e-9996-5652de2b843d","ios":"levelo://app?vid=438c6319-efe3-494e-9996-5652de2b843d"},"vehicle_type_id":"4","last_reported":1761851276,"current_range_meters":6400,"station_id":"ce4bgjh2rcd13ifvqbg0","pricing_plan_id":"cebpf4jnsgd1na2vs0mg"},{"bike_id":"40d4a65d-8a84-4a2c-b535-d7debbd7ae13","system_id":"levelo_inurba_marseille","lat":43.29966,"lon":5.38476,"is_reserved":false,"is_disabled":false,"rental_uris":{"android":"levelo://app?vid=40d4a65d-8a84-4a2c-b535-d7debbd7ae13","ios":"levelo://app?vid=40d4a65d-8a84-4a2c-b535-d7debbd7ae13"},"vehicle_type_id":"4","last_reported":1761851276,"current_range_meters":6400,"station_id":"ce4bgj92rcd13ifvqbd0","pricing_plan_id":"cebpf4jnsgd1na2vs0mg"},{"bike_id":"57e3bc41-a57e-4c65-9e69-118a9352d1ae","system_id":"levelo_inurba_marseille","lat":43.26494,"lon":5.3954,"is_reserved":false,"is_disabled":false,"rental_uris":{"android":"levelo://app?vid=57e3bc41-a57e-4c65-9e69-118a9352d1ae","ios":"levelo://app?vid=57e3bc41-a57e-4c65-9e69-118a9352d1ae"},"vehicle_type_id":"4","last_reported":1761851276,"current_range_meters":6400,"station_id":"ce4bhi12rcd13ifvqfq0","pricing_plan_id":"cebpf4jnsgd1na2vs0mg"},{"bike_id":"b9bc0fe5-aa67-4a39-a64f-cfd40295a097","system_id":"levelo_inurba_marseille","lat":43.2952,"lon":5.39005,"is_reserved":false,"is_disabled":false,"rental_uris":{"android":"levelo://app?vid=b9bc0fe5-aa67-4a39-a64f-cfd40295a097","ios":"levelo://app?vid=b9bc0fe5-aa67-4a39-a64f-cfd40295a097"},"vehicle_type_id":"4","last_reported":1761851276,"current_range_meters":6400,"station_id":"ce4bh3p2rcd13ifvqdp0","pricing_plan_id":"cebpf4jnsgd1na2vs0mg"},{"bike_id":"a12ffd53-5a6f-4857-a44c-3aa5e15d6c4a","system_id":"levelo_inurba_marseille","lat":43.325477,"lon":5.414286,"is_reserved":false,"is_disabled":false,"rental_uris":{"android":"levelo://app?vid=a12ffd53-5a6f-4857-a44c-3aa5e15d6c4a","ios":"levelo://app?vid=a12ffd53-5a6f-4857-a44c-3aa5e15d6c4a"},"vehicle_type_id":"4","last_reported":1761851276,"current_range_meters":6400,"station_id":"ce4bhq12rcd13ifvqhhg","pricing_plan_id":"cebpf4jnsgd1na2vs0mg"},{"bike_id":"20e516be-e37c-4898-9f15-daa8bb18ba8d","system_id":"levelo_inurba_marseille","lat":43.29574,"lon":5.39973,"is_reserved":false,"is_disabled":false,"rental_uris":{"android":"levelo://app?vid=20e516be-e37c-4898-9f15-daa8bb18ba8d","ios":"levelo://app?vid=20e516be-e37c-4898-9f15-daa8bb18ba8d"},"vehicle_type_id":"4","last_reported":1761851276,"current_range_meters":6400,"station_id":"ce4bh312rcd13ifvqdj0","pricing_plan_id":"cebpf4jnsgd1na2vs0mg"},{"bike_id":"e0775e00-b6c6-4727-9fa9-bc894f6ab4b9","system_id":"levelo_inurba_marseille","lat":43.28401,"lon":5.37471,"is_reserved":false,"is_disabled":false,"rental_uris":{"android":"levelo://app?vid=e0775e00-b6c6-4727-9fa9-bc894f6ab4b9","ios":"levelo://app?vid=e0775e00-b6c6-4727-9fa9-bc894f6ab4b9"},"vehicle_type_id":"4","last_reported":1761851276,"current_range_meters":6400,"station_id":"ce4bh412rcd13ifvqds0","pricing_plan_id":"cebpf4jnsgd1na2vs0mg"},{"bike_id":"882eb072-263a-439c-beaf-e5181b8fb1c7","system_id":"levelo_inurba_marseille","lat":43.28415,"lon":5.37503,"is_reserved":false,"is_disabled":false,"rental_uris":{"android":"levelo://app?vid=882eb072-263a-439c-beaf-e5181b8fb1c7","ios":"levelo://app?vid=882eb072-263a-439c-beaf-e5181b8fb1c7"},"vehicle_type_id":"4","last_reported":1761851276,"current_range_meters":6400,"station_id":"ce4bh412rcd13ifvqds0","pricing_plan_id":"cebpf4jnsgd1na2vs0mg"},{"bike_id":"453ede34-22c8-433f-b4e8-0f6942fec8ef","system_id":"levelo_inurba_marseille","lat":43.292633,"lon":5.384445,"is_reserved":false,"is_disabled":false,"rental_uris":{"android":"levelo://app?vid=453ede34-22c8-433f-b4e8-0f6942fec8ef","ios":"levelo://app?vid=453ede34-22c8-433f-b4e8-0f6942fec8ef"},"vehicle_type_id":"4","last_reported":1761851276,"current_range_meters":6400,"station_id":"","pricing_plan_id":"cebpf4jnsgd1na2vs0mg"},{"bike_id":"a8f3179d-0afc-476e-a489-cc80459c4cc7","system_id":"levelo_inurba_marseille","lat":43.25086,"lon":5.39516,"is_reserved":false,"is_disabled":false,"rental_uris":{"android":"levelo://app?vid=a8f3179d-0afc-476e-a489-cc80459c4cc7","ios":"levelo://app?vid=a8f3179d-0afc-476e-a489-cc80459c4cc7"},"vehicle_type_id":"4","last_reported":1761851276,"current_range_meters":6400,"station_id":"ce4bhm12rcd13ifvqgkg","pricing_plan_id":"cebpf4jnsgd1na2vs0mg"},{"bike_id":"7faf4164-c7da-4703-b758-514cd7e14edb","system_id":"levelo_inurba_marseille","lat":43.26566,"lon":5.40326,"is_reserved":false,"is_disabled":false,"rental_uris":{"android":"levelo://app?vid=7faf4164-c7da-4703-b758-514cd7e14edb","ios":"levelo://app?vid=7faf4164-c7da-4703-b758-514cd7e14edb"},"vehicle_type_id":"4","last_reported":1761851276,"current_range_meters":6800,"station_id":"ce4bhmp2rcd13ifvqgng","pricing_plan_id":"cebpf4jnsgd1na2vs0mg"},{"bike_id":"fc761291-681b-4261-b547-c82fa21c3639","system_id":"levelo_inurba_marseille","lat":43.30895,"lon":5.36852,"is_reserved":false,"is_disabled":false,"rental_uris":{"android":"levelo://app?vid=fc761291-681b-4261-b547-c82fa21c3639","ios":"levelo://app?vid=fc761291-681b-4261-b547-c82fa21c3639"},"vehicle_type_id":"4","last_reported":1761851276,"current_range_meters":6800,"station_id":"ce4bgn92rcd13ifvqbvg","pricing_plan_id":"cebpf4jnsgd1na2vs0mg"},{"bike_id":"3fe155e4-90fe-4846-8928-203e298150d0","system_id":"levelo_inurba_marseille","lat":43.30219,"lon":5.375356,"is_reserved":false,"is_disabled":false,"rental_uris":{"android":"levelo://app?vid=3fe155e4-90fe-4846-8928-203e298150d0","ios":"levelo://app?vid=3fe155e4-90fe-4846-8928-203e298150d0"},"vehicle_type_id":"4","last_reported":1761851276,"current_range_meters":6800,"station_id":"","pricing_plan_id":"cebpf4jnsgd1na2vs0mg"},{"bike_id":"5a2ca081-9648-408c-b3d5-cd861a89706b","system_id":"levelo_inurba_marseille","lat":43.30642,"lon":5.40099,"is_reserved":false,"is_disabled":false,"rental_uris":{"android":"levelo://app?vid=5a2ca081-9648-408c-b3d5-cd861a89706b","ios":"levelo://app?vid=5a2ca081-9648-408c-b3d5-cd861a89706b"},"vehicle_type_id":"4","last_reported":1761851276,"current_range_meters":6800,"station_id":"ce4bh112rcd13ifvqda0","pricing_plan_id":"cebpf4jnsgd1na2vs0mg"},{"bike_id":"87f76b94-3265-4b2d-9e35-97bb27ef923d","system_id":"levelo_inurba_marseille","lat":43.30129,"lon":5.38761,"is_reserved":false,"is_disabled":false,"rental_uris":{"android":"levelo://app?vid=87f76b94-3265-4b2d-9e35-97bb27ef923d","ios":"levelo://app?vid=87f76b94-3265-4b2d-9e35-97bb27ef923d"},"vehicle_type_id":"4","last_reported":1761851276,"current_range_meters":6800,"station_id":"ce4bghh2rcd13ifvqb60","pricing_plan_id":"cebpf4jnsgd1na2vs0mg"},{"bike_id":"c3a72cb8-05b3-4b27-bab8-81a8348eef01","system_id":"levelo_inurba_marseille","lat":43.30541,"lon":5.36562,"is_reserved":false,"is_disabled":false,"rental_uris":{"android":"levelo://app?vid=c3a72cb8-05b3-4b27-bab8-81a8348eef01","ios":"levelo://app?vid=c3a72cb8-05b3-4b27-bab8-81a8348eef01"},"vehicle_type_id":"4","last_reported":1761851276,"current_range_meters":6800,"station_id":"ce4bgs12rcd13ifvqcag","pricing_plan_id":"cebpf4jnsgd1na2vs0mg"},{"bike_id":"cf0d0120-0615-447f-80b2-b9d253f7c4cc","system_id":"levelo_inurba_marseille","lat":43.2981,"lon":5.40414,"is_reserved":false,"is_disabled":false,"rental_uris":{"android":"levelo://app?vid=cf0d0120-0615-447f-80b2-b9d253f7c4cc","ios":"levelo://app?vid=cf0d0120-0615-447f-80b2-b9d253f7c4cc"},"vehicle_type_id":"4","last_reported":1761851276,"current_range_meters":6800,"station_id":"ce4bh112rcd13ifvqd90","pricing_plan_id":"cebpf4jnsgd1na2vs0mg"},{"bike_id":"c3f1186d-04b8-4db0-ac7b-69994cec66c2","system_id":"levelo_inurba_marseille","lat":43.28923,"lon":5.3841,"is_reserved":false,"is_disabled":false,"rental_uris":{"android":"levelo://app?vid=c3f1186d-04b8-4db0-ac7b-69994cec66c2","ios":"levelo://app?vid=c3f1186d-04b8-4db0-ac7b-69994cec66c2"},"vehicle_type_id":"4","last_reported":1761851276,"current_range_meters":7200,"station_id":"ce4bh612rcd13ifvqe6g","pricing_plan_id":"cebpf4jnsgd1na2vs0mg"},{"bike_id":"7b7c8302-13cf-4a3b-a1f5-f696555d41aa","system_id":"levelo_inurba_marseille","lat":43.30422,"lon":5.41291,"is_reserved":false,"is_disabled":false,"rental_uris":{"android":"levelo://app?vid=7b7c8302-13cf-4a3b-a1f5-f696555d41aa","ios":"levelo://app?vid=7b7c8302-13cf-4a3b-a1f5-f696555d41aa"},"vehicle_type_id":"4","last_reported":1761851276,"current_range_meters":7200,"station_id":"ce4bhop2rcd13ifvqh8g","pricing_plan_id":"cebpf4jnsgd1na2vs0mg"},{"bike_id":"16f8ce5e-d45a-4e4f-899a-0536006fb934","system_id":"levelo_inurba_marseille","lat":43.28676,"lon":5.38676,"is_reserved":false,"is_disabled":false,"rental_uris":{"android":"levelo://app?vid=16f8ce5e-d45a-4e4f-899a-0536006fb934","ios":"levelo://app?vid=16f8ce5e-d45a-4e4f-899a-0536006fb934"},"vehicle_type_id":"4","last_reported":1761851276,"current_range_meters":7200,"station_id":"ce4bh492rcd13ifvqdug","pricing_plan_id":"cebpf4jnsgd1na2vs0mg"},{"bike_id":"c6698ab8-b9c1-4ef6-8d1d-6b190a79e8e9","system_id":"levelo_inurba_marseille","lat":43.30994,"lon":5.37244,"is_reserved":false,"is_disabled":false,"rental_uris":{"android":"levelo://app?vid=c6698ab8-b9c1-4ef6-8d1d-6b190a79e8e9","ios":"levelo://app?vid=c6698ab8-b9c1-4ef6-8d1d-6b190a79e8e9"},"vehicle_type_id":"4","last_reported":1761851276,"current_range_meters":7200,"station_id":"","pricing_plan_id":"cebpf4jnsgd1na2vs0mg"},{"bike_id":"19ac10ab-c5c4-469f-9e72-aeda1f11435a","system_id":"levelo_inurba_marseille","lat":43.3172,"lon":5.43712,"is_reserved":false,"is_disabled":false,"rental_uris":{"android":"levelo://app?vid=19ac10ab-c5c4-469f-9e72-aeda1f11435a","ios":"levelo://app?vid=19ac10ab-c5c4-469f-9e72-aeda1f11435a"},"vehicle_type_id":"4","last_reported":1761851276,"current_range_meters":7200,"station_id":"ce4bhp92rcd13ifvqhcg","pricing_plan_id":"cebpf4jnsgd1na2vs0mg"},{"bike_id":"1d8faf2b-ddff-4962-a599-fa14ffa82585","system_id":"levelo_inurba_marseille","lat":43.27559,"lon":5.38421,"is_reserved":false,"is_disabled":false,"rental_uris":{"android":"levelo://app?vid=1d8faf2b-ddff-4962-a599-fa14ffa82585","ios":"levelo://app?vid=1d8faf2b-ddff-4962-a599-fa14ffa82585"},"vehicle_type_id":"4","last_reported":1761851276,"current_range_meters":7200,"station_id":"ce4bhh92rcd13ifvqfi0","pricing_plan_id":"cebpf4jnsgd1na2vs0mg"},{"bike_id":"f6d3a060-25a4-4756-98f0-61e1399102f7","system_id":"levelo_inurba_marseille","lat":43.29188,"lon":5.37158,"is_reserved":false,"is_disabled":false,"rental_uris":{"android":"levelo://app?vid=f6d3a060-25a4-4756-98f0-61e1399102f7","ios":"levelo://app?vid=f6d3a060-25a4-4756-98f0-61e1399102f7"},"vehicle_type_id":"4","last_reported":1761851276,"current_range_meters":7200,"station_id":"ce4bha92rcd13ifvqeh0","pricing_plan_id":"cebpf4jnsgd1na2vs0mg"},{"bike_id":"d3e4191f-8708-4957-a7db-efe93d73dc66","system_id":"levelo_inurba_marseille","lat":43.28536,"lon":5.44096,"is_reserved":false,"is_disabled":false,"rental_uris":{"android":"levelo://app?vid=d3e4191f-8708-4957-a7db-efe93d73dc66","ios":"levelo://app?vid=d3e4191f-8708-4957-a7db-efe93d73dc66"},"vehicle_type_id":"4","last_reported":1761851276,"current_range_meters":8000,"station_id":"st_d3j3df2ikq2c7380ej80","pricing_plan_id":"cebpf4jnsgd1na2vs0mg"},{"bike_id":"1867a497-829f-4a89-b17a-232b7503dd16","system_id":"levelo_inurba_marseille","lat":43.29289,"lon":5.38382,"is_reserved":false,"is_disabled":false,"rental_uris":{"android":"levelo://app?vid=1867a497-829f-4a89-b17a-232b7503dd16","ios":"levelo://app?vid=1867a497-829f-4a89-b17a-232b7503dd16"},"vehicle_type_id":"4","last_reported":1761851276,"current_range_meters":8000,"station_id":"ce4bh692rcd13ifvqea0","pricing_plan_id":"cebpf4jnsgd1na2vs0mg"},{"bike_id":"a2e08882-8083-43da-ba21-7ad6c6e6e643","system_id":"levelo_inurba_marseille","lat":43.29257,"lon":5.38442,"is_reserved":false,"is_disabled":false,"rental_uris":{"android":"levelo://app?vid=a2e08882-8083-43da-ba21-7ad6c6e6e643","ios":"levelo://app?vid=a2e08882-8083-43da-ba21-7ad6c6e6e643"},"vehicle_type_id":"4","last_reported":1761851276,"current_range_meters":8000,"station_id":"ce4bh692rcd13ifvqea0","pricing_plan_id":"cebpf4jnsgd1na2vs0mg"},{"bike_id":"6159fab0-b2ac-4974-8465-f3f5af177cdd","system_id":"levelo_inurba_marseille","lat":43.30333,"lon":5.40435,"is_reserved":false,"is_disabled":false,"rental_uris":{"android":"levelo://app?vid=6159fab0-b2ac-4974-8465-f3f5af177cdd","ios":"levelo://app?vid=6159fab0-b2ac-4974-8465-f3f5af177cdd"},"vehicle_type_id":"4","last_reported":1761851276,"current_range_meters":8000,"station_id":"ce4bh012rcd13ifvqd10","pricing_plan_id":"cebpf4jnsgd1na2vs0mg"},{"bike_id":"a264e876-5c75-4958-91e7-22a13cf493fc","system_id":"levelo_inurba_marseille","lat":43.26617,"lon":5.3901,"is_reserved":false,"is_disabled":false,"rental_uris":{"android":"levelo://app?vid=a264e876-5c75-4958-91e7-22a13cf493fc","ios":"levelo://app?vid=a264e876-5c75-4958-91e7-22a13cf493fc"},"vehicle_type_id":"4","last_reported":1761851276,"current_range_meters":8000,"station_id":"","pricing_plan_id":"cebpf4jnsgd1na2vs0mg"},{"bike_id":"3338d7e0-6a41-4aad-a5c1-8b0705a70d4c","system_id":"levelo_inurba_marseille","lat":43.29966,"lon":5.38496,"is_reserved":false,"is_disabled":false,"rental_uris":{"android":"levelo://app?vid=3338d7e0-6a41-4aad-a5c1-8b0705a70d4c","ios":"levelo://app?vid=3338d7e0-6a41-4aad-a5c1-8b0705a70d4c"},"vehicle_type_id":"4","last_reported":1761851276,"current_range_meters":8400,"station_id":"ce4bgj92rcd13ifvqbd0","pricing_plan_id":"cebpf4jnsgd1na2vs0mg"},{"bike_id":"d9a3637a-3954-4c82-b9fc-b5f917758005","system_id":"levelo_inurba_marseille","lat":43.28219,"lon":5.39057,"is_reserved":false,"is_disabled":true,"rental_uris":{"android":"levelo://app?vid=d9a3637a-3954-4c82-b9fc-b5f917758005","ios":"levelo://app?vid=d9a3637a-3954-4c82-b9fc-b5f917758005"},"vehicle_type_id":"4","last_reported":1761851276,"current_range_meters":8400,"station_id":"ce4bhn92rcd13ifvqgsg","pricing_plan_id":"cebpf4jnsgd1na2vs0mg"},{"bike_id":"faee4aed-34d1-4e59-9f3e-bc2337688920","system_id":"levelo_inurba_marseille","lat":43.31698,"lon":5.43704,"is_reserved":false,"is_disabled":true,"rental_uris":{"android":"levelo://app?vid=faee4aed-34d1-4e59-9f3e-bc2337688920","ios":"levelo://app?vid=faee4aed-34d1-4e59-9f3e-bc2337688920"},"vehicle_type_id":"4","last_reported":1761851276,"current_range_meters":8400,"station_id":"ce4bhp92rcd13ifvqhcg","pricing_plan_id":"cebpf4jnsgd1na2vs0mg"},{"bike_id":"cc2e82cb-5ccb-439b-b8b9-bc00f724273f","system_id":"levelo_inurba_marseille","lat":43.2297,"lon":5.43705,"is_reserved":false,"is_disabled":false,"rental_uris":{"android":"levelo://app?vid=cc2e82cb-5ccb-439b-b8b9-bc00f724273f","ios":"levelo://app?vid=cc2e82cb-5ccb-439b-b8b9-bc00f724273f"},"vehicle_type_id":"4","last_reported":1761851276,"current_range_meters":8400,"station_id":"","pricing_plan_id":"cebpf4jnsgd1na2vs0mg"},{"bike_id":"74c4ec59-cd06-41fc-bbb1-84af25dada46","system_id":"levelo_inurba_marseille","lat":43.31168,"lon":5.38719,"is_reserved":false,"is_disabled":false,"rental_uris":{"android":"levelo://app?vid=74c4ec59-cd06-41fc-bbb1-84af25dada46","ios":"levelo://app?vid=74c4ec59-cd06-41fc-bbb1-84af25dada46"},"vehicle_type_id":"4","last_reported":1761851276,"current_range_meters":8400,"station_id":"ce4bgv12rcd13ifvqcp0","pricing_plan_id":"cebpf4jnsgd1na2vs0mg"},{"bike_id":"e6fa0814-b2a4-41e5-a1aa-bbbf0abb45a5","system_id":"levelo_inurba_marseille","lat":43.31165,"lon":5.38718,"is_reserved":false,"is_disabled":false,"rental_uris":{"android":"levelo://app?vid=e6fa0814-b2a4-41e5-a1aa-bbbf0abb45a5","ios":"levelo://app?vid=e6fa0814-b2a4-41e5-a1aa-bbbf0abb45a5"},"vehicle_type_id":"4","last_reported":1761851276,"current_range_meters":8400,"station_id":"ce4bgv12rcd13ifvqcp0","pricing_plan_id":"cebpf4jnsgd1na2vs0mg"},{"bike_id":"02f07a42-9444-4454-bda0-c33c2a6180f8","system_id":"levelo_inurba_marseille","lat":43.2816,"lon":5.42641,"is_reserved":false,"is_disabled":false,"rental_uris":{"android":"levelo://app?vid=02f07a42-9444-4454-bda0-c33c2a6180f8","ios":"levelo://app?vid=02f07a42-9444-4454-bda0-c33c2a6180f8"},"vehicle_type_id":"4","last_reported":1761851276,"current_range_meters":8800,"station_id":"ce4bhnh2rcd13ifvqgug","pricing_plan_id":"cebpf4jnsgd1na2vs0mg"},{"bike_id":"9b26a687-9f9d-48ff-a76c-8be07ab7c0b3","system_id":"levelo_inurba_marseille","lat":43.28853,"lon":5.35848,"is_reserved":false,"is_disabled":false,"rental_uris":{"android":"levelo://app?vid=9b26a687-9f9d-48ff-a76c-8be07ab7c0b3","ios":"levelo://app?vid=9b26a687-9f9d-48ff-a76c-8be07ab7c0b3"},"vehicle_type_id":"4","last_reported":1761851276,"current_range_meters":8800,"station_id":"ce4bhb12rcd13ifvqem0","pricing_plan_id":"cebpf4jnsgd1na2vs0mg"},{"bike_id":"ef077506-ad53-48c6-96ed-57184394616c","system_id":"levelo_inurba_marseille","lat":43.304752,"lon":5.367117,"is_reserved":false,"is_disabled":false,"rental_uris":{"android":"levelo://app?vid=ef077506-ad53-48c6-96ed-57184394616c","ios":"levelo://app?vid=ef077506-ad53-48c6-96ed-57184394616c"},"vehicle_type_id":"4","last_reported":1761851276,"current_range_meters":9200,"station_id":"","pricing_plan_id":"cebpf4jnsgd1na2vs0mg"},{"bike_id":"9972eb7f-e1ea-4e47-9257-2edeb9069551","system_id":"levelo_inurba_marseille","lat":43.3015,"lon":5.38074,"is_reserved":false,"is_disabled":false,"rental_uris":{"android":"levelo://app?vid=9972eb7f-e1ea-4e47-9257-2edeb9069551","ios":"levelo://app?vid=9972eb7f-e1ea-4e47-9257-2edeb9069551"},"vehicle_type_id":"4","last_reported":1761851276,"current_range_meters":9200,"station_id":"ce4bgjp2rcd13ifvqbh0","pricing_plan_id":"cebpf4jnsgd1na2vs0mg"},{"bike_id":"662db98b-0dc9-4ab6-bbc2-16b8b5212658","system_id":"levelo_inurba_marseille","lat":43.29968,"lon":5.38499,"is_reserved":false,"is_disabled":false,"rental_uris":{"android":"levelo://app?vid=662db98b-0dc9-4ab6-bbc2-16b8b5212658","ios":"levelo://app?vid=662db98b-0dc9-4ab6-bbc2-16b8b5212658"},"vehicle_type_id":"4","last_reported":1761851276,"current_range_meters":9200,"station_id":"ce4bgj92rcd13ifvqbd0","pricing_plan_id":"cebpf4jnsgd1na2vs0mg"},{"bike_id":"850deae8-6a43-4d62-9ed0-b09159069ac1","system_id":"levelo_inurba_marseille","lat":43.29876,"lon":5.38922,"is_reserved":false,"is_disabled":false,"rental_uris":{"android":"levelo://app?vid=850deae8-6a43-4d62-9ed0-b09159069ac1","ios":"levelo://app?vid=850deae8-6a43-4d62-9ed0-b09159069ac1"},"vehicle_type_id":"4","last_reported":1761851276,"current_range_meters":9200,"station_id":"ce4bh392rcd13ifvqdl0","pricing_plan_id":"cebpf4jnsgd1na2vs0mg"},{"bike_id":"46f3e991-c55b-4d9d-9a37-f9e3e15f4f3f","system_id":"levelo_inurba_marseille","lat":43.21196,"lon":5.35069,"is_reserved":false,"is_disabled":false,"rental_uris":{"android":"levelo://app?vid=46f3e991-c55b-4d9d-9a37-f9e3e15f4f3f","ios":"levelo://app?vid=46f3e991-c55b-4d9d-9a37-f9e3e15f4f3f"},"vehicle_type_id":"4","last_reported":1761851276,"current_range_meters":9200,"station_id":"st_cvj6sg6p6f1abm77japg","pricing_plan_id":"cebpf4jnsgd1na2vs0mg"},{"bike_id":"9c0dd087-ab34-428c-a549-eb7a0ac93652","system_id":"levelo_inurba_marseille","lat":43.30148,"lon":5.38063,"is_reserved":false,"is_disabled":false,"rental_uris":{"android":"levelo://app?vid=9c0dd087-ab34-428c-a549-eb7a0ac93652","ios":"levelo://app?vid=9c0dd087-ab34-428c-a549-eb7a0ac93652"},"vehicle_type_id":"4","last_reported":1761851276,"current_range_meters":9200,"station_id":"ce4bgjp2rcd13ifvqbh0","pricing_plan_id":"cebpf4jnsgd1na2vs0mg"},{"bike_id":"8710e874-19cc-4a94-9af1-be35d399ed58","system_id":"levelo_inurba_marseille","lat":43.29028,"lon":5.38627,"is_reserved":false,"is_disabled":false,"rental_uris":{"android":"levelo://app?vid=8710e874-19cc-4a94-9af1-be35d399ed58","ios":"levelo://app?vid=8710e874-19cc-4a94-9af1-be35d399ed58"},"vehicle_type_id":"4","last_reported":1761851276,"current_range_meters":9200,"station_id":"ce4bh4p2rcd13ifvqe0g","pricing_plan_id":"cebpf4jnsgd1na2vs0mg"},{"bike_id":"819f3c94-46a0-4d60-b376-2eff4cea107d","system_id":"levelo_inurba_marseille","lat":43.284219,"lon":5.375251,"is_reserved":false,"is_disabled":false,"rental_uris":{"android":"levelo://app?vid=819f3c94-46a0-4d60-b376-2eff4cea107d","ios":"levelo://app?vid=819f3c94-46a0-4d60-b376-2eff4cea107d"},"vehicle_type_id":"4","last_reported":1761851276,"current_range_meters":9600,"station_id":"ce4bh412rcd13ifvqds0","pricing_plan_id":"cebpf4jnsgd1na2vs0mg"},{"bike_id":"6df5032d-d017-4610-b177-7b09ad4f72dd","system_id":"levelo_inurba_marseille","lat":43.284107,"lon":5.374972,"is_reserved":false,"is_disabled":false,"rental_uris":{"android":"levelo://app?vid=6df5032d-d017-4610-b177-7b09ad4f72dd","ios":"levelo://app?vid=6df5032d-d017-4610-b177-7b09ad4f72dd"},"vehicle_type_id":"4","last_reported":1761851276,"current_range_meters":9600,"station_id":"ce4bh412rcd13ifvqds0","pricing_plan_id":"cebpf4jnsgd1na2vs0mg"},{"bike_id":"3b193b08-6dd1-4b5c-b097-b232b8f5750b","system_id":"levelo_inurba_marseille","lat":43.31107,"lon":5.37754,"is_reserved":false,"is_disabled":false,"rental_uris":{"android":"levelo://app?vid=3b193b08-6dd1-4b5c-b097-b232b8f5750b","ios":"levelo://app?vid=3b193b08-6dd1-4b5c-b097-b232b8f5750b"},"vehicle_type_id":"4","last_reported":1761851276,"current_range_meters":9600,"station_id":"ce4bgt92rcd13ifvqcg0","pricing_plan_id":"cebpf4jnsgd1na2vs0mg"},{"bike_id":"fe9c7793-f974-407b-b6c6-b7ac040a04c8","system_id":"levelo_inurba_marseille","lat":43.30929,"lon":5.40136,"is_reserved":false,"is_disabled":false,"rental_uris":{"android":"levelo://app?vid=fe9c7793-f974-407b-b6c6-b7ac040a04c8","ios":"levelo://app?vid=fe9c7793-f974-407b-b6c6-b7ac040a04c8"},"vehicle_type_id":"4","last_reported":1761851276,"current_range_meters":10000,"station_id":"ce4bgvp2rcd13ifvqct0","pricing_plan_id":"cebpf4jnsgd1na2vs0mg"},{"bike_id":"d38ff2d1-1a80-4fc8-859c-2dac61b48930","system_id":"levelo_inurba_marseille","lat":43.29026,"lon":5.38119,"is_reserved":false,"is_disabled":false,"rental_uris":{"android":"levelo://app?vid=d38ff2d1-1a80-4fc8-859c-2dac61b48930","ios":"levelo://app?vid=d38ff2d1-1a80-4fc8-859c-2dac61b48930"},"vehicle_type_id":"4","last_reported":1761851276,"current_range_meters":10000,"station_id":"ce4bh4p2rcd13ifvqe1g","pricing_plan_id":"cebpf4jnsgd1na2vs0mg"},{"bike_id":"559ca89b-bbf1-4d40-8d33-c31e546d2f30","system_id":"levelo_inurba_marseille","lat":43.28041,"lon":5.36948,"is_reserved":false,"is_disabled":false,"rental_uris":{"android":"levelo://app?vid=559ca89b-bbf1-4d40-8d33-c31e546d2f30","ios":"levelo://app?vid=559ca89b-bbf1-4d40-8d33-c31e546d2f30"},"vehicle_type_id":"4","last_reported":1761851276,"current_range_meters":10000,"station_id":"ce4bha12rcd13ifvqef0","pricing_plan_id":"cebpf4jnsgd1na2vs0mg"},{"bike_id":"3a217d2d-0c7e-4d79-a702-b9135e90946e","system_id":"levelo_inurba_marseille","lat":43.28151,"lon":5.4265,"is_reserved":false,"is_disabled":false,"rental_uris":{"android":"levelo://app?vid=3a217d2d-0c7e-4d79-a702-b9135e90946e","ios":"levelo://app?vid=3a217d2d-0c7e-4d79-a702-b9135e90946e"},"vehicle_type_id":"4","last_reported":1761851276,"current_range_meters":10000,"station_id":"ce4bhnh2rcd13ifvqgug","pricing_plan_id":"cebpf4jnsgd1na2vs0mg"},{"bike_id":"d2895202-baba-4689-98bf-daeb58d232b2","system_id":"levelo_inurba_marseille","lat":43.29785,"lon":5.3934,"is_reserved":false,"is_disabled":false,"rental_uris":{"android":"levelo://app?vid=d2895202-baba-4689-98bf-daeb58d232b2","ios":"levelo://app?vid=d2895202-baba-4689-98bf-daeb58d232b2"},"vehicle_type_id":"4","last_reported":1761851276,"current_range_meters":10000,"station_id":"chh1huq6cuj3fo74tm60","pricing_plan_id":"cebpf4jnsgd1na2vs0mg"},{"bike_id":"0db070e1-1eb7-4c02-b18a-6ea074a48fba","system_id":"levelo_inurba_marseille","lat":43.30734,"lon":5.42442,"is_reserved":false,"is_disabled":true,"rental_uris":{"android":"levelo://app?vid=0db070e1-1eb7-4c02-b18a-6ea074a48fba","ios":"levelo://app?vid=0db070e1-1eb7-4c02-b18a-6ea074a48fba"},"vehicle_type_id":"4","last_reported":1761851276,"current_range_meters":10800,"station_id":"st_cvj6ca6bvosntc0bfgr0","pricing_plan_id":"cebpf4jnsgd1na2vs0mg"},{"bike_id":"6fff56e2-dc33-4322-9554-e738206d1bc0","system_id":"levelo_inurba_marseille","lat":43.21206,"lon":5.35084,"is_reserved":false,"is_disabled":false,"rental_uris":{"android":"levelo://app?vid=6fff56e2-dc33-4322-9554-e738206d1bc0","ios":"levelo://app?vid=6fff56e2-dc33-4322-9554-e738206d1bc0"},"vehicle_type_id":"4","last_reported":1761851276,"current_range_meters":10800,"station_id":"st_cvj6sg6p6f1abm77japg","pricing_plan_id":"cebpf4jnsgd1na2vs0mg"},{"bike_id":"30a17922-7d79-428c-8d77-d345d5ea509e","system_id":"levelo_inurba_marseille","lat":43.26804,"lon":5.40271,"is_reserved":false,"is_disabled":false,"rental_uris":{"android":"levelo://app?vid=30a17922-7d79-428c-8d77-d345d5ea509e","ios":"levelo://app?vid=30a17922-7d79-428c-8d77-d345d5ea509e"},"vehicle_type_id":"4","last_reported":1761851276,"current_range_meters":10800,"station_id":"ce501612rcd8frsf0b60","pricing_plan_id":"cebpf4jnsgd1na2vs0mg"},{"bike_id":"c83dba91-74ec-421d-925f-c64df11dedef","system_id":"levelo_inurba_marseille","lat":43.29553,"lon":5.42293,"is_reserved":false,"is_disabled":false,"rental_uris":{"android":"levelo://app?vid=c83dba91-74ec-421d-925f-c64df11dedef","ios":"levelo://app?vid=c83dba91-74ec-421d-925f-c64df11dedef"},"vehicle_type_id":"4","last_reported":1761851276,"current_range_meters":10800,"station_id":"ce4bhph2rcd13ifvqhdg","pricing_plan_id":"cebpf4jnsgd1na2vs0mg"},{"bike_id":"9e3564a3-3b3b-4a4a-a9e5-f73e91e05ce8","system_id":"levelo_inurba_marseille","lat":43.30913,"lon":5.36806,"is_reserved":false,"is_disabled":true,"rental_uris":{"android":"levelo://app?vid=9e3564a3-3b3b-4a4a-a9e5-f73e91e05ce8","ios":"levelo://app?vid=9e3564a3-3b3b-4a4a-a9e5-f73e91e05ce8"},"vehicle_type_id":"4","last_reported":1761851276,"current_range_meters":10800,"station_id":"ce4bgn92rcd13ifvqbvg","pricing_plan_id":"cebpf4jnsgd1na2vs0mg"},{"bike_id":"2564e7ca-caf7-4657-b3dc-5323a2b9ca6f","system_id":"levelo_inurba_marseille","lat":43.29278,"lon":5.36841,"is_reserved":false,"is_disabled":false,"rental_uris":{"android":"levelo://app?vid=2564e7ca-caf7-4657-b3dc-5323a2b9ca6f","ios":"levelo://app?vid=2564e7ca-caf7-4657-b3dc-5323a2b9ca6f"},"vehicle_type_id":"4","last_reported":1761851276,"current_range_meters":10800,"station_id":"ce4bhbp2rcd13ifvqesg","pricing_plan_id":"cebpf4jnsgd1na2vs0mg"},{"bike_id":"c80620da-7cec-4dc4-a52c-793b45c9223b","system_id":"levelo_inurba_marseille","lat":43.30501,"lon":5.3649,"is_reserved":false,"is_disabled":false,"rental_uris":{"android":"levelo://app?vid=c80620da-7cec-4dc4-a52c-793b45c9223b","ios":"levelo://app?vid=c80620da-7cec-4dc4-a52c-793b45c9223b"},"vehicle_type_id":"4","last_reported":1761851276,"current_range_meters":10800,"station_id":"ce4bgs12rcd13ifvqcag","pricing_plan_id":"cebpf4jnsgd1na2vs0mg"},{"bike_id":"91d47420-8b83-4609-9b2f-c8c2fcc734b2","system_id":"levelo_inurba_marseille","lat":43.29254,"lon":5.38434,"is_reserved":false,"is_disabled":false,"rental_uris":{"android":"levelo://app?vid=91d47420-8b83-4609-9b2f-c8c2fcc734b2","ios":"levelo://app?vid=91d47420-8b83-4609-9b2f-c8c2fcc734b2"},"vehicle_type_id":"4","last_reported":1761851276,"current_range_meters":11200,"station_id":"ce4bh692rcd13ifvqea0","pricing_plan_id":"cebpf4jnsgd1na2vs0mg"},{"bike_id":"3126ce35-4101-4b06-a7b2-19548fb25089","system_id":"levelo_inurba_marseille","lat":43.21261,"lon":5.35066,"is_reserved":false,"is_disabled":false,"rental_uris":{"android":"levelo://app?vid=3126ce35-4101-4b06-a7b2-19548fb25089","ios":"levelo://app?vid=3126ce35-4101-4b06-a7b2-19548fb25089"},"vehicle_type_id":"4","last_reported":1761851276,"current_range_meters":11200,"station_id":"","pricing_plan_id":"cebpf4jnsgd1na2vs0mg"},{"bike_id":"08febbc2-f2b9-407d-891a-01f7a317e7b5","system_id":"levelo_inurba_marseille","lat":43.29259,"lon":5.38439,"is_reserved":false,"is_disabled":false,"rental_uris":{"android":"levelo://app?vid=08febbc2-f2b9-407d-891a-01f7a317e7b5","ios":"levelo://app?vid=08febbc2-f2b9-407d-891a-01f7a317e7b5"},"vehicle_type_id":"4","last_reported":1761851276,"current_range_meters":11200,"station_id":"ce4bh692rcd13ifvqea0","pricing_plan_id":"cebpf4jnsgd1na2vs0mg"},{"bike_id":"e1e2a457-df19-4b98-90a8-25aeb1c4995a","system_id":"levelo_inurba_marseille","lat":43.26028,"lon":5.41744,"is_reserved":false,"is_disabled":false,"rental_uris":{"android":"levelo://app?vid=e1e2a457-df19-4b98-90a8-25aeb1c4995a","ios":"levelo://app?vid=e1e2a457-df19-4b98-90a8-25aeb1c4995a"},"vehicle_type_id":"4","last_reported":1761851276,"current_range_meters":11600,"station_id":"","pricing_plan_id":"cebpf4jnsgd1na2vs0mg"},{"bike_id":"6d1612f2-7667-498b-8d9f-2f13d44d0b3c","system_id":"levelo_inurba_marseille","lat":43.2952,"lon":5.390355,"is_reserved":false,"is_disabled":false,"rental_uris":{"android":"levelo://app?vid=6d1612f2-7667-498b-8d9f-2f13d44d0b3c","ios":"levelo://app?vid=6d1612f2-7667-498b-8d9f-2f13d44d0b3c"},"vehicle_type_id":"4","last_reported":1761851276,"current_range_meters":11600,"station_id":"ce4bgjh2rcd13ifvqbg0","pricing_plan_id":"cebpf4jnsgd1na2vs0mg"},{"bike_id":"558c8148-7bbd-4e99-974c-ccf6eec88a4e","system_id":"levelo_inurba_marseille","lat":43.283574,"lon":5.350138,"is_reserved":false,"is_disabled":false,"rental_uris":{"android":"levelo://app?vid=558c8148-7bbd-4e99-974c-ccf6eec88a4e","ios":"levelo://app?vid=558c8148-7bbd-4e99-974c-ccf6eec88a4e"},"vehicle_type_id":"4","last_reported":1761851276,"current_range_meters":11600,"station_id":"ce4bhbp2rcd13ifvqerg","pricing_plan_id":"cebpf4jnsgd1na2vs0mg"},{"bike_id":"22fcd177-d227-44bd-b74f-eeb1d40e190d","system_id":"levelo_inurba_marseille","lat":43.29264,"lon":5.38435,"is_reserved":false,"is_disabled":false,"rental_uris":{"android":"levelo://app?vid=22fcd177-d227-44bd-b74f-eeb1d40e190d","ios":"levelo://app?vid=22fcd177-d227-44bd-b74f-eeb1d40e190d"},"vehicle_type_id":"4","last_reported":1761851276,"current_range_meters":11600,"station_id":"ce4bh692rcd13ifvqea0","pricing_plan_id":"cebpf4jnsgd1na2vs0mg"},{"bike_id":"af3f04b2-121c-41ff-b5c5-63b2f1d7483c","system_id":"levelo_inurba_marseille","lat":43.231892,"lon":5.400132,"is_reserved":false,"is_disabled":false,"rental_uris":{"android":"levelo://app?vid=af3f04b2-121c-41ff-b5c5-63b2f1d7483c","ios":"levelo://app?vid=af3f04b2-121c-41ff-b5c5-63b2f1d7483c"},"vehicle_type_id":"4","last_reported":1761851276,"current_range_meters":11600,"station_id":"ce4bhn12rcd13ifvqgqg","pricing_plan_id":"cebpf4jnsgd1na2vs0mg"},{"bike_id":"606d77d9-043f-4319-89ea-a060c777a8e5","system_id":"levelo_inurba_marseille","lat":43.33028,"lon":5.39042,"is_reserved":false,"is_disabled":false,"rental_uris":{"android":"levelo://app?vid=606d77d9-043f-4319-89ea-a060c777a8e5","ios":"levelo://app?vid=606d77d9-043f-4319-89ea-a060c777a8e5"},"vehicle_type_id":"4","last_reported":1761851276,"current_range_meters":11600,"station_id":"ce4bhr92rcd13ifvqhrg","pricing_plan_id":"cebpf4jnsgd1na2vs0mg"},{"bike_id":"582b58c1-ce25-421b-902c-cd3c9cde1895","system_id":"levelo_inurba_marseille","lat":43.288671,"lon":5.425185,"is_reserved":false,"is_disabled":false,"rental_uris":{"android":"levelo://app?vid=582b58c1-ce25-421b-902c-cd3c9cde1895","ios":"levelo://app?vid=582b58c1-ce25-421b-902c-cd3c9cde1895"},"vehicle_type_id":"4","last_reported":1761851276,"current_range_meters":11600,"station_id":"st_d3b462108ojc7389ooeg","pricing_plan_id":"cebpf4jnsgd1na2vs0mg"},{"bike_id":"1a297e68-412b-450c-aa02-a9ec00e5c81e","system_id":"levelo_inurba_marseille","lat":43.30069,"lon":5.36906,"is_reserved":false,"is_disabled":false,"rental_uris":{"android":"levelo://app?vid=1a297e68-412b-450c-aa02-a9ec00e5c81e","ios":"levelo://app?vid=1a297e68-412b-450c-aa02-a9ec00e5c81e"},"vehicle_type_id":"4","last_reported":1761851276,"current_range_meters":11600,"station_id":"","pricing_plan_id":"cebpf4jnsgd1na2vs0mg"},{"bike_id":"e7fbda8d-e4b1-4d1d-8e59-650ead40058d","system_id":"levelo_inurba_marseille","lat":43.246435,"lon":5.431474,"is_reserved":false,"is_disabled":false,"rental_uris":{"android":"levelo://app?vid=e7fbda8d-e4b1-4d1d-8e59-650ead40058d","ios":"levelo://app?vid=e7fbda8d-e4b1-4d1d-8e59-650ead40058d"},"vehicle_type_id":"4","last_reported":1761851276,"current_range_meters":12000,"station_id":"st_d2m6c4gdas8pm72e190g","pricing_plan_id":"cebpf4jnsgd1na2vs0mg"},{"bike_id":"22219237-c8df-4ea1-8cfc-d971c5dcd449","system_id":"levelo_inurba_marseille","lat":43.240723,"lon":5.37766,"is_reserved":false,"is_disabled":false,"rental_uris":{"android":"levelo://app?vid=22219237-c8df-4ea1-8cfc-d971c5dcd449","ios":"levelo://app?vid=22219237-c8df-4ea1-8cfc-d971c5dcd449"},"vehicle_type_id":"4","last_reported":1761851276,"current_range_meters":12000,"station_id":"ce4bhnp2rcd13ifvqgvg","pricing_plan_id":"cebpf4jnsgd1na2vs0mg"},{"bike_id":"003dc589-afc6-47c4-a84a-e90cd5f91109","system_id":"levelo_inurba_marseille","lat":43.295337,"lon":5.390288,"is_reserved":false,"is_disabled":true,"rental_uris":{"android":"levelo://app?vid=003dc589-afc6-47c4-a84a-e90cd5f91109","ios":"levelo://app?vid=003dc589-afc6-47c4-a84a-e90cd5f91109"},"vehicle_type_id":"4","last_reported":1761851276,"current_range_meters":12000,"station_id":"ce4bh3p2rcd13ifvqdp0","pricing_plan_id":"cebpf4jnsgd1na2vs0mg"},{"bike_id":"293a366c-ad33-464f-be66-4c308271167a","system_id":"levelo_inurba_marseille","lat":43.24169,"lon":5.36399,"is_reserved":false,"is_disabled":false,"rental_uris":{"android":"levelo://app?vid=293a366c-ad33-464f-be66-4c308271167a","ios":"levelo://app?vid=293a366c-ad33-464f-be66-4c308271167a"},"vehicle_type_id":"4","last_reported":1761851276,"current_range_meters":12000,"station_id":"cpo36qri1sfpv3e86is0","pricing_plan_id":"cebpf4jnsgd1na2vs0mg"},{"bike_id":"235f0047-064b-49af-afd8-a51bd26e1caf","system_id":"levelo_inurba_marseille","lat":43.27066,"lon":5.42273,"is_reserved":false,"is_disabled":false,"rental_uris":{"android":"levelo://app?vid=235f0047-064b-49af-afd8-a51bd26e1caf","ios":"levelo://app?vid=235f0047-064b-49af-afd8-a51bd26e1caf"},"vehicle_type_id":"4","last_reported":1761851276,"current_range_meters":12000,"station_id":"ce4bhk92rcd13ifvqgb0","pricing_plan_id":"cebpf4jnsgd1na2vs0mg"},{"bike_id":"2154cf72-7850-436e-b936-4dc563f20840","system_id":"levelo_inurba_marseille","lat":43.29021,"lon":5.3863,"is_reserved":false,"is_disabled":false,"rental_uris":{"android":"levelo://app?vid=2154cf72-7850-436e-b936-4dc563f20840","ios":"levelo://app?vid=2154cf72-7850-436e-b936-4dc563f20840"},"vehicle_type_id":"4","last_reported":1761851276,"current_range_meters":12400,"station_id":"ce4bh4p2rcd13ifvqe0g","pricing_plan_id":"cebpf4jnsgd1na2vs0mg"},{"bike_id":"2b068601-91e8-4670-a4e3-068638b00800","system_id":"levelo_inurba_marseille","lat":43.29611,"lon":5.38104,"is_reserved":false,"is_disabled":false,"rental_uris":{"android":"levelo://app?vid=2b068601-91e8-4670-a4e3-068638b00800","ios":"levelo://app?vid=2b068601-91e8-4670-a4e3-068638b00800"},"vehicle_type_id":"4","last_reported":1761851276,"current_range_meters":12400,"station_id":"ce4bgl12rcd13ifvqbo0","pricing_plan_id":"cebpf4jnsgd1na2vs0mg"},{"bike_id":"1cb261de-c77d-4c7f-bb2c-990bd1edf4e7","system_id":"levelo_inurba_marseille","lat":43.289235,"lon":5.38392,"is_reserved":false,"is_disabled":false,"rental_uris":{"android":"levelo://app?vid=1cb261de-c77d-4c7f-bb2c-990bd1edf4e7","ios":"levelo://app?vid=1cb261de-c77d-4c7f-bb2c-990bd1edf4e7"},"vehicle_type_id":"4","last_reported":1761851276,"current_range_meters":12400,"station_id":"ce4bh612rcd13ifvqe6g","pricing_plan_id":"cebpf4jnsgd1na2vs0mg"},{"bike_id":"a4d8cee7-6543-41ac-81cf-b4e0b71a2eb3","system_id":"levelo_inurba_marseille","lat":43.28485,"lon":5.3856,"is_reserved":false,"is_disabled":false,"rental_uris":{"android":"levelo://app?vid=a4d8cee7-6543-41ac-81cf-b4e0b71a2eb3","ios":"levelo://app?vid=a4d8cee7-6543-41ac-81cf-b4e0b71a2eb3"},"vehicle_type_id":"4","last_reported":1761851276,"current_range_meters":12400,"station_id":"ce4bh8p2rcd13ifvqeb0","pricing_plan_id":"cebpf4jnsgd1na2vs0mg"},{"bike_id":"5b8bd8bc-e548-4aa5-a737-db3f6403521b","system_id":"levelo_inurba_marseille","lat":43.2916,"lon":5.38269,"is_reserved":false,"is_disabled":false,"rental_uris":{"android":"levelo://app?vid=5b8bd8bc-e548-4aa5-a737-db3f6403521b","ios":"levelo://app?vid=5b8bd8bc-e548-4aa5-a737-db3f6403521b"},"vehicle_type_id":"4","last_reported":1761851276,"current_range_meters":12400,"station_id":"","pricing_plan_id":"cebpf4jnsgd1na2vs0mg"},{"bike_id":"f6946de9-6fd5-486c-846e-6aac0ac8e59f","system_id":"levelo_inurba_marseille","lat":43.212,"lon":5.35078,"is_reserved":false,"is_disabled":false,"rental_uris":{"android":"levelo://app?vid=f6946de9-6fd5-486c-846e-6aac0ac8e59f","ios":"levelo://app?vid=f6946de9-6fd5-486c-846e-6aac0ac8e59f"},"vehicle_type_id":"4","last_reported":1761851276,"current_range_meters":12400,"station_id":"st_cvj6sg6p6f1abm77japg","pricing_plan_id":"cebpf4jnsgd1na2vs0mg"},{"bike_id":"0dc2677d-52f3-4c3e-a4eb-af7b96f166b0","system_id":"levelo_inurba_marseille","lat":43.29034,"lon":5.38639,"is_reserved":false,"is_disabled":false,"rental_uris":{"android":"levelo://app?vid=0dc2677d-52f3-4c3e-a4eb-af7b96f166b0","ios":"levelo://app?vid=0dc2677d-52f3-4c3e-a4eb-af7b96f166b0"},"vehicle_type_id":"4","last_reported":1761851276,"current_range_meters":12400,"station_id":"ce4bh4p2rcd13ifvqe0g","pricing_plan_id":"cebpf4jnsgd1na2vs0mg"},{"bike_id":"ec89f62a-6cd9-4c98-9c10-1a29ed17a20a","system_id":"levelo_inurba_marseille","lat":43.29246,"lon":5.38428,"is_reserved":false,"is_disabled":false,"rental_uris":{"android":"levelo://app?vid=ec89f62a-6cd9-4c98-9c10-1a29ed17a20a","ios":"levelo://app?vid=ec89f62a-6cd9-4c98-9c10-1a29ed17a20a"},"vehicle_type_id":"4","last_reported":1761851276,"current_range_meters":12400,"station_id":"ce4bh692rcd13ifvqea0","pricing_plan_id":"cebpf4jnsgd1na2vs0mg"},{"bike_id":"a81d2963-e786-47dc-8363-d003bc6694fb","system_id":"levelo_inurba_marseille","lat":43.29786,"lon":5.38135,"is_reserved":false,"is_disabled":false,"rental_uris":{"android":"levelo://app?vid=a81d2963-e786-47dc-8363-d003bc6694fb","ios":"levelo://app?vid=a81d2963-e786-47dc-8363-d003bc6694fb"},"vehicle_type_id":"4","last_reported":1761851276,"current_range_meters":12400,"station_id":"ce4bgip2rcd13ifvqbb0","pricing_plan_id":"cebpf4jnsgd1na2vs0mg"},{"bike_id":"04d817b9-3e24-4734-82b2-b5857dcbd3ee","system_id":"levelo_inurba_marseille","lat":43.24069,"lon":5.37758,"is_reserved":false,"is_disabled":false,"rental_uris":{"android":"levelo://app?vid=04d817b9-3e24-4734-82b2-b5857dcbd3ee","ios":"levelo://app?vid=04d817b9-3e24-4734-82b2-b5857dcbd3ee"},"vehicle_type_id":"4","last_reported":1761851276,"current_range_meters":12800,"station_id":"ce4bhnp2rcd13ifvqgvg","pricing_plan_id":"cebpf4jnsgd1na2vs0mg"},{"bike_id":"e43a9cd2-21d7-4cf6-a759-05b557878143","system_id":"levelo_inurba_marseille","lat":43.24632,"lon":5.43144,"is_reserved":false,"is_disabled":false,"rental_uris":{"android":"levelo://app?vid=e43a9cd2-21d7-4cf6-a759-05b557878143","ios":"levelo://app?vid=e43a9cd2-21d7-4cf6-a759-05b557878143"},"vehicle_type_id":"4","last_reported":1761851276,"current_range_meters":12800,"station_id":"st_d2m6c4gdas8pm72e190g","pricing_plan_id":"cebpf4jnsgd1na2vs0mg"},{"bike_id":"d797e0fe-e559-4cdd-b317-e6dda622464a","system_id":"levelo_inurba_marseille","lat":43.29544,"lon":5.38538,"is_reserved":false,"is_disabled":false,"rental_uris":{"android":"levelo://app?vid=d797e0fe-e559-4cdd-b317-e6dda622464a","ios":"levelo://app?vid=d797e0fe-e559-4cdd-b317-e6dda622464a"},"vehicle_type_id":"4","last_reported":1761851276,"current_range_meters":12800,"station_id":"ce4bgih2rcd13ifvqba0","pricing_plan_id":"cebpf4jnsgd1na2vs0mg"},{"bike_id":"682b657e-70fa-4a1b-94e0-cc8283fbecf0","system_id":"levelo_inurba_marseille","lat":43.28405,"lon":5.37506,"is_reserved":false,"is_disabled":false,"rental_uris":{"android":"levelo://app?vid=682b657e-70fa-4a1b-94e0-cc8283fbecf0","ios":"levelo://app?vid=682b657e-70fa-4a1b-94e0-cc8283fbecf0"},"vehicle_type_id":"4","last_reported":1761851276,"current_range_meters":12800,"station_id":"ce4bh412rcd13ifvqds0","pricing_plan_id":"cebpf4jnsgd1na2vs0mg"},{"bike_id":"832f8360-f0a1-43f7-8c58-03a9849f627c","system_id":"levelo_inurba_marseille","lat":43.295375,"lon":5.385417,"is_reserved":false,"is_disabled":false,"rental_uris":{"android":"levelo://app?vid=832f8360-f0a1-43f7-8c58-03a9849f627c","ios":"levelo://app?vid=832f8360-f0a1-43f7-8c58-03a9849f627c"},"vehicle_type_id":"4","last_reported":1761851276,"current_range_meters":13600,"station_id":"ce4bgih2rcd13ifvqba0","pricing_plan_id":"cebpf4jnsgd1na2vs0mg"},{"bike_id":"2ec8fd1b-3b42-4f93-a828-68bd711efa51","system_id":"levelo_inurba_marseille","lat":43.24649,"lon":5.43147,"is_reserved":false,"is_disabled":false,"rental_uris":{"android":"levelo://app?vid=2ec8fd1b-3b42-4f93-a828-68bd711efa51","ios":"levelo://app?vid=2ec8fd1b-3b42-4f93-a828-68bd711efa51"},"vehicle_type_id":"4","last_reported":1761851276,"current_range_meters":13600,"station_id":"st_d2m6c4gdas8pm72e190g","pricing_plan_id":"cebpf4jnsgd1na2vs0mg"},{"bike_id":"f6bc67db-3f2b-4499-826e-a6540a236ed4","system_id":"levelo_inurba_marseille","lat":43.29254,"lon":5.38436,"is_reserved":false,"is_disabled":false,"rental_uris":{"android":"levelo://app?vid=f6bc67db-3f2b-4499-826e-a6540a236ed4","ios":"levelo://app?vid=f6bc67db-3f2b-4499-826e-a6540a236ed4"},"vehicle_type_id":"4","last_reported":1761851276,"current_range_meters":13600,"station_id":"ce4bh692rcd13ifvqea0","pricing_plan_id":"cebpf4jnsgd1na2vs0mg"},{"bike_id":"9defbb15-d011-4586-b843-94166d3290cd","system_id":"levelo_inurba_marseille","lat":43.302943,"lon":5.400455,"is_reserved":false,"is_disabled":false,"rental_uris":{"android":"levelo://app?vid=9defbb15-d011-4586-b843-94166d3290cd","ios":"levelo://app?vid=9defbb15-d011-4586-b843-94166d3290cd"},"vehicle_type_id":"4","last_reported":1761851276,"current_range_meters":13600,"station_id":"ce4bgvh2rcd13ifvqcs0","pricing_plan_id":"cebpf4jnsgd1na2vs0mg"},{"bike_id":"bf3d96a9-7970-4897-8b39-805b6dbc6010","system_id":"levelo_inurba_marseille","lat":43.24799,"lon":5.37458,"is_reserved":false,"is_disabled":false,"rental_uris":{"android":"levelo://app?vid=bf3d96a9-7970-4897-8b39-805b6dbc6010","ios":"levelo://app?vid=bf3d96a9-7970-4897-8b39-805b6dbc6010"},"vehicle_type_id":"4","last_reported":1761851276,"current_range_meters":13600,"station_id":"ce4bhgh2rcd13ifvqfb0","pricing_plan_id":"cebpf4jnsgd1na2vs0mg"},{"bike_id":"39aa96f9-b884-4603-af60-6e9a06e3921d","system_id":"levelo_inurba_marseille","lat":43.25874,"lon":5.39894,"is_reserved":false,"is_disabled":false,"rental_uris":{"android":"levelo://app?vid=39aa96f9-b884-4603-af60-6e9a06e3921d","ios":"levelo://app?vid=39aa96f9-b884-4603-af60-6e9a06e3921d"},"vehicle_type_id":"4","last_reported":1761851276,"current_range_meters":13600,"station_id":"ce4bhl92rcd13ifvqghg","pricing_plan_id":"cebpf4jnsgd1na2vs0mg"},{"bike_id":"d69f9667-4125-4530-bc1f-277c11102b90","system_id":"levelo_inurba_marseille","lat":43.2952,"lon":5.39399,"is_reserved":false,"is_disabled":false,"rental_uris":{"android":"levelo://app?vid=d69f9667-4125-4530-bc1f-277c11102b90","ios":"levelo://app?vid=d69f9667-4125-4530-bc1f-277c11102b90"},"vehicle_type_id":"4","last_reported":1761851276,"current_range_meters":13600,"station_id":"ce4bh292rcd13ifvqdf0","pricing_plan_id":"cebpf4jnsgd1na2vs0mg"},{"bike_id":"3b133dcb-711e-481b-ae05-523d167a8be2","system_id":"levelo_inurba_marseille","lat":43.297824,"lon":5.381233,"is_reserved":false,"is_disabled":false,"rental_uris":{"android":"levelo://app?vid=3b133dcb-711e-481b-ae05-523d167a8be2","ios":"levelo://app?vid=3b133dcb-711e-481b-ae05-523d167a8be2"},"vehicle_type_id":"4","last_reported":1761851276,"current_range_meters":13600,"station_id":"ce4bh392rcd13ifvqdm0","pricing_plan_id":"cebpf4jnsgd1na2vs0mg"},{"bike_id":"81ce8fac-c29e-44dc-ac54-01b5094704df","system_id":"levelo_inurba_marseille","lat":43.30059,"lon":5.36882,"is_reserved":false,"is_disabled":false,"rental_uris":{"android":"levelo://app?vid=81ce8fac-c29e-44dc-ac54-01b5094704df","ios":"levelo://app?vid=81ce8fac-c29e-44dc-ac54-01b5094704df"},"vehicle_type_id":"4","last_reported":1761851276,"current_range_meters":13600,"station_id":"","pricing_plan_id":"cebpf4jnsgd1na2vs0mg"},{"bike_id":"a159c7fa-4c33-479a-9130-82f09aa8b34d","system_id":"levelo_inurba_marseille","lat":43.25093,"lon":5.39517,"is_reserved":false,"is_disabled":false,"rental_uris":{"android":"levelo://app?vid=a159c7fa-4c33-479a-9130-82f09aa8b34d","ios":"levelo://app?vid=a159c7fa-4c33-479a-9130-82f09aa8b34d"},"vehicle_type_id":"4","last_reported":1761851276,"current_range_meters":13600,"station_id":"ce4bhm12rcd13ifvqgkg","pricing_plan_id":"cebpf4jnsgd1na2vs0mg"},{"bike_id":"2eddd05f-f3cc-4c49-97c5-24d53aa3135d","system_id":"levelo_inurba_marseille","lat":43.28358,"lon":5.38631,"is_reserved":false,"is_disabled":false,"rental_uris":{"android":"levelo://app?vid=2eddd05f-f3cc-4c49-97c5-24d53aa3135d","ios":"levelo://app?vid=2eddd05f-f3cc-4c49-97c5-24d53aa3135d"},"vehicle_type_id":"4","last_reported":1761851276,"current_range_meters":14000,"station_id":"ce4bh492rcd13ifvqdvg","pricing_plan_id":"cebpf4jnsgd1na2vs0mg"},{"bike_id":"49eabeb8-91e9-4fed-9256-a94ef104e5f4","system_id":"levelo_inurba_marseille","lat":43.29587,"lon":5.36728,"is_reserved":false,"is_disabled":false,"rental_uris":{"android":"levelo://app?vid=49eabeb8-91e9-4fed-9256-a94ef104e5f4","ios":"levelo://app?vid=49eabeb8-91e9-4fed-9256-a94ef104e5f4"},"vehicle_type_id":"4","last_reported":1761851276,"current_range_meters":14000,"station_id":"ce4bgph2rcd13ifvqc2g","pricing_plan_id":"cebpf4jnsgd1na2vs0mg"},{"bike_id":"a18dbf48-2c4d-4fa4-a4c5-c9871d73c9a0","system_id":"levelo_inurba_marseille","lat":43.301994,"lon":5.383462,"is_reserved":false,"is_disabled":false,"rental_uris":{"android":"levelo://app?vid=a18dbf48-2c4d-4fa4-a4c5-c9871d73c9a0","ios":"levelo://app?vid=a18dbf48-2c4d-4fa4-a4c5-c9871d73c9a0"},"vehicle_type_id":"4","last_reported":1761851276,"current_range_meters":14000,"station_id":"ce4bgup2rcd13ifvqcn0","pricing_plan_id":"cebpf4jnsgd1na2vs0mg"},{"bike_id":"4c1b2049-b590-4ae2-a090-9d731b00e193","system_id":"levelo_inurba_marseille","lat":43.27068,"lon":5.42267,"is_reserved":false,"is_disabled":false,"rental_uris":{"android":"levelo://app?vid=4c1b2049-b590-4ae2-a090-9d731b00e193","ios":"levelo://app?vid=4c1b2049-b590-4ae2-a090-9d731b00e193"},"vehicle_type_id":"4","last_reported":1761851276,"current_range_meters":14000,"station_id":"ce4bhk92rcd13ifvqgb0","pricing_plan_id":"cebpf4jnsgd1na2vs0mg"},{"bike_id":"00b41538-c9d9-4420-8041-35a4ffe3fd99","system_id":"levelo_inurba_marseille","lat":43.3229,"lon":5.38273,"is_reserved":false,"is_disabled":false,"rental_uris":{"android":"levelo://app?vid=00b41538-c9d9-4420-8041-35a4ffe3fd99","ios":"levelo://app?vid=00b41538-c9d9-4420-8041-35a4ffe3fd99"},"vehicle_type_id":"4","last_reported":1761851276,"current_range_meters":14000,"station_id":"ce4bhr12rcd13ifvqhqg","pricing_plan_id":"cebpf4jnsgd1na2vs0mg"},{"bike_id":"71da322f-7555-4dc3-bd8a-80fe63f21dfd","system_id":"levelo_inurba_marseille","lat":43.292542,"lon":5.384351,"is_reserved":false,"is_disabled":false,"rental_uris":{"android":"levelo://app?vid=71da322f-7555-4dc3-bd8a-80fe63f21dfd","ios":"levelo://app?vid=71da322f-7555-4dc3-bd8a-80fe63f21dfd"},"vehicle_type_id":"4","last_reported":1761851276,"current_range_meters":14000,"station_id":"ce4bh692rcd13ifvqea0","pricing_plan_id":"cebpf4jnsgd1na2vs0mg"},{"bike_id":"bc3981fb-0306-4c55-9f42-c46f8c568402","system_id":"levelo_inurba_marseille","lat":43.31075,"lon":5.37579,"is_reserved":false,"is_disabled":false,"rental_uris":{"android":"levelo://app?vid=bc3981fb-0306-4c55-9f42-c46f8c568402","ios":"levelo://app?vid=bc3981fb-0306-4c55-9f42-c46f8c568402"},"vehicle_type_id":"4","last_reported":1761851276,"current_range_meters":14000,"station_id":"","pricing_plan_id":"cebpf4jnsgd1na2vs0mg"},{"bike_id":"7f597b80-e60b-4d55-8e6a-3e68b1031742","system_id":"levelo_inurba_marseille","lat":43.25072,"lon":5.39514,"is_reserved":false,"is_disabled":false,"rental_uris":{"android":"levelo://app?vid=7f597b80-e60b-4d55-8e6a-3e68b1031742","ios":"levelo://app?vid=7f597b80-e60b-4d55-8e6a-3e68b1031742"},"vehicle_type_id":"4","last_reported":1761851276,"current_range_meters":14400,"station_id":"ce4bhm12rcd13ifvqgkg","pricing_plan_id":"cebpf4jnsgd1na2vs0mg"},{"bike_id":"9b93b5e1-c939-4745-bf85-2d21945442dc","system_id":"levelo_inurba_marseille","lat":43.29996,"lon":5.36414,"is_reserved":false,"is_disabled":false,"rental_uris":{"android":"levelo://app?vid=9b93b5e1-c939-4745-bf85-2d21945442dc","ios":"levelo://app?vid=9b93b5e1-c939-4745-bf85-2d21945442dc"},"vehicle_type_id":"4","last_reported":1761851276,"current_range_meters":14400,"station_id":"","pricing_plan_id":"cebpf4jnsgd1na2vs0mg"},{"bike_id":"0580203d-7e97-472d-85ae-5526b7736d19","system_id":"levelo_inurba_marseille","lat":43.28126,"lon":5.37834,"is_reserved":false,"is_disabled":false,"rental_uris":{"android":"levelo://app?vid=0580203d-7e97-472d-85ae-5526b7736d19","ios":"levelo://app?vid=0580203d-7e97-472d-85ae-5526b7736d19"},"vehicle_type_id":"4","last_reported":1761851276,"current_range_meters":14400,"station_id":"ce4bha12rcd13ifvqee0","pricing_plan_id":"cebpf4jnsgd1na2vs0mg"},{"bike_id":"567bec50-d87e-47a8-be14-12fb0a8eec52","system_id":"levelo_inurba_marseille","lat":43.29021,"lon":5.3812,"is_reserved":false,"is_disabled":false,"rental_uris":{"android":"levelo://app?vid=567bec50-d87e-47a8-be14-12fb0a8eec52","ios":"levelo://app?vid=567bec50-d87e-47a8-be14-12fb0a8eec52"},"vehicle_type_id":"4","last_reported":1761851276,"current_range_meters":14400,"station_id":"ce4bh4p2rcd13ifvqe1g","pricing_plan_id":"cebpf4jnsgd1na2vs0mg"},{"bike_id":"a0d564f2-5ac0-4238-b3be-1fed830781ea","system_id":"levelo_inurba_marseille","lat":43.273801,"lon":5.362358,"is_reserved":false,"is_disabled":false,"rental_uris":{"android":"levelo://app?vid=a0d564f2-5ac0-4238-b3be-1fed830781ea","ios":"levelo://app?vid=a0d564f2-5ac0-4238-b3be-1fed830781ea"},"vehicle_type_id":"4","last_reported":1761851276,"current_range_meters":14400,"station_id":"","pricing_plan_id":"cebpf4jnsgd1na2vs0mg"},{"bike_id":"4ec7ed88-f442-4903-86b9-fba3a44d2262","system_id":"levelo_inurba_marseille","lat":43.30421,"lon":5.39758,"is_reserved":false,"is_disabled":false,"rental_uris":{"android":"levelo://app?vid=4ec7ed88-f442-4903-86b9-fba3a44d2262","ios":"levelo://app?vid=4ec7ed88-f442-4903-86b9-fba3a44d2262"},"vehicle_type_id":"4","last_reported":1761851276,"current_range_meters":14400,"station_id":"ce4bh092rcd13ifvqd20","pricing_plan_id":"cebpf4jnsgd1na2vs0mg"},{"bike_id":"93276f62-73de-4cca-b4f6-1f053030968c","system_id":"levelo_inurba_marseille","lat":43.29248,"lon":5.38439,"is_reserved":false,"is_disabled":false,"rental_uris":{"android":"levelo://app?vid=93276f62-73de-4cca-b4f6-1f053030968c","ios":"levelo://app?vid=93276f62-73de-4cca-b4f6-1f053030968c"},"vehicle_type_id":"4","last_reported":1761851276,"current_range_meters":14400,"station_id":"ce4bh692rcd13ifvqea0","pricing_plan_id":"cebpf4jnsgd1na2vs0mg"},{"bike_id":"c0a1ab8d-72ff-4114-b274-fdab8f1c3cb0","system_id":"levelo_inurba_marseille","lat":43.24686,"lon":5.38189,"is_reserved":false,"is_disabled":false,"rental_uris":{"android":"levelo://app?vid=c0a1ab8d-72ff-4114-b274-fdab8f1c3cb0","ios":"levelo://app?vid=c0a1ab8d-72ff-4114-b274-fdab8f1c3cb0"},"vehicle_type_id":"4","last_reported":1761851276,"current_range_meters":14800,"station_id":"ce4bhih2rcd13ifvqfr0","pricing_plan_id":"cebpf4jnsgd1na2vs0mg"},{"bike_id":"a0225ff1-ee83-4f66-9db2-6a397e641566","system_id":"levelo_inurba_marseille","lat":43.29256,"lon":5.38442,"is_reserved":false,"is_disabled":false,"rental_uris":{"android":"levelo://app?vid=a0225ff1-ee83-4f66-9db2-6a397e641566","ios":"levelo://app?vid=a0225ff1-ee83-4f66-9db2-6a397e641566"},"vehicle_type_id":"4","last_reported":1761851276,"current_range_meters":14800,"station_id":"ce4bh692rcd13ifvqea0","pricing_plan_id":"cebpf4jnsgd1na2vs0mg"},{"bike_id":"4d7d62ab-4ac7-4f11-a006-c751970e74e0","system_id":"levelo_inurba_marseille","lat":43.25338,"lon":5.4217,"is_reserved":false,"is_disabled":false,"rental_uris":{"android":"levelo://app?vid=4d7d62ab-4ac7-4f11-a006-c751970e74e0","ios":"levelo://app?vid=4d7d62ab-4ac7-4f11-a006-c751970e74e0"},"vehicle_type_id":"4","last_reported":1761851276,"current_range_meters":14800,"station_id":"st_d2m65c5bi1j21697t3ng","pricing_plan_id":"cebpf4jnsgd1na2vs0mg"},{"bike_id":"1a816e40-8c37-414d-bdcb-47d46f861ccd","system_id":"levelo_inurba_marseille","lat":43.25247,"lon":5.42206,"is_reserved":false,"is_disabled":false,"rental_uris":{"android":"levelo://app?vid=1a816e40-8c37-414d-bdcb-47d46f861ccd","ios":"levelo://app?vid=1a816e40-8c37-414d-bdcb-47d46f861ccd"},"vehicle_type_id":"4","last_reported":1761851276,"current_range_meters":14800,"station_id":"st_d2m65c5bi1j21697t3ng","pricing_plan_id":"cebpf4jnsgd1na2vs0mg"},{"bike_id":"73c4f0c4-b81c-45d8-8fd1-2381c5bd0d29","system_id":"levelo_inurba_marseille","lat":43.31885,"lon":5.4074,"is_reserved":false,"is_disabled":false,"rental_uris":{"android":"levelo://app?vid=73c4f0c4-b81c-45d8-8fd1-2381c5bd0d29","ios":"levelo://app?vid=73c4f0c4-b81c-45d8-8fd1-2381c5bd0d29"},"vehicle_type_id":"4","last_reported":1761851276,"current_range_meters":14800,"station_id":"ce4bhq12rcd13ifvqhig","pricing_plan_id":"cebpf4jnsgd1na2vs0mg"},{"bike_id":"cb4434ef-8f35-48b1-a114-619cac4c7712","system_id":"levelo_inurba_marseille","lat":43.29257,"lon":5.38434,"is_reserved":false,"is_disabled":false,"rental_uris":{"android":"levelo://app?vid=cb4434ef-8f35-48b1-a114-619cac4c7712","ios":"levelo://app?vid=cb4434ef-8f35-48b1-a114-619cac4c7712"},"vehicle_type_id":"4","last_reported":1761851276,"current_range_meters":14800,"station_id":"ce4bh692rcd13ifvqea0","pricing_plan_id":"cebpf4jnsgd1na2vs0mg"},{"bike_id":"d01dfe13-3fa5-4a73-a22b-264e24579327","system_id":"levelo_inurba_marseille","lat":43.298944,"lon":5.388085,"is_reserved":false,"is_disabled":false,"rental_uris":{"android":"levelo://app?vid=d01dfe13-3fa5-4a73-a22b-264e24579327","ios":"levelo://app?vid=d01dfe13-3fa5-4a73-a22b-264e24579327"},"vehicle_type_id":"4","last_reported":1761851276,"current_range_meters":14800,"station_id":"ce4bgj92rcd13ifvqbd0","pricing_plan_id":"cebpf4jnsgd1na2vs0mg"},{"bike_id":"d2a1fa33-61e6-4c3d-8c83-2d3b321a39d4","system_id":"levelo_inurba_marseille","lat":43.24652,"lon":5.388907,"is_reserved":false,"is_disabled":false,"rental_uris":{"android":"levelo://app?vid=d2a1fa33-61e6-4c3d-8c83-2d3b321a39d4","ios":"levelo://app?vid=d2a1fa33-61e6-4c3d-8c83-2d3b321a39d4"},"vehicle_type_id":"4","last_reported":1761851276,"current_range_meters":14800,"station_id":"ce4bhg12rcd13ifvqf60","pricing_plan_id":"cebpf4jnsgd1na2vs0mg"},{"bike_id":"b61e1e59-261f-4781-9885-10fc3dd1eaf7","system_id":"levelo_inurba_marseille","lat":43.30485,"lon":5.36919,"is_reserved":false,"is_disabled":false,"rental_uris":{"android":"levelo://app?vid=b61e1e59-261f-4781-9885-10fc3dd1eaf7","ios":"levelo://app?vid=b61e1e59-261f-4781-9885-10fc3dd1eaf7"},"vehicle_type_id":"4","last_reported":1761851276,"current_range_meters":14800,"station_id":"","pricing_plan_id":"cebpf4jnsgd1na2vs0mg"},{"bike_id":"13b5bebc-2277-4643-9efc-b419c3a09bbd","system_id":"levelo_inurba_marseille","lat":43.22926,"lon":5.35318,"is_reserved":false,"is_disabled":false,"rental_uris":{"android":"levelo://app?vid=13b5bebc-2277-4643-9efc-b419c3a09bbd","ios":"levelo://app?vid=13b5bebc-2277-4643-9efc-b419c3a09bbd"},"vehicle_type_id":"4","last_reported":1761851276,"current_range_meters":15200,"station_id":"cpo3532slgdg3j2ikp40","pricing_plan_id":"cebpf4jnsgd1na2vs0mg"},{"bike_id":"4f23ab94-a366-4a0d-b0ec-e7b48be6c810","system_id":"levelo_inurba_marseille","lat":43.29248,"lon":5.38439,"is_reserved":false,"is_disabled":false,"rental_uris":{"android":"levelo://app?vid=4f23ab94-a366-4a0d-b0ec-e7b48be6c810","ios":"levelo://app?vid=4f23ab94-a366-4a0d-b0ec-e7b48be6c810"},"vehicle_type_id":"4","last_reported":1761851276,"current_range_meters":15200,"station_id":"ce4bh692rcd13ifvqea0","pricing_plan_id":"cebpf4jnsgd1na2vs0mg"},{"bike_id":"69daedd1-e532-426c-b096-24cfed29fb24","system_id":"levelo_inurba_marseille","lat":43.27945,"lon":5.41038,"is_reserved":false,"is_disabled":false,"rental_uris":{"android":"levelo://app?vid=69daedd1-e532-426c-b096-24cfed29fb24","ios":"levelo://app?vid=69daedd1-e532-426c-b096-24cfed29fb24"},"vehicle_type_id":"4","last_reported":1761851276,"current_range_meters":15200,"station_id":"ce4bhnp2rcd13ifvqh0g","pricing_plan_id":"cebpf4jnsgd1na2vs0mg"},{"bike_id":"899f498b-b0d2-4609-8c9e-15400a9cb9bf","system_id":"levelo_inurba_marseille","lat":43.29533,"lon":5.3853,"is_reserved":false,"is_disabled":false,"rental_uris":{"android":"levelo://app?vid=899f498b-b0d2-4609-8c9e-15400a9cb9bf","ios":"levelo://app?vid=899f498b-b0d2-4609-8c9e-15400a9cb9bf"},"vehicle_type_id":"4","last_reported":1761851276,"current_range_meters":15200,"station_id":"ce4bgih2rcd13ifvqba0","pricing_plan_id":"cebpf4jnsgd1na2vs0mg"},{"bike_id":"8ac20fd4-0440-4483-a88b-ff8baa0ca3ad","system_id":"levelo_inurba_marseille","lat":43.29252,"lon":5.38439,"is_reserved":false,"is_disabled":false,"rental_uris":{"android":"levelo://app?vid=8ac20fd4-0440-4483-a88b-ff8baa0ca3ad","ios":"levelo://app?vid=8ac20fd4-0440-4483-a88b-ff8baa0ca3ad"},"vehicle_type_id":"4","last_reported":1761851276,"current_range_meters":15200,"station_id":"ce4bh692rcd13ifvqea0","pricing_plan_id":"cebpf4jnsgd1na2vs0mg"},{"bike_id":"c2b29e2a-9ddf-4599-9569-ebeda3771708","system_id":"levelo_inurba_marseille","lat":43.21195,"lon":5.3507,"is_reserved":false,"is_disabled":false,"rental_uris":{"android":"levelo://app?vid=c2b29e2a-9ddf-4599-9569-ebeda3771708","ios":"levelo://app?vid=c2b29e2a-9ddf-4599-9569-ebeda3771708"},"vehicle_type_id":"4","last_reported":1761851276,"current_range_meters":15200,"station_id":"st_cvj6sg6p6f1abm77japg","pricing_plan_id":"cebpf4jnsgd1na2vs0mg"},{"bike_id":"cb66d42e-d7e3-48f0-84da-e4f8aec5506c","system_id":"levelo_inurba_marseille","lat":43.309096,"lon":5.36838,"is_reserved":false,"is_disabled":false,"rental_uris":{"android":"levelo://app?vid=cb66d42e-d7e3-48f0-84da-e4f8aec5506c","ios":"levelo://app?vid=cb66d42e-d7e3-48f0-84da-e4f8aec5506c"},"vehicle_type_id":"4","last_reported":1761851276,"current_range_meters":15200,"station_id":"ce4bgn92rcd13ifvqbvg","pricing_plan_id":"cebpf4jnsgd1na2vs0mg"},{"bike_id":"5f90af20-4ca2-43f7-9c78-b7b90c736725","system_id":"levelo_inurba_marseille","lat":43.2861,"lon":5.37062,"is_reserved":false,"is_disabled":false,"rental_uris":{"android":"levelo://app?vid=5f90af20-4ca2-43f7-9c78-b7b90c736725","ios":"levelo://app?vid=5f90af20-4ca2-43f7-9c78-b7b90c736725"},"vehicle_type_id":"4","last_reported":1761851276,"current_range_meters":15200,"station_id":"ce4bht12rcd13ifvqi60","pricing_plan_id":"cebpf4jnsgd1na2vs0mg"},{"bike_id":"b8949af8-daac-4c6b-8399-c444bc7f3a49","system_id":"levelo_inurba_marseille","lat":43.29575,"lon":5.38549,"is_reserved":false,"is_disabled":false,"rental_uris":{"android":"levelo://app?vid=b8949af8-daac-4c6b-8399-c444bc7f3a49","ios":"levelo://app?vid=b8949af8-daac-4c6b-8399-c444bc7f3a49"},"vehicle_type_id":"4","last_reported":1761851276,"current_range_meters":15200,"station_id":"","pricing_plan_id":"cebpf4jnsgd1na2vs0mg"},{"bike_id":"bb0c68bb-5d57-48f2-a0b8-6dcf92afaefb","system_id":"levelo_inurba_marseille","lat":43.33601,"lon":5.41035,"is_reserved":false,"is_disabled":false,"rental_uris":{"android":"levelo://app?vid=bb0c68bb-5d57-48f2-a0b8-6dcf92afaefb","ios":"levelo://app?vid=bb0c68bb-5d57-48f2-a0b8-6dcf92afaefb"},"vehicle_type_id":"4","last_reported":1761851276,"current_range_meters":15200,"station_id":"ce4bhqh2rcd13ifvqhmg","pricing_plan_id":"cebpf4jnsgd1na2vs0mg"},{"bike_id":"f1ebec42-de39-49cb-aa79-a7d00cd08ff7","system_id":"levelo_inurba_marseille","lat":43.293043,"lon":5.371513,"is_reserved":false,"is_disabled":false,"rental_uris":{"android":"levelo://app?vid=f1ebec42-de39-49cb-aa79-a7d00cd08ff7","ios":"levelo://app?vid=f1ebec42-de39-49cb-aa79-a7d00cd08ff7"},"vehicle_type_id":"4","last_reported":1761851276,"current_range_meters":15200,"station_id":"","pricing_plan_id":"cebpf4jnsgd1na2vs0mg"},{"bike_id":"9fcb59f0-324b-48c1-b492-946e66ef39c7","system_id":"levelo_inurba_marseille","lat":43.241778,"lon":5.39733,"is_reserved":false,"is_disabled":false,"rental_uris":{"android":"levelo://app?vid=9fcb59f0-324b-48c1-b492-946e66ef39c7","ios":"levelo://app?vid=9fcb59f0-324b-48c1-b492-946e66ef39c7"},"vehicle_type_id":"4","last_reported":1761851276,"current_range_meters":15200,"station_id":"ce4bhn12rcd13ifvqgpg","pricing_plan_id":"cebpf4jnsgd1na2vs0mg"},{"bike_id":"382a3ba7-d376-4cdb-8ec1-2ca215a52431","system_id":"levelo_inurba_marseille","lat":43.311051,"lon":5.383896,"is_reserved":false,"is_disabled":false,"rental_uris":{"android":"levelo://app?vid=382a3ba7-d376-4cdb-8ec1-2ca215a52431","ios":"levelo://app?vid=382a3ba7-d376-4cdb-8ec1-2ca215a52431"},"vehicle_type_id":"4","last_reported":1761851276,"current_range_meters":15200,"station_id":"ce4bgv92rcd13ifvqcr0","pricing_plan_id":"cebpf4jnsgd1na2vs0mg"},{"bike_id":"7e6a44ca-ba3c-42da-9365-001733a03e5b","system_id":"levelo_inurba_marseille","lat":43.31179,"lon":5.38726,"is_reserved":false,"is_disabled":false,"rental_uris":{"android":"levelo://app?vid=7e6a44ca-ba3c-42da-9365-001733a03e5b","ios":"levelo://app?vid=7e6a44ca-ba3c-42da-9365-001733a03e5b"},"vehicle_type_id":"4","last_reported":1761851276,"current_range_meters":15200,"station_id":"ce4bgv12rcd13ifvqcp0","pricing_plan_id":"cebpf4jnsgd1na2vs0mg"},{"bike_id":"1c9086c1-a624-4551-8076-24d87e6558f9","system_id":"levelo_inurba_marseille","lat":43.28408,"lon":5.37503,"is_reserved":false,"is_disabled":false,"rental_uris":{"android":"levelo://app?vid=1c9086c1-a624-4551-8076-24d87e6558f9","ios":"levelo://app?vid=1c9086c1-a624-4551-8076-24d87e6558f9"},"vehicle_type_id":"4","last_reported":1761851276,"current_range_meters":15200,"station_id":"ce4bh412rcd13ifvqds0","pricing_plan_id":"cebpf4jnsgd1na2vs0mg"},{"bike_id":"960e6fa4-4740-4586-b1d8-4bb7b95af038","system_id":"levelo_inurba_marseille","lat":43.24941,"lon":5.4049,"is_reserved":false,"is_disabled":false,"rental_uris":{"android":"levelo://app?vid=960e6fa4-4740-4586-b1d8-4bb7b95af038","ios":"levelo://app?vid=960e6fa4-4740-4586-b1d8-4bb7b95af038"},"vehicle_type_id":"4","last_reported":1761851276,"current_range_meters":16000,"station_id":"st_d2ngiaodas8pm72gd1h0","pricing_plan_id":"cebpf4jnsgd1na2vs0mg"},{"bike_id":"905644b9-04d7-4435-8797-982a8470b11f","system_id":"levelo_inurba_marseille","lat":43.29259,"lon":5.38435,"is_reserved":false,"is_disabled":false,"rental_uris":{"android":"levelo://app?vid=905644b9-04d7-4435-8797-982a8470b11f","ios":"levelo://app?vid=905644b9-04d7-4435-8797-982a8470b11f"},"vehicle_type_id":"4","last_reported":1761851276,"current_range_meters":16000,"station_id":"ce4bh692rcd13ifvqea0","pricing_plan_id":"cebpf4jnsgd1na2vs0mg"},{"bike_id":"bb9a697b-08ee-4a5e-b9eb-b274d6026d59","system_id":"levelo_inurba_marseille","lat":43.29892,"lon":5.39756,"is_reserved":false,"is_disabled":false,"rental_uris":{"android":"levelo://app?vid=bb9a697b-08ee-4a5e-b9eb-b274d6026d59","ios":"levelo://app?vid=bb9a697b-08ee-4a5e-b9eb-b274d6026d59"},"vehicle_type_id":"4","last_reported":1761851276,"current_range_meters":16000,"station_id":"ce4bh0h2rcd13ifvqd50","pricing_plan_id":"cebpf4jnsgd1na2vs0mg"},{"bike_id":"c0381cfe-4020-45a1-a90a-c73928248165","system_id":"levelo_inurba_marseille","lat":43.28418,"lon":5.37503,"is_reserved":false,"is_disabled":false,"rental_uris":{"android":"levelo://app?vid=c0381cfe-4020-45a1-a90a-c73928248165","ios":"levelo://app?vid=c0381cfe-4020-45a1-a90a-c73928248165"},"vehicle_type_id":"4","last_reported":1761851276,"current_range_meters":16000,"station_id":"ce4bh412rcd13ifvqds0","pricing_plan_id":"cebpf4jnsgd1na2vs0mg"},{"bike_id":"0e8e0a18-4139-452e-bab3-cb99f058b247","system_id":"levelo_inurba_marseille","lat":43.29499,"lon":5.41966,"is_reserved":false,"is_disabled":true,"rental_uris":{"android":"levelo://app?vid=0e8e0a18-4139-452e-bab3-cb99f058b247","ios":"levelo://app?vid=0e8e0a18-4139-452e-bab3-cb99f058b247"},"vehicle_type_id":"4","last_reported":1761851276,"current_range_meters":16400,"station_id":"","pricing_plan_id":"cebpf4jnsgd1na2vs0mg"},{"bike_id":"795876d8-ce78-490e-ab88-4dfd55d3ecd0","system_id":"levelo_inurba_marseille","lat":43.29544,"lon":5.38536,"is_reserved":false,"is_disabled":false,"rental_uris":{"android":"levelo://app?vid=795876d8-ce78-490e-ab88-4dfd55d3ecd0","ios":"levelo://app?vid=795876d8-ce78-490e-ab88-4dfd55d3ecd0"},"vehicle_type_id":"4","last_reported":1761851276,"current_range_meters":16400,"station_id":"ce4bgih2rcd13ifvqba0","pricing_plan_id":"cebpf4jnsgd1na2vs0mg"},{"bike_id":"ea1235c2-bcfd-4cb9-9071-a1861b4b4e54","system_id":"levelo_inurba_marseille","lat":43.299629,"lon":5.384891,"is_reserved":false,"is_disabled":false,"rental_uris":{"android":"levelo://app?vid=ea1235c2-bcfd-4cb9-9071-a1861b4b4e54","ios":"levelo://app?vid=ea1235c2-bcfd-4cb9-9071-a1861b4b4e54"},"vehicle_type_id":"4","last_reported":1761851276,"current_range_meters":16400,"station_id":"ce4bgj92rcd13ifvqbd0","pricing_plan_id":"cebpf4jnsgd1na2vs0mg"},{"bike_id":"cafd70c9-5a1b-4c5f-97a0-706f7372d09f","system_id":"levelo_inurba_marseille","lat":43.29521,"lon":5.39047,"is_reserved":false,"is_disabled":false,"rental_uris":{"android":"levelo://app?vid=cafd70c9-5a1b-4c5f-97a0-706f7372d09f","ios":"levelo://app?vid=cafd70c9-5a1b-4c5f-97a0-706f7372d09f"},"vehicle_type_id":"4","last_reported":1761851276,"current_range_meters":16400,"station_id":"ce4bh3p2rcd13ifvqdp0","pricing_plan_id":"cebpf4jnsgd1na2vs0mg"},{"bike_id":"88327406-ba65-4ce0-831c-3da476dbb691","system_id":"levelo_inurba_marseille","lat":43.237805,"lon":5.366388,"is_reserved":false,"is_disabled":false,"rental_uris":{"android":"levelo://app?vid=88327406-ba65-4ce0-831c-3da476dbb691","ios":"levelo://app?vid=88327406-ba65-4ce0-831c-3da476dbb691"},"vehicle_type_id":"4","last_reported":1761851276,"current_range_meters":16400,"station_id":"st_d3nk18o9ro0c73en2l3g","pricing_plan_id":"cebpf4jnsgd1na2vs0mg"},{"bike_id":"80c53fab-d9fd-4b9a-94e7-e3f3183e35da","system_id":"levelo_inurba_marseille","lat":43.33023,"lon":5.39022,"is_reserved":false,"is_disabled":false,"rental_uris":{"android":"levelo://app?vid=80c53fab-d9fd-4b9a-94e7-e3f3183e35da","ios":"levelo://app?vid=80c53fab-d9fd-4b9a-94e7-e3f3183e35da"},"vehicle_type_id":"4","last_reported":1761851276,"current_range_meters":16400,"station_id":"ce4bhr92rcd13ifvqhrg","pricing_plan_id":"cebpf4jnsgd1na2vs0mg"},{"bike_id":"9ea42203-6465-46a1-88d2-b1576b863797","system_id":"levelo_inurba_marseille","lat":43.29519,"lon":5.3904,"is_reserved":false,"is_disabled":false,"rental_uris":{"android":"levelo://app?vid=9ea42203-6465-46a1-88d2-b1576b863797","ios":"levelo://app?vid=9ea42203-6465-46a1-88d2-b1576b863797"},"vehicle_type_id":"4","last_reported":1761851276,"current_range_meters":16400,"station_id":"ce4bh3p2rcd13ifvqdp0","pricing_plan_id":"cebpf4jnsgd1na2vs0mg"},{"bike_id":"7afafebc-9388-4b96-826a-eb1746b15f9a","system_id":"levelo_inurba_marseille","lat":43.27069,"lon":5.4228,"is_reserved":false,"is_disabled":false,"rental_uris":{"android":"levelo://app?vid=7afafebc-9388-4b96-826a-eb1746b15f9a","ios":"levelo://app?vid=7afafebc-9388-4b96-826a-eb1746b15f9a"},"vehicle_type_id":"4","last_reported":1761851276,"current_range_meters":16400,"station_id":"ce4bhk92rcd13ifvqgb0","pricing_plan_id":"cebpf4jnsgd1na2vs0mg"},{"bike_id":"ea26f597-91d1-4f54-b158-8d3bda3cc998","system_id":"levelo_inurba_marseille","lat":43.32263,"lon":5.38278,"is_reserved":false,"is_disabled":false,"rental_uris":{"android":"levelo://app?vid=ea26f597-91d1-4f54-b158-8d3bda3cc998","ios":"levelo://app?vid=ea26f597-91d1-4f54-b158-8d3bda3cc998"},"vehicle_type_id":"4","last_reported":1761851276,"current_range_meters":16400,"station_id":"ce4bhr12rcd13ifvqhqg","pricing_plan_id":"cebpf4jnsgd1na2vs0mg"},{"bike_id":"a657bfed-2a8a-41a5-8d2c-2d032f3588c4","system_id":"levelo_inurba_marseille","lat":43.25517,"lon":5.37649,"is_reserved":false,"is_disabled":false,"rental_uris":{"android":"levelo://app?vid=a657bfed-2a8a-41a5-8d2c-2d032f3588c4","ios":"levelo://app?vid=a657bfed-2a8a-41a5-8d2c-2d032f3588c4"},"vehicle_type_id":"4","last_reported":1761851276,"current_range_meters":16400,"station_id":"ce4bhh12rcd13ifvqff0","pricing_plan_id":"cebpf4jnsgd1na2vs0mg"},{"bike_id":"516995d3-31b4-460f-8436-1dc3fc004b9c","system_id":"levelo_inurba_marseille","lat":43.29262,"lon":5.40922,"is_reserved":false,"is_disabled":false,"rental_uris":{"android":"levelo://app?vid=516995d3-31b4-460f-8436-1dc3fc004b9c","ios":"levelo://app?vid=516995d3-31b4-460f-8436-1dc3fc004b9c"},"vehicle_type_id":"4","last_reported":1761851276,"current_range_meters":16400,"station_id":"ce4bh192rcd13ifvqdc0","pricing_plan_id":"cebpf4jnsgd1na2vs0mg"},{"bike_id":"05a47c24-c74d-4482-aade-5974399cb310","system_id":"levelo_inurba_marseille","lat":43.29606,"lon":5.37672,"is_reserved":false,"is_disabled":false,"rental_uris":{"android":"levelo://app?vid=05a47c24-c74d-4482-aade-5974399cb310","ios":"levelo://app?vid=05a47c24-c74d-4482-aade-5974399cb310"},"vehicle_type_id":"4","last_reported":1761851276,"current_range_meters":16400,"station_id":"ce4bgi92rcd13ifvqb90","pricing_plan_id":"cebpf4jnsgd1na2vs0mg"},{"bike_id":"138ff61d-8859-4ecb-a94c-3a8ea01a7893","system_id":"levelo_inurba_marseille","lat":43.2795,"lon":5.41023,"is_reserved":false,"is_disabled":false,"rental_uris":{"android":"levelo://app?vid=138ff61d-8859-4ecb-a94c-3a8ea01a7893","ios":"levelo://app?vid=138ff61d-8859-4ecb-a94c-3a8ea01a7893"},"vehicle_type_id":"4","last_reported":1761851276,"current_range_meters":16400,"station_id":"ce4bhnp2rcd13ifvqh0g","pricing_plan_id":"cebpf4jnsgd1na2vs0mg"},{"bike_id":"28bbf614-7806-40a7-b631-19d992de53ed","system_id":"levelo_inurba_marseille","lat":43.22926,"lon":5.35376,"is_reserved":false,"is_disabled":false,"rental_uris":{"android":"levelo://app?vid=28bbf614-7806-40a7-b631-19d992de53ed","ios":"levelo://app?vid=28bbf614-7806-40a7-b631-19d992de53ed"},"vehicle_type_id":"4","last_reported":1761851276,"current_range_meters":16400,"station_id":"cpo3532slgdg3j2ikp40","pricing_plan_id":"cebpf4jnsgd1na2vs0mg"},{"bike_id":"0ea07904-84f7-4751-a79c-34eb67ef8001","system_id":"levelo_inurba_marseille","lat":43.24548,"lon":5.39527,"is_reserved":false,"is_disabled":false,"rental_uris":{"android":"levelo://app?vid=0ea07904-84f7-4751-a79c-34eb67ef8001","ios":"levelo://app?vid=0ea07904-84f7-4751-a79c-34eb67ef8001"},"vehicle_type_id":"4","last_reported":1761851276,"current_range_meters":16800,"station_id":"ce4bhlp2rcd13ifvqgjg","pricing_plan_id":"cebpf4jnsgd1na2vs0mg"},{"bike_id":"060ecace-a198-48c2-b922-f0f316deba69","system_id":"levelo_inurba_marseille","lat":43.28515,"lon":5.38585,"is_reserved":false,"is_disabled":false,"rental_uris":{"android":"levelo://app?vid=060ecace-a198-48c2-b922-f0f316deba69","ios":"levelo://app?vid=060ecace-a198-48c2-b922-f0f316deba69"},"vehicle_type_id":"4","last_reported":1761851276,"current_range_meters":16800,"station_id":"ce4bh8p2rcd13ifvqeb0","pricing_plan_id":"cebpf4jnsgd1na2vs0mg"},