{"last_updated":1729451187,"ttl":60,"version":"2.2","data":{"bikes":[{"bike_id":"9184e00a-b6ec-4bae-bf55-7db7d1efed40","system_id":"levelo_inurba_marseille","lat":43.28373,"lon":5.38625,"is_reserved":false,"is_disabled":false,"rental_uris":{"android":"levelo://app?vid=9184e00a-b6ec-4bae-bf55-7db7d1efed40","ios":"levelo://app?vid=9184e00a-b6ec-4bae-bf55-7db7d1efed40"},"vehicle_type_id":"4","last_reported":1729451187,"current_range_meters":10000,"station_id":"ce4bh492rcd13ifvqdvg","pricing_plan_id":"cebpf4jnsgd1na2vs0mg"},{"bike_id":"5b74cd5d-eff0-434d-8584-a0614fe0d6cc","system_id":"levelo_inurba_marseille","lat":43.28486,"lon":5.38562,"is_reserved":false,"is_disabled":false,"rental_uris":{"android":"levelo://app?vid=5b74cd5d-eff0-434d-8584-a0614fe0d6cc","ios":"levelo://app?vid=5b74cd5d-eff0-434d-8584-a0614fe0d6cc"},"vehicle_type_id":"4","last_reported":1729451187,"current_range_meters":10800,"station_id":"ce4bh8p2rcd13ifvqeb0","pricing_plan_id":"cebpf4jnsgd1na2vs0mg"},{"bike_id":"c85d30f0-5e53-4449-a648-340e8ec9fa3d","system_id":"levelo_inurba_marseille","lat":43.29419,"lon":5.38634,"is_reserved":false,"is_disabled":false,"rental_uris":{"android":"levelo://app?vid=c85d30f0-5e53-4449-a648-340e8ec9fa3d","ios":"levelo://app?vid=c85d30f0-5e53-4449-a648-340e8ec9fa3d"},"vehicle_type_id":"4","last_reported":1729451187,"current_range_meters":38800,"station_id":"ce4bh2h2rcd13ifvqdh0","pricing_plan_id":"cebpf4jnsgd1na2vs0mg"},{"bike_id":"f2cf55f4-aa83-4a41-8c86-05d88bb3727e","system_id":"levelo_inurba_marseille","lat":43.3113,"lon":5.37752,"is_reserved":false,"is_disabled":false,"rental_uris":{"android":"levelo://app?vid=f2cf55f4-aa83-4a41-8c86-05d88bb3727e","ios":"levelo://app?vid=f2cf55f4-aa83-4a41-8c86-05d88bb3727e"},"vehicle_type_id":"4","last_reported":1729451187,"current_range_meters":22000,"station_id":"ce4bgt92rcd13ifvqcg0","pricing_plan_id":"cebpf4jnsgd1na2vs0mg"},{"bike_id":"2aae6609-bf72-4b69-8776-85ccbbd9b0e5","system_id":"levelo_inurba_marseille","lat":43.22927,"lon":5.35375,"is_reserved":false,"is_disabled":false,"rental_uris":{"android":"levelo://app?vid=2aae6609-bf72-4b69-8776-85ccbbd9b0e5","ios":"levelo://app?vid=2aae6609-bf72-4b69-8776-85ccbbd9b0e5"},"vehicle_type_id":"4","last_reported":1729451187,"current_range_meters":38800,"station_id":"cpo3532slgdg3j2ikp40","pricing_plan_id":"cebpf4jnsgd1na2vs0mg"},{"bike_id":"138f2d49-214b-48e8-9db4-98a6dc22aa3c","system_id":"levelo_inurba_marseille","lat":43.28429,"lon":5.39178,"is_reserved":false,"is_disabled":false,"rental_uris":{"android":"levelo://app?vid=138f2d49-214b-48e8-9db4-98a6dc22aa3c","ios":"levelo://app?vid=138f2d49-214b-48e8-9db4-98a6dc22aa3c"},"vehicle_type_id":"4","last_reported":1729451187,"current_range_meters":15200,"station_id":"ce4bhoh2rcd13ifvqh5g","pricing_plan_id":"cebpf4jnsgd1na2vs0mg"},{"bike_id":"c7ecd838-4377-4b21-a52b-a589aed26b8a","system_id":"levelo_inurba_marseille","lat":43.2971,"lon":5.36614,"is_reserved":false,"is_disabled":false,"rental_uris":{"android":"levelo://app?vid=c7ecd838-4377-4b21-a52b-a589aed26b8a","ios":"levelo://app?vid=c7ecd838-4377-4b21-a52b-a589aed26b8a"},"vehicle_type_id":"4","last_reported":1729451187,"current_range_meters":6800,"station_id":"ce4bgn12rcd13ifvqbt0","pricing_plan_id":"cebpf4jnsgd1na2vs0mg"},{"bike_id":"566ed831-9936-4687-928a-dc42297600ca","system_id":"levelo_inurba_marseille","lat":43.29705,"lon":5.36612,"is_reserved":false,"is_disabled":false,"rental_uris":{"android":"levelo://app?vid=566ed831-9936-4687-928a-dc42297600ca","ios":"levelo://app?vid=566ed831-9936-4687-928a-dc42297600ca"},"vehicle_type_id":"4","last_reported":1729451187,"current_range_meters":4800,"station_id":"ce4bgn12rcd13ifvqbt0","pricing_plan_id":"cebpf4jnsgd1na2vs0mg"},{"bike_id":"c5e3e1df-1a2a-44f0-be91-b1d1b57c457b","system_id":"levelo_inurba_marseille","lat":43.29695,"lon":5.36607,"is_reserved":false,"is_disabled":false,"rental_uris":{"android":"levelo://app?vid=c5e3e1df-1a2a-44f0-be91-b1d1b57c457b","ios":"levelo://app?vid=c5e3e1df-1a2a-44f0-be91-b1d1b57c457b"},"vehicle_type_id":"4","last_reported":1729451187,"current_range_meters":38800,"station_id":"ce4bgn12rcd13ifvqbt0","pricing_plan_id":"cebpf4jnsgd1na2vs0mg"},{"bike_id":"84da1768-0304-4b41-9cdd-4b869838058f","system_id":"levelo_inurba_marseille","lat":43.26934,"lon":5.38931,"is_reserved":false,"is_disabled":false,"rental_uris":{"android":"levelo://app?vid=84da1768-0304-4b41-9cdd-4b869838058f","ios":"levelo://app?vid=84da1768-0304-4b41-9cdd-4b869838058f"},"vehicle_type_id":"4","last_reported":1729451187,"current_range_meters":15200,"station_id":"ce4bhhh2rcd13ifvqfl0","pricing_plan_id":"cebpf4jnsgd1na2vs0mg"},{"bike_id":"7a6ba3d7-846e-45d3-92b4-25ce5cda8a53","system_id":"levelo_inurba_marseille","lat":43.33732,"lon":5.39189,"is_reserved":false,"is_disabled":false,"rental_uris":{"android":"levelo://app?vid=7a6ba3d7-846e-45d3-92b4-25ce5cda8a53","ios":"levelo://app?vid=7a6ba3d7-846e-45d3-92b4-25ce5cda8a53"},"vehicle_type_id":"4","last_reported":1729451187,"current_range_meters":22800,"station_id":"ce4bhr92rcd13ifvqhsg","pricing_plan_id":"cebpf4jnsgd1na2vs0mg"},{"bike_id":"d0cd3321-1682-4834-924a-12ab4bee065f","system_id":"levelo_inurba_marseille","lat":43.31578,"lon":5.38893,"is_reserved":false,"is_disabled":false,"rental_uris":{"android":"levelo://app?vid=d0cd3321-1682-4834-924a-12ab4bee065f","ios":"levelo://app?vid=d0cd3321-1682-4834-924a-12ab4bee065f"},"vehicle_type_id":"4","last_reported":1729451187,"current_range_meters":26800,"station_id":"","pricing_plan_id":"cebpf4jnsgd1na2vs0mg"},{"bike_id":"3caab27a-e953-41dd-8aa0-dd614f4dccf9","system_id":"levelo_inurba_marseille","lat":43.28946,"lon":5.36432,"is_reserved":false,"is_disabled":false,"rental_uris":{"android":"levelo://app?vid=3caab27a-e953-41dd-8aa0-dd614f4dccf9","ios":"levelo://app?vid=3caab27a-e953-41dd-8aa0-dd614f4dccf9"},"vehicle_type_id":"4","last_reported":1729451187,"current_range_meters":19600,"station_id":"ce4bgi12rcd13ifvqb70","pricing_plan_id":"cebpf4jnsgd1na2vs0mg"},{"bike_id":"38fa35c0-6fb1-42fa-ade0-9a80de10af00","system_id":"levelo_inurba_marseille","lat":43.28274,"lon":5.35079,"is_reserved":false,"is_disabled":false,"rental_uris":{"android":"levelo://app?vid=38fa35c0-6fb1-42fa-ade0-9a80de10af00","ios":"levelo://app?vid=38fa35c0-6fb1-42fa-ade0-9a80de10af00"},"vehicle_type_id":"4","last_reported":1729451187,"current_range_meters":38800,"station_id":"ce4bhbp2rcd13ifvqerg","pricing_plan_id":"cebpf4jnsgd1na2vs0mg"},{"bike_id":"6b1004f2-4fec-4856-aea4-739d3ff135a6","system_id":"levelo_inurba_marseille","lat":43.29276,"lon":5.40116,"is_reserved":false,"is_disabled":false,"rental_uris":{"android":"levelo://app?vid=6b1004f2-4fec-4856-aea4-739d3ff135a6","ios":"levelo://app?vid=6b1004f2-4fec-4856-aea4-739d3ff135a6"},"vehicle_type_id":"4","last_reported":1729451187,"current_range_meters":36800,"station_id":"ce4bh312rcd13ifvqdk0","pricing_plan_id":"cebpf4jnsgd1na2vs0mg"},{"bike_id":"9dd1ac8e-f5f6-4cb0-9a87-830116e89160","system_id":"levelo_inurba_marseille","lat":43.29256,"lon":5.38441,"is_reserved":false,"is_disabled":false,"rental_uris":{"android":"levelo://app?vid=9dd1ac8e-f5f6-4cb0-9a87-830116e89160","ios":"levelo://app?vid=9dd1ac8e-f5f6-4cb0-9a87-830116e89160"},"vehicle_type_id":"4","last_reported":1729451187,"current_range_meters":28800,"station_id":"","pricing_plan_id":"cebpf4jnsgd1na2vs0mg"},{"bike_id":"474ccd54-d884-4c48-ac27-1f7190ae4438","system_id":"levelo_inurba_marseille","lat":43.33655,"lon":5.39218,"is_reserved":false,"is_disabled":false,"rental_uris":{"android":"levelo://app?vid=474ccd54-d884-4c48-ac27-1f7190ae4438","ios":"levelo://app?vid=474ccd54-d884-4c48-ac27-1f7190ae4438"},"vehicle_type_id":"4","last_reported":1729451187,"current_range_meters":6000,"station_id":"","pricing_plan_id":"cebpf4jnsgd1na2vs0mg"},{"bike_id":"0110ffb5-a63d-45d5-b867-2e5bae3721ec","system_id":"levelo_inurba_marseille","lat":43.32662,"lon":5.40991,"is_reserved":false,"is_disabled":false,"rental_uris":{"android":"levelo://app?vid=0110ffb5-a63d-45d5-b867-2e5bae3721ec","ios":"levelo://app?vid=0110ffb5-a63d-45d5-b867-2e5bae3721ec"},"vehicle_type_id":"4","last_reported":1729451187,"current_range_meters":14400,"station_id":"ce4bhpp2rcd13ifvqhgg","pricing_plan_id":"cebpf4jnsgd1na2vs0mg"},{"bike_id":"cffc72a1-9762-4ffa-83d6-8b9856072bf4","system_id":"levelo_inurba_marseille","lat":43.31717,"lon":5.42404,"is_reserved":false,"is_disabled":false,"rental_uris":{"android":"levelo://app?vid=cffc72a1-9762-4ffa-83d6-8b9856072bf4","ios":"levelo://app?vid=cffc72a1-9762-4ffa-83d6-8b9856072bf4"},"vehicle_type_id":"4","last_reported":1729451187,"current_range_meters":19200,"station_id":"ce4bhp92rcd13ifvqhbg","pricing_plan_id":"cebpf4jnsgd1na2vs0mg"},{"bike_id":"18c5e602-07df-4ebf-92ed-ad2554f8e3ba","system_id":"levelo_inurba_marseille","lat":43.25001,"lon":5.38929,"is_reserved":false,"is_disabled":false,"rental_uris":{"android":"levelo://app?vid=18c5e602-07df-4ebf-92ed-ad2554f8e3ba","ios":"levelo://app?vid=18c5e602-07df-4ebf-92ed-ad2554f8e3ba"},"vehicle_type_id":"4","last_reported":1729451187,"current_range_meters":13600,"station_id":"ce4bhgp2rcd13ifvqfd0","pricing_plan_id":"cebpf4jnsgd1na2vs0mg"},{"bike_id":"b28f5ea3-f51d-4648-8a94-410fa3633caa","system_id":"levelo_inurba_marseille","lat":43.24162,"lon":5.364,"is_reserved":false,"is_disabled":false,"rental_uris":{"android":"levelo://app?vid=b28f5ea3-f51d-4648-8a94-410fa3633caa","ios":"levelo://app?vid=b28f5ea3-f51d-4648-8a94-410fa3633caa"},"vehicle_type_id":"4","last_reported":1729451187,"current_range_meters":38800,"station_id":"cpo36qri1sfpv3e86is0","pricing_plan_id":"cebpf4jnsgd1na2vs0mg"},{"bike_id":"93e037f8-ace7-4804-9c2f-f07edd786dc8","system_id":"levelo_inurba_marseille","lat":43.32655,"lon":5.40998,"is_reserved":false,"is_disabled":false,"rental_uris":{"android":"levelo://app?vid=93e037f8-ace7-4804-9c2f-f07edd786dc8","ios":"levelo://app?vid=93e037f8-ace7-4804-9c2f-f07edd786dc8"},"vehicle_type_id":"4","last_reported":1729451187,"current_range_meters":31200,"station_id":"ce4bhpp2rcd13ifvqhgg","pricing_plan_id":"cebpf4jnsgd1na2vs0mg"},{"bike_id":"5cd96af5-3e17-42ae-9025-24dfef705577","system_id":"levelo_inurba_marseille","lat":43.29198,"lon":5.39315,"is_reserved":false,"is_disabled":false,"rental_uris":{"android":"levelo://app?vid=5cd96af5-3e17-42ae-9025-24dfef705577","ios":"levelo://app?vid=5cd96af5-3e17-42ae-9025-24dfef705577"},"vehicle_type_id":"4","last_reported":1729451187,"current_range_meters":6400,"station_id":"ce4bh192rcd13ifvqdd0","pricing_plan_id":"cebpf4jnsgd1na2vs0mg"},{"bike_id":"30edceef-9b8c-484e-b89c-7f07100fd25b","system_id":"levelo_inurba_marseille","lat":43.3218,"lon":5.38741,"is_reserved":false,"is_disabled":false,"rental_uris":{"android":"levelo://app?vid=30edceef-9b8c-484e-b89c-7f07100fd25b","ios":"levelo://app?vid=30edceef-9b8c-484e-b89c-7f07100fd25b"},"vehicle_type_id":"4","last_reported":1729451187,"current_range_meters":15200,"station_id":"","pricing_plan_id":"cebpf4jnsgd1na2vs0mg"},{"bike_id":"c6f97d64-68de-45bd-8766-121620dc294c","system_id":"levelo_inurba_marseille","lat":43.27902,"lon":5.38014,"is_reserved":false,"is_disabled":false,"rental_uris":{"android":"levelo://app?vid=c6f97d64-68de-45bd-8766-121620dc294c","ios":"levelo://app?vid=c6f97d64-68de-45bd-8766-121620dc294c"},"vehicle_type_id":"4","last_reported":1729451187,"current_range_meters":8800,"station_id":"ce4bhf92rcd13ifvqf50","pricing_plan_id":"cebpf4jnsgd1na2vs0mg"},{"bike_id":"befb068b-7b18-4dbe-9d54-7889699e7dea","system_id":"levelo_inurba_marseille","lat":43.22924,"lon":5.35379,"is_reserved":false,"is_disabled":false,"rental_uris":{"android":"levelo://app?vid=befb068b-7b18-4dbe-9d54-7889699e7dea","ios":"levelo://app?vid=befb068b-7b18-4dbe-9d54-7889699e7dea"},"vehicle_type_id":"4","last_reported":1729451187,"current_range_meters":38800,"station_id":"cpo3532slgdg3j2ikp40","pricing_plan_id":"cebpf4jnsgd1na2vs0mg"},{"bike_id":"5b47cbfd-3740-4a35-b9bd-478cf093a87d","system_id":"levelo_inurba_marseille","lat":43.23959,"lon":5.36625,"is_reserved":false,"is_disabled":false,"rental_uris":{"android":"levelo://app?vid=5b47cbfd-3740-4a35-b9bd-478cf093a87d","ios":"levelo://app?vid=5b47cbfd-3740-4a35-b9bd-478cf093a87d"},"vehicle_type_id":"4","last_reported":1729451187,"current_range_meters":26800,"station_id":"ce4bhi12rcd13ifvqfp0","pricing_plan_id":"cebpf4jnsgd1na2vs0mg"},{"bike_id":"49113a3c-7de8-4448-86e8-cc3e731c2efa","system_id":"levelo_inurba_marseille","lat":43.28942,"lon":5.36642,"is_reserved":false,"is_disabled":false,"rental_uris":{"android":"levelo://app?vid=49113a3c-7de8-4448-86e8-cc3e731c2efa","ios":"levelo://app?vid=49113a3c-7de8-4448-86e8-cc3e731c2efa"},"vehicle_type_id":"4","last_reported":1729451187,"current_range_meters":36800,"station_id":"ce4bhap2rcd13ifvqek0","pricing_plan_id":"cebpf4jnsgd1na2vs0mg"},{"bike_id":"9a21492d-c438-4f26-80a4-87ef0e9b65d1","system_id":"levelo_inurba_marseille","lat":43.3079,"lon":5.38162,"is_reserved":false,"is_disabled":false,"rental_uris":{"android":"levelo://app?vid=9a21492d-c438-4f26-80a4-87ef0e9b65d1","ios":"levelo://app?vid=9a21492d-c438-4f26-80a4-87ef0e9b65d1"},"vehicle_type_id":"4","last_reported":1729451187,"current_range_meters":27600,"station_id":"ce4bgt12rcd13ifvqce0","pricing_plan_id":"cebpf4jnsgd1na2vs0mg"},{"bike_id":"ab25e50e-031e-49b2-92c3-bc31c1e4e638","system_id":"levelo_inurba_marseille","lat":43.27989,"lon":5.41672,"is_reserved":false,"is_disabled":false,"rental_uris":{"android":"levelo://app?vid=ab25e50e-031e-49b2-92c3-bc31c1e4e638","ios":"levelo://app?vid=ab25e50e-031e-49b2-92c3-bc31c1e4e638"},"vehicle_type_id":"4","last_reported":1729451187,"current_range_meters":7200,"station_id":"ce4bho12rcd13ifvqh1g","pricing_plan_id":"cebpf4jnsgd1na2vs0mg"},{"bike_id":"21bcc56c-ef80-4301-81c4-968bdc42def9","system_id":"levelo_inurba_marseille","lat":43.30422,"lon":5.39756,"is_reserved":false,"is_disabled":false,"rental_uris":{"android":"levelo://app?vid=21bcc56c-ef80-4301-81c4-968bdc42def9","ios":"levelo://app?vid=21bcc56c-ef80-4301-81c4-968bdc42def9"},"vehicle_type_id":"4","last_reported":1729451187,"current_range_meters":12000,"station_id":"ce4bh092rcd13ifvqd20","pricing_plan_id":"cebpf4jnsgd1na2vs0mg"},{"bike_id":"7c47eae1-9237-4584-8a5d-94967d30358b","system_id":"levelo_inurba_marseille","lat":43.27371,"lon":5.36262,"is_reserved":false,"is_disabled":false,"rental_uris":{"android":"levelo://app?vid=7c47eae1-9237-4584-8a5d-94967d30358b","ios":"levelo://app?vid=7c47eae1-9237-4584-8a5d-94967d30358b"},"vehicle_type_id":"4","last_reported":1729451187,"current_range_meters":33200,"station_id":"ce4bhbh2rcd13ifvqeo0","pricing_plan_id":"cebpf4jnsgd1na2vs0mg"},{"bike_id":"57dd0012-e7c2-43e3-90a1-087125ac63fa","system_id":"levelo_inurba_marseille","lat":43.33753,"lon":5.37454,"is_reserved":false,"is_disabled":false,"rental_uris":{"android":"levelo://app?vid=57dd0012-e7c2-43e3-90a1-087125ac63fa","ios":"levelo://app?vid=57dd0012-e7c2-43e3-90a1-087125ac63fa"},"vehicle_type_id":"4","last_reported":1729451187,"current_range_meters":34000,"station_id":"","pricing_plan_id":"cebpf4jnsgd1na2vs0mg"},{"bike_id":"ad1c3d3d-b4cc-42d4-beb2-2f2573d3d2dd","system_id":"levelo_inurba_marseille","lat":43.31072,"lon":5.3835,"is_reserved":false,"is_disabled":false,"rental_uris":{"android":"levelo://app?vid=ad1c3d3d-b4cc-42d4-beb2-2f2573d3d2dd","ios":"levelo://app?vid=ad1c3d3d-b4cc-42d4-beb2-2f2573d3d2dd"},"vehicle_type_id":"4","last_reported":1729451187,"current_range_meters":38800,"station_id":"ce4bgv92rcd13ifvqcr0","pricing_plan_id":"cebpf4jnsgd1na2vs0mg"},{"bike_id":"0a6df673-e856-4343-b24f-084796475cea","system_id":"levelo_inurba_marseille","lat":43.31483,"lon":5.37301,"is_reserved":false,"is_disabled":false,"rental_uris":{"android":"levelo://app?vid=0a6df673-e856-4343-b24f-084796475cea","ios":"levelo://app?vid=0a6df673-e856-4343-b24f-084796475cea"},"vehicle_type_id":"4","last_reported":1729451187,"current_range_meters":33600,"station_id":"ce4bgt12rcd13ifvqcd0","pricing_plan_id":"cebpf4jnsgd1na2vs0mg"},{"bike_id":"acc80eec-b7f4-4a87-8f02-9235715cbd20","system_id":"levelo_inurba_marseille","lat":43.31068,"lon":5.38359,"is_reserved":false,"is_disabled":false,"rental_uris":{"android":"levelo://app?vid=acc80eec-b7f4-4a87-8f02-9235715cbd20","ios":"levelo://app?vid=acc80eec-b7f4-4a87-8f02-9235715cbd20"},"vehicle_type_id":"4","last_reported":1729451187,"current_range_meters":28400,"station_id":"ce4bgv92rcd13ifvqcr0","pricing_plan_id":"cebpf4jnsgd1na2vs0mg"},{"bike_id":"25f91457-440e-47f9-92ed-6acee8b789b7","system_id":"levelo_inurba_marseille","lat":43.31489,"lon":5.38773,"is_reserved":false,"is_disabled":false,"rental_uris":{"android":"levelo://app?vid=25f91457-440e-47f9-92ed-6acee8b789b7","ios":"levelo://app?vid=25f91457-440e-47f9-92ed-6acee8b789b7"},"vehicle_type_id":"4","last_reported":1729451187,"current_range_meters":28800,"station_id":"","pricing_plan_id":"cebpf4jnsgd1na2vs0mg"},{"bike_id":"f8d3ba51-21a0-4ba0-b5a1-26f1ce9a2cfd","system_id":"levelo_inurba_marseille","lat":43.29715,"lon":5.36607,"is_reserved":false,"is_disabled":false,"rental_uris":{"android":"levelo://app?vid=f8d3ba51-21a0-4ba0-b5a1-26f1ce9a2cfd","ios":"levelo://app?vid=f8d3ba51-21a0-4ba0-b5a1-26f1ce9a2cfd"},"vehicle_type_id":"4","last_reported":1729451187,"current_range_meters":39200,"station_id":"ce4bgn12rcd13ifvqbt0","pricing_plan_id":"cebpf4jnsgd1na2vs0mg"},{"bike_id":"67cf4883-ac0b-43bb-8bd0-c8efcf9a3fe9","system_id":"levelo_inurba_marseille","lat":43.30252,"lon":5.40067,"is_reserved":false,"is_disabled":false,"rental_uris":{"android":"levelo://app?vid=67cf4883-ac0b-43bb-8bd0-c8efcf9a3fe9","ios":"levelo://app?vid=67cf4883-ac0b-43bb-8bd0-c8efcf9a3fe9"},"vehicle_type_id":"4","last_reported":1729451187,"current_range_meters":7200,"station_id":"ce4bgvh2rcd13ifvqcs0","pricing_plan_id":"cebpf4jnsgd1na2vs0mg"},{"bike_id":"a9a04fc3-3f48-4b39-b1e8-1e3208f7df09","system_id":"levelo_inurba_marseille","lat":43.29591,"lon":5.38102,"is_reserved":false,"is_disabled":false,"rental_uris":{"android":"levelo://app?vid=a9a04fc3-3f48-4b39-b1e8-1e3208f7df09","ios":"levelo://app?vid=a9a04fc3-3f48-4b39-b1e8-1e3208f7df09"},"vehicle_type_id":"4","last_reported":1729451187,"current_range_meters":22800,"station_id":"ce4bgl12rcd13ifvqbo0","pricing_plan_id":"cebpf4jnsgd1na2vs0mg"},{"bike_id":"cd0dce23-200f-416c-916b-7be9d153fea3","system_id":"levelo_inurba_marseille","lat":43.26064,"lon":5.38558,"is_reserved":false,"is_disabled":false,"rental_uris":{"android":"levelo://app?vid=cd0dce23-200f-416c-916b-7be9d153fea3","ios":"levelo://app?vid=cd0dce23-200f-416c-916b-7be9d153fea3"},"vehicle_type_id":"4","last_reported":1729451187,"current_range_meters":18800,"station_id":"","pricing_plan_id":"cebpf4jnsgd1na2vs0mg"},{"bike_id":"23115ac6-aff5-45af-87d0-ffdacdb28fd5","system_id":"levelo_inurba_marseille","lat":43.22929,"lon":5.35379,"is_reserved":false,"is_disabled":false,"rental_uris":{"android":"levelo://app?vid=23115ac6-aff5-45af-87d0-ffdacdb28fd5","ios":"levelo://app?vid=23115ac6-aff5-45af-87d0-ffdacdb28fd5"},"vehicle_type_id":"4","last_reported":1729451187,"current_range_meters":38800,"station_id":"cpo3532slgdg3j2ikp40","pricing_plan_id":"cebpf4jnsgd1na2vs0mg"},{"bike_id":"152751a1-3299-42f2-b764-a541e63e60bd","system_id":"levelo_inurba_marseille","lat":43.29626,"lon":5.40597,"is_reserved":false,"is_disabled":false,"rental_uris":{"android":"levelo://app?vid=152751a1-3299-42f2-b764-a541e63e60bd","ios":"levelo://app?vid=152751a1-3299-42f2-b764-a541e63e60bd"},"vehicle_type_id":"4","last_reported":1729451187,"current_range_meters":11200,"station_id":"ce4bh0h2rcd13ifvqd60","pricing_plan_id":"cebpf4jnsgd1na2vs0mg"},{"bike_id":"37b5afbc-bd86-49c9-8fc8-b8a27fda484e","system_id":"levelo_inurba_marseille","lat":43.29275,"lon":5.38438,"is_reserved":false,"is_disabled":false,"rental_uris":{"android":"levelo://app?vid=37b5afbc-bd86-49c9-8fc8-b8a27fda484e","ios":"levelo://app?vid=37b5afbc-bd86-49c9-8fc8-b8a27fda484e"},"vehicle_type_id":"4","last_reported":1729451187,"current_range_meters":25200,"station_id":"","pricing_plan_id":"cebpf4jnsgd1na2vs0mg"},{"bike_id":"4baa99ae-2e1a-436a-bb1d-886404f1cc4d","system_id":"levelo_inurba_marseille","lat":43.28275,"lon":5.35074,"is_reserved":false,"is_disabled":false,"rental_uris":{"android":"levelo://app?vid=4baa99ae-2e1a-436a-bb1d-886404f1cc4d","ios":"levelo://app?vid=4baa99ae-2e1a-436a-bb1d-886404f1cc4d"},"vehicle_type_id":"4","last_reported":1729451187,"current_range_meters":38800,"station_id":"ce4bhbp2rcd13ifvqerg","pricing_plan_id":"cebpf4jnsgd1na2vs0mg"},{"bike_id":"fc500e1d-5832-4d29-a769-c16544409f29","system_id":"levelo_inurba_marseille","lat":43.29274,"lon":5.38444,"is_reserved":false,"is_disabled":false,"rental_uris":{"android":"levelo://app?vid=fc500e1d-5832-4d29-a769-c16544409f29","ios":"levelo://app?vid=fc500e1d-5832-4d29-a769-c16544409f29"},"vehicle_type_id":"4","last_reported":1729451187,"current_range_meters":13600,"station_id":"","pricing_plan_id":"cebpf4jnsgd1na2vs0mg"},{"bike_id":"084a7e5d-30fd-4618-b434-978c58cae12d","system_id":"levelo_inurba_marseille","lat":43.26495,"lon":5.39538,"is_reserved":false,"is_disabled":false,"rental_uris":{"android":"levelo://app?vid=084a7e5d-30fd-4618-b434-978c58cae12d","ios":"levelo://app?vid=084a7e5d-30fd-4618-b434-978c58cae12d"},"vehicle_type_id":"4","last_reported":1729451187,"current_range_meters":3600,"station_id":"ce4bhi12rcd13ifvqfq0","pricing_plan_id":"cebpf4jnsgd1na2vs0mg"},{"bike_id":"c052e5f3-0f87-4988-9be5-74b491b82108","system_id":"levelo_inurba_marseille","lat":43.32478,"lon":5.36579,"is_reserved":false,"is_disabled":false,"rental_uris":{"android":"levelo://app?vid=c052e5f3-0f87-4988-9be5-74b491b82108","ios":"levelo://app?vid=c052e5f3-0f87-4988-9be5-74b491b82108"},"vehicle_type_id":"4","last_reported":1729451187,"current_range_meters":38800,"station_id":"ce4bhs12rcd13ifvqhvg","pricing_plan_id":"cebpf4jnsgd1na2vs0mg"},{"bike_id":"ccf31a9f-7fb0-4661-a795-23454bfeb31b","system_id":"levelo_inurba_marseille","lat":43.29271,"lon":5.40119,"is_reserved":false,"is_disabled":false,"rental_uris":{"android":"levelo://app?vid=ccf31a9f-7fb0-4661-a795-23454bfeb31b","ios":"levelo://app?vid=ccf31a9f-7fb0-4661-a795-23454bfeb31b"},"vehicle_type_id":"4","last_reported":1729451187,"current_range_meters":3200,"station_id":"ce4bh312rcd13ifvqdk0","pricing_plan_id":"cebpf4jnsgd1na2vs0mg"},{"bike_id":"68810bec-e217-4e63-a344-b9bfbc43f890","system_id":"levelo_inurba_marseille","lat":43.27992,"lon":5.40022,"is_reserved":false,"is_disabled":false,"rental_uris":{"android":"levelo://app?vid=68810bec-e217-4e63-a344-b9bfbc43f890","ios":"levelo://app?vid=68810bec-e217-4e63-a344-b9bfbc43f890"},"vehicle_type_id":"4","last_reported":1729451187,"current_range_meters":15200,"station_id":"ce4bho92rcd13ifvqh4g","pricing_plan_id":"cebpf4jnsgd1na2vs0mg"},{"bike_id":"25bcd75b-fb00-46fb-b4c0-4a0a2321fc8a","system_id":"levelo_inurba_marseille","lat":43.3117,"lon":5.38719,"is_reserved":false,"is_disabled":false,"rental_uris":{"android":"levelo://app?vid=25bcd75b-fb00-46fb-b4c0-4a0a2321fc8a","ios":"levelo://app?vid=25bcd75b-fb00-46fb-b4c0-4a0a2321fc8a"},"vehicle_type_id":"4","last_reported":1729451187,"current_range_meters":23200,"station_id":"ce4bgv12rcd13ifvqcp0","pricing_plan_id":"cebpf4jnsgd1na2vs0mg"},{"bike_id":"40032752-0d4d-4645-9d5b-ffaa470ec411","system_id":"levelo_inurba_marseille","lat":43.29254,"lon":5.38452,"is_reserved":false,"is_disabled":false,"rental_uris":{"android":"levelo://app?vid=40032752-0d4d-4645-9d5b-ffaa470ec411","ios":"levelo://app?vid=40032752-0d4d-4645-9d5b-ffaa470ec411"},"vehicle_type_id":"4","last_reported":1729451187,"current_range_meters":38800,"station_id":"","pricing_plan_id":"cebpf4jnsgd1na2vs0mg"},{"bike_id":"f486d8de-27e8-4967-9e4f-c93a12054b35","system_id":"levelo_inurba_marseille","lat":43.30727,"lon":5.36623,"is_reserved":false,"is_disabled":false,"rental_uris":{"android":"levelo://app?vid=f486d8de-27e8-4967-9e4f-c93a12054b35","ios":"levelo://app?vid=f486d8de-27e8-4967-9e4f-c93a12054b35"},"vehicle_type_id":"4","last_reported":1729451187,"current_range_meters":16400,"station_id":"","pricing_plan_id":"cebpf4jnsgd1na2vs0mg"},{"bike_id":"43d24770-4ece-4a77-a029-fe46e9bde13b","system_id":"levelo_inurba_marseille","lat":43.31573,"lon":5.37429,"is_reserved":false,"is_disabled":false,"rental_uris":{"android":"levelo://app?vid=43d24770-4ece-4a77-a029-fe46e9bde13b","ios":"levelo://app?vid=43d24770-4ece-4a77-a029-fe46e9bde13b"},"vehicle_type_id":"4","last_reported":1729451187,"current_range_meters":36000,"station_id":"","pricing_plan_id":"cebpf4jnsgd1na2vs0mg"},{"bike_id":"9638ad47-6312-42d8-a475-3579cb20e4bb","system_id":"levelo_inurba_marseille","lat":43.28073,"lon":5.39649,"is_reserved":false,"is_disabled":false,"rental_uris":{"android":"levelo://app?vid=9638ad47-6312-42d8-a475-3579cb20e4bb","ios":"levelo://app?vid=9638ad47-6312-42d8-a475-3579cb20e4bb"},"vehicle_type_id":"4","last_reported":1729451187,"current_range_meters":22800,"station_id":"ce4bho12rcd13ifvqh2g","pricing_plan_id":"cebpf4jnsgd1na2vs0mg"},{"bike_id":"bdf13b44-668e-4d67-8453-43365f4780e8","system_id":"levelo_inurba_marseille","lat":43.28269,"lon":5.35071,"is_reserved":false,"is_disabled":false,"rental_uris":{"android":"levelo://app?vid=bdf13b44-668e-4d67-8453-43365f4780e8","ios":"levelo://app?vid=bdf13b44-668e-4d67-8453-43365f4780e8"},"vehicle_type_id":"4","last_reported":1729451187,"current_range_meters":38800,"station_id":"ce4bhbp2rcd13ifvqerg","pricing_plan_id":"cebpf4jnsgd1na2vs0mg"},{"bike_id":"766da900-471d-42f5-8cfa-8db494f945d7","system_id":"levelo_inurba_marseille","lat":43.28905,"lon":5.46052,"is_reserved":false,"is_disabled":false,"rental_uris":{"android":"levelo://app?vid=766da900-471d-42f5-8cfa-8db494f945d7","ios":"levelo://app?vid=766da900-471d-42f5-8cfa-8db494f945d7"},"vehicle_type_id":"4","last_reported":1729451187,"current_range_meters":24000,"station_id":"","pricing_plan_id":"cebpf4jnsgd1na2vs0mg"},{"bike_id":"67e895f9-089c-4e09-aa4d-1471f5fbc303","system_id":"levelo_inurba_marseille","lat":43.29787,"lon":5.39336,"is_reserved":false,"is_disabled":false,"rental_uris":{"android":"levelo://app?vid=67e895f9-089c-4e09-aa4d-1471f5fbc303","ios":"levelo://app?vid=67e895f9-089c-4e09-aa4d-1471f5fbc303"},"vehicle_type_id":"4","last_reported":1729451187,"current_range_meters":29600,"station_id":"chh1huq6cuj3fo74tm60","pricing_plan_id":"cebpf4jnsgd1na2vs0mg"},{"bike_id":"165b87db-cebb-44e0-91c8-012ba38fa763","system_id":"levelo_inurba_marseille","lat":43.28284,"lon":5.35081,"is_reserved":false,"is_disabled":false,"rental_uris":{"android":"levelo://app?vid=165b87db-cebb-44e0-91c8-012ba38fa763","ios":"levelo://app?vid=165b87db-cebb-44e0-91c8-012ba38fa763"},"vehicle_type_id":"4","last_reported":1729451187,"current_range_meters":38800,"station_id":"ce4bhbp2rcd13ifvqerg","pricing_plan_id":"cebpf4jnsgd1na2vs0mg"},{"bike_id":"6b0b00df-acb0-4528-adb6-b3172252b95b","system_id":"levelo_inurba_marseille","lat":43.28709,"lon":5.37385,"is_reserved":false,"is_disabled":false,"rental_uris":{"android":"levelo://app?vid=6b0b00df-acb0-4528-adb6-b3172252b95b","ios":"levelo://app?vid=6b0b00df-acb0-4528-adb6-b3172252b95b"},"vehicle_type_id":"4","last_reported":1729451187,"current_range_meters":16400,"station_id":"ce4bh3p2rcd13ifvqdq0","pricing_plan_id":"cebpf4jnsgd1na2vs0mg"},{"bike_id":"62bd4279-85cf-4db8-9679-527d5cdbe521","system_id":"levelo_inurba_marseille","lat":43.295413,"lon":5.385388,"is_reserved":false,"is_disabled":false,"rental_uris":{"android":"levelo://app?vid=62bd4279-85cf-4db8-9679-527d5cdbe521","ios":"levelo://app?vid=62bd4279-85cf-4db8-9679-527d5cdbe521"},"vehicle_type_id":"4","last_reported":1729451187,"current_range_meters":22400,"station_id":"ce4bgqh2rcd13ifvqc5g","pricing_plan_id":"cebpf4jnsgd1na2vs0mg"},{"bike_id":"8d6bfd25-52df-48da-9955-9ca90c74daac","system_id":"levelo_inurba_marseille","lat":43.29299,"lon":5.37459,"is_reserved":false,"is_disabled":false,"rental_uris":{"android":"levelo://app?vid=8d6bfd25-52df-48da-9955-9ca90c74daac","ios":"levelo://app?vid=8d6bfd25-52df-48da-9955-9ca90c74daac"},"vehicle_type_id":"4","last_reported":1729451187,"current_range_meters":30000,"station_id":"ce4bgi12rcd13ifvqb70","pricing_plan_id":"cebpf4jnsgd1na2vs0mg"},{"bike_id":"20882325-1c8b-4200-875d-6d9fdcce69b4","system_id":"levelo_inurba_marseille","lat":43.29432,"lon":5.39743,"is_reserved":false,"is_disabled":false,"rental_uris":{"android":"levelo://app?vid=20882325-1c8b-4200-875d-6d9fdcce69b4","ios":"levelo://app?vid=20882325-1c8b-4200-875d-6d9fdcce69b4"},"vehicle_type_id":"4","last_reported":1729451187,"current_range_meters":3200,"station_id":"ce4bh3h2rcd13ifvqdo0","pricing_plan_id":"cebpf4jnsgd1na2vs0mg"},{"bike_id":"cf10c138-cf3b-4050-9301-91ff5286f7ea","system_id":"levelo_inurba_marseille","lat":43.28261,"lon":5.35077,"is_reserved":false,"is_disabled":false,"rental_uris":{"android":"levelo://app?vid=cf10c138-cf3b-4050-9301-91ff5286f7ea","ios":"levelo://app?vid=cf10c138-cf3b-4050-9301-91ff5286f7ea"},"vehicle_type_id":"4","last_reported":1729451187,"current_range_meters":38800,"station_id":"ce4bhbp2rcd13ifvqerg","pricing_plan_id":"cebpf4jnsgd1na2vs0mg"},{"bike_id":"3a90cd5a-8d84-4a1f-9da8-3547bb5d20c1","system_id":"levelo_inurba_marseille","lat":43.231947,"lon":5.35548,"is_reserved":false,"is_disabled":false,"rental_uris":{"android":"levelo://app?vid=3a90cd5a-8d84-4a1f-9da8-3547bb5d20c1","ios":"levelo://app?vid=3a90cd5a-8d84-4a1f-9da8-3547bb5d20c1"},"vehicle_type_id":"4","last_reported":1729451187,"current_range_meters":28800,"station_id":"ce4bhu92rcd13ifvqi70","pricing_plan_id":"cebpf4jnsgd1na2vs0mg"},{"bike_id":"c47ccd47-d873-4fd2-ba35-77b6357180ca","system_id":"levelo_inurba_marseille","lat":43.28108,"lon":5.37844,"is_reserved":false,"is_disabled":false,"rental_uris":{"android":"levelo://app?vid=c47ccd47-d873-4fd2-ba35-77b6357180ca","ios":"levelo://app?vid=c47ccd47-d873-4fd2-ba35-77b6357180ca"},"vehicle_type_id":"4","last_reported":1729451187,"current_range_meters":12400,"station_id":"ce4bha12rcd13ifvqee0","pricing_plan_id":"cebpf4jnsgd1na2vs0mg"},{"bike_id":"cdf720eb-bef6-482e-9dbe-91e8738be555","system_id":"levelo_inurba_marseille","lat":43.26686,"lon":5.38275,"is_reserved":false,"is_disabled":false,"rental_uris":{"android":"levelo://app?vid=cdf720eb-bef6-482e-9dbe-91e8738be555","ios":"levelo://app?vid=cdf720eb-bef6-482e-9dbe-91e8738be555"},"vehicle_type_id":"4","last_reported":1729451187,"current_range_meters":3600,"station_id":"ce4bhg92rcd13ifvqf90","pricing_plan_id":"cebpf4jnsgd1na2vs0mg"},{"bike_id":"4b0e1ae9-90da-4b3c-97a7-9fcaa6ea9192","system_id":"levelo_inurba_marseille","lat":43.28101,"lon":5.37852,"is_reserved":false,"is_disabled":false,"rental_uris":{"android":"levelo://app?vid=4b0e1ae9-90da-4b3c-97a7-9fcaa6ea9192","ios":"levelo://app?vid=4b0e1ae9-90da-4b3c-97a7-9fcaa6ea9192"},"vehicle_type_id":"4","last_reported":1729451187,"current_range_meters":38400,"station_id":"ce4bha12rcd13ifvqee0","pricing_plan_id":"cebpf4jnsgd1na2vs0mg"},{"bike_id":"61f6fcba-0270-4e6f-bab2-fc32e0baeaf0","system_id":"levelo_inurba_marseille","lat":43.28101,"lon":5.3784,"is_reserved":false,"is_disabled":false,"rental_uris":{"android":"levelo://app?vid=61f6fcba-0270-4e6f-bab2-fc32e0baeaf0","ios":"levelo://app?vid=61f6fcba-0270-4e6f-bab2-fc32e0baeaf0"},"vehicle_type_id":"4","last_reported":1729451187,"current_range_meters":8800,"station_id":"ce4bha12rcd13ifvqee0","pricing_plan_id":"cebpf4jnsgd1na2vs0mg"},{"bike_id":"7772d39f-5e28-445c-af91-069b0cf63793","system_id":"levelo_inurba_marseille","lat":43.33765,"lon":5.37438,"is_reserved":false,"is_disabled":false,"rental_uris":{"android":"levelo://app?vid=7772d39f-5e28-445c-af91-069b0cf63793","ios":"levelo://app?vid=7772d39f-5e28-445c-af91-069b0cf63793"},"vehicle_type_id":"4","last_reported":1729451187,"current_range_meters":3200,"station_id":"","pricing_plan_id":"cebpf4jnsgd1na2vs0mg"},{"bike_id":"3213665e-989c-4d22-9f5a-31c8522597dd","system_id":"levelo_inurba_marseille","lat":43.296,"lon":5.36142,"is_reserved":false,"is_disabled":false,"rental_uris":{"android":"levelo://app?vid=3213665e-989c-4d22-9f5a-31c8522597dd","ios":"levelo://app?vid=3213665e-989c-4d22-9f5a-31c8522597dd"},"vehicle_type_id":"4","last_reported":1729451187,"current_range_meters":14000,"station_id":"","pricing_plan_id":"cebpf4jnsgd1na2vs0mg"},{"bike_id":"c0d3d32e-e5a1-4781-982b-6fe954b368b7","system_id":"levelo_inurba_marseille","lat":43.28716,"lon":5.36096,"is_reserved":false,"is_disabled":false,"rental_uris":{"android":"levelo://app?vid=c0d3d32e-e5a1-4781-982b-6fe954b368b7","ios":"levelo://app?vid=c0d3d32e-e5a1-4781-982b-6fe954b368b7"},"vehicle_type_id":"4","last_reported":1729451187,"current_range_meters":5600,"station_id":"cki0cbj6b192h4jlfktg","pricing_plan_id":"cebpf4jnsgd1na2vs0mg"},{"bike_id":"5d6c3005-e55e-43af-b827-08669e5746d7","system_id":"levelo_inurba_marseille","lat":43.29618,"lon":5.37153,"is_reserved":false,"is_disabled":false,"rental_uris":{"android":"levelo://app?vid=5d6c3005-e55e-43af-b827-08669e5746d7","ios":"levelo://app?vid=5d6c3005-e55e-43af-b827-08669e5746d7"},"vehicle_type_id":"4","last_reported":1729451187,"current_range_meters":3600,"station_id":"ce4bgnh2rcd13ifvqc0g","pricing_plan_id":"cebpf4jnsgd1na2vs0mg"},{"bike_id":"9a2117f0-c5b0-4dc2-891b-026a24af23f1","system_id":"levelo_inurba_marseille","lat":43.3105,"lon":5.40092,"is_reserved":false,"is_disabled":false,"rental_uris":{"android":"levelo://app?vid=9a2117f0-c5b0-4dc2-891b-026a24af23f1","ios":"levelo://app?vid=9a2117f0-c5b0-4dc2-891b-026a24af23f1"},"vehicle_type_id":"4","last_reported":1729451187,"current_range_meters":34800,"station_id":"","pricing_plan_id":"cebpf4jnsgd1na2vs0mg"},{"bike_id":"2d3f3959-1f1e-4500-90dc-cd8999540bc5","system_id":"levelo_inurba_marseille","lat":43.28689,"lon":5.37391,"is_reserved":false,"is_disabled":false,"rental_uris":{"android":"levelo://app?vid=2d3f3959-1f1e-4500-90dc-cd8999540bc5","ios":"levelo://app?vid=2d3f3959-1f1e-4500-90dc-cd8999540bc5"},"vehicle_type_id":"4","last_reported":1729451187,"current_range_meters":31200,"station_id":"ce4bh3p2rcd13ifvqdq0","pricing_plan_id":"cebpf4jnsgd1na2vs0mg"},{"bike_id":"bb503d0e-69b0-4cd4-a163-e87e48d3817f","system_id":"levelo_inurba_marseille","lat":43.30786,"lon":5.37646,"is_reserved":false,"is_disabled":false,"rental_uris":{"android":"levelo://app?vid=bb503d0e-69b0-4cd4-a163-e87e48d3817f","ios":"levelo://app?vid=bb503d0e-69b0-4cd4-a163-e87e48d3817f"},"vehicle_type_id":"4","last_reported":1729451187,"current_range_meters":39200,"station_id":"ce4bgv92rcd13ifvqcq0","pricing_plan_id":"cebpf4jnsgd1na2vs0mg"},{"bike_id":"725182cc-4097-4853-b13c-089efc6a1f69","system_id":"levelo_inurba_marseille","lat":43.28262,"lon":5.35063,"is_reserved":false,"is_disabled":false,"rental_uris":{"android":"levelo://app?vid=725182cc-4097-4853-b13c-089efc6a1f69","ios":"levelo://app?vid=725182cc-4097-4853-b13c-089efc6a1f69"},"vehicle_type_id":"4","last_reported":1729451187,"current_range_meters":26000,"station_id":"ce4bhbp2rcd13ifvqerg","pricing_plan_id":"cebpf4jnsgd1na2vs0mg"},{"bike_id":"250a7653-6d32-4d58-8d5c-09afc2558346","system_id":"levelo_inurba_marseille","lat":43.27906,"lon":5.39579,"is_reserved":false,"is_disabled":false,"rental_uris":{"android":"levelo://app?vid=250a7653-6d32-4d58-8d5c-09afc2558346","ios":"levelo://app?vid=250a7653-6d32-4d58-8d5c-09afc2558346"},"vehicle_type_id":"4","last_reported":1729451187,"current_range_meters":36800,"station_id":"ce4bhf92rcd13ifvqf40","pricing_plan_id":"cebpf4jnsgd1na2vs0mg"},{"bike_id":"610e4f6a-70e7-44c7-8907-c57f15a95a0c","system_id":"levelo_inurba_marseille","lat":43.290131,"lon":5.381279,"is_reserved":false,"is_disabled":false,"rental_uris":{"android":"levelo://app?vid=610e4f6a-70e7-44c7-8907-c57f15a95a0c","ios":"levelo://app?vid=610e4f6a-70e7-44c7-8907-c57f15a95a0c"},"vehicle_type_id":"4","last_reported":1729451187,"current_range_meters":32400,"station_id":"ce4bhop2rcd13ifvqh8g","pricing_plan_id":"cebpf4jnsgd1na2vs0mg"},{"bike_id":"3147a663-e9c9-4f9e-8044-b4159ece6ee8","system_id":"levelo_inurba_marseille","lat":43.28152,"lon":5.42643,"is_reserved":false,"is_disabled":false,"rental_uris":{"android":"levelo://app?vid=3147a663-e9c9-4f9e-8044-b4159ece6ee8","ios":"levelo://app?vid=3147a663-e9c9-4f9e-8044-b4159ece6ee8"},"vehicle_type_id":"4","last_reported":1729451187,"current_range_meters":3200,"station_id":"ce4bhnh2rcd13ifvqgug","pricing_plan_id":"cebpf4jnsgd1na2vs0mg"},{"bike_id":"eaaa5fbc-63f7-46b3-b6d4-fd6dc86ad4e8","system_id":"levelo_inurba_marseille","lat":43.23955,"lon":5.36627,"is_reserved":false,"is_disabled":false,"rental_uris":{"android":"levelo://app?vid=eaaa5fbc-63f7-46b3-b6d4-fd6dc86ad4e8","ios":"levelo://app?vid=eaaa5fbc-63f7-46b3-b6d4-fd6dc86ad4e8"},"vehicle_type_id":"4","last_reported":1729451187,"current_range_meters":38800,"station_id":"ce4bhi12rcd13ifvqfp0","pricing_plan_id":"cebpf4jnsgd1na2vs0mg"},{"bike_id":"b22bf912-4d78-4fb9-9f1a-65164392dc53","system_id":"levelo_inurba_marseille","lat":43.29535,"lon":5.39405,"is_reserved":false,"is_disabled":false,"rental_uris":{"android":"levelo://app?vid=b22bf912-4d78-4fb9-9f1a-65164392dc53","ios":"levelo://app?vid=b22bf912-4d78-4fb9-9f1a-65164392dc53"},"vehicle_type_id":"4","last_reported":1729451187,"current_range_meters":38800,"station_id":"ce4bh292rcd13ifvqdf0","pricing_plan_id":"cebpf4jnsgd1na2vs0mg"},{"bike_id":"ec320eca-9253-4680-845b-875c58b53629","system_id":"levelo_inurba_marseille","lat":43.31233,"lon":5.36855,"is_reserved":false,"is_disabled":false,"rental_uris":{"android":"levelo://app?vid=ec320eca-9253-4680-845b-875c58b53629","ios":"levelo://app?vid=ec320eca-9253-4680-845b-875c58b53629"},"vehicle_type_id":"4","last_reported":1729451187,"current_range_meters":7200,"station_id":"ce4bgl92rcd13ifvqbq0","pricing_plan_id":"cebpf4jnsgd1na2vs0mg"},{"bike_id":"d19effcd-f9cd-45a2-981b-42084bad2928","system_id":"levelo_inurba_marseille","lat":43.33022,"lon":5.39041,"is_reserved":false,"is_disabled":false,"rental_uris":{"android":"levelo://app?vid=d19effcd-f9cd-45a2-981b-42084bad2928","ios":"levelo://app?vid=d19effcd-f9cd-45a2-981b-42084bad2928"},"vehicle_type_id":"4","last_reported":1729451187,"current_range_meters":14000,"station_id":"ce4bhr92rcd13ifvqhrg","pricing_plan_id":"cebpf4jnsgd1na2vs0mg"},{"bike_id":"2ce1e022-52d2-448f-96d8-42cb24994191","system_id":"levelo_inurba_marseille","lat":43.299844,"lon":5.371495,"is_reserved":false,"is_disabled":false,"rental_uris":{"android":"levelo://app?vid=2ce1e022-52d2-448f-96d8-42cb24994191","ios":"levelo://app?vid=2ce1e022-52d2-448f-96d8-42cb24994191"},"vehicle_type_id":"4","last_reported":1729451187,"current_range_meters":38800,"station_id":"ce4bgr92rcd13ifvqc7g","pricing_plan_id":"cebpf4jnsgd1na2vs0mg"},{"bike_id":"931e5361-897f-4e90-919a-9b43d4a77498","system_id":"levelo_inurba_marseille","lat":43.28707,"lon":5.3739,"is_reserved":false,"is_disabled":false,"rental_uris":{"android":"levelo://app?vid=931e5361-897f-4e90-919a-9b43d4a77498","ios":"levelo://app?vid=931e5361-897f-4e90-919a-9b43d4a77498"},"vehicle_type_id":"4","last_reported":1729451187,"current_range_meters":10800,"station_id":"ce4bh3p2rcd13ifvqdq0","pricing_plan_id":"cebpf4jnsgd1na2vs0mg"},{"bike_id":"691c3a29-1c10-46c9-a0ad-1434fd41e0c6","system_id":"levelo_inurba_marseille","lat":43.29265,"lon":5.38448,"is_reserved":false,"is_disabled":false,"rental_uris":{"android":"levelo://app?vid=691c3a29-1c10-46c9-a0ad-1434fd41e0c6","ios":"levelo://app?vid=691c3a29-1c10-46c9-a0ad-1434fd41e0c6"},"vehicle_type_id":"4","last_reported":1729451187,"current_range_meters":6800,"station_id":"","pricing_plan_id":"cebpf4jnsgd1na2vs0mg"},{"bike_id":"f26a378f-aa47-4390-8985-319b5901d336","system_id":"levelo_inurba_marseille","lat":43.26194,"lon":5.37451,"is_reserved":false,"is_disabled":false,"rental_uris":{"android":"levelo://app?vid=f26a378f-aa47-4390-8985-319b5901d336","ios":"levelo://app?vid=f26a378f-aa47-4390-8985-319b5901d336"},"vehicle_type_id":"4","last_reported":1729451187,"current_range_meters":37600,"station_id":"ce4bhgp2rcd13ifvqfc0","pricing_plan_id":"cebpf4jnsgd1na2vs0mg"},{"bike_id":"1683d216-d715-408c-8da1-7acbf6f7c18e","system_id":"levelo_inurba_marseille","lat":43.28695,"lon":5.39983,"is_reserved":false,"is_disabled":false,"rental_uris":{"android":"levelo://app?vid=1683d216-d715-408c-8da1-7acbf6f7c18e","ios":"levelo://app?vid=1683d216-d715-408c-8da1-7acbf6f7c18e"},"vehicle_type_id":"4","last_reported":1729451187,"current_range_meters":4400,"station_id":"ce4bho92rcd13ifvqh3g","pricing_plan_id":"cebpf4jnsgd1na2vs0mg"},{"bike_id":"b02712fc-564a-476e-a5f6-c6a788687837","system_id":"levelo_inurba_marseille","lat":43.27668,"lon":5.38892,"is_reserved":false,"is_disabled":false,"rental_uris":{"android":"levelo://app?vid=b02712fc-564a-476e-a5f6-c6a788687837","ios":"levelo://app?vid=b02712fc-564a-476e-a5f6-c6a788687837"},"vehicle_type_id":"4","last_reported":1729451187,"current_range_meters":7200,"station_id":"ce4bhi12rcd13ifvqfo0","pricing_plan_id":"cebpf4jnsgd1na2vs0mg"},{"bike_id":"fb8cede0-5f49-49e1-aaf1-f97f7864fb33","system_id":"levelo_inurba_marseille","lat":43.32622,"lon":5.38895,"is_reserved":false,"is_disabled":false,"rental_uris":{"android":"levelo://app?vid=fb8cede0-5f49-49e1-aaf1-f97f7864fb33","ios":"levelo://app?vid=fb8cede0-5f49-49e1-aaf1-f97f7864fb33"},"vehicle_type_id":"4","last_reported":1729451187,"current_range_meters":32800,"station_id":"","pricing_plan_id":"cebpf4jnsgd1na2vs0mg"},{"bike_id":"f70723d8-b4b2-4c7a-a3ec-7e35204c3d04","system_id":"levelo_inurba_marseille","lat":43.31112,"lon":5.37773,"is_reserved":false,"is_disabled":false,"rental_uris":{"android":"levelo://app?vid=f70723d8-b4b2-4c7a-a3ec-7e35204c3d04","ios":"levelo://app?vid=f70723d8-b4b2-4c7a-a3ec-7e35204c3d04"},"vehicle_type_id":"4","last_reported":1729451187,"current_range_meters":16000,"station_id":"ce4bgt92rcd13ifvqcg0","pricing_plan_id":"cebpf4jnsgd1na2vs0mg"},{"bike_id":"4cf3e5d8-4f9a-4007-b965-622ecd99339e","system_id":"levelo_inurba_marseille","lat":43.31074,"lon":5.40085,"is_reserved":false,"is_disabled":false,"rental_uris":{"android":"levelo://app?vid=4cf3e5d8-4f9a-4007-b965-622ecd99339e","ios":"levelo://app?vid=4cf3e5d8-4f9a-4007-b965-622ecd99339e"},"vehicle_type_id":"4","last_reported":1729451187,"current_range_meters":8000,"station_id":"","pricing_plan_id":"cebpf4jnsgd1na2vs0mg"},{"bike_id":"3de5f9c6-824d-4fba-b9de-50e1c84c4cf7","system_id":"levelo_inurba_marseille","lat":43.278135,"lon":5.407171,"is_reserved":false,"is_disabled":false,"rental_uris":{"android":"levelo://app?vid=3de5f9c6-824d-4fba-b9de-50e1c84c4cf7","ios":"levelo://app?vid=3de5f9c6-824d-4fba-b9de-50e1c84c4cf7"},"vehicle_type_id":"4","last_reported":1729451187,"current_range_meters":6800,"station_id":"ce4bho92rcd13ifvqh3g","pricing_plan_id":"cebpf4jnsgd1na2vs0mg"},{"bike_id":"665cb5d9-26ce-47b8-b9fb-3346f0f48886","system_id":"levelo_inurba_marseille","lat":43.30891,"lon":5.37197,"is_reserved":false,"is_disabled":false,"rental_uris":{"android":"levelo://app?vid=665cb5d9-26ce-47b8-b9fb-3346f0f48886","ios":"levelo://app?vid=665cb5d9-26ce-47b8-b9fb-3346f0f48886"},"vehicle_type_id":"4","last_reported":1729451187,"current_range_meters":32400,"station_id":"ce4bguh2rcd13ifvqckg","pricing_plan_id":"cebpf4jnsgd1na2vs0mg"},{"bike_id":"eb28c191-e5cc-4e35-8818-10ea0b1447e3","system_id":"levelo_inurba_marseille","lat":43.30304,"lon":5.36914,"is_reserved":false,"is_disabled":false,"rental_uris":{"android":"levelo://app?vid=eb28c191-e5cc-4e35-8818-10ea0b1447e3","ios":"levelo://app?vid=eb28c191-e5cc-4e35-8818-10ea0b1447e3"},"vehicle_type_id":"4","last_reported":1729451187,"current_range_meters":38800,"station_id":"ce4bgqh2rcd13ifvqc5g","pricing_plan_id":"cebpf4jnsgd1na2vs0mg"},{"bike_id":"d3d6a749-5ba1-45d2-a120-17cd4f68d3cf","system_id":"levelo_inurba_marseille","lat":43.29081,"lon":5.38149,"is_reserved":false,"is_disabled":false,"rental_uris":{"android":"levelo://app?vid=d3d6a749-5ba1-45d2-a120-17cd4f68d3cf","ios":"levelo://app?vid=d3d6a749-5ba1-45d2-a120-17cd4f68d3cf"},"vehicle_type_id":"4","last_reported":1729451187,"current_range_meters":6800,"station_id":"ce4bh512rcd13ifvqe2g","pricing_plan_id":"cebpf4jnsgd1na2vs0mg"},{"bike_id":"cd291a06-beb4-4c33-9a33-5354d35fab8f","system_id":"levelo_inurba_marseille","lat":43.315241,"lon":5.380334,"is_reserved":false,"is_disabled":false,"rental_uris":{"android":"levelo://app?vid=cd291a06-beb4-4c33-9a33-5354d35fab8f","ios":"levelo://app?vid=cd291a06-beb4-4c33-9a33-5354d35fab8f"},"vehicle_type_id":"4","last_reported":1729451187,"current_range_meters":3600,"station_id":"ce4bhsp2rcd13ifvqi50","pricing_plan_id":"cebpf4jnsgd1na2vs0mg"},{"bike_id":"1538b57d-47a9-48f8-9577-e8904079b817","system_id":"levelo_inurba_marseille","lat":43.26949,"lon":5.38982,"is_reserved":false,"is_disabled":false,"rental_uris":{"android":"levelo://app?vid=1538b57d-47a9-48f8-9577-e8904079b817","ios":"levelo://app?vid=1538b57d-47a9-48f8-9577-e8904079b817"},"vehicle_type_id":"4","last_reported":1729451187,"current_range_meters":11200,"station_id":"ce4bhhp2rcd13ifvqfm0","pricing_plan_id":"cebpf4jnsgd1na2vs0mg"},{"bike_id":"84a0ecdc-7db3-4fcf-8d20-720f0dc598fa","system_id":"levelo_inurba_marseille","lat":43.24796,"lon":5.41881,"is_reserved":false,"is_disabled":false,"rental_uris":{"android":"levelo://app?vid=84a0ecdc-7db3-4fcf-8d20-720f0dc598fa","ios":"levelo://app?vid=84a0ecdc-7db3-4fcf-8d20-720f0dc598fa"},"vehicle_type_id":"4","last_reported":1729451187,"current_range_meters":8800,"station_id":"","pricing_plan_id":"cebpf4jnsgd1na2vs0mg"},{"bike_id":"83aa1b1c-0dcc-4d6a-8bdf-fcb956ace8fb","system_id":"levelo_inurba_marseille","lat":43.29267,"lon":5.38447,"is_reserved":false,"is_disabled":false,"rental_uris":{"android":"levelo://app?vid=83aa1b1c-0dcc-4d6a-8bdf-fcb956ace8fb","ios":"levelo://app?vid=83aa1b1c-0dcc-4d6a-8bdf-fcb956ace8fb"},"vehicle_type_id":"4","last_reported":1729451187,"current_range_meters":38800,"station_id":"","pricing_plan_id":"cebpf4jnsgd1na2vs0mg"},{"bike_id":"9a3c5d17-2cd7-4e1b-a563-2df71979dd8f","system_id":"levelo_inurba_marseille","lat":43.27205,"lon":5.39181,"is_reserved":false,"is_disabled":false,"rental_uris":{"android":"levelo://app?vid=9a3c5d17-2cd7-4e1b-a563-2df71979dd8f","ios":"levelo://app?vid=9a3c5d17-2cd7-4e1b-a563-2df71979dd8f"},"vehicle_type_id":"4","last_reported":1729451187,"current_range_meters":8800,"station_id":"ce4bhhp2rcd13ifvqfm0","pricing_plan_id":"cebpf4jnsgd1na2vs0mg"},{"bike_id":"5807a2c7-061c-4301-be74-3061c042d432","system_id":"levelo_inurba_marseille","lat":43.29926,"lon":5.36547,"is_reserved":false,"is_disabled":false,"rental_uris":{"android":"levelo://app?vid=5807a2c7-061c-4301-be74-3061c042d432","ios":"levelo://app?vid=5807a2c7-061c-4301-be74-3061c042d432"},"vehicle_type_id":"4","last_reported":1729451187,"current_range_meters":38800,"station_id":"ce4bgm92rcd13ifvqbr0","pricing_plan_id":"cebpf4jnsgd1na2vs0mg"},{"bike_id":"58e34e24-b4b2-4f3f-a70f-d89397edcabe","system_id":"levelo_inurba_marseille","lat":43.27614,"lon":5.36114,"is_reserved":false,"is_disabled":false,"rental_uris":{"android":"levelo://app?vid=58e34e24-b4b2-4f3f-a70f-d89397edcabe","ios":"levelo://app?vid=58e34e24-b4b2-4f3f-a70f-d89397edcabe"},"vehicle_type_id":"4","last_reported":1729451187,"current_range_meters":14400,"station_id":"ce4bgj92rcd13ifvqbe0","pricing_plan_id":"cebpf4jnsgd1na2vs0mg"},{"bike_id":"b5cd4a32-ddd1-4a1e-9b4c-b2d28ec47ac5","system_id":"levelo_inurba_marseille","lat":43.28105,"lon":5.37844,"is_reserved":false,"is_disabled":false,"rental_uris":{"android":"levelo://app?vid=b5cd4a32-ddd1-4a1e-9b4c-b2d28ec47ac5","ios":"levelo://app?vid=b5cd4a32-ddd1-4a1e-9b4c-b2d28ec47ac5"},"vehicle_type_id":"4","last_reported":1729451187,"current_range_meters":19600,"station_id":"ce4bha12rcd13ifvqee0","pricing_plan_id":"cebpf4jnsgd1na2vs0mg"},{"bike_id":"a4570300-b807-49a5-ae7a-f9458e08dfac","system_id":"levelo_inurba_marseille","lat":43.27837,"lon":5.39212,"is_reserved":false,"is_disabled":false,"rental_uris":{"android":"levelo://app?vid=a4570300-b807-49a5-ae7a-f9458e08dfac","ios":"levelo://app?vid=a4570300-b807-49a5-ae7a-f9458e08dfac"},"vehicle_type_id":"4","last_reported":1729451187,"current_range_meters":23200,"station_id":"ce4bhjp2rcd13ifvqga0","pricing_plan_id":"cebpf4jnsgd1na2vs0mg"},{"bike_id":"6b578d3c-d134-48e2-9662-c2d97d97ea58","system_id":"levelo_inurba_marseille","lat":43.31997,"lon":5.38158,"is_reserved":false,"is_disabled":false,"rental_uris":{"android":"levelo://app?vid=6b578d3c-d134-48e2-9662-c2d97d97ea58","ios":"levelo://app?vid=6b578d3c-d134-48e2-9662-c2d97d97ea58"},"vehicle_type_id":"4","last_reported":1729451187,"current_range_meters":37600,"station_id":"ce4bhr12rcd13ifvqhpg","pricing_plan_id":"cebpf4jnsgd1na2vs0mg"},{"bike_id":"0420c431-d3fb-423b-a389-3ad44a8ebaec","system_id":"levelo_inurba_marseille","lat":43.29422,"lon":5.38633,"is_reserved":false,"is_disabled":false,"rental_uris":{"android":"levelo://app?vid=0420c431-d3fb-423b-a389-3ad44a8ebaec","ios":"levelo://app?vid=0420c431-d3fb-423b-a389-3ad44a8ebaec"},"vehicle_type_id":"4","last_reported":1729451187,"current_range_meters":38800,"station_id":"ce4bh2h2rcd13ifvqdh0","pricing_plan_id":"cebpf4jnsgd1na2vs0mg"},{"bike_id":"10243b6c-e047-4637-8cd6-5393207c4cc9","system_id":"levelo_inurba_marseille","lat":43.26899,"lon":5.38846,"is_reserved":false,"is_disabled":false,"rental_uris":{"android":"levelo://app?vid=10243b6c-e047-4637-8cd6-5393207c4cc9","ios":"levelo://app?vid=10243b6c-e047-4637-8cd6-5393207c4cc9"},"vehicle_type_id":"4","last_reported":1729451187,"current_range_meters":2000,"station_id":"","pricing_plan_id":"cebpf4jnsgd1na2vs0mg"},{"bike_id":"813f8a68-8dee-42ee-821c-e07a4137856f","system_id":"levelo_inurba_marseille","lat":43.27902,"lon":5.38019,"is_reserved":false,"is_disabled":false,"rental_uris":{"android":"levelo://app?vid=813f8a68-8dee-42ee-821c-e07a4137856f","ios":"levelo://app?vid=813f8a68-8dee-42ee-821c-e07a4137856f"},"vehicle_type_id":"4","last_reported":1729451187,"current_range_meters":9200,"station_id":"ce4bhf92rcd13ifvqf50","pricing_plan_id":"cebpf4jnsgd1na2vs0mg"},{"bike_id":"75df5c74-3855-4601-8694-aa8a526379fb","system_id":"levelo_inurba_marseille","lat":43.2846,"lon":5.35901,"is_reserved":false,"is_disabled":false,"rental_uris":{"android":"levelo://app?vid=75df5c74-3855-4601-8694-aa8a526379fb","ios":"levelo://app?vid=75df5c74-3855-4601-8694-aa8a526379fb"},"vehicle_type_id":"4","last_reported":1729451187,"current_range_meters":24800,"station_id":"ce4bhah2rcd13ifvqei0","pricing_plan_id":"cebpf4jnsgd1na2vs0mg"},{"bike_id":"ed2077cb-cfc1-4f27-9e92-a3a506990a71","system_id":"levelo_inurba_marseille","lat":43.303161,"lon":5.404445,"is_reserved":false,"is_disabled":false,"rental_uris":{"android":"levelo://app?vid=ed2077cb-cfc1-4f27-9e92-a3a506990a71","ios":"levelo://app?vid=ed2077cb-cfc1-4f27-9e92-a3a506990a71"},"vehicle_type_id":"4","last_reported":1729451187,"current_range_meters":2800,"station_id":"ce4bh012rcd13ifvqd10","pricing_plan_id":"cebpf4jnsgd1na2vs0mg"},{"bike_id":"8fb1536f-2d96-4eb3-969d-aaabcb38470f","system_id":"levelo_inurba_marseille","lat":43.29889,"lon":5.38904,"is_reserved":false,"is_disabled":false,"rental_uris":{"android":"levelo://app?vid=8fb1536f-2d96-4eb3-969d-aaabcb38470f","ios":"levelo://app?vid=8fb1536f-2d96-4eb3-969d-aaabcb38470f"},"vehicle_type_id":"4","last_reported":1729451187,"current_range_meters":26000,"station_id":"ce4bh392rcd13ifvqdl0","pricing_plan_id":"cebpf4jnsgd1na2vs0mg"},{"bike_id":"f3b18d4c-688e-4e02-9104-7f1d559134af","system_id":"levelo_inurba_marseille","lat":43.32107,"lon":5.36773,"is_reserved":false,"is_disabled":false,"rental_uris":{"android":"levelo://app?vid=f3b18d4c-688e-4e02-9104-7f1d559134af","ios":"levelo://app?vid=f3b18d4c-688e-4e02-9104-7f1d559134af"},"vehicle_type_id":"4","last_reported":1729451187,"current_range_meters":35600,"station_id":"ce4bhrh2rcd13ifvqhug","pricing_plan_id":"cebpf4jnsgd1na2vs0mg"},{"bike_id":"91d2ac5b-6711-4e61-9bf9-88da1fbb2233","system_id":"levelo_inurba_marseille","lat":43.26679,"lon":5.38268,"is_reserved":false,"is_disabled":false,"rental_uris":{"android":"levelo://app?vid=91d2ac5b-6711-4e61-9bf9-88da1fbb2233","ios":"levelo://app?vid=91d2ac5b-6711-4e61-9bf9-88da1fbb2233"},"vehicle_type_id":"4","last_reported":1729451187,"current_range_meters":22800,"station_id":"ce4bhg92rcd13ifvqf90","pricing_plan_id":"cebpf4jnsgd1na2vs0mg"},{"bike_id":"f4136449-9460-4030-a711-33bcf5b01ae1","system_id":"levelo_inurba_marseille","lat":43.28663,"lon":5.36362,"is_reserved":false,"is_disabled":false,"rental_uris":{"android":"levelo://app?vid=f4136449-9460-4030-a711-33bcf5b01ae1","ios":"levelo://app?vid=f4136449-9460-4030-a711-33bcf5b01ae1"},"vehicle_type_id":"4","last_reported":1729451187,"current_range_meters":22000,"station_id":"ce4bhah2rcd13ifvqej0","pricing_plan_id":"cebpf4jnsgd1na2vs0mg"},{"bike_id":"3bf2ae1c-49b2-4936-93d0-295eb17bee45","system_id":"levelo_inurba_marseille","lat":43.23063,"lon":5.35488,"is_reserved":false,"is_disabled":false,"rental_uris":{"android":"levelo://app?vid=3bf2ae1c-49b2-4936-93d0-295eb17bee45","ios":"levelo://app?vid=3bf2ae1c-49b2-4936-93d0-295eb17bee45"},"vehicle_type_id":"4","last_reported":1729451187,"current_range_meters":38800,"station_id":"cpo3342slgdg3j2ifvpg","pricing_plan_id":"cebpf4jnsgd1na2vs0mg"},{"bike_id":"a4bf4c37-492b-43fb-8327-d4e18ba08dac","system_id":"levelo_inurba_marseille","lat":43.28283,"lon":5.3507,"is_reserved":false,"is_disabled":false,"rental_uris":{"android":"levelo://app?vid=a4bf4c37-492b-43fb-8327-d4e18ba08dac","ios":"levelo://app?vid=a4bf4c37-492b-43fb-8327-d4e18ba08dac"},"vehicle_type_id":"4","last_reported":1729451187,"current_range_meters":37600,"station_id":"ce4bhbp2rcd13ifvqerg","pricing_plan_id":"cebpf4jnsgd1na2vs0mg"},{"bike_id":"8031bbe4-374a-4c40-aae4-ec48c179dc40","system_id":"levelo_inurba_marseille","lat":43.30127,"lon":5.39838,"is_reserved":false,"is_disabled":false,"rental_uris":{"android":"levelo://app?vid=8031bbe4-374a-4c40-aae4-ec48c179dc40","ios":"levelo://app?vid=8031bbe4-374a-4c40-aae4-ec48c179dc40"},"vehicle_type_id":"4","last_reported":1729451187,"current_range_meters":33200,"station_id":"ce4bh0h2rcd13ifvqd40","pricing_plan_id":"cebpf4jnsgd1na2vs0mg"},{"bike_id":"666e0536-0420-4706-8e49-6450568c8c72","system_id":"levelo_inurba_marseille","lat":43.28552,"lon":5.38982,"is_reserved":false,"is_disabled":false,"rental_uris":{"android":"levelo://app?vid=666e0536-0420-4706-8e49-6450568c8c72","ios":"levelo://app?vid=666e0536-0420-4706-8e49-6450568c8c72"},"vehicle_type_id":"4","last_reported":1729451187,"current_range_meters":6800,"station_id":"","pricing_plan_id":"cebpf4jnsgd1na2vs0mg"},{"bike_id":"72227f72-be48-4182-8659-01fea53b4691","system_id":"levelo_inurba_marseille","lat":43.28352,"lon":5.38639,"is_reserved":false,"is_disabled":false,"rental_uris":{"android":"levelo://app?vid=72227f72-be48-4182-8659-01fea53b4691","ios":"levelo://app?vid=72227f72-be48-4182-8659-01fea53b4691"},"vehicle_type_id":"4","last_reported":1729451187,"current_range_meters":8800,"station_id":"ce4bh492rcd13ifvqdvg","pricing_plan_id":"cebpf4jnsgd1na2vs0mg"},{"bike_id":"62738b42-4d14-4992-87b3-65556f57f437","system_id":"levelo_inurba_marseille","lat":43.24392,"lon":5.37058,"is_reserved":false,"is_disabled":false,"rental_uris":{"android":"levelo://app?vid=62738b42-4d14-4992-87b3-65556f57f437","ios":"levelo://app?vid=62738b42-4d14-4992-87b3-65556f57f437"},"vehicle_type_id":"4","last_reported":1729451187,"current_range_meters":32000,"station_id":"ce4bhhh2rcd13ifvqfk0","pricing_plan_id":"cebpf4jnsgd1na2vs0mg"},{"bike_id":"11ed6e86-4250-407e-9b4e-cdb0f566a99c","system_id":"levelo_inurba_marseille","lat":43.30141,"lon":5.37408,"is_reserved":false,"is_disabled":false,"rental_uris":{"android":"levelo://app?vid=11ed6e86-4250-407e-9b4e-cdb0f566a99c","ios":"levelo://app?vid=11ed6e86-4250-407e-9b4e-cdb0f566a99c"},"vehicle_type_id":"4","last_reported":1729451187,"current_range_meters":37600,"station_id":"ce4bgs92rcd13ifvqcc0","pricing_plan_id":"cebpf4jnsgd1na2vs0mg"},{"bike_id":"3208a7db-b2ba-42d5-b984-b06e7befcf38","system_id":"levelo_inurba_marseille","lat":43.31076,"lon":5.383524,"is_reserved":false,"is_disabled":false,"rental_uris":{"android":"levelo://app?vid=3208a7db-b2ba-42d5-b984-b06e7befcf38","ios":"levelo://app?vid=3208a7db-b2ba-42d5-b984-b06e7befcf38"},"vehicle_type_id":"4","last_reported":1729451187,"current_range_meters":39200,"station_id":"ce4bgv92rcd13ifvqcr0","pricing_plan_id":"cebpf4jnsgd1na2vs0mg"},{"bike_id":"2f50ff88-fdb4-4ff4-abd3-de03676fe2e2","system_id":"levelo_inurba_marseille","lat":43.29524,"lon":5.39407,"is_reserved":false,"is_disabled":false,"rental_uris":{"android":"levelo://app?vid=2f50ff88-fdb4-4ff4-abd3-de03676fe2e2","ios":"levelo://app?vid=2f50ff88-fdb4-4ff4-abd3-de03676fe2e2"},"vehicle_type_id":"4","last_reported":1729451187,"current_range_meters":28800,"station_id":"ce4bh292rcd13ifvqdf0","pricing_plan_id":"cebpf4jnsgd1na2vs0mg"},{"bike_id":"342bb506-8e82-4fe8-8123-2298181f1aa1","system_id":"levelo_inurba_marseille","lat":43.30797,"lon":5.38167,"is_reserved":false,"is_disabled":false,"rental_uris":{"android":"levelo://app?vid=342bb506-8e82-4fe8-8123-2298181f1aa1","ios":"levelo://app?vid=342bb506-8e82-4fe8-8123-2298181f1aa1"},"vehicle_type_id":"4","last_reported":1729451187,"current_range_meters":35600,"station_id":"","pricing_plan_id":"cebpf4jnsgd1na2vs0mg"},{"bike_id":"e7a87508-eee1-4cff-af06-7c8a761df255","system_id":"levelo_inurba_marseille","lat":43.30906,"lon":5.36853,"is_reserved":false,"is_disabled":false,"rental_uris":{"android":"levelo://app?vid=e7a87508-eee1-4cff-af06-7c8a761df255","ios":"levelo://app?vid=e7a87508-eee1-4cff-af06-7c8a761df255"},"vehicle_type_id":"4","last_reported":1729451187,"current_range_meters":6000,"station_id":"ce4bgn92rcd13ifvqbvg","pricing_plan_id":"cebpf4jnsgd1na2vs0mg"},{"bike_id":"5bda1cf9-4053-4d6c-9874-93f779f9e3ba","system_id":"levelo_inurba_marseille","lat":43.299523,"lon":5.371591,"is_reserved":false,"is_disabled":false,"rental_uris":{"android":"levelo://app?vid=5bda1cf9-4053-4d6c-9874-93f779f9e3ba","ios":"levelo://app?vid=5bda1cf9-4053-4d6c-9874-93f779f9e3ba"},"vehicle_type_id":"4","last_reported":1729451187,"current_range_meters":4000,"station_id":"ce4bgr92rcd13ifvqc7g","pricing_plan_id":"cebpf4jnsgd1na2vs0mg"},{"bike_id":"11f4cfa0-9375-4ba6-9652-fa64107d5261","system_id":"levelo_inurba_marseille","lat":43.29516,"lon":5.39042,"is_reserved":false,"is_disabled":false,"rental_uris":{"android":"levelo://app?vid=11f4cfa0-9375-4ba6-9652-fa64107d5261","ios":"levelo://app?vid=11f4cfa0-9375-4ba6-9652-fa64107d5261"},"vehicle_type_id":"4","last_reported":1729451187,"current_range_meters":30400,"station_id":"ce4bh3p2rcd13ifvqdp0","pricing_plan_id":"cebpf4jnsgd1na2vs0mg"},{"bike_id":"1db676f1-e268-493e-93a5-e53c26d83ed0","system_id":"levelo_inurba_marseille","lat":43.2953,"lon":5.3855,"is_reserved":false,"is_disabled":false,"rental_uris":{"android":"levelo://app?vid=1db676f1-e268-493e-93a5-e53c26d83ed0","ios":"levelo://app?vid=1db676f1-e268-493e-93a5-e53c26d83ed0"},"vehicle_type_id":"4","last_reported":1729451187,"current_range_meters":38800,"station_id":"ce4bgih2rcd13ifvqba0","pricing_plan_id":"cebpf4jnsgd1na2vs0mg"},{"bike_id":"27f86f4f-e775-431a-973b-6672e117c072","system_id":"levelo_inurba_marseille","lat":43.29034,"lon":5.38642,"is_reserved":false,"is_disabled":false,"rental_uris":{"android":"levelo://app?vid=27f86f4f-e775-431a-973b-6672e117c072","ios":"levelo://app?vid=27f86f4f-e775-431a-973b-6672e117c072"},"vehicle_type_id":"4","last_reported":1729451187,"current_range_meters":28000,"station_id":"ce4bh4p2rcd13ifvqe0g","pricing_plan_id":"cebpf4jnsgd1na2vs0mg"},{"bike_id":"418bd683-b6c0-4394-90d1-454d0664a04c","system_id":"levelo_inurba_marseille","lat":43.325333,"lon":5.414527,"is_reserved":false,"is_disabled":false,"rental_uris":{"android":"levelo://app?vid=418bd683-b6c0-4394-90d1-454d0664a04c","ios":"levelo://app?vid=418bd683-b6c0-4394-90d1-454d0664a04c"},"vehicle_type_id":"4","last_reported":1729451187,"current_range_meters":26000,"station_id":"ce4bhqh2rcd13ifvqhmg","pricing_plan_id":"cebpf4jnsgd1na2vs0mg"},{"bike_id":"a36f782a-82bc-4085-86f9-2ee8d5b79234","system_id":"levelo_inurba_marseille","lat":43.30539,"lon":5.3671,"is_reserved":false,"is_disabled":false,"rental_uris":{"android":"levelo://app?vid=a36f782a-82bc-4085-86f9-2ee8d5b79234","ios":"levelo://app?vid=a36f782a-82bc-4085-86f9-2ee8d5b79234"},"vehicle_type_id":"4","last_reported":1729451187,"current_range_meters":9200,"station_id":"ce4bgrp2rcd13ifvqc9g","pricing_plan_id":"cebpf4jnsgd1na2vs0mg"},{"bike_id":"97af5e3f-c93d-4cbe-a1a0-24c9e5a133d8","system_id":"levelo_inurba_marseille","lat":43.27664,"lon":5.38919,"is_reserved":false,"is_disabled":false,"rental_uris":{"android":"levelo://app?vid=97af5e3f-c93d-4cbe-a1a0-24c9e5a133d8","ios":"levelo://app?vid=97af5e3f-c93d-4cbe-a1a0-24c9e5a133d8"},"vehicle_type_id":"4","last_reported":1729451187,"current_range_meters":30400,"station_id":"ce4bhi12rcd13ifvqfo0","pricing_plan_id":"cebpf4jnsgd1na2vs0mg"},{"bike_id":"158dc353-8267-4df4-904c-1b2010b3db81","system_id":"levelo_inurba_marseille","lat":43.29197,"lon":5.39307,"is_reserved":false,"is_disabled":false,"rental_uris":{"android":"levelo://app?vid=158dc353-8267-4df4-904c-1b2010b3db81","ios":"levelo://app?vid=158dc353-8267-4df4-904c-1b2010b3db81"},"vehicle_type_id":"4","last_reported":1729451187,"current_range_meters":36800,"station_id":"ce4bh192rcd13ifvqdd0","pricing_plan_id":"cebpf4jnsgd1na2vs0mg"},{"bike_id":"29b7abfd-54d0-4a89-a91d-cee760c40cb9","system_id":"levelo_inurba_marseille","lat":43.28358,"lon":5.38098,"is_reserved":false,"is_disabled":false,"rental_uris":{"android":"levelo://app?vid=29b7abfd-54d0-4a89-a91d-cee760c40cb9","ios":"levelo://app?vid=29b7abfd-54d0-4a89-a91d-cee760c40cb9"},"vehicle_type_id":"4","last_reported":1729451187,"current_range_meters":37600,"station_id":"ce4bh412rcd13ifvqdr0","pricing_plan_id":"cebpf4jnsgd1na2vs0mg"},{"bike_id":"92d49266-4e64-4017-8b59-4b1b0cb8630d","system_id":"levelo_inurba_marseille","lat":43.31708,"lon":5.37752,"is_reserved":false,"is_disabled":false,"rental_uris":{"android":"levelo://app?vid=92d49266-4e64-4017-8b59-4b1b0cb8630d","ios":"levelo://app?vid=92d49266-4e64-4017-8b59-4b1b0cb8630d"},"vehicle_type_id":"4","last_reported":1729451187,"current_range_meters":37600,"station_id":"ce4bgth2rcd13ifvqch0","pricing_plan_id":"cebpf4jnsgd1na2vs0mg"},{"bike_id":"6e5e0a6f-9ea9-4eb8-b2f6-5206aa4c72e2","system_id":"levelo_inurba_marseille","lat":43.29571,"lon":5.39982,"is_reserved":false,"is_disabled":false,"rental_uris":{"android":"levelo://app?vid=6e5e0a6f-9ea9-4eb8-b2f6-5206aa4c72e2","ios":"levelo://app?vid=6e5e0a6f-9ea9-4eb8-b2f6-5206aa4c72e2"},"vehicle_type_id":"4","last_reported":1729451187,"current_range_meters":36800,"station_id":"ce4bh312rcd13ifvqdj0","pricing_plan_id":"cebpf4jnsgd1na2vs0mg"},{"bike_id":"c66f8850-9c95-4f53-81e3-b87d891c54e5","system_id":"levelo_inurba_marseille","lat":43.28719,"lon":5.36092,"is_reserved":false,"is_disabled":false,"rental_uris":{"android":"levelo://app?vid=c66f8850-9c95-4f53-81e3-b87d891c54e5","ios":"levelo://app?vid=c66f8850-9c95-4f53-81e3-b87d891c54e5"},"vehicle_type_id":"4","last_reported":1729451187,"current_range_meters":24400,"station_id":"cki0cbj6b192h4jlfktg","pricing_plan_id":"cebpf4jnsgd1na2vs0mg"},{"bike_id":"0c76e86e-401c-46ad-a4d9-6a511692ed21","system_id":"levelo_inurba_marseille","lat":43.28722,"lon":5.36085,"is_reserved":false,"is_disabled":false,"rental_uris":{"android":"levelo://app?vid=0c76e86e-401c-46ad-a4d9-6a511692ed21","ios":"levelo://app?vid=0c76e86e-401c-46ad-a4d9-6a511692ed21"},"vehicle_type_id":"4","last_reported":1729451187,"current_range_meters":36400,"station_id":"cki0cbj6b192h4jlfktg","pricing_plan_id":"cebpf4jnsgd1na2vs0mg"},{"bike_id":"facd824c-c949-4e61-a6d8-8a2b3c1941ac","system_id":"levelo_inurba_marseille","lat":43.29033,"lon":5.38647,"is_reserved":false,"is_disabled":false,"rental_uris":{"android":"levelo://app?vid=facd824c-c949-4e61-a6d8-8a2b3c1941ac","ios":"levelo://app?vid=facd824c-c949-4e61-a6d8-8a2b3c1941ac"},"vehicle_type_id":"4","last_reported":1729451187,"current_range_meters":38800,"station_id":"ce4bh4p2rcd13ifvqe0g","pricing_plan_id":"cebpf4jnsgd1na2vs0mg"},{"bike_id":"40772cd7-9031-4fbb-9a81-c2345e97acc8","system_id":"levelo_inurba_marseille","lat":43.26027,"lon":5.37586,"is_reserved":false,"is_disabled":false,"rental_uris":{"android":"levelo://app?vid=40772cd7-9031-4fbb-9a81-c2345e97acc8","ios":"levelo://app?vid=40772cd7-9031-4fbb-9a81-c2345e97acc8"},"vehicle_type_id":"4","last_reported":1729451187,"current_range_meters":24400,"station_id":"ce4bhgh2rcd13ifvqfa0","pricing_plan_id":"cebpf4jnsgd1na2vs0mg"},{"bike_id":"60c7fe75-5aa4-4d84-8246-cf9374b9bce5","system_id":"levelo_inurba_marseille","lat":43.30869,"lon":5.39666,"is_reserved":false,"is_disabled":false,"rental_uris":{"android":"levelo://app?vid=60c7fe75-5aa4-4d84-8246-cf9374b9bce5","ios":"levelo://app?vid=60c7fe75-5aa4-4d84-8246-cf9374b9bce5"},"vehicle_type_id":"4","last_reported":1729451187,"current_range_meters":8400,"station_id":"ce4bh012rcd13ifvqcv0","pricing_plan_id":"cebpf4jnsgd1na2vs0mg"},{"bike_id":"2c95f654-2fd5-47f3-8773-30617d509844","system_id":"levelo_inurba_marseille","lat":43.29028,"lon":5.38651,"is_reserved":false,"is_disabled":false,"rental_uris":{"android":"levelo://app?vid=2c95f654-2fd5-47f3-8773-30617d509844","ios":"levelo://app?vid=2c95f654-2fd5-47f3-8773-30617d509844"},"vehicle_type_id":"4","last_reported":1729451187,"current_range_meters":37600,"station_id":"ce4bh4p2rcd13ifvqe0g","pricing_plan_id":"cebpf4jnsgd1na2vs0mg"},{"bike_id":"09c742b9-67aa-44f1-b833-7cf3d42021e8","system_id":"levelo_inurba_marseille","lat":43.25574,"lon":5.38225,"is_reserved":false,"is_disabled":false,"rental_uris":{"android":"levelo://app?vid=09c742b9-67aa-44f1-b833-7cf3d42021e8","ios":"levelo://app?vid=09c742b9-67aa-44f1-b833-7cf3d42021e8"},"vehicle_type_id":"4","last_reported":1729451187,"current_range_meters":36000,"station_id":"ce4bhih2rcd13ifvqfs0","pricing_plan_id":"cebpf4jnsgd1na2vs0mg"},{"bike_id":"827f1f2c-9936-4825-9eab-4e1899f87a6c","system_id":"levelo_inurba_marseille","lat":43.2902,"lon":5.38134,"is_reserved":false,"is_disabled":false,"rental_uris":{"android":"levelo://app?vid=827f1f2c-9936-4825-9eab-4e1899f87a6c","ios":"levelo://app?vid=827f1f2c-9936-4825-9eab-4e1899f87a6c"},"vehicle_type_id":"4","last_reported":1729451187,"current_range_meters":6000,"station_id":"ce4bh2h2rcd13ifvqdh0","pricing_plan_id":"cebpf4jnsgd1na2vs0mg"},{"bike_id":"36dda999-76b4-46dd-8776-8be422d445ef","system_id":"levelo_inurba_marseille","lat":43.28476,"lon":5.38419,"is_reserved":false,"is_disabled":false,"rental_uris":{"android":"levelo://app?vid=36dda999-76b4-46dd-8776-8be422d445ef","ios":"levelo://app?vid=36dda999-76b4-46dd-8776-8be422d445ef"},"vehicle_type_id":"4","last_reported":1729451187,"current_range_meters":34000,"station_id":"ce4bh512rcd13ifvqe3g","pricing_plan_id":"cebpf4jnsgd1na2vs0mg"},{"bike_id":"1d045b29-4da5-4417-9986-d082ac81c662","system_id":"levelo_inurba_marseille","lat":43.29264,"lon":5.38442,"is_reserved":false,"is_disabled":false,"rental_uris":{"android":"levelo://app?vid=1d045b29-4da5-4417-9986-d082ac81c662","ios":"levelo://app?vid=1d045b29-4da5-4417-9986-d082ac81c662"},"vehicle_type_id":"4","last_reported":1729451187,"current_range_meters":25200,"station_id":"","pricing_plan_id":"cebpf4jnsgd1na2vs0mg"},{"bike_id":"a4988356-8192-430a-8cc6-0d4d4957e38b","system_id":"levelo_inurba_marseille","lat":43.30802,"lon":5.43529,"is_reserved":false,"is_disabled":false,"rental_uris":{"android":"levelo://app?vid=a4988356-8192-430a-8cc6-0d4d4957e38b","ios":"levelo://app?vid=a4988356-8192-430a-8cc6-0d4d4957e38b"},"vehicle_type_id":"4","last_reported":1729451187,"current_range_meters":20000,"station_id":"ce4bhph2rcd13ifvqheg","pricing_plan_id":"cebpf4jnsgd1na2vs0mg"},{"bike_id":"304e116c-22b7-4fec-8df3-5316f5ceb0f4","system_id":"levelo_inurba_marseille","lat":43.33729,"lon":5.3919,"is_reserved":false,"is_disabled":false,"rental_uris":{"android":"levelo://app?vid=304e116c-22b7-4fec-8df3-5316f5ceb0f4","ios":"levelo://app?vid=304e116c-22b7-4fec-8df3-5316f5ceb0f4"},"vehicle_type_id":"4","last_reported":1729451187,"current_range_meters":36000,"station_id":"ce4bhr92rcd13ifvqhsg","pricing_plan_id":"cebpf4jnsgd1na2vs0mg"},{"bike_id":"c8b8f7cb-afc7-42b7-872f-4a3958e3b4aa","system_id":"levelo_inurba_marseille","lat":43.28074,"lon":5.39665,"is_reserved":false,"is_disabled":false,"rental_uris":{"android":"levelo://app?vid=c8b8f7cb-afc7-42b7-872f-4a3958e3b4aa","ios":"levelo://app?vid=c8b8f7cb-afc7-42b7-872f-4a3958e3b4aa"},"vehicle_type_id":"4","last_reported":1729451187,"current_range_meters":12800,"station_id":"ce4bho12rcd13ifvqh2g","pricing_plan_id":"cebpf4jnsgd1na2vs0mg"},{"bike_id":"bb74b390-aa21-48c3-9832-af362f433f05","system_id":"levelo_inurba_marseille","lat":43.3149,"lon":5.37306,"is_reserved":false,"is_disabled":false,"rental_uris":{"android":"levelo://app?vid=bb74b390-aa21-48c3-9832-af362f433f05","ios":"levelo://app?vid=bb74b390-aa21-48c3-9832-af362f433f05"},"vehicle_type_id":"4","last_reported":1729451187,"current_range_meters":6400,"station_id":"ce4bgt12rcd13ifvqcd0","pricing_plan_id":"cebpf4jnsgd1na2vs0mg"},{"bike_id":"0fa4c992-841d-4045-a911-383d6083725e","system_id":"levelo_inurba_marseille","lat":43.2885,"lon":5.39313,"is_reserved":false,"is_disabled":false,"rental_uris":{"android":"levelo://app?vid=0fa4c992-841d-4045-a911-383d6083725e","ios":"levelo://app?vid=0fa4c992-841d-4045-a911-383d6083725e"},"vehicle_type_id":"4","last_reported":1729451187,"current_range_meters":5600,"station_id":"ce4bh2p2rcd13ifvqdi0","pricing_plan_id":"cebpf4jnsgd1na2vs0mg"},{"bike_id":"8682c74e-eb4a-4a10-81a7-668f58678ba5","system_id":"levelo_inurba_marseille","lat":43.311163,"lon":5.377668,"is_reserved":false,"is_disabled":false,"rental_uris":{"android":"levelo://app?vid=8682c74e-eb4a-4a10-81a7-668f58678ba5","ios":"levelo://app?vid=8682c74e-eb4a-4a10-81a7-668f58678ba5"},"vehicle_type_id":"4","last_reported":1729451187,"current_range_meters":30400,"station_id":"ce4bgt92rcd13ifvqcg0","pricing_plan_id":"cebpf4jnsgd1na2vs0mg"},{"bike_id":"3251ac00-1309-4d3c-81dd-8d21585b07e7","system_id":"levelo_inurba_marseille","lat":43.31537,"lon":5.38038,"is_reserved":false,"is_disabled":false,"rental_uris":{"android":"levelo://app?vid=3251ac00-1309-4d3c-81dd-8d21585b07e7","ios":"levelo://app?vid=3251ac00-1309-4d3c-81dd-8d21585b07e7"},"vehicle_type_id":"4","last_reported":1729451187,"current_range_meters":2000,"station_id":"ce4bhsp2rcd13ifvqi50","pricing_plan_id":"cebpf4jnsgd1na2vs0mg"},{"bike_id":"be50e200-7523-4429-ad85-273908308ab7","system_id":"levelo_inurba_marseille","lat":43.23954,"lon":5.36627,"is_reserved":false,"is_disabled":false,"rental_uris":{"android":"levelo://app?vid=be50e200-7523-4429-ad85-273908308ab7","ios":"levelo://app?vid=be50e200-7523-4429-ad85-273908308ab7"},"vehicle_type_id":"4","last_reported":1729451187,"current_range_meters":38800,"station_id":"ce4bhi12rcd13ifvqfp0","pricing_plan_id":"cebpf4jnsgd1na2vs0mg"},{"bike_id":"8e90573b-2e30-4c9e-8066-8d8edab1bdf0","system_id":"levelo_inurba_marseille","lat":43.30142,"lon":5.37419,"is_reserved":false,"is_disabled":false,"rental_uris":{"android":"levelo://app?vid=8e90573b-2e30-4c9e-8066-8d8edab1bdf0","ios":"levelo://app?vid=8e90573b-2e30-4c9e-8066-8d8edab1bdf0"},"vehicle_type_id":"4","last_reported":1729451187,"current_range_meters":12400,"station_id":"ce4bgs92rcd13ifvqcc0","pricing_plan_id":"cebpf4jnsgd1na2vs0mg"},{"bike_id":"8e3de226-d5c1-404a-91fb-bf81fb455f9c","system_id":"levelo_inurba_marseille","lat":43.29416,"lon":5.38622,"is_reserved":false,"is_disabled":false,"rental_uris":{"android":"levelo://app?vid=8e3de226-d5c1-404a-91fb-bf81fb455f9c","ios":"levelo://app?vid=8e3de226-d5c1-404a-91fb-bf81fb455f9c"},"vehicle_type_id":"4","last_reported":1729451187,"current_range_meters":38800,"station_id":"ce4bh2h2rcd13ifvqdh0","pricing_plan_id":"cebpf4jnsgd1na2vs0mg"},{"bike_id":"09907c22-dfda-45de-9b95-04e49f35ec94","system_id":"levelo_inurba_marseille","lat":43.28075,"lon":5.39666,"is_reserved":false,"is_disabled":false,"rental_uris":{"android":"levelo://app?vid=09907c22-dfda-45de-9b95-04e49f35ec94","ios":"levelo://app?vid=09907c22-dfda-45de-9b95-04e49f35ec94"},"vehicle_type_id":"4","last_reported":1729451187,"current_range_meters":23200,"station_id":"ce4bho12rcd13ifvqh2g","pricing_plan_id":"cebpf4jnsgd1na2vs0mg"},{"bike_id":"4b6ff211-da7d-4491-9d2a-2b3c07e2675d","system_id":"levelo_inurba_marseille","lat":43.32366,"lon":5.38888,"is_reserved":false,"is_disabled":false,"rental_uris":{"android":"levelo://app?vid=4b6ff211-da7d-4491-9d2a-2b3c07e2675d","ios":"levelo://app?vid=4b6ff211-da7d-4491-9d2a-2b3c07e2675d"},"vehicle_type_id":"4","last_reported":1729451187,"current_range_meters":35200,"station_id":"ce4bhqp2rcd13ifvqhog","pricing_plan_id":"cebpf4jnsgd1na2vs0mg"},{"bike_id":"705fc253-f307-4f79-88f6-2980bca27e90","system_id":"levelo_inurba_marseille","lat":43.28699,"lon":5.39987,"is_reserved":false,"is_disabled":false,"rental_uris":{"android":"levelo://app?vid=705fc253-f307-4f79-88f6-2980bca27e90","ios":"levelo://app?vid=705fc253-f307-4f79-88f6-2980bca27e90"},"vehicle_type_id":"4","last_reported":1729451187,"current_range_meters":29600,"station_id":"ce4bho92rcd13ifvqh3g","pricing_plan_id":"cebpf4jnsgd1na2vs0mg"},{"bike_id":"21fee09b-0a46-442f-92a1-a137010f1342","system_id":"levelo_inurba_marseille","lat":43.31079,"lon":5.38348,"is_reserved":false,"is_disabled":false,"rental_uris":{"android":"levelo://app?vid=21fee09b-0a46-442f-92a1-a137010f1342","ios":"levelo://app?vid=21fee09b-0a46-442f-92a1-a137010f1342"},"vehicle_type_id":"4","last_reported":1729451187,"current_range_meters":38800,"station_id":"ce4bgv92rcd13ifvqcr0","pricing_plan_id":"cebpf4jnsgd1na2vs0mg"},{"bike_id":"7b5cb3ea-286e-4dec-afa6-f9929c52e1c8","system_id":"levelo_inurba_marseille","lat":43.31185,"lon":5.38715,"is_reserved":false,"is_disabled":false,"rental_uris":{"android":"levelo://app?vid=7b5cb3ea-286e-4dec-afa6-f9929c52e1c8","ios":"levelo://app?vid=7b5cb3ea-286e-4dec-afa6-f9929c52e1c8"},"vehicle_type_id":"4","last_reported":1729451187,"current_range_meters":38800,"station_id":"ce4bgv12rcd13ifvqcp0","pricing_plan_id":"cebpf4jnsgd1na2vs0mg"},{"bike_id":"b1bd4d06-9cd8-464e-bf50-56b6a5dd7ed2","system_id":"levelo_inurba_marseille","lat":43.30804,"lon":5.38161,"is_reserved":false,"is_disabled":false,"rental_uris":{"android":"levelo://app?vid=b1bd4d06-9cd8-464e-bf50-56b6a5dd7ed2","ios":"levelo://app?vid=b1bd4d06-9cd8-464e-bf50-56b6a5dd7ed2"},"vehicle_type_id":"4","last_reported":1729451187,"current_range_meters":37600,"station_id":"ce4bgt12rcd13ifvqce0","pricing_plan_id":"cebpf4jnsgd1na2vs0mg"},{"bike_id":"03bf2969-b77b-4ca7-8083-295d8c4adfd2","system_id":"levelo_inurba_marseille","lat":43.29787,"lon":5.38108,"is_reserved":false,"is_disabled":false,"rental_uris":{"android":"levelo://app?vid=03bf2969-b77b-4ca7-8083-295d8c4adfd2","ios":"levelo://app?vid=03bf2969-b77b-4ca7-8083-295d8c4adfd2"},"vehicle_type_id":"4","last_reported":1729451187,"current_range_meters":8800,"station_id":"ce4bgip2rcd13ifvqbb0","pricing_plan_id":"cebpf4jnsgd1na2vs0mg"},{"bike_id":"5a326006-7e55-44b4-92f7-cffa9b31249a","system_id":"levelo_inurba_marseille","lat":43.30982,"lon":5.37761,"is_reserved":false,"is_disabled":false,"rental_uris":{"android":"levelo://app?vid=5a326006-7e55-44b4-92f7-cffa9b31249a","ios":"levelo://app?vid=5a326006-7e55-44b4-92f7-cffa9b31249a"},"vehicle_type_id":"4","last_reported":1729451187,"current_range_meters":36000,"station_id":"","pricing_plan_id":"cebpf4jnsgd1na2vs0mg"},{"bike_id":"9c4cc1c7-fb0e-4795-8508-f9604e46b3bc","system_id":"levelo_inurba_marseille","lat":43.313747,"lon":5.384777,"is_reserved":false,"is_disabled":false,"rental_uris":{"android":"levelo://app?vid=9c4cc1c7-fb0e-4795-8508-f9604e46b3bc","ios":"levelo://app?vid=9c4cc1c7-fb0e-4795-8508-f9604e46b3bc"},"vehicle_type_id":"4","last_reported":1729451187,"current_range_meters":39200,"station_id":"ce4bgt92rcd13ifvqcf0","pricing_plan_id":"cebpf4jnsgd1na2vs0mg"},{"bike_id":"e3d720de-f87c-4953-bf0b-b39a4a054b01","system_id":"levelo_inurba_marseille","lat":43.28697,"lon":5.39991,"is_reserved":false,"is_disabled":false,"rental_uris":{"android":"levelo://app?vid=e3d720de-f87c-4953-bf0b-b39a4a054b01","ios":"levelo://app?vid=e3d720de-f87c-4953-bf0b-b39a4a054b01"},"vehicle_type_id":"4","last_reported":1729451187,"current_range_meters":33600,"station_id":"ce4bho92rcd13ifvqh3g","pricing_plan_id":"cebpf4jnsgd1na2vs0mg"},{"bike_id":"aec4114d-2cf9-40df-a06b-3baf7ca2892c","system_id":"levelo_inurba_marseille","lat":43.2293,"lon":5.35382,"is_reserved":false,"is_disabled":false,"rental_uris":{"android":"levelo://app?vid=aec4114d-2cf9-40df-a06b-3baf7ca2892c","ios":"levelo://app?vid=aec4114d-2cf9-40df-a06b-3baf7ca2892c"},"vehicle_type_id":"4","last_reported":1729451187,"current_range_meters":38800,"station_id":"cpo3532slgdg3j2ikp40","pricing_plan_id":"cebpf4jnsgd1na2vs0mg"},{"bike_id":"8b913803-1cd8-4653-9bbe-7d1cbe69ab1d","system_id":"levelo_inurba_marseille","lat":43.29025,"lon":5.38132,"is_reserved":false,"is_disabled":false,"rental_uris":{"android":"levelo://app?vid=8b913803-1cd8-4653-9bbe-7d1cbe69ab1d","ios":"levelo://app?vid=8b913803-1cd8-4653-9bbe-7d1cbe69ab1d"},"vehicle_type_id":"4","last_reported":1729451187,"current_range_meters":26000,"station_id":"ce4bh4p2rcd13ifvqe1g","pricing_plan_id":"cebpf4jnsgd1na2vs0mg"},{"bike_id":"62fa3b9d-f26a-4713-b2f3-eeb6d897a9c8","system_id":"levelo_inurba_marseille","lat":43.28934,"lon":5.39635,"is_reserved":false,"is_disabled":false,"rental_uris":{"android":"levelo://app?vid=62fa3b9d-f26a-4713-b2f3-eeb6d897a9c8","ios":"levelo://app?vid=62fa3b9d-f26a-4713-b2f3-eeb6d897a9c8"},"vehicle_type_id":"4","last_reported":1729451187,"current_range_meters":14000,"station_id":"ce4bh3h2rcd13ifvqdn0","pricing_plan_id":"cebpf4jnsgd1na2vs0mg"},{"bike_id":"c1cc7bf7-1524-4b5a-bb97-4c3e89b0e1b4","system_id":"levelo_inurba_marseille","lat":43.29262,"lon":5.38447,"is_reserved":false,"is_disabled":false,"rental_uris":{"android":"levelo://app?vid=c1cc7bf7-1524-4b5a-bb97-4c3e89b0e1b4","ios":"levelo://app?vid=c1cc7bf7-1524-4b5a-bb97-4c3e89b0e1b4"},"vehicle_type_id":"4","last_reported":1729451187,"current_range_meters":6400,"station_id":"","pricing_plan_id":"cebpf4jnsgd1na2vs0mg"},{"bike_id":"9d5c94b9-2777-41db-9db6-86bbd50b0102","system_id":"levelo_inurba_marseille","lat":43.31177,"lon":5.38706,"is_reserved":false,"is_disabled":false,"rental_uris":{"android":"levelo://app?vid=9d5c94b9-2777-41db-9db6-86bbd50b0102","ios":"levelo://app?vid=9d5c94b9-2777-41db-9db6-86bbd50b0102"},"vehicle_type_id":"4","last_reported":1729451187,"current_range_meters":35200,"station_id":"ce4bgv12rcd13ifvqcp0","pricing_plan_id":"cebpf4jnsgd1na2vs0mg"},{"bike_id":"0efc50a1-1a87-49fc-a830-73faf2195813","system_id":"levelo_inurba_marseille","lat":43.30313,"lon":5.36895,"is_reserved":false,"is_disabled":false,"rental_uris":{"android":"levelo://app?vid=0efc50a1-1a87-49fc-a830-73faf2195813","ios":"levelo://app?vid=0efc50a1-1a87-49fc-a830-73faf2195813"},"vehicle_type_id":"4","last_reported":1729451187,"current_range_meters":39200,"station_id":"ce4bgqh2rcd13ifvqc5g","pricing_plan_id":"cebpf4jnsgd1na2vs0mg"},{"bike_id":"e648431c-1686-4e2b-a3d8-65538e7ffdcb","system_id":"levelo_inurba_marseille","lat":43.29973,"lon":5.38498,"is_reserved":false,"is_disabled":false,"rental_uris":{"android":"levelo://app?vid=e648431c-1686-4e2b-a3d8-65538e7ffdcb","ios":"levelo://app?vid=e648431c-1686-4e2b-a3d8-65538e7ffdcb"},"vehicle_type_id":"4","last_reported":1729451187,"current_range_meters":37600,"station_id":"ce4bgj92rcd13ifvqbd0","pricing_plan_id":"cebpf4jnsgd1na2vs0mg"},{"bike_id":"f9e606a2-f98f-4da2-a7e6-f9040d57582d","system_id":"levelo_inurba_marseille","lat":43.23959,"lon":5.36634,"is_reserved":false,"is_disabled":false,"rental_uris":{"android":"levelo://app?vid=f9e606a2-f98f-4da2-a7e6-f9040d57582d","ios":"levelo://app?vid=f9e606a2-f98f-4da2-a7e6-f9040d57582d"},"vehicle_type_id":"4","last_reported":1729451187,"current_range_meters":5600,"station_id":"ce4bhn12rcd13ifvqgpg","pricing_plan_id":"cebpf4jnsgd1na2vs0mg"},{"bike_id":"4b3496a2-d393-48e7-b24c-bc5f8d6f4d51","system_id":"levelo_inurba_marseille","lat":43.23957,"lon":5.36621,"is_reserved":false,"is_disabled":false,"rental_uris":{"android":"levelo://app?vid=4b3496a2-d393-48e7-b24c-bc5f8d6f4d51","ios":"levelo://app?vid=4b3496a2-d393-48e7-b24c-bc5f8d6f4d51"},"vehicle_type_id":"4","last_reported":1729451187,"current_range_meters":30000,"station_id":"ce4bhi12rcd13ifvqfp0","pricing_plan_id":"cebpf4jnsgd1na2vs0mg"},{"bike_id":"5553e1a5-f3be-408d-bf5e-8662bbf3ff0e","system_id":"levelo_inurba_marseille","lat":43.26564,"lon":5.39014,"is_reserved":false,"is_disabled":false,"rental_uris":{"android":"levelo://app?vid=5553e1a5-f3be-408d-bf5e-8662bbf3ff0e","ios":"levelo://app?vid=5553e1a5-f3be-408d-bf5e-8662bbf3ff0e"},"vehicle_type_id":"4","last_reported":1729451187,"current_range_meters":6000,"station_id":"ce4bhe12rcd13ifvqf30","pricing_plan_id":"cebpf4jnsgd1na2vs0mg"},{"bike_id":"a17882d0-5a71-4f9b-841b-911dc173c920","system_id":"levelo_inurba_marseille","lat":43.28277,"lon":5.35071,"is_reserved":false,"is_disabled":false,"rental_uris":{"android":"levelo://app?vid=a17882d0-5a71-4f9b-841b-911dc173c920","ios":"levelo://app?vid=a17882d0-5a71-4f9b-841b-911dc173c920"},"vehicle_type_id":"4","last_reported":1729451187,"current_range_meters":38800,"station_id":"ce4bhbp2rcd13ifvqerg","pricing_plan_id":"cebpf4jnsgd1na2vs0mg"},{"bike_id":"ce5722ca-97a2-4464-b271-2119bbfeb6a9","system_id":"levelo_inurba_marseille","lat":43.23723,"lon":5.37781,"is_reserved":false,"is_disabled":false,"rental_uris":{"android":"levelo://app?vid=ce5722ca-97a2-4464-b271-2119bbfeb6a9","ios":"levelo://app?vid=ce5722ca-97a2-4464-b271-2119bbfeb6a9"},"vehicle_type_id":"4","last_reported":1729451187,"current_range_meters":14000,"station_id":"","pricing_plan_id":"cebpf4jnsgd1na2vs0mg"},{"bike_id":"f148ec0b-0fef-481f-b230-d6125fe8c659","system_id":"levelo_inurba_marseille","lat":43.29922,"lon":5.37472,"is_reserved":false,"is_disabled":false,"rental_uris":{"android":"levelo://app?vid=f148ec0b-0fef-481f-b230-d6125fe8c659","ios":"levelo://app?vid=f148ec0b-0fef-481f-b230-d6125fe8c659"},"vehicle_type_id":"4","last_reported":1729451187,"current_range_meters":36400,"station_id":"ce4bgjh2rcd13ifvqbg0","pricing_plan_id":"cebpf4jnsgd1na2vs0mg"},{"bike_id":"86709198-9dd9-4d9c-8d14-617aaf9b7017","system_id":"levelo_inurba_marseille","lat":43.28482,"lon":5.38563,"is_reserved":false,"is_disabled":false,"rental_uris":{"android":"levelo://app?vid=86709198-9dd9-4d9c-8d14-617aaf9b7017","ios":"levelo://app?vid=86709198-9dd9-4d9c-8d14-617aaf9b7017"},"vehicle_type_id":"4","last_reported":1729451187,"current_range_meters":38800,"station_id":"ce4bh8p2rcd13ifvqeb0","pricing_plan_id":"cebpf4jnsgd1na2vs0mg"},{"bike_id":"82a7378c-fb65-4221-a951-ee464e9a8c52","system_id":"levelo_inurba_marseille","lat":43.29262,"lon":5.3844,"is_reserved":false,"is_disabled":false,"rental_uris":{"android":"levelo://app?vid=82a7378c-fb65-4221-a951-ee464e9a8c52","ios":"levelo://app?vid=82a7378c-fb65-4221-a951-ee464e9a8c52"},"vehicle_type_id":"4","last_reported":1729451187,"current_range_meters":39200,"station_id":"","pricing_plan_id":"cebpf4jnsgd1na2vs0mg"},{"bike_id":"e9a6d85d-70e2-402b-90eb-502b3aedbdb3","system_id":"levelo_inurba_marseille","lat":43.29169,"lon":5.3793,"is_reserved":false,"is_disabled":false,"rental_uris":{"android":"levelo://app?vid=e9a6d85d-70e2-402b-90eb-502b3aedbdb3","ios":"levelo://app?vid=e9a6d85d-70e2-402b-90eb-502b3aedbdb3"},"vehicle_type_id":"4","last_reported":1729451187,"current_range_meters":8000,"station_id":"","pricing_plan_id":"cebpf4jnsgd1na2vs0mg"},{"bike_id":"551e4cae-27ad-43f8-bfc5-8e0a93c14612","system_id":"levelo_inurba_marseille","lat":43.32101,"lon":5.36772,"is_reserved":false,"is_disabled":false,"rental_uris":{"android":"levelo://app?vid=551e4cae-27ad-43f8-bfc5-8e0a93c14612","ios":"levelo://app?vid=551e4cae-27ad-43f8-bfc5-8e0a93c14612"},"vehicle_type_id":"4","last_reported":1729451187,"current_range_meters":37600,"station_id":"ce4bhrh2rcd13ifvqhug","pricing_plan_id":"cebpf4jnsgd1na2vs0mg"},{"bike_id":"dbb87039-9de5-44b9-aca3-296ff432a7ab","system_id":"levelo_inurba_marseille","lat":43.25497,"lon":5.41983,"is_reserved":false,"is_disabled":false,"rental_uris":{"android":"levelo://app?vid=dbb87039-9de5-44b9-aca3-296ff432a7ab","ios":"levelo://app?vid=dbb87039-9de5-44b9-aca3-296ff432a7ab"},"vehicle_type_id":"4","last_reported":1729451187,"current_range_meters":9200,"station_id":"","pricing_plan_id":"cebpf4jnsgd1na2vs0mg"},{"bike_id":"e87d2e98-a5ac-404a-84e2-66303b7c091f","system_id":"levelo_inurba_marseille","lat":43.27206,"lon":5.39186,"is_reserved":false,"is_disabled":false,"rental_uris":{"android":"levelo://app?vid=e87d2e98-a5ac-404a-84e2-66303b7c091f","ios":"levelo://app?vid=e87d2e98-a5ac-404a-84e2-66303b7c091f"},"vehicle_type_id":"4","last_reported":1729451187,"current_range_meters":3600,"station_id":"ce4bhhp2rcd13ifvqfm0","pricing_plan_id":"cebpf4jnsgd1na2vs0mg"},{"bike_id":"45d30812-7823-4fd5-9797-18a4aadcec4a","system_id":"levelo_inurba_marseille","lat":43.2655,"lon":5.3729,"is_reserved":false,"is_disabled":false,"rental_uris":{"android":"levelo://app?vid=45d30812-7823-4fd5-9797-18a4aadcec4a","ios":"levelo://app?vid=45d30812-7823-4fd5-9797-18a4aadcec4a"},"vehicle_type_id":"4","last_reported":1729451187,"current_range_meters":30000,"station_id":"ce4bhg12rcd13ifvqf70","pricing_plan_id":"cebpf4jnsgd1na2vs0mg"},{"bike_id":"f8390cd1-3e79-425b-b0c7-a5d57172be28","system_id":"levelo_inurba_marseille","lat":43.31759,"lon":5.39018,"is_reserved":false,"is_disabled":false,"rental_uris":{"android":"levelo://app?vid=f8390cd1-3e79-425b-b0c7-a5d57172be28","ios":"levelo://app?vid=f8390cd1-3e79-425b-b0c7-a5d57172be28"},"vehicle_type_id":"4","last_reported":1729451187,"current_range_meters":7200,"station_id":"ce4bhqp2rcd13ifvqhng","pricing_plan_id":"cebpf4jnsgd1na2vs0mg"},{"bike_id":"ff99e11c-f9d6-4ef8-9daa-a341af5f70f9","system_id":"levelo_inurba_marseille","lat":43.29029,"lon":5.3592,"is_reserved":false,"is_disabled":false,"rental_uris":{"android":"levelo://app?vid=ff99e11c-f9d6-4ef8-9daa-a341af5f70f9","ios":"levelo://app?vid=ff99e11c-f9d6-4ef8-9daa-a341af5f70f9"},"vehicle_type_id":"4","last_reported":1729451187,"current_range_meters":12800,"station_id":"ce4bha92rcd13ifvqeg0","pricing_plan_id":"cebpf4jnsgd1na2vs0mg"},{"bike_id":"338c96b5-adb9-4f8b-92a3-7ce205f255fe","system_id":"levelo_inurba_marseille","lat":43.25088,"lon":5.39524,"is_reserved":false,"is_disabled":false,"rental_uris":{"android":"levelo://app?vid=338c96b5-adb9-4f8b-92a3-7ce205f255fe","ios":"levelo://app?vid=338c96b5-adb9-4f8b-92a3-7ce205f255fe"},"vehicle_type_id":"4","last_reported":1729451187,"current_range_meters":28400,"station_id":"ce4bhm12rcd13ifvqgkg","pricing_plan_id":"cebpf4jnsgd1na2vs0mg"},{"bike_id":"89e9cb90-bae5-43fd-8a13-95d9fb3ab341","system_id":"levelo_inurba_marseille","lat":43.3171,"lon":5.4371,"is_reserved":false,"is_disabled":false,"rental_uris":{"android":"levelo://app?vid=89e9cb90-bae5-43fd-8a13-95d9fb3ab341","ios":"levelo://app?vid=89e9cb90-bae5-43fd-8a13-95d9fb3ab341"},"vehicle_type_id":"4","last_reported":1729451187,"current_range_meters":5600,"station_id":"ce4bhp92rcd13ifvqhcg","pricing_plan_id":"cebpf4jnsgd1na2vs0mg"},{"bike_id":"7db29602-3bf2-477e-a0ef-d6b6f0af2dfd","system_id":"levelo_inurba_marseille","lat":43.29059,"lon":5.3717,"is_reserved":false,"is_disabled":false,"rental_uris":{"android":"levelo://app?vid=7db29602-3bf2-477e-a0ef-d6b6f0af2dfd","ios":"levelo://app?vid=7db29602-3bf2-477e-a0ef-d6b6f0af2dfd"},"vehicle_type_id":"4","last_reported":1729451187,"current_range_meters":3600,"station_id":"ce4bh5p2rcd13ifvqe4g","pricing_plan_id":"cebpf4jnsgd1na2vs0mg"},{"bike_id":"11717f52-5c90-4bd4-a4a9-2014968d0ebe","system_id":"levelo_inurba_marseille","lat":43.30198,"lon":5.36608,"is_reserved":false,"is_disabled":false,"rental_uris":{"android":"levelo://app?vid=11717f52-5c90-4bd4-a4a9-2014968d0ebe","ios":"levelo://app?vid=11717f52-5c90-4bd4-a4a9-2014968d0ebe"},"vehicle_type_id":"4","last_reported":1729451187,"current_range_meters":38800,"station_id":"ce4bgrh2rcd13ifvqc8g","pricing_plan_id":"cebpf4jnsgd1na2vs0mg"},{"bike_id":"69663e99-fe51-4c5b-876a-882008f8d5d8","system_id":"levelo_inurba_marseille","lat":43.30186,"lon":5.39786,"is_reserved":false,"is_disabled":false,"rental_uris":{"android":"levelo://app?vid=69663e99-fe51-4c5b-876a-882008f8d5d8","ios":"levelo://app?vid=69663e99-fe51-4c5b-876a-882008f8d5d8"},"vehicle_type_id":"4","last_reported":1729451187,"current_range_meters":4800,"station_id":"","pricing_plan_id":"cebpf4jnsgd1na2vs0mg"},{"bike_id":"756dbcf0-0d02-47b9-9b84-01194e5f3832","system_id":"levelo_inurba_marseille","lat":43.23064,"lon":5.35495,"is_reserved":false,"is_disabled":false,"rental_uris":{"android":"levelo://app?vid=756dbcf0-0d02-47b9-9b84-01194e5f3832","ios":"levelo://app?vid=756dbcf0-0d02-47b9-9b84-01194e5f3832"},"vehicle_type_id":"4","last_reported":1729451187,"current_range_meters":38800,"station_id":"cpo3342slgdg3j2ifvpg","pricing_plan_id":"cebpf4jnsgd1na2vs0mg"},{"bike_id":"03633cdd-6582-4a92-91c7-bc6534159942","system_id":"levelo_inurba_marseille","lat":43.29281,"lon":5.40139,"is_reserved":false,"is_disabled":false,"rental_uris":{"android":"levelo://app?vid=03633cdd-6582-4a92-91c7-bc6534159942","ios":"levelo://app?vid=03633cdd-6582-4a92-91c7-bc6534159942"},"vehicle_type_id":"4","last_reported":1729451187,"current_range_meters":17200,"station_id":"ce4bh312rcd13ifvqdk0","pricing_plan_id":"cebpf4jnsgd1na2vs0mg"},{"bike_id":"948f343a-f561-4d71-98de-4b6c1abb1cc4","system_id":"levelo_inurba_marseille","lat":43.23962,"lon":5.36639,"is_reserved":false,"is_disabled":false,"rental_uris":{"android":"levelo://app?vid=948f343a-f561-4d71-98de-4b6c1abb1cc4","ios":"levelo://app?vid=948f343a-f561-4d71-98de-4b6c1abb1cc4"},"vehicle_type_id":"4","last_reported":1729451187,"current_range_meters":38800,"station_id":"ce4bhi12rcd13ifvqfp0","pricing_plan_id":"cebpf4jnsgd1na2vs0mg"},{"bike_id":"37bebcfe-200b-45bc-af21-c6fde4d0b606","system_id":"levelo_inurba_marseille","lat":43.30424,"lon":5.38898,"is_reserved":false,"is_disabled":false,"rental_uris":{"android":"levelo://app?vid=37bebcfe-200b-45bc-af21-c6fde4d0b606","ios":"levelo://app?vid=37bebcfe-200b-45bc-af21-c6fde4d0b606"},"vehicle_type_id":"4","last_reported":1729451187,"current_range_meters":35600,"station_id":"ce4bgk12rcd13ifvqbi0","pricing_plan_id":"cebpf4jnsgd1na2vs0mg"},{"bike_id":"af5459ee-628f-43c3-96c3-b00449c52ad0","system_id":"levelo_inurba_marseille","lat":43.28041,"lon":5.36947,"is_reserved":false,"is_disabled":false,"rental_uris":{"android":"levelo://app?vid=af5459ee-628f-43c3-96c3-b00449c52ad0","ios":"levelo://app?vid=af5459ee-628f-43c3-96c3-b00449c52ad0"},"vehicle_type_id":"4","last_reported":1729451187,"current_range_meters":10800,"station_id":"ce4bha12rcd13ifvqef0","pricing_plan_id":"cebpf4jnsgd1na2vs0mg"},{"bike_id":"879aa893-bd32-45dc-a408-0949036c323e","system_id":"levelo_inurba_marseille","lat":43.27374,"lon":5.36261,"is_reserved":false,"is_disabled":false,"rental_uris":{"android":"levelo://app?vid=879aa893-bd32-45dc-a408-0949036c323e","ios":"levelo://app?vid=879aa893-bd32-45dc-a408-0949036c323e"},"vehicle_type_id":"4","last_reported":1729451187,"current_range_meters":16000,"station_id":"ce4bhbh2rcd13ifvqeo0","pricing_plan_id":"cebpf4jnsgd1na2vs0mg"},{"bike_id":"a44a2295-5d32-48e4-84ba-da90718028ed","system_id":"levelo_inurba_marseille","lat":43.280802,"lon":5.396663,"is_reserved":false,"is_disabled":false,"rental_uris":{"android":"levelo://app?vid=a44a2295-5d32-48e4-84ba-da90718028ed","ios":"levelo://app?vid=a44a2295-5d32-48e4-84ba-da90718028ed"},"vehicle_type_id":"4","last_reported":1729451187,"current_range_meters":14800,"station_id":"ce4bho12rcd13ifvqh2g","pricing_plan_id":"cebpf4jnsgd1na2vs0mg"},{"bike_id":"f357d317-303f-4db6-a6b2-a7c7395ce5d8","system_id":"levelo_inurba_marseille","lat":43.2809,"lon":5.37849,"is_reserved":false,"is_disabled":false,"rental_uris":{"android":"levelo://app?vid=f357d317-303f-4db6-a6b2-a7c7395ce5d8","ios":"levelo://app?vid=f357d317-303f-4db6-a6b2-a7c7395ce5d8"},"vehicle_type_id":"4","last_reported":1729451187,"current_range_meters":32800,"station_id":"ce4bha12rcd13ifvqee0","pricing_plan_id":"cebpf4jnsgd1na2vs0mg"},{"bike_id":"3f39581f-468e-4871-a3f3-aa5e83182427","system_id":"levelo_inurba_marseille","lat":43.28656,"lon":5.36357,"is_reserved":false,"is_disabled":false,"rental_uris":{"android":"levelo://app?vid=3f39581f-468e-4871-a3f3-aa5e83182427","ios":"levelo://app?vid=3f39581f-468e-4871-a3f3-aa5e83182427"},"vehicle_type_id":"4","last_reported":1729451187,"current_range_meters":37600,"station_id":"ce4bhah2rcd13ifvqej0","pricing_plan_id":"cebpf4jnsgd1na2vs0mg"},{"bike_id":"501397cd-8129-41dd-aeff-5e1227faa4f4","system_id":"levelo_inurba_marseille","lat":43.31482,"lon":5.37314,"is_reserved":false,"is_disabled":false,"rental_uris":{"android":"levelo://app?vid=501397cd-8129-41dd-aeff-5e1227faa4f4","ios":"levelo://app?vid=501397cd-8129-41dd-aeff-5e1227faa4f4"},"vehicle_type_id":"4","last_reported":1729451187,"current_range_meters":10800,"station_id":"ce4bgt12rcd13ifvqcd0","pricing_plan_id":"cebpf4jnsgd1na2vs0mg"},{"bike_id":"e9dfc012-b924-4136-b964-2e8582932d94","system_id":"levelo_inurba_marseille","lat":43.29023,"lon":5.38647,"is_reserved":false,"is_disabled":false,"rental_uris":{"android":"levelo://app?vid=e9dfc012-b924-4136-b964-2e8582932d94","ios":"levelo://app?vid=e9dfc012-b924-4136-b964-2e8582932d94"},"vehicle_type_id":"4","last_reported":1729451187,"current_range_meters":39200,"station_id":"ce4bh4p2rcd13ifvqe0g","pricing_plan_id":"cebpf4jnsgd1na2vs0mg"},{"bike_id":"1841535f-865f-4301-b0dc-40c29c2bd545","system_id":"levelo_inurba_marseille","lat":43.30785,"lon":5.3765,"is_reserved":false,"is_disabled":false,"rental_uris":{"android":"levelo://app?vid=1841535f-865f-4301-b0dc-40c29c2bd545","ios":"levelo://app?vid=1841535f-865f-4301-b0dc-40c29c2bd545"},"vehicle_type_id":"4","last_reported":1729451187,"current_range_meters":14000,"station_id":"ce4bgv92rcd13ifvqcq0","pricing_plan_id":"cebpf4jnsgd1na2vs0mg"},{"bike_id":"6f302313-ff5c-4ed0-af8e-799e5d83f584","system_id":"levelo_inurba_marseille","lat":43.27171,"lon":5.4193,"is_reserved":false,"is_disabled":false,"rental_uris":{"android":"levelo://app?vid=6f302313-ff5c-4ed0-af8e-799e5d83f584","ios":"levelo://app?vid=6f302313-ff5c-4ed0-af8e-799e5d83f584"},"vehicle_type_id":"4","last_reported":1729451187,"current_range_meters":2800,"station_id":"","pricing_plan_id":"cebpf4jnsgd1na2vs0mg"},{"bike_id":"4623cb10-f1b6-4002-8925-f91a6e725b88","system_id":"levelo_inurba_marseille","lat":43.29265,"lon":5.3844,"is_reserved":false,"is_disabled":false,"rental_uris":{"android":"levelo://app?vid=4623cb10-f1b6-4002-8925-f91a6e725b88","ios":"levelo://app?vid=4623cb10-f1b6-4002-8925-f91a6e725b88"},"vehicle_type_id":"4","last_reported":1729451187,"current_range_meters":10800,"station_id":"","pricing_plan_id":"cebpf4jnsgd1na2vs0mg"},{"bike_id":"a57b5aac-8aef-417c-8e6e-3fd7560d177a","system_id":"levelo_inurba_marseille","lat":43.26521,"lon":5.39086,"is_reserved":false,"is_disabled":false,"rental_uris":{"android":"levelo://app?vid=a57b5aac-8aef-417c-8e6e-3fd7560d177a","ios":"levelo://app?vid=a57b5aac-8aef-417c-8e6e-3fd7560d177a"},"vehicle_type_id":"4","last_reported":1729451187,"current_range_meters":27600,"station_id":"ce4bhhp2rcd13ifvqfm0","pricing_plan_id":"cebpf4jnsgd1na2vs0mg"},{"bike_id":"00763039-aa71-40ec-a5c6-3bf4b7443280","system_id":"levelo_inurba_marseille","lat":43.30142,"lon":5.37423,"is_reserved":false,"is_disabled":false,"rental_uris":{"android":"levelo://app?vid=00763039-aa71-40ec-a5c6-3bf4b7443280","ios":"levelo://app?vid=00763039-aa71-40ec-a5c6-3bf4b7443280"},"vehicle_type_id":"4","last_reported":1729451187,"current_range_meters":16000,"station_id":"ce4bgs92rcd13ifvqcc0","pricing_plan_id":"cebpf4jnsgd1na2vs0mg"},{"bike_id":"fb9a0322-7a4f-4309-944a-d82c60bb85a7","system_id":"levelo_inurba_marseille","lat":43.30951,"lon":5.39031,"is_reserved":false,"is_disabled":false,"rental_uris":{"android":"levelo://app?vid=fb9a0322-7a4f-4309-944a-d82c60bb85a7","ios":"levelo://app?vid=fb9a0322-7a4f-4309-944a-d82c60bb85a7"},"vehicle_type_id":"4","last_reported":1729451187,"current_range_meters":38800,"station_id":"ce4bgup2rcd13ifvqco0","pricing_plan_id":"cebpf4jnsgd1na2vs0mg"},{"bike_id":"b7873984-30cc-4c32-bdfc-a90087ed8b94","system_id":"levelo_inurba_marseille","lat":43.28425,"lon":5.34997,"is_reserved":false,"is_disabled":false,"rental_uris":{"android":"levelo://app?vid=b7873984-30cc-4c32-bdfc-a90087ed8b94","ios":"levelo://app?vid=b7873984-30cc-4c32-bdfc-a90087ed8b94"},"vehicle_type_id":"4","last_reported":1729451187,"current_range_meters":38800,"station_id":"ce4bhbh2rcd13ifvqepg","pricing_plan_id":"cebpf4jnsgd1na2vs0mg"},{"bike_id":"78113953-9737-4b6c-8655-922b2bb504cf","system_id":"levelo_inurba_marseille","lat":43.30802,"lon":5.3817,"is_reserved":false,"is_disabled":false,"rental_uris":{"android":"levelo://app?vid=78113953-9737-4b6c-8655-922b2bb504cf","ios":"levelo://app?vid=78113953-9737-4b6c-8655-922b2bb504cf"},"vehicle_type_id":"4","last_reported":1729451187,"current_range_meters":11200,"station_id":"ce4bgt12rcd13ifvqce0","pricing_plan_id":"cebpf4jnsgd1na2vs0mg"},{"bike_id":"5ab94709-77c6-4d70-bc5b-fa4af4bca6e3","system_id":"levelo_inurba_marseille","lat":43.30435,"lon":5.38899,"is_reserved":false,"is_disabled":false,"rental_uris":{"android":"levelo://app?vid=5ab94709-77c6-4d70-bc5b-fa4af4bca6e3","ios":"levelo://app?vid=5ab94709-77c6-4d70-bc5b-fa4af4bca6e3"},"vehicle_type_id":"4","last_reported":1729451187,"current_range_meters":36400,"station_id":"ce4bgk12rcd13ifvqbi0","pricing_plan_id":"cebpf4jnsgd1na2vs0mg"},{"bike_id":"3bf115c6-8efa-475f-af9e-5ee9038c1b80","system_id":"levelo_inurba_marseille","lat":43.31065,"lon":5.40095,"is_reserved":false,"is_disabled":false,"rental_uris":{"android":"levelo://app?vid=3bf115c6-8efa-475f-af9e-5ee9038c1b80","ios":"levelo://app?vid=3bf115c6-8efa-475f-af9e-5ee9038c1b80"},"vehicle_type_id":"4","last_reported":1729451187,"current_range_meters":33600,"station_id":"","pricing_plan_id":"cebpf4jnsgd1na2vs0mg"},{"bike_id":"8f2bf116-e53d-45e1-973d-5f21f54da104","system_id":"levelo_inurba_marseille","lat":43.26949,"lon":5.38639,"is_reserved":false,"is_disabled":false,"rental_uris":{"android":"levelo://app?vid=8f2bf116-e53d-45e1-973d-5f21f54da104","ios":"levelo://app?vid=8f2bf116-e53d-45e1-973d-5f21f54da104"},"vehicle_type_id":"4","last_reported":1729451187,"current_range_meters":33200,"station_id":"ce4bhh92rcd13ifvqfh0","pricing_plan_id":"cebpf4jnsgd1na2vs0mg"},{"bike_id":"5a7ec72c-ed75-462d-ba54-955f759ae8bf","system_id":"levelo_inurba_marseille","lat":43.25085,"lon":5.3951,"is_reserved":false,"is_disabled":false,"rental_uris":{"android":"levelo://app?vid=5a7ec72c-ed75-462d-ba54-955f759ae8bf","ios":"levelo://app?vid=5a7ec72c-ed75-462d-ba54-955f759ae8bf"},"vehicle_type_id":"4","last_reported":1729451187,"current_range_meters":6800,"station_id":"ce4bhm12rcd13ifvqgkg","pricing_plan_id":"cebpf4jnsgd1na2vs0mg"},{"bike_id":"ec62c270-f90f-42c3-92e2-083fb7e68080","system_id":"levelo_inurba_marseille","lat":43.29881,"lon":5.38907,"is_reserved":false,"is_disabled":false,"rental_uris":{"android":"levelo://app?vid=ec62c270-f90f-42c3-92e2-083fb7e68080","ios":"levelo://app?vid=ec62c270-f90f-42c3-92e2-083fb7e68080"},"vehicle_type_id":"4","last_reported":1729451187,"current_range_meters":37600,"station_id":"ce4bh392rcd13ifvqdl0","pricing_plan_id":"cebpf4jnsgd1na2vs0mg"},{"bike_id":"e70e58e9-9f61-432e-8b02-cc8154a60a10","system_id":"levelo_inurba_marseille","lat":43.296021,"lon":5.378054,"is_reserved":false,"is_disabled":false,"rental_uris":{"android":"levelo://app?vid=e70e58e9-9f61-432e-8b02-cc8154a60a10","ios":"levelo://app?vid=e70e58e9-9f61-432e-8b02-cc8154a60a10"},"vehicle_type_id":"4","last_reported":1729451187,"current_range_meters":36400,"station_id":"ce4bgvp2rcd13ifvqct0","pricing_plan_id":"cebpf4jnsgd1na2vs0mg"},