{"last_updated":1717261622,"ttl":30,"version":"2.2","data":{"bikes":[{"bike_id":"9f1029b3-ff5b-4635-8ba2-1844eddee9e9","system_id":"levelo_inurba_marseille","lat":43.31341,"lon":5.367098,"is_reserved":false,"is_disabled":false,"rental_uris":{"android":"levelo://app?vid=9f1029b3-ff5b-4635-8ba2-1844eddee9e9","ios":"levelo://app?vid=9f1029b3-ff5b-4635-8ba2-1844eddee9e9"},"vehicle_type_id":"4","last_reported":1717261622,"current_range_meters":1200,"station_id":"ce4bgr92rcd13ifvqc6g","pricing_plan_id":"cebpf4jnsgd1na2vs0mg"},{"bike_id":"898e431f-a63b-4c31-8e4e-b7e89b203bd3","system_id":"levelo_inurba_marseille","lat":43.312239,"lon":5.368562,"is_reserved":false,"is_disabled":false,"rental_uris":{"android":"levelo://app?vid=898e431f-a63b-4c31-8e4e-b7e89b203bd3","ios":"levelo://app?vid=898e431f-a63b-4c31-8e4e-b7e89b203bd3"},"vehicle_type_id":"4","last_reported":1717261622,"current_range_meters":16800,"station_id":"ce4bgl92rcd13ifvqbq0","pricing_plan_id":"cebpf4jnsgd1na2vs0mg"},{"bike_id":"bfcb5ce9-976f-45e0-a8b9-abd9411d9e40","system_id":"levelo_inurba_marseille","lat":43.312029,"lon":5.368831,"is_reserved":false,"is_disabled":false,"rental_uris":{"android":"levelo://app?vid=bfcb5ce9-976f-45e0-a8b9-abd9411d9e40","ios":"levelo://app?vid=bfcb5ce9-976f-45e0-a8b9-abd9411d9e40"},"vehicle_type_id":"4","last_reported":1717261622,"current_range_meters":13200,"station_id":"ce4bgl92rcd13ifvqbq0","pricing_plan_id":"cebpf4jnsgd1na2vs0mg"},{"bike_id":"d98e9b1a-87a1-4ec3-bf9a-7257806b4bcf","system_id":"levelo_inurba_marseille","lat":43.309076,"lon":5.368465,"is_reserved":false,"is_disabled":false,"rental_uris":{"android":"levelo://app?vid=d98e9b1a-87a1-4ec3-bf9a-7257806b4bcf","ios":"levelo://app?vid=d98e9b1a-87a1-4ec3-bf9a-7257806b4bcf"},"vehicle_type_id":"4","last_reported":1717261622,"current_range_meters":25600,"station_id":"ce4bgn92rcd13ifvqbvg","pricing_plan_id":"cebpf4jnsgd1na2vs0mg"},{"bike_id":"08d59a10-4c9c-41ed-a5e8-7a0f0aa83f26","system_id":"levelo_inurba_marseille","lat":43.314811,"lon":5.373103,"is_reserved":false,"is_disabled":false,"rental_uris":{"android":"levelo://app?vid=08d59a10-4c9c-41ed-a5e8-7a0f0aa83f26","ios":"levelo://app?vid=08d59a10-4c9c-41ed-a5e8-7a0f0aa83f26"},"vehicle_type_id":"4","last_reported":1717261622,"current_range_meters":5200,"station_id":"ce4bgt12rcd13ifvqcd0","pricing_plan_id":"cebpf4jnsgd1na2vs0mg"},{"bike_id":"68b5382d-e1c0-455c-8e6d-5ae8efd99b2a","system_id":"levelo_inurba_marseille","lat":43.31529,"lon":5.373066,"is_reserved":false,"is_disabled":false,"rental_uris":{"android":"levelo://app?vid=68b5382d-e1c0-455c-8e6d-5ae8efd99b2a","ios":"levelo://app?vid=68b5382d-e1c0-455c-8e6d-5ae8efd99b2a"},"vehicle_type_id":"4","last_reported":1717261622,"current_range_meters":9200,"station_id":"","pricing_plan_id":"cebpf4jnsgd1na2vs0mg"},{"bike_id":"c466f6a5-41fd-4e94-9a02-9c4132132c9c","system_id":"levelo_inurba_marseille","lat":43.30889,"lon":5.37198,"is_reserved":false,"is_disabled":false,"rental_uris":{"android":"levelo://app?vid=c466f6a5-41fd-4e94-9a02-9c4132132c9c","ios":"levelo://app?vid=c466f6a5-41fd-4e94-9a02-9c4132132c9c"},"vehicle_type_id":"4","last_reported":1717261622,"current_range_meters":0,"station_id":"ce4bguh2rcd13ifvqckg","pricing_plan_id":"cebpf4jnsgd1na2vs0mg"},{"bike_id":"cef04bcf-5e51-4429-9659-cbad4b0fed2f","system_id":"levelo_inurba_marseille","lat":43.309034,"lon":5.371783,"is_reserved":false,"is_disabled":false,"rental_uris":{"android":"levelo://app?vid=cef04bcf-5e51-4429-9659-cbad4b0fed2f","ios":"levelo://app?vid=cef04bcf-5e51-4429-9659-cbad4b0fed2f"},"vehicle_type_id":"4","last_reported":1717261622,"current_range_meters":15600,"station_id":"ce4bguh2rcd13ifvqckg","pricing_plan_id":"cebpf4jnsgd1na2vs0mg"},{"bike_id":"6e4e440a-bb3d-492b-a840-31a49b7b48a4","system_id":"levelo_inurba_marseille","lat":43.305706,"lon":5.365654,"is_reserved":false,"is_disabled":false,"rental_uris":{"android":"levelo://app?vid=6e4e440a-bb3d-492b-a840-31a49b7b48a4","ios":"levelo://app?vid=6e4e440a-bb3d-492b-a840-31a49b7b48a4"},"vehicle_type_id":"4","last_reported":1717261622,"current_range_meters":0,"station_id":"ce4bgs12rcd13ifvqcag","pricing_plan_id":"cebpf4jnsgd1na2vs0mg"},{"bike_id":"3bda3b7e-f927-434a-b093-13af688a326e","system_id":"levelo_inurba_marseille","lat":43.305989,"lon":5.37225,"is_reserved":false,"is_disabled":false,"rental_uris":{"android":"levelo://app?vid=3bda3b7e-f927-434a-b093-13af688a326e","ios":"levelo://app?vid=3bda3b7e-f927-434a-b093-13af688a326e"},"vehicle_type_id":"4","last_reported":1717261622,"current_range_meters":0,"station_id":"ce4bgqh2rcd13ifvqc4g","pricing_plan_id":"cebpf4jnsgd1na2vs0mg"},{"bike_id":"bc74df8e-5c0c-44df-9331-d3ec1867ad18","system_id":"levelo_inurba_marseille","lat":43.305989,"lon":5.37225,"is_reserved":false,"is_disabled":false,"rental_uris":{"android":"levelo://app?vid=bc74df8e-5c0c-44df-9331-d3ec1867ad18","ios":"levelo://app?vid=bc74df8e-5c0c-44df-9331-d3ec1867ad18"},"vehicle_type_id":"4","last_reported":1717261622,"current_range_meters":13600,"station_id":"ce4bgqh2rcd13ifvqc4g","pricing_plan_id":"cebpf4jnsgd1na2vs0mg"},{"bike_id":"bdd1b5a4-767e-438c-87d7-2e90a714f5de","system_id":"levelo_inurba_marseille","lat":43.317075,"lon":5.377367,"is_reserved":false,"is_disabled":false,"rental_uris":{"android":"levelo://app?vid=bdd1b5a4-767e-438c-87d7-2e90a714f5de","ios":"levelo://app?vid=bdd1b5a4-767e-438c-87d7-2e90a714f5de"},"vehicle_type_id":"4","last_reported":1717261622,"current_range_meters":28800,"station_id":"ce4bgth2rcd13ifvqch0","pricing_plan_id":"cebpf4jnsgd1na2vs0mg"},{"bike_id":"795db91f-0f43-4f7f-bed5-7b435abc6c5c","system_id":"levelo_inurba_marseille","lat":43.303046,"lon":5.368981,"is_reserved":false,"is_disabled":false,"rental_uris":{"android":"levelo://app?vid=795db91f-0f43-4f7f-bed5-7b435abc6c5c","ios":"levelo://app?vid=795db91f-0f43-4f7f-bed5-7b435abc6c5c"},"vehicle_type_id":"4","last_reported":1717261622,"current_range_meters":0,"station_id":"ce4bgqh2rcd13ifvqc5g","pricing_plan_id":"cebpf4jnsgd1na2vs0mg"},{"bike_id":"77b111d4-8d7d-437e-99d9-ce8d0a1018bd","system_id":"levelo_inurba_marseille","lat":43.303046,"lon":5.368981,"is_reserved":false,"is_disabled":false,"rental_uris":{"android":"levelo://app?vid=77b111d4-8d7d-437e-99d9-ce8d0a1018bd","ios":"levelo://app?vid=77b111d4-8d7d-437e-99d9-ce8d0a1018bd"},"vehicle_type_id":"4","last_reported":1717261622,"current_range_meters":5200,"station_id":"ce4bgqh2rcd13ifvqc5g","pricing_plan_id":"cebpf4jnsgd1na2vs0mg"},{"bike_id":"3a12948c-dbd5-433f-85dc-51a8c73bae81","system_id":"levelo_inurba_marseille","lat":43.315289,"lon":5.380349,"is_reserved":false,"is_disabled":false,"rental_uris":{"android":"levelo://app?vid=3a12948c-dbd5-433f-85dc-51a8c73bae81","ios":"levelo://app?vid=3a12948c-dbd5-433f-85dc-51a8c73bae81"},"vehicle_type_id":"4","last_reported":1717261622,"current_range_meters":20000,"station_id":"ce4bhsp2rcd13ifvqi50","pricing_plan_id":"cebpf4jnsgd1na2vs0mg"},{"bike_id":"39825e82-8ccb-43a3-9cdc-4c76c2c34397","system_id":"levelo_inurba_marseille","lat":43.301939,"lon":5.366286,"is_reserved":false,"is_disabled":false,"rental_uris":{"android":"levelo://app?vid=39825e82-8ccb-43a3-9cdc-4c76c2c34397","ios":"levelo://app?vid=39825e82-8ccb-43a3-9cdc-4c76c2c34397"},"vehicle_type_id":"4","last_reported":1717261622,"current_range_meters":12400,"station_id":"ce4bgrh2rcd13ifvqc8g","pricing_plan_id":"cebpf4jnsgd1na2vs0mg"},{"bike_id":"d988a4c2-6540-4d1e-bba5-fde614aaff12","system_id":"levelo_inurba_marseille","lat":43.301939,"lon":5.366286,"is_reserved":false,"is_disabled":false,"rental_uris":{"android":"levelo://app?vid=d988a4c2-6540-4d1e-bba5-fde614aaff12","ios":"levelo://app?vid=d988a4c2-6540-4d1e-bba5-fde614aaff12"},"vehicle_type_id":"4","last_reported":1717261622,"current_range_meters":18400,"station_id":"ce4bgrh2rcd13ifvqc8g","pricing_plan_id":"cebpf4jnsgd1na2vs0mg"},{"bike_id":"21463775-02f7-4afe-a479-b066c6e6aede","system_id":"levelo_inurba_marseille","lat":43.310804,"lon":5.38359,"is_reserved":false,"is_disabled":false,"rental_uris":{"android":"levelo://app?vid=21463775-02f7-4afe-a479-b066c6e6aede","ios":"levelo://app?vid=21463775-02f7-4afe-a479-b066c6e6aede"},"vehicle_type_id":"4","last_reported":1717261622,"current_range_meters":0,"station_id":"ce4bgv92rcd13ifvqcr0","pricing_plan_id":"cebpf4jnsgd1na2vs0mg"},{"bike_id":"388d6402-04c4-4cf2-97a1-d52f520e80e9","system_id":"levelo_inurba_marseille","lat":43.304606,"lon":5.379026,"is_reserved":false,"is_disabled":false,"rental_uris":{"android":"levelo://app?vid=388d6402-04c4-4cf2-97a1-d52f520e80e9","ios":"levelo://app?vid=388d6402-04c4-4cf2-97a1-d52f520e80e9"},"vehicle_type_id":"4","last_reported":1717261622,"current_range_meters":4000,"station_id":"ce4bgup2rcd13ifvqcn0","pricing_plan_id":"cebpf4jnsgd1na2vs0mg"},{"bike_id":"4510bfcc-5e7c-4122-8090-1c81f377cc96","system_id":"levelo_inurba_marseille","lat":43.304606,"lon":5.379026,"is_reserved":false,"is_disabled":false,"rental_uris":{"android":"levelo://app?vid=4510bfcc-5e7c-4122-8090-1c81f377cc96","ios":"levelo://app?vid=4510bfcc-5e7c-4122-8090-1c81f377cc96"},"vehicle_type_id":"4","last_reported":1717261622,"current_range_meters":18800,"station_id":"ce4bgup2rcd13ifvqcn0","pricing_plan_id":"cebpf4jnsgd1na2vs0mg"},{"bike_id":"67bd6fa9-68f0-443d-bd75-96602c4eeb1c","system_id":"levelo_inurba_marseille","lat":43.324771,"lon":5.36557,"is_reserved":false,"is_disabled":false,"rental_uris":{"android":"levelo://app?vid=67bd6fa9-68f0-443d-bd75-96602c4eeb1c","ios":"levelo://app?vid=67bd6fa9-68f0-443d-bd75-96602c4eeb1c"},"vehicle_type_id":"4","last_reported":1717261622,"current_range_meters":14800,"station_id":"ce4bhs12rcd13ifvqhvg","pricing_plan_id":"cebpf4jnsgd1na2vs0mg"},{"bike_id":"c7c4cc4f-4423-4be4-a743-980f6c074eba","system_id":"levelo_inurba_marseille","lat":43.324771,"lon":5.36557,"is_reserved":false,"is_disabled":false,"rental_uris":{"android":"levelo://app?vid=c7c4cc4f-4423-4be4-a743-980f6c074eba","ios":"levelo://app?vid=c7c4cc4f-4423-4be4-a743-980f6c074eba"},"vehicle_type_id":"4","last_reported":1717261622,"current_range_meters":12000,"station_id":"ce4bhs12rcd13ifvqhvg","pricing_plan_id":"cebpf4jnsgd1na2vs0mg"},{"bike_id":"699c1b82-9562-4fc9-adf7-f039851bf138","system_id":"levelo_inurba_marseille","lat":43.324771,"lon":5.36557,"is_reserved":false,"is_disabled":false,"rental_uris":{"android":"levelo://app?vid=699c1b82-9562-4fc9-adf7-f039851bf138","ios":"levelo://app?vid=699c1b82-9562-4fc9-adf7-f039851bf138"},"vehicle_type_id":"4","last_reported":1717261622,"current_range_meters":0,"station_id":"ce4bhs12rcd13ifvqhvg","pricing_plan_id":"cebpf4jnsgd1na2vs0mg"},{"bike_id":"9f08855f-4e29-4a07-b3a5-c3181711f1e6","system_id":"levelo_inurba_marseille","lat":43.324771,"lon":5.36557,"is_reserved":false,"is_disabled":false,"rental_uris":{"android":"levelo://app?vid=9f08855f-4e29-4a07-b3a5-c3181711f1e6","ios":"levelo://app?vid=9f08855f-4e29-4a07-b3a5-c3181711f1e6"},"vehicle_type_id":"4","last_reported":1717261622,"current_range_meters":18000,"station_id":"ce4bhs12rcd13ifvqhvg","pricing_plan_id":"cebpf4jnsgd1na2vs0mg"},{"bike_id":"d454f7ba-9dbc-4bb9-a0ed-5439b79fa984","system_id":"levelo_inurba_marseille","lat":43.32486,"lon":5.36569,"is_reserved":false,"is_disabled":false,"rental_uris":{"android":"levelo://app?vid=d454f7ba-9dbc-4bb9-a0ed-5439b79fa984","ios":"levelo://app?vid=d454f7ba-9dbc-4bb9-a0ed-5439b79fa984"},"vehicle_type_id":"4","last_reported":1717261622,"current_range_meters":400,"station_id":"ce4bhs12rcd13ifvqhvg","pricing_plan_id":"cebpf4jnsgd1na2vs0mg"},{"bike_id":"0c5edb0c-6658-4129-a1f2-5579cde77bea","system_id":"levelo_inurba_marseille","lat":43.301429,"lon":5.37413,"is_reserved":false,"is_disabled":false,"rental_uris":{"android":"levelo://app?vid=0c5edb0c-6658-4129-a1f2-5579cde77bea","ios":"levelo://app?vid=0c5edb0c-6658-4129-a1f2-5579cde77bea"},"vehicle_type_id":"4","last_reported":1717261622,"current_range_meters":24000,"station_id":"ce4bgs92rcd13ifvqcc0","pricing_plan_id":"cebpf4jnsgd1na2vs0mg"},{"bike_id":"c84b613c-1980-4f6d-a6d6-d2ddff6c8d23","system_id":"levelo_inurba_marseille","lat":43.302784,"lon":5.377158,"is_reserved":false,"is_disabled":false,"rental_uris":{"android":"levelo://app?vid=c84b613c-1980-4f6d-a6d6-d2ddff6c8d23","ios":"levelo://app?vid=c84b613c-1980-4f6d-a6d6-d2ddff6c8d23"},"vehicle_type_id":"4","last_reported":1717261622,"current_range_meters":2800,"station_id":"ce4bguh2rcd13ifvqcj0","pricing_plan_id":"cebpf4jnsgd1na2vs0mg"},{"bike_id":"d04fd5fb-b406-4e2e-8104-985e27b5e327","system_id":"levelo_inurba_marseille","lat":43.30046,"lon":5.37227,"is_reserved":false,"is_disabled":false,"rental_uris":{"android":"levelo://app?vid=d04fd5fb-b406-4e2e-8104-985e27b5e327","ios":"levelo://app?vid=d04fd5fb-b406-4e2e-8104-985e27b5e327"},"vehicle_type_id":"4","last_reported":1717261622,"current_range_meters":5200,"station_id":"","pricing_plan_id":"cebpf4jnsgd1na2vs0mg"},{"bike_id":"5aa82144-c62c-481f-b0f3-4b634fbd68a6","system_id":"levelo_inurba_marseille","lat":43.319935,"lon":5.381699,"is_reserved":false,"is_disabled":false,"rental_uris":{"android":"levelo://app?vid=5aa82144-c62c-481f-b0f3-4b634fbd68a6","ios":"levelo://app?vid=5aa82144-c62c-481f-b0f3-4b634fbd68a6"},"vehicle_type_id":"4","last_reported":1717261622,"current_range_meters":14000,"station_id":"ce4bhr12rcd13ifvqhpg","pricing_plan_id":"cebpf4jnsgd1na2vs0mg"},{"bike_id":"1801d45b-0279-4917-92dc-bc4fea14e791","system_id":"levelo_inurba_marseille","lat":43.31998,"lon":5.38162,"is_reserved":false,"is_disabled":false,"rental_uris":{"android":"levelo://app?vid=1801d45b-0279-4917-92dc-bc4fea14e791","ios":"levelo://app?vid=1801d45b-0279-4917-92dc-bc4fea14e791"},"vehicle_type_id":"4","last_reported":1717261622,"current_range_meters":14800,"station_id":"ce4bhr12rcd13ifvqhpg","pricing_plan_id":"cebpf4jnsgd1na2vs0mg"},{"bike_id":"a1b324c3-4672-4178-8f46-8f15d360dea8","system_id":"levelo_inurba_marseille","lat":43.303279,"lon":5.37927,"is_reserved":false,"is_disabled":false,"rental_uris":{"android":"levelo://app?vid=a1b324c3-4672-4178-8f46-8f15d360dea8","ios":"levelo://app?vid=a1b324c3-4672-4178-8f46-8f15d360dea8"},"vehicle_type_id":"4","last_reported":1717261622,"current_range_meters":21600,"station_id":"","pricing_plan_id":"cebpf4jnsgd1na2vs0mg"},{"bike_id":"8bf73f2f-46ec-47c2-b878-2ab8d60f8e5f","system_id":"levelo_inurba_marseille","lat":43.313571,"lon":5.384829,"is_reserved":false,"is_disabled":false,"rental_uris":{"android":"levelo://app?vid=8bf73f2f-46ec-47c2-b878-2ab8d60f8e5f","ios":"levelo://app?vid=8bf73f2f-46ec-47c2-b878-2ab8d60f8e5f"},"vehicle_type_id":"4","last_reported":1717261622,"current_range_meters":9600,"station_id":"ce4bgt92rcd13ifvqcf0","pricing_plan_id":"cebpf4jnsgd1na2vs0mg"},{"bike_id":"f08005f9-d15e-41a6-b26a-094b8681fc1d","system_id":"levelo_inurba_marseille","lat":43.313571,"lon":5.384829,"is_reserved":false,"is_disabled":false,"rental_uris":{"android":"levelo://app?vid=f08005f9-d15e-41a6-b26a-094b8681fc1d","ios":"levelo://app?vid=f08005f9-d15e-41a6-b26a-094b8681fc1d"},"vehicle_type_id":"4","last_reported":1717261622,"current_range_meters":9200,"station_id":"ce4bgt92rcd13ifvqcf0","pricing_plan_id":"cebpf4jnsgd1na2vs0mg"},{"bike_id":"ab3e33df-9ca2-48e8-b2c4-602bc6c13f38","system_id":"levelo_inurba_marseille","lat":43.313571,"lon":5.384829,"is_reserved":false,"is_disabled":false,"rental_uris":{"android":"levelo://app?vid=ab3e33df-9ca2-48e8-b2c4-602bc6c13f38","ios":"levelo://app?vid=ab3e33df-9ca2-48e8-b2c4-602bc6c13f38"},"vehicle_type_id":"4","last_reported":1717261622,"current_range_meters":7600,"station_id":"ce4bgt92rcd13ifvqcf0","pricing_plan_id":"cebpf4jnsgd1na2vs0mg"},{"bike_id":"4440a430-c280-4a78-a9ac-1eef926c70db","system_id":"levelo_inurba_marseille","lat":43.299724,"lon":5.371829,"is_reserved":false,"is_disabled":false,"rental_uris":{"android":"levelo://app?vid=4440a430-c280-4a78-a9ac-1eef926c70db","ios":"levelo://app?vid=4440a430-c280-4a78-a9ac-1eef926c70db"},"vehicle_type_id":"4","last_reported":1717261622,"current_range_meters":7600,"station_id":"ce4bgr92rcd13ifvqc7g","pricing_plan_id":"cebpf4jnsgd1na2vs0mg"},{"bike_id":"d34c2ede-ae34-4943-bee5-1481d6c38efb","system_id":"levelo_inurba_marseille","lat":43.299795,"lon":5.371803,"is_reserved":false,"is_disabled":false,"rental_uris":{"android":"levelo://app?vid=d34c2ede-ae34-4943-bee5-1481d6c38efb","ios":"levelo://app?vid=d34c2ede-ae34-4943-bee5-1481d6c38efb"},"vehicle_type_id":"4","last_reported":1717261622,"current_range_meters":2400,"station_id":"ce4bgop2rcd13ifvqc1g","pricing_plan_id":"cebpf4jnsgd1na2vs0mg"},{"bike_id":"a2157597-72e0-465a-9086-faec4f83cfa7","system_id":"levelo_inurba_marseille","lat":43.319839,"lon":5.382634,"is_reserved":false,"is_disabled":false,"rental_uris":{"android":"levelo://app?vid=a2157597-72e0-465a-9086-faec4f83cfa7","ios":"levelo://app?vid=a2157597-72e0-465a-9086-faec4f83cfa7"},"vehicle_type_id":"4","last_reported":1717261622,"current_range_meters":0,"station_id":"","pricing_plan_id":"cebpf4jnsgd1na2vs0mg"},{"bike_id":"b89a8b39-ad72-4851-ad20-d85cad02d54b","system_id":"levelo_inurba_marseille","lat":43.304734,"lon":5.382254,"is_reserved":false,"is_disabled":false,"rental_uris":{"android":"levelo://app?vid=b89a8b39-ad72-4851-ad20-d85cad02d54b","ios":"levelo://app?vid=b89a8b39-ad72-4851-ad20-d85cad02d54b"},"vehicle_type_id":"4","last_reported":1717261622,"current_range_meters":0,"station_id":"","pricing_plan_id":"cebpf4jnsgd1na2vs0mg"},{"bike_id":"97e15467-ea4b-45ed-9681-b1589e01b82d","system_id":"levelo_inurba_marseille","lat":43.29913,"lon":5.36383,"is_reserved":false,"is_disabled":false,"rental_uris":{"android":"levelo://app?vid=97e15467-ea4b-45ed-9681-b1589e01b82d","ios":"levelo://app?vid=97e15467-ea4b-45ed-9681-b1589e01b82d"},"vehicle_type_id":"4","last_reported":1717261622,"current_range_meters":22000,"station_id":"","pricing_plan_id":"cebpf4jnsgd1na2vs0mg"},{"bike_id":"7df24c99-db40-4693-85a9-42735514bf17","system_id":"levelo_inurba_marseille","lat":43.305364,"lon":5.384119,"is_reserved":false,"is_disabled":false,"rental_uris":{"android":"levelo://app?vid=7df24c99-db40-4693-85a9-42735514bf17","ios":"levelo://app?vid=7df24c99-db40-4693-85a9-42735514bf17"},"vehicle_type_id":"4","last_reported":1717261622,"current_range_meters":27600,"station_id":"ce4bgg92rcd13ifvqb30","pricing_plan_id":"cebpf4jnsgd1na2vs0mg"},{"bike_id":"28348bb0-0951-410d-b22b-eaf02681fbcf","system_id":"levelo_inurba_marseille","lat":43.305364,"lon":5.384119,"is_reserved":false,"is_disabled":false,"rental_uris":{"android":"levelo://app?vid=28348bb0-0951-410d-b22b-eaf02681fbcf","ios":"levelo://app?vid=28348bb0-0951-410d-b22b-eaf02681fbcf"},"vehicle_type_id":"4","last_reported":1717261622,"current_range_meters":24400,"station_id":"ce4bgg92rcd13ifvqb30","pricing_plan_id":"cebpf4jnsgd1na2vs0mg"},{"bike_id":"7c0279c4-785e-41cc-9875-11b1aa5697b0","system_id":"levelo_inurba_marseille","lat":43.298433,"lon":5.362774,"is_reserved":false,"is_disabled":false,"rental_uris":{"android":"levelo://app?vid=7c0279c4-785e-41cc-9875-11b1aa5697b0","ios":"levelo://app?vid=7c0279c4-785e-41cc-9875-11b1aa5697b0"},"vehicle_type_id":"4","last_reported":1717261622,"current_range_meters":30000,"station_id":"ce4bgpp2rcd13ifvqc3g","pricing_plan_id":"cebpf4jnsgd1na2vs0mg"},{"bike_id":"e8e744ca-7bf7-4dae-ace5-123054b8ef5b","system_id":"levelo_inurba_marseille","lat":43.299243,"lon":5.37481,"is_reserved":false,"is_disabled":false,"rental_uris":{"android":"levelo://app?vid=e8e744ca-7bf7-4dae-ace5-123054b8ef5b","ios":"levelo://app?vid=e8e744ca-7bf7-4dae-ace5-123054b8ef5b"},"vehicle_type_id":"4","last_reported":1717261622,"current_range_meters":2000,"station_id":"ce4bgjh2rcd13ifvqbg0","pricing_plan_id":"cebpf4jnsgd1na2vs0mg"},{"bike_id":"c997d29f-a146-490e-aa52-eab507a9e851","system_id":"levelo_inurba_marseille","lat":43.311827,"lon":5.387133,"is_reserved":false,"is_disabled":false,"rental_uris":{"android":"levelo://app?vid=c997d29f-a146-490e-aa52-eab507a9e851","ios":"levelo://app?vid=c997d29f-a146-490e-aa52-eab507a9e851"},"vehicle_type_id":"4","last_reported":1717261622,"current_range_meters":0,"station_id":"ce4bgv12rcd13ifvqcp0","pricing_plan_id":"cebpf4jnsgd1na2vs0mg"},{"bike_id":"9d910108-863f-4092-ab2f-454f0186f8a5","system_id":"levelo_inurba_marseille","lat":43.311722,"lon":5.387247,"is_reserved":false,"is_disabled":false,"rental_uris":{"android":"levelo://app?vid=9d910108-863f-4092-ab2f-454f0186f8a5","ios":"levelo://app?vid=9d910108-863f-4092-ab2f-454f0186f8a5"},"vehicle_type_id":"4","last_reported":1717261622,"current_range_meters":9200,"station_id":"ce4bgv12rcd13ifvqcp0","pricing_plan_id":"cebpf4jnsgd1na2vs0mg"},{"bike_id":"10fb4334-c940-4455-979b-d3f1ca32e262","system_id":"levelo_inurba_marseille","lat":43.297774,"lon":5.370875,"is_reserved":false,"is_disabled":false,"rental_uris":{"android":"levelo://app?vid=10fb4334-c940-4455-979b-d3f1ca32e262","ios":"levelo://app?vid=10fb4334-c940-4455-979b-d3f1ca32e262"},"vehicle_type_id":"4","last_reported":1717261622,"current_range_meters":29600,"station_id":"ce4bgop2rcd13ifvqc1g","pricing_plan_id":"cebpf4jnsgd1na2vs0mg"},{"bike_id":"702b3e70-4892-4d40-b01f-cca03ab4bc38","system_id":"levelo_inurba_marseille","lat":43.297794,"lon":5.370888,"is_reserved":false,"is_disabled":false,"rental_uris":{"android":"levelo://app?vid=702b3e70-4892-4d40-b01f-cca03ab4bc38","ios":"levelo://app?vid=702b3e70-4892-4d40-b01f-cca03ab4bc38"},"vehicle_type_id":"4","last_reported":1717261622,"current_range_meters":30800,"station_id":"ce4bgop2rcd13ifvqc1g","pricing_plan_id":"cebpf4jnsgd1na2vs0mg"},{"bike_id":"a6aacc0d-4679-40b3-be56-ece011ecc10f","system_id":"levelo_inurba_marseille","lat":43.297774,"lon":5.370875,"is_reserved":false,"is_disabled":false,"rental_uris":{"android":"levelo://app?vid=a6aacc0d-4679-40b3-be56-ece011ecc10f","ios":"levelo://app?vid=a6aacc0d-4679-40b3-be56-ece011ecc10f"},"vehicle_type_id":"4","last_reported":1717261622,"current_range_meters":10000,"station_id":"ce4bgop2rcd13ifvqc1g","pricing_plan_id":"cebpf4jnsgd1na2vs0mg"},{"bike_id":"82c2637d-6b39-4faa-a521-d6c479147bf4","system_id":"levelo_inurba_marseille","lat":43.297774,"lon":5.370875,"is_reserved":false,"is_disabled":false,"rental_uris":{"android":"levelo://app?vid=82c2637d-6b39-4faa-a521-d6c479147bf4","ios":"levelo://app?vid=82c2637d-6b39-4faa-a521-d6c479147bf4"},"vehicle_type_id":"4","last_reported":1717261622,"current_range_meters":21600,"station_id":"ce4bgop2rcd13ifvqc1g","pricing_plan_id":"cebpf4jnsgd1na2vs0mg"},{"bike_id":"c8674664-0329-42f4-a28d-5fe68827d1fa","system_id":"levelo_inurba_marseille","lat":43.322872,"lon":5.382756,"is_reserved":false,"is_disabled":false,"rental_uris":{"android":"levelo://app?vid=c8674664-0329-42f4-a28d-5fe68827d1fa","ios":"levelo://app?vid=c8674664-0329-42f4-a28d-5fe68827d1fa"},"vehicle_type_id":"4","last_reported":1717261622,"current_range_meters":29600,"station_id":"ce4bhr12rcd13ifvqhqg","pricing_plan_id":"cebpf4jnsgd1na2vs0mg"},{"bike_id":"05c8a38b-5aa8-43ae-9e48-61a285a0c0ab","system_id":"levelo_inurba_marseille","lat":43.297774,"lon":5.370875,"is_reserved":false,"is_disabled":false,"rental_uris":{"android":"levelo://app?vid=05c8a38b-5aa8-43ae-9e48-61a285a0c0ab","ios":"levelo://app?vid=05c8a38b-5aa8-43ae-9e48-61a285a0c0ab"},"vehicle_type_id":"4","last_reported":1717261622,"current_range_meters":0,"station_id":"ce4bgop2rcd13ifvqc1g","pricing_plan_id":"cebpf4jnsgd1na2vs0mg"},{"bike_id":"47a44d85-94da-4cba-b158-ffd005ea6252","system_id":"levelo_inurba_marseille","lat":43.322872,"lon":5.382756,"is_reserved":false,"is_disabled":false,"rental_uris":{"android":"levelo://app?vid=47a44d85-94da-4cba-b158-ffd005ea6252","ios":"levelo://app?vid=47a44d85-94da-4cba-b158-ffd005ea6252"},"vehicle_type_id":"4","last_reported":1717261622,"current_range_meters":5200,"station_id":"ce4bhr12rcd13ifvqhqg","pricing_plan_id":"cebpf4jnsgd1na2vs0mg"},{"bike_id":"76e6eb83-1b25-4814-8ab5-24fbf614c711","system_id":"levelo_inurba_marseille","lat":43.322872,"lon":5.382756,"is_reserved":false,"is_disabled":false,"rental_uris":{"android":"levelo://app?vid=76e6eb83-1b25-4814-8ab5-24fbf614c711","ios":"levelo://app?vid=76e6eb83-1b25-4814-8ab5-24fbf614c711"},"vehicle_type_id":"4","last_reported":1717261622,"current_range_meters":5600,"station_id":"ce4bhr12rcd13ifvqhqg","pricing_plan_id":"cebpf4jnsgd1na2vs0mg"},{"bike_id":"f27e3382-c395-4c0a-a760-e9e307454899","system_id":"levelo_inurba_marseille","lat":43.322872,"lon":5.382756,"is_reserved":false,"is_disabled":false,"rental_uris":{"android":"levelo://app?vid=f27e3382-c395-4c0a-a760-e9e307454899","ios":"levelo://app?vid=f27e3382-c395-4c0a-a760-e9e307454899"},"vehicle_type_id":"4","last_reported":1717261622,"current_range_meters":20400,"station_id":"ce4bhr12rcd13ifvqhqg","pricing_plan_id":"cebpf4jnsgd1na2vs0mg"},{"bike_id":"09670e44-b8c6-4158-8f5a-77b0d5444ccc","system_id":"levelo_inurba_marseille","lat":43.322872,"lon":5.382756,"is_reserved":false,"is_disabled":false,"rental_uris":{"android":"levelo://app?vid=09670e44-b8c6-4158-8f5a-77b0d5444ccc","ios":"levelo://app?vid=09670e44-b8c6-4158-8f5a-77b0d5444ccc"},"vehicle_type_id":"4","last_reported":1717261622,"current_range_meters":21200,"station_id":"ce4bhr12rcd13ifvqhqg","pricing_plan_id":"cebpf4jnsgd1na2vs0mg"},{"bike_id":"a6850727-00b1-4dd8-bb80-3e158c4e1090","system_id":"levelo_inurba_marseille","lat":43.322872,"lon":5.382756,"is_reserved":false,"is_disabled":false,"rental_uris":{"android":"levelo://app?vid=a6850727-00b1-4dd8-bb80-3e158c4e1090","ios":"levelo://app?vid=a6850727-00b1-4dd8-bb80-3e158c4e1090"},"vehicle_type_id":"4","last_reported":1717261622,"current_range_meters":31600,"station_id":"ce4bhr12rcd13ifvqhqg","pricing_plan_id":"cebpf4jnsgd1na2vs0mg"},{"bike_id":"7a91217a-ce94-47a4-9682-27c5fd5c2e01","system_id":"levelo_inurba_marseille","lat":43.32287,"lon":5.3828,"is_reserved":false,"is_disabled":false,"rental_uris":{"android":"levelo://app?vid=7a91217a-ce94-47a4-9682-27c5fd5c2e01","ios":"levelo://app?vid=7a91217a-ce94-47a4-9682-27c5fd5c2e01"},"vehicle_type_id":"4","last_reported":1717261622,"current_range_meters":7200,"station_id":"ce4bhr12rcd13ifvqhqg","pricing_plan_id":"cebpf4jnsgd1na2vs0mg"},{"bike_id":"fd56e138-4b3e-4fdb-be64-b291dba73309","system_id":"levelo_inurba_marseille","lat":43.297163,"lon":5.365866,"is_reserved":false,"is_disabled":false,"rental_uris":{"android":"levelo://app?vid=fd56e138-4b3e-4fdb-be64-b291dba73309","ios":"levelo://app?vid=fd56e138-4b3e-4fdb-be64-b291dba73309"},"vehicle_type_id":"4","last_reported":1717261622,"current_range_meters":16000,"station_id":"ce4bgn12rcd13ifvqbt0","pricing_plan_id":"cebpf4jnsgd1na2vs0mg"},{"bike_id":"8cf347f8-94e0-4e4e-b797-56c5d4e14219","system_id":"levelo_inurba_marseille","lat":43.2968,"lon":5.37291,"is_reserved":false,"is_disabled":false,"rental_uris":{"android":"levelo://app?vid=8cf347f8-94e0-4e4e-b797-56c5d4e14219","ios":"levelo://app?vid=8cf347f8-94e0-4e4e-b797-56c5d4e14219"},"vehicle_type_id":"4","last_reported":1717261622,"current_range_meters":4800,"station_id":"ce4bgk12rcd13ifvqbj0","pricing_plan_id":"cebpf4jnsgd1na2vs0mg"},{"bike_id":"c0f89639-888c-4357-b7d7-88a2f8601708","system_id":"levelo_inurba_marseille","lat":43.29627,"lon":5.37157,"is_reserved":false,"is_disabled":false,"rental_uris":{"android":"levelo://app?vid=c0f89639-888c-4357-b7d7-88a2f8601708","ios":"levelo://app?vid=c0f89639-888c-4357-b7d7-88a2f8601708"},"vehicle_type_id":"4","last_reported":1717261622,"current_range_meters":0,"station_id":"ce4bgnh2rcd13ifvqc0g","pricing_plan_id":"cebpf4jnsgd1na2vs0mg"},{"bike_id":"95c3f46e-50ca-43a5-bd34-e9b8eadddb2b","system_id":"levelo_inurba_marseille","lat":43.296129,"lon":5.370777,"is_reserved":false,"is_disabled":false,"rental_uris":{"android":"levelo://app?vid=95c3f46e-50ca-43a5-bd34-e9b8eadddb2b","ios":"levelo://app?vid=95c3f46e-50ca-43a5-bd34-e9b8eadddb2b"},"vehicle_type_id":"4","last_reported":1717261622,"current_range_meters":10400,"station_id":"ce4bgnh2rcd13ifvqc0g","pricing_plan_id":"cebpf4jnsgd1na2vs0mg"},{"bike_id":"83c5a34a-2f91-4dc1-b0d1-86196d2a7aa7","system_id":"levelo_inurba_marseille","lat":43.299028,"lon":5.381509,"is_reserved":false,"is_disabled":false,"rental_uris":{"android":"levelo://app?vid=83c5a34a-2f91-4dc1-b0d1-86196d2a7aa7","ios":"levelo://app?vid=83c5a34a-2f91-4dc1-b0d1-86196d2a7aa7"},"vehicle_type_id":"4","last_reported":1717261622,"current_range_meters":20400,"station_id":"ce4bgj12rcd13ifvqbc0","pricing_plan_id":"cebpf4jnsgd1na2vs0mg"},{"bike_id":"a09986c0-21e9-421f-a2c1-709c9fd012ab","system_id":"levelo_inurba_marseille","lat":43.29908,"lon":5.38128,"is_reserved":false,"is_disabled":false,"rental_uris":{"android":"levelo://app?vid=a09986c0-21e9-421f-a2c1-709c9fd012ab","ios":"levelo://app?vid=a09986c0-21e9-421f-a2c1-709c9fd012ab"},"vehicle_type_id":"4","last_reported":1717261622,"current_range_meters":0,"station_id":"ce4bgi92rcd13ifvqb90","pricing_plan_id":"cebpf4jnsgd1na2vs0mg"},{"bike_id":"1a6114ba-7522-44fd-b065-fd705c8e1d45","system_id":"levelo_inurba_marseille","lat":43.309589,"lon":5.390258,"is_reserved":false,"is_disabled":false,"rental_uris":{"android":"levelo://app?vid=1a6114ba-7522-44fd-b065-fd705c8e1d45","ios":"levelo://app?vid=1a6114ba-7522-44fd-b065-fd705c8e1d45"},"vehicle_type_id":"4","last_reported":1717261622,"current_range_meters":20000,"station_id":"ce4bgup2rcd13ifvqco0","pricing_plan_id":"cebpf4jnsgd1na2vs0mg"},{"bike_id":"842e278c-39ce-40d1-b255-e2a201e641ee","system_id":"levelo_inurba_marseille","lat":43.309589,"lon":5.390258,"is_reserved":false,"is_disabled":false,"rental_uris":{"android":"levelo://app?vid=842e278c-39ce-40d1-b255-e2a201e641ee","ios":"levelo://app?vid=842e278c-39ce-40d1-b255-e2a201e641ee"},"vehicle_type_id":"4","last_reported":1717261622,"current_range_meters":22800,"station_id":"ce4bgup2rcd13ifvqco0","pricing_plan_id":"cebpf4jnsgd1na2vs0mg"},{"bike_id":"d6a6ccb6-7593-4f93-8736-7dad01b441ff","system_id":"levelo_inurba_marseille","lat":43.309589,"lon":5.390258,"is_reserved":false,"is_disabled":false,"rental_uris":{"android":"levelo://app?vid=d6a6ccb6-7593-4f93-8736-7dad01b441ff","ios":"levelo://app?vid=d6a6ccb6-7593-4f93-8736-7dad01b441ff"},"vehicle_type_id":"4","last_reported":1717261622,"current_range_meters":0,"station_id":"ce4bgup2rcd13ifvqco0","pricing_plan_id":"cebpf4jnsgd1na2vs0mg"},{"bike_id":"6975e97d-56c5-4a37-9619-ab44642690e4","system_id":"levelo_inurba_marseille","lat":43.309589,"lon":5.390258,"is_reserved":false,"is_disabled":false,"rental_uris":{"android":"levelo://app?vid=6975e97d-56c5-4a37-9619-ab44642690e4","ios":"levelo://app?vid=6975e97d-56c5-4a37-9619-ab44642690e4"},"vehicle_type_id":"4","last_reported":1717261622,"current_range_meters":13600,"station_id":"ce4bgup2rcd13ifvqco0","pricing_plan_id":"cebpf4jnsgd1na2vs0mg"},{"bike_id":"01ecb7e3-a5ec-4e9b-bee3-ac27b2b5a46b","system_id":"levelo_inurba_marseille","lat":43.309589,"lon":5.390258,"is_reserved":false,"is_disabled":false,"rental_uris":{"android":"levelo://app?vid=01ecb7e3-a5ec-4e9b-bee3-ac27b2b5a46b","ios":"levelo://app?vid=01ecb7e3-a5ec-4e9b-bee3-ac27b2b5a46b"},"vehicle_type_id":"4","last_reported":1717261622,"current_range_meters":24800,"station_id":"ce4bgup2rcd13ifvqco0","pricing_plan_id":"cebpf4jnsgd1na2vs0mg"},{"bike_id":"cf398335-98db-4940-9184-fd281101984e","system_id":"levelo_inurba_marseille","lat":43.309589,"lon":5.390357,"is_reserved":false,"is_disabled":false,"rental_uris":{"android":"levelo://app?vid=cf398335-98db-4940-9184-fd281101984e","ios":"levelo://app?vid=cf398335-98db-4940-9184-fd281101984e"},"vehicle_type_id":"4","last_reported":1717261622,"current_range_meters":0,"station_id":"ce4bgup2rcd13ifvqco0","pricing_plan_id":"cebpf4jnsgd1na2vs0mg"},{"bike_id":"f9a9d808-5a5c-48c3-95c8-8495cdc8680b","system_id":"levelo_inurba_marseille","lat":43.309589,"lon":5.390258,"is_reserved":false,"is_disabled":false,"rental_uris":{"android":"levelo://app?vid=f9a9d808-5a5c-48c3-95c8-8495cdc8680b","ios":"levelo://app?vid=f9a9d808-5a5c-48c3-95c8-8495cdc8680b"},"vehicle_type_id":"4","last_reported":1717261622,"current_range_meters":11200,"station_id":"ce4bgup2rcd13ifvqco0","pricing_plan_id":"cebpf4jnsgd1na2vs0mg"},{"bike_id":"c77ce0fd-431e-4f54-91b5-b248f50f6b6d","system_id":"levelo_inurba_marseille","lat":43.30945,"lon":5.39034,"is_reserved":false,"is_disabled":false,"rental_uris":{"android":"levelo://app?vid=c77ce0fd-431e-4f54-91b5-b248f50f6b6d","ios":"levelo://app?vid=c77ce0fd-431e-4f54-91b5-b248f50f6b6d"},"vehicle_type_id":"4","last_reported":1717261622,"current_range_meters":0,"station_id":"ce4bgup2rcd13ifvqco0","pricing_plan_id":"cebpf4jnsgd1na2vs0mg"},{"bike_id":"405516a7-5e7d-48af-b502-569991d6fc9b","system_id":"levelo_inurba_marseille","lat":43.309589,"lon":5.390258,"is_reserved":false,"is_disabled":false,"rental_uris":{"android":"levelo://app?vid=405516a7-5e7d-48af-b502-569991d6fc9b","ios":"levelo://app?vid=405516a7-5e7d-48af-b502-569991d6fc9b"},"vehicle_type_id":"4","last_reported":1717261622,"current_range_meters":4000,"station_id":"ce4bgup2rcd13ifvqco0","pricing_plan_id":"cebpf4jnsgd1na2vs0mg"},{"bike_id":"0abbd24e-5f1d-4496-a331-08c9dab518ba","system_id":"levelo_inurba_marseille","lat":43.317557,"lon":5.390173,"is_reserved":false,"is_disabled":false,"rental_uris":{"android":"levelo://app?vid=0abbd24e-5f1d-4496-a331-08c9dab518ba","ios":"levelo://app?vid=0abbd24e-5f1d-4496-a331-08c9dab518ba"},"vehicle_type_id":"4","last_reported":1717261622,"current_range_meters":6000,"station_id":"ce4bhqp2rcd13ifvqhng","pricing_plan_id":"cebpf4jnsgd1na2vs0mg"},{"bike_id":"e7aa0053-2895-474a-ac5a-49a0bfe297a4","system_id":"levelo_inurba_marseille","lat":43.317557,"lon":5.390173,"is_reserved":false,"is_disabled":false,"rental_uris":{"android":"levelo://app?vid=e7aa0053-2895-474a-ac5a-49a0bfe297a4","ios":"levelo://app?vid=e7aa0053-2895-474a-ac5a-49a0bfe297a4"},"vehicle_type_id":"4","last_reported":1717261622,"current_range_meters":23600,"station_id":"ce4bhqp2rcd13ifvqhng","pricing_plan_id":"cebpf4jnsgd1na2vs0mg"},{"bike_id":"60a7a710-e4fb-4ed8-822e-9abf96a6a722","system_id":"levelo_inurba_marseille","lat":43.31761,"lon":5.39017,"is_reserved":false,"is_disabled":false,"rental_uris":{"android":"levelo://app?vid=60a7a710-e4fb-4ed8-822e-9abf96a6a722","ios":"levelo://app?vid=60a7a710-e4fb-4ed8-822e-9abf96a6a722"},"vehicle_type_id":"4","last_reported":1717261622,"current_range_meters":0,"station_id":"ce4bhqp2rcd13ifvqhng","pricing_plan_id":"cebpf4jnsgd1na2vs0mg"},{"bike_id":"2e4235f4-beda-46e1-9d77-501f31fb0316","system_id":"levelo_inurba_marseille","lat":43.317606,"lon":5.390174,"is_reserved":false,"is_disabled":false,"rental_uris":{"android":"levelo://app?vid=2e4235f4-beda-46e1-9d77-501f31fb0316","ios":"levelo://app?vid=2e4235f4-beda-46e1-9d77-501f31fb0316"},"vehicle_type_id":"4","last_reported":1717261622,"current_range_meters":3600,"station_id":"ce4bhqp2rcd13ifvqhng","pricing_plan_id":"cebpf4jnsgd1na2vs0mg"},{"bike_id":"e7f10f42-e59a-4177-a23d-4a4ac9368854","system_id":"levelo_inurba_marseille","lat":43.298037,"lon":5.381066,"is_reserved":false,"is_disabled":false,"rental_uris":{"android":"levelo://app?vid=e7f10f42-e59a-4177-a23d-4a4ac9368854","ios":"levelo://app?vid=e7f10f42-e59a-4177-a23d-4a4ac9368854"},"vehicle_type_id":"4","last_reported":1717261622,"current_range_meters":0,"station_id":"ce4bgip2rcd13ifvqbb0","pricing_plan_id":"cebpf4jnsgd1na2vs0mg"},{"bike_id":"4a799a2d-c712-4ac6-b209-8e4ddb38f645","system_id":"levelo_inurba_marseille","lat":43.298037,"lon":5.381066,"is_reserved":false,"is_disabled":false,"rental_uris":{"android":"levelo://app?vid=4a799a2d-c712-4ac6-b209-8e4ddb38f645","ios":"levelo://app?vid=4a799a2d-c712-4ac6-b209-8e4ddb38f645"},"vehicle_type_id":"4","last_reported":1717261622,"current_range_meters":0,"station_id":"ce4bgip2rcd13ifvqbb0","pricing_plan_id":"cebpf4jnsgd1na2vs0mg"},{"bike_id":"ac870583-3525-4115-8d79-b28f07367008","system_id":"levelo_inurba_marseille","lat":43.304274,"lon":5.388873,"is_reserved":false,"is_disabled":false,"rental_uris":{"android":"levelo://app?vid=ac870583-3525-4115-8d79-b28f07367008","ios":"levelo://app?vid=ac870583-3525-4115-8d79-b28f07367008"},"vehicle_type_id":"4","last_reported":1717261622,"current_range_meters":27200,"station_id":"ce4bgk12rcd13ifvqbi0","pricing_plan_id":"cebpf4jnsgd1na2vs0mg"},{"bike_id":"4754de56-b036-4a0a-a200-2de07248bb71","system_id":"levelo_inurba_marseille","lat":43.295748,"lon":5.37522,"is_reserved":false,"is_disabled":false,"rental_uris":{"android":"levelo://app?vid=4754de56-b036-4a0a-a200-2de07248bb71","ios":"levelo://app?vid=4754de56-b036-4a0a-a200-2de07248bb71"},"vehicle_type_id":"4","last_reported":1717261622,"current_range_meters":5600,"station_id":"ce4bgh92rcd13ifvqb50","pricing_plan_id":"cebpf4jnsgd1na2vs0mg"},{"bike_id":"85cc43a3-406c-43ac-97ac-174dfe6e99f5","system_id":"levelo_inurba_marseille","lat":43.295748,"lon":5.37522,"is_reserved":false,"is_disabled":false,"rental_uris":{"android":"levelo://app?vid=85cc43a3-406c-43ac-97ac-174dfe6e99f5","ios":"levelo://app?vid=85cc43a3-406c-43ac-97ac-174dfe6e99f5"},"vehicle_type_id":"4","last_reported":1717261622,"current_range_meters":0,"station_id":"ce4bgh92rcd13ifvqb50","pricing_plan_id":"cebpf4jnsgd1na2vs0mg"},{"bike_id":"24705484-26c6-426a-990b-25d93e4007e6","system_id":"levelo_inurba_marseille","lat":43.295748,"lon":5.37522,"is_reserved":false,"is_disabled":false,"rental_uris":{"android":"levelo://app?vid=24705484-26c6-426a-990b-25d93e4007e6","ios":"levelo://app?vid=24705484-26c6-426a-990b-25d93e4007e6"},"vehicle_type_id":"4","last_reported":1717261622,"current_range_meters":26400,"station_id":"ce4bgh92rcd13ifvqb50","pricing_plan_id":"cebpf4jnsgd1na2vs0mg"},{"bike_id":"e7bba524-6411-4727-b6c1-685b16714baf","system_id":"levelo_inurba_marseille","lat":43.30418,"lon":5.38891,"is_reserved":false,"is_disabled":false,"rental_uris":{"android":"levelo://app?vid=e7bba524-6411-4727-b6c1-685b16714baf","ios":"levelo://app?vid=e7bba524-6411-4727-b6c1-685b16714baf"},"vehicle_type_id":"4","last_reported":1717261622,"current_range_meters":19200,"station_id":"ce4bgk12rcd13ifvqbi0","pricing_plan_id":"cebpf4jnsgd1na2vs0mg"},{"bike_id":"7c564ce3-6069-481b-9c1c-4cec78ba3ab9","system_id":"levelo_inurba_marseille","lat":43.299707,"lon":5.384859,"is_reserved":false,"is_disabled":false,"rental_uris":{"android":"levelo://app?vid=7c564ce3-6069-481b-9c1c-4cec78ba3ab9","ios":"levelo://app?vid=7c564ce3-6069-481b-9c1c-4cec78ba3ab9"},"vehicle_type_id":"4","last_reported":1717261622,"current_range_meters":5200,"station_id":"ce4bgj92rcd13ifvqbd0","pricing_plan_id":"cebpf4jnsgd1na2vs0mg"},{"bike_id":"5601e520-ab11-4614-898b-c5245f783142","system_id":"levelo_inurba_marseille","lat":43.295279,"lon":5.375048,"is_reserved":false,"is_disabled":false,"rental_uris":{"android":"levelo://app?vid=5601e520-ab11-4614-898b-c5245f783142","ios":"levelo://app?vid=5601e520-ab11-4614-898b-c5245f783142"},"vehicle_type_id":"4","last_reported":1717261622,"current_range_meters":2800,"station_id":"ce4bgkp2rcd13ifvqbmg","pricing_plan_id":"cebpf4jnsgd1na2vs0mg"},{"bike_id":"87aad94a-4ec6-4cfd-9459-b1b3b0e73b81","system_id":"levelo_inurba_marseille","lat":43.29969,"lon":5.38491,"is_reserved":false,"is_disabled":false,"rental_uris":{"android":"levelo://app?vid=87aad94a-4ec6-4cfd-9459-b1b3b0e73b81","ios":"levelo://app?vid=87aad94a-4ec6-4cfd-9459-b1b3b0e73b81"},"vehicle_type_id":"4","last_reported":1717261622,"current_range_meters":23200,"station_id":"ce4bgj92rcd13ifvqbd0","pricing_plan_id":"cebpf4jnsgd1na2vs0mg"},{"bike_id":"a585c545-98dc-4ea3-804f-5dc3f98f8027","system_id":"levelo_inurba_marseille","lat":43.295279,"lon":5.375048,"is_reserved":false,"is_disabled":false,"rental_uris":{"android":"levelo://app?vid=a585c545-98dc-4ea3-804f-5dc3f98f8027","ios":"levelo://app?vid=a585c545-98dc-4ea3-804f-5dc3f98f8027"},"vehicle_type_id":"4","last_reported":1717261622,"current_range_meters":22800,"station_id":"ce4bgkp2rcd13ifvqbmg","pricing_plan_id":"cebpf4jnsgd1na2vs0mg"},{"bike_id":"e72b2740-1e3a-4ccf-8a5d-de4b37841b73","system_id":"levelo_inurba_marseille","lat":43.29968,"lon":5.38499,"is_reserved":false,"is_disabled":false,"rental_uris":{"android":"levelo://app?vid=e72b2740-1e3a-4ccf-8a5d-de4b37841b73","ios":"levelo://app?vid=e72b2740-1e3a-4ccf-8a5d-de4b37841b73"},"vehicle_type_id":"4","last_reported":1717261622,"current_range_meters":31200,"station_id":"ce4bgj92rcd13ifvqbd0","pricing_plan_id":"cebpf4jnsgd1na2vs0mg"},{"bike_id":"7dee509d-dcff-467f-815d-f32f1b7e92c7","system_id":"levelo_inurba_marseille","lat":43.29965,"lon":5.38498,"is_reserved":false,"is_disabled":false,"rental_uris":{"android":"levelo://app?vid=7dee509d-dcff-467f-815d-f32f1b7e92c7","ios":"levelo://app?vid=7dee509d-dcff-467f-815d-f32f1b7e92c7"},"vehicle_type_id":"4","last_reported":1717261622,"current_range_meters":14800,"station_id":"ce4bgj92rcd13ifvqbd0","pricing_plan_id":"cebpf4jnsgd1na2vs0mg"},{"bike_id":"20d2f049-34cf-4263-be0e-4bb904ba53f0","system_id":"levelo_inurba_marseille","lat":43.29971,"lon":5.38507,"is_reserved":false,"is_disabled":false,"rental_uris":{"android":"levelo://app?vid=20d2f049-34cf-4263-be0e-4bb904ba53f0","ios":"levelo://app?vid=20d2f049-34cf-4263-be0e-4bb904ba53f0"},"vehicle_type_id":"4","last_reported":1717261622,"current_range_meters":16400,"station_id":"ce4bgj92rcd13ifvqbd0","pricing_plan_id":"cebpf4jnsgd1na2vs0mg"},{"bike_id":"0eb436ac-0bb9-4401-b5e1-1a886bbb92c3","system_id":"levelo_inurba_marseille","lat":43.29965,"lon":5.38499,"is_reserved":false,"is_disabled":false,"rental_uris":{"android":"levelo://app?vid=0eb436ac-0bb9-4401-b5e1-1a886bbb92c3","ios":"levelo://app?vid=0eb436ac-0bb9-4401-b5e1-1a886bbb92c3"},"vehicle_type_id":"4","last_reported":1717261622,"current_range_meters":800,"station_id":"ce4bgj92rcd13ifvqbd0","pricing_plan_id":"cebpf4jnsgd1na2vs0mg"},{"bike_id":"2f6f9c11-7a2f-435a-b4a5-b62bfacb2605","system_id":"levelo_inurba_marseille","lat":43.29511,"lon":5.37515,"is_reserved":false,"is_disabled":false,"rental_uris":{"android":"levelo://app?vid=2f6f9c11-7a2f-435a-b4a5-b62bfacb2605","ios":"levelo://app?vid=2f6f9c11-7a2f-435a-b4a5-b62bfacb2605"},"vehicle_type_id":"4","last_reported":1717261622,"current_range_meters":28400,"station_id":"ce4bgkp2rcd13ifvqbmg","pricing_plan_id":"cebpf4jnsgd1na2vs0mg"},{"bike_id":"03b73267-37e1-4774-8058-364806518ed7","system_id":"levelo_inurba_marseille","lat":43.26949,"lon":5.40262,"is_reserved":false,"is_disabled":false,"rental_uris":{"android":"levelo://app?vid=03b73267-37e1-4774-8058-364806518ed7","ios":"levelo://app?vid=03b73267-37e1-4774-8058-364806518ed7"},"vehicle_type_id":"4","last_reported":1717261622,"current_range_meters":16800,"station_id":"cjm6bp8fraef2m0cb0m0","pricing_plan_id":"cebpf4jnsgd1na2vs0mg"},{"bike_id":"ac7fae4e-e455-4561-ab4e-5cd6ceed1a1d","system_id":"levelo_inurba_marseille","lat":43.29601,"lon":5.381084,"is_reserved":false,"is_disabled":false,"rental_uris":{"android":"levelo://app?vid=ac7fae4e-e455-4561-ab4e-5cd6ceed1a1d","ios":"levelo://app?vid=ac7fae4e-e455-4561-ab4e-5cd6ceed1a1d"},"vehicle_type_id":"4","last_reported":1717261622,"current_range_meters":12400,"station_id":"ce4bgl12rcd13ifvqbo0","pricing_plan_id":"cebpf4jnsgd1na2vs0mg"},{"bike_id":"247a7553-5d2b-4e30-a4c7-2d62442cee3d","system_id":"levelo_inurba_marseille","lat":43.292802,"lon":5.368457,"is_reserved":false,"is_disabled":false,"rental_uris":{"android":"levelo://app?vid=247a7553-5d2b-4e30-a4c7-2d62442cee3d","ios":"levelo://app?vid=247a7553-5d2b-4e30-a4c7-2d62442cee3d"},"vehicle_type_id":"4","last_reported":1717261622,"current_range_meters":14000,"station_id":"ce4bhbp2rcd13ifvqesg","pricing_plan_id":"cebpf4jnsgd1na2vs0mg"},{"bike_id":"d1ad200a-839e-4553-bd89-d640419609c7","system_id":"levelo_inurba_marseille","lat":43.292749,"lon":5.368402,"is_reserved":false,"is_disabled":false,"rental_uris":{"android":"levelo://app?vid=d1ad200a-839e-4553-bd89-d640419609c7","ios":"levelo://app?vid=d1ad200a-839e-4553-bd89-d640419609c7"},"vehicle_type_id":"4","last_reported":1717261622,"current_range_meters":17600,"station_id":"ce4bhbp2rcd13ifvqesg","pricing_plan_id":"cebpf4jnsgd1na2vs0mg"},{"bike_id":"9af36bec-7554-4e5d-bc51-e2bf79e585fe","system_id":"levelo_inurba_marseille","lat":43.29275,"lon":5.36845,"is_reserved":false,"is_disabled":false,"rental_uris":{"android":"levelo://app?vid=9af36bec-7554-4e5d-bc51-e2bf79e585fe","ios":"levelo://app?vid=9af36bec-7554-4e5d-bc51-e2bf79e585fe"},"vehicle_type_id":"4","last_reported":1717261622,"current_range_meters":17200,"station_id":"ce4bhbp2rcd13ifvqesg","pricing_plan_id":"cebpf4jnsgd1na2vs0mg"},{"bike_id":"add736cf-c46d-42a4-8fe3-b32937c53fff","system_id":"levelo_inurba_marseille","lat":43.292737,"lon":5.36843,"is_reserved":false,"is_disabled":false,"rental_uris":{"android":"levelo://app?vid=add736cf-c46d-42a4-8fe3-b32937c53fff","ios":"levelo://app?vid=add736cf-c46d-42a4-8fe3-b32937c53fff"},"vehicle_type_id":"4","last_reported":1717261622,"current_range_meters":0,"station_id":"ce4bhbp2rcd13ifvqesg","pricing_plan_id":"cebpf4jnsgd1na2vs0mg"},{"bike_id":"58c898d9-4a38-4a57-82c5-26b9485fde06","system_id":"levelo_inurba_marseille","lat":43.2927,"lon":5.36838,"is_reserved":false,"is_disabled":false,"rental_uris":{"android":"levelo://app?vid=58c898d9-4a38-4a57-82c5-26b9485fde06","ios":"levelo://app?vid=58c898d9-4a38-4a57-82c5-26b9485fde06"},"vehicle_type_id":"4","last_reported":1717261622,"current_range_meters":0,"station_id":"ce4bhbp2rcd13ifvqesg","pricing_plan_id":"cebpf4jnsgd1na2vs0mg"},{"bike_id":"1a1e812d-3857-495e-90d7-f88eb53cccd1","system_id":"levelo_inurba_marseille","lat":43.292749,"lon":5.368402,"is_reserved":false,"is_disabled":false,"rental_uris":{"android":"levelo://app?vid=1a1e812d-3857-495e-90d7-f88eb53cccd1","ios":"levelo://app?vid=1a1e812d-3857-495e-90d7-f88eb53cccd1"},"vehicle_type_id":"4","last_reported":1717261622,"current_range_meters":13200,"station_id":"ce4bhbp2rcd13ifvqesg","pricing_plan_id":"cebpf4jnsgd1na2vs0mg"},{"bike_id":"63206fff-b55e-4906-9079-f9fb0b1fd514","system_id":"levelo_inurba_marseille","lat":43.293178,"lon":5.374562,"is_reserved":false,"is_disabled":false,"rental_uris":{"android":"levelo://app?vid=63206fff-b55e-4906-9079-f9fb0b1fd514","ios":"levelo://app?vid=63206fff-b55e-4906-9079-f9fb0b1fd514"},"vehicle_type_id":"4","last_reported":1717261622,"current_range_meters":0,"station_id":"ce4bgi12rcd13ifvqb70","pricing_plan_id":"cebpf4jnsgd1na2vs0mg"},{"bike_id":"98f9cddc-4793-4152-bafe-3f9ecc4aea18","system_id":"levelo_inurba_marseille","lat":43.305994,"lon":5.393687,"is_reserved":false,"is_disabled":false,"rental_uris":{"android":"levelo://app?vid=98f9cddc-4793-4152-bafe-3f9ecc4aea18","ios":"levelo://app?vid=98f9cddc-4793-4152-bafe-3f9ecc4aea18"},"vehicle_type_id":"4","last_reported":1717261622,"current_range_meters":21200,"station_id":"ce4bh0p2rcd13ifvqd80","pricing_plan_id":"cebpf4jnsgd1na2vs0mg"},{"bike_id":"e54852d8-68ee-4f25-b2ce-5654d543f656","system_id":"levelo_inurba_marseille","lat":43.29301,"lon":5.37461,"is_reserved":false,"is_disabled":false,"rental_uris":{"android":"levelo://app?vid=e54852d8-68ee-4f25-b2ce-5654d543f656","ios":"levelo://app?vid=e54852d8-68ee-4f25-b2ce-5654d543f656"},"vehicle_type_id":"4","last_reported":1717261622,"current_range_meters":9200,"station_id":"","pricing_plan_id":"cebpf4jnsgd1na2vs0mg"},{"bike_id":"1dd58914-fb1a-47a8-ac75-611ce17550ce","system_id":"levelo_inurba_marseille","lat":43.305994,"lon":5.393687,"is_reserved":false,"is_disabled":false,"rental_uris":{"android":"levelo://app?vid=1dd58914-fb1a-47a8-ac75-611ce17550ce","ios":"levelo://app?vid=1dd58914-fb1a-47a8-ac75-611ce17550ce"},"vehicle_type_id":"4","last_reported":1717261622,"current_range_meters":10000,"station_id":"ce4bh0p2rcd13ifvqd80","pricing_plan_id":"cebpf4jnsgd1na2vs0mg"},{"bike_id":"9c278860-7f22-4a26-b6c0-b1ec48dc757c","system_id":"levelo_inurba_marseille","lat":43.305994,"lon":5.393687,"is_reserved":false,"is_disabled":false,"rental_uris":{"android":"levelo://app?vid=9c278860-7f22-4a26-b6c0-b1ec48dc757c","ios":"levelo://app?vid=9c278860-7f22-4a26-b6c0-b1ec48dc757c"},"vehicle_type_id":"4","last_reported":1717261622,"current_range_meters":30400,"station_id":"ce4bh0p2rcd13ifvqd80","pricing_plan_id":"cebpf4jnsgd1na2vs0mg"},{"bike_id":"d54a24ee-4338-4bc7-a19f-23ea0cf137a8","system_id":"levelo_inurba_marseille","lat":43.29529,"lon":5.385581,"is_reserved":false,"is_disabled":false,"rental_uris":{"android":"levelo://app?vid=d54a24ee-4338-4bc7-a19f-23ea0cf137a8","ios":"levelo://app?vid=d54a24ee-4338-4bc7-a19f-23ea0cf137a8"},"vehicle_type_id":"4","last_reported":1717261622,"current_range_meters":20400,"station_id":"ce4bgih2rcd13ifvqba0","pricing_plan_id":"cebpf4jnsgd1na2vs0mg"},{"bike_id":"49672aa5-97ca-445a-baff-29c9abbe64a8","system_id":"levelo_inurba_marseille","lat":43.303002,"lon":5.392142,"is_reserved":false,"is_disabled":false,"rental_uris":{"android":"levelo://app?vid=49672aa5-97ca-445a-baff-29c9abbe64a8","ios":"levelo://app?vid=49672aa5-97ca-445a-baff-29c9abbe64a8"},"vehicle_type_id":"4","last_reported":1717261622,"current_range_meters":18000,"station_id":"ce4bgkh2rcd13ifvqbk0","pricing_plan_id":"cebpf4jnsgd1na2vs0mg"},{"bike_id":"1cf8c5be-9998-4d2e-bd78-9f246aa05482","system_id":"levelo_inurba_marseille","lat":43.302992,"lon":5.392136,"is_reserved":false,"is_disabled":false,"rental_uris":{"android":"levelo://app?vid=1cf8c5be-9998-4d2e-bd78-9f246aa05482","ios":"levelo://app?vid=1cf8c5be-9998-4d2e-bd78-9f246aa05482"},"vehicle_type_id":"4","last_reported":1717261622,"current_range_meters":0,"station_id":"ce4bgkh2rcd13ifvqbk0","pricing_plan_id":"cebpf4jnsgd1na2vs0mg"},{"bike_id":"7d422fe2-58b8-4ac6-91af-147bd3713cfd","system_id":"levelo_inurba_marseille","lat":43.2936,"lon":5.37835,"is_reserved":false,"is_disabled":false,"rental_uris":{"android":"levelo://app?vid=7d422fe2-58b8-4ac6-91af-147bd3713cfd","ios":"levelo://app?vid=7d422fe2-58b8-4ac6-91af-147bd3713cfd"},"vehicle_type_id":"4","last_reported":1717261622,"current_range_meters":13200,"station_id":"ce4bgjh2rcd13ifvqbf0","pricing_plan_id":"cebpf4jnsgd1na2vs0mg"},{"bike_id":"0ecdbd29-8570-495e-b5d3-b57e5b211f20","system_id":"levelo_inurba_marseille","lat":43.292311,"lon":5.360731,"is_reserved":false,"is_disabled":false,"rental_uris":{"android":"levelo://app?vid=0ecdbd29-8570-495e-b5d3-b57e5b211f20","ios":"levelo://app?vid=0ecdbd29-8570-495e-b5d3-b57e5b211f20"},"vehicle_type_id":"4","last_reported":1717261622,"current_range_meters":1600,"station_id":"ce4bhbh2rcd13ifvqeqg","pricing_plan_id":"cebpf4jnsgd1na2vs0mg"},{"bike_id":"13d5487d-8f60-4b3a-82ec-f73de224570f","system_id":"levelo_inurba_marseille","lat":43.30296,"lon":5.39219,"is_reserved":false,"is_disabled":false,"rental_uris":{"android":"levelo://app?vid=13d5487d-8f60-4b3a-82ec-f73de224570f","ios":"levelo://app?vid=13d5487d-8f60-4b3a-82ec-f73de224570f"},"vehicle_type_id":"4","last_reported":1717261622,"current_range_meters":3600,"station_id":"ce4bgkh2rcd13ifvqbk0","pricing_plan_id":"cebpf4jnsgd1na2vs0mg"},{"bike_id":"dd2784b4-0c83-4fef-9609-055ccc320325","system_id":"levelo_inurba_marseille","lat":43.2936,"lon":5.37835,"is_reserved":false,"is_disabled":false,"rental_uris":{"android":"levelo://app?vid=dd2784b4-0c83-4fef-9609-055ccc320325","ios":"levelo://app?vid=dd2784b4-0c83-4fef-9609-055ccc320325"},"vehicle_type_id":"4","last_reported":1717261622,"current_range_meters":4000,"station_id":"ce4bgjh2rcd13ifvqbf0","pricing_plan_id":"cebpf4jnsgd1na2vs0mg"},{"bike_id":"7bb2df72-bbfb-453f-8382-10714f68c532","system_id":"levelo_inurba_marseille","lat":43.29366,"lon":5.3785,"is_reserved":false,"is_disabled":false,"rental_uris":{"android":"levelo://app?vid=7bb2df72-bbfb-453f-8382-10714f68c532","ios":"levelo://app?vid=7bb2df72-bbfb-453f-8382-10714f68c532"},"vehicle_type_id":"4","last_reported":1717261622,"current_range_meters":19200,"station_id":"","pricing_plan_id":"cebpf4jnsgd1na2vs0mg"},{"bike_id":"88134134-8080-40ed-bf2d-9c0409c2e40d","system_id":"levelo_inurba_marseille","lat":43.2936,"lon":5.37835,"is_reserved":false,"is_disabled":false,"rental_uris":{"android":"levelo://app?vid=88134134-8080-40ed-bf2d-9c0409c2e40d","ios":"levelo://app?vid=88134134-8080-40ed-bf2d-9c0409c2e40d"},"vehicle_type_id":"4","last_reported":1717261622,"current_range_meters":12800,"station_id":"ce4bgjh2rcd13ifvqbf0","pricing_plan_id":"cebpf4jnsgd1na2vs0mg"},{"bike_id":"d14d1f13-a06c-41b0-8491-7cfb9e876a73","system_id":"levelo_inurba_marseille","lat":43.2936,"lon":5.37835,"is_reserved":false,"is_disabled":false,"rental_uris":{"android":"levelo://app?vid=d14d1f13-a06c-41b0-8491-7cfb9e876a73","ios":"levelo://app?vid=d14d1f13-a06c-41b0-8491-7cfb9e876a73"},"vehicle_type_id":"4","last_reported":1717261622,"current_range_meters":21600,"station_id":"ce4bgjh2rcd13ifvqbf0","pricing_plan_id":"cebpf4jnsgd1na2vs0mg"},{"bike_id":"9f96ed2b-0c1f-400a-9058-a6ca65cdcfd8","system_id":"levelo_inurba_marseille","lat":43.265714,"lon":5.372891,"is_reserved":false,"is_disabled":false,"rental_uris":{"android":"levelo://app?vid=9f96ed2b-0c1f-400a-9058-a6ca65cdcfd8","ios":"levelo://app?vid=9f96ed2b-0c1f-400a-9058-a6ca65cdcfd8"},"vehicle_type_id":"4","last_reported":1717261622,"current_range_meters":20400,"station_id":"ce4bhg12rcd13ifvqf70","pricing_plan_id":"cebpf4jnsgd1na2vs0mg"},{"bike_id":"738cfd89-641e-4312-ad0d-e3a373b6a03a","system_id":"levelo_inurba_marseille","lat":43.292311,"lon":5.360731,"is_reserved":false,"is_disabled":false,"rental_uris":{"android":"levelo://app?vid=738cfd89-641e-4312-ad0d-e3a373b6a03a","ios":"levelo://app?vid=738cfd89-641e-4312-ad0d-e3a373b6a03a"},"vehicle_type_id":"4","last_reported":1717261622,"current_range_meters":18000,"station_id":"ce4bhbh2rcd13ifvqeqg","pricing_plan_id":"cebpf4jnsgd1na2vs0mg"},{"bike_id":"fc62dbd4-f391-4240-81df-5b5448b30422","system_id":"levelo_inurba_marseille","lat":43.298764,"lon":5.388973,"is_reserved":false,"is_disabled":false,"rental_uris":{"android":"levelo://app?vid=fc62dbd4-f391-4240-81df-5b5448b30422","ios":"levelo://app?vid=fc62dbd4-f391-4240-81df-5b5448b30422"},"vehicle_type_id":"4","last_reported":1717261622,"current_range_meters":0,"station_id":"ce4bh392rcd13ifvqdl0","pricing_plan_id":"cebpf4jnsgd1na2vs0mg"},{"bike_id":"8c0ab935-809b-417a-908d-d7742c80b00b","system_id":"levelo_inurba_marseille","lat":43.298764,"lon":5.388973,"is_reserved":false,"is_disabled":false,"rental_uris":{"android":"levelo://app?vid=8c0ab935-809b-417a-908d-d7742c80b00b","ios":"levelo://app?vid=8c0ab935-809b-417a-908d-d7742c80b00b"},"vehicle_type_id":"4","last_reported":1717261622,"current_range_meters":16400,"station_id":"ce4bh392rcd13ifvqdl0","pricing_plan_id":"cebpf4jnsgd1na2vs0mg"},{"bike_id":"034779cb-f8b1-4251-8356-6d1c64cfa59b","system_id":"levelo_inurba_marseille","lat":43.298764,"lon":5.388973,"is_reserved":false,"is_disabled":false,"rental_uris":{"android":"levelo://app?vid=034779cb-f8b1-4251-8356-6d1c64cfa59b","ios":"levelo://app?vid=034779cb-f8b1-4251-8356-6d1c64cfa59b"},"vehicle_type_id":"4","last_reported":1717261622,"current_range_meters":22000,"station_id":"ce4bh392rcd13ifvqdl0","pricing_plan_id":"cebpf4jnsgd1na2vs0mg"},{"bike_id":"2525ca45-1325-4c30-8ba6-ecb74b20558b","system_id":"levelo_inurba_marseille","lat":43.291675,"lon":5.371583,"is_reserved":false,"is_disabled":false,"rental_uris":{"android":"levelo://app?vid=2525ca45-1325-4c30-8ba6-ecb74b20558b","ios":"levelo://app?vid=2525ca45-1325-4c30-8ba6-ecb74b20558b"},"vehicle_type_id":"4","last_reported":1717261622,"current_range_meters":0,"station_id":"ce4bha92rcd13ifvqeh0","pricing_plan_id":"cebpf4jnsgd1na2vs0mg"},{"bike_id":"721c2890-0bb7-40b5-87bd-b006c0ccb700","system_id":"levelo_inurba_marseille","lat":43.29468,"lon":5.38299,"is_reserved":false,"is_disabled":false,"rental_uris":{"android":"levelo://app?vid=721c2890-0bb7-40b5-87bd-b006c0ccb700","ios":"levelo://app?vid=721c2890-0bb7-40b5-87bd-b006c0ccb700"},"vehicle_type_id":"4","last_reported":1717261622,"current_range_meters":0,"station_id":"","pricing_plan_id":"cebpf4jnsgd1na2vs0mg"},{"bike_id":"d99f6b93-ecbe-449c-8cd6-8e165b8626f4","system_id":"levelo_inurba_marseille","lat":43.309047,"lon":5.396551,"is_reserved":false,"is_disabled":false,"rental_uris":{"android":"levelo://app?vid=d99f6b93-ecbe-449c-8cd6-8e165b8626f4","ios":"levelo://app?vid=d99f6b93-ecbe-449c-8cd6-8e165b8626f4"},"vehicle_type_id":"4","last_reported":1717261622,"current_range_meters":16800,"station_id":"ce4bh012rcd13ifvqcv0","pricing_plan_id":"cebpf4jnsgd1na2vs0mg"},{"bike_id":"4f6454a0-6b81-468b-9616-95293b68ad73","system_id":"levelo_inurba_marseille","lat":43.291987,"lon":5.357783,"is_reserved":false,"is_disabled":false,"rental_uris":{"android":"levelo://app?vid=4f6454a0-6b81-468b-9616-95293b68ad73","ios":"levelo://app?vid=4f6454a0-6b81-468b-9616-95293b68ad73"},"vehicle_type_id":"4","last_reported":1717261622,"current_range_meters":4400,"station_id":"ce4bhb12rcd13ifvqel0","pricing_plan_id":"cebpf4jnsgd1na2vs0mg"},{"bike_id":"f081ec42-c0da-43a5-a52e-6e07007cc7a8","system_id":"levelo_inurba_marseille","lat":43.291994,"lon":5.357886,"is_reserved":false,"is_disabled":false,"rental_uris":{"android":"levelo://app?vid=f081ec42-c0da-43a5-a52e-6e07007cc7a8","ios":"levelo://app?vid=f081ec42-c0da-43a5-a52e-6e07007cc7a8"},"vehicle_type_id":"4","last_reported":1717261622,"current_range_meters":2800,"station_id":"ce4bhb12rcd13ifvqel0","pricing_plan_id":"cebpf4jnsgd1na2vs0mg"},{"bike_id":"0eb4ce7d-c752-4efd-bb7d-d563c85182f1","system_id":"levelo_inurba_marseille","lat":43.309038,"lon":5.396546,"is_reserved":false,"is_disabled":false,"rental_uris":{"android":"levelo://app?vid=0eb4ce7d-c752-4efd-bb7d-d563c85182f1","ios":"levelo://app?vid=0eb4ce7d-c752-4efd-bb7d-d563c85182f1"},"vehicle_type_id":"4","last_reported":1717261622,"current_range_meters":18800,"station_id":"ce4bh012rcd13ifvqcv0","pricing_plan_id":"cebpf4jnsgd1na2vs0mg"},{"bike_id":"4d3c82a3-c6c6-4d5c-a61a-301f82f9bcdc","system_id":"levelo_inurba_marseille","lat":43.313291,"lon":5.396838,"is_reserved":false,"is_disabled":false,"rental_uris":{"android":"levelo://app?vid=4d3c82a3-c6c6-4d5c-a61a-301f82f9bcdc","ios":"levelo://app?vid=4d3c82a3-c6c6-4d5c-a61a-301f82f9bcdc"},"vehicle_type_id":"4","last_reported":1717261622,"current_range_meters":28800,"station_id":"ce4bgvp2rcd13ifvqcu0","pricing_plan_id":"cebpf4jnsgd1na2vs0mg"},{"bike_id":"38b6a483-4f5f-408b-a3db-743b923321db","system_id":"levelo_inurba_marseille","lat":43.309047,"lon":5.396551,"is_reserved":false,"is_disabled":false,"rental_uris":{"android":"levelo://app?vid=38b6a483-4f5f-408b-a3db-743b923321db","ios":"levelo://app?vid=38b6a483-4f5f-408b-a3db-743b923321db"},"vehicle_type_id":"4","last_reported":1717261622,"current_range_meters":10400,"station_id":"ce4bh012rcd13ifvqcv0","pricing_plan_id":"cebpf4jnsgd1na2vs0mg"},{"bike_id":"77e3311e-08b5-466d-b5f6-f6a312b6fc50","system_id":"levelo_inurba_marseille","lat":43.309038,"lon":5.396546,"is_reserved":false,"is_disabled":false,"rental_uris":{"android":"levelo://app?vid=77e3311e-08b5-466d-b5f6-f6a312b6fc50","ios":"levelo://app?vid=77e3311e-08b5-466d-b5f6-f6a312b6fc50"},"vehicle_type_id":"4","last_reported":1717261622,"current_range_meters":17200,"station_id":"ce4bh012rcd13ifvqcv0","pricing_plan_id":"cebpf4jnsgd1na2vs0mg"},{"bike_id":"a8de3ef1-ee2e-419b-9c74-95aa142980e1","system_id":"levelo_inurba_marseille","lat":43.308853,"lon":5.39659,"is_reserved":false,"is_disabled":false,"rental_uris":{"android":"levelo://app?vid=a8de3ef1-ee2e-419b-9c74-95aa142980e1","ios":"levelo://app?vid=a8de3ef1-ee2e-419b-9c74-95aa142980e1"},"vehicle_type_id":"4","last_reported":1717261622,"current_range_meters":0,"station_id":"ce4bh012rcd13ifvqcv0","pricing_plan_id":"cebpf4jnsgd1na2vs0mg"},{"bike_id":"ef6337cd-879b-4b08-a473-c8b46ed2dac1","system_id":"levelo_inurba_marseille","lat":43.309047,"lon":5.396551,"is_reserved":false,"is_disabled":false,"rental_uris":{"android":"levelo://app?vid=ef6337cd-879b-4b08-a473-c8b46ed2dac1","ios":"levelo://app?vid=ef6337cd-879b-4b08-a473-c8b46ed2dac1"},"vehicle_type_id":"4","last_reported":1717261622,"current_range_meters":16400,"station_id":"ce4bh012rcd13ifvqcv0","pricing_plan_id":"cebpf4jnsgd1na2vs0mg"},{"bike_id":"3affbe83-0931-4219-9bc4-2650ea6cd6e2","system_id":"levelo_inurba_marseille","lat":43.29529,"lon":5.385581,"is_reserved":false,"is_disabled":false,"rental_uris":{"android":"levelo://app?vid=3affbe83-0931-4219-9bc4-2650ea6cd6e2","ios":"levelo://app?vid=3affbe83-0931-4219-9bc4-2650ea6cd6e2"},"vehicle_type_id":"4","last_reported":1717261622,"current_range_meters":1200,"station_id":"ce4bgih2rcd13ifvqba0","pricing_plan_id":"cebpf4jnsgd1na2vs0mg"},{"bike_id":"57dde177-0563-40b2-8e51-d666325b9acc","system_id":"levelo_inurba_marseille","lat":43.29529,"lon":5.385581,"is_reserved":false,"is_disabled":false,"rental_uris":{"android":"levelo://app?vid=57dde177-0563-40b2-8e51-d666325b9acc","ios":"levelo://app?vid=57dde177-0563-40b2-8e51-d666325b9acc"},"vehicle_type_id":"4","last_reported":1717261622,"current_range_meters":26400,"station_id":"ce4bgih2rcd13ifvqba0","pricing_plan_id":"cebpf4jnsgd1na2vs0mg"},{"bike_id":"32833c35-27ed-4136-bcea-babef9d28ee1","system_id":"levelo_inurba_marseille","lat":43.29529,"lon":5.385581,"is_reserved":false,"is_disabled":false,"rental_uris":{"android":"levelo://app?vid=32833c35-27ed-4136-bcea-babef9d28ee1","ios":"levelo://app?vid=32833c35-27ed-4136-bcea-babef9d28ee1"},"vehicle_type_id":"4","last_reported":1717261622,"current_range_meters":2000,"station_id":"ce4bgih2rcd13ifvqba0","pricing_plan_id":"cebpf4jnsgd1na2vs0mg"},{"bike_id":"70249c62-4757-478d-8245-305e041da3a3","system_id":"levelo_inurba_marseille","lat":43.29529,"lon":5.385581,"is_reserved":false,"is_disabled":false,"rental_uris":{"android":"levelo://app?vid=70249c62-4757-478d-8245-305e041da3a3","ios":"levelo://app?vid=70249c62-4757-478d-8245-305e041da3a3"},"vehicle_type_id":"4","last_reported":1717261622,"current_range_meters":4400,"station_id":"ce4bgih2rcd13ifvqba0","pricing_plan_id":"cebpf4jnsgd1na2vs0mg"},{"bike_id":"76121187-d3bb-47c2-a3ee-0946df8866ec","system_id":"levelo_inurba_marseille","lat":43.29529,"lon":5.385581,"is_reserved":false,"is_disabled":false,"rental_uris":{"android":"levelo://app?vid=76121187-d3bb-47c2-a3ee-0946df8866ec","ios":"levelo://app?vid=76121187-d3bb-47c2-a3ee-0946df8866ec"},"vehicle_type_id":"4","last_reported":1717261622,"current_range_meters":17200,"station_id":"ce4bgih2rcd13ifvqba0","pricing_plan_id":"cebpf4jnsgd1na2vs0mg"},{"bike_id":"f3f098aa-8dfb-4246-b348-619dd87535a1","system_id":"levelo_inurba_marseille","lat":43.29529,"lon":5.385581,"is_reserved":false,"is_disabled":false,"rental_uris":{"android":"levelo://app?vid=f3f098aa-8dfb-4246-b348-619dd87535a1","ios":"levelo://app?vid=f3f098aa-8dfb-4246-b348-619dd87535a1"},"vehicle_type_id":"4","last_reported":1717261622,"current_range_meters":0,"station_id":"ce4bgih2rcd13ifvqba0","pricing_plan_id":"cebpf4jnsgd1na2vs0mg"},{"bike_id":"b0633b8c-3685-406e-a1c8-3d61372b9b90","system_id":"levelo_inurba_marseille","lat":43.290779,"lon":5.371482,"is_reserved":false,"is_disabled":false,"rental_uris":{"android":"levelo://app?vid=b0633b8c-3685-406e-a1c8-3d61372b9b90","ios":"levelo://app?vid=b0633b8c-3685-406e-a1c8-3d61372b9b90"},"vehicle_type_id":"4","last_reported":1717261622,"current_range_meters":2000,"station_id":"ce4bh5p2rcd13ifvqe4g","pricing_plan_id":"cebpf4jnsgd1na2vs0mg"},{"bike_id":"ae7629a5-bf32-4ed7-8bc7-f971bdf490a5","system_id":"levelo_inurba_marseille","lat":43.290747,"lon":5.371717,"is_reserved":false,"is_disabled":false,"rental_uris":{"android":"levelo://app?vid=ae7629a5-bf32-4ed7-8bc7-f971bdf490a5","ios":"levelo://app?vid=ae7629a5-bf32-4ed7-8bc7-f971bdf490a5"},"vehicle_type_id":"4","last_reported":1717261622,"current_range_meters":0,"station_id":"ce4bh5p2rcd13ifvqe4g","pricing_plan_id":"cebpf4jnsgd1na2vs0mg"},{"bike_id":"3f738f46-5c13-4645-9858-425c8f8f329d","system_id":"levelo_inurba_marseille","lat":43.290779,"lon":5.371482,"is_reserved":false,"is_disabled":false,"rental_uris":{"android":"levelo://app?vid=3f738f46-5c13-4645-9858-425c8f8f329d","ios":"levelo://app?vid=3f738f46-5c13-4645-9858-425c8f8f329d"},"vehicle_type_id":"4","last_reported":1717261622,"current_range_meters":28000,"station_id":"ce4bh5p2rcd13ifvqe4g","pricing_plan_id":"cebpf4jnsgd1na2vs0mg"},{"bike_id":"f818f899-5f2f-40be-823a-40dacd864d9a","system_id":"levelo_inurba_marseille","lat":43.29529,"lon":5.385581,"is_reserved":false,"is_disabled":false,"rental_uris":{"android":"levelo://app?vid=f818f899-5f2f-40be-823a-40dacd864d9a","ios":"levelo://app?vid=f818f899-5f2f-40be-823a-40dacd864d9a"},"vehicle_type_id":"4","last_reported":1717261622,"current_range_meters":13600,"station_id":"ce4bgih2rcd13ifvqba0","pricing_plan_id":"cebpf4jnsgd1na2vs0mg"},{"bike_id":"3f09ebb4-0e1c-4c64-9b4b-67b2782cd054","system_id":"levelo_inurba_marseille","lat":43.290631,"lon":5.359244,"is_reserved":false,"is_disabled":false,"rental_uris":{"android":"levelo://app?vid=3f09ebb4-0e1c-4c64-9b4b-67b2782cd054","ios":"levelo://app?vid=3f09ebb4-0e1c-4c64-9b4b-67b2782cd054"},"vehicle_type_id":"4","last_reported":1717261622,"current_range_meters":11600,"station_id":"ce4bha92rcd13ifvqeg0","pricing_plan_id":"cebpf4jnsgd1na2vs0mg"},{"bike_id":"c6588ec2-b3df-490d-ba02-e703d5762c8e","system_id":"levelo_inurba_marseille","lat":43.29039,"lon":5.37561,"is_reserved":false,"is_disabled":false,"rental_uris":{"android":"levelo://app?vid=c6588ec2-b3df-490d-ba02-e703d5762c8e","ios":"levelo://app?vid=c6588ec2-b3df-490d-ba02-e703d5762c8e"},"vehicle_type_id":"4","last_reported":1717261622,"current_range_meters":0,"station_id":"ce4bh692rcd13ifvqe90","pricing_plan_id":"cebpf4jnsgd1na2vs0mg"},{"bike_id":"7cb629b7-b0de-483e-9a29-f0f2c6e9e4c6","system_id":"levelo_inurba_marseille","lat":43.29422,"lon":5.38624,"is_reserved":false,"is_disabled":false,"rental_uris":{"android":"levelo://app?vid=7cb629b7-b0de-483e-9a29-f0f2c6e9e4c6","ios":"levelo://app?vid=7cb629b7-b0de-483e-9a29-f0f2c6e9e4c6"},"vehicle_type_id":"4","last_reported":1717261622,"current_range_meters":0,"station_id":"ce4bh2h2rcd13ifvqdh0","pricing_plan_id":"cebpf4jnsgd1na2vs0mg"},{"bike_id":"2184af04-9779-49cc-917c-4e1210f850fb","system_id":"levelo_inurba_marseille","lat":43.29422,"lon":5.38627,"is_reserved":false,"is_disabled":false,"rental_uris":{"android":"levelo://app?vid=2184af04-9779-49cc-917c-4e1210f850fb","ios":"levelo://app?vid=2184af04-9779-49cc-917c-4e1210f850fb"},"vehicle_type_id":"4","last_reported":1717261622,"current_range_meters":1200,"station_id":"ce4bh2h2rcd13ifvqdh0","pricing_plan_id":"cebpf4jnsgd1na2vs0mg"},{"bike_id":"c99df48c-7e75-4c90-b3d5-7c038e01476c","system_id":"levelo_inurba_marseille","lat":43.29419,"lon":5.38623,"is_reserved":false,"is_disabled":false,"rental_uris":{"android":"levelo://app?vid=c99df48c-7e75-4c90-b3d5-7c038e01476c","ios":"levelo://app?vid=c99df48c-7e75-4c90-b3d5-7c038e01476c"},"vehicle_type_id":"4","last_reported":1717261622,"current_range_meters":30000,"station_id":"ce4bh2h2rcd13ifvqdh0","pricing_plan_id":"cebpf4jnsgd1na2vs0mg"},{"bike_id":"381e1130-4b8c-43a0-b26b-ecd24a9e3ccf","system_id":"levelo_inurba_marseille","lat":43.294162,"lon":5.386292,"is_reserved":false,"is_disabled":false,"rental_uris":{"android":"levelo://app?vid=381e1130-4b8c-43a0-b26b-ecd24a9e3ccf","ios":"levelo://app?vid=381e1130-4b8c-43a0-b26b-ecd24a9e3ccf"},"vehicle_type_id":"4","last_reported":1717261622,"current_range_meters":0,"station_id":"ce4bh2h2rcd13ifvqdh0","pricing_plan_id":"cebpf4jnsgd1na2vs0mg"},{"bike_id":"875d06df-6b7a-4c88-ac37-82b45a501ab6","system_id":"levelo_inurba_marseille","lat":43.29417,"lon":5.38625,"is_reserved":false,"is_disabled":false,"rental_uris":{"android":"levelo://app?vid=875d06df-6b7a-4c88-ac37-82b45a501ab6","ios":"levelo://app?vid=875d06df-6b7a-4c88-ac37-82b45a501ab6"},"vehicle_type_id":"4","last_reported":1717261622,"current_range_meters":12800,"station_id":"ce4bh2h2rcd13ifvqdh0","pricing_plan_id":"cebpf4jnsgd1na2vs0mg"},{"bike_id":"49e44597-2c3b-44dd-ace3-799942f25c27","system_id":"levelo_inurba_marseille","lat":43.29419,"lon":5.386301,"is_reserved":false,"is_disabled":false,"rental_uris":{"android":"levelo://app?vid=49e44597-2c3b-44dd-ace3-799942f25c27","ios":"levelo://app?vid=49e44597-2c3b-44dd-ace3-799942f25c27"},"vehicle_type_id":"4","last_reported":1717261622,"current_range_meters":3200,"station_id":"ce4bh2h2rcd13ifvqdh0","pricing_plan_id":"cebpf4jnsgd1na2vs0mg"},{"bike_id":"c8d4c904-2331-422a-b539-7d183df80d8f","system_id":"levelo_inurba_marseille","lat":43.28944,"lon":5.36638,"is_reserved":false,"is_disabled":false,"rental_uris":{"android":"levelo://app?vid=c8d4c904-2331-422a-b539-7d183df80d8f","ios":"levelo://app?vid=c8d4c904-2331-422a-b539-7d183df80d8f"},"vehicle_type_id":"4","last_reported":1717261622,"current_range_meters":0,"station_id":"ce4bhap2rcd13ifvqek0","pricing_plan_id":"cebpf4jnsgd1na2vs0mg"},{"bike_id":"74ebbd49-fdb1-4088-a9e5-4d1c25d7a89e","system_id":"levelo_inurba_marseille","lat":43.29417,"lon":5.38628,"is_reserved":false,"is_disabled":false,"rental_uris":{"android":"levelo://app?vid=74ebbd49-fdb1-4088-a9e5-4d1c25d7a89e","ios":"levelo://app?vid=74ebbd49-fdb1-4088-a9e5-4d1c25d7a89e"},"vehicle_type_id":"4","last_reported":1717261622,"current_range_meters":0,"station_id":"ce4bh2h2rcd13ifvqdh0","pricing_plan_id":"cebpf4jnsgd1na2vs0mg"},{"bike_id":"9e66cae7-f622-416f-b2d6-dd8d4d83a52a","system_id":"levelo_inurba_marseille","lat":43.294185,"lon":5.38631,"is_reserved":false,"is_disabled":false,"rental_uris":{"android":"levelo://app?vid=9e66cae7-f622-416f-b2d6-dd8d4d83a52a","ios":"levelo://app?vid=9e66cae7-f622-416f-b2d6-dd8d4d83a52a"},"vehicle_type_id":"4","last_reported":1717261622,"current_range_meters":400,"station_id":"ce4bh2h2rcd13ifvqdh0","pricing_plan_id":"cebpf4jnsgd1na2vs0mg"},{"bike_id":"178f805d-30bf-49b0-84d7-5949c9db644f","system_id":"levelo_inurba_marseille","lat":43.2942,"lon":5.38634,"is_reserved":false,"is_disabled":false,"rental_uris":{"android":"levelo://app?vid=178f805d-30bf-49b0-84d7-5949c9db644f","ios":"levelo://app?vid=178f805d-30bf-49b0-84d7-5949c9db644f"},"vehicle_type_id":"4","last_reported":1717261622,"current_range_meters":18800,"station_id":"ce4bh2h2rcd13ifvqdh0","pricing_plan_id":"cebpf4jnsgd1na2vs0mg"},{"bike_id":"2a874bac-98dc-4447-9858-edf534f33d63","system_id":"levelo_inurba_marseille","lat":43.29416,"lon":5.38627,"is_reserved":false,"is_disabled":false,"rental_uris":{"android":"levelo://app?vid=2a874bac-98dc-4447-9858-edf534f33d63","ios":"levelo://app?vid=2a874bac-98dc-4447-9858-edf534f33d63"},"vehicle_type_id":"4","last_reported":1717261622,"current_range_meters":0,"station_id":"ce4bh2h2rcd13ifvqdh0","pricing_plan_id":"cebpf4jnsgd1na2vs0mg"},{"bike_id":"6378e41b-db54-452d-83b9-ed8eda67bd29","system_id":"levelo_inurba_marseille","lat":43.290864,"lon":5.355856,"is_reserved":false,"is_disabled":false,"rental_uris":{"android":"levelo://app?vid=6378e41b-db54-452d-83b9-ed8eda67bd29","ios":"levelo://app?vid=6378e41b-db54-452d-83b9-ed8eda67bd29"},"vehicle_type_id":"4","last_reported":1717261622,"current_range_meters":9200,"station_id":"ce4bgkp2rcd13ifvqbmg","pricing_plan_id":"cebpf4jnsgd1na2vs0mg"},{"bike_id":"909faa2f-97ad-46be-b7f6-24d5649cc8c4","system_id":"levelo_inurba_marseille","lat":43.294162,"lon":5.386292,"is_reserved":false,"is_disabled":false,"rental_uris":{"android":"levelo://app?vid=909faa2f-97ad-46be-b7f6-24d5649cc8c4","ios":"levelo://app?vid=909faa2f-97ad-46be-b7f6-24d5649cc8c4"},"vehicle_type_id":"4","last_reported":1717261622,"current_range_meters":6400,"station_id":"ce4bh2h2rcd13ifvqdh0","pricing_plan_id":"cebpf4jnsgd1na2vs0mg"},{"bike_id":"28767b27-2587-49e9-82ad-905ce6249d94","system_id":"levelo_inurba_marseille","lat":43.29415,"lon":5.38627,"is_reserved":false,"is_disabled":false,"rental_uris":{"android":"levelo://app?vid=28767b27-2587-49e9-82ad-905ce6249d94","ios":"levelo://app?vid=28767b27-2587-49e9-82ad-905ce6249d94"},"vehicle_type_id":"4","last_reported":1717261622,"current_range_meters":5200,"station_id":"ce4bh2h2rcd13ifvqdh0","pricing_plan_id":"cebpf4jnsgd1na2vs0mg"},{"bike_id":"4a13c913-83de-4e64-9019-7c5ce9c90901","system_id":"levelo_inurba_marseille","lat":43.294139,"lon":5.386268,"is_reserved":false,"is_disabled":false,"rental_uris":{"android":"levelo://app?vid=4a13c913-83de-4e64-9019-7c5ce9c90901","ios":"levelo://app?vid=4a13c913-83de-4e64-9019-7c5ce9c90901"},"vehicle_type_id":"4","last_reported":1717261622,"current_range_meters":0,"station_id":"ce4bh2h2rcd13ifvqdh0","pricing_plan_id":"cebpf4jnsgd1na2vs0mg"},{"bike_id":"0854b738-b155-4a1b-9a14-ca9e3deff490","system_id":"levelo_inurba_marseille","lat":43.29416,"lon":5.386323,"is_reserved":false,"is_disabled":false,"rental_uris":{"android":"levelo://app?vid=0854b738-b155-4a1b-9a14-ca9e3deff490","ios":"levelo://app?vid=0854b738-b155-4a1b-9a14-ca9e3deff490"},"vehicle_type_id":"4","last_reported":1717261622,"current_range_meters":4400,"station_id":"ce4bh2h2rcd13ifvqdh0","pricing_plan_id":"cebpf4jnsgd1na2vs0mg"},{"bike_id":"946babd1-077b-489e-9a9e-24208b073bf3","system_id":"levelo_inurba_marseille","lat":43.294156,"lon":5.38633,"is_reserved":false,"is_disabled":false,"rental_uris":{"android":"levelo://app?vid=946babd1-077b-489e-9a9e-24208b073bf3","ios":"levelo://app?vid=946babd1-077b-489e-9a9e-24208b073bf3"},"vehicle_type_id":"4","last_reported":1717261622,"current_range_meters":10000,"station_id":"ce4bh2h2rcd13ifvqdh0","pricing_plan_id":"cebpf4jnsgd1na2vs0mg"},{"bike_id":"d1779d19-5f26-491c-bd35-94918f504bd6","system_id":"levelo_inurba_marseille","lat":43.289184,"lon":5.366408,"is_reserved":false,"is_disabled":false,"rental_uris":{"android":"levelo://app?vid=d1779d19-5f26-491c-bd35-94918f504bd6","ios":"levelo://app?vid=d1779d19-5f26-491c-bd35-94918f504bd6"},"vehicle_type_id":"4","last_reported":1717261622,"current_range_meters":7200,"station_id":"ce4bhap2rcd13ifvqek0","pricing_plan_id":"cebpf4jnsgd1na2vs0mg"},{"bike_id":"40a4a467-2a78-4cbc-a752-572e3cbae217","system_id":"levelo_inurba_marseille","lat":43.289184,"lon":5.366408,"is_reserved":false,"is_disabled":false,"rental_uris":{"android":"levelo://app?vid=40a4a467-2a78-4cbc-a752-572e3cbae217","ios":"levelo://app?vid=40a4a467-2a78-4cbc-a752-572e3cbae217"},"vehicle_type_id":"4","last_reported":1717261622,"current_range_meters":4400,"station_id":"ce4bhap2rcd13ifvqek0","pricing_plan_id":"cebpf4jnsgd1na2vs0mg"},{"bike_id":"f06d2fe8-9790-45bd-b82f-582e60d3fca8","system_id":"levelo_inurba_marseille","lat":43.28937,"lon":5.36634,"is_reserved":false,"is_disabled":false,"rental_uris":{"android":"levelo://app?vid=f06d2fe8-9790-45bd-b82f-582e60d3fca8","ios":"levelo://app?vid=f06d2fe8-9790-45bd-b82f-582e60d3fca8"},"vehicle_type_id":"4","last_reported":1717261622,"current_range_meters":22400,"station_id":"ce4bhap2rcd13ifvqek0","pricing_plan_id":"cebpf4jnsgd1na2vs0mg"},{"bike_id":"cd8fe720-2e4e-453d-95e5-a330c111eb21","system_id":"levelo_inurba_marseille","lat":43.289184,"lon":5.366408,"is_reserved":false,"is_disabled":false,"rental_uris":{"android":"levelo://app?vid=cd8fe720-2e4e-453d-95e5-a330c111eb21","ios":"levelo://app?vid=cd8fe720-2e4e-453d-95e5-a330c111eb21"},"vehicle_type_id":"4","last_reported":1717261622,"current_range_meters":0,"station_id":"ce4bhap2rcd13ifvqek0","pricing_plan_id":"cebpf4jnsgd1na2vs0mg"},{"bike_id":"9eb4396b-2c54-4614-ba88-78717bd93cf2","system_id":"levelo_inurba_marseille","lat":43.289184,"lon":5.366408,"is_reserved":false,"is_disabled":false,"rental_uris":{"android":"levelo://app?vid=9eb4396b-2c54-4614-ba88-78717bd93cf2","ios":"levelo://app?vid=9eb4396b-2c54-4614-ba88-78717bd93cf2"},"vehicle_type_id":"4","last_reported":1717261622,"current_range_meters":32000,"station_id":"ce4bhap2rcd13ifvqek0","pricing_plan_id":"cebpf4jnsgd1na2vs0mg"},{"bike_id":"80b957f8-54e0-40df-9748-4b426574f4a3","system_id":"levelo_inurba_marseille","lat":43.289468,"lon":5.363719,"is_reserved":false,"is_disabled":false,"rental_uris":{"android":"levelo://app?vid=80b957f8-54e0-40df-9748-4b426574f4a3","ios":"levelo://app?vid=80b957f8-54e0-40df-9748-4b426574f4a3"},"vehicle_type_id":"4","last_reported":1717261622,"current_range_meters":31200,"station_id":"ce4bhc92rcd13ifvqetg","pricing_plan_id":"cebpf4jnsgd1na2vs0mg"},{"bike_id":"a64ad403-adad-4ff9-b064-0df479875029","system_id":"levelo_inurba_marseille","lat":43.289184,"lon":5.366408,"is_reserved":false,"is_disabled":false,"rental_uris":{"android":"levelo://app?vid=a64ad403-adad-4ff9-b064-0df479875029","ios":"levelo://app?vid=a64ad403-adad-4ff9-b064-0df479875029"},"vehicle_type_id":"4","last_reported":1717261622,"current_range_meters":13600,"station_id":"ce4bhap2rcd13ifvqek0","pricing_plan_id":"cebpf4jnsgd1na2vs0mg"},{"bike_id":"aab33cb1-6951-4da1-9c69-97ea38c7fd5c","system_id":"levelo_inurba_marseille","lat":43.292644,"lon":5.384257,"is_reserved":false,"is_disabled":false,"rental_uris":{"android":"levelo://app?vid=aab33cb1-6951-4da1-9c69-97ea38c7fd5c","ios":"levelo://app?vid=aab33cb1-6951-4da1-9c69-97ea38c7fd5c"},"vehicle_type_id":"4","last_reported":1717261622,"current_range_meters":14800,"station_id":"ce4bh692rcd13ifvqea0","pricing_plan_id":"cebpf4jnsgd1na2vs0mg"},{"bike_id":"c52a5a76-0cb9-4787-9b56-f84c5b1e4dd0","system_id":"levelo_inurba_marseille","lat":43.29262,"lon":5.38441,"is_reserved":false,"is_disabled":false,"rental_uris":{"android":"levelo://app?vid=c52a5a76-0cb9-4787-9b56-f84c5b1e4dd0","ios":"levelo://app?vid=c52a5a76-0cb9-4787-9b56-f84c5b1e4dd0"},"vehicle_type_id":"4","last_reported":1717261622,"current_range_meters":14800,"station_id":"ce4bh692rcd13ifvqea0","pricing_plan_id":"cebpf4jnsgd1na2vs0mg"},{"bike_id":"9dc5f11f-757d-4e36-8db2-235c820f4059","system_id":"levelo_inurba_marseille","lat":43.290103,"lon":5.356114,"is_reserved":false,"is_disabled":false,"rental_uris":{"android":"levelo://app?vid=9dc5f11f-757d-4e36-8db2-235c820f4059","ios":"levelo://app?vid=9dc5f11f-757d-4e36-8db2-235c820f4059"},"vehicle_type_id":"4","last_reported":1717261622,"current_range_meters":26800,"station_id":"ce4bhb92rcd13ifvqen0","pricing_plan_id":"cebpf4jnsgd1na2vs0mg"},{"bike_id":"f007bdb7-d5fb-4927-a1ad-dbbc2d00d692","system_id":"levelo_inurba_marseille","lat":43.290103,"lon":5.356114,"is_reserved":false,"is_disabled":false,"rental_uris":{"android":"levelo://app?vid=f007bdb7-d5fb-4927-a1ad-dbbc2d00d692","ios":"levelo://app?vid=f007bdb7-d5fb-4927-a1ad-dbbc2d00d692"},"vehicle_type_id":"4","last_reported":1717261622,"current_range_meters":20400,"station_id":"ce4bhb92rcd13ifvqen0","pricing_plan_id":"cebpf4jnsgd1na2vs0mg"},{"bike_id":"f8f45be1-22d5-4d7e-840d-01264a1b9c12","system_id":"levelo_inurba_marseille","lat":43.290995,"lon":5.381361,"is_reserved":false,"is_disabled":false,"rental_uris":{"android":"levelo://app?vid=f8f45be1-22d5-4d7e-840d-01264a1b9c12","ios":"levelo://app?vid=f8f45be1-22d5-4d7e-840d-01264a1b9c12"},"vehicle_type_id":"4","last_reported":1717261622,"current_range_meters":22400,"station_id":"ce4bh512rcd13ifvqe2g","pricing_plan_id":"cebpf4jnsgd1na2vs0mg"},{"bike_id":"417feff0-eb3f-4963-8826-103028d003b7","system_id":"levelo_inurba_marseille","lat":43.290995,"lon":5.381361,"is_reserved":false,"is_disabled":false,"rental_uris":{"android":"levelo://app?vid=417feff0-eb3f-4963-8826-103028d003b7","ios":"levelo://app?vid=417feff0-eb3f-4963-8826-103028d003b7"},"vehicle_type_id":"4","last_reported":1717261622,"current_range_meters":0,"station_id":"ce4bh512rcd13ifvqe2g","pricing_plan_id":"cebpf4jnsgd1na2vs0mg"},{"bike_id":"6a30a1c6-bfc4-4ef1-b52b-a2f455d5a7dc","system_id":"levelo_inurba_marseille","lat":43.297815,"lon":5.393548,"is_reserved":false,"is_disabled":false,"rental_uris":{"android":"levelo://app?vid=6a30a1c6-bfc4-4ef1-b52b-a2f455d5a7dc","ios":"levelo://app?vid=6a30a1c6-bfc4-4ef1-b52b-a2f455d5a7dc"},"vehicle_type_id":"4","last_reported":1717261622,"current_range_meters":17200,"station_id":"chh1huq6cuj3fo74tm60","pricing_plan_id":"cebpf4jnsgd1na2vs0mg"},{"bike_id":"674e1a5b-df3b-432d-aabc-8f19d73a6a36","system_id":"levelo_inurba_marseille","lat":43.29786,"lon":5.39337,"is_reserved":false,"is_disabled":false,"rental_uris":{"android":"levelo://app?vid=674e1a5b-df3b-432d-aabc-8f19d73a6a36","ios":"levelo://app?vid=674e1a5b-df3b-432d-aabc-8f19d73a6a36"},"vehicle_type_id":"4","last_reported":1717261622,"current_range_meters":31200,"station_id":"chh1huq6cuj3fo74tm60","pricing_plan_id":"cebpf4jnsgd1na2vs0mg"},{"bike_id":"1afdaa63-3786-40fc-9c59-32ceb3695729","system_id":"levelo_inurba_marseille","lat":43.297815,"lon":5.393548,"is_reserved":false,"is_disabled":false,"rental_uris":{"android":"levelo://app?vid=1afdaa63-3786-40fc-9c59-32ceb3695729","ios":"levelo://app?vid=1afdaa63-3786-40fc-9c59-32ceb3695729"},"vehicle_type_id":"4","last_reported":1717261622,"current_range_meters":21200,"station_id":"chh1huq6cuj3fo74tm60","pricing_plan_id":"cebpf4jnsgd1na2vs0mg"},{"bike_id":"a25bc9ad-3858-4f59-be7c-5921b98f3dbd","system_id":"levelo_inurba_marseille","lat":43.28975,"lon":5.37838,"is_reserved":false,"is_disabled":false,"rental_uris":{"android":"levelo://app?vid=a25bc9ad-3858-4f59-be7c-5921b98f3dbd","ios":"levelo://app?vid=a25bc9ad-3858-4f59-be7c-5921b98f3dbd"},"vehicle_type_id":"4","last_reported":1717261622,"current_range_meters":21200,"station_id":"ce4bh9p2rcd13ifvqed0","pricing_plan_id":"cebpf4jnsgd1na2vs0mg"},{"bike_id":"db6c06a7-326c-4660-b605-17487aa568e7","system_id":"levelo_inurba_marseille","lat":43.289743,"lon":5.378304,"is_reserved":false,"is_disabled":false,"rental_uris":{"android":"levelo://app?vid=db6c06a7-326c-4660-b605-17487aa568e7","ios":"levelo://app?vid=db6c06a7-326c-4660-b605-17487aa568e7"},"vehicle_type_id":"4","last_reported":1717261622,"current_range_meters":0,"station_id":"ce4bh9p2rcd13ifvqed0","pricing_plan_id":"cebpf4jnsgd1na2vs0mg"},{"bike_id":"c35c7491-60d0-4b63-b66f-ead34a8d2a51","system_id":"levelo_inurba_marseille","lat":43.295169,"lon":5.390426,"is_reserved":false,"is_disabled":false,"rental_uris":{"android":"levelo://app?vid=c35c7491-60d0-4b63-b66f-ead34a8d2a51","ios":"levelo://app?vid=c35c7491-60d0-4b63-b66f-ead34a8d2a51"},"vehicle_type_id":"4","last_reported":1717261622,"current_range_meters":6400,"station_id":"ce4bh3p2rcd13ifvqdp0","pricing_plan_id":"cebpf4jnsgd1na2vs0mg"},{"bike_id":"9dbb8e8d-93be-43a5-8ee2-45842f23a292","system_id":"levelo_inurba_marseille","lat":43.2901,"lon":5.381269,"is_reserved":false,"is_disabled":false,"rental_uris":{"android":"levelo://app?vid=9dbb8e8d-93be-43a5-8ee2-45842f23a292","ios":"levelo://app?vid=9dbb8e8d-93be-43a5-8ee2-45842f23a292"},"vehicle_type_id":"4","last_reported":1717261622,"current_range_meters":22800,"station_id":"ce4bh4p2rcd13ifvqe1g","pricing_plan_id":"cebpf4jnsgd1na2vs0mg"},{"bike_id":"bc00f6b1-389f-4549-8425-cf10ea511fb1","system_id":"levelo_inurba_marseille","lat":43.2901,"lon":5.381269,"is_reserved":false,"is_disabled":false,"rental_uris":{"android":"levelo://app?vid=bc00f6b1-389f-4549-8425-cf10ea511fb1","ios":"levelo://app?vid=bc00f6b1-389f-4549-8425-cf10ea511fb1"},"vehicle_type_id":"4","last_reported":1717261622,"current_range_meters":19600,"station_id":"ce4bh4p2rcd13ifvqe1g","pricing_plan_id":"cebpf4jnsgd1na2vs0mg"},{"bike_id":"d43fcc1d-24c6-4c2c-93b9-8f71b11b7427","system_id":"levelo_inurba_marseille","lat":43.2901,"lon":5.381269,"is_reserved":false,"is_disabled":false,"rental_uris":{"android":"levelo://app?vid=d43fcc1d-24c6-4c2c-93b9-8f71b11b7427","ios":"levelo://app?vid=d43fcc1d-24c6-4c2c-93b9-8f71b11b7427"},"vehicle_type_id":"4","last_reported":1717261622,"current_range_meters":8400,"station_id":"ce4bh4p2rcd13ifvqe1g","pricing_plan_id":"cebpf4jnsgd1na2vs0mg"},{"bike_id":"21441176-926d-45ac-9321-a1f1381530ea","system_id":"levelo_inurba_marseille","lat":43.28856,"lon":5.358371,"is_reserved":false,"is_disabled":false,"rental_uris":{"android":"levelo://app?vid=21441176-926d-45ac-9321-a1f1381530ea","ios":"levelo://app?vid=21441176-926d-45ac-9321-a1f1381530ea"},"vehicle_type_id":"4","last_reported":1717261622,"current_range_meters":5200,"station_id":"ce4bhb12rcd13ifvqem0","pricing_plan_id":"cebpf4jnsgd1na2vs0mg"},{"bike_id":"834f6457-d2ab-4aed-ac33-695f2ce6a465","system_id":"levelo_inurba_marseille","lat":43.290094,"lon":5.381264,"is_reserved":false,"is_disabled":false,"rental_uris":{"android":"levelo://app?vid=834f6457-d2ab-4aed-ac33-695f2ce6a465","ios":"levelo://app?vid=834f6457-d2ab-4aed-ac33-695f2ce6a465"},"vehicle_type_id":"4","last_reported":1717261622,"current_range_meters":1200,"station_id":"ce4bh4p2rcd13ifvqe1g","pricing_plan_id":"cebpf4jnsgd1na2vs0mg"},{"bike_id":"8eb2b22c-ed82-4c55-9491-3ec8386cbf29","system_id":"levelo_inurba_marseille","lat":43.290094,"lon":5.381264,"is_reserved":false,"is_disabled":false,"rental_uris":{"android":"levelo://app?vid=8eb2b22c-ed82-4c55-9491-3ec8386cbf29","ios":"levelo://app?vid=8eb2b22c-ed82-4c55-9491-3ec8386cbf29"},"vehicle_type_id":"4","last_reported":1717261622,"current_range_meters":0,"station_id":"ce4bh4p2rcd13ifvqe1g","pricing_plan_id":"cebpf4jnsgd1na2vs0mg"},{"bike_id":"4736d655-0265-4395-a23a-3818edf84df8","system_id":"levelo_inurba_marseille","lat":43.28856,"lon":5.358371,"is_reserved":false,"is_disabled":false,"rental_uris":{"android":"levelo://app?vid=4736d655-0265-4395-a23a-3818edf84df8","ios":"levelo://app?vid=4736d655-0265-4395-a23a-3818edf84df8"},"vehicle_type_id":"4","last_reported":1717261622,"current_range_meters":26800,"station_id":"ce4bhb12rcd13ifvqem0","pricing_plan_id":"cebpf4jnsgd1na2vs0mg"},{"bike_id":"f65d37f8-bd35-44d7-b71d-cfe134a0c977","system_id":"levelo_inurba_marseille","lat":43.28856,"lon":5.358371,"is_reserved":false,"is_disabled":false,"rental_uris":{"android":"levelo://app?vid=f65d37f8-bd35-44d7-b71d-cfe134a0c977","ios":"levelo://app?vid=f65d37f8-bd35-44d7-b71d-cfe134a0c977"},"vehicle_type_id":"4","last_reported":1717261622,"current_range_meters":0,"station_id":"ce4bhb12rcd13ifvqem0","pricing_plan_id":"cebpf4jnsgd1na2vs0mg"},{"bike_id":"94241b89-be14-4ed4-9e17-e498b3a99b2f","system_id":"levelo_inurba_marseille","lat":43.331499,"lon":5.389947,"is_reserved":false,"is_disabled":false,"rental_uris":{"android":"levelo://app?vid=94241b89-be14-4ed4-9e17-e498b3a99b2f","ios":"levelo://app?vid=94241b89-be14-4ed4-9e17-e498b3a99b2f"},"vehicle_type_id":"4","last_reported":1717261622,"current_range_meters":10400,"station_id":"","pricing_plan_id":"cebpf4jnsgd1na2vs0mg"},{"bike_id":"e59ad1c1-da90-409c-b3ce-9778697a9356","system_id":"levelo_inurba_marseille","lat":43.309371,"lon":5.401449,"is_reserved":false,"is_disabled":false,"rental_uris":{"android":"levelo://app?vid=e59ad1c1-da90-409c-b3ce-9778697a9356","ios":"levelo://app?vid=e59ad1c1-da90-409c-b3ce-9778697a9356"},"vehicle_type_id":"4","last_reported":1717261622,"current_range_meters":0,"station_id":"ce4bgvp2rcd13ifvqct0","pricing_plan_id":"cebpf4jnsgd1na2vs0mg"},{"bike_id":"95c1951d-3dde-4dbc-b689-cb761b5208c2","system_id":"levelo_inurba_marseille","lat":43.312609,"lon":5.401662,"is_reserved":false,"is_disabled":false,"rental_uris":{"android":"levelo://app?vid=95c1951d-3dde-4dbc-b689-cb761b5208c2","ios":"levelo://app?vid=95c1951d-3dde-4dbc-b689-cb761b5208c2"},"vehicle_type_id":"4","last_reported":1717261622,"current_range_meters":6800,"station_id":"ce4bh092rcd13ifvqd30","pricing_plan_id":"cebpf4jnsgd1na2vs0mg"},{"bike_id":"13d64c04-7d52-4641-bd47-9d24207b23ed","system_id":"levelo_inurba_marseille","lat":43.309371,"lon":5.401449,"is_reserved":false,"is_disabled":false,"rental_uris":{"android":"levelo://app?vid=13d64c04-7d52-4641-bd47-9d24207b23ed","ios":"levelo://app?vid=13d64c04-7d52-4641-bd47-9d24207b23ed"},"vehicle_type_id":"4","last_reported":1717261622,"current_range_meters":19200,"station_id":"ce4bgvp2rcd13ifvqct0","pricing_plan_id":"cebpf4jnsgd1na2vs0mg"},{"bike_id":"969fb44d-00ae-49fe-b0b0-388e62be006f","system_id":"levelo_inurba_marseille","lat":43.312609,"lon":5.401662,"is_reserved":false,"is_disabled":false,"rental_uris":{"android":"levelo://app?vid=969fb44d-00ae-49fe-b0b0-388e62be006f","ios":"levelo://app?vid=969fb44d-00ae-49fe-b0b0-388e62be006f"},"vehicle_type_id":"4","last_reported":1717261622,"current_range_meters":29600,"station_id":"ce4bh092rcd13ifvqd30","pricing_plan_id":"cebpf4jnsgd1na2vs0mg"},{"bike_id":"26e88c15-1ebf-4978-814d-f8bc280f73dc","system_id":"levelo_inurba_marseille","lat":43.337464,"lon":5.374839,"is_reserved":false,"is_disabled":false,"rental_uris":{"android":"levelo://app?vid=26e88c15-1ebf-4978-814d-f8bc280f73dc","ios":"levelo://app?vid=26e88c15-1ebf-4978-814d-f8bc280f73dc"},"vehicle_type_id":"4","last_reported":1717261622,"current_range_meters":28800,"station_id":"","pricing_plan_id":"cebpf4jnsgd1na2vs0mg"},{"bike_id":"c44265a1-ab7a-4e3a-b398-286956f18138","system_id":"levelo_inurba_marseille","lat":43.309371,"lon":5.401449,"is_reserved":false,"is_disabled":false,"rental_uris":{"android":"levelo://app?vid=c44265a1-ab7a-4e3a-b398-286956f18138","ios":"levelo://app?vid=c44265a1-ab7a-4e3a-b398-286956f18138"},"vehicle_type_id":"4","last_reported":1717261622,"current_range_meters":4000,"station_id":"ce4bgvp2rcd13ifvqct0","pricing_plan_id":"cebpf4jnsgd1na2vs0mg"},{"bike_id":"63f22b36-a663-426a-8759-ef2bcf9c4338","system_id":"levelo_inurba_marseille","lat":43.301117,"lon":5.398795,"is_reserved":false,"is_disabled":false,"rental_uris":{"android":"levelo://app?vid=63f22b36-a663-426a-8759-ef2bcf9c4338","ios":"levelo://app?vid=63f22b36-a663-426a-8759-ef2bcf9c4338"},"vehicle_type_id":"4","last_reported":1717261622,"current_range_meters":0,"station_id":"ce4bh0h2rcd13ifvqd40","pricing_plan_id":"cebpf4jnsgd1na2vs0mg"},{"bike_id":"884f00d2-6b9b-45e3-9818-67dffa78212d","system_id":"levelo_inurba_marseille","lat":43.298681,"lon":5.397225,"is_reserved":false,"is_disabled":false,"rental_uris":{"android":"levelo://app?vid=884f00d2-6b9b-45e3-9818-67dffa78212d","ios":"levelo://app?vid=884f00d2-6b9b-45e3-9818-67dffa78212d"},"vehicle_type_id":"4","last_reported":1717261622,"current_range_meters":11200,"station_id":"ce4bh0h2rcd13ifvqd50","pricing_plan_id":"cebpf4jnsgd1na2vs0mg"},{"bike_id":"e8fc2440-bc31-441a-b698-44a99ec4fbbd","system_id":"levelo_inurba_marseille","lat":43.302245,"lon":5.399634,"is_reserved":false,"is_disabled":false,"rental_uris":{"android":"levelo://app?vid=e8fc2440-bc31-441a-b698-44a99ec4fbbd","ios":"levelo://app?vid=e8fc2440-bc31-441a-b698-44a99ec4fbbd"},"vehicle_type_id":"4","last_reported":1717261622,"current_range_meters":18000,"station_id":"ce4bgvh2rcd13ifvqcs0","pricing_plan_id":"cebpf4jnsgd1na2vs0mg"},{"bike_id":"3c7e0918-328a-4578-b291-4195bfb06f1e","system_id":"levelo_inurba_marseille","lat":43.298681,"lon":5.397225,"is_reserved":false,"is_disabled":false,"rental_uris":{"android":"levelo://app?vid=3c7e0918-328a-4578-b291-4195bfb06f1e","ios":"levelo://app?vid=3c7e0918-328a-4578-b291-4195bfb06f1e"},"vehicle_type_id":"4","last_reported":1717261622,"current_range_meters":24000,"station_id":"ce4bh0h2rcd13ifvqd50","pricing_plan_id":"cebpf4jnsgd1na2vs0mg"},{"bike_id":"1a600837-893e-4062-8af5-7eb01adf2685","system_id":"levelo_inurba_marseille","lat":43.286591,"lon":5.363346,"is_reserved":false,"is_disabled":false,"rental_uris":{"android":"levelo://app?vid=1a600837-893e-4062-8af5-7eb01adf2685","ios":"levelo://app?vid=1a600837-893e-4062-8af5-7eb01adf2685"},"vehicle_type_id":"4","last_reported":1717261622,"current_range_meters":16400,"station_id":"ce4bhah2rcd13ifvqej0","pricing_plan_id":"cebpf4jnsgd1na2vs0mg"},{"bike_id":"e81312c2-b296-4c9f-96d6-56faf637f298","system_id":"levelo_inurba_marseille","lat":43.286655,"lon":5.363512,"is_reserved":false,"is_disabled":false,"rental_uris":{"android":"levelo://app?vid=e81312c2-b296-4c9f-96d6-56faf637f298","ios":"levelo://app?vid=e81312c2-b296-4c9f-96d6-56faf637f298"},"vehicle_type_id":"4","last_reported":1717261622,"current_range_meters":30000,"station_id":"ce4bhah2rcd13ifvqej0","pricing_plan_id":"cebpf4jnsgd1na2vs0mg"},{"bike_id":"8e92c5db-af13-49b9-93d3-3a30ba3fc6b0","system_id":"levelo_inurba_marseille","lat":43.298681,"lon":5.397225,"is_reserved":false,"is_disabled":false,"rental_uris":{"android":"levelo://app?vid=8e92c5db-af13-49b9-93d3-3a30ba3fc6b0","ios":"levelo://app?vid=8e92c5db-af13-49b9-93d3-3a30ba3fc6b0"},"vehicle_type_id":"4","last_reported":1717261622,"current_range_meters":20800,"station_id":"ce4bh0h2rcd13ifvqd50","pricing_plan_id":"cebpf4jnsgd1na2vs0mg"},{"bike_id":"28ce8180-a568-4338-8fb9-d03c36145eb8","system_id":"levelo_inurba_marseille","lat":43.298681,"lon":5.397225,"is_reserved":false,"is_disabled":false,"rental_uris":{"android":"levelo://app?vid=28ce8180-a568-4338-8fb9-d03c36145eb8","ios":"levelo://app?vid=28ce8180-a568-4338-8fb9-d03c36145eb8"},"vehicle_type_id":"4","last_reported":1717261622,"current_range_meters":15600,"station_id":"ce4bh0h2rcd13ifvqd50","pricing_plan_id":"cebpf4jnsgd1na2vs0mg"},{"bike_id":"45982d95-26c2-441c-951e-1360bea191bc","system_id":"levelo_inurba_marseille","lat":43.286617,"lon":5.36349,"is_reserved":false,"is_disabled":false,"rental_uris":{"android":"levelo://app?vid=45982d95-26c2-441c-951e-1360bea191bc","ios":"levelo://app?vid=45982d95-26c2-441c-951e-1360bea191bc"},"vehicle_type_id":"4","last_reported":1717261622,"current_range_meters":0,"station_id":"ce4bhah2rcd13ifvqej0","pricing_plan_id":"cebpf4jnsgd1na2vs0mg"},{"bike_id":"f1d72a6d-5f3a-4513-a438-71c622e4c4d2","system_id":"levelo_inurba_marseille","lat":43.286961,"lon":5.373785,"is_reserved":false,"is_disabled":false,"rental_uris":{"android":"levelo://app?vid=f1d72a6d-5f3a-4513-a438-71c622e4c4d2","ios":"levelo://app?vid=f1d72a6d-5f3a-4513-a438-71c622e4c4d2"},"vehicle_type_id":"4","last_reported":1717261622,"current_range_meters":0,"station_id":"ce4bh3p2rcd13ifvqdq0","pricing_plan_id":"cebpf4jnsgd1na2vs0mg"},{"bike_id":"f2b15347-20c3-4875-b624-794dc5e2978c","system_id":"levelo_inurba_marseille","lat":43.286961,"lon":5.373785,"is_reserved":false,"is_disabled":false,"rental_uris":{"android":"levelo://app?vid=f2b15347-20c3-4875-b624-794dc5e2978c","ios":"levelo://app?vid=f2b15347-20c3-4875-b624-794dc5e2978c"},"vehicle_type_id":"4","last_reported":1717261622,"current_range_meters":11600,"station_id":"ce4bh3p2rcd13ifvqdq0","pricing_plan_id":"cebpf4jnsgd1na2vs0mg"},{"bike_id":"aa7959f2-6c78-4f46-bd34-a98b39e95553","system_id":"levelo_inurba_marseille","lat":43.286961,"lon":5.373785,"is_reserved":false,"is_disabled":false,"rental_uris":{"android":"levelo://app?vid=aa7959f2-6c78-4f46-bd34-a98b39e95553","ios":"levelo://app?vid=aa7959f2-6c78-4f46-bd34-a98b39e95553"},"vehicle_type_id":"4","last_reported":1717261622,"current_range_meters":0,"station_id":"ce4bh3p2rcd13ifvqdq0","pricing_plan_id":"cebpf4jnsgd1na2vs0mg"},{"bike_id":"bc482fc2-ec2d-458d-88df-8fa2cd63e9df","system_id":"levelo_inurba_marseille","lat":43.295196,"lon":5.39397,"is_reserved":false,"is_disabled":false,"rental_uris":{"android":"levelo://app?vid=bc482fc2-ec2d-458d-88df-8fa2cd63e9df","ios":"levelo://app?vid=bc482fc2-ec2d-458d-88df-8fa2cd63e9df"},"vehicle_type_id":"4","last_reported":1717261622,"current_range_meters":0,"station_id":"ce4bh292rcd13ifvqdf0","pricing_plan_id":"cebpf4jnsgd1na2vs0mg"},{"bike_id":"d115a6f4-d52d-4041-835f-d43c998d019f","system_id":"levelo_inurba_marseille","lat":43.29508,"lon":5.39405,"is_reserved":false,"is_disabled":false,"rental_uris":{"android":"levelo://app?vid=d115a6f4-d52d-4041-835f-d43c998d019f","ios":"levelo://app?vid=d115a6f4-d52d-4041-835f-d43c998d019f"},"vehicle_type_id":"4","last_reported":1717261622,"current_range_meters":20400,"station_id":"ce4bh292rcd13ifvqdf0","pricing_plan_id":"cebpf4jnsgd1na2vs0mg"},{"bike_id":"d6fe74c3-9643-4165-abd4-6c3749db0424","system_id":"levelo_inurba_marseille","lat":43.290345,"lon":5.38646,"is_reserved":false,"is_disabled":false,"rental_uris":{"android":"levelo://app?vid=d6fe74c3-9643-4165-abd4-6c3749db0424","ios":"levelo://app?vid=d6fe74c3-9643-4165-abd4-6c3749db0424"},"vehicle_type_id":"4","last_reported":1717261622,"current_range_meters":3600,"station_id":"ce4bh4p2rcd13ifvqe0g","pricing_plan_id":"cebpf4jnsgd1na2vs0mg"},{"bike_id":"aecdebc4-0182-47b0-8e54-195a2c320673","system_id":"levelo_inurba_marseille","lat":43.302229,"lon":5.400387,"is_reserved":false,"is_disabled":false,"rental_uris":{"android":"levelo://app?vid=aecdebc4-0182-47b0-8e54-195a2c320673","ios":"levelo://app?vid=aecdebc4-0182-47b0-8e54-195a2c320673"},"vehicle_type_id":"4","last_reported":1717261622,"current_range_meters":400,"station_id":"ce4bgvh2rcd13ifvqcs0","pricing_plan_id":"cebpf4jnsgd1na2vs0mg"},{"bike_id":"c05898f0-7d95-40ab-ba97-1208a2326003","system_id":"levelo_inurba_marseille","lat":43.289307,"lon":5.38406,"is_reserved":false,"is_disabled":false,"rental_uris":{"android":"levelo://app?vid=c05898f0-7d95-40ab-ba97-1208a2326003","ios":"levelo://app?vid=c05898f0-7d95-40ab-ba97-1208a2326003"},"vehicle_type_id":"4","last_reported":1717261622,"current_range_meters":1200,"station_id":"ce4bh612rcd13ifvqe6g","pricing_plan_id":"cebpf4jnsgd1na2vs0mg"},{"bike_id":"82d5f2bc-1a9d-4cae-b551-9d21f7e71272","system_id":"levelo_inurba_marseille","lat":43.290336,"lon":5.386425,"is_reserved":false,"is_disabled":false,"rental_uris":{"android":"levelo://app?vid=82d5f2bc-1a9d-4cae-b551-9d21f7e71272","ios":"levelo://app?vid=82d5f2bc-1a9d-4cae-b551-9d21f7e71272"},"vehicle_type_id":"4","last_reported":1717261622,"current_range_meters":19600,"station_id":"ce4bh4p2rcd13ifvqe0g","pricing_plan_id":"cebpf4jnsgd1na2vs0mg"},{"bike_id":"9034a038-cec9-45b1-89ad-8f9255295e52","system_id":"levelo_inurba_marseille","lat":43.289307,"lon":5.38406,"is_reserved":false,"is_disabled":false,"rental_uris":{"android":"levelo://app?vid=9034a038-cec9-45b1-89ad-8f9255295e52","ios":"levelo://app?vid=9034a038-cec9-45b1-89ad-8f9255295e52"},"vehicle_type_id":"4","last_reported":1717261622,"current_range_meters":5200,"station_id":"ce4bh612rcd13ifvqe6g","pricing_plan_id":"cebpf4jnsgd1na2vs0mg"},{"bike_id":"32b38914-bffa-4da1-a8cd-6f328278cd12","system_id":"levelo_inurba_marseille","lat":43.302759,"lon":5.400793,"is_reserved":false,"is_disabled":false,"rental_uris":{"android":"levelo://app?vid=32b38914-bffa-4da1-a8cd-6f328278cd12","ios":"levelo://app?vid=32b38914-bffa-4da1-a8cd-6f328278cd12"},"vehicle_type_id":"4","last_reported":1717261622,"current_range_meters":400,"station_id":"ce4bgvh2rcd13ifvqcs0","pricing_plan_id":"cebpf4jnsgd1na2vs0mg"},{"bike_id":"823cc751-746b-4fc3-9196-15f12991b1c2","system_id":"levelo_inurba_marseille","lat":43.290345,"lon":5.38646,"is_reserved":false,"is_disabled":false,"rental_uris":{"android":"levelo://app?vid=823cc751-746b-4fc3-9196-15f12991b1c2","ios":"levelo://app?vid=823cc751-746b-4fc3-9196-15f12991b1c2"},"vehicle_type_id":"4","last_reported":1717261622,"current_range_meters":1600,"station_id":"ce4bh4p2rcd13ifvqe0g","pricing_plan_id":"cebpf4jnsgd1na2vs0mg"},{"bike_id":"9d15943e-c07a-4ea9-b035-1b0ba37f9e8f","system_id":"levelo_inurba_marseille","lat":43.290336,"lon":5.386425,"is_reserved":false,"is_disabled":false,"rental_uris":{"android":"levelo://app?vid=9d15943e-c07a-4ea9-b035-1b0ba37f9e8f","ios":"levelo://app?vid=9d15943e-c07a-4ea9-b035-1b0ba37f9e8f"},"vehicle_type_id":"4","last_reported":1717261622,"current_range_meters":800,"station_id":"ce4bh4p2rcd13ifvqe0g","pricing_plan_id":"cebpf4jnsgd1na2vs0mg"},{"bike_id":"c3736906-0484-4731-8355-553cfaa3476f","system_id":"levelo_inurba_marseille","lat":43.290336,"lon":5.386425,"is_reserved":false,"is_disabled":false,"rental_uris":{"android":"levelo://app?vid=c3736906-0484-4731-8355-553cfaa3476f","ios":"levelo://app?vid=c3736906-0484-4731-8355-553cfaa3476f"},"vehicle_type_id":"4","last_reported":1717261622,"current_range_meters":1600,"station_id":"ce4bh4p2rcd13ifvqe0g","pricing_plan_id":"cebpf4jnsgd1na2vs0mg"},{"bike_id":"12a4ebbe-222e-4357-90a0-b1a3d6e54192","system_id":"levelo_inurba_marseille","lat":43.289307,"lon":5.38406,"is_reserved":false,"is_disabled":false,"rental_uris":{"android":"levelo://app?vid=12a4ebbe-222e-4357-90a0-b1a3d6e54192","ios":"levelo://app?vid=12a4ebbe-222e-4357-90a0-b1a3d6e54192"},"vehicle_type_id":"4","last_reported":1717261622,"current_range_meters":8400,"station_id":"ce4bh612rcd13ifvqe6g","pricing_plan_id":"cebpf4jnsgd1na2vs0mg"},{"bike_id":"b5fa4207-2c16-4d39-8680-605b1551162e","system_id":"levelo_inurba_marseille","lat":43.302759,"lon":5.400793,"is_reserved":false,"is_disabled":false,"rental_uris":{"android":"levelo://app?vid=b5fa4207-2c16-4d39-8680-605b1551162e","ios":"levelo://app?vid=b5fa4207-2c16-4d39-8680-605b1551162e"},"vehicle_type_id":"4","last_reported":1717261622,"current_range_meters":19200,"station_id":"ce4bgvh2rcd13ifvqcs0","pricing_plan_id":"cebpf4jnsgd1na2vs0mg"},