{"last_updated":1743427263,"ttl":60,"version":"2.2","data":{"bikes":[{"bike_id":"f28a2132-9d11-411c-a599-c4352a550e43","system_id":"levelo_inurba_marseille","lat":43.249,"lon":5.39398,"is_reserved":false,"is_disabled":true,"rental_uris":{"android":"levelo://app?vid=f28a2132-9d11-411c-a599-c4352a550e43","ios":"levelo://app?vid=f28a2132-9d11-411c-a599-c4352a550e43"},"vehicle_type_id":"4","last_reported":1743427264,"current_range_meters":0,"station_id":"","pricing_plan_id":"cebpf4jnsgd1na2vs0mg"},{"bike_id":"524c0a99-e50a-4944-b98a-364c85fd198c","system_id":"levelo_inurba_marseille","lat":43.2864,"lon":5.44362,"is_reserved":false,"is_disabled":true,"rental_uris":{"android":"levelo://app?vid=524c0a99-e50a-4944-b98a-364c85fd198c","ios":"levelo://app?vid=524c0a99-e50a-4944-b98a-364c85fd198c"},"vehicle_type_id":"4","last_reported":1743427264,"current_range_meters":0,"station_id":"","pricing_plan_id":"cebpf4jnsgd1na2vs0mg"},{"bike_id":"ef3ab7e4-47aa-4e48-a63f-a437355606eb","system_id":"levelo_inurba_marseille","lat":43.28075,"lon":5.42158,"is_reserved":false,"is_disabled":true,"rental_uris":{"android":"levelo://app?vid=ef3ab7e4-47aa-4e48-a63f-a437355606eb","ios":"levelo://app?vid=ef3ab7e4-47aa-4e48-a63f-a437355606eb"},"vehicle_type_id":"4","last_reported":1743427264,"current_range_meters":0,"station_id":"","pricing_plan_id":"cebpf4jnsgd1na2vs0mg"},{"bike_id":"646b4b6f-1ba9-4554-b1a7-e4dc009abba1","system_id":"levelo_inurba_marseille","lat":43.29106,"lon":5.42815,"is_reserved":false,"is_disabled":true,"rental_uris":{"android":"levelo://app?vid=646b4b6f-1ba9-4554-b1a7-e4dc009abba1","ios":"levelo://app?vid=646b4b6f-1ba9-4554-b1a7-e4dc009abba1"},"vehicle_type_id":"4","last_reported":1743427264,"current_range_meters":0,"station_id":"","pricing_plan_id":"cebpf4jnsgd1na2vs0mg"},{"bike_id":"7a27eaeb-5a2f-4681-a220-1aeb5306552a","system_id":"levelo_inurba_marseille","lat":43.27401,"lon":5.41447,"is_reserved":false,"is_disabled":true,"rental_uris":{"android":"levelo://app?vid=7a27eaeb-5a2f-4681-a220-1aeb5306552a","ios":"levelo://app?vid=7a27eaeb-5a2f-4681-a220-1aeb5306552a"},"vehicle_type_id":"4","last_reported":1743427264,"current_range_meters":0,"station_id":"","pricing_plan_id":"cebpf4jnsgd1na2vs0mg"},{"bike_id":"be6725c0-5c09-4663-99b8-0b7371d27e21","system_id":"levelo_inurba_marseille","lat":43.25493,"lon":5.375,"is_reserved":false,"is_disabled":true,"rental_uris":{"android":"levelo://app?vid=be6725c0-5c09-4663-99b8-0b7371d27e21","ios":"levelo://app?vid=be6725c0-5c09-4663-99b8-0b7371d27e21"},"vehicle_type_id":"4","last_reported":1743427264,"current_range_meters":0,"station_id":"","pricing_plan_id":"cebpf4jnsgd1na2vs0mg"},{"bike_id":"579b8b66-6a37-4f4c-ad3b-0acee14f6d2d","system_id":"levelo_inurba_marseille","lat":43.29649,"lon":5.44377,"is_reserved":false,"is_disabled":true,"rental_uris":{"android":"levelo://app?vid=579b8b66-6a37-4f4c-ad3b-0acee14f6d2d","ios":"levelo://app?vid=579b8b66-6a37-4f4c-ad3b-0acee14f6d2d"},"vehicle_type_id":"4","last_reported":1743427264,"current_range_meters":0,"station_id":"","pricing_plan_id":"cebpf4jnsgd1na2vs0mg"},{"bike_id":"e4023b76-3b3e-4e0a-83d8-f1f2c86a9a1a","system_id":"levelo_inurba_marseille","lat":43.2606,"lon":5.3865,"is_reserved":false,"is_disabled":true,"rental_uris":{"android":"levelo://app?vid=e4023b76-3b3e-4e0a-83d8-f1f2c86a9a1a","ios":"levelo://app?vid=e4023b76-3b3e-4e0a-83d8-f1f2c86a9a1a"},"vehicle_type_id":"4","last_reported":1743427264,"current_range_meters":0,"station_id":"","pricing_plan_id":"cebpf4jnsgd1na2vs0mg"},{"bike_id":"addfee32-b434-4d1a-a720-7460ebc95d3d","system_id":"levelo_inurba_marseille","lat":43.265915,"lon":5.393424,"is_reserved":false,"is_disabled":true,"rental_uris":{"android":"levelo://app?vid=addfee32-b434-4d1a-a720-7460ebc95d3d","ios":"levelo://app?vid=addfee32-b434-4d1a-a720-7460ebc95d3d"},"vehicle_type_id":"4","last_reported":1743427264,"current_range_meters":0,"station_id":"","pricing_plan_id":"cebpf4jnsgd1na2vs0mg"},{"bike_id":"04d84667-80d2-430a-a2ab-b0adb0b8c9ad","system_id":"levelo_inurba_marseille","lat":43.337444,"lon":5.374475,"is_reserved":false,"is_disabled":true,"rental_uris":{"android":"levelo://app?vid=04d84667-80d2-430a-a2ab-b0adb0b8c9ad","ios":"levelo://app?vid=04d84667-80d2-430a-a2ab-b0adb0b8c9ad"},"vehicle_type_id":"4","last_reported":1743427264,"current_range_meters":0,"station_id":"","pricing_plan_id":"cebpf4jnsgd1na2vs0mg"},{"bike_id":"deb3f671-3ace-4bcf-92e5-bfca91b65c0c","system_id":"levelo_inurba_marseille","lat":43.26903,"lon":5.39317,"is_reserved":false,"is_disabled":true,"rental_uris":{"android":"levelo://app?vid=deb3f671-3ace-4bcf-92e5-bfca91b65c0c","ios":"levelo://app?vid=deb3f671-3ace-4bcf-92e5-bfca91b65c0c"},"vehicle_type_id":"4","last_reported":1743427264,"current_range_meters":0,"station_id":"","pricing_plan_id":"cebpf4jnsgd1na2vs0mg"},{"bike_id":"54ddccb5-3e82-4e09-ad9d-1f88cce9f960","system_id":"levelo_inurba_marseille","lat":43.32992,"lon":5.43865,"is_reserved":false,"is_disabled":true,"rental_uris":{"android":"levelo://app?vid=54ddccb5-3e82-4e09-ad9d-1f88cce9f960","ios":"levelo://app?vid=54ddccb5-3e82-4e09-ad9d-1f88cce9f960"},"vehicle_type_id":"4","last_reported":1743427264,"current_range_meters":0,"station_id":"","pricing_plan_id":"cebpf4jnsgd1na2vs0mg"},{"bike_id":"288bb5a4-8592-4715-9f1c-af47147cb3c6","system_id":"levelo_inurba_marseille","lat":43.26151,"lon":5.41629,"is_reserved":false,"is_disabled":true,"rental_uris":{"android":"levelo://app?vid=288bb5a4-8592-4715-9f1c-af47147cb3c6","ios":"levelo://app?vid=288bb5a4-8592-4715-9f1c-af47147cb3c6"},"vehicle_type_id":"4","last_reported":1743427264,"current_range_meters":0,"station_id":"","pricing_plan_id":"cebpf4jnsgd1na2vs0mg"},{"bike_id":"8446a077-604a-42b8-ade1-8b05c7f9c9ee","system_id":"levelo_inurba_marseille","lat":43.31252,"lon":5.36853,"is_reserved":false,"is_disabled":true,"rental_uris":{"android":"levelo://app?vid=8446a077-604a-42b8-ade1-8b05c7f9c9ee","ios":"levelo://app?vid=8446a077-604a-42b8-ade1-8b05c7f9c9ee"},"vehicle_type_id":"4","last_reported":1743427264,"current_range_meters":0,"station_id":"ce4bgl92rcd13ifvqbq0","pricing_plan_id":"cebpf4jnsgd1na2vs0mg"},{"bike_id":"bc11bcf6-45a7-4586-aa66-06e7efc98c57","system_id":"levelo_inurba_marseille","lat":43.31338,"lon":5.36738,"is_reserved":false,"is_disabled":true,"rental_uris":{"android":"levelo://app?vid=bc11bcf6-45a7-4586-aa66-06e7efc98c57","ios":"levelo://app?vid=bc11bcf6-45a7-4586-aa66-06e7efc98c57"},"vehicle_type_id":"4","last_reported":1743427264,"current_range_meters":0,"station_id":"ce4bgr92rcd13ifvqc6g","pricing_plan_id":"cebpf4jnsgd1na2vs0mg"},{"bike_id":"e05acf43-e64f-43b5-aeeb-c50b0b9fe33b","system_id":"levelo_inurba_marseille","lat":43.2908,"lon":5.37162,"is_reserved":false,"is_disabled":true,"rental_uris":{"android":"levelo://app?vid=e05acf43-e64f-43b5-aeeb-c50b0b9fe33b","ios":"levelo://app?vid=e05acf43-e64f-43b5-aeeb-c50b0b9fe33b"},"vehicle_type_id":"4","last_reported":1743427264,"current_range_meters":0,"station_id":"ce4bh5p2rcd13ifvqe4g","pricing_plan_id":"cebpf4jnsgd1na2vs0mg"},{"bike_id":"8ca308a4-29fe-4654-a248-f7bf62ce9488","system_id":"levelo_inurba_marseille","lat":43.291704,"lon":5.372087,"is_reserved":false,"is_disabled":true,"rental_uris":{"android":"levelo://app?vid=8ca308a4-29fe-4654-a248-f7bf62ce9488","ios":"levelo://app?vid=8ca308a4-29fe-4654-a248-f7bf62ce9488"},"vehicle_type_id":"4","last_reported":1743427264,"current_range_meters":0,"station_id":"ce4bhah2rcd13ifvqei0","pricing_plan_id":"cebpf4jnsgd1na2vs0mg"},{"bike_id":"3315b904-439f-4a62-85f9-6cf1480ca796","system_id":"levelo_inurba_marseille","lat":43.29005,"lon":5.35609,"is_reserved":false,"is_disabled":true,"rental_uris":{"android":"levelo://app?vid=3315b904-439f-4a62-85f9-6cf1480ca796","ios":"levelo://app?vid=3315b904-439f-4a62-85f9-6cf1480ca796"},"vehicle_type_id":"4","last_reported":1743427264,"current_range_meters":0,"station_id":"ce4bhb92rcd13ifvqen0","pricing_plan_id":"cebpf4jnsgd1na2vs0mg"},{"bike_id":"693cb4cf-3823-4b60-bffb-7b271e86fa36","system_id":"levelo_inurba_marseille","lat":43.273774,"lon":5.362608,"is_reserved":false,"is_disabled":false,"rental_uris":{"android":"levelo://app?vid=693cb4cf-3823-4b60-bffb-7b271e86fa36","ios":"levelo://app?vid=693cb4cf-3823-4b60-bffb-7b271e86fa36"},"vehicle_type_id":"4","last_reported":1743427264,"current_range_meters":0,"station_id":"ce4bhbh2rcd13ifvqeo0","pricing_plan_id":"cebpf4jnsgd1na2vs0mg"},{"bike_id":"ceb5ae43-25f8-4bad-b894-5f7b3ab98b0e","system_id":"levelo_inurba_marseille","lat":43.28267,"lon":5.35076,"is_reserved":false,"is_disabled":true,"rental_uris":{"android":"levelo://app?vid=ceb5ae43-25f8-4bad-b894-5f7b3ab98b0e","ios":"levelo://app?vid=ceb5ae43-25f8-4bad-b894-5f7b3ab98b0e"},"vehicle_type_id":"4","last_reported":1743427264,"current_range_meters":0,"station_id":"ce4bhbp2rcd13ifvqerg","pricing_plan_id":"cebpf4jnsgd1na2vs0mg"},{"bike_id":"3fb99bd2-9093-4cec-a717-e7c5d59b4d52","system_id":"levelo_inurba_marseille","lat":43.28252,"lon":5.35073,"is_reserved":false,"is_disabled":true,"rental_uris":{"android":"levelo://app?vid=3fb99bd2-9093-4cec-a717-e7c5d59b4d52","ios":"levelo://app?vid=3fb99bd2-9093-4cec-a717-e7c5d59b4d52"},"vehicle_type_id":"4","last_reported":1743427264,"current_range_meters":0,"station_id":"ce4bhbp2rcd13ifvqerg","pricing_plan_id":"cebpf4jnsgd1na2vs0mg"},{"bike_id":"8abd6ef5-c260-43d0-900e-ed0bfeb9350c","system_id":"levelo_inurba_marseille","lat":43.25937,"lon":5.40899,"is_reserved":false,"is_disabled":true,"rental_uris":{"android":"levelo://app?vid=8abd6ef5-c260-43d0-900e-ed0bfeb9350c","ios":"levelo://app?vid=8abd6ef5-c260-43d0-900e-ed0bfeb9350c"},"vehicle_type_id":"4","last_reported":1743427264,"current_range_meters":0,"station_id":"ce4bhm92rcd13ifvqglg","pricing_plan_id":"cebpf4jnsgd1na2vs0mg"},{"bike_id":"1d9319ec-83a8-4424-ade9-522969802e4f","system_id":"levelo_inurba_marseille","lat":43.29902,"lon":5.43675,"is_reserved":false,"is_disabled":true,"rental_uris":{"android":"levelo://app?vid=1d9319ec-83a8-4424-ade9-522969802e4f","ios":"levelo://app?vid=1d9319ec-83a8-4424-ade9-522969802e4f"},"vehicle_type_id":"4","last_reported":1743427264,"current_range_meters":0,"station_id":"ce4bhpp2rcd13ifvqhfg","pricing_plan_id":"cebpf4jnsgd1na2vs0mg"},{"bike_id":"371ef456-4c42-4701-a2cf-a599bd5480ce","system_id":"levelo_inurba_marseille","lat":43.297966,"lon":5.380996,"is_reserved":false,"is_disabled":true,"rental_uris":{"android":"levelo://app?vid=371ef456-4c42-4701-a2cf-a599bd5480ce","ios":"levelo://app?vid=371ef456-4c42-4701-a2cf-a599bd5480ce"},"vehicle_type_id":"4","last_reported":1743427264,"current_range_meters":400,"station_id":"ce4bhnp2rcd13ifvqgvg","pricing_plan_id":"cebpf4jnsgd1na2vs0mg"},{"bike_id":"7a16227c-8b85-46e8-a87c-8349c4711248","system_id":"levelo_inurba_marseille","lat":43.28113,"lon":5.446,"is_reserved":false,"is_disabled":true,"rental_uris":{"android":"levelo://app?vid=7a16227c-8b85-46e8-a87c-8349c4711248","ios":"levelo://app?vid=7a16227c-8b85-46e8-a87c-8349c4711248"},"vehicle_type_id":"4","last_reported":1743427264,"current_range_meters":800,"station_id":"","pricing_plan_id":"cebpf4jnsgd1na2vs0mg"},{"bike_id":"51c361f3-8b51-4b6e-8e3d-37b5c727486e","system_id":"levelo_inurba_marseille","lat":43.29278,"lon":5.37459,"is_reserved":false,"is_disabled":true,"rental_uris":{"android":"levelo://app?vid=51c361f3-8b51-4b6e-8e3d-37b5c727486e","ios":"levelo://app?vid=51c361f3-8b51-4b6e-8e3d-37b5c727486e"},"vehicle_type_id":"4","last_reported":1743427264,"current_range_meters":800,"station_id":"ce4bgi12rcd13ifvqb70","pricing_plan_id":"cebpf4jnsgd1na2vs0mg"},{"bike_id":"bb8b3536-51c0-4813-99f2-f6fdf84c12f0","system_id":"levelo_inurba_marseille","lat":43.30438,"lon":5.38896,"is_reserved":false,"is_disabled":true,"rental_uris":{"android":"levelo://app?vid=bb8b3536-51c0-4813-99f2-f6fdf84c12f0","ios":"levelo://app?vid=bb8b3536-51c0-4813-99f2-f6fdf84c12f0"},"vehicle_type_id":"4","last_reported":1743427264,"current_range_meters":800,"station_id":"ce4bgk12rcd13ifvqbi0","pricing_plan_id":"cebpf4jnsgd1na2vs0mg"},{"bike_id":"885da56e-d8dc-43bf-87d7-bb5e9135c33a","system_id":"levelo_inurba_marseille","lat":43.28939,"lon":5.36407,"is_reserved":false,"is_disabled":true,"rental_uris":{"android":"levelo://app?vid=885da56e-d8dc-43bf-87d7-bb5e9135c33a","ios":"levelo://app?vid=885da56e-d8dc-43bf-87d7-bb5e9135c33a"},"vehicle_type_id":"4","last_reported":1743427264,"current_range_meters":800,"station_id":"ce4bhc92rcd13ifvqetg","pricing_plan_id":"cebpf4jnsgd1na2vs0mg"},{"bike_id":"7c07071e-68ba-48b9-b431-26cb6c62ac42","system_id":"levelo_inurba_marseille","lat":43.3097,"lon":5.40443,"is_reserved":false,"is_disabled":true,"rental_uris":{"android":"levelo://app?vid=7c07071e-68ba-48b9-b431-26cb6c62ac42","ios":"levelo://app?vid=7c07071e-68ba-48b9-b431-26cb6c62ac42"},"vehicle_type_id":"4","last_reported":1743427264,"current_range_meters":1600,"station_id":"","pricing_plan_id":"cebpf4jnsgd1na2vs0mg"},{"bike_id":"3513c65e-9037-444e-a060-6bd8e257e499","system_id":"levelo_inurba_marseille","lat":43.3015,"lon":5.37415,"is_reserved":false,"is_disabled":true,"rental_uris":{"android":"levelo://app?vid=3513c65e-9037-444e-a060-6bd8e257e499","ios":"levelo://app?vid=3513c65e-9037-444e-a060-6bd8e257e499"},"vehicle_type_id":"4","last_reported":1743427264,"current_range_meters":1600,"station_id":"ce4bgs92rcd13ifvqcc0","pricing_plan_id":"cebpf4jnsgd1na2vs0mg"},{"bike_id":"fdf7f2ab-44d1-4be0-8bdb-ca9bdc3ac2e4","system_id":"levelo_inurba_marseille","lat":43.29626,"lon":5.37165,"is_reserved":false,"is_disabled":true,"rental_uris":{"android":"levelo://app?vid=fdf7f2ab-44d1-4be0-8bdb-ca9bdc3ac2e4","ios":"levelo://app?vid=fdf7f2ab-44d1-4be0-8bdb-ca9bdc3ac2e4"},"vehicle_type_id":"4","last_reported":1743427264,"current_range_meters":2000,"station_id":"ce4bgnh2rcd13ifvqc0g","pricing_plan_id":"cebpf4jnsgd1na2vs0mg"},{"bike_id":"96ac20e8-5840-4579-b371-184ec6253952","system_id":"levelo_inurba_marseille","lat":43.27496,"lon":5.41146,"is_reserved":false,"is_disabled":false,"rental_uris":{"android":"levelo://app?vid=96ac20e8-5840-4579-b371-184ec6253952","ios":"levelo://app?vid=96ac20e8-5840-4579-b371-184ec6253952"},"vehicle_type_id":"4","last_reported":1743427264,"current_range_meters":3200,"station_id":"","pricing_plan_id":"cebpf4jnsgd1na2vs0mg"},{"bike_id":"fec946ab-79d1-48d6-85d9-a26d417f3d05","system_id":"levelo_inurba_marseille","lat":43.29847,"lon":5.36292,"is_reserved":false,"is_disabled":false,"rental_uris":{"android":"levelo://app?vid=fec946ab-79d1-48d6-85d9-a26d417f3d05","ios":"levelo://app?vid=fec946ab-79d1-48d6-85d9-a26d417f3d05"},"vehicle_type_id":"4","last_reported":1743427264,"current_range_meters":3200,"station_id":"ce4bgpp2rcd13ifvqc3g","pricing_plan_id":"cebpf4jnsgd1na2vs0mg"},{"bike_id":"11dbb00b-4ce7-47f9-b1e7-02b660ce5fba","system_id":"levelo_inurba_marseille","lat":43.282623,"lon":5.3508,"is_reserved":false,"is_disabled":false,"rental_uris":{"android":"levelo://app?vid=11dbb00b-4ce7-47f9-b1e7-02b660ce5fba","ios":"levelo://app?vid=11dbb00b-4ce7-47f9-b1e7-02b660ce5fba"},"vehicle_type_id":"4","last_reported":1743427264,"current_range_meters":3200,"station_id":"ce4bhh12rcd13ifvqff0","pricing_plan_id":"cebpf4jnsgd1na2vs0mg"},{"bike_id":"cfbdea25-314d-4c52-b270-796ce5c6b0bb","system_id":"levelo_inurba_marseille","lat":43.275623,"lon":5.384197,"is_reserved":false,"is_disabled":false,"rental_uris":{"android":"levelo://app?vid=cfbdea25-314d-4c52-b270-796ce5c6b0bb","ios":"levelo://app?vid=cfbdea25-314d-4c52-b270-796ce5c6b0bb"},"vehicle_type_id":"4","last_reported":1743427264,"current_range_meters":3600,"station_id":"ce4bhh92rcd13ifvqfi0","pricing_plan_id":"cebpf4jnsgd1na2vs0mg"},{"bike_id":"d0ed36b4-3c5a-4da6-8fb4-955c321dd03a","system_id":"levelo_inurba_marseille","lat":43.27514,"lon":5.4104,"is_reserved":false,"is_disabled":false,"rental_uris":{"android":"levelo://app?vid=d0ed36b4-3c5a-4da6-8fb4-955c321dd03a","ios":"levelo://app?vid=d0ed36b4-3c5a-4da6-8fb4-955c321dd03a"},"vehicle_type_id":"4","last_reported":1743427264,"current_range_meters":4000,"station_id":"","pricing_plan_id":"cebpf4jnsgd1na2vs0mg"},{"bike_id":"309bc824-3942-42fd-a0e3-7a481a97b9b9","system_id":"levelo_inurba_marseille","lat":43.295683,"lon":5.399783,"is_reserved":false,"is_disabled":false,"rental_uris":{"android":"levelo://app?vid=309bc824-3942-42fd-a0e3-7a481a97b9b9","ios":"levelo://app?vid=309bc824-3942-42fd-a0e3-7a481a97b9b9"},"vehicle_type_id":"4","last_reported":1743427264,"current_range_meters":4000,"station_id":"ce4bgvp2rcd13ifvqct0","pricing_plan_id":"cebpf4jnsgd1na2vs0mg"},{"bike_id":"3e91310f-7d8e-4c10-a2df-54d96bc1aa63","system_id":"levelo_inurba_marseille","lat":43.26214,"lon":5.37442,"is_reserved":false,"is_disabled":false,"rental_uris":{"android":"levelo://app?vid=3e91310f-7d8e-4c10-a2df-54d96bc1aa63","ios":"levelo://app?vid=3e91310f-7d8e-4c10-a2df-54d96bc1aa63"},"vehicle_type_id":"4","last_reported":1743427264,"current_range_meters":4000,"station_id":"ce4bhgp2rcd13ifvqfc0","pricing_plan_id":"cebpf4jnsgd1na2vs0mg"},{"bike_id":"24d0577b-a24a-498e-aac7-2874a34a4185","system_id":"levelo_inurba_marseille","lat":43.26503,"lon":5.39538,"is_reserved":false,"is_disabled":false,"rental_uris":{"android":"levelo://app?vid=24d0577b-a24a-498e-aac7-2874a34a4185","ios":"levelo://app?vid=24d0577b-a24a-498e-aac7-2874a34a4185"},"vehicle_type_id":"4","last_reported":1743427264,"current_range_meters":4000,"station_id":"ce4bhi12rcd13ifvqfq0","pricing_plan_id":"cebpf4jnsgd1na2vs0mg"},{"bike_id":"bc8dcc8a-2d10-40c0-9625-d88e9e5ff3e9","system_id":"levelo_inurba_marseille","lat":43.23065,"lon":5.35503,"is_reserved":false,"is_disabled":false,"rental_uris":{"android":"levelo://app?vid=bc8dcc8a-2d10-40c0-9625-d88e9e5ff3e9","ios":"levelo://app?vid=bc8dcc8a-2d10-40c0-9625-d88e9e5ff3e9"},"vehicle_type_id":"4","last_reported":1743427264,"current_range_meters":4000,"station_id":"cpo3342slgdg3j2ifvpg","pricing_plan_id":"cebpf4jnsgd1na2vs0mg"},{"bike_id":"292f8a19-f233-4e51-9a26-c3a52018dc73","system_id":"levelo_inurba_marseille","lat":43.27063,"lon":5.42268,"is_reserved":false,"is_disabled":false,"rental_uris":{"android":"levelo://app?vid=292f8a19-f233-4e51-9a26-c3a52018dc73","ios":"levelo://app?vid=292f8a19-f233-4e51-9a26-c3a52018dc73"},"vehicle_type_id":"4","last_reported":1743427264,"current_range_meters":4400,"station_id":"ce4bhk92rcd13ifvqgb0","pricing_plan_id":"cebpf4jnsgd1na2vs0mg"},{"bike_id":"384b53be-0dd1-4ff6-96b3-76e22c52ec3c","system_id":"levelo_inurba_marseille","lat":43.27598,"lon":5.42274,"is_reserved":false,"is_disabled":false,"rental_uris":{"android":"levelo://app?vid=384b53be-0dd1-4ff6-96b3-76e22c52ec3c","ios":"levelo://app?vid=384b53be-0dd1-4ff6-96b3-76e22c52ec3c"},"vehicle_type_id":"4","last_reported":1743427264,"current_range_meters":4800,"station_id":"","pricing_plan_id":"cebpf4jnsgd1na2vs0mg"},{"bike_id":"c270a7ba-d174-46a3-b308-158e7d9b1810","system_id":"levelo_inurba_marseille","lat":43.30799,"lon":5.38146,"is_reserved":false,"is_disabled":false,"rental_uris":{"android":"levelo://app?vid=c270a7ba-d174-46a3-b308-158e7d9b1810","ios":"levelo://app?vid=c270a7ba-d174-46a3-b308-158e7d9b1810"},"vehicle_type_id":"4","last_reported":1743427264,"current_range_meters":4800,"station_id":"ce4bgt12rcd13ifvqce0","pricing_plan_id":"cebpf4jnsgd1na2vs0mg"},{"bike_id":"b4294206-61ae-4a68-8346-c5a24206bd63","system_id":"levelo_inurba_marseille","lat":43.26234,"lon":5.40453,"is_reserved":false,"is_disabled":false,"rental_uris":{"android":"levelo://app?vid=b4294206-61ae-4a68-8346-c5a24206bd63","ios":"levelo://app?vid=b4294206-61ae-4a68-8346-c5a24206bd63"},"vehicle_type_id":"4","last_reported":1743427264,"current_range_meters":4800,"station_id":"ce4bhmh2rcd13ifvqgmg","pricing_plan_id":"cebpf4jnsgd1na2vs0mg"},{"bike_id":"7874ab53-b794-423d-979a-dbe693ec92c4","system_id":"levelo_inurba_marseille","lat":43.29422,"lon":5.38623,"is_reserved":false,"is_disabled":false,"rental_uris":{"android":"levelo://app?vid=7874ab53-b794-423d-979a-dbe693ec92c4","ios":"levelo://app?vid=7874ab53-b794-423d-979a-dbe693ec92c4"},"vehicle_type_id":"4","last_reported":1743427264,"current_range_meters":5600,"station_id":"ce4bh2h2rcd13ifvqdh0","pricing_plan_id":"cebpf4jnsgd1na2vs0mg"},{"bike_id":"d7863d98-288a-4bb0-aeba-3e95231e217b","system_id":"levelo_inurba_marseille","lat":43.28043,"lon":5.36947,"is_reserved":false,"is_disabled":false,"rental_uris":{"android":"levelo://app?vid=d7863d98-288a-4bb0-aeba-3e95231e217b","ios":"levelo://app?vid=d7863d98-288a-4bb0-aeba-3e95231e217b"},"vehicle_type_id":"4","last_reported":1743427264,"current_range_meters":5600,"station_id":"ce4bha12rcd13ifvqef0","pricing_plan_id":"cebpf4jnsgd1na2vs0mg"},{"bike_id":"2030f8c9-cb66-4272-bf0a-b03e46fd2106","system_id":"levelo_inurba_marseille","lat":43.231497,"lon":5.437192,"is_reserved":false,"is_disabled":false,"rental_uris":{"android":"levelo://app?vid=2030f8c9-cb66-4272-bf0a-b03e46fd2106","ios":"levelo://app?vid=2030f8c9-cb66-4272-bf0a-b03e46fd2106"},"vehicle_type_id":"4","last_reported":1743427264,"current_range_meters":5600,"station_id":"ce4bhmp2rcd13ifvqgog","pricing_plan_id":"cebpf4jnsgd1na2vs0mg"},{"bike_id":"36438f87-de35-42e6-84d1-312e6a8359ec","system_id":"levelo_inurba_marseille","lat":43.24166,"lon":5.39684,"is_reserved":false,"is_disabled":false,"rental_uris":{"android":"levelo://app?vid=36438f87-de35-42e6-84d1-312e6a8359ec","ios":"levelo://app?vid=36438f87-de35-42e6-84d1-312e6a8359ec"},"vehicle_type_id":"4","last_reported":1743427264,"current_range_meters":5600,"station_id":"ce4bhn12rcd13ifvqgpg","pricing_plan_id":"cebpf4jnsgd1na2vs0mg"},{"bike_id":"d2da6952-2684-4a68-9602-25ee465e12c3","system_id":"levelo_inurba_marseille","lat":43.30545,"lon":5.36541,"is_reserved":false,"is_disabled":false,"rental_uris":{"android":"levelo://app?vid=d2da6952-2684-4a68-9602-25ee465e12c3","ios":"levelo://app?vid=d2da6952-2684-4a68-9602-25ee465e12c3"},"vehicle_type_id":"4","last_reported":1743427264,"current_range_meters":6000,"station_id":"ce4bgs12rcd13ifvqcag","pricing_plan_id":"cebpf4jnsgd1na2vs0mg"},{"bike_id":"700fc2e2-88a4-4627-8337-fc3b3aacf804","system_id":"levelo_inurba_marseille","lat":43.27373,"lon":5.36263,"is_reserved":false,"is_disabled":false,"rental_uris":{"android":"levelo://app?vid=700fc2e2-88a4-4627-8337-fc3b3aacf804","ios":"levelo://app?vid=700fc2e2-88a4-4627-8337-fc3b3aacf804"},"vehicle_type_id":"4","last_reported":1743427264,"current_range_meters":6000,"station_id":"ce4bhbh2rcd13ifvqeo0","pricing_plan_id":"cebpf4jnsgd1na2vs0mg"},{"bike_id":"72fdb279-423e-49c8-a30b-f406d7440799","system_id":"levelo_inurba_marseille","lat":43.27376,"lon":5.36268,"is_reserved":false,"is_disabled":false,"rental_uris":{"android":"levelo://app?vid=72fdb279-423e-49c8-a30b-f406d7440799","ios":"levelo://app?vid=72fdb279-423e-49c8-a30b-f406d7440799"},"vehicle_type_id":"4","last_reported":1743427264,"current_range_meters":6000,"station_id":"ce4bhbh2rcd13ifvqeo0","pricing_plan_id":"cebpf4jnsgd1na2vs0mg"},{"bike_id":"00b91fe9-a571-4f74-9056-919ca3499f61","system_id":"levelo_inurba_marseille","lat":43.26217,"lon":5.37454,"is_reserved":false,"is_disabled":false,"rental_uris":{"android":"levelo://app?vid=00b91fe9-a571-4f74-9056-919ca3499f61","ios":"levelo://app?vid=00b91fe9-a571-4f74-9056-919ca3499f61"},"vehicle_type_id":"4","last_reported":1743427264,"current_range_meters":6000,"station_id":"ce4bhgp2rcd13ifvqfc0","pricing_plan_id":"cebpf4jnsgd1na2vs0mg"},{"bike_id":"93b55f3d-b1dd-4f3f-b1f6-f78029e736da","system_id":"levelo_inurba_marseille","lat":43.23153,"lon":5.43729,"is_reserved":false,"is_disabled":false,"rental_uris":{"android":"levelo://app?vid=93b55f3d-b1dd-4f3f-b1f6-f78029e736da","ios":"levelo://app?vid=93b55f3d-b1dd-4f3f-b1f6-f78029e736da"},"vehicle_type_id":"4","last_reported":1743427264,"current_range_meters":6000,"station_id":"ce4bhmp2rcd13ifvqgog","pricing_plan_id":"cebpf4jnsgd1na2vs0mg"},{"bike_id":"2d59f2e9-2b0d-4dfb-ae4f-753d8607f23f","system_id":"levelo_inurba_marseille","lat":43.24176,"lon":5.39731,"is_reserved":false,"is_disabled":false,"rental_uris":{"android":"levelo://app?vid=2d59f2e9-2b0d-4dfb-ae4f-753d8607f23f","ios":"levelo://app?vid=2d59f2e9-2b0d-4dfb-ae4f-753d8607f23f"},"vehicle_type_id":"4","last_reported":1743427264,"current_range_meters":6000,"station_id":"ce4bhn12rcd13ifvqgpg","pricing_plan_id":"cebpf4jnsgd1na2vs0mg"},{"bike_id":"e72673f4-b2fe-426b-b390-f70125747c61","system_id":"levelo_inurba_marseille","lat":43.24081,"lon":5.37751,"is_reserved":false,"is_disabled":false,"rental_uris":{"android":"levelo://app?vid=e72673f4-b2fe-426b-b390-f70125747c61","ios":"levelo://app?vid=e72673f4-b2fe-426b-b390-f70125747c61"},"vehicle_type_id":"4","last_reported":1743427264,"current_range_meters":6000,"station_id":"ce4bhnp2rcd13ifvqgvg","pricing_plan_id":"cebpf4jnsgd1na2vs0mg"},{"bike_id":"b4f8a49c-a9d1-4682-8c09-20820c62e7e8","system_id":"levelo_inurba_marseille","lat":43.26807,"lon":5.40271,"is_reserved":false,"is_disabled":false,"rental_uris":{"android":"levelo://app?vid=b4f8a49c-a9d1-4682-8c09-20820c62e7e8","ios":"levelo://app?vid=b4f8a49c-a9d1-4682-8c09-20820c62e7e8"},"vehicle_type_id":"4","last_reported":1743427264,"current_range_meters":6000,"station_id":"ce501612rcd8frsf0b60","pricing_plan_id":"cebpf4jnsgd1na2vs0mg"},{"bike_id":"18a0240a-4b66-4de0-8774-60a112f77be3","system_id":"levelo_inurba_marseille","lat":43.31222,"lon":5.36817,"is_reserved":false,"is_disabled":false,"rental_uris":{"android":"levelo://app?vid=18a0240a-4b66-4de0-8774-60a112f77be3","ios":"levelo://app?vid=18a0240a-4b66-4de0-8774-60a112f77be3"},"vehicle_type_id":"4","last_reported":1743427264,"current_range_meters":6400,"station_id":"ce4bgl92rcd13ifvqbq0","pricing_plan_id":"cebpf4jnsgd1na2vs0mg"},{"bike_id":"26febead-b7d3-4531-87e0-18f41eca5408","system_id":"levelo_inurba_marseille","lat":43.29862,"lon":5.36285,"is_reserved":false,"is_disabled":false,"rental_uris":{"android":"levelo://app?vid=26febead-b7d3-4531-87e0-18f41eca5408","ios":"levelo://app?vid=26febead-b7d3-4531-87e0-18f41eca5408"},"vehicle_type_id":"4","last_reported":1743427264,"current_range_meters":6400,"station_id":"ce4bgpp2rcd13ifvqc3g","pricing_plan_id":"cebpf4jnsgd1na2vs0mg"},{"bike_id":"2201fb24-281b-488f-b78d-a2cece1a8ca9","system_id":"levelo_inurba_marseille","lat":43.30554,"lon":5.36521,"is_reserved":false,"is_disabled":false,"rental_uris":{"android":"levelo://app?vid=2201fb24-281b-488f-b78d-a2cece1a8ca9","ios":"levelo://app?vid=2201fb24-281b-488f-b78d-a2cece1a8ca9"},"vehicle_type_id":"4","last_reported":1743427264,"current_range_meters":6400,"station_id":"ce4bgs12rcd13ifvqcag","pricing_plan_id":"cebpf4jnsgd1na2vs0mg"},{"bike_id":"6abfcf76-b46b-48ec-9741-222295465860","system_id":"levelo_inurba_marseille","lat":43.28646,"lon":5.37071,"is_reserved":false,"is_disabled":false,"rental_uris":{"android":"levelo://app?vid=6abfcf76-b46b-48ec-9741-222295465860","ios":"levelo://app?vid=6abfcf76-b46b-48ec-9741-222295465860"},"vehicle_type_id":"4","last_reported":1743427264,"current_range_meters":6400,"station_id":"ce4bh312rcd13ifvqdj0","pricing_plan_id":"cebpf4jnsgd1na2vs0mg"},{"bike_id":"33a2857d-fc02-4112-94e5-d394d3d364f0","system_id":"levelo_inurba_marseille","lat":43.31226,"lon":5.36859,"is_reserved":false,"is_disabled":false,"rental_uris":{"android":"levelo://app?vid=33a2857d-fc02-4112-94e5-d394d3d364f0","ios":"levelo://app?vid=33a2857d-fc02-4112-94e5-d394d3d364f0"},"vehicle_type_id":"4","last_reported":1743427264,"current_range_meters":6800,"station_id":"ce4bgl92rcd13ifvqbq0","pricing_plan_id":"cebpf4jnsgd1na2vs0mg"},{"bike_id":"5d8314b7-c854-429b-bcf8-b220c5971024","system_id":"levelo_inurba_marseille","lat":43.28469,"lon":5.35879,"is_reserved":false,"is_disabled":false,"rental_uris":{"android":"levelo://app?vid=5d8314b7-c854-429b-bcf8-b220c5971024","ios":"levelo://app?vid=5d8314b7-c854-429b-bcf8-b220c5971024"},"vehicle_type_id":"4","last_reported":1743427264,"current_range_meters":6800,"station_id":"ce4bhah2rcd13ifvqei0","pricing_plan_id":"cebpf4jnsgd1na2vs0mg"},{"bike_id":"50700f05-e4a5-4ad3-9e7d-339e94001adb","system_id":"levelo_inurba_marseille","lat":43.2901,"lon":5.3561,"is_reserved":false,"is_disabled":false,"rental_uris":{"android":"levelo://app?vid=50700f05-e4a5-4ad3-9e7d-339e94001adb","ios":"levelo://app?vid=50700f05-e4a5-4ad3-9e7d-339e94001adb"},"vehicle_type_id":"4","last_reported":1743427264,"current_range_meters":6800,"station_id":"ce4bhb92rcd13ifvqen0","pricing_plan_id":"cebpf4jnsgd1na2vs0mg"},{"bike_id":"d2c4f6a6-3b49-48fa-8ce4-30c6c1998101","system_id":"levelo_inurba_marseille","lat":43.25865,"lon":5.39906,"is_reserved":false,"is_disabled":false,"rental_uris":{"android":"levelo://app?vid=d2c4f6a6-3b49-48fa-8ce4-30c6c1998101","ios":"levelo://app?vid=d2c4f6a6-3b49-48fa-8ce4-30c6c1998101"},"vehicle_type_id":"4","last_reported":1743427264,"current_range_meters":6800,"station_id":"ce4bhl92rcd13ifvqghg","pricing_plan_id":"cebpf4jnsgd1na2vs0mg"},{"bike_id":"5f043ac0-7cd9-4cf8-adee-1f3874e8e8bd","system_id":"levelo_inurba_marseille","lat":43.30548,"lon":5.36516,"is_reserved":false,"is_disabled":false,"rental_uris":{"android":"levelo://app?vid=5f043ac0-7cd9-4cf8-adee-1f3874e8e8bd","ios":"levelo://app?vid=5f043ac0-7cd9-4cf8-adee-1f3874e8e8bd"},"vehicle_type_id":"4","last_reported":1743427264,"current_range_meters":7200,"station_id":"ce4bgs12rcd13ifvqcag","pricing_plan_id":"cebpf4jnsgd1na2vs0mg"},{"bike_id":"de4228b3-03a5-47ff-9d90-437251e751dd","system_id":"levelo_inurba_marseille","lat":43.28408,"lon":5.34987,"is_reserved":false,"is_disabled":false,"rental_uris":{"android":"levelo://app?vid=de4228b3-03a5-47ff-9d90-437251e751dd","ios":"levelo://app?vid=de4228b3-03a5-47ff-9d90-437251e751dd"},"vehicle_type_id":"4","last_reported":1743427264,"current_range_meters":7200,"station_id":"ce4bhbh2rcd13ifvqepg","pricing_plan_id":"cebpf4jnsgd1na2vs0mg"},{"bike_id":"36291f21-10e9-409f-9c08-11a98fedd09d","system_id":"levelo_inurba_marseille","lat":43.26558,"lon":5.37289,"is_reserved":false,"is_disabled":false,"rental_uris":{"android":"levelo://app?vid=36291f21-10e9-409f-9c08-11a98fedd09d","ios":"levelo://app?vid=36291f21-10e9-409f-9c08-11a98fedd09d"},"vehicle_type_id":"4","last_reported":1743427264,"current_range_meters":7200,"station_id":"ce4bhg12rcd13ifvqf70","pricing_plan_id":"cebpf4jnsgd1na2vs0mg"},{"bike_id":"581ad151-a541-416f-8ceb-5952a9da3bdb","system_id":"levelo_inurba_marseille","lat":43.23143,"lon":5.43744,"is_reserved":false,"is_disabled":false,"rental_uris":{"android":"levelo://app?vid=581ad151-a541-416f-8ceb-5952a9da3bdb","ios":"levelo://app?vid=581ad151-a541-416f-8ceb-5952a9da3bdb"},"vehicle_type_id":"4","last_reported":1743427264,"current_range_meters":7200,"station_id":"ce4bhmp2rcd13ifvqgog","pricing_plan_id":"cebpf4jnsgd1na2vs0mg"},{"bike_id":"58ba954f-d3fd-4cac-abd2-623144afb52a","system_id":"levelo_inurba_marseille","lat":43.22931,"lon":5.35388,"is_reserved":false,"is_disabled":false,"rental_uris":{"android":"levelo://app?vid=58ba954f-d3fd-4cac-abd2-623144afb52a","ios":"levelo://app?vid=58ba954f-d3fd-4cac-abd2-623144afb52a"},"vehicle_type_id":"4","last_reported":1743427264,"current_range_meters":7200,"station_id":"cpo3532slgdg3j2ikp40","pricing_plan_id":"cebpf4jnsgd1na2vs0mg"},{"bike_id":"96f73177-049f-409e-8102-d49ca3ba506f","system_id":"levelo_inurba_marseille","lat":43.31224,"lon":5.36861,"is_reserved":false,"is_disabled":false,"rental_uris":{"android":"levelo://app?vid=96f73177-049f-409e-8102-d49ca3ba506f","ios":"levelo://app?vid=96f73177-049f-409e-8102-d49ca3ba506f"},"vehicle_type_id":"4","last_reported":1743427264,"current_range_meters":8000,"station_id":"ce4bgl92rcd13ifvqbq0","pricing_plan_id":"cebpf4jnsgd1na2vs0mg"},{"bike_id":"279619a8-acbc-4bff-9d66-55e627f85b01","system_id":"levelo_inurba_marseille","lat":43.29845,"lon":5.36269,"is_reserved":false,"is_disabled":false,"rental_uris":{"android":"levelo://app?vid=279619a8-acbc-4bff-9d66-55e627f85b01","ios":"levelo://app?vid=279619a8-acbc-4bff-9d66-55e627f85b01"},"vehicle_type_id":"4","last_reported":1743427264,"current_range_meters":8000,"station_id":"ce4bgpp2rcd13ifvqc3g","pricing_plan_id":"cebpf4jnsgd1na2vs0mg"},{"bike_id":"d04252f5-1c5b-473d-bca7-9ac5a0ccd39f","system_id":"levelo_inurba_marseille","lat":43.30126,"lon":5.39874,"is_reserved":false,"is_disabled":false,"rental_uris":{"android":"levelo://app?vid=d04252f5-1c5b-473d-bca7-9ac5a0ccd39f","ios":"levelo://app?vid=d04252f5-1c5b-473d-bca7-9ac5a0ccd39f"},"vehicle_type_id":"4","last_reported":1743427264,"current_range_meters":8000,"station_id":"ce4bh0h2rcd13ifvqd40","pricing_plan_id":"cebpf4jnsgd1na2vs0mg"},{"bike_id":"8105ab87-f1cc-4efc-8e6e-fec6554e830d","system_id":"levelo_inurba_marseille","lat":43.28264,"lon":5.35083,"is_reserved":false,"is_disabled":false,"rental_uris":{"android":"levelo://app?vid=8105ab87-f1cc-4efc-8e6e-fec6554e830d","ios":"levelo://app?vid=8105ab87-f1cc-4efc-8e6e-fec6554e830d"},"vehicle_type_id":"4","last_reported":1743427264,"current_range_meters":8000,"station_id":"ce4bhbp2rcd13ifvqerg","pricing_plan_id":"cebpf4jnsgd1na2vs0mg"},{"bike_id":"6948ac7a-e66e-4391-8210-2aedec097489","system_id":"levelo_inurba_marseille","lat":43.26218,"lon":5.37447,"is_reserved":false,"is_disabled":false,"rental_uris":{"android":"levelo://app?vid=6948ac7a-e66e-4391-8210-2aedec097489","ios":"levelo://app?vid=6948ac7a-e66e-4391-8210-2aedec097489"},"vehicle_type_id":"4","last_reported":1743427264,"current_range_meters":8000,"station_id":"ce4bhgp2rcd13ifvqfc0","pricing_plan_id":"cebpf4jnsgd1na2vs0mg"},{"bike_id":"e672d27b-9fd8-4a34-be0c-e3809200516c","system_id":"levelo_inurba_marseille","lat":43.27472,"lon":5.42425,"is_reserved":false,"is_disabled":false,"rental_uris":{"android":"levelo://app?vid=e672d27b-9fd8-4a34-be0c-e3809200516c","ios":"levelo://app?vid=e672d27b-9fd8-4a34-be0c-e3809200516c"},"vehicle_type_id":"4","last_reported":1743427264,"current_range_meters":8000,"station_id":"ce4bhn92rcd13ifvqgrg","pricing_plan_id":"cebpf4jnsgd1na2vs0mg"},{"bike_id":"452ee7ed-aed5-4f3a-80c1-b63ab3953967","system_id":"levelo_inurba_marseille","lat":43.279493,"lon":5.410281,"is_reserved":false,"is_disabled":false,"rental_uris":{"android":"levelo://app?vid=452ee7ed-aed5-4f3a-80c1-b63ab3953967","ios":"levelo://app?vid=452ee7ed-aed5-4f3a-80c1-b63ab3953967"},"vehicle_type_id":"4","last_reported":1743427264,"current_range_meters":8000,"station_id":"ce4bhnp2rcd13ifvqh0g","pricing_plan_id":"cebpf4jnsgd1na2vs0mg"},{"bike_id":"6227088b-8ea7-4271-92b8-c845300adf9a","system_id":"levelo_inurba_marseille","lat":43.32286,"lon":5.36603,"is_reserved":false,"is_disabled":false,"rental_uris":{"android":"levelo://app?vid=6227088b-8ea7-4271-92b8-c845300adf9a","ios":"levelo://app?vid=6227088b-8ea7-4271-92b8-c845300adf9a"},"vehicle_type_id":"4","last_reported":1743427264,"current_range_meters":8000,"station_id":"ce4bhsh2rcd13ifvqi2g","pricing_plan_id":"cebpf4jnsgd1na2vs0mg"},{"bike_id":"6165c5e1-15f4-4779-ba2f-91df8ba3f8c0","system_id":"levelo_inurba_marseille","lat":43.28924,"lon":5.42999,"is_reserved":false,"is_disabled":false,"rental_uris":{"android":"levelo://app?vid=6165c5e1-15f4-4779-ba2f-91df8ba3f8c0","ios":"levelo://app?vid=6165c5e1-15f4-4779-ba2f-91df8ba3f8c0"},"vehicle_type_id":"4","last_reported":1743427264,"current_range_meters":8400,"station_id":"","pricing_plan_id":"cebpf4jnsgd1na2vs0mg"},{"bike_id":"5f81e3aa-32ba-45d1-8394-78c3031b624f","system_id":"levelo_inurba_marseille","lat":43.28402,"lon":5.37538,"is_reserved":false,"is_disabled":false,"rental_uris":{"android":"levelo://app?vid=5f81e3aa-32ba-45d1-8394-78c3031b624f","ios":"levelo://app?vid=5f81e3aa-32ba-45d1-8394-78c3031b624f"},"vehicle_type_id":"4","last_reported":1743427264,"current_range_meters":8400,"station_id":"ce4bh412rcd13ifvqds0","pricing_plan_id":"cebpf4jnsgd1na2vs0mg"},{"bike_id":"c5ebec7a-8fb7-4a21-94c4-c74cc627481c","system_id":"levelo_inurba_marseille","lat":43.28616,"lon":5.35109,"is_reserved":false,"is_disabled":false,"rental_uris":{"android":"levelo://app?vid=c5ebec7a-8fb7-4a21-94c4-c74cc627481c","ios":"levelo://app?vid=c5ebec7a-8fb7-4a21-94c4-c74cc627481c"},"vehicle_type_id":"4","last_reported":1743427264,"current_range_meters":8400,"station_id":"ce4bhch2rcd13ifvqeug","pricing_plan_id":"cebpf4jnsgd1na2vs0mg"},{"bike_id":"1d0f3ce4-674e-4ec0-a180-2b3292ba5ec8","system_id":"levelo_inurba_marseille","lat":43.24174,"lon":5.39716,"is_reserved":false,"is_disabled":false,"rental_uris":{"android":"levelo://app?vid=1d0f3ce4-674e-4ec0-a180-2b3292ba5ec8","ios":"levelo://app?vid=1d0f3ce4-674e-4ec0-a180-2b3292ba5ec8"},"vehicle_type_id":"4","last_reported":1743427264,"current_range_meters":8400,"station_id":"ce4bhn12rcd13ifvqgpg","pricing_plan_id":"cebpf4jnsgd1na2vs0mg"},{"bike_id":"99e7d147-e2b6-4982-8a11-f600737d5497","system_id":"levelo_inurba_marseille","lat":43.31775,"lon":5.36725,"is_reserved":false,"is_disabled":false,"rental_uris":{"android":"levelo://app?vid=99e7d147-e2b6-4982-8a11-f600737d5497","ios":"levelo://app?vid=99e7d147-e2b6-4982-8a11-f600737d5497"},"vehicle_type_id":"4","last_reported":1743427264,"current_range_meters":8800,"station_id":"","pricing_plan_id":"cebpf4jnsgd1na2vs0mg"},{"bike_id":"204ecd7d-d79a-4494-8305-7c83c69add7d","system_id":"levelo_inurba_marseille","lat":43.25681,"lon":5.4199,"is_reserved":false,"is_disabled":false,"rental_uris":{"android":"levelo://app?vid=204ecd7d-d79a-4494-8305-7c83c69add7d","ios":"levelo://app?vid=204ecd7d-d79a-4494-8305-7c83c69add7d"},"vehicle_type_id":"4","last_reported":1743427264,"current_range_meters":8800,"station_id":"","pricing_plan_id":"cebpf4jnsgd1na2vs0mg"},{"bike_id":"9d8048cc-0c35-415c-802a-776b5f4ff1b5","system_id":"levelo_inurba_marseille","lat":43.31379,"lon":5.36688,"is_reserved":false,"is_disabled":false,"rental_uris":{"android":"levelo://app?vid=9d8048cc-0c35-415c-802a-776b5f4ff1b5","ios":"levelo://app?vid=9d8048cc-0c35-415c-802a-776b5f4ff1b5"},"vehicle_type_id":"4","last_reported":1743427264,"current_range_meters":8800,"station_id":"ce4bgr92rcd13ifvqc6g","pricing_plan_id":"cebpf4jnsgd1na2vs0mg"},{"bike_id":"ca0583b7-5669-4753-8262-d8e09aa9fe38","system_id":"levelo_inurba_marseille","lat":43.30544,"lon":5.36554,"is_reserved":false,"is_disabled":false,"rental_uris":{"android":"levelo://app?vid=ca0583b7-5669-4753-8262-d8e09aa9fe38","ios":"levelo://app?vid=ca0583b7-5669-4753-8262-d8e09aa9fe38"},"vehicle_type_id":"4","last_reported":1743427264,"current_range_meters":8800,"station_id":"ce4bgs12rcd13ifvqcag","pricing_plan_id":"cebpf4jnsgd1na2vs0mg"},{"bike_id":"38ee91d5-fde0-4d11-9daa-eba5635925ac","system_id":"levelo_inurba_marseille","lat":43.291994,"lon":5.393229,"is_reserved":false,"is_disabled":false,"rental_uris":{"android":"levelo://app?vid=38ee91d5-fde0-4d11-9daa-eba5635925ac","ios":"levelo://app?vid=38ee91d5-fde0-4d11-9daa-eba5635925ac"},"vehicle_type_id":"4","last_reported":1743427264,"current_range_meters":8800,"station_id":"ce4bh192rcd13ifvqdd0","pricing_plan_id":"cebpf4jnsgd1na2vs0mg"},{"bike_id":"ca69ebd2-9db1-44da-b2d6-95b481c8315a","system_id":"levelo_inurba_marseille","lat":43.28486,"lon":5.38444,"is_reserved":false,"is_disabled":false,"rental_uris":{"android":"levelo://app?vid=ca69ebd2-9db1-44da-b2d6-95b481c8315a","ios":"levelo://app?vid=ca69ebd2-9db1-44da-b2d6-95b481c8315a"},"vehicle_type_id":"4","last_reported":1743427264,"current_range_meters":8800,"station_id":"ce4bh512rcd13ifvqe3g","pricing_plan_id":"cebpf4jnsgd1na2vs0mg"},{"bike_id":"793b1d5c-c6f7-453b-87dd-7d15ceb7ee59","system_id":"levelo_inurba_marseille","lat":43.29235,"lon":5.36076,"is_reserved":false,"is_disabled":false,"rental_uris":{"android":"levelo://app?vid=793b1d5c-c6f7-453b-87dd-7d15ceb7ee59","ios":"levelo://app?vid=793b1d5c-c6f7-453b-87dd-7d15ceb7ee59"},"vehicle_type_id":"4","last_reported":1743427264,"current_range_meters":8800,"station_id":"ce4bhbh2rcd13ifvqeqg","pricing_plan_id":"cebpf4jnsgd1na2vs0mg"},{"bike_id":"8a423c5b-57f1-4052-9547-c2b64f34ded2","system_id":"levelo_inurba_marseille","lat":43.28271,"lon":5.35072,"is_reserved":false,"is_disabled":false,"rental_uris":{"android":"levelo://app?vid=8a423c5b-57f1-4052-9547-c2b64f34ded2","ios":"levelo://app?vid=8a423c5b-57f1-4052-9547-c2b64f34ded2"},"vehicle_type_id":"4","last_reported":1743427264,"current_range_meters":8800,"station_id":"ce4bhbp2rcd13ifvqerg","pricing_plan_id":"cebpf4jnsgd1na2vs0mg"},{"bike_id":"ba1107aa-9b1f-4710-bb75-05314e757fc6","system_id":"levelo_inurba_marseille","lat":43.3168,"lon":5.37241,"is_reserved":false,"is_disabled":false,"rental_uris":{"android":"levelo://app?vid=ba1107aa-9b1f-4710-bb75-05314e757fc6","ios":"levelo://app?vid=ba1107aa-9b1f-4710-bb75-05314e757fc6"},"vehicle_type_id":"4","last_reported":1743427264,"current_range_meters":9200,"station_id":"","pricing_plan_id":"cebpf4jnsgd1na2vs0mg"},{"bike_id":"b26f9ed2-d145-4f98-9341-61ed46133cda","system_id":"levelo_inurba_marseille","lat":43.31498,"lon":5.37307,"is_reserved":false,"is_disabled":false,"rental_uris":{"android":"levelo://app?vid=b26f9ed2-d145-4f98-9341-61ed46133cda","ios":"levelo://app?vid=b26f9ed2-d145-4f98-9341-61ed46133cda"},"vehicle_type_id":"4","last_reported":1743427264,"current_range_meters":9200,"station_id":"ce4bgt12rcd13ifvqcd0","pricing_plan_id":"cebpf4jnsgd1na2vs0mg"},{"bike_id":"371f4c45-c697-4bdf-a243-45faa9e4d451","system_id":"levelo_inurba_marseille","lat":43.29209,"lon":5.3933,"is_reserved":false,"is_disabled":false,"rental_uris":{"android":"levelo://app?vid=371f4c45-c697-4bdf-a243-45faa9e4d451","ios":"levelo://app?vid=371f4c45-c697-4bdf-a243-45faa9e4d451"},"vehicle_type_id":"4","last_reported":1743427264,"current_range_meters":9200,"station_id":"ce4bh192rcd13ifvqdd0","pricing_plan_id":"cebpf4jnsgd1na2vs0mg"},{"bike_id":"39c9d261-3993-4f51-85ed-1b92102da04b","system_id":"levelo_inurba_marseille","lat":43.29173,"lon":5.37178,"is_reserved":false,"is_disabled":false,"rental_uris":{"android":"levelo://app?vid=39c9d261-3993-4f51-85ed-1b92102da04b","ios":"levelo://app?vid=39c9d261-3993-4f51-85ed-1b92102da04b"},"vehicle_type_id":"4","last_reported":1743427264,"current_range_meters":9200,"station_id":"ce4bha92rcd13ifvqeh0","pricing_plan_id":"cebpf4jnsgd1na2vs0mg"},{"bike_id":"4e0f587a-da44-4724-b477-35f665979720","system_id":"levelo_inurba_marseille","lat":43.3372,"lon":5.39201,"is_reserved":false,"is_disabled":false,"rental_uris":{"android":"levelo://app?vid=4e0f587a-da44-4724-b477-35f665979720","ios":"levelo://app?vid=4e0f587a-da44-4724-b477-35f665979720"},"vehicle_type_id":"4","last_reported":1743427264,"current_range_meters":9200,"station_id":"ce4bhr92rcd13ifvqhsg","pricing_plan_id":"cebpf4jnsgd1na2vs0mg"},{"bike_id":"abe50da3-d276-4e2d-89dc-4ba535cd6c8e","system_id":"levelo_inurba_marseille","lat":43.30911,"lon":5.36839,"is_reserved":false,"is_disabled":false,"rental_uris":{"android":"levelo://app?vid=abe50da3-d276-4e2d-89dc-4ba535cd6c8e","ios":"levelo://app?vid=abe50da3-d276-4e2d-89dc-4ba535cd6c8e"},"vehicle_type_id":"4","last_reported":1743427264,"current_range_meters":9600,"station_id":"ce4bgn92rcd13ifvqbvg","pricing_plan_id":"cebpf4jnsgd1na2vs0mg"},{"bike_id":"59619804-8ded-4ad0-af71-484e24142382","system_id":"levelo_inurba_marseille","lat":43.30096,"lon":5.39087,"is_reserved":false,"is_disabled":false,"rental_uris":{"android":"levelo://app?vid=59619804-8ded-4ad0-af71-484e24142382","ios":"levelo://app?vid=59619804-8ded-4ad0-af71-484e24142382"},"vehicle_type_id":"4","last_reported":1743427264,"current_range_meters":9600,"station_id":"ce4bh192rcd13ifvqdb0","pricing_plan_id":"cebpf4jnsgd1na2vs0mg"},{"bike_id":"b68d4786-069f-4c7b-9468-6b74a0db0d7a","system_id":"levelo_inurba_marseille","lat":43.28699,"lon":5.37397,"is_reserved":false,"is_disabled":false,"rental_uris":{"android":"levelo://app?vid=b68d4786-069f-4c7b-9468-6b74a0db0d7a","ios":"levelo://app?vid=b68d4786-069f-4c7b-9468-6b74a0db0d7a"},"vehicle_type_id":"4","last_reported":1743427264,"current_range_meters":9600,"station_id":"ce4bh3p2rcd13ifvqdq0","pricing_plan_id":"cebpf4jnsgd1na2vs0mg"},{"bike_id":"928588b7-385f-4e1a-949e-46f089379cbf","system_id":"levelo_inurba_marseille","lat":43.28267,"lon":5.35078,"is_reserved":false,"is_disabled":false,"rental_uris":{"android":"levelo://app?vid=928588b7-385f-4e1a-949e-46f089379cbf","ios":"levelo://app?vid=928588b7-385f-4e1a-949e-46f089379cbf"},"vehicle_type_id":"4","last_reported":1743427264,"current_range_meters":9600,"station_id":"ce4bhbp2rcd13ifvqerg","pricing_plan_id":"cebpf4jnsgd1na2vs0mg"},{"bike_id":"c2bfe4e5-d6f1-44a1-80af-6375f55bf609","system_id":"levelo_inurba_marseille","lat":43.25582,"lon":5.38242,"is_reserved":false,"is_disabled":false,"rental_uris":{"android":"levelo://app?vid=c2bfe4e5-d6f1-44a1-80af-6375f55bf609","ios":"levelo://app?vid=c2bfe4e5-d6f1-44a1-80af-6375f55bf609"},"vehicle_type_id":"4","last_reported":1743427264,"current_range_meters":9600,"station_id":"ce4bhih2rcd13ifvqfs0","pricing_plan_id":"cebpf4jnsgd1na2vs0mg"},{"bike_id":"17883c73-0f61-452e-9f07-988d5933a738","system_id":"levelo_inurba_marseille","lat":43.27069,"lon":5.42282,"is_reserved":false,"is_disabled":false,"rental_uris":{"android":"levelo://app?vid=17883c73-0f61-452e-9f07-988d5933a738","ios":"levelo://app?vid=17883c73-0f61-452e-9f07-988d5933a738"},"vehicle_type_id":"4","last_reported":1743427264,"current_range_meters":9600,"station_id":"ce4bhk92rcd13ifvqgb0","pricing_plan_id":"cebpf4jnsgd1na2vs0mg"},{"bike_id":"121010d1-d0ea-475b-97a6-f9054736109c","system_id":"levelo_inurba_marseille","lat":43.23197,"lon":5.40004,"is_reserved":false,"is_disabled":false,"rental_uris":{"android":"levelo://app?vid=121010d1-d0ea-475b-97a6-f9054736109c","ios":"levelo://app?vid=121010d1-d0ea-475b-97a6-f9054736109c"},"vehicle_type_id":"4","last_reported":1743427264,"current_range_meters":9600,"station_id":"ce4bhn12rcd13ifvqgqg","pricing_plan_id":"cebpf4jnsgd1na2vs0mg"},{"bike_id":"3550a36d-3c45-4392-b638-e4bfcd519444","system_id":"levelo_inurba_marseille","lat":43.29909,"lon":5.38152,"is_reserved":false,"is_disabled":false,"rental_uris":{"android":"levelo://app?vid=3550a36d-3c45-4392-b638-e4bfcd519444","ios":"levelo://app?vid=3550a36d-3c45-4392-b638-e4bfcd519444"},"vehicle_type_id":"4","last_reported":1743427264,"current_range_meters":10000,"station_id":"ce4bgj12rcd13ifvqbc0","pricing_plan_id":"cebpf4jnsgd1na2vs0mg"},{"bike_id":"c2df009a-5220-4761-a9ef-d2491636e1bd","system_id":"levelo_inurba_marseille","lat":43.30135,"lon":5.39855,"is_reserved":false,"is_disabled":false,"rental_uris":{"android":"levelo://app?vid=c2df009a-5220-4761-a9ef-d2491636e1bd","ios":"levelo://app?vid=c2df009a-5220-4761-a9ef-d2491636e1bd"},"vehicle_type_id":"4","last_reported":1743427264,"current_range_meters":10000,"station_id":"ce4bh0h2rcd13ifvqd40","pricing_plan_id":"cebpf4jnsgd1na2vs0mg"},{"bike_id":"9fab5df0-7ad0-453e-a9d8-f0bd7a38fdc4","system_id":"levelo_inurba_marseille","lat":43.29045,"lon":5.39957,"is_reserved":false,"is_disabled":false,"rental_uris":{"android":"levelo://app?vid=9fab5df0-7ad0-453e-a9d8-f0bd7a38fdc4","ios":"levelo://app?vid=9fab5df0-7ad0-453e-a9d8-f0bd7a38fdc4"},"vehicle_type_id":"4","last_reported":1743427264,"current_range_meters":10000,"station_id":"ce4bh392rcd13ifvqdm0","pricing_plan_id":"cebpf4jnsgd1na2vs0mg"},{"bike_id":"cd4c796a-dd7d-4683-aa9e-b566ad8e8a64","system_id":"levelo_inurba_marseille","lat":43.28615,"lon":5.35108,"is_reserved":false,"is_disabled":false,"rental_uris":{"android":"levelo://app?vid=cd4c796a-dd7d-4683-aa9e-b566ad8e8a64","ios":"levelo://app?vid=cd4c796a-dd7d-4683-aa9e-b566ad8e8a64"},"vehicle_type_id":"4","last_reported":1743427264,"current_range_meters":10000,"station_id":"ce4bhch2rcd13ifvqeug","pricing_plan_id":"cebpf4jnsgd1na2vs0mg"},{"bike_id":"fbc1c0a9-d425-4eb3-ba26-c96313abb304","system_id":"levelo_inurba_marseille","lat":43.28614,"lon":5.35107,"is_reserved":false,"is_disabled":false,"rental_uris":{"android":"levelo://app?vid=fbc1c0a9-d425-4eb3-ba26-c96313abb304","ios":"levelo://app?vid=fbc1c0a9-d425-4eb3-ba26-c96313abb304"},"vehicle_type_id":"4","last_reported":1743427264,"current_range_meters":10000,"station_id":"ce4bhch2rcd13ifvqeug","pricing_plan_id":"cebpf4jnsgd1na2vs0mg"},{"bike_id":"e7007ff1-efdb-49d2-9541-86c3a667ec4a","system_id":"levelo_inurba_marseille","lat":43.24393,"lon":5.37059,"is_reserved":false,"is_disabled":false,"rental_uris":{"android":"levelo://app?vid=e7007ff1-efdb-49d2-9541-86c3a667ec4a","ios":"levelo://app?vid=e7007ff1-efdb-49d2-9541-86c3a667ec4a"},"vehicle_type_id":"4","last_reported":1743427264,"current_range_meters":10000,"station_id":"ce4bhhh2rcd13ifvqfk0","pricing_plan_id":"cebpf4jnsgd1na2vs0mg"},{"bike_id":"f37d3164-e3eb-40e3-a529-6dd0e2ed7b46","system_id":"levelo_inurba_marseille","lat":43.34154,"lon":5.40898,"is_reserved":false,"is_disabled":false,"rental_uris":{"android":"levelo://app?vid=f37d3164-e3eb-40e3-a529-6dd0e2ed7b46","ios":"levelo://app?vid=f37d3164-e3eb-40e3-a529-6dd0e2ed7b46"},"vehicle_type_id":"4","last_reported":1743427264,"current_range_meters":10000,"station_id":"ce4bhqh2rcd13ifvqhlg","pricing_plan_id":"cebpf4jnsgd1na2vs0mg"},{"bike_id":"443b1ee5-f3f9-4110-95a2-b62fcdfc5153","system_id":"levelo_inurba_marseille","lat":43.23069,"lon":5.35488,"is_reserved":false,"is_disabled":false,"rental_uris":{"android":"levelo://app?vid=443b1ee5-f3f9-4110-95a2-b62fcdfc5153","ios":"levelo://app?vid=443b1ee5-f3f9-4110-95a2-b62fcdfc5153"},"vehicle_type_id":"4","last_reported":1743427264,"current_range_meters":10000,"station_id":"cpo3342slgdg3j2ifvpg","pricing_plan_id":"cebpf4jnsgd1na2vs0mg"},{"bike_id":"2bf31f9f-c5c0-434c-ab3b-b017d7dc966d","system_id":"levelo_inurba_marseille","lat":43.23046,"lon":5.35495,"is_reserved":false,"is_disabled":false,"rental_uris":{"android":"levelo://app?vid=2bf31f9f-c5c0-434c-ab3b-b017d7dc966d","ios":"levelo://app?vid=2bf31f9f-c5c0-434c-ab3b-b017d7dc966d"},"vehicle_type_id":"4","last_reported":1743427264,"current_range_meters":10000,"station_id":"cpo3342slgdg3j2ifvpg","pricing_plan_id":"cebpf4jnsgd1na2vs0mg"},{"bike_id":"0f8f638f-6c59-4dfb-ab4f-882d40e453aa","system_id":"levelo_inurba_marseille","lat":43.29297,"lon":5.42785,"is_reserved":false,"is_disabled":false,"rental_uris":{"android":"levelo://app?vid=0f8f638f-6c59-4dfb-ab4f-882d40e453aa","ios":"levelo://app?vid=0f8f638f-6c59-4dfb-ab4f-882d40e453aa"},"vehicle_type_id":"4","last_reported":1743427264,"current_range_meters":10800,"station_id":"","pricing_plan_id":"cebpf4jnsgd1na2vs0mg"},{"bike_id":"4e1ca3ee-d3a7-4521-86a6-2f5702f39c3b","system_id":"levelo_inurba_marseille","lat":43.29711,"lon":5.36616,"is_reserved":false,"is_disabled":false,"rental_uris":{"android":"levelo://app?vid=4e1ca3ee-d3a7-4521-86a6-2f5702f39c3b","ios":"levelo://app?vid=4e1ca3ee-d3a7-4521-86a6-2f5702f39c3b"},"vehicle_type_id":"4","last_reported":1743427264,"current_range_meters":10800,"station_id":"ce4bgn12rcd13ifvqbt0","pricing_plan_id":"cebpf4jnsgd1na2vs0mg"},{"bike_id":"a49051c8-5f06-4471-9ba7-c2f53f6d878a","system_id":"levelo_inurba_marseille","lat":43.28425,"lon":5.34992,"is_reserved":false,"is_disabled":false,"rental_uris":{"android":"levelo://app?vid=a49051c8-5f06-4471-9ba7-c2f53f6d878a","ios":"levelo://app?vid=a49051c8-5f06-4471-9ba7-c2f53f6d878a"},"vehicle_type_id":"4","last_reported":1743427264,"current_range_meters":10800,"station_id":"ce4bhbh2rcd13ifvqepg","pricing_plan_id":"cebpf4jnsgd1na2vs0mg"},{"bike_id":"a358dfe8-8e12-4102-9fc4-95ff5ba6904c","system_id":"levelo_inurba_marseille","lat":43.28613,"lon":5.35104,"is_reserved":false,"is_disabled":false,"rental_uris":{"android":"levelo://app?vid=a358dfe8-8e12-4102-9fc4-95ff5ba6904c","ios":"levelo://app?vid=a358dfe8-8e12-4102-9fc4-95ff5ba6904c"},"vehicle_type_id":"4","last_reported":1743427264,"current_range_meters":10800,"station_id":"ce4bhch2rcd13ifvqeug","pricing_plan_id":"cebpf4jnsgd1na2vs0mg"},{"bike_id":"b2859a9e-1c34-444e-8ae5-95896cb01a06","system_id":"levelo_inurba_marseille","lat":43.2549,"lon":5.37655,"is_reserved":false,"is_disabled":false,"rental_uris":{"android":"levelo://app?vid=b2859a9e-1c34-444e-8ae5-95896cb01a06","ios":"levelo://app?vid=b2859a9e-1c34-444e-8ae5-95896cb01a06"},"vehicle_type_id":"4","last_reported":1743427264,"current_range_meters":10800,"station_id":"ce4bhh12rcd13ifvqff0","pricing_plan_id":"cebpf4jnsgd1na2vs0mg"},{"bike_id":"8fa5fb11-10c8-4bed-b75c-83f4c72259ad","system_id":"levelo_inurba_marseille","lat":43.32346,"lon":5.36692,"is_reserved":false,"is_disabled":false,"rental_uris":{"android":"levelo://app?vid=8fa5fb11-10c8-4bed-b75c-83f4c72259ad","ios":"levelo://app?vid=8fa5fb11-10c8-4bed-b75c-83f4c72259ad"},"vehicle_type_id":"4","last_reported":1743427264,"current_range_meters":10800,"station_id":"ce4bhsh2rcd13ifvqi2g","pricing_plan_id":"cebpf4jnsgd1na2vs0mg"},{"bike_id":"24aeb6db-a1a4-4c4b-913d-83612f84d7f2","system_id":"levelo_inurba_marseille","lat":43.31322,"lon":5.36718,"is_reserved":false,"is_disabled":false,"rental_uris":{"android":"levelo://app?vid=24aeb6db-a1a4-4c4b-913d-83612f84d7f2","ios":"levelo://app?vid=24aeb6db-a1a4-4c4b-913d-83612f84d7f2"},"vehicle_type_id":"4","last_reported":1743427264,"current_range_meters":11200,"station_id":"ce4bgr92rcd13ifvqc6g","pricing_plan_id":"cebpf4jnsgd1na2vs0mg"},{"bike_id":"62a352a9-0092-4e85-b918-33af38c7454c","system_id":"levelo_inurba_marseille","lat":43.314972,"lon":5.372867,"is_reserved":false,"is_disabled":false,"rental_uris":{"android":"levelo://app?vid=62a352a9-0092-4e85-b918-33af38c7454c","ios":"levelo://app?vid=62a352a9-0092-4e85-b918-33af38c7454c"},"vehicle_type_id":"4","last_reported":1743427264,"current_range_meters":11200,"station_id":"ce4bgt12rcd13ifvqcd0","pricing_plan_id":"cebpf4jnsgd1na2vs0mg"},{"bike_id":"3cd47e72-8f57-4c13-af72-4a4840e19c33","system_id":"levelo_inurba_marseille","lat":43.28272,"lon":5.35066,"is_reserved":false,"is_disabled":false,"rental_uris":{"android":"levelo://app?vid=3cd47e72-8f57-4c13-af72-4a4840e19c33","ios":"levelo://app?vid=3cd47e72-8f57-4c13-af72-4a4840e19c33"},"vehicle_type_id":"4","last_reported":1743427264,"current_range_meters":11200,"station_id":"ce4bhbp2rcd13ifvqerg","pricing_plan_id":"cebpf4jnsgd1na2vs0mg"},{"bike_id":"6fa97106-103e-4571-85c0-458067ed9648","system_id":"levelo_inurba_marseille","lat":43.22931,"lon":5.35376,"is_reserved":false,"is_disabled":false,"rental_uris":{"android":"levelo://app?vid=6fa97106-103e-4571-85c0-458067ed9648","ios":"levelo://app?vid=6fa97106-103e-4571-85c0-458067ed9648"},"vehicle_type_id":"4","last_reported":1743427264,"current_range_meters":11200,"station_id":"cpo3532slgdg3j2ikp40","pricing_plan_id":"cebpf4jnsgd1na2vs0mg"},{"bike_id":"92fc1d36-1fe7-4bcf-b2c5-fc0e570ebf39","system_id":"levelo_inurba_marseille","lat":43.30534,"lon":5.36546,"is_reserved":false,"is_disabled":false,"rental_uris":{"android":"levelo://app?vid=92fc1d36-1fe7-4bcf-b2c5-fc0e570ebf39","ios":"levelo://app?vid=92fc1d36-1fe7-4bcf-b2c5-fc0e570ebf39"},"vehicle_type_id":"4","last_reported":1743427264,"current_range_meters":11600,"station_id":"ce4bgs12rcd13ifvqcag","pricing_plan_id":"cebpf4jnsgd1na2vs0mg"},{"bike_id":"285fa790-3775-479b-9dc1-994f548672b5","system_id":"levelo_inurba_marseille","lat":43.28421,"lon":5.34988,"is_reserved":false,"is_disabled":false,"rental_uris":{"android":"levelo://app?vid=285fa790-3775-479b-9dc1-994f548672b5","ios":"levelo://app?vid=285fa790-3775-479b-9dc1-994f548672b5"},"vehicle_type_id":"4","last_reported":1743427264,"current_range_meters":11600,"station_id":"ce4bhbh2rcd13ifvqepg","pricing_plan_id":"cebpf4jnsgd1na2vs0mg"},{"bike_id":"e3ed6a7b-116d-4bce-98f8-0c4519635233","system_id":"levelo_inurba_marseille","lat":43.31964,"lon":5.37401,"is_reserved":false,"is_disabled":false,"rental_uris":{"android":"levelo://app?vid=e3ed6a7b-116d-4bce-98f8-0c4519635233","ios":"levelo://app?vid=e3ed6a7b-116d-4bce-98f8-0c4519635233"},"vehicle_type_id":"4","last_reported":1743427264,"current_range_meters":12000,"station_id":"","pricing_plan_id":"cebpf4jnsgd1na2vs0mg"},{"bike_id":"55ed005a-cf9d-47ac-b4e6-122e563a35eb","system_id":"levelo_inurba_marseille","lat":43.30321,"lon":5.36907,"is_reserved":false,"is_disabled":false,"rental_uris":{"android":"levelo://app?vid=55ed005a-cf9d-47ac-b4e6-122e563a35eb","ios":"levelo://app?vid=55ed005a-cf9d-47ac-b4e6-122e563a35eb"},"vehicle_type_id":"4","last_reported":1743427264,"current_range_meters":12000,"station_id":"ce4bgqh2rcd13ifvqc5g","pricing_plan_id":"cebpf4jnsgd1na2vs0mg"},{"bike_id":"0665fb15-7985-404e-a900-e44bddf28101","system_id":"levelo_inurba_marseille","lat":43.31487,"lon":5.37309,"is_reserved":false,"is_disabled":false,"rental_uris":{"android":"levelo://app?vid=0665fb15-7985-404e-a900-e44bddf28101","ios":"levelo://app?vid=0665fb15-7985-404e-a900-e44bddf28101"},"vehicle_type_id":"4","last_reported":1743427264,"current_range_meters":12000,"station_id":"ce4bgt12rcd13ifvqcd0","pricing_plan_id":"cebpf4jnsgd1na2vs0mg"},{"bike_id":"d4e2d5d9-fa92-435c-b762-45b3a71494c6","system_id":"levelo_inurba_marseille","lat":43.315,"lon":5.37305,"is_reserved":false,"is_disabled":false,"rental_uris":{"android":"levelo://app?vid=d4e2d5d9-fa92-435c-b762-45b3a71494c6","ios":"levelo://app?vid=d4e2d5d9-fa92-435c-b762-45b3a71494c6"},"vehicle_type_id":"4","last_reported":1743427264,"current_range_meters":12000,"station_id":"ce4bgt12rcd13ifvqcd0","pricing_plan_id":"cebpf4jnsgd1na2vs0mg"},{"bike_id":"781e4fad-e8e0-41bd-9fc7-1331b936d0b1","system_id":"levelo_inurba_marseille","lat":43.284074,"lon":5.349839,"is_reserved":false,"is_disabled":false,"rental_uris":{"android":"levelo://app?vid=781e4fad-e8e0-41bd-9fc7-1331b936d0b1","ios":"levelo://app?vid=781e4fad-e8e0-41bd-9fc7-1331b936d0b1"},"vehicle_type_id":"4","last_reported":1743427264,"current_range_meters":12000,"station_id":"ce4bhbh2rcd13ifvqepg","pricing_plan_id":"cebpf4jnsgd1na2vs0mg"},{"bike_id":"f036138d-d5a2-4974-9e1f-d49107aade89","system_id":"levelo_inurba_marseille","lat":43.26034,"lon":5.3756,"is_reserved":false,"is_disabled":false,"rental_uris":{"android":"levelo://app?vid=f036138d-d5a2-4974-9e1f-d49107aade89","ios":"levelo://app?vid=f036138d-d5a2-4974-9e1f-d49107aade89"},"vehicle_type_id":"4","last_reported":1743427264,"current_range_meters":12000,"station_id":"ce4bhgh2rcd13ifvqfa0","pricing_plan_id":"cebpf4jnsgd1na2vs0mg"},{"bike_id":"12aaffa5-3169-4682-a182-3974f5644d90","system_id":"levelo_inurba_marseille","lat":43.27082,"lon":5.42277,"is_reserved":false,"is_disabled":false,"rental_uris":{"android":"levelo://app?vid=12aaffa5-3169-4682-a182-3974f5644d90","ios":"levelo://app?vid=12aaffa5-3169-4682-a182-3974f5644d90"},"vehicle_type_id":"4","last_reported":1743427264,"current_range_meters":12000,"station_id":"ce4bhk92rcd13ifvqgb0","pricing_plan_id":"cebpf4jnsgd1na2vs0mg"},{"bike_id":"2b480e4b-b8a7-4f29-8488-c72025a00414","system_id":"levelo_inurba_marseille","lat":43.30485,"lon":5.37894,"is_reserved":false,"is_disabled":false,"rental_uris":{"android":"levelo://app?vid=2b480e4b-b8a7-4f29-8488-c72025a00414","ios":"levelo://app?vid=2b480e4b-b8a7-4f29-8488-c72025a00414"},"vehicle_type_id":"4","last_reported":1743427264,"current_range_meters":12400,"station_id":"ce4bgup2rcd13ifvqcn0","pricing_plan_id":"cebpf4jnsgd1na2vs0mg"},{"bike_id":"a504bf46-cc2f-461c-a29a-6c2279237a43","system_id":"levelo_inurba_marseille","lat":43.29204,"lon":5.35829,"is_reserved":false,"is_disabled":false,"rental_uris":{"android":"levelo://app?vid=a504bf46-cc2f-461c-a29a-6c2279237a43","ios":"levelo://app?vid=a504bf46-cc2f-461c-a29a-6c2279237a43"},"vehicle_type_id":"4","last_reported":1743427264,"current_range_meters":12400,"station_id":"ce4bhb12rcd13ifvqel0","pricing_plan_id":"cebpf4jnsgd1na2vs0mg"},{"bike_id":"7600e00f-345b-474f-bf8f-5d0482aa16fc","system_id":"levelo_inurba_marseille","lat":43.2695,"lon":5.38661,"is_reserved":false,"is_disabled":false,"rental_uris":{"android":"levelo://app?vid=7600e00f-345b-474f-bf8f-5d0482aa16fc","ios":"levelo://app?vid=7600e00f-345b-474f-bf8f-5d0482aa16fc"},"vehicle_type_id":"4","last_reported":1743427264,"current_range_meters":12400,"station_id":"ce4bhh92rcd13ifvqfh0","pricing_plan_id":"cebpf4jnsgd1na2vs0mg"},{"bike_id":"7f84a36a-89ba-43e4-a6d8-cfb041dc0ad7","system_id":"levelo_inurba_marseille","lat":43.26503,"lon":5.39547,"is_reserved":false,"is_disabled":false,"rental_uris":{"android":"levelo://app?vid=7f84a36a-89ba-43e4-a6d8-cfb041dc0ad7","ios":"levelo://app?vid=7f84a36a-89ba-43e4-a6d8-cfb041dc0ad7"},"vehicle_type_id":"4","last_reported":1743427264,"current_range_meters":12400,"station_id":"ce4bhi12rcd13ifvqfq0","pricing_plan_id":"cebpf4jnsgd1na2vs0mg"},{"bike_id":"33ac7997-e875-45e5-a20f-760ee6b4a597","system_id":"levelo_inurba_marseille","lat":43.25947,"lon":5.40922,"is_reserved":false,"is_disabled":false,"rental_uris":{"android":"levelo://app?vid=33ac7997-e875-45e5-a20f-760ee6b4a597","ios":"levelo://app?vid=33ac7997-e875-45e5-a20f-760ee6b4a597"},"vehicle_type_id":"4","last_reported":1743427264,"current_range_meters":12400,"station_id":"ce4bhm92rcd13ifvqglg","pricing_plan_id":"cebpf4jnsgd1na2vs0mg"},{"bike_id":"961ccc4e-5600-4f15-8499-7936cfa27861","system_id":"levelo_inurba_marseille","lat":43.31596,"lon":5.37206,"is_reserved":false,"is_disabled":false,"rental_uris":{"android":"levelo://app?vid=961ccc4e-5600-4f15-8499-7936cfa27861","ios":"levelo://app?vid=961ccc4e-5600-4f15-8499-7936cfa27861"},"vehicle_type_id":"4","last_reported":1743427264,"current_range_meters":12800,"station_id":"","pricing_plan_id":"cebpf4jnsgd1na2vs0mg"},{"bike_id":"355948eb-7d18-4df8-bd1b-591e76a949e3","system_id":"levelo_inurba_marseille","lat":43.29846,"lon":5.36276,"is_reserved":false,"is_disabled":false,"rental_uris":{"android":"levelo://app?vid=355948eb-7d18-4df8-bd1b-591e76a949e3","ios":"levelo://app?vid=355948eb-7d18-4df8-bd1b-591e76a949e3"},"vehicle_type_id":"4","last_reported":1743427264,"current_range_meters":12800,"station_id":"ce4bgpp2rcd13ifvqc3g","pricing_plan_id":"cebpf4jnsgd1na2vs0mg"},{"bike_id":"175bf96e-f60e-4896-8750-ac5a7a12912b","system_id":"levelo_inurba_marseille","lat":43.23148,"lon":5.43721,"is_reserved":false,"is_disabled":false,"rental_uris":{"android":"levelo://app?vid=175bf96e-f60e-4896-8750-ac5a7a12912b","ios":"levelo://app?vid=175bf96e-f60e-4896-8750-ac5a7a12912b"},"vehicle_type_id":"4","last_reported":1743427264,"current_range_meters":12800,"station_id":"ce4bhmp2rcd13ifvqgog","pricing_plan_id":"cebpf4jnsgd1na2vs0mg"},{"bike_id":"ac74822a-6f30-45ed-8b29-5edf5b670444","system_id":"levelo_inurba_marseille","lat":43.24078,"lon":5.37759,"is_reserved":false,"is_disabled":false,"rental_uris":{"android":"levelo://app?vid=ac74822a-6f30-45ed-8b29-5edf5b670444","ios":"levelo://app?vid=ac74822a-6f30-45ed-8b29-5edf5b670444"},"vehicle_type_id":"4","last_reported":1743427264,"current_range_meters":12800,"station_id":"ce4bhnp2rcd13ifvqgvg","pricing_plan_id":"cebpf4jnsgd1na2vs0mg"},{"bike_id":"71ce3f55-7859-409c-a423-4ca58717f75b","system_id":"levelo_inurba_marseille","lat":43.32359,"lon":5.38914,"is_reserved":false,"is_disabled":false,"rental_uris":{"android":"levelo://app?vid=71ce3f55-7859-409c-a423-4ca58717f75b","ios":"levelo://app?vid=71ce3f55-7859-409c-a423-4ca58717f75b"},"vehicle_type_id":"4","last_reported":1743427264,"current_range_meters":12800,"station_id":"ce4bhqp2rcd13ifvqhog","pricing_plan_id":"cebpf4jnsgd1na2vs0mg"},{"bike_id":"f41e2eef-3409-4d82-b478-b6958ffb7ce8","system_id":"levelo_inurba_marseille","lat":43.24167,"lon":5.36403,"is_reserved":false,"is_disabled":false,"rental_uris":{"android":"levelo://app?vid=f41e2eef-3409-4d82-b478-b6958ffb7ce8","ios":"levelo://app?vid=f41e2eef-3409-4d82-b478-b6958ffb7ce8"},"vehicle_type_id":"4","last_reported":1743427264,"current_range_meters":12800,"station_id":"cpo36qri1sfpv3e86is0","pricing_plan_id":"cebpf4jnsgd1na2vs0mg"},{"bike_id":"d6410147-15e8-41dd-9ed8-e0d713c1c9e9","system_id":"levelo_inurba_marseille","lat":43.30147,"lon":5.39873,"is_reserved":false,"is_disabled":false,"rental_uris":{"android":"levelo://app?vid=d6410147-15e8-41dd-9ed8-e0d713c1c9e9","ios":"levelo://app?vid=d6410147-15e8-41dd-9ed8-e0d713c1c9e9"},"vehicle_type_id":"4","last_reported":1743427264,"current_range_meters":13600,"station_id":"ce4bh0h2rcd13ifvqd40","pricing_plan_id":"cebpf4jnsgd1na2vs0mg"},{"bike_id":"ac1839bf-9575-4380-a4e0-712c605d403a","system_id":"levelo_inurba_marseille","lat":43.28615,"lon":5.35107,"is_reserved":false,"is_disabled":false,"rental_uris":{"android":"levelo://app?vid=ac1839bf-9575-4380-a4e0-712c605d403a","ios":"levelo://app?vid=ac1839bf-9575-4380-a4e0-712c605d403a"},"vehicle_type_id":"4","last_reported":1743427264,"current_range_meters":13600,"station_id":"ce4bhch2rcd13ifvqeug","pricing_plan_id":"cebpf4jnsgd1na2vs0mg"},{"bike_id":"97accc6c-ec8e-434d-bd9b-278659019a9a","system_id":"levelo_inurba_marseille","lat":43.2985,"lon":5.36288,"is_reserved":false,"is_disabled":false,"rental_uris":{"android":"levelo://app?vid=97accc6c-ec8e-434d-bd9b-278659019a9a","ios":"levelo://app?vid=97accc6c-ec8e-434d-bd9b-278659019a9a"},"vehicle_type_id":"4","last_reported":1743427264,"current_range_meters":14000,"station_id":"ce4bgpp2rcd13ifvqc3g","pricing_plan_id":"cebpf4jnsgd1na2vs0mg"},{"bike_id":"955ce21e-84e4-4058-b003-19bb65695b71","system_id":"levelo_inurba_marseille","lat":43.29026,"lon":5.38657,"is_reserved":false,"is_disabled":false,"rental_uris":{"android":"levelo://app?vid=955ce21e-84e4-4058-b003-19bb65695b71","ios":"levelo://app?vid=955ce21e-84e4-4058-b003-19bb65695b71"},"vehicle_type_id":"4","last_reported":1743427264,"current_range_meters":14000,"station_id":"ce4bh4p2rcd13ifvqe0g","pricing_plan_id":"cebpf4jnsgd1na2vs0mg"},{"bike_id":"169c0ea8-e600-43b4-9373-66ccf9f58b17","system_id":"levelo_inurba_marseille","lat":43.29224,"lon":5.36077,"is_reserved":false,"is_disabled":false,"rental_uris":{"android":"levelo://app?vid=169c0ea8-e600-43b4-9373-66ccf9f58b17","ios":"levelo://app?vid=169c0ea8-e600-43b4-9373-66ccf9f58b17"},"vehicle_type_id":"4","last_reported":1743427264,"current_range_meters":14000,"station_id":"ce4bhbh2rcd13ifvqeqg","pricing_plan_id":"cebpf4jnsgd1na2vs0mg"},{"bike_id":"08f72f25-fee8-4074-b5d2-a0d66bba5a27","system_id":"levelo_inurba_marseille","lat":43.23974,"lon":5.3664,"is_reserved":false,"is_disabled":false,"rental_uris":{"android":"levelo://app?vid=08f72f25-fee8-4074-b5d2-a0d66bba5a27","ios":"levelo://app?vid=08f72f25-fee8-4074-b5d2-a0d66bba5a27"},"vehicle_type_id":"4","last_reported":1743427264,"current_range_meters":14000,"station_id":"ce4bhi12rcd13ifvqfp0","pricing_plan_id":"cebpf4jnsgd1na2vs0mg"},{"bike_id":"e8274d65-ad2b-4646-954f-61eef6871c0d","system_id":"levelo_inurba_marseille","lat":43.23184,"lon":5.39988,"is_reserved":false,"is_disabled":false,"rental_uris":{"android":"levelo://app?vid=e8274d65-ad2b-4646-954f-61eef6871c0d","ios":"levelo://app?vid=e8274d65-ad2b-4646-954f-61eef6871c0d"},"vehicle_type_id":"4","last_reported":1743427264,"current_range_meters":14000,"station_id":"ce4bhn12rcd13ifvqgqg","pricing_plan_id":"cebpf4jnsgd1na2vs0mg"},{"bike_id":"7a894edd-a4a4-40de-8b70-ca9fb3d5e3fd","system_id":"levelo_inurba_marseille","lat":43.31086,"lon":5.42439,"is_reserved":false,"is_disabled":false,"rental_uris":{"android":"levelo://app?vid=7a894edd-a4a4-40de-8b70-ca9fb3d5e3fd","ios":"levelo://app?vid=7a894edd-a4a4-40de-8b70-ca9fb3d5e3fd"},"vehicle_type_id":"4","last_reported":1743427264,"current_range_meters":14000,"station_id":"ce4bhp92rcd13ifvqhag","pricing_plan_id":"cebpf4jnsgd1na2vs0mg"},{"bike_id":"70d13679-76b1-4056-b208-1f24fce34b2f","system_id":"levelo_inurba_marseille","lat":43.30467,"lon":5.37901,"is_reserved":false,"is_disabled":false,"rental_uris":{"android":"levelo://app?vid=70d13679-76b1-4056-b208-1f24fce34b2f","ios":"levelo://app?vid=70d13679-76b1-4056-b208-1f24fce34b2f"},"vehicle_type_id":"4","last_reported":1743427264,"current_range_meters":14400,"station_id":"ce4bgup2rcd13ifvqcn0","pricing_plan_id":"cebpf4jnsgd1na2vs0mg"},{"bike_id":"200a3520-1d1b-4c1f-a4a7-9b9dab604f40","system_id":"levelo_inurba_marseille","lat":43.29266,"lon":5.40905,"is_reserved":false,"is_disabled":false,"rental_uris":{"android":"levelo://app?vid=200a3520-1d1b-4c1f-a4a7-9b9dab604f40","ios":"levelo://app?vid=200a3520-1d1b-4c1f-a4a7-9b9dab604f40"},"vehicle_type_id":"4","last_reported":1743427264,"current_range_meters":14400,"station_id":"ce4bh192rcd13ifvqdc0","pricing_plan_id":"cebpf4jnsgd1na2vs0mg"},{"bike_id":"17a753c5-2e2e-4e1f-b7f5-b8c1bce09f70","system_id":"levelo_inurba_marseille","lat":43.29636,"lon":5.37726,"is_reserved":false,"is_disabled":false,"rental_uris":{"android":"levelo://app?vid=17a753c5-2e2e-4e1f-b7f5-b8c1bce09f70","ios":"levelo://app?vid=17a753c5-2e2e-4e1f-b7f5-b8c1bce09f70"},"vehicle_type_id":"4","last_reported":1743427264,"current_range_meters":14400,"station_id":"ce4bhgp2rcd13ifvqfd0","pricing_plan_id":"cebpf4jnsgd1na2vs0mg"},{"bike_id":"2b3c56ae-3514-4ab5-a9c9-1e262a774dcb","system_id":"levelo_inurba_marseille","lat":43.25939,"lon":5.40903,"is_reserved":false,"is_disabled":false,"rental_uris":{"android":"levelo://app?vid=2b3c56ae-3514-4ab5-a9c9-1e262a774dcb","ios":"levelo://app?vid=2b3c56ae-3514-4ab5-a9c9-1e262a774dcb"},"vehicle_type_id":"4","last_reported":1743427264,"current_range_meters":14400,"station_id":"ce4bhm92rcd13ifvqglg","pricing_plan_id":"cebpf4jnsgd1na2vs0mg"},{"bike_id":"3965e20a-e1ab-4e11-9007-9f894e781538","system_id":"levelo_inurba_marseille","lat":43.29651,"lon":5.36273,"is_reserved":false,"is_disabled":false,"rental_uris":{"android":"levelo://app?vid=3965e20a-e1ab-4e11-9007-9f894e781538","ios":"levelo://app?vid=3965e20a-e1ab-4e11-9007-9f894e781538"},"vehicle_type_id":"4","last_reported":1743427264,"current_range_meters":14800,"station_id":"","pricing_plan_id":"cebpf4jnsgd1na2vs0mg"},{"bike_id":"563f1298-5e80-43d7-bd83-8b78e60378b3","system_id":"levelo_inurba_marseille","lat":43.30532,"lon":5.36526,"is_reserved":false,"is_disabled":false,"rental_uris":{"android":"levelo://app?vid=563f1298-5e80-43d7-bd83-8b78e60378b3","ios":"levelo://app?vid=563f1298-5e80-43d7-bd83-8b78e60378b3"},"vehicle_type_id":"4","last_reported":1743427264,"current_range_meters":14800,"station_id":"ce4bgs12rcd13ifvqcag","pricing_plan_id":"cebpf4jnsgd1na2vs0mg"},{"bike_id":"bfac3e40-679b-475a-a3d7-a0ba776432dc","system_id":"levelo_inurba_marseille","lat":43.28466,"lon":5.38422,"is_reserved":false,"is_disabled":false,"rental_uris":{"android":"levelo://app?vid=bfac3e40-679b-475a-a3d7-a0ba776432dc","ios":"levelo://app?vid=bfac3e40-679b-475a-a3d7-a0ba776432dc"},"vehicle_type_id":"4","last_reported":1743427264,"current_range_meters":14800,"station_id":"ce4bh512rcd13ifvqe3g","pricing_plan_id":"cebpf4jnsgd1na2vs0mg"},{"bike_id":"d162ab97-160b-4082-a300-c7000c41052c","system_id":"levelo_inurba_marseille","lat":43.28428,"lon":5.34999,"is_reserved":false,"is_disabled":false,"rental_uris":{"android":"levelo://app?vid=d162ab97-160b-4082-a300-c7000c41052c","ios":"levelo://app?vid=d162ab97-160b-4082-a300-c7000c41052c"},"vehicle_type_id":"4","last_reported":1743427264,"current_range_meters":14800,"station_id":"ce4bhbh2rcd13ifvqepg","pricing_plan_id":"cebpf4jnsgd1na2vs0mg"},{"bike_id":"78d605e1-98ef-45d9-94a2-e1c07d77b7d6","system_id":"levelo_inurba_marseille","lat":43.28076,"lon":5.39664,"is_reserved":false,"is_disabled":false,"rental_uris":{"android":"levelo://app?vid=78d605e1-98ef-45d9-94a2-e1c07d77b7d6","ios":"levelo://app?vid=78d605e1-98ef-45d9-94a2-e1c07d77b7d6"},"vehicle_type_id":"4","last_reported":1743427264,"current_range_meters":14800,"station_id":"ce4bho12rcd13ifvqh2g","pricing_plan_id":"cebpf4jnsgd1na2vs0mg"},{"bike_id":"b5526355-9c5e-43a6-9c02-c66889a7d947","system_id":"levelo_inurba_marseille","lat":43.30285,"lon":5.36452,"is_reserved":false,"is_disabled":false,"rental_uris":{"android":"levelo://app?vid=b5526355-9c5e-43a6-9c02-c66889a7d947","ios":"levelo://app?vid=b5526355-9c5e-43a6-9c02-c66889a7d947"},"vehicle_type_id":"4","last_reported":1743427264,"current_range_meters":15200,"station_id":"","pricing_plan_id":"cebpf4jnsgd1na2vs0mg"},{"bike_id":"009644a9-0649-4ef5-9309-4363b281eee8","system_id":"levelo_inurba_marseille","lat":43.29257,"lon":5.37627,"is_reserved":false,"is_disabled":false,"rental_uris":{"android":"levelo://app?vid=009644a9-0649-4ef5-9309-4363b281eee8","ios":"levelo://app?vid=009644a9-0649-4ef5-9309-4363b281eee8"},"vehicle_type_id":"4","last_reported":1743427264,"current_range_meters":15200,"station_id":"ce4bgi12rcd13ifvqb80","pricing_plan_id":"cebpf4jnsgd1na2vs0mg"},{"bike_id":"8f23fa25-0411-400a-8837-01ad55d36ec8","system_id":"levelo_inurba_marseille","lat":43.28999,"lon":5.35609,"is_reserved":false,"is_disabled":false,"rental_uris":{"android":"levelo://app?vid=8f23fa25-0411-400a-8837-01ad55d36ec8","ios":"levelo://app?vid=8f23fa25-0411-400a-8837-01ad55d36ec8"},"vehicle_type_id":"4","last_reported":1743427264,"current_range_meters":15200,"station_id":"ce4bhb92rcd13ifvqen0","pricing_plan_id":"cebpf4jnsgd1na2vs0mg"},{"bike_id":"f0ff8df1-930d-4d0d-87f8-1e0dc20a46cf","system_id":"levelo_inurba_marseille","lat":43.29849,"lon":5.3626,"is_reserved":false,"is_disabled":false,"rental_uris":{"android":"levelo://app?vid=f0ff8df1-930d-4d0d-87f8-1e0dc20a46cf","ios":"levelo://app?vid=f0ff8df1-930d-4d0d-87f8-1e0dc20a46cf"},"vehicle_type_id":"4","last_reported":1743427264,"current_range_meters":16000,"station_id":"ce4bgpp2rcd13ifvqc3g","pricing_plan_id":"cebpf4jnsgd1na2vs0mg"},{"bike_id":"09eca5b8-d683-4066-adc5-d08897e5961c","system_id":"levelo_inurba_marseille","lat":43.285059,"lon":5.385363,"is_reserved":false,"is_disabled":false,"rental_uris":{"android":"levelo://app?vid=09eca5b8-d683-4066-adc5-d08897e5961c","ios":"levelo://app?vid=09eca5b8-d683-4066-adc5-d08897e5961c"},"vehicle_type_id":"4","last_reported":1743427264,"current_range_meters":16000,"station_id":"ce4bh492rcd13ifvqdvg","pricing_plan_id":"cebpf4jnsgd1na2vs0mg"},{"bike_id":"7d70350b-ec10-4c0a-a147-81af081c4725","system_id":"levelo_inurba_marseille","lat":43.25942,"lon":5.40882,"is_reserved":false,"is_disabled":false,"rental_uris":{"android":"levelo://app?vid=7d70350b-ec10-4c0a-a147-81af081c4725","ios":"levelo://app?vid=7d70350b-ec10-4c0a-a147-81af081c4725"},"vehicle_type_id":"4","last_reported":1743427264,"current_range_meters":16000,"station_id":"ce4bhm92rcd13ifvqglg","pricing_plan_id":"cebpf4jnsgd1na2vs0mg"},{"bike_id":"9f26f6b4-6f8c-41bd-9823-94cef41b22be","system_id":"levelo_inurba_marseille","lat":43.23208,"lon":5.39997,"is_reserved":false,"is_disabled":false,"rental_uris":{"android":"levelo://app?vid=9f26f6b4-6f8c-41bd-9823-94cef41b22be","ios":"levelo://app?vid=9f26f6b4-6f8c-41bd-9823-94cef41b22be"},"vehicle_type_id":"4","last_reported":1743427264,"current_range_meters":16000,"station_id":"ce4bhn12rcd13ifvqgqg","pricing_plan_id":"cebpf4jnsgd1na2vs0mg"},{"bike_id":"565da0c0-4ff1-419e-bc4c-6acea46e9961","system_id":"levelo_inurba_marseille","lat":43.32548,"lon":5.41454,"is_reserved":false,"is_disabled":false,"rental_uris":{"android":"levelo://app?vid=565da0c0-4ff1-419e-bc4c-6acea46e9961","ios":"levelo://app?vid=565da0c0-4ff1-419e-bc4c-6acea46e9961"},"vehicle_type_id":"4","last_reported":1743427264,"current_range_meters":16000,"station_id":"ce4bhq12rcd13ifvqhhg","pricing_plan_id":"cebpf4jnsgd1na2vs0mg"},{"bike_id":"f74ab59f-be69-4dbf-bb7a-b8d19bcdb4f1","system_id":"levelo_inurba_marseille","lat":43.26157,"lon":5.37955,"is_reserved":false,"is_disabled":false,"rental_uris":{"android":"levelo://app?vid=f74ab59f-be69-4dbf-bb7a-b8d19bcdb4f1","ios":"levelo://app?vid=f74ab59f-be69-4dbf-bb7a-b8d19bcdb4f1"},"vehicle_type_id":"4","last_reported":1743427264,"current_range_meters":16400,"station_id":"","pricing_plan_id":"cebpf4jnsgd1na2vs0mg"},{"bike_id":"58c77d8f-6d87-4b41-a1e3-93af92f3f8f5","system_id":"levelo_inurba_marseille","lat":43.29921,"lon":5.38161,"is_reserved":false,"is_disabled":false,"rental_uris":{"android":"levelo://app?vid=58c77d8f-6d87-4b41-a1e3-93af92f3f8f5","ios":"levelo://app?vid=58c77d8f-6d87-4b41-a1e3-93af92f3f8f5"},"vehicle_type_id":"4","last_reported":1743427264,"current_range_meters":16400,"station_id":"ce4bgj12rcd13ifvqbc0","pricing_plan_id":"cebpf4jnsgd1na2vs0mg"},{"bike_id":"f9a2a5f0-9c98-43ac-84ca-a9b38b605fa6","system_id":"levelo_inurba_marseille","lat":43.30544,"lon":5.36722,"is_reserved":false,"is_disabled":false,"rental_uris":{"android":"levelo://app?vid=f9a2a5f0-9c98-43ac-84ca-a9b38b605fa6","ios":"levelo://app?vid=f9a2a5f0-9c98-43ac-84ca-a9b38b605fa6"},"vehicle_type_id":"4","last_reported":1743427264,"current_range_meters":16400,"station_id":"ce4bgrp2rcd13ifvqc9g","pricing_plan_id":"cebpf4jnsgd1na2vs0mg"},{"bike_id":"5b3317e2-ce4d-4867-a93b-a544e1acc1fa","system_id":"levelo_inurba_marseille","lat":43.28617,"lon":5.35111,"is_reserved":false,"is_disabled":false,"rental_uris":{"android":"levelo://app?vid=5b3317e2-ce4d-4867-a93b-a544e1acc1fa","ios":"levelo://app?vid=5b3317e2-ce4d-4867-a93b-a544e1acc1fa"},"vehicle_type_id":"4","last_reported":1743427264,"current_range_meters":16400,"station_id":"ce4bgup2rcd13ifvqcn0","pricing_plan_id":"cebpf4jnsgd1na2vs0mg"},{"bike_id":"d555a6dd-87fb-4f1f-accb-2e9da48fe4bc","system_id":"levelo_inurba_marseille","lat":43.27363,"lon":5.36235,"is_reserved":false,"is_disabled":false,"rental_uris":{"android":"levelo://app?vid=d555a6dd-87fb-4f1f-accb-2e9da48fe4bc","ios":"levelo://app?vid=d555a6dd-87fb-4f1f-accb-2e9da48fe4bc"},"vehicle_type_id":"4","last_reported":1743427264,"current_range_meters":16400,"station_id":"ce4bhbh2rcd13ifvqeo0","pricing_plan_id":"cebpf4jnsgd1na2vs0mg"},{"bike_id":"31349135-1628-41cd-a034-49c95e388b8e","system_id":"levelo_inurba_marseille","lat":43.28267,"lon":5.35074,"is_reserved":false,"is_disabled":false,"rental_uris":{"android":"levelo://app?vid=31349135-1628-41cd-a034-49c95e388b8e","ios":"levelo://app?vid=31349135-1628-41cd-a034-49c95e388b8e"},"vehicle_type_id":"4","last_reported":1743427264,"current_range_meters":16400,"station_id":"ce4bhbp2rcd13ifvqerg","pricing_plan_id":"cebpf4jnsgd1na2vs0mg"},{"bike_id":"0a861bce-e43b-4e0f-88cb-e1f4c36e3623","system_id":"levelo_inurba_marseille","lat":43.26688,"lon":5.38277,"is_reserved":false,"is_disabled":false,"rental_uris":{"android":"levelo://app?vid=0a861bce-e43b-4e0f-88cb-e1f4c36e3623","ios":"levelo://app?vid=0a861bce-e43b-4e0f-88cb-e1f4c36e3623"},"vehicle_type_id":"4","last_reported":1743427264,"current_range_meters":16400,"station_id":"ce4bhg92rcd13ifvqf90","pricing_plan_id":"cebpf4jnsgd1na2vs0mg"},{"bike_id":"0024f7b4-09e6-4e84-9af7-fff3c3e3aa28","system_id":"levelo_inurba_marseille","lat":43.27205,"lon":5.39185,"is_reserved":false,"is_disabled":false,"rental_uris":{"android":"levelo://app?vid=0024f7b4-09e6-4e84-9af7-fff3c3e3aa28","ios":"levelo://app?vid=0024f7b4-09e6-4e84-9af7-fff3c3e3aa28"},"vehicle_type_id":"4","last_reported":1743427264,"current_range_meters":16400,"station_id":"ce4bhhp2rcd13ifvqfm0","pricing_plan_id":"cebpf4jnsgd1na2vs0mg"},{"bike_id":"efea8596-e131-41f5-8da7-0e50cbd06339","system_id":"levelo_inurba_marseille","lat":43.24072,"lon":5.37758,"is_reserved":false,"is_disabled":false,"rental_uris":{"android":"levelo://app?vid=efea8596-e131-41f5-8da7-0e50cbd06339","ios":"levelo://app?vid=efea8596-e131-41f5-8da7-0e50cbd06339"},"vehicle_type_id":"4","last_reported":1743427264,"current_range_meters":16400,"station_id":"ce4bhnp2rcd13ifvqgvg","pricing_plan_id":"cebpf4jnsgd1na2vs0mg"},{"bike_id":"8221247b-981f-4f6f-be1c-477deae787ea","system_id":"levelo_inurba_marseille","lat":43.22944,"lon":5.35416,"is_reserved":false,"is_disabled":false,"rental_uris":{"android":"levelo://app?vid=8221247b-981f-4f6f-be1c-477deae787ea","ios":"levelo://app?vid=8221247b-981f-4f6f-be1c-477deae787ea"},"vehicle_type_id":"4","last_reported":1743427264,"current_range_meters":16400,"station_id":"cpo3532slgdg3j2ikp40","pricing_plan_id":"cebpf4jnsgd1na2vs0mg"},{"bike_id":"1b63ccb2-1298-4d96-b7f3-6ad6cace00e9","system_id":"levelo_inurba_marseille","lat":43.26138,"lon":5.40087,"is_reserved":false,"is_disabled":false,"rental_uris":{"android":"levelo://app?vid=1b63ccb2-1298-4d96-b7f3-6ad6cace00e9","ios":"levelo://app?vid=1b63ccb2-1298-4d96-b7f3-6ad6cace00e9"},"vehicle_type_id":"4","last_reported":1743427264,"current_range_meters":16800,"station_id":"","pricing_plan_id":"cebpf4jnsgd1na2vs0mg"},{"bike_id":"e47bc61d-df2d-41b3-b26b-dd94e6e5e301","system_id":"levelo_inurba_marseille","lat":43.2625,"lon":5.42121,"is_reserved":false,"is_disabled":false,"rental_uris":{"android":"levelo://app?vid=e47bc61d-df2d-41b3-b26b-dd94e6e5e301","ios":"levelo://app?vid=e47bc61d-df2d-41b3-b26b-dd94e6e5e301"},"vehicle_type_id":"4","last_reported":1743427264,"current_range_meters":16800,"station_id":"","pricing_plan_id":"cebpf4jnsgd1na2vs0mg"},{"bike_id":"f02208e7-336f-4fdb-be53-9fca75aee493","system_id":"levelo_inurba_marseille","lat":43.30602,"lon":5.37236,"is_reserved":false,"is_disabled":false,"rental_uris":{"android":"levelo://app?vid=f02208e7-336f-4fdb-be53-9fca75aee493","ios":"levelo://app?vid=f02208e7-336f-4fdb-be53-9fca75aee493"},"vehicle_type_id":"4","last_reported":1743427264,"current_range_meters":16800,"station_id":"ce4bgqh2rcd13ifvqc4g","pricing_plan_id":"cebpf4jnsgd1na2vs0mg"},{"bike_id":"c4a0621b-6145-443e-a518-14a3cc56d524","system_id":"levelo_inurba_marseille","lat":43.3137,"lon":5.36694,"is_reserved":false,"is_disabled":false,"rental_uris":{"android":"levelo://app?vid=c4a0621b-6145-443e-a518-14a3cc56d524","ios":"levelo://app?vid=c4a0621b-6145-443e-a518-14a3cc56d524"},"vehicle_type_id":"4","last_reported":1743427264,"current_range_meters":16800,"station_id":"ce4bgr92rcd13ifvqc6g","pricing_plan_id":"cebpf4jnsgd1na2vs0mg"},{"bike_id":"e6ecd605-68f0-430b-8720-0f7df748121d","system_id":"levelo_inurba_marseille","lat":43.295978,"lon":5.38101,"is_reserved":false,"is_disabled":false,"rental_uris":{"android":"levelo://app?vid=e6ecd605-68f0-430b-8720-0f7df748121d","ios":"levelo://app?vid=e6ecd605-68f0-430b-8720-0f7df748121d"},"vehicle_type_id":"4","last_reported":1743427264,"current_range_meters":16800,"station_id":"ce4bhah2rcd13ifvqei0","pricing_plan_id":"cebpf4jnsgd1na2vs0mg"},{"bike_id":"964f1c72-04c1-4b55-bd25-15b5f553c96a","system_id":"levelo_inurba_marseille","lat":43.27056,"lon":5.40264,"is_reserved":false,"is_disabled":false,"rental_uris":{"android":"levelo://app?vid=964f1c72-04c1-4b55-bd25-15b5f553c96a","ios":"levelo://app?vid=964f1c72-04c1-4b55-bd25-15b5f553c96a"},"vehicle_type_id":"4","last_reported":1743427264,"current_range_meters":16800,"station_id":"ce4bhk92rcd13ifvqgc0","pricing_plan_id":"cebpf4jnsgd1na2vs0mg"},{"bike_id":"e96b24b9-5928-47a9-a3af-1ab7a754a0d9","system_id":"levelo_inurba_marseille","lat":43.2595,"lon":5.40889,"is_reserved":false,"is_disabled":false,"rental_uris":{"android":"levelo://app?vid=e96b24b9-5928-47a9-a3af-1ab7a754a0d9","ios":"levelo://app?vid=e96b24b9-5928-47a9-a3af-1ab7a754a0d9"},"vehicle_type_id":"4","last_reported":1743427264,"current_range_meters":16800,"station_id":"ce4bhm92rcd13ifvqglg","pricing_plan_id":"cebpf4jnsgd1na2vs0mg"},{"bike_id":"27773214-4312-4127-aa54-e74cba3d6d07","system_id":"levelo_inurba_marseille","lat":43.27803,"lon":5.40734,"is_reserved":false,"is_disabled":false,"rental_uris":{"android":"levelo://app?vid=27773214-4312-4127-aa54-e74cba3d6d07","ios":"levelo://app?vid=27773214-4312-4127-aa54-e74cba3d6d07"},"vehicle_type_id":"4","last_reported":1743427264,"current_range_meters":16800,"station_id":"ce4bhnh2rcd13ifvqgtg","pricing_plan_id":"cebpf4jnsgd1na2vs0mg"},{"bike_id":"6ce7cd14-5317-45de-9e5e-5b11aa4fcf9f","system_id":"levelo_inurba_marseille","lat":43.31367,"lon":5.3672,"is_reserved":false,"is_disabled":false,"rental_uris":{"android":"levelo://app?vid=6ce7cd14-5317-45de-9e5e-5b11aa4fcf9f","ios":"levelo://app?vid=6ce7cd14-5317-45de-9e5e-5b11aa4fcf9f"},"vehicle_type_id":"4","last_reported":1743427264,"current_range_meters":17200,"station_id":"ce4bgr92rcd13ifvqc6g","pricing_plan_id":"cebpf4jnsgd1na2vs0mg"},{"bike_id":"62c786a2-291c-4037-9452-d936586d745b","system_id":"levelo_inurba_marseille","lat":43.2902,"lon":5.35591,"is_reserved":false,"is_disabled":false,"rental_uris":{"android":"levelo://app?vid=62c786a2-291c-4037-9452-d936586d745b","ios":"levelo://app?vid=62c786a2-291c-4037-9452-d936586d745b"},"vehicle_type_id":"4","last_reported":1743427264,"current_range_meters":17200,"station_id":"ce4bhb92rcd13ifvqen0","pricing_plan_id":"cebpf4jnsgd1na2vs0mg"},{"bike_id":"c7c4a409-b0a9-4372-adec-737b17e711c1","system_id":"levelo_inurba_marseille","lat":43.27362,"lon":5.36225,"is_reserved":false,"is_disabled":false,"rental_uris":{"android":"levelo://app?vid=c7c4a409-b0a9-4372-adec-737b17e711c1","ios":"levelo://app?vid=c7c4a409-b0a9-4372-adec-737b17e711c1"},"vehicle_type_id":"4","last_reported":1743427264,"current_range_meters":17200,"station_id":"ce4bhbh2rcd13ifvqeo0","pricing_plan_id":"cebpf4jnsgd1na2vs0mg"},{"bike_id":"cd43aa94-26bc-4bc6-83ef-74c93e272475","system_id":"levelo_inurba_marseille","lat":43.25087,"lon":5.3951,"is_reserved":false,"is_disabled":false,"rental_uris":{"android":"levelo://app?vid=cd43aa94-26bc-4bc6-83ef-74c93e272475","ios":"levelo://app?vid=cd43aa94-26bc-4bc6-83ef-74c93e272475"},"vehicle_type_id":"4","last_reported":1743427264,"current_range_meters":17200,"station_id":"ce4bhm12rcd13ifvqgkg","pricing_plan_id":"cebpf4jnsgd1na2vs0mg"},{"bike_id":"572e76ab-f86b-41f4-b70d-8535970ec870","system_id":"levelo_inurba_marseille","lat":43.24083,"lon":5.37746,"is_reserved":false,"is_disabled":false,"rental_uris":{"android":"levelo://app?vid=572e76ab-f86b-41f4-b70d-8535970ec870","ios":"levelo://app?vid=572e76ab-f86b-41f4-b70d-8535970ec870"},"vehicle_type_id":"4","last_reported":1743427264,"current_range_meters":17200,"station_id":"ce4bhnp2rcd13ifvqgvg","pricing_plan_id":"cebpf4jnsgd1na2vs0mg"},{"bike_id":"8e73c3d9-a6a5-42aa-b926-458ab18c6b60","system_id":"levelo_inurba_marseille","lat":43.31372,"lon":5.36714,"is_reserved":false,"is_disabled":false,"rental_uris":{"android":"levelo://app?vid=8e73c3d9-a6a5-42aa-b926-458ab18c6b60","ios":"levelo://app?vid=8e73c3d9-a6a5-42aa-b926-458ab18c6b60"},"vehicle_type_id":"4","last_reported":1743427264,"current_range_meters":17600,"station_id":"ce4bgr92rcd13ifvqc6g","pricing_plan_id":"cebpf4jnsgd1na2vs0mg"},{"bike_id":"9b627377-54ef-4da6-94a9-9fec5b611c60","system_id":"levelo_inurba_marseille","lat":43.30118,"lon":5.37385,"is_reserved":false,"is_disabled":false,"rental_uris":{"android":"levelo://app?vid=9b627377-54ef-4da6-94a9-9fec5b611c60","ios":"levelo://app?vid=9b627377-54ef-4da6-94a9-9fec5b611c60"},"vehicle_type_id":"4","last_reported":1743427264,"current_range_meters":17600,"station_id":"ce4bgs92rcd13ifvqcc0","pricing_plan_id":"cebpf4jnsgd1na2vs0mg"},{"bike_id":"5b788417-c927-4142-8384-35d254acab69","system_id":"levelo_inurba_marseille","lat":43.29003,"lon":5.35603,"is_reserved":false,"is_disabled":false,"rental_uris":{"android":"levelo://app?vid=5b788417-c927-4142-8384-35d254acab69","ios":"levelo://app?vid=5b788417-c927-4142-8384-35d254acab69"},"vehicle_type_id":"4","last_reported":1743427264,"current_range_meters":17600,"station_id":"ce4bhb92rcd13ifvqen0","pricing_plan_id":"cebpf4jnsgd1na2vs0mg"},{"bike_id":"25de6368-9702-4dd7-af2f-4e77192b4161","system_id":"levelo_inurba_marseille","lat":43.28405,"lon":5.34995,"is_reserved":false,"is_disabled":false,"rental_uris":{"android":"levelo://app?vid=25de6368-9702-4dd7-af2f-4e77192b4161","ios":"levelo://app?vid=25de6368-9702-4dd7-af2f-4e77192b4161"},"vehicle_type_id":"4","last_reported":1743427264,"current_range_meters":17600,"station_id":"ce4bhbh2rcd13ifvqepg","pricing_plan_id":"cebpf4jnsgd1na2vs0mg"},{"bike_id":"36d0c2e1-7002-4c6a-9d10-054f77a600c2","system_id":"levelo_inurba_marseille","lat":43.29226,"lon":5.36039,"is_reserved":false,"is_disabled":false,"rental_uris":{"android":"levelo://app?vid=36d0c2e1-7002-4c6a-9d10-054f77a600c2","ios":"levelo://app?vid=36d0c2e1-7002-4c6a-9d10-054f77a600c2"},"vehicle_type_id":"4","last_reported":1743427264,"current_range_meters":17600,"station_id":"ce4bhbh2rcd13ifvqeqg","pricing_plan_id":"cebpf4jnsgd1na2vs0mg"},{"bike_id":"9d518882-c7eb-4adf-9ed1-ceb4c199375a","system_id":"levelo_inurba_marseille","lat":43.26566,"lon":5.39009,"is_reserved":false,"is_disabled":false,"rental_uris":{"android":"levelo://app?vid=9d518882-c7eb-4adf-9ed1-ceb4c199375a","ios":"levelo://app?vid=9d518882-c7eb-4adf-9ed1-ceb4c199375a"},"vehicle_type_id":"4","last_reported":1743427264,"current_range_meters":17600,"station_id":"ce4bhe12rcd13ifvqf30","pricing_plan_id":"cebpf4jnsgd1na2vs0mg"},{"bike_id":"b50a1393-62bb-4a3c-8fa2-fa4da6323c23","system_id":"levelo_inurba_marseille","lat":43.27499,"lon":5.42448,"is_reserved":false,"is_disabled":false,"rental_uris":{"android":"levelo://app?vid=b50a1393-62bb-4a3c-8fa2-fa4da6323c23","ios":"levelo://app?vid=b50a1393-62bb-4a3c-8fa2-fa4da6323c23"},"vehicle_type_id":"4","last_reported":1743427264,"current_range_meters":17600,"station_id":"ce4bhn92rcd13ifvqgrg","pricing_plan_id":"cebpf4jnsgd1na2vs0mg"},{"bike_id":"03428933-f654-4911-8e5b-283f35475d09","system_id":"levelo_inurba_marseille","lat":43.24075,"lon":5.37754,"is_reserved":false,"is_disabled":false,"rental_uris":{"android":"levelo://app?vid=03428933-f654-4911-8e5b-283f35475d09","ios":"levelo://app?vid=03428933-f654-4911-8e5b-283f35475d09"},"vehicle_type_id":"4","last_reported":1743427264,"current_range_meters":17600,"station_id":"ce4bhnp2rcd13ifvqgvg","pricing_plan_id":"cebpf4jnsgd1na2vs0mg"},{"bike_id":"f4505a65-d203-4ae8-8967-e45e68c68354","system_id":"levelo_inurba_marseille","lat":43.30315,"lon":5.3689,"is_reserved":false,"is_disabled":false,"rental_uris":{"android":"levelo://app?vid=f4505a65-d203-4ae8-8967-e45e68c68354","ios":"levelo://app?vid=f4505a65-d203-4ae8-8967-e45e68c68354"},"vehicle_type_id":"4","last_reported":1743427264,"current_range_meters":18000,"station_id":"ce4bgqh2rcd13ifvqc5g","pricing_plan_id":"cebpf4jnsgd1na2vs0mg"},{"bike_id":"72faa293-8256-490c-ba74-856f450759fb","system_id":"levelo_inurba_marseille","lat":43.30151,"lon":5.37414,"is_reserved":false,"is_disabled":false,"rental_uris":{"android":"levelo://app?vid=72faa293-8256-490c-ba74-856f450759fb","ios":"levelo://app?vid=72faa293-8256-490c-ba74-856f450759fb"},"vehicle_type_id":"4","last_reported":1743427264,"current_range_meters":18000,"station_id":"ce4bgs92rcd13ifvqcc0","pricing_plan_id":"cebpf4jnsgd1na2vs0mg"},{"bike_id":"8797fa02-23d4-4ef7-8861-213a9bdf93f5","system_id":"levelo_inurba_marseille","lat":43.2872,"lon":5.37953,"is_reserved":false,"is_disabled":false,"rental_uris":{"android":"levelo://app?vid=8797fa02-23d4-4ef7-8861-213a9bdf93f5","ios":"levelo://app?vid=8797fa02-23d4-4ef7-8861-213a9bdf93f5"},"vehicle_type_id":"4","last_reported":1743427264,"current_range_meters":18000,"station_id":"ce4bh9p2rcd13ifvqec0","pricing_plan_id":"cebpf4jnsgd1na2vs0mg"},{"bike_id":"3b805705-c8f8-4b9b-9d7e-1377c8d6b030","system_id":"levelo_inurba_marseille","lat":43.24079,"lon":5.37739,"is_reserved":false,"is_disabled":false,"rental_uris":{"android":"levelo://app?vid=3b805705-c8f8-4b9b-9d7e-1377c8d6b030","ios":"levelo://app?vid=3b805705-c8f8-4b9b-9d7e-1377c8d6b030"},"vehicle_type_id":"4","last_reported":1743427264,"current_range_meters":18000,"station_id":"ce4bhnp2rcd13ifvqgvg","pricing_plan_id":"cebpf4jnsgd1na2vs0mg"},{"bike_id":"f71b1086-34ba-459e-8532-2b3403fbed64","system_id":"levelo_inurba_marseille","lat":43.29403,"lon":5.4116,"is_reserved":false,"is_disabled":false,"rental_uris":{"android":"levelo://app?vid=f71b1086-34ba-459e-8532-2b3403fbed64","ios":"levelo://app?vid=f71b1086-34ba-459e-8532-2b3403fbed64"},"vehicle_type_id":"4","last_reported":1743427264,"current_range_meters":18800,"station_id":"","pricing_plan_id":"cebpf4jnsgd1na2vs0mg"},{"bike_id":"41d11b71-a5b9-4931-a3f5-e085ae0cf09a","system_id":"levelo_inurba_marseille","lat":43.27621,"lon":5.36109,"is_reserved":false,"is_disabled":false,"rental_uris":{"android":"levelo://app?vid=41d11b71-a5b9-4931-a3f5-e085ae0cf09a","ios":"levelo://app?vid=41d11b71-a5b9-4931-a3f5-e085ae0cf09a"},"vehicle_type_id":"4","last_reported":1743427264,"current_range_meters":18800,"station_id":"ce4bgj92rcd13ifvqbe0","pricing_plan_id":"cebpf4jnsgd1na2vs0mg"},{"bike_id":"c40afa4a-bf08-4a0b-b01d-6477a3d251fd","system_id":"levelo_inurba_marseille","lat":43.30537,"lon":5.36546,"is_reserved":false,"is_disabled":false,"rental_uris":{"android":"levelo://app?vid=c40afa4a-bf08-4a0b-b01d-6477a3d251fd","ios":"levelo://app?vid=c40afa4a-bf08-4a0b-b01d-6477a3d251fd"},"vehicle_type_id":"4","last_reported":1743427264,"current_range_meters":18800,"station_id":"ce4bgs12rcd13ifvqcag","pricing_plan_id":"cebpf4jnsgd1na2vs0mg"},{"bike_id":"65c3b480-669f-42ec-9870-de873e3795d4","system_id":"levelo_inurba_marseille","lat":43.30474,"lon":5.37898,"is_reserved":false,"is_disabled":false,"rental_uris":{"android":"levelo://app?vid=65c3b480-669f-42ec-9870-de873e3795d4","ios":"levelo://app?vid=65c3b480-669f-42ec-9870-de873e3795d4"},"vehicle_type_id":"4","last_reported":1743427264,"current_range_meters":18800,"station_id":"ce4bgup2rcd13ifvqcn0","pricing_plan_id":"cebpf4jnsgd1na2vs0mg"},{"bike_id":"676d7204-3bb3-4d98-9ecb-f640a382b64a","system_id":"levelo_inurba_marseille","lat":43.27683,"lon":5.3887,"is_reserved":false,"is_disabled":false,"rental_uris":{"android":"levelo://app?vid=676d7204-3bb3-4d98-9ecb-f640a382b64a","ios":"levelo://app?vid=676d7204-3bb3-4d98-9ecb-f640a382b64a"},"vehicle_type_id":"4","last_reported":1743427264,"current_range_meters":18800,"station_id":"ce4bhi12rcd13ifvqfo0","pricing_plan_id":"cebpf4jnsgd1na2vs0mg"},{"bike_id":"dd12f684-21b7-43b9-8185-09a5ed877792","system_id":"levelo_inurba_marseille","lat":43.27508,"lon":5.42444,"is_reserved":false,"is_disabled":false,"rental_uris":{"android":"levelo://app?vid=dd12f684-21b7-43b9-8185-09a5ed877792","ios":"levelo://app?vid=dd12f684-21b7-43b9-8185-09a5ed877792"},"vehicle_type_id":"4","last_reported":1743427264,"current_range_meters":18800,"station_id":"ce4bhn92rcd13ifvqgrg","pricing_plan_id":"cebpf4jnsgd1na2vs0mg"},{"bike_id":"04ab8176-8bf9-485a-b1cb-7223ecd00ee5","system_id":"levelo_inurba_marseille","lat":43.24083,"lon":5.37743,"is_reserved":false,"is_disabled":false,"rental_uris":{"android":"levelo://app?vid=04ab8176-8bf9-485a-b1cb-7223ecd00ee5","ios":"levelo://app?vid=04ab8176-8bf9-485a-b1cb-7223ecd00ee5"},"vehicle_type_id":"4","last_reported":1743427264,"current_range_meters":18800,"station_id":"ce4bhnp2rcd13ifvqgvg","pricing_plan_id":"cebpf4jnsgd1na2vs0mg"},{"bike_id":"dd3db03f-0f43-4986-9ec8-2a76818fb28c","system_id":"levelo_inurba_marseille","lat":43.23209,"lon":5.35549,"is_reserved":false,"is_disabled":false,"rental_uris":{"android":"levelo://app?vid=dd3db03f-0f43-4986-9ec8-2a76818fb28c","ios":"levelo://app?vid=dd3db03f-0f43-4986-9ec8-2a76818fb28c"},"vehicle_type_id":"4","last_reported":1743427264,"current_range_meters":18800,"station_id":"ce4bhu92rcd13ifvqi70","pricing_plan_id":"cebpf4jnsgd1na2vs0mg"},{"bike_id":"ad74a553-2e4f-4b7a-aae2-d01afe143a5a","system_id":"levelo_inurba_marseille","lat":43.31227,"lon":5.36872,"is_reserved":false,"is_disabled":false,"rental_uris":{"android":"levelo://app?vid=ad74a553-2e4f-4b7a-aae2-d01afe143a5a","ios":"levelo://app?vid=ad74a553-2e4f-4b7a-aae2-d01afe143a5a"},"vehicle_type_id":"4","last_reported":1743427264,"current_range_meters":19200,"station_id":"ce4bgl92rcd13ifvqbq0","pricing_plan_id":"cebpf4jnsgd1na2vs0mg"},{"bike_id":"11a5a56f-13d2-45af-b74d-7cc7b446efe6","system_id":"levelo_inurba_marseille","lat":43.28081,"lon":5.39666,"is_reserved":false,"is_disabled":false,"rental_uris":{"android":"levelo://app?vid=11a5a56f-13d2-45af-b74d-7cc7b446efe6","ios":"levelo://app?vid=11a5a56f-13d2-45af-b74d-7cc7b446efe6"},"vehicle_type_id":"4","last_reported":1743427264,"current_range_meters":19200,"station_id":"ce4bho12rcd13ifvqh2g","pricing_plan_id":"cebpf4jnsgd1na2vs0mg"},{"bike_id":"03b7a633-ed89-42cc-8c7f-0d9125c6d32a","system_id":"levelo_inurba_marseille","lat":43.31224,"lon":5.36863,"is_reserved":false,"is_disabled":false,"rental_uris":{"android":"levelo://app?vid=03b7a633-ed89-42cc-8c7f-0d9125c6d32a","ios":"levelo://app?vid=03b7a633-ed89-42cc-8c7f-0d9125c6d32a"},"vehicle_type_id":"4","last_reported":1743427264,"current_range_meters":19600,"station_id":"ce4bgl92rcd13ifvqbq0","pricing_plan_id":"cebpf4jnsgd1na2vs0mg"},{"bike_id":"ff981b15-c84c-46ed-8290-3cfa5d8a8f97","system_id":"levelo_inurba_marseille","lat":43.30933,"lon":5.36858,"is_reserved":false,"is_disabled":false,"rental_uris":{"android":"levelo://app?vid=ff981b15-c84c-46ed-8290-3cfa5d8a8f97","ios":"levelo://app?vid=ff981b15-c84c-46ed-8290-3cfa5d8a8f97"},"vehicle_type_id":"4","last_reported":1743427264,"current_range_meters":19600,"station_id":"ce4bgn92rcd13ifvqbvg","pricing_plan_id":"cebpf4jnsgd1na2vs0mg"},{"bike_id":"bd41a056-4c18-4836-aab5-edf5b87a484a","system_id":"levelo_inurba_marseille","lat":43.284375,"lon":5.391896,"is_reserved":false,"is_disabled":false,"rental_uris":{"android":"levelo://app?vid=bd41a056-4c18-4836-aab5-edf5b87a484a","ios":"levelo://app?vid=bd41a056-4c18-4836-aab5-edf5b87a484a"},"vehicle_type_id":"4","last_reported":1743427264,"current_range_meters":19600,"station_id":"ce4bgt92rcd13ifvqcf0","pricing_plan_id":"cebpf4jnsgd1na2vs0mg"},{"bike_id":"579375df-567d-4bc9-8093-288c198d52fe","system_id":"levelo_inurba_marseille","lat":43.28704,"lon":5.38687,"is_reserved":false,"is_disabled":false,"rental_uris":{"android":"levelo://app?vid=579375df-567d-4bc9-8093-288c198d52fe","ios":"levelo://app?vid=579375df-567d-4bc9-8093-288c198d52fe"},"vehicle_type_id":"4","last_reported":1743427264,"current_range_meters":19600,"station_id":"ce4bh492rcd13ifvqdug","pricing_plan_id":"cebpf4jnsgd1na2vs0mg"},{"bike_id":"4e5bc548-d77e-4fdc-9721-2733fd4694bf","system_id":"levelo_inurba_marseille","lat":43.28268,"lon":5.35072,"is_reserved":false,"is_disabled":false,"rental_uris":{"android":"levelo://app?vid=4e5bc548-d77e-4fdc-9721-2733fd4694bf","ios":"levelo://app?vid=4e5bc548-d77e-4fdc-9721-2733fd4694bf"},"vehicle_type_id":"4","last_reported":1743427264,"current_range_meters":19600,"station_id":"ce4bhbp2rcd13ifvqerg","pricing_plan_id":"cebpf4jnsgd1na2vs0mg"},{"bike_id":"0b67d7b9-5a95-488b-bc33-9e512e418086","system_id":"levelo_inurba_marseille","lat":43.2508,"lon":5.3952,"is_reserved":false,"is_disabled":false,"rental_uris":{"android":"levelo://app?vid=0b67d7b9-5a95-488b-bc33-9e512e418086","ios":"levelo://app?vid=0b67d7b9-5a95-488b-bc33-9e512e418086"},"vehicle_type_id":"4","last_reported":1743427264,"current_range_meters":19600,"station_id":"ce4bhm12rcd13ifvqgkg","pricing_plan_id":"cebpf4jnsgd1na2vs0mg"},{"bike_id":"e7d28e08-d2fd-4a15-bcf4-e8338fa87ac7","system_id":"levelo_inurba_marseille","lat":43.26938,"lon":5.40253,"is_reserved":false,"is_disabled":false,"rental_uris":{"android":"levelo://app?vid=e7d28e08-d2fd-4a15-bcf4-e8338fa87ac7","ios":"levelo://app?vid=e7d28e08-d2fd-4a15-bcf4-e8338fa87ac7"},"vehicle_type_id":"4","last_reported":1743427264,"current_range_meters":19600,"station_id":"cjm6bp8fraef2m0cb0m0","pricing_plan_id":"cebpf4jnsgd1na2vs0mg"},{"bike_id":"75dae32f-059a-4b5b-a5e8-963c6eda2f66","system_id":"levelo_inurba_marseille","lat":43.27519,"lon":5.41032,"is_reserved":false,"is_disabled":false,"rental_uris":{"android":"levelo://app?vid=75dae32f-059a-4b5b-a5e8-963c6eda2f66","ios":"levelo://app?vid=75dae32f-059a-4b5b-a5e8-963c6eda2f66"},"vehicle_type_id":"4","last_reported":1743427264,"current_range_meters":20000,"station_id":"","pricing_plan_id":"cebpf4jnsgd1na2vs0mg"},{"bike_id":"f94911ca-5f8c-4606-96f7-8b43e4349861","system_id":"levelo_inurba_marseille","lat":43.29728,"lon":5.37704,"is_reserved":false,"is_disabled":false,"rental_uris":{"android":"levelo://app?vid=f94911ca-5f8c-4606-96f7-8b43e4349861","ios":"levelo://app?vid=f94911ca-5f8c-4606-96f7-8b43e4349861"},"vehicle_type_id":"4","last_reported":1743427264,"current_range_meters":20000,"station_id":"ce4bgkh2rcd13ifvqbl0","pricing_plan_id":"cebpf4jnsgd1na2vs0mg"},{"bike_id":"0749c4fe-2f4a-4cc5-ba44-51428f59b5e3","system_id":"levelo_inurba_marseille","lat":43.273702,"lon":5.362614,"is_reserved":false,"is_disabled":false,"rental_uris":{"android":"levelo://app?vid=0749c4fe-2f4a-4cc5-ba44-51428f59b5e3","ios":"levelo://app?vid=0749c4fe-2f4a-4cc5-ba44-51428f59b5e3"},"vehicle_type_id":"4","last_reported":1743427264,"current_range_meters":20400,"station_id":"ce4bhbh2rcd13ifvqeo0","pricing_plan_id":"cebpf4jnsgd1na2vs0mg"},