{"last_updated":1706425634,"ttl":30,"version":"2.2","data":{"bikes":[{"bike_id":"5fc57ca2-f1a6-4bb9-89c8-156190f0c212","system_id":"levelo_inurba_marseille","lat":43.30915,"lon":5.36842,"is_reserved":false,"is_disabled":false,"rental_uris":{"android":"levelo://app?vid=5fc57ca2-f1a6-4bb9-89c8-156190f0c212","ios":"levelo://app?vid=5fc57ca2-f1a6-4bb9-89c8-156190f0c212"},"vehicle_type_id":"4","last_reported":1706425634,"current_range_meters":25600,"station_id":"ce4bgn92rcd13ifvqbvg","pricing_plan_id":"free"},{"bike_id":"66cd4499-f625-4e57-99dc-474b013d0767","system_id":"levelo_inurba_marseille","lat":43.309076,"lon":5.368465,"is_reserved":false,"is_disabled":false,"rental_uris":{"android":"levelo://app?vid=66cd4499-f625-4e57-99dc-474b013d0767","ios":"levelo://app?vid=66cd4499-f625-4e57-99dc-474b013d0767"},"vehicle_type_id":"4","last_reported":1706425634,"current_range_meters":27200,"station_id":"ce4bgn92rcd13ifvqbvg","pricing_plan_id":"free"},{"bike_id":"be0a28db-dfa5-4db2-9442-7b4ef8682a46","system_id":"levelo_inurba_marseille","lat":43.30908,"lon":5.36853,"is_reserved":false,"is_disabled":false,"rental_uris":{"android":"levelo://app?vid=be0a28db-dfa5-4db2-9442-7b4ef8682a46","ios":"levelo://app?vid=be0a28db-dfa5-4db2-9442-7b4ef8682a46"},"vehicle_type_id":"4","last_reported":1706425634,"current_range_meters":29600,"station_id":"ce4bgn92rcd13ifvqbvg","pricing_plan_id":"free"},{"bike_id":"912f9e70-5841-422d-a830-629990968328","system_id":"levelo_inurba_marseille","lat":43.30906,"lon":5.36851,"is_reserved":false,"is_disabled":false,"rental_uris":{"android":"levelo://app?vid=912f9e70-5841-422d-a830-629990968328","ios":"levelo://app?vid=912f9e70-5841-422d-a830-629990968328"},"vehicle_type_id":"4","last_reported":1706425634,"current_range_meters":12400,"station_id":"","pricing_plan_id":"free"},{"bike_id":"9fbd1394-f62b-4f2a-b775-769726bec851","system_id":"levelo_inurba_marseille","lat":43.314811,"lon":5.373103,"is_reserved":false,"is_disabled":false,"rental_uris":{"android":"levelo://app?vid=9fbd1394-f62b-4f2a-b775-769726bec851","ios":"levelo://app?vid=9fbd1394-f62b-4f2a-b775-769726bec851"},"vehicle_type_id":"4","last_reported":1706425634,"current_range_meters":31600,"station_id":"ce4bgt12rcd13ifvqcd0","pricing_plan_id":"free"},{"bike_id":"c5070563-51ee-452b-a1d8-1f9664cbb6b9","system_id":"levelo_inurba_marseille","lat":43.314811,"lon":5.373103,"is_reserved":false,"is_disabled":false,"rental_uris":{"android":"levelo://app?vid=c5070563-51ee-452b-a1d8-1f9664cbb6b9","ios":"levelo://app?vid=c5070563-51ee-452b-a1d8-1f9664cbb6b9"},"vehicle_type_id":"4","last_reported":1706425634,"current_range_meters":31200,"station_id":"ce4bgt12rcd13ifvqcd0","pricing_plan_id":"free"},{"bike_id":"a8ab23e8-1be9-448a-90f7-58b9fadc1511","system_id":"levelo_inurba_marseille","lat":43.314811,"lon":5.373103,"is_reserved":false,"is_disabled":false,"rental_uris":{"android":"levelo://app?vid=a8ab23e8-1be9-448a-90f7-58b9fadc1511","ios":"levelo://app?vid=a8ab23e8-1be9-448a-90f7-58b9fadc1511"},"vehicle_type_id":"4","last_reported":1706425634,"current_range_meters":30000,"station_id":"ce4bgt12rcd13ifvqcd0","pricing_plan_id":"free"},{"bike_id":"8ced2901-be8f-47eb-92cd-d368d32b4755","system_id":"levelo_inurba_marseille","lat":43.314811,"lon":5.373103,"is_reserved":false,"is_disabled":false,"rental_uris":{"android":"levelo://app?vid=8ced2901-be8f-47eb-92cd-d368d32b4755","ios":"levelo://app?vid=8ced2901-be8f-47eb-92cd-d368d32b4755"},"vehicle_type_id":"4","last_reported":1706425634,"current_range_meters":31600,"station_id":"ce4bgt12rcd13ifvqcd0","pricing_plan_id":"free"},{"bike_id":"450faeff-5511-4a55-b5bc-2323f55bc8dc","system_id":"levelo_inurba_marseille","lat":43.314811,"lon":5.373103,"is_reserved":false,"is_disabled":false,"rental_uris":{"android":"levelo://app?vid=450faeff-5511-4a55-b5bc-2323f55bc8dc","ios":"levelo://app?vid=450faeff-5511-4a55-b5bc-2323f55bc8dc"},"vehicle_type_id":"4","last_reported":1706425634,"current_range_meters":29200,"station_id":"ce4bgt12rcd13ifvqcd0","pricing_plan_id":"free"},{"bike_id":"3d15222e-d116-4806-8173-ed20829aa86b","system_id":"levelo_inurba_marseille","lat":43.314811,"lon":5.373104,"is_reserved":false,"is_disabled":false,"rental_uris":{"android":"levelo://app?vid=3d15222e-d116-4806-8173-ed20829aa86b","ios":"levelo://app?vid=3d15222e-d116-4806-8173-ed20829aa86b"},"vehicle_type_id":"4","last_reported":1706425634,"current_range_meters":2800,"station_id":"ce4bgt12rcd13ifvqcd0","pricing_plan_id":"free"},{"bike_id":"0bff1dd7-d588-44f6-9d74-e9040ba27bb7","system_id":"levelo_inurba_marseille","lat":43.314811,"lon":5.373103,"is_reserved":false,"is_disabled":false,"rental_uris":{"android":"levelo://app?vid=0bff1dd7-d588-44f6-9d74-e9040ba27bb7","ios":"levelo://app?vid=0bff1dd7-d588-44f6-9d74-e9040ba27bb7"},"vehicle_type_id":"4","last_reported":1706425634,"current_range_meters":26400,"station_id":"ce4bgt12rcd13ifvqcd0","pricing_plan_id":"free"},{"bike_id":"f9131e9d-17ed-4e66-912c-51eede287a48","system_id":"levelo_inurba_marseille","lat":43.314811,"lon":5.373103,"is_reserved":false,"is_disabled":false,"rental_uris":{"android":"levelo://app?vid=f9131e9d-17ed-4e66-912c-51eede287a48","ios":"levelo://app?vid=f9131e9d-17ed-4e66-912c-51eede287a48"},"vehicle_type_id":"4","last_reported":1706425634,"current_range_meters":15200,"station_id":"ce4bgt12rcd13ifvqcd0","pricing_plan_id":"free"},{"bike_id":"0c879c7c-b478-4341-b557-d8fa9e7ce411","system_id":"levelo_inurba_marseille","lat":43.314811,"lon":5.373104,"is_reserved":false,"is_disabled":false,"rental_uris":{"android":"levelo://app?vid=0c879c7c-b478-4341-b557-d8fa9e7ce411","ios":"levelo://app?vid=0c879c7c-b478-4341-b557-d8fa9e7ce411"},"vehicle_type_id":"4","last_reported":1706425634,"current_range_meters":30800,"station_id":"ce4bgt12rcd13ifvqcd0","pricing_plan_id":"free"},{"bike_id":"1a3d829b-da0a-440e-bd77-4996fdba56bf","system_id":"levelo_inurba_marseille","lat":43.314811,"lon":5.373104,"is_reserved":false,"is_disabled":false,"rental_uris":{"android":"levelo://app?vid=1a3d829b-da0a-440e-bd77-4996fdba56bf","ios":"levelo://app?vid=1a3d829b-da0a-440e-bd77-4996fdba56bf"},"vehicle_type_id":"4","last_reported":1706425634,"current_range_meters":27200,"station_id":"ce4bgt12rcd13ifvqcd0","pricing_plan_id":"free"},{"bike_id":"ff6c1c25-8287-4f32-9d54-133fa7cb156b","system_id":"levelo_inurba_marseille","lat":43.309039,"lon":5.371797,"is_reserved":false,"is_disabled":false,"rental_uris":{"android":"levelo://app?vid=ff6c1c25-8287-4f32-9d54-133fa7cb156b","ios":"levelo://app?vid=ff6c1c25-8287-4f32-9d54-133fa7cb156b"},"vehicle_type_id":"4","last_reported":1706425634,"current_range_meters":28400,"station_id":"ce4bguh2rcd13ifvqckg","pricing_plan_id":"free"},{"bike_id":"ab5b945d-2c3a-4df5-82b1-91fc5488dd1d","system_id":"levelo_inurba_marseille","lat":43.309039,"lon":5.371797,"is_reserved":false,"is_disabled":false,"rental_uris":{"android":"levelo://app?vid=ab5b945d-2c3a-4df5-82b1-91fc5488dd1d","ios":"levelo://app?vid=ab5b945d-2c3a-4df5-82b1-91fc5488dd1d"},"vehicle_type_id":"4","last_reported":1706425634,"current_range_meters":31600,"station_id":"ce4bguh2rcd13ifvqckg","pricing_plan_id":"free"},{"bike_id":"210c7657-c99e-4bcb-83da-afdb8db58bf1","system_id":"levelo_inurba_marseille","lat":43.309034,"lon":5.371783,"is_reserved":false,"is_disabled":false,"rental_uris":{"android":"levelo://app?vid=210c7657-c99e-4bcb-83da-afdb8db58bf1","ios":"levelo://app?vid=210c7657-c99e-4bcb-83da-afdb8db58bf1"},"vehicle_type_id":"4","last_reported":1706425634,"current_range_meters":30800,"station_id":"ce4bguh2rcd13ifvqckg","pricing_plan_id":"free"},{"bike_id":"f0eff8a3-daa1-4e80-a5a6-c979d552bccc","system_id":"levelo_inurba_marseille","lat":43.305368,"lon":5.367343,"is_reserved":false,"is_disabled":false,"rental_uris":{"android":"levelo://app?vid=f0eff8a3-daa1-4e80-a5a6-c979d552bccc","ios":"levelo://app?vid=f0eff8a3-daa1-4e80-a5a6-c979d552bccc"},"vehicle_type_id":"4","last_reported":1706425634,"current_range_meters":29600,"station_id":"ce4bgrp2rcd13ifvqc9g","pricing_plan_id":"free"},{"bike_id":"e9452944-f418-4d6d-a4a2-5e507e92935c","system_id":"levelo_inurba_marseille","lat":43.305714,"lon":5.365633,"is_reserved":false,"is_disabled":false,"rental_uris":{"android":"levelo://app?vid=e9452944-f418-4d6d-a4a2-5e507e92935c","ios":"levelo://app?vid=e9452944-f418-4d6d-a4a2-5e507e92935c"},"vehicle_type_id":"4","last_reported":1706425634,"current_range_meters":29600,"station_id":"ce4bgs12rcd13ifvqcag","pricing_plan_id":"free"},{"bike_id":"7d034e6f-21a5-4e2f-bf5e-3f1ebc8c0d4a","system_id":"levelo_inurba_marseille","lat":43.311125,"lon":5.377624,"is_reserved":false,"is_disabled":false,"rental_uris":{"android":"levelo://app?vid=7d034e6f-21a5-4e2f-bf5e-3f1ebc8c0d4a","ios":"levelo://app?vid=7d034e6f-21a5-4e2f-bf5e-3f1ebc8c0d4a"},"vehicle_type_id":"4","last_reported":1706425634,"current_range_meters":11600,"station_id":"ce4bgt92rcd13ifvqcg0","pricing_plan_id":"free"},{"bike_id":"da184317-2c21-476e-b578-c9a40d3883c2","system_id":"levelo_inurba_marseille","lat":43.31118,"lon":5.37766,"is_reserved":false,"is_disabled":false,"rental_uris":{"android":"levelo://app?vid=da184317-2c21-476e-b578-c9a40d3883c2","ios":"levelo://app?vid=da184317-2c21-476e-b578-c9a40d3883c2"},"vehicle_type_id":"4","last_reported":1706425634,"current_range_meters":0,"station_id":"ce4bgt92rcd13ifvqcg0","pricing_plan_id":"free"},{"bike_id":"f9a95911-3d3c-4470-a975-7971158cc078","system_id":"levelo_inurba_marseille","lat":43.307945,"lon":5.376487,"is_reserved":false,"is_disabled":false,"rental_uris":{"android":"levelo://app?vid=f9a95911-3d3c-4470-a975-7971158cc078","ios":"levelo://app?vid=f9a95911-3d3c-4470-a975-7971158cc078"},"vehicle_type_id":"4","last_reported":1706425634,"current_range_meters":20400,"station_id":"ce4bgv92rcd13ifvqcq0","pricing_plan_id":"free"},{"bike_id":"d3314d46-374b-47d7-a330-fbb85ff3b132","system_id":"levelo_inurba_marseille","lat":43.307945,"lon":5.376487,"is_reserved":false,"is_disabled":false,"rental_uris":{"android":"levelo://app?vid=d3314d46-374b-47d7-a330-fbb85ff3b132","ios":"levelo://app?vid=d3314d46-374b-47d7-a330-fbb85ff3b132"},"vehicle_type_id":"4","last_reported":1706425634,"current_range_meters":22800,"station_id":"ce4bgv92rcd13ifvqcq0","pricing_plan_id":"free"},{"bike_id":"386f9084-6bdf-4086-9339-59c7928794bf","system_id":"levelo_inurba_marseille","lat":43.307945,"lon":5.376487,"is_reserved":false,"is_disabled":false,"rental_uris":{"android":"levelo://app?vid=386f9084-6bdf-4086-9339-59c7928794bf","ios":"levelo://app?vid=386f9084-6bdf-4086-9339-59c7928794bf"},"vehicle_type_id":"4","last_reported":1706425634,"current_range_meters":15200,"station_id":"ce4bgv92rcd13ifvqcq0","pricing_plan_id":"free"},{"bike_id":"73645f36-08d9-44f6-8b3c-dd0fe7df04dc","system_id":"levelo_inurba_marseille","lat":43.307945,"lon":5.376487,"is_reserved":false,"is_disabled":false,"rental_uris":{"android":"levelo://app?vid=73645f36-08d9-44f6-8b3c-dd0fe7df04dc","ios":"levelo://app?vid=73645f36-08d9-44f6-8b3c-dd0fe7df04dc"},"vehicle_type_id":"4","last_reported":1706425634,"current_range_meters":29600,"station_id":"ce4bgv92rcd13ifvqcq0","pricing_plan_id":"free"},{"bike_id":"b642d500-d3b2-4731-83ea-2f2dc0895fe9","system_id":"levelo_inurba_marseille","lat":43.307839,"lon":5.376531,"is_reserved":false,"is_disabled":false,"rental_uris":{"android":"levelo://app?vid=b642d500-d3b2-4731-83ea-2f2dc0895fe9","ios":"levelo://app?vid=b642d500-d3b2-4731-83ea-2f2dc0895fe9"},"vehicle_type_id":"4","last_reported":1706425634,"current_range_meters":31200,"station_id":"ce4bgv92rcd13ifvqcq0","pricing_plan_id":"free"},{"bike_id":"bff2f768-032b-40b3-bc87-f4d05864a143","system_id":"levelo_inurba_marseille","lat":43.307945,"lon":5.376487,"is_reserved":false,"is_disabled":false,"rental_uris":{"android":"levelo://app?vid=bff2f768-032b-40b3-bc87-f4d05864a143","ios":"levelo://app?vid=bff2f768-032b-40b3-bc87-f4d05864a143"},"vehicle_type_id":"4","last_reported":1706425634,"current_range_meters":25200,"station_id":"ce4bgv92rcd13ifvqcq0","pricing_plan_id":"free"},{"bike_id":"bf70306f-e475-47ca-8724-a7e42b25d923","system_id":"levelo_inurba_marseille","lat":43.317075,"lon":5.377367,"is_reserved":false,"is_disabled":false,"rental_uris":{"android":"levelo://app?vid=bf70306f-e475-47ca-8724-a7e42b25d923","ios":"levelo://app?vid=bf70306f-e475-47ca-8724-a7e42b25d923"},"vehicle_type_id":"4","last_reported":1706425634,"current_range_meters":30800,"station_id":"ce4bgth2rcd13ifvqch0","pricing_plan_id":"free"},{"bike_id":"4805029b-b495-4c2a-9699-25b9c84d94f3","system_id":"levelo_inurba_marseille","lat":43.317075,"lon":5.377367,"is_reserved":false,"is_disabled":false,"rental_uris":{"android":"levelo://app?vid=4805029b-b495-4c2a-9699-25b9c84d94f3","ios":"levelo://app?vid=4805029b-b495-4c2a-9699-25b9c84d94f3"},"vehicle_type_id":"4","last_reported":1706425634,"current_range_meters":24400,"station_id":"ce4bgth2rcd13ifvqch0","pricing_plan_id":"free"},{"bike_id":"f0c31732-301a-4d0f-9fd3-25ad0ecb4b3c","system_id":"levelo_inurba_marseille","lat":43.317075,"lon":5.377367,"is_reserved":false,"is_disabled":false,"rental_uris":{"android":"levelo://app?vid=f0c31732-301a-4d0f-9fd3-25ad0ecb4b3c","ios":"levelo://app?vid=f0c31732-301a-4d0f-9fd3-25ad0ecb4b3c"},"vehicle_type_id":"4","last_reported":1706425634,"current_range_meters":10800,"station_id":"ce4bgth2rcd13ifvqch0","pricing_plan_id":"free"},{"bike_id":"e6c874a7-4c53-46c7-b3b9-101410bd4b5b","system_id":"levelo_inurba_marseille","lat":43.317075,"lon":5.377367,"is_reserved":false,"is_disabled":false,"rental_uris":{"android":"levelo://app?vid=e6c874a7-4c53-46c7-b3b9-101410bd4b5b","ios":"levelo://app?vid=e6c874a7-4c53-46c7-b3b9-101410bd4b5b"},"vehicle_type_id":"4","last_reported":1706425634,"current_range_meters":27200,"station_id":"ce4bgth2rcd13ifvqch0","pricing_plan_id":"free"},{"bike_id":"6fff0b7d-2514-4e0c-a138-b6e9cb85be95","system_id":"levelo_inurba_marseille","lat":43.317075,"lon":5.377367,"is_reserved":false,"is_disabled":false,"rental_uris":{"android":"levelo://app?vid=6fff0b7d-2514-4e0c-a138-b6e9cb85be95","ios":"levelo://app?vid=6fff0b7d-2514-4e0c-a138-b6e9cb85be95"},"vehicle_type_id":"4","last_reported":1706425634,"current_range_meters":31600,"station_id":"ce4bgth2rcd13ifvqch0","pricing_plan_id":"free"},{"bike_id":"b83daeb9-a39c-4884-86e2-16a37c651f7f","system_id":"levelo_inurba_marseille","lat":43.320055,"lon":5.376208,"is_reserved":false,"is_disabled":false,"rental_uris":{"android":"levelo://app?vid=b83daeb9-a39c-4884-86e2-16a37c651f7f","ios":"levelo://app?vid=b83daeb9-a39c-4884-86e2-16a37c651f7f"},"vehicle_type_id":"4","last_reported":1706425634,"current_range_meters":7200,"station_id":"","pricing_plan_id":"free"},{"bike_id":"2b9973b9-e21f-458a-9e13-6cc909633bbf","system_id":"levelo_inurba_marseille","lat":43.315356,"lon":5.380336,"is_reserved":false,"is_disabled":false,"rental_uris":{"android":"levelo://app?vid=2b9973b9-e21f-458a-9e13-6cc909633bbf","ios":"levelo://app?vid=2b9973b9-e21f-458a-9e13-6cc909633bbf"},"vehicle_type_id":"4","last_reported":1706425634,"current_range_meters":0,"station_id":"ce4bhsp2rcd13ifvqi50","pricing_plan_id":"free"},{"bike_id":"31358974-a289-452d-b8d4-453a1d490f6c","system_id":"levelo_inurba_marseille","lat":43.304606,"lon":5.379026,"is_reserved":false,"is_disabled":false,"rental_uris":{"android":"levelo://app?vid=31358974-a289-452d-b8d4-453a1d490f6c","ios":"levelo://app?vid=31358974-a289-452d-b8d4-453a1d490f6c"},"vehicle_type_id":"4","last_reported":1706425634,"current_range_meters":23600,"station_id":"ce4bgup2rcd13ifvqcn0","pricing_plan_id":"free"},{"bike_id":"adf1ded5-72eb-4cb0-bb9d-f24f7c26e53c","system_id":"levelo_inurba_marseille","lat":43.304606,"lon":5.379026,"is_reserved":false,"is_disabled":false,"rental_uris":{"android":"levelo://app?vid=adf1ded5-72eb-4cb0-bb9d-f24f7c26e53c","ios":"levelo://app?vid=adf1ded5-72eb-4cb0-bb9d-f24f7c26e53c"},"vehicle_type_id":"4","last_reported":1706425634,"current_range_meters":28400,"station_id":"ce4bgup2rcd13ifvqcn0","pricing_plan_id":"free"},{"bike_id":"1aa02228-2f1b-463e-8efd-48a87ba76624","system_id":"levelo_inurba_marseille","lat":43.324771,"lon":5.36557,"is_reserved":false,"is_disabled":false,"rental_uris":{"android":"levelo://app?vid=1aa02228-2f1b-463e-8efd-48a87ba76624","ios":"levelo://app?vid=1aa02228-2f1b-463e-8efd-48a87ba76624"},"vehicle_type_id":"4","last_reported":1706425634,"current_range_meters":10000,"station_id":"ce4bhs12rcd13ifvqhvg","pricing_plan_id":"free"},{"bike_id":"3a3a59d3-87fb-406b-bb04-d1c39f656673","system_id":"levelo_inurba_marseille","lat":43.324771,"lon":5.36557,"is_reserved":false,"is_disabled":false,"rental_uris":{"android":"levelo://app?vid=3a3a59d3-87fb-406b-bb04-d1c39f656673","ios":"levelo://app?vid=3a3a59d3-87fb-406b-bb04-d1c39f656673"},"vehicle_type_id":"4","last_reported":1706425634,"current_range_meters":29200,"station_id":"ce4bhs12rcd13ifvqhvg","pricing_plan_id":"free"},{"bike_id":"dc00bdf8-dc57-4b02-8d44-8ea4906debe3","system_id":"levelo_inurba_marseille","lat":43.324771,"lon":5.36557,"is_reserved":false,"is_disabled":false,"rental_uris":{"android":"levelo://app?vid=dc00bdf8-dc57-4b02-8d44-8ea4906debe3","ios":"levelo://app?vid=dc00bdf8-dc57-4b02-8d44-8ea4906debe3"},"vehicle_type_id":"4","last_reported":1706425634,"current_range_meters":18800,"station_id":"ce4bhs12rcd13ifvqhvg","pricing_plan_id":"free"},{"bike_id":"07b5e8d8-33f7-43e2-91c8-5b7352434015","system_id":"levelo_inurba_marseille","lat":43.304606,"lon":5.379026,"is_reserved":false,"is_disabled":false,"rental_uris":{"android":"levelo://app?vid=07b5e8d8-33f7-43e2-91c8-5b7352434015","ios":"levelo://app?vid=07b5e8d8-33f7-43e2-91c8-5b7352434015"},"vehicle_type_id":"4","last_reported":1706425634,"current_range_meters":26800,"station_id":"ce4bgup2rcd13ifvqcn0","pricing_plan_id":"free"},{"bike_id":"6eab842e-b4d3-4192-8008-085b6fd96870","system_id":"levelo_inurba_marseille","lat":43.304606,"lon":5.379026,"is_reserved":false,"is_disabled":false,"rental_uris":{"android":"levelo://app?vid=6eab842e-b4d3-4192-8008-085b6fd96870","ios":"levelo://app?vid=6eab842e-b4d3-4192-8008-085b6fd96870"},"vehicle_type_id":"4","last_reported":1706425634,"current_range_meters":26400,"station_id":"ce4bgup2rcd13ifvqcn0","pricing_plan_id":"free"},{"bike_id":"50a05534-3e17-4371-ab59-16e5e8718f5d","system_id":"levelo_inurba_marseille","lat":43.324771,"lon":5.36557,"is_reserved":false,"is_disabled":false,"rental_uris":{"android":"levelo://app?vid=50a05534-3e17-4371-ab59-16e5e8718f5d","ios":"levelo://app?vid=50a05534-3e17-4371-ab59-16e5e8718f5d"},"vehicle_type_id":"4","last_reported":1706425634,"current_range_meters":29200,"station_id":"ce4bhs12rcd13ifvqhvg","pricing_plan_id":"free"},{"bike_id":"c2c2cbc0-8eca-4dea-88e3-e6303f53b394","system_id":"levelo_inurba_marseille","lat":43.324771,"lon":5.36557,"is_reserved":false,"is_disabled":false,"rental_uris":{"android":"levelo://app?vid=c2c2cbc0-8eca-4dea-88e3-e6303f53b394","ios":"levelo://app?vid=c2c2cbc0-8eca-4dea-88e3-e6303f53b394"},"vehicle_type_id":"4","last_reported":1706425634,"current_range_meters":28800,"station_id":"ce4bhs12rcd13ifvqhvg","pricing_plan_id":"free"},{"bike_id":"087206d0-416b-43dd-a271-4d1d50efa995","system_id":"levelo_inurba_marseille","lat":43.302784,"lon":5.377158,"is_reserved":false,"is_disabled":false,"rental_uris":{"android":"levelo://app?vid=087206d0-416b-43dd-a271-4d1d50efa995","ios":"levelo://app?vid=087206d0-416b-43dd-a271-4d1d50efa995"},"vehicle_type_id":"4","last_reported":1706425634,"current_range_meters":31200,"station_id":"ce4bguh2rcd13ifvqcj0","pricing_plan_id":"free"},{"bike_id":"30a02579-630f-400c-86e8-710edbd1d15a","system_id":"levelo_inurba_marseille","lat":43.302784,"lon":5.377158,"is_reserved":false,"is_disabled":false,"rental_uris":{"android":"levelo://app?vid=30a02579-630f-400c-86e8-710edbd1d15a","ios":"levelo://app?vid=30a02579-630f-400c-86e8-710edbd1d15a"},"vehicle_type_id":"4","last_reported":1706425634,"current_range_meters":20400,"station_id":"ce4bguh2rcd13ifvqcj0","pricing_plan_id":"free"},{"bike_id":"d1379e4f-9f76-496d-aef7-4d8e0817a0bd","system_id":"levelo_inurba_marseille","lat":43.302784,"lon":5.377158,"is_reserved":false,"is_disabled":false,"rental_uris":{"android":"levelo://app?vid=d1379e4f-9f76-496d-aef7-4d8e0817a0bd","ios":"levelo://app?vid=d1379e4f-9f76-496d-aef7-4d8e0817a0bd"},"vehicle_type_id":"4","last_reported":1706425634,"current_range_meters":22000,"station_id":"ce4bguh2rcd13ifvqcj0","pricing_plan_id":"free"},{"bike_id":"58d76f54-546c-45b2-8ea3-9d6f736e7bb6","system_id":"levelo_inurba_marseille","lat":43.302784,"lon":5.377158,"is_reserved":false,"is_disabled":false,"rental_uris":{"android":"levelo://app?vid=58d76f54-546c-45b2-8ea3-9d6f736e7bb6","ios":"levelo://app?vid=58d76f54-546c-45b2-8ea3-9d6f736e7bb6"},"vehicle_type_id":"4","last_reported":1706425634,"current_range_meters":30000,"station_id":"ce4bguh2rcd13ifvqcj0","pricing_plan_id":"free"},{"bike_id":"036eddce-4405-4131-87b0-54be0f765a23","system_id":"levelo_inurba_marseille","lat":43.302784,"lon":5.377158,"is_reserved":false,"is_disabled":false,"rental_uris":{"android":"levelo://app?vid=036eddce-4405-4131-87b0-54be0f765a23","ios":"levelo://app?vid=036eddce-4405-4131-87b0-54be0f765a23"},"vehicle_type_id":"4","last_reported":1706425634,"current_range_meters":31200,"station_id":"ce4bguh2rcd13ifvqcj0","pricing_plan_id":"free"},{"bike_id":"b0f8ebc1-9e0b-45b4-bac3-f82562e31a7b","system_id":"levelo_inurba_marseille","lat":43.302784,"lon":5.377158,"is_reserved":false,"is_disabled":false,"rental_uris":{"android":"levelo://app?vid=b0f8ebc1-9e0b-45b4-bac3-f82562e31a7b","ios":"levelo://app?vid=b0f8ebc1-9e0b-45b4-bac3-f82562e31a7b"},"vehicle_type_id":"4","last_reported":1706425634,"current_range_meters":29600,"station_id":"ce4bguh2rcd13ifvqcj0","pricing_plan_id":"free"},{"bike_id":"6c121b79-46d9-4eb0-b3b6-ae9fe8e5830e","system_id":"levelo_inurba_marseille","lat":43.319935,"lon":5.381699,"is_reserved":false,"is_disabled":false,"rental_uris":{"android":"levelo://app?vid=6c121b79-46d9-4eb0-b3b6-ae9fe8e5830e","ios":"levelo://app?vid=6c121b79-46d9-4eb0-b3b6-ae9fe8e5830e"},"vehicle_type_id":"4","last_reported":1706425634,"current_range_meters":5600,"station_id":"ce4bhr12rcd13ifvqhpg","pricing_plan_id":"free"},{"bike_id":"f69dc40f-1430-4690-92a8-65e4a969ee00","system_id":"levelo_inurba_marseille","lat":43.313571,"lon":5.384829,"is_reserved":false,"is_disabled":false,"rental_uris":{"android":"levelo://app?vid=f69dc40f-1430-4690-92a8-65e4a969ee00","ios":"levelo://app?vid=f69dc40f-1430-4690-92a8-65e4a969ee00"},"vehicle_type_id":"4","last_reported":1706425634,"current_range_meters":26000,"station_id":"ce4bgt92rcd13ifvqcf0","pricing_plan_id":"free"},{"bike_id":"3f7b134b-dc8b-4873-910e-d7ef07dea49f","system_id":"levelo_inurba_marseille","lat":43.311722,"lon":5.387247,"is_reserved":false,"is_disabled":false,"rental_uris":{"android":"levelo://app?vid=3f7b134b-dc8b-4873-910e-d7ef07dea49f","ios":"levelo://app?vid=3f7b134b-dc8b-4873-910e-d7ef07dea49f"},"vehicle_type_id":"4","last_reported":1706425634,"current_range_meters":29600,"station_id":"ce4bgv12rcd13ifvqcp0","pricing_plan_id":"free"},{"bike_id":"6ff4a019-0928-44b1-a98a-e53f548bf66c","system_id":"levelo_inurba_marseille","lat":43.297794,"lon":5.370888,"is_reserved":false,"is_disabled":false,"rental_uris":{"android":"levelo://app?vid=6ff4a019-0928-44b1-a98a-e53f548bf66c","ios":"levelo://app?vid=6ff4a019-0928-44b1-a98a-e53f548bf66c"},"vehicle_type_id":"4","last_reported":1706425634,"current_range_meters":31200,"station_id":"ce4bgop2rcd13ifvqc1g","pricing_plan_id":"free"},{"bike_id":"5ee7305d-fc16-42f6-9d08-f9216f0c8b44","system_id":"levelo_inurba_marseille","lat":43.297794,"lon":5.370888,"is_reserved":false,"is_disabled":false,"rental_uris":{"android":"levelo://app?vid=5ee7305d-fc16-42f6-9d08-f9216f0c8b44","ios":"levelo://app?vid=5ee7305d-fc16-42f6-9d08-f9216f0c8b44"},"vehicle_type_id":"4","last_reported":1706425634,"current_range_meters":31600,"station_id":"ce4bgop2rcd13ifvqc1g","pricing_plan_id":"free"},{"bike_id":"a3b74381-0d58-448f-9a1c-2f1261e3769d","system_id":"levelo_inurba_marseille","lat":43.322872,"lon":5.382756,"is_reserved":false,"is_disabled":false,"rental_uris":{"android":"levelo://app?vid=a3b74381-0d58-448f-9a1c-2f1261e3769d","ios":"levelo://app?vid=a3b74381-0d58-448f-9a1c-2f1261e3769d"},"vehicle_type_id":"4","last_reported":1706425634,"current_range_meters":31600,"station_id":"ce4bhr12rcd13ifvqhqg","pricing_plan_id":"free"},{"bike_id":"965a5dab-e227-4efc-b518-9780186a9de9","system_id":"levelo_inurba_marseille","lat":43.322872,"lon":5.382756,"is_reserved":false,"is_disabled":false,"rental_uris":{"android":"levelo://app?vid=965a5dab-e227-4efc-b518-9780186a9de9","ios":"levelo://app?vid=965a5dab-e227-4efc-b518-9780186a9de9"},"vehicle_type_id":"4","last_reported":1706425634,"current_range_meters":28000,"station_id":"ce4bhr12rcd13ifvqhqg","pricing_plan_id":"free"},{"bike_id":"ab98e573-92e3-4c87-b938-e8306447ae15","system_id":"levelo_inurba_marseille","lat":43.322872,"lon":5.382756,"is_reserved":false,"is_disabled":false,"rental_uris":{"android":"levelo://app?vid=ab98e573-92e3-4c87-b938-e8306447ae15","ios":"levelo://app?vid=ab98e573-92e3-4c87-b938-e8306447ae15"},"vehicle_type_id":"4","last_reported":1706425634,"current_range_meters":31200,"station_id":"ce4bhr12rcd13ifvqhqg","pricing_plan_id":"free"},{"bike_id":"9c4d9993-7f7a-4f86-9392-50f8b41cf1ca","system_id":"levelo_inurba_marseille","lat":43.322872,"lon":5.382756,"is_reserved":false,"is_disabled":false,"rental_uris":{"android":"levelo://app?vid=9c4d9993-7f7a-4f86-9392-50f8b41cf1ca","ios":"levelo://app?vid=9c4d9993-7f7a-4f86-9392-50f8b41cf1ca"},"vehicle_type_id":"4","last_reported":1706425634,"current_range_meters":28000,"station_id":"ce4bhr12rcd13ifvqhqg","pricing_plan_id":"free"},{"bike_id":"af1c8fc0-8183-4d68-848c-9159b1d2bf45","system_id":"levelo_inurba_marseille","lat":43.328371,"lon":5.366909,"is_reserved":false,"is_disabled":false,"rental_uris":{"android":"levelo://app?vid=af1c8fc0-8183-4d68-848c-9159b1d2bf45","ios":"levelo://app?vid=af1c8fc0-8183-4d68-848c-9159b1d2bf45"},"vehicle_type_id":"4","last_reported":1706425634,"current_range_meters":11600,"station_id":"ce4bhs92rcd13ifvqi0g","pricing_plan_id":"free"},{"bike_id":"12edd8fe-ac42-424b-86a0-ddbc64b4f114","system_id":"levelo_inurba_marseille","lat":43.328371,"lon":5.366909,"is_reserved":false,"is_disabled":false,"rental_uris":{"android":"levelo://app?vid=12edd8fe-ac42-424b-86a0-ddbc64b4f114","ios":"levelo://app?vid=12edd8fe-ac42-424b-86a0-ddbc64b4f114"},"vehicle_type_id":"4","last_reported":1706425634,"current_range_meters":14800,"station_id":"ce4bhs92rcd13ifvqi0g","pricing_plan_id":"free"},{"bike_id":"dcec37da-d38a-43f8-923e-0a60c5b5d075","system_id":"levelo_inurba_marseille","lat":43.297163,"lon":5.365866,"is_reserved":false,"is_disabled":false,"rental_uris":{"android":"levelo://app?vid=dcec37da-d38a-43f8-923e-0a60c5b5d075","ios":"levelo://app?vid=dcec37da-d38a-43f8-923e-0a60c5b5d075"},"vehicle_type_id":"4","last_reported":1706425634,"current_range_meters":16400,"station_id":"ce4bgn12rcd13ifvqbt0","pricing_plan_id":"free"},{"bike_id":"4ab9868d-627e-4be9-8871-185d069d035d","system_id":"levelo_inurba_marseille","lat":43.297163,"lon":5.365866,"is_reserved":false,"is_disabled":false,"rental_uris":{"android":"levelo://app?vid=4ab9868d-627e-4be9-8871-185d069d035d","ios":"levelo://app?vid=4ab9868d-627e-4be9-8871-185d069d035d"},"vehicle_type_id":"4","last_reported":1706425634,"current_range_meters":31600,"station_id":"ce4bgn12rcd13ifvqbt0","pricing_plan_id":"free"},{"bike_id":"16eb086f-d449-4ebf-a8bf-5366f3f1e6ed","system_id":"levelo_inurba_marseille","lat":43.297163,"lon":5.365866,"is_reserved":false,"is_disabled":false,"rental_uris":{"android":"levelo://app?vid=16eb086f-d449-4ebf-a8bf-5366f3f1e6ed","ios":"levelo://app?vid=16eb086f-d449-4ebf-a8bf-5366f3f1e6ed"},"vehicle_type_id":"4","last_reported":1706425634,"current_range_meters":31600,"station_id":"ce4bgn12rcd13ifvqbt0","pricing_plan_id":"free"},{"bike_id":"ea347f58-d9f1-491b-86ae-f4efd937fdd3","system_id":"levelo_inurba_marseille","lat":43.309513,"lon":5.3903,"is_reserved":false,"is_disabled":false,"rental_uris":{"android":"levelo://app?vid=ea347f58-d9f1-491b-86ae-f4efd937fdd3","ios":"levelo://app?vid=ea347f58-d9f1-491b-86ae-f4efd937fdd3"},"vehicle_type_id":"4","last_reported":1706425634,"current_range_meters":25600,"station_id":"ce4bgup2rcd13ifvqco0","pricing_plan_id":"free"},{"bike_id":"9d6e93d9-33a6-414f-8f86-b10426802c4b","system_id":"levelo_inurba_marseille","lat":43.309469,"lon":5.390349,"is_reserved":false,"is_disabled":false,"rental_uris":{"android":"levelo://app?vid=9d6e93d9-33a6-414f-8f86-b10426802c4b","ios":"levelo://app?vid=9d6e93d9-33a6-414f-8f86-b10426802c4b"},"vehicle_type_id":"4","last_reported":1706425634,"current_range_meters":31600,"station_id":"","pricing_plan_id":"free"},{"bike_id":"5849c8f1-de07-480c-ab10-c023b55280ba","system_id":"levelo_inurba_marseille","lat":43.322556,"lon":5.386804,"is_reserved":false,"is_disabled":false,"rental_uris":{"android":"levelo://app?vid=5849c8f1-de07-480c-ab10-c023b55280ba","ios":"levelo://app?vid=5849c8f1-de07-480c-ab10-c023b55280ba"},"vehicle_type_id":"4","last_reported":1706425634,"current_range_meters":0,"station_id":"","pricing_plan_id":"free"},{"bike_id":"87f765a3-7a77-4751-be49-64b3a4a4bd4e","system_id":"levelo_inurba_marseille","lat":43.295748,"lon":5.37522,"is_reserved":false,"is_disabled":false,"rental_uris":{"android":"levelo://app?vid=87f765a3-7a77-4751-be49-64b3a4a4bd4e","ios":"levelo://app?vid=87f765a3-7a77-4751-be49-64b3a4a4bd4e"},"vehicle_type_id":"4","last_reported":1706425634,"current_range_meters":27200,"station_id":"ce4bgh92rcd13ifvqb50","pricing_plan_id":"free"},{"bike_id":"46151e91-5dbb-43c7-a01b-8b711f395145","system_id":"levelo_inurba_marseille","lat":43.29574,"lon":5.37497,"is_reserved":false,"is_disabled":false,"rental_uris":{"android":"levelo://app?vid=46151e91-5dbb-43c7-a01b-8b711f395145","ios":"levelo://app?vid=46151e91-5dbb-43c7-a01b-8b711f395145"},"vehicle_type_id":"4","last_reported":1706425634,"current_range_meters":31200,"station_id":"ce4bgh92rcd13ifvqb50","pricing_plan_id":"free"},{"bike_id":"e0c037e6-80af-4c67-89c3-86642ddeb18c","system_id":"levelo_inurba_marseille","lat":43.295748,"lon":5.37522,"is_reserved":false,"is_disabled":false,"rental_uris":{"android":"levelo://app?vid=e0c037e6-80af-4c67-89c3-86642ddeb18c","ios":"levelo://app?vid=e0c037e6-80af-4c67-89c3-86642ddeb18c"},"vehicle_type_id":"4","last_reported":1706425634,"current_range_meters":0,"station_id":"ce4bgh92rcd13ifvqb50","pricing_plan_id":"free"},{"bike_id":"6c1704b0-3d7d-4e78-a97a-6bea60c060a8","system_id":"levelo_inurba_marseille","lat":43.304278,"lon":5.388868,"is_reserved":false,"is_disabled":false,"rental_uris":{"android":"levelo://app?vid=6c1704b0-3d7d-4e78-a97a-6bea60c060a8","ios":"levelo://app?vid=6c1704b0-3d7d-4e78-a97a-6bea60c060a8"},"vehicle_type_id":"4","last_reported":1706425634,"current_range_meters":18400,"station_id":"ce4bgk12rcd13ifvqbi0","pricing_plan_id":"free"},{"bike_id":"753d58e3-d2b7-4cc1-9add-99189ec3fb22","system_id":"levelo_inurba_marseille","lat":43.304274,"lon":5.388873,"is_reserved":false,"is_disabled":false,"rental_uris":{"android":"levelo://app?vid=753d58e3-d2b7-4cc1-9add-99189ec3fb22","ios":"levelo://app?vid=753d58e3-d2b7-4cc1-9add-99189ec3fb22"},"vehicle_type_id":"4","last_reported":1706425634,"current_range_meters":24800,"station_id":"ce4bgk12rcd13ifvqbi0","pricing_plan_id":"free"},{"bike_id":"862c83b3-6aa4-495d-a677-6580b16334a1","system_id":"levelo_inurba_marseille","lat":43.29613,"lon":5.37714,"is_reserved":false,"is_disabled":false,"rental_uris":{"android":"levelo://app?vid=862c83b3-6aa4-495d-a677-6580b16334a1","ios":"levelo://app?vid=862c83b3-6aa4-495d-a677-6580b16334a1"},"vehicle_type_id":"4","last_reported":1706425634,"current_range_meters":28800,"station_id":"ce4bgi92rcd13ifvqb90","pricing_plan_id":"free"},{"bike_id":"ef955417-95d4-4ef0-a591-7b095239de84","system_id":"levelo_inurba_marseille","lat":43.29979,"lon":5.38481,"is_reserved":false,"is_disabled":false,"rental_uris":{"android":"levelo://app?vid=ef955417-95d4-4ef0-a591-7b095239de84","ios":"levelo://app?vid=ef955417-95d4-4ef0-a591-7b095239de84"},"vehicle_type_id":"4","last_reported":1706425634,"current_range_meters":30400,"station_id":"ce4bgj92rcd13ifvqbd0","pricing_plan_id":"free"},{"bike_id":"a24966b7-32af-4f54-8f75-0b61db8686c5","system_id":"levelo_inurba_marseille","lat":43.29528,"lon":5.374887,"is_reserved":false,"is_disabled":false,"rental_uris":{"android":"levelo://app?vid=a24966b7-32af-4f54-8f75-0b61db8686c5","ios":"levelo://app?vid=a24966b7-32af-4f54-8f75-0b61db8686c5"},"vehicle_type_id":"4","last_reported":1706425634,"current_range_meters":28400,"station_id":"ce4bgkp2rcd13ifvqbmg","pricing_plan_id":"free"},{"bike_id":"eb67c07a-8091-44bf-9404-f1f9732e8dc9","system_id":"levelo_inurba_marseille","lat":43.29974,"lon":5.38485,"is_reserved":false,"is_disabled":false,"rental_uris":{"android":"levelo://app?vid=eb67c07a-8091-44bf-9404-f1f9732e8dc9","ios":"levelo://app?vid=eb67c07a-8091-44bf-9404-f1f9732e8dc9"},"vehicle_type_id":"4","last_reported":1706425634,"current_range_meters":23600,"station_id":"ce4bgj92rcd13ifvqbd0","pricing_plan_id":"free"},{"bike_id":"bbb05f97-1211-405b-810f-050e1d3ed8f7","system_id":"levelo_inurba_marseille","lat":43.29977,"lon":5.38496,"is_reserved":false,"is_disabled":false,"rental_uris":{"android":"levelo://app?vid=bbb05f97-1211-405b-810f-050e1d3ed8f7","ios":"levelo://app?vid=bbb05f97-1211-405b-810f-050e1d3ed8f7"},"vehicle_type_id":"4","last_reported":1706425634,"current_range_meters":31200,"station_id":"ce4bgj92rcd13ifvqbd0","pricing_plan_id":"free"},{"bike_id":"69545208-a477-4259-aa34-52ff859f1cec","system_id":"levelo_inurba_marseille","lat":43.295279,"lon":5.375048,"is_reserved":false,"is_disabled":false,"rental_uris":{"android":"levelo://app?vid=69545208-a477-4259-aa34-52ff859f1cec","ios":"levelo://app?vid=69545208-a477-4259-aa34-52ff859f1cec"},"vehicle_type_id":"4","last_reported":1706425634,"current_range_meters":29600,"station_id":"ce4bgkp2rcd13ifvqbmg","pricing_plan_id":"free"},{"bike_id":"db6fa813-b5cd-4dd0-acf7-c56362f55820","system_id":"levelo_inurba_marseille","lat":43.299782,"lon":5.385098,"is_reserved":false,"is_disabled":false,"rental_uris":{"android":"levelo://app?vid=db6fa813-b5cd-4dd0-acf7-c56362f55820","ios":"levelo://app?vid=db6fa813-b5cd-4dd0-acf7-c56362f55820"},"vehicle_type_id":"4","last_reported":1706425634,"current_range_meters":31200,"station_id":"ce4bgj92rcd13ifvqbd0","pricing_plan_id":"free"},{"bike_id":"bc52a5a0-ece1-4847-b560-353a8a680667","system_id":"levelo_inurba_marseille","lat":43.29971,"lon":5.38509,"is_reserved":false,"is_disabled":false,"rental_uris":{"android":"levelo://app?vid=bc52a5a0-ece1-4847-b560-353a8a680667","ios":"levelo://app?vid=bc52a5a0-ece1-4847-b560-353a8a680667"},"vehicle_type_id":"4","last_reported":1706425634,"current_range_meters":29600,"station_id":"ce4bgj92rcd13ifvqbd0","pricing_plan_id":"free"},{"bike_id":"f639f2e9-2e6c-4352-8c0a-e5690cb3dfd5","system_id":"levelo_inurba_marseille","lat":43.295279,"lon":5.375048,"is_reserved":false,"is_disabled":false,"rental_uris":{"android":"levelo://app?vid=f639f2e9-2e6c-4352-8c0a-e5690cb3dfd5","ios":"levelo://app?vid=f639f2e9-2e6c-4352-8c0a-e5690cb3dfd5"},"vehicle_type_id":"4","last_reported":1706425634,"current_range_meters":31600,"station_id":"ce4bgkp2rcd13ifvqbmg","pricing_plan_id":"free"},{"bike_id":"ec406625-3bb3-4303-8499-f733d809293d","system_id":"levelo_inurba_marseille","lat":43.299717,"lon":5.384845,"is_reserved":false,"is_disabled":false,"rental_uris":{"android":"levelo://app?vid=ec406625-3bb3-4303-8499-f733d809293d","ios":"levelo://app?vid=ec406625-3bb3-4303-8499-f733d809293d"},"vehicle_type_id":"4","last_reported":1706425634,"current_range_meters":31200,"station_id":"ce4bgj92rcd13ifvqbd0","pricing_plan_id":"free"},{"bike_id":"311f2bb5-da85-44fc-915b-153e21fa0c75","system_id":"levelo_inurba_marseille","lat":43.32367,"lon":5.388836,"is_reserved":false,"is_disabled":false,"rental_uris":{"android":"levelo://app?vid=311f2bb5-da85-44fc-915b-153e21fa0c75","ios":"levelo://app?vid=311f2bb5-da85-44fc-915b-153e21fa0c75"},"vehicle_type_id":"4","last_reported":1706425634,"current_range_meters":800,"station_id":"ce4bhqp2rcd13ifvqhog","pricing_plan_id":"free"},{"bike_id":"36fdf3a9-6637-4abe-9106-b80fdb7b6025","system_id":"levelo_inurba_marseille","lat":43.32367,"lon":5.388836,"is_reserved":false,"is_disabled":false,"rental_uris":{"android":"levelo://app?vid=36fdf3a9-6637-4abe-9106-b80fdb7b6025","ios":"levelo://app?vid=36fdf3a9-6637-4abe-9106-b80fdb7b6025"},"vehicle_type_id":"4","last_reported":1706425634,"current_range_meters":14400,"station_id":"ce4bhqp2rcd13ifvqhog","pricing_plan_id":"free"},{"bike_id":"8a33758a-88df-484d-be96-917dfb2f5d96","system_id":"levelo_inurba_marseille","lat":43.32368,"lon":5.3889,"is_reserved":false,"is_disabled":false,"rental_uris":{"android":"levelo://app?vid=8a33758a-88df-484d-be96-917dfb2f5d96","ios":"levelo://app?vid=8a33758a-88df-484d-be96-917dfb2f5d96"},"vehicle_type_id":"4","last_reported":1706425634,"current_range_meters":23200,"station_id":"ce4bhqp2rcd13ifvqhog","pricing_plan_id":"free"},{"bike_id":"7bcf8506-76b9-4762-9deb-578aafc908cf","system_id":"levelo_inurba_marseille","lat":43.292834,"lon":5.368193,"is_reserved":false,"is_disabled":false,"rental_uris":{"android":"levelo://app?vid=7bcf8506-76b9-4762-9deb-578aafc908cf","ios":"levelo://app?vid=7bcf8506-76b9-4762-9deb-578aafc908cf"},"vehicle_type_id":"4","last_reported":1706425634,"current_range_meters":29200,"station_id":"ce4bhbp2rcd13ifvqesg","pricing_plan_id":"free"},{"bike_id":"cd56fb6a-d8e9-45fd-9e0f-60c04465e6d3","system_id":"levelo_inurba_marseille","lat":43.292749,"lon":5.368402,"is_reserved":false,"is_disabled":false,"rental_uris":{"android":"levelo://app?vid=cd56fb6a-d8e9-45fd-9e0f-60c04465e6d3","ios":"levelo://app?vid=cd56fb6a-d8e9-45fd-9e0f-60c04465e6d3"},"vehicle_type_id":"4","last_reported":1706425634,"current_range_meters":26400,"station_id":"ce4bhbp2rcd13ifvqesg","pricing_plan_id":"free"},{"bike_id":"d5f4b731-261b-4935-b6d6-3fd7bf4195ec","system_id":"levelo_inurba_marseille","lat":43.292749,"lon":5.368402,"is_reserved":false,"is_disabled":false,"rental_uris":{"android":"levelo://app?vid=d5f4b731-261b-4935-b6d6-3fd7bf4195ec","ios":"levelo://app?vid=d5f4b731-261b-4935-b6d6-3fd7bf4195ec"},"vehicle_type_id":"4","last_reported":1706425634,"current_range_meters":13600,"station_id":"ce4bhbp2rcd13ifvqesg","pricing_plan_id":"free"},{"bike_id":"bb824c7d-19d4-4d7c-96d6-48382a285396","system_id":"levelo_inurba_marseille","lat":43.29274,"lon":5.36848,"is_reserved":false,"is_disabled":false,"rental_uris":{"android":"levelo://app?vid=bb824c7d-19d4-4d7c-96d6-48382a285396","ios":"levelo://app?vid=bb824c7d-19d4-4d7c-96d6-48382a285396"},"vehicle_type_id":"4","last_reported":1706425634,"current_range_meters":27600,"station_id":"ce4bhbp2rcd13ifvqesg","pricing_plan_id":"free"},{"bike_id":"b5464451-4d67-4d10-9fee-5d8424e84241","system_id":"levelo_inurba_marseille","lat":43.292749,"lon":5.368402,"is_reserved":false,"is_disabled":false,"rental_uris":{"android":"levelo://app?vid=b5464451-4d67-4d10-9fee-5d8424e84241","ios":"levelo://app?vid=b5464451-4d67-4d10-9fee-5d8424e84241"},"vehicle_type_id":"4","last_reported":1706425634,"current_range_meters":26400,"station_id":"ce4bhbp2rcd13ifvqesg","pricing_plan_id":"free"},{"bike_id":"674ec721-013b-448c-8dc4-63e094dcd879","system_id":"levelo_inurba_marseille","lat":43.29271,"lon":5.36849,"is_reserved":false,"is_disabled":false,"rental_uris":{"android":"levelo://app?vid=674ec721-013b-448c-8dc4-63e094dcd879","ios":"levelo://app?vid=674ec721-013b-448c-8dc4-63e094dcd879"},"vehicle_type_id":"4","last_reported":1706425634,"current_range_meters":28800,"station_id":"ce4bhbp2rcd13ifvqesg","pricing_plan_id":"free"},{"bike_id":"80906e2a-12d7-4d68-9425-b5f85c940c89","system_id":"levelo_inurba_marseille","lat":43.292749,"lon":5.368402,"is_reserved":false,"is_disabled":false,"rental_uris":{"android":"levelo://app?vid=80906e2a-12d7-4d68-9425-b5f85c940c89","ios":"levelo://app?vid=80906e2a-12d7-4d68-9425-b5f85c940c89"},"vehicle_type_id":"4","last_reported":1706425634,"current_range_meters":23200,"station_id":"ce4bhbp2rcd13ifvqesg","pricing_plan_id":"free"},{"bike_id":"66e06646-18dc-444c-8a40-ae3c3c21b6ce","system_id":"levelo_inurba_marseille","lat":43.292667,"lon":5.368526,"is_reserved":false,"is_disabled":false,"rental_uris":{"android":"levelo://app?vid=66e06646-18dc-444c-8a40-ae3c3c21b6ce","ios":"levelo://app?vid=66e06646-18dc-444c-8a40-ae3c3c21b6ce"},"vehicle_type_id":"4","last_reported":1706425634,"current_range_meters":28400,"station_id":"ce4bhbp2rcd13ifvqesg","pricing_plan_id":"free"},{"bike_id":"59ee600b-5041-4f04-a3bd-1eb24adca31c","system_id":"levelo_inurba_marseille","lat":43.293259,"lon":5.371586,"is_reserved":false,"is_disabled":false,"rental_uris":{"android":"levelo://app?vid=59ee600b-5041-4f04-a3bd-1eb24adca31c","ios":"levelo://app?vid=59ee600b-5041-4f04-a3bd-1eb24adca31c"},"vehicle_type_id":"4","last_reported":1706425634,"current_range_meters":31600,"station_id":"ce4bgh92rcd13ifvqb40","pricing_plan_id":"free"},{"bike_id":"014ab2a2-dba5-4b46-be9f-410f6edc0d41","system_id":"levelo_inurba_marseille","lat":43.29264,"lon":5.3685,"is_reserved":false,"is_disabled":false,"rental_uris":{"android":"levelo://app?vid=014ab2a2-dba5-4b46-be9f-410f6edc0d41","ios":"levelo://app?vid=014ab2a2-dba5-4b46-be9f-410f6edc0d41"},"vehicle_type_id":"4","last_reported":1706425634,"current_range_meters":27600,"station_id":"ce4bhbp2rcd13ifvqesg","pricing_plan_id":"free"},{"bike_id":"d2fd96d4-1218-4f7f-9ece-95d51388a8d8","system_id":"levelo_inurba_marseille","lat":43.305994,"lon":5.393687,"is_reserved":false,"is_disabled":false,"rental_uris":{"android":"levelo://app?vid=d2fd96d4-1218-4f7f-9ece-95d51388a8d8","ios":"levelo://app?vid=d2fd96d4-1218-4f7f-9ece-95d51388a8d8"},"vehicle_type_id":"4","last_reported":1706425634,"current_range_meters":29600,"station_id":"ce4bh0p2rcd13ifvqd80","pricing_plan_id":"free"},{"bike_id":"6ea85b93-0dcf-48f9-8097-73fa32d7ffcf","system_id":"levelo_inurba_marseille","lat":43.29301,"lon":5.37445,"is_reserved":false,"is_disabled":false,"rental_uris":{"android":"levelo://app?vid=6ea85b93-0dcf-48f9-8097-73fa32d7ffcf","ios":"levelo://app?vid=6ea85b93-0dcf-48f9-8097-73fa32d7ffcf"},"vehicle_type_id":"4","last_reported":1706425634,"current_range_meters":12000,"station_id":"ce4bgi12rcd13ifvqb70","pricing_plan_id":"free"},{"bike_id":"a009188d-a390-4bb8-b6f1-1c68dae1ddde","system_id":"levelo_inurba_marseille","lat":43.292966,"lon":5.374478,"is_reserved":false,"is_disabled":false,"rental_uris":{"android":"levelo://app?vid=a009188d-a390-4bb8-b6f1-1c68dae1ddde","ios":"levelo://app?vid=a009188d-a390-4bb8-b6f1-1c68dae1ddde"},"vehicle_type_id":"4","last_reported":1706425634,"current_range_meters":26000,"station_id":"ce4bgi12rcd13ifvqb70","pricing_plan_id":"free"},{"bike_id":"f0cbf083-a6f1-422c-a39d-7a04b6ef537b","system_id":"levelo_inurba_marseille","lat":43.292986,"lon":5.374593,"is_reserved":false,"is_disabled":false,"rental_uris":{"android":"levelo://app?vid=f0cbf083-a6f1-422c-a39d-7a04b6ef537b","ios":"levelo://app?vid=f0cbf083-a6f1-422c-a39d-7a04b6ef537b"},"vehicle_type_id":"4","last_reported":1706425634,"current_range_meters":31200,"station_id":"ce4bgi12rcd13ifvqb70","pricing_plan_id":"free"},{"bike_id":"58fdaf7f-f194-4a6e-adad-6fbb359797bc","system_id":"levelo_inurba_marseille","lat":43.293722,"lon":5.378505,"is_reserved":false,"is_disabled":false,"rental_uris":{"android":"levelo://app?vid=58fdaf7f-f194-4a6e-adad-6fbb359797bc","ios":"levelo://app?vid=58fdaf7f-f194-4a6e-adad-6fbb359797bc"},"vehicle_type_id":"4","last_reported":1706425634,"current_range_meters":0,"station_id":"ce4bgjh2rcd13ifvqbf0","pricing_plan_id":"free"},{"bike_id":"221ed109-4a3c-467c-95fd-341bf4bc65a4","system_id":"levelo_inurba_marseille","lat":43.2936,"lon":5.37835,"is_reserved":false,"is_disabled":false,"rental_uris":{"android":"levelo://app?vid=221ed109-4a3c-467c-95fd-341bf4bc65a4","ios":"levelo://app?vid=221ed109-4a3c-467c-95fd-341bf4bc65a4"},"vehicle_type_id":"4","last_reported":1706425634,"current_range_meters":25200,"station_id":"ce4bgjh2rcd13ifvqbf0","pricing_plan_id":"free"},{"bike_id":"8cc70635-7b78-4cdf-87a8-f8a6d0f92be6","system_id":"levelo_inurba_marseille","lat":43.300852,"lon":5.390859,"is_reserved":false,"is_disabled":false,"rental_uris":{"android":"levelo://app?vid=8cc70635-7b78-4cdf-87a8-f8a6d0f92be6","ios":"levelo://app?vid=8cc70635-7b78-4cdf-87a8-f8a6d0f92be6"},"vehicle_type_id":"4","last_reported":1706425634,"current_range_meters":28800,"station_id":"ce4bh192rcd13ifvqdb0","pricing_plan_id":"free"},{"bike_id":"8e967eb1-cdc3-4cbf-8d3a-18684bae0171","system_id":"levelo_inurba_marseille","lat":43.292203,"lon":5.36052,"is_reserved":false,"is_disabled":false,"rental_uris":{"android":"levelo://app?vid=8e967eb1-cdc3-4cbf-8d3a-18684bae0171","ios":"levelo://app?vid=8e967eb1-cdc3-4cbf-8d3a-18684bae0171"},"vehicle_type_id":"4","last_reported":1706425634,"current_range_meters":4000,"station_id":"ce4bhbh2rcd13ifvqeqg","pricing_plan_id":"free"},{"bike_id":"2375ae9f-20ab-4fc5-ac2d-c8ce4f62587f","system_id":"levelo_inurba_marseille","lat":43.291671,"lon":5.371575,"is_reserved":false,"is_disabled":false,"rental_uris":{"android":"levelo://app?vid=2375ae9f-20ab-4fc5-ac2d-c8ce4f62587f","ios":"levelo://app?vid=2375ae9f-20ab-4fc5-ac2d-c8ce4f62587f"},"vehicle_type_id":"4","last_reported":1706425634,"current_range_meters":25200,"station_id":"ce4bha92rcd13ifvqeh0","pricing_plan_id":"free"},{"bike_id":"64467296-3abf-46df-b96e-a0a68484f12c","system_id":"levelo_inurba_marseille","lat":43.298764,"lon":5.388973,"is_reserved":false,"is_disabled":false,"rental_uris":{"android":"levelo://app?vid=64467296-3abf-46df-b96e-a0a68484f12c","ios":"levelo://app?vid=64467296-3abf-46df-b96e-a0a68484f12c"},"vehicle_type_id":"4","last_reported":1706425634,"current_range_meters":28000,"station_id":"ce4bh392rcd13ifvqdl0","pricing_plan_id":"free"},{"bike_id":"5440966e-3ec5-4bac-b49d-1d16fa26075b","system_id":"levelo_inurba_marseille","lat":43.291994,"lon":5.357886,"is_reserved":false,"is_disabled":false,"rental_uris":{"android":"levelo://app?vid=5440966e-3ec5-4bac-b49d-1d16fa26075b","ios":"levelo://app?vid=5440966e-3ec5-4bac-b49d-1d16fa26075b"},"vehicle_type_id":"4","last_reported":1706425634,"current_range_meters":5600,"station_id":"ce4bhb12rcd13ifvqel0","pricing_plan_id":"free"},{"bike_id":"fc08cf01-4e65-4878-97af-4b5b12bc3e46","system_id":"levelo_inurba_marseille","lat":43.309047,"lon":5.396551,"is_reserved":false,"is_disabled":false,"rental_uris":{"android":"levelo://app?vid=fc08cf01-4e65-4878-97af-4b5b12bc3e46","ios":"levelo://app?vid=fc08cf01-4e65-4878-97af-4b5b12bc3e46"},"vehicle_type_id":"4","last_reported":1706425634,"current_range_meters":6800,"station_id":"ce4bh012rcd13ifvqcv0","pricing_plan_id":"free"},{"bike_id":"841a47e1-89ae-4544-a907-6b7c3ab89792","system_id":"levelo_inurba_marseille","lat":43.309047,"lon":5.396551,"is_reserved":false,"is_disabled":false,"rental_uris":{"android":"levelo://app?vid=841a47e1-89ae-4544-a907-6b7c3ab89792","ios":"levelo://app?vid=841a47e1-89ae-4544-a907-6b7c3ab89792"},"vehicle_type_id":"4","last_reported":1706425634,"current_range_meters":31600,"station_id":"ce4bh012rcd13ifvqcv0","pricing_plan_id":"free"},{"bike_id":"da33d4fa-f5c8-4901-b5ff-1899734aa532","system_id":"levelo_inurba_marseille","lat":43.309047,"lon":5.396551,"is_reserved":false,"is_disabled":false,"rental_uris":{"android":"levelo://app?vid=da33d4fa-f5c8-4901-b5ff-1899734aa532","ios":"levelo://app?vid=da33d4fa-f5c8-4901-b5ff-1899734aa532"},"vehicle_type_id":"4","last_reported":1706425634,"current_range_meters":22400,"station_id":"ce4bh012rcd13ifvqcv0","pricing_plan_id":"free"},{"bike_id":"d843df6e-20ce-4bb1-9aa2-d0e280c4b549","system_id":"levelo_inurba_marseille","lat":43.31332,"lon":5.3969,"is_reserved":false,"is_disabled":false,"rental_uris":{"android":"levelo://app?vid=d843df6e-20ce-4bb1-9aa2-d0e280c4b549","ios":"levelo://app?vid=d843df6e-20ce-4bb1-9aa2-d0e280c4b549"},"vehicle_type_id":"4","last_reported":1706425634,"current_range_meters":25600,"station_id":"ce4bgvp2rcd13ifvqcu0","pricing_plan_id":"free"},{"bike_id":"6b614f3c-262d-4b32-a03c-d6d0d6972bba","system_id":"levelo_inurba_marseille","lat":43.309038,"lon":5.396546,"is_reserved":false,"is_disabled":false,"rental_uris":{"android":"levelo://app?vid=6b614f3c-262d-4b32-a03c-d6d0d6972bba","ios":"levelo://app?vid=6b614f3c-262d-4b32-a03c-d6d0d6972bba"},"vehicle_type_id":"4","last_reported":1706425634,"current_range_meters":18800,"station_id":"ce4bh012rcd13ifvqcv0","pricing_plan_id":"free"},{"bike_id":"8a5ef749-d5e1-4777-9ec6-e172c7840457","system_id":"levelo_inurba_marseille","lat":43.313291,"lon":5.396838,"is_reserved":false,"is_disabled":false,"rental_uris":{"android":"levelo://app?vid=8a5ef749-d5e1-4777-9ec6-e172c7840457","ios":"levelo://app?vid=8a5ef749-d5e1-4777-9ec6-e172c7840457"},"vehicle_type_id":"4","last_reported":1706425634,"current_range_meters":30000,"station_id":"ce4bgvp2rcd13ifvqcu0","pricing_plan_id":"free"},{"bike_id":"df4b9df1-5216-4645-a198-552ee6e763d1","system_id":"levelo_inurba_marseille","lat":43.309047,"lon":5.396551,"is_reserved":false,"is_disabled":false,"rental_uris":{"android":"levelo://app?vid=df4b9df1-5216-4645-a198-552ee6e763d1","ios":"levelo://app?vid=df4b9df1-5216-4645-a198-552ee6e763d1"},"vehicle_type_id":"4","last_reported":1706425634,"current_range_meters":18400,"station_id":"ce4bh012rcd13ifvqcv0","pricing_plan_id":"free"},{"bike_id":"574def04-39c7-4c66-9b46-fe4131c1b6ec","system_id":"levelo_inurba_marseille","lat":43.313291,"lon":5.396838,"is_reserved":false,"is_disabled":false,"rental_uris":{"android":"levelo://app?vid=574def04-39c7-4c66-9b46-fe4131c1b6ec","ios":"levelo://app?vid=574def04-39c7-4c66-9b46-fe4131c1b6ec"},"vehicle_type_id":"4","last_reported":1706425634,"current_range_meters":11200,"station_id":"ce4bgvp2rcd13ifvqcu0","pricing_plan_id":"free"},{"bike_id":"1c2f4dfb-e9af-4d96-9753-6f479653e589","system_id":"levelo_inurba_marseille","lat":43.313291,"lon":5.396838,"is_reserved":false,"is_disabled":false,"rental_uris":{"android":"levelo://app?vid=1c2f4dfb-e9af-4d96-9753-6f479653e589","ios":"levelo://app?vid=1c2f4dfb-e9af-4d96-9753-6f479653e589"},"vehicle_type_id":"4","last_reported":1706425634,"current_range_meters":31600,"station_id":"ce4bgvp2rcd13ifvqcu0","pricing_plan_id":"free"},{"bike_id":"b28e11c3-f4fb-4688-9428-99a3a01b5406","system_id":"levelo_inurba_marseille","lat":43.309038,"lon":5.396546,"is_reserved":false,"is_disabled":false,"rental_uris":{"android":"levelo://app?vid=b28e11c3-f4fb-4688-9428-99a3a01b5406","ios":"levelo://app?vid=b28e11c3-f4fb-4688-9428-99a3a01b5406"},"vehicle_type_id":"4","last_reported":1706425634,"current_range_meters":31600,"station_id":"ce4bh012rcd13ifvqcv0","pricing_plan_id":"free"},{"bike_id":"350b1c12-f01b-4e76-b7e5-c2b800e68838","system_id":"levelo_inurba_marseille","lat":43.313291,"lon":5.396838,"is_reserved":false,"is_disabled":false,"rental_uris":{"android":"levelo://app?vid=350b1c12-f01b-4e76-b7e5-c2b800e68838","ios":"levelo://app?vid=350b1c12-f01b-4e76-b7e5-c2b800e68838"},"vehicle_type_id":"4","last_reported":1706425634,"current_range_meters":27200,"station_id":"ce4bgvp2rcd13ifvqcu0","pricing_plan_id":"free"},{"bike_id":"c566c3a7-8ed1-470a-b229-ec3971106c14","system_id":"levelo_inurba_marseille","lat":43.302008,"lon":5.394694,"is_reserved":false,"is_disabled":false,"rental_uris":{"android":"levelo://app?vid=c566c3a7-8ed1-470a-b229-ec3971106c14","ios":"levelo://app?vid=c566c3a7-8ed1-470a-b229-ec3971106c14"},"vehicle_type_id":"4","last_reported":1706425634,"current_range_meters":4400,"station_id":"ce4bh0p2rcd13ifvqd70","pricing_plan_id":"free"},{"bike_id":"a7d85f0f-61ee-4761-a65e-c26e4b7cb4e7","system_id":"levelo_inurba_marseille","lat":43.290441,"lon":5.359123,"is_reserved":false,"is_disabled":false,"rental_uris":{"android":"levelo://app?vid=a7d85f0f-61ee-4761-a65e-c26e4b7cb4e7","ios":"levelo://app?vid=a7d85f0f-61ee-4761-a65e-c26e4b7cb4e7"},"vehicle_type_id":"4","last_reported":1706425634,"current_range_meters":26400,"station_id":"","pricing_plan_id":"free"},{"bike_id":"318ee44b-de6b-4a24-9cca-96fff6bbef1a","system_id":"levelo_inurba_marseille","lat":43.290631,"lon":5.359244,"is_reserved":false,"is_disabled":false,"rental_uris":{"android":"levelo://app?vid=318ee44b-de6b-4a24-9cca-96fff6bbef1a","ios":"levelo://app?vid=318ee44b-de6b-4a24-9cca-96fff6bbef1a"},"vehicle_type_id":"4","last_reported":1706425634,"current_range_meters":20000,"station_id":"ce4bha92rcd13ifvqeg0","pricing_plan_id":"free"},{"bike_id":"f7ee8f29-f6e4-4ae8-8aa5-c5379c233935","system_id":"levelo_inurba_marseille","lat":43.290631,"lon":5.359244,"is_reserved":false,"is_disabled":false,"rental_uris":{"android":"levelo://app?vid=f7ee8f29-f6e4-4ae8-8aa5-c5379c233935","ios":"levelo://app?vid=f7ee8f29-f6e4-4ae8-8aa5-c5379c233935"},"vehicle_type_id":"4","last_reported":1706425634,"current_range_meters":30400,"station_id":"ce4bha92rcd13ifvqeg0","pricing_plan_id":"free"},{"bike_id":"7933b18a-c295-4dd0-af6f-821de30f1c86","system_id":"levelo_inurba_marseille","lat":43.292701,"lon":5.384419,"is_reserved":false,"is_disabled":false,"rental_uris":{"android":"levelo://app?vid=7933b18a-c295-4dd0-af6f-821de30f1c86","ios":"levelo://app?vid=7933b18a-c295-4dd0-af6f-821de30f1c86"},"vehicle_type_id":"4","last_reported":1706425634,"current_range_meters":28800,"station_id":"ce4bh692rcd13ifvqea0","pricing_plan_id":"free"},{"bike_id":"f3a92379-5aa3-4abe-a30f-1bbd2897e08f","system_id":"levelo_inurba_marseille","lat":43.292704,"lon":5.384444,"is_reserved":false,"is_disabled":false,"rental_uris":{"android":"levelo://app?vid=f3a92379-5aa3-4abe-a30f-1bbd2897e08f","ios":"levelo://app?vid=f3a92379-5aa3-4abe-a30f-1bbd2897e08f"},"vehicle_type_id":"4","last_reported":1706425634,"current_range_meters":20000,"station_id":"ce4bh692rcd13ifvqea0","pricing_plan_id":"free"},{"bike_id":"8210ace8-55cf-478f-9102-e29fa6eda05c","system_id":"levelo_inurba_marseille","lat":43.292692,"lon":5.384453,"is_reserved":false,"is_disabled":false,"rental_uris":{"android":"levelo://app?vid=8210ace8-55cf-478f-9102-e29fa6eda05c","ios":"levelo://app?vid=8210ace8-55cf-478f-9102-e29fa6eda05c"},"vehicle_type_id":"4","last_reported":1706425634,"current_range_meters":22800,"station_id":"ce4bh692rcd13ifvqea0","pricing_plan_id":"free"},{"bike_id":"4f27647b-aea1-4dbc-858d-d4e20c4d6f25","system_id":"levelo_inurba_marseille","lat":43.290104,"lon":5.356111,"is_reserved":false,"is_disabled":false,"rental_uris":{"android":"levelo://app?vid=4f27647b-aea1-4dbc-858d-d4e20c4d6f25","ios":"levelo://app?vid=4f27647b-aea1-4dbc-858d-d4e20c4d6f25"},"vehicle_type_id":"4","last_reported":1706425634,"current_range_meters":26000,"station_id":"ce4bhb92rcd13ifvqen0","pricing_plan_id":"free"},{"bike_id":"cb9037ea-a8d5-4402-8eec-affe7e4f3eaf","system_id":"levelo_inurba_marseille","lat":43.290104,"lon":5.356111,"is_reserved":false,"is_disabled":false,"rental_uris":{"android":"levelo://app?vid=cb9037ea-a8d5-4402-8eec-affe7e4f3eaf","ios":"levelo://app?vid=cb9037ea-a8d5-4402-8eec-affe7e4f3eaf"},"vehicle_type_id":"4","last_reported":1706425634,"current_range_meters":14400,"station_id":"ce4bhb92rcd13ifvqen0","pricing_plan_id":"free"},{"bike_id":"c048bd00-d01b-418e-b5f7-d84dfbd9f6a5","system_id":"levelo_inurba_marseille","lat":43.29792,"lon":5.393404,"is_reserved":false,"is_disabled":false,"rental_uris":{"android":"levelo://app?vid=c048bd00-d01b-418e-b5f7-d84dfbd9f6a5","ios":"levelo://app?vid=c048bd00-d01b-418e-b5f7-d84dfbd9f6a5"},"vehicle_type_id":"4","last_reported":1706425634,"current_range_meters":23600,"station_id":"chh1huq6cuj3fo74tm60","pricing_plan_id":"free"},{"bike_id":"59e02cdd-baf5-40b9-aa17-f77e9d38b52a","system_id":"levelo_inurba_marseille","lat":43.297915,"lon":5.393408,"is_reserved":false,"is_disabled":false,"rental_uris":{"android":"levelo://app?vid=59e02cdd-baf5-40b9-aa17-f77e9d38b52a","ios":"levelo://app?vid=59e02cdd-baf5-40b9-aa17-f77e9d38b52a"},"vehicle_type_id":"4","last_reported":1706425634,"current_range_meters":30400,"station_id":"chh1huq6cuj3fo74tm60","pricing_plan_id":"free"},{"bike_id":"5a51bf89-8e2f-481e-b310-6eca00de6f35","system_id":"levelo_inurba_marseille","lat":43.297866,"lon":5.393386,"is_reserved":false,"is_disabled":false,"rental_uris":{"android":"levelo://app?vid=5a51bf89-8e2f-481e-b310-6eca00de6f35","ios":"levelo://app?vid=5a51bf89-8e2f-481e-b310-6eca00de6f35"},"vehicle_type_id":"4","last_reported":1706425634,"current_range_meters":18400,"station_id":"chh1huq6cuj3fo74tm60","pricing_plan_id":"free"},{"bike_id":"f0009d7c-4ac4-46c4-8b7c-d72b8c74aa1a","system_id":"levelo_inurba_marseille","lat":43.297815,"lon":5.393548,"is_reserved":false,"is_disabled":false,"rental_uris":{"android":"levelo://app?vid=f0009d7c-4ac4-46c4-8b7c-d72b8c74aa1a","ios":"levelo://app?vid=f0009d7c-4ac4-46c4-8b7c-d72b8c74aa1a"},"vehicle_type_id":"4","last_reported":1706425634,"current_range_meters":30400,"station_id":"chh1huq6cuj3fo74tm60","pricing_plan_id":"free"},{"bike_id":"1f004bc9-8145-41f4-a9a4-3f70faee6854","system_id":"levelo_inurba_marseille","lat":43.330442,"lon":5.389148,"is_reserved":false,"is_disabled":false,"rental_uris":{"android":"levelo://app?vid=1f004bc9-8145-41f4-a9a4-3f70faee6854","ios":"levelo://app?vid=1f004bc9-8145-41f4-a9a4-3f70faee6854"},"vehicle_type_id":"4","last_reported":1706425634,"current_range_meters":14000,"station_id":"ce4bhr92rcd13ifvqhrg","pricing_plan_id":"free"},{"bike_id":"481dad6f-9967-4f6f-97c2-139abd002c75","system_id":"levelo_inurba_marseille","lat":43.330442,"lon":5.389148,"is_reserved":false,"is_disabled":false,"rental_uris":{"android":"levelo://app?vid=481dad6f-9967-4f6f-97c2-139abd002c75","ios":"levelo://app?vid=481dad6f-9967-4f6f-97c2-139abd002c75"},"vehicle_type_id":"4","last_reported":1706425634,"current_range_meters":3200,"station_id":"ce4bhr92rcd13ifvqhrg","pricing_plan_id":"free"},{"bike_id":"a5bb70b8-7176-4cc4-8da5-65881c82a486","system_id":"levelo_inurba_marseille","lat":43.309371,"lon":5.401449,"is_reserved":false,"is_disabled":false,"rental_uris":{"android":"levelo://app?vid=a5bb70b8-7176-4cc4-8da5-65881c82a486","ios":"levelo://app?vid=a5bb70b8-7176-4cc4-8da5-65881c82a486"},"vehicle_type_id":"4","last_reported":1706425634,"current_range_meters":30800,"station_id":"ce4bgvp2rcd13ifvqct0","pricing_plan_id":"free"},{"bike_id":"d17a2a71-24a2-4090-bfe4-0a93d917c57c","system_id":"levelo_inurba_marseille","lat":43.309371,"lon":5.401449,"is_reserved":false,"is_disabled":false,"rental_uris":{"android":"levelo://app?vid=d17a2a71-24a2-4090-bfe4-0a93d917c57c","ios":"levelo://app?vid=d17a2a71-24a2-4090-bfe4-0a93d917c57c"},"vehicle_type_id":"4","last_reported":1706425634,"current_range_meters":4800,"station_id":"ce4bgvp2rcd13ifvqct0","pricing_plan_id":"free"},{"bike_id":"c138c08b-ac5f-4b47-b873-0efc7215c2e5","system_id":"levelo_inurba_marseille","lat":43.306412,"lon":5.401035,"is_reserved":false,"is_disabled":false,"rental_uris":{"android":"levelo://app?vid=c138c08b-ac5f-4b47-b873-0efc7215c2e5","ios":"levelo://app?vid=c138c08b-ac5f-4b47-b873-0efc7215c2e5"},"vehicle_type_id":"4","last_reported":1706425634,"current_range_meters":24000,"station_id":"ce4bh112rcd13ifvqda0","pricing_plan_id":"free"},{"bike_id":"c3cd299a-7ae5-41ef-ab65-439a3b08b672","system_id":"levelo_inurba_marseille","lat":43.30642,"lon":5.401031,"is_reserved":false,"is_disabled":false,"rental_uris":{"android":"levelo://app?vid=c3cd299a-7ae5-41ef-ab65-439a3b08b672","ios":"levelo://app?vid=c3cd299a-7ae5-41ef-ab65-439a3b08b672"},"vehicle_type_id":"4","last_reported":1706425634,"current_range_meters":27200,"station_id":"ce4bh112rcd13ifvqda0","pricing_plan_id":"free"},{"bike_id":"b7f12eab-e0a6-499e-87ec-2b4381c4602a","system_id":"levelo_inurba_marseille","lat":43.3376,"lon":5.37454,"is_reserved":false,"is_disabled":false,"rental_uris":{"android":"levelo://app?vid=b7f12eab-e0a6-499e-87ec-2b4381c4602a","ios":"levelo://app?vid=b7f12eab-e0a6-499e-87ec-2b4381c4602a"},"vehicle_type_id":"4","last_reported":1706425634,"current_range_meters":24000,"station_id":"","pricing_plan_id":"free"},{"bike_id":"a563cdbf-78b8-441c-8dce-8da1c3325b92","system_id":"levelo_inurba_marseille","lat":43.337607,"lon":5.374549,"is_reserved":false,"is_disabled":false,"rental_uris":{"android":"levelo://app?vid=a563cdbf-78b8-441c-8dce-8da1c3325b92","ios":"levelo://app?vid=a563cdbf-78b8-441c-8dce-8da1c3325b92"},"vehicle_type_id":"4","last_reported":1706425634,"current_range_meters":20800,"station_id":"","pricing_plan_id":"free"},{"bike_id":"2fe24097-b1c2-4583-ba1f-cf8501171a4c","system_id":"levelo_inurba_marseille","lat":43.337559,"lon":5.374911,"is_reserved":false,"is_disabled":false,"rental_uris":{"android":"levelo://app?vid=2fe24097-b1c2-4583-ba1f-cf8501171a4c","ios":"levelo://app?vid=2fe24097-b1c2-4583-ba1f-cf8501171a4c"},"vehicle_type_id":"4","last_reported":1706425634,"current_range_meters":12800,"station_id":"","pricing_plan_id":"free"},{"bike_id":"6a4cda04-8a10-4b2c-89d8-c6fab204537e","system_id":"levelo_inurba_marseille","lat":43.300592,"lon":5.397726,"is_reserved":false,"is_disabled":false,"rental_uris":{"android":"levelo://app?vid=6a4cda04-8a10-4b2c-89d8-c6fab204537e","ios":"levelo://app?vid=6a4cda04-8a10-4b2c-89d8-c6fab204537e"},"vehicle_type_id":"4","last_reported":1706425634,"current_range_meters":15600,"station_id":"","pricing_plan_id":"free"},{"bike_id":"1facbbf3-baac-42f8-85eb-cb1e36f3e4b9","system_id":"levelo_inurba_marseille","lat":43.337597,"lon":5.374899,"is_reserved":false,"is_disabled":false,"rental_uris":{"android":"levelo://app?vid=1facbbf3-baac-42f8-85eb-cb1e36f3e4b9","ios":"levelo://app?vid=1facbbf3-baac-42f8-85eb-cb1e36f3e4b9"},"vehicle_type_id":"4","last_reported":1706425634,"current_range_meters":15600,"station_id":"","pricing_plan_id":"free"},{"bike_id":"b7d3b81d-d85a-44b5-a0c7-8f9c9f74639e","system_id":"levelo_inurba_marseille","lat":43.33765,"lon":5.374672,"is_reserved":false,"is_disabled":false,"rental_uris":{"android":"levelo://app?vid=b7d3b81d-d85a-44b5-a0c7-8f9c9f74639e","ios":"levelo://app?vid=b7d3b81d-d85a-44b5-a0c7-8f9c9f74639e"},"vehicle_type_id":"4","last_reported":1706425634,"current_range_meters":28000,"station_id":"","pricing_plan_id":"free"},{"bike_id":"eaeff2f9-be33-4cbc-b315-c230be10dd9b","system_id":"levelo_inurba_marseille","lat":43.337646,"lon":5.374871,"is_reserved":false,"is_disabled":false,"rental_uris":{"android":"levelo://app?vid=eaeff2f9-be33-4cbc-b315-c230be10dd9b","ios":"levelo://app?vid=eaeff2f9-be33-4cbc-b315-c230be10dd9b"},"vehicle_type_id":"4","last_reported":1706425634,"current_range_meters":6400,"station_id":"","pricing_plan_id":"free"},{"bike_id":"dd43066f-db70-4e2f-971c-2e771f6fcd7b","system_id":"levelo_inurba_marseille","lat":43.306412,"lon":5.401035,"is_reserved":false,"is_disabled":false,"rental_uris":{"android":"levelo://app?vid=dd43066f-db70-4e2f-971c-2e771f6fcd7b","ios":"levelo://app?vid=dd43066f-db70-4e2f-971c-2e771f6fcd7b"},"vehicle_type_id":"4","last_reported":1706425634,"current_range_meters":22400,"station_id":"ce4bh112rcd13ifvqda0","pricing_plan_id":"free"},{"bike_id":"bd7c49e0-243f-4049-bc25-2de8f060bb29","system_id":"levelo_inurba_marseille","lat":43.33769,"lon":5.37487,"is_reserved":false,"is_disabled":false,"rental_uris":{"android":"levelo://app?vid=bd7c49e0-243f-4049-bc25-2de8f060bb29","ios":"levelo://app?vid=bd7c49e0-243f-4049-bc25-2de8f060bb29"},"vehicle_type_id":"4","last_reported":1706425634,"current_range_meters":21200,"station_id":"","pricing_plan_id":"free"},{"bike_id":"dac9ed43-ea5e-4a0e-bc5f-eab78d5d63d0","system_id":"levelo_inurba_marseille","lat":43.301117,"lon":5.398795,"is_reserved":false,"is_disabled":false,"rental_uris":{"android":"levelo://app?vid=dac9ed43-ea5e-4a0e-bc5f-eab78d5d63d0","ios":"levelo://app?vid=dac9ed43-ea5e-4a0e-bc5f-eab78d5d63d0"},"vehicle_type_id":"4","last_reported":1706425634,"current_range_meters":26800,"station_id":"ce4bh0h2rcd13ifvqd40","pricing_plan_id":"free"},{"bike_id":"0a43d3df-0884-4882-9c1a-4fa1b058edf2","system_id":"levelo_inurba_marseille","lat":43.301117,"lon":5.398795,"is_reserved":false,"is_disabled":false,"rental_uris":{"android":"levelo://app?vid=0a43d3df-0884-4882-9c1a-4fa1b058edf2","ios":"levelo://app?vid=0a43d3df-0884-4882-9c1a-4fa1b058edf2"},"vehicle_type_id":"4","last_reported":1706425634,"current_range_meters":26400,"station_id":"ce4bh0h2rcd13ifvqd40","pricing_plan_id":"free"},{"bike_id":"742b6877-fd6b-4336-8f30-0cb036bd8655","system_id":"levelo_inurba_marseille","lat":43.301117,"lon":5.398795,"is_reserved":false,"is_disabled":false,"rental_uris":{"android":"levelo://app?vid=742b6877-fd6b-4336-8f30-0cb036bd8655","ios":"levelo://app?vid=742b6877-fd6b-4336-8f30-0cb036bd8655"},"vehicle_type_id":"4","last_reported":1706425634,"current_range_meters":23600,"station_id":"ce4bh0h2rcd13ifvqd40","pricing_plan_id":"free"},{"bike_id":"2c32b177-8f00-4e76-b35b-731e427d935f","system_id":"levelo_inurba_marseille","lat":43.286961,"lon":5.373785,"is_reserved":false,"is_disabled":false,"rental_uris":{"android":"levelo://app?vid=2c32b177-8f00-4e76-b35b-731e427d935f","ios":"levelo://app?vid=2c32b177-8f00-4e76-b35b-731e427d935f"},"vehicle_type_id":"4","last_reported":1706425634,"current_range_meters":31600,"station_id":"ce4bh3p2rcd13ifvqdq0","pricing_plan_id":"free"},{"bike_id":"67d5f75c-7186-4ece-b882-093168f42979","system_id":"levelo_inurba_marseille","lat":43.286961,"lon":5.373785,"is_reserved":false,"is_disabled":false,"rental_uris":{"android":"levelo://app?vid=67d5f75c-7186-4ece-b882-093168f42979","ios":"levelo://app?vid=67d5f75c-7186-4ece-b882-093168f42979"},"vehicle_type_id":"4","last_reported":1706425634,"current_range_meters":30400,"station_id":"ce4bh3p2rcd13ifvqdq0","pricing_plan_id":"free"},{"bike_id":"84a62e03-5e21-43f6-af3e-473d82a55d39","system_id":"levelo_inurba_marseille","lat":43.286961,"lon":5.373785,"is_reserved":false,"is_disabled":false,"rental_uris":{"android":"levelo://app?vid=84a62e03-5e21-43f6-af3e-473d82a55d39","ios":"levelo://app?vid=84a62e03-5e21-43f6-af3e-473d82a55d39"},"vehicle_type_id":"4","last_reported":1706425634,"current_range_meters":14000,"station_id":"ce4bh3p2rcd13ifvqdq0","pricing_plan_id":"free"},{"bike_id":"78342988-3ec7-4651-adab-04f5c4da5dcc","system_id":"levelo_inurba_marseille","lat":43.286961,"lon":5.373785,"is_reserved":false,"is_disabled":false,"rental_uris":{"android":"levelo://app?vid=78342988-3ec7-4651-adab-04f5c4da5dcc","ios":"levelo://app?vid=78342988-3ec7-4651-adab-04f5c4da5dcc"},"vehicle_type_id":"4","last_reported":1706425634,"current_range_meters":10400,"station_id":"ce4bh3p2rcd13ifvqdq0","pricing_plan_id":"free"},{"bike_id":"1e018443-b265-41e7-b849-ed0fe285eecd","system_id":"levelo_inurba_marseille","lat":43.28925,"lon":5.38381,"is_reserved":false,"is_disabled":false,"rental_uris":{"android":"levelo://app?vid=1e018443-b265-41e7-b849-ed0fe285eecd","ios":"levelo://app?vid=1e018443-b265-41e7-b849-ed0fe285eecd"},"vehicle_type_id":"4","last_reported":1706425634,"current_range_meters":28000,"station_id":"ce4bh612rcd13ifvqe6g","pricing_plan_id":"free"},{"bike_id":"183bb1c1-398f-466c-b05d-327ac4efc436","system_id":"levelo_inurba_marseille","lat":43.302511,"lon":5.400653,"is_reserved":false,"is_disabled":false,"rental_uris":{"android":"levelo://app?vid=183bb1c1-398f-466c-b05d-327ac4efc436","ios":"levelo://app?vid=183bb1c1-398f-466c-b05d-327ac4efc436"},"vehicle_type_id":"4","last_reported":1706425634,"current_range_meters":12000,"station_id":"ce4bgth2rcd13ifvqch0","pricing_plan_id":"free"},{"bike_id":"b629200a-a7cd-40bc-ba12-13f5aff96d13","system_id":"levelo_inurba_marseille","lat":43.286039,"lon":5.370681,"is_reserved":false,"is_disabled":false,"rental_uris":{"android":"levelo://app?vid=b629200a-a7cd-40bc-ba12-13f5aff96d13","ios":"levelo://app?vid=b629200a-a7cd-40bc-ba12-13f5aff96d13"},"vehicle_type_id":"4","last_reported":1706425634,"current_range_meters":10400,"station_id":"ce4bht12rcd13ifvqi60","pricing_plan_id":"free"},{"bike_id":"03447749-0c25-43f9-b101-2dd420e40b4a","system_id":"levelo_inurba_marseille","lat":43.286039,"lon":5.370681,"is_reserved":false,"is_disabled":false,"rental_uris":{"android":"levelo://app?vid=03447749-0c25-43f9-b101-2dd420e40b4a","ios":"levelo://app?vid=03447749-0c25-43f9-b101-2dd420e40b4a"},"vehicle_type_id":"4","last_reported":1706425634,"current_range_meters":7600,"station_id":"ce4bht12rcd13ifvqi60","pricing_plan_id":"free"},{"bike_id":"eaf325b3-0f49-45e8-80c9-6945d364e591","system_id":"levelo_inurba_marseille","lat":43.287184,"lon":5.37937,"is_reserved":false,"is_disabled":false,"rental_uris":{"android":"levelo://app?vid=eaf325b3-0f49-45e8-80c9-6945d364e591","ios":"levelo://app?vid=eaf325b3-0f49-45e8-80c9-6945d364e591"},"vehicle_type_id":"4","last_reported":1706425634,"current_range_meters":17200,"station_id":"ce4bh9p2rcd13ifvqec0","pricing_plan_id":"free"},{"bike_id":"5c154b1d-aabf-4390-aeca-85e127271bab","system_id":"levelo_inurba_marseille","lat":43.287185,"lon":5.379373,"is_reserved":false,"is_disabled":false,"rental_uris":{"android":"levelo://app?vid=5c154b1d-aabf-4390-aeca-85e127271bab","ios":"levelo://app?vid=5c154b1d-aabf-4390-aeca-85e127271bab"},"vehicle_type_id":"4","last_reported":1706425634,"current_range_meters":13200,"station_id":"ce4bh9p2rcd13ifvqec0","pricing_plan_id":"free"},{"bike_id":"5bf6295b-4225-468b-9dae-72e8651e1f68","system_id":"levelo_inurba_marseille","lat":43.28469,"lon":5.35885,"is_reserved":false,"is_disabled":false,"rental_uris":{"android":"levelo://app?vid=5bf6295b-4225-468b-9dae-72e8651e1f68","ios":"levelo://app?vid=5bf6295b-4225-468b-9dae-72e8651e1f68"},"vehicle_type_id":"4","last_reported":1706425634,"current_range_meters":26000,"station_id":"ce4bhah2rcd13ifvqei0","pricing_plan_id":"free"},{"bike_id":"22ec94b8-5a32-4e05-914f-bb0d74628aa0","system_id":"levelo_inurba_marseille","lat":43.284646,"lon":5.358766,"is_reserved":false,"is_disabled":false,"rental_uris":{"android":"levelo://app?vid=22ec94b8-5a32-4e05-914f-bb0d74628aa0","ios":"levelo://app?vid=22ec94b8-5a32-4e05-914f-bb0d74628aa0"},"vehicle_type_id":"4","last_reported":1706425634,"current_range_meters":31200,"station_id":"ce4bhah2rcd13ifvqei0","pricing_plan_id":"free"},{"bike_id":"8e475eb0-4e0b-4679-96bd-7cdf870caeda","system_id":"levelo_inurba_marseille","lat":43.28459,"lon":5.35892,"is_reserved":false,"is_disabled":false,"rental_uris":{"android":"levelo://app?vid=8e475eb0-4e0b-4679-96bd-7cdf870caeda","ios":"levelo://app?vid=8e475eb0-4e0b-4679-96bd-7cdf870caeda"},"vehicle_type_id":"4","last_reported":1706425634,"current_range_meters":31200,"station_id":"ce4bhah2rcd13ifvqei0","pricing_plan_id":"free"},{"bike_id":"ec0bf64a-ba42-4917-8dc9-48d93eaba98c","system_id":"levelo_inurba_marseille","lat":43.285848,"lon":5.350787,"is_reserved":false,"is_disabled":false,"rental_uris":{"android":"levelo://app?vid=ec0bf64a-ba42-4917-8dc9-48d93eaba98c","ios":"levelo://app?vid=ec0bf64a-ba42-4917-8dc9-48d93eaba98c"},"vehicle_type_id":"4","last_reported":1706425634,"current_range_meters":29200,"station_id":"ce4bhch2rcd13ifvqeug","pricing_plan_id":"free"},{"bike_id":"84939456-6752-47ce-b628-fed93bcd290d","system_id":"levelo_inurba_marseille","lat":43.28616,"lon":5.35098,"is_reserved":false,"is_disabled":false,"rental_uris":{"android":"levelo://app?vid=84939456-6752-47ce-b628-fed93bcd290d","ios":"levelo://app?vid=84939456-6752-47ce-b628-fed93bcd290d"},"vehicle_type_id":"4","last_reported":1706425634,"current_range_meters":28800,"station_id":"ce4bhch2rcd13ifvqeug","pricing_plan_id":"free"},{"bike_id":"78b04be9-ed77-4351-90cc-031c63acfb01","system_id":"levelo_inurba_marseille","lat":43.285856,"lon":5.350771,"is_reserved":false,"is_disabled":false,"rental_uris":{"android":"levelo://app?vid=78b04be9-ed77-4351-90cc-031c63acfb01","ios":"levelo://app?vid=78b04be9-ed77-4351-90cc-031c63acfb01"},"vehicle_type_id":"4","last_reported":1706425634,"current_range_meters":19600,"station_id":"ce4bhch2rcd13ifvqeug","pricing_plan_id":"free"},{"bike_id":"27db4e6a-839d-449a-b5f4-f8ddb7801f04","system_id":"levelo_inurba_marseille","lat":43.28613,"lon":5.351,"is_reserved":false,"is_disabled":false,"rental_uris":{"android":"levelo://app?vid=27db4e6a-839d-449a-b5f4-f8ddb7801f04","ios":"levelo://app?vid=27db4e6a-839d-449a-b5f4-f8ddb7801f04"},"vehicle_type_id":"4","last_reported":1706425634,"current_range_meters":30800,"station_id":"ce4bhch2rcd13ifvqeug","pricing_plan_id":"free"},{"bike_id":"a7ef742f-9cf2-4c2f-938a-27fe62d2c015","system_id":"levelo_inurba_marseille","lat":43.319179,"lon":5.407725,"is_reserved":false,"is_disabled":false,"rental_uris":{"android":"levelo://app?vid=a7ef742f-9cf2-4c2f-938a-27fe62d2c015","ios":"levelo://app?vid=a7ef742f-9cf2-4c2f-938a-27fe62d2c015"},"vehicle_type_id":"4","last_reported":1706425634,"current_range_meters":4800,"station_id":"ce4bhq12rcd13ifvqhig","pricing_plan_id":"free"},{"bike_id":"b29b4b3a-7a43-4939-bb05-5f4f2fe881f9","system_id":"levelo_inurba_marseille","lat":43.319179,"lon":5.407725,"is_reserved":false,"is_disabled":false,"rental_uris":{"android":"levelo://app?vid=b29b4b3a-7a43-4939-bb05-5f4f2fe881f9","ios":"levelo://app?vid=b29b4b3a-7a43-4939-bb05-5f4f2fe881f9"},"vehicle_type_id":"4","last_reported":1706425634,"current_range_meters":31600,"station_id":"ce4bhq12rcd13ifvqhig","pricing_plan_id":"free"},{"bike_id":"77308e31-fc80-4c42-923c-57fc362eb70a","system_id":"levelo_inurba_marseille","lat":43.319179,"lon":5.407725,"is_reserved":false,"is_disabled":false,"rental_uris":{"android":"levelo://app?vid=77308e31-fc80-4c42-923c-57fc362eb70a","ios":"levelo://app?vid=77308e31-fc80-4c42-923c-57fc362eb70a"},"vehicle_type_id":"4","last_reported":1706425634,"current_range_meters":26800,"station_id":"ce4bhq12rcd13ifvqhig","pricing_plan_id":"free"},{"bike_id":"40975b42-2dae-4c78-9990-d091247266be","system_id":"levelo_inurba_marseille","lat":43.319179,"lon":5.407725,"is_reserved":false,"is_disabled":false,"rental_uris":{"android":"levelo://app?vid=40975b42-2dae-4c78-9990-d091247266be","ios":"levelo://app?vid=40975b42-2dae-4c78-9990-d091247266be"},"vehicle_type_id":"4","last_reported":1706425634,"current_range_meters":24800,"station_id":"ce4bhq12rcd13ifvqhig","pricing_plan_id":"free"},{"bike_id":"e63b7e05-da47-404b-a3ca-035d8af322bb","system_id":"levelo_inurba_marseille","lat":43.319179,"lon":5.407725,"is_reserved":false,"is_disabled":false,"rental_uris":{"android":"levelo://app?vid=e63b7e05-da47-404b-a3ca-035d8af322bb","ios":"levelo://app?vid=e63b7e05-da47-404b-a3ca-035d8af322bb"},"vehicle_type_id":"4","last_reported":1706425634,"current_range_meters":31600,"station_id":"ce4bhq12rcd13ifvqhig","pricing_plan_id":"free"},{"bike_id":"a3f30509-feaf-4375-af71-8a441027e5bd","system_id":"levelo_inurba_marseille","lat":43.33717,"lon":5.391857,"is_reserved":false,"is_disabled":false,"rental_uris":{"android":"levelo://app?vid=a3f30509-feaf-4375-af71-8a441027e5bd","ios":"levelo://app?vid=a3f30509-feaf-4375-af71-8a441027e5bd"},"vehicle_type_id":"4","last_reported":1706425634,"current_range_meters":27600,"station_id":"ce4bhr92rcd13ifvqhsg","pricing_plan_id":"free"},{"bike_id":"2b5f4982-548b-4158-a72b-a9e801ba15e5","system_id":"levelo_inurba_marseille","lat":43.323464,"lon":5.406297,"is_reserved":false,"is_disabled":false,"rental_uris":{"android":"levelo://app?vid=2b5f4982-548b-4158-a72b-a9e801ba15e5","ios":"levelo://app?vid=2b5f4982-548b-4158-a72b-a9e801ba15e5"},"vehicle_type_id":"4","last_reported":1706425634,"current_range_meters":31600,"station_id":"ce4bhq92rcd13ifvqhjg","pricing_plan_id":"free"},{"bike_id":"3c982f92-c162-4958-96ed-bd3ab8ee1412","system_id":"levelo_inurba_marseille","lat":43.323464,"lon":5.406297,"is_reserved":false,"is_disabled":false,"rental_uris":{"android":"levelo://app?vid=3c982f92-c162-4958-96ed-bd3ab8ee1412","ios":"levelo://app?vid=3c982f92-c162-4958-96ed-bd3ab8ee1412"},"vehicle_type_id":"4","last_reported":1706425634,"current_range_meters":25600,"station_id":"ce4bhq92rcd13ifvqhjg","pricing_plan_id":"free"},{"bike_id":"2bb38835-1a5e-4d01-8935-6396d43e5266","system_id":"levelo_inurba_marseille","lat":43.337168,"lon":5.391825,"is_reserved":false,"is_disabled":false,"rental_uris":{"android":"levelo://app?vid=2bb38835-1a5e-4d01-8935-6396d43e5266","ios":"levelo://app?vid=2bb38835-1a5e-4d01-8935-6396d43e5266"},"vehicle_type_id":"4","last_reported":1706425634,"current_range_meters":23600,"station_id":"ce4bhr92rcd13ifvqhsg","pricing_plan_id":"free"},{"bike_id":"49927298-0456-42e8-8955-c51541c9e6dc","system_id":"levelo_inurba_marseille","lat":43.323464,"lon":5.406297,"is_reserved":false,"is_disabled":false,"rental_uris":{"android":"levelo://app?vid=49927298-0456-42e8-8955-c51541c9e6dc","ios":"levelo://app?vid=49927298-0456-42e8-8955-c51541c9e6dc"},"vehicle_type_id":"4","last_reported":1706425634,"current_range_meters":24400,"station_id":"ce4bhq92rcd13ifvqhjg","pricing_plan_id":"free"},{"bike_id":"ed14ae3b-cff7-4f09-863e-48fd45537e63","system_id":"levelo_inurba_marseille","lat":43.284793,"lon":5.384113,"is_reserved":false,"is_disabled":false,"rental_uris":{"android":"levelo://app?vid=ed14ae3b-cff7-4f09-863e-48fd45537e63","ios":"levelo://app?vid=ed14ae3b-cff7-4f09-863e-48fd45537e63"},"vehicle_type_id":"4","last_reported":1706425634,"current_range_meters":20000,"station_id":"ce4bh512rcd13ifvqe3g","pricing_plan_id":"free"},{"bike_id":"c4887b5f-d817-4d55-a28d-84516bf1d0be","system_id":"levelo_inurba_marseille","lat":43.299724,"lon":5.384848,"is_reserved":false,"is_disabled":false,"rental_uris":{"android":"levelo://app?vid=c4887b5f-d817-4d55-a28d-84516bf1d0be","ios":"levelo://app?vid=c4887b5f-d817-4d55-a28d-84516bf1d0be"},"vehicle_type_id":"4","last_reported":1706425634,"current_range_meters":8400,"station_id":"ce4bgj92rcd13ifvqbd0","pricing_plan_id":"free"},{"bike_id":"5bfa4ac2-9603-4ea9-bd8f-9e9f40018fbe","system_id":"levelo_inurba_marseille","lat":43.284217,"lon":5.349697,"is_reserved":false,"is_disabled":false,"rental_uris":{"android":"levelo://app?vid=5bfa4ac2-9603-4ea9-bd8f-9e9f40018fbe","ios":"levelo://app?vid=5bfa4ac2-9603-4ea9-bd8f-9e9f40018fbe"},"vehicle_type_id":"4","last_reported":1706425634,"current_range_meters":19600,"station_id":"ce4bhbh2rcd13ifvqepg","pricing_plan_id":"free"},{"bike_id":"4de18cd9-ad60-4d61-924f-6142e63f1a0a","system_id":"levelo_inurba_marseille","lat":43.28422,"lon":5.34985,"is_reserved":false,"is_disabled":false,"rental_uris":{"android":"levelo://app?vid=4de18cd9-ad60-4d61-924f-6142e63f1a0a","ios":"levelo://app?vid=4de18cd9-ad60-4d61-924f-6142e63f1a0a"},"vehicle_type_id":"4","last_reported":1706425634,"current_range_meters":29600,"station_id":"ce4bhbh2rcd13ifvqepg","pricing_plan_id":"free"},{"bike_id":"07afa4d3-71d4-4c6c-ab84-e801d481ffea","system_id":"levelo_inurba_marseille","lat":43.2842,"lon":5.34986,"is_reserved":false,"is_disabled":false,"rental_uris":{"android":"levelo://app?vid=07afa4d3-71d4-4c6c-ab84-e801d481ffea","ios":"levelo://app?vid=07afa4d3-71d4-4c6c-ab84-e801d481ffea"},"vehicle_type_id":"4","last_reported":1706425634,"current_range_meters":26400,"station_id":"ce4bhbh2rcd13ifvqepg","pricing_plan_id":"free"},{"bike_id":"190f043b-27ef-4c26-adf1-e87975c28a49","system_id":"levelo_inurba_marseille","lat":43.284217,"lon":5.349697,"is_reserved":false,"is_disabled":false,"rental_uris":{"android":"levelo://app?vid=190f043b-27ef-4c26-adf1-e87975c28a49","ios":"levelo://app?vid=190f043b-27ef-4c26-adf1-e87975c28a49"},"vehicle_type_id":"4","last_reported":1706425634,"current_range_meters":30400,"station_id":"ce4bhbh2rcd13ifvqepg","pricing_plan_id":"free"},{"bike_id":"9c3c499f-dc58-42d6-bced-760c50755bec","system_id":"levelo_inurba_marseille","lat":43.289363,"lon":5.396322,"is_reserved":false,"is_disabled":false,"rental_uris":{"android":"levelo://app?vid=9c3c499f-dc58-42d6-bced-760c50755bec","ios":"levelo://app?vid=9c3c499f-dc58-42d6-bced-760c50755bec"},"vehicle_type_id":"4","last_reported":1706425634,"current_range_meters":25600,"station_id":"ce4bh3h2rcd13ifvqdn0","pricing_plan_id":"free"},{"bike_id":"7ba21d17-41e3-429b-b7ed-e0f7be813fce","system_id":"levelo_inurba_marseille","lat":43.289363,"lon":5.396322,"is_reserved":false,"is_disabled":false,"rental_uris":{"android":"levelo://app?vid=7ba21d17-41e3-429b-b7ed-e0f7be813fce","ios":"levelo://app?vid=7ba21d17-41e3-429b-b7ed-e0f7be813fce"},"vehicle_type_id":"4","last_reported":1706425634,"current_range_meters":26400,"station_id":"ce4bh3h2rcd13ifvqdn0","pricing_plan_id":"free"},{"bike_id":"b41bcd76-cb12-4b33-95cd-9444d1e23578","system_id":"levelo_inurba_marseille","lat":43.293556,"lon":5.401561,"is_reserved":false,"is_disabled":false,"rental_uris":{"android":"levelo://app?vid=b41bcd76-cb12-4b33-95cd-9444d1e23578","ios":"levelo://app?vid=b41bcd76-cb12-4b33-95cd-9444d1e23578"},"vehicle_type_id":"4","last_reported":1706425634,"current_range_meters":7200,"station_id":"","pricing_plan_id":"free"},{"bike_id":"a1729738-f5a2-46a8-8d7d-01c6f5f5ade1","system_id":"levelo_inurba_marseille","lat":43.292724,"lon":5.401131,"is_reserved":false,"is_disabled":false,"rental_uris":{"android":"levelo://app?vid=a1729738-f5a2-46a8-8d7d-01c6f5f5ade1","ios":"levelo://app?vid=a1729738-f5a2-46a8-8d7d-01c6f5f5ade1"},"vehicle_type_id":"4","last_reported":1706425634,"current_range_meters":26000,"station_id":"ce4bh312rcd13ifvqdk0","pricing_plan_id":"free"},{"bike_id":"703947fe-e861-4918-b06f-77e519821e15","system_id":"levelo_inurba_marseille","lat":43.2927,"lon":5.40117,"is_reserved":false,"is_disabled":false,"rental_uris":{"android":"levelo://app?vid=703947fe-e861-4918-b06f-77e519821e15","ios":"levelo://app?vid=703947fe-e861-4918-b06f-77e519821e15"},"vehicle_type_id":"4","last_reported":1706425634,"current_range_meters":21200,"station_id":"ce4bh312rcd13ifvqdk0","pricing_plan_id":"free"},{"bike_id":"8260046f-2529-4645-b9a6-53220628a170","system_id":"levelo_inurba_marseille","lat":43.282736,"lon":5.350731,"is_reserved":false,"is_disabled":false,"rental_uris":{"android":"levelo://app?vid=8260046f-2529-4645-b9a6-53220628a170","ios":"levelo://app?vid=8260046f-2529-4645-b9a6-53220628a170"},"vehicle_type_id":"4","last_reported":1706425634,"current_range_meters":31200,"station_id":"ce4bhbp2rcd13ifvqerg","pricing_plan_id":"free"},{"bike_id":"cb7fd5f1-c72b-4c81-a870-c56a0d2db6bc","system_id":"levelo_inurba_marseille","lat":43.28265,"lon":5.35064,"is_reserved":false,"is_disabled":false,"rental_uris":{"android":"levelo://app?vid=cb7fd5f1-c72b-4c81-a870-c56a0d2db6bc","ios":"levelo://app?vid=cb7fd5f1-c72b-4c81-a870-c56a0d2db6bc"},"vehicle_type_id":"4","last_reported":1706425634,"current_range_meters":3200,"station_id":"ce4bhbp2rcd13ifvqerg","pricing_plan_id":"free"},{"bike_id":"8dd1be73-8e71-4300-86a4-d1e4a4ec10db","system_id":"levelo_inurba_marseille","lat":43.28262,"lon":5.35066,"is_reserved":false,"is_disabled":false,"rental_uris":{"android":"levelo://app?vid=8dd1be73-8e71-4300-86a4-d1e4a4ec10db","ios":"levelo://app?vid=8dd1be73-8e71-4300-86a4-d1e4a4ec10db"},"vehicle_type_id":"4","last_reported":1706425634,"current_range_meters":0,"station_id":"ce4bhbp2rcd13ifvqerg","pricing_plan_id":"free"},{"bike_id":"7d2ceae5-44cb-4d40-bf09-209268de9a57","system_id":"levelo_inurba_marseille","lat":43.28039,"lon":5.369297,"is_reserved":false,"is_disabled":false,"rental_uris":{"android":"levelo://app?vid=7d2ceae5-44cb-4d40-bf09-209268de9a57","ios":"levelo://app?vid=7d2ceae5-44cb-4d40-bf09-209268de9a57"},"vehicle_type_id":"4","last_reported":1706425634,"current_range_meters":28400,"station_id":"ce4bha12rcd13ifvqef0","pricing_plan_id":"free"},{"bike_id":"a4dee076-d77d-4907-b73b-8abb8cf21261","system_id":"levelo_inurba_marseille","lat":43.28039,"lon":5.369297,"is_reserved":false,"is_disabled":false,"rental_uris":{"android":"levelo://app?vid=a4dee076-d77d-4907-b73b-8abb8cf21261","ios":"levelo://app?vid=a4dee076-d77d-4907-b73b-8abb8cf21261"},"vehicle_type_id":"4","last_reported":1706425634,"current_range_meters":25600,"station_id":"ce4bha12rcd13ifvqef0","pricing_plan_id":"free"},{"bike_id":"9aeec904-3498-4e1e-8e05-a75df44e076e","system_id":"levelo_inurba_marseille","lat":43.280382,"lon":5.369291,"is_reserved":false,"is_disabled":false,"rental_uris":{"android":"levelo://app?vid=9aeec904-3498-4e1e-8e05-a75df44e076e","ios":"levelo://app?vid=9aeec904-3498-4e1e-8e05-a75df44e076e"},"vehicle_type_id":"4","last_reported":1706425634,"current_range_meters":22000,"station_id":"ce4bha12rcd13ifvqef0","pricing_plan_id":"free"},{"bike_id":"9b4a9518-965f-4ef4-bcae-b9ba5a2be020","system_id":"levelo_inurba_marseille","lat":43.280382,"lon":5.369291,"is_reserved":false,"is_disabled":false,"rental_uris":{"android":"levelo://app?vid=9b4a9518-965f-4ef4-bcae-b9ba5a2be020","ios":"levelo://app?vid=9b4a9518-965f-4ef4-bcae-b9ba5a2be020"},"vehicle_type_id":"4","last_reported":1706425634,"current_range_meters":27600,"station_id":"ce4bha12rcd13ifvqef0","pricing_plan_id":"free"},{"bike_id":"a2fd409c-99ce-4249-8d63-fdea0254a9c9","system_id":"levelo_inurba_marseille","lat":43.28039,"lon":5.369297,"is_reserved":false,"is_disabled":false,"rental_uris":{"android":"levelo://app?vid=a2fd409c-99ce-4249-8d63-fdea0254a9c9","ios":"levelo://app?vid=a2fd409c-99ce-4249-8d63-fdea0254a9c9"},"vehicle_type_id":"4","last_reported":1706425634,"current_range_meters":23600,"station_id":"ce4bha12rcd13ifvqef0","pricing_plan_id":"free"},{"bike_id":"7d56b545-ea86-423c-9c7b-f611e297116c","system_id":"levelo_inurba_marseille","lat":43.280382,"lon":5.369291,"is_reserved":false,"is_disabled":false,"rental_uris":{"android":"levelo://app?vid=7d56b545-ea86-423c-9c7b-f611e297116c","ios":"levelo://app?vid=7d56b545-ea86-423c-9c7b-f611e297116c"},"vehicle_type_id":"4","last_reported":1706425634,"current_range_meters":29600,"station_id":"ce4bha12rcd13ifvqef0","pricing_plan_id":"free"},{"bike_id":"5c91d4cd-cacb-4112-8e26-9288e7567cdc","system_id":"levelo_inurba_marseille","lat":43.28039,"lon":5.369297,"is_reserved":false,"is_disabled":false,"rental_uris":{"android":"levelo://app?vid=5c91d4cd-cacb-4112-8e26-9288e7567cdc","ios":"levelo://app?vid=5c91d4cd-cacb-4112-8e26-9288e7567cdc"},"vehicle_type_id":"4","last_reported":1706425634,"current_range_meters":30800,"station_id":"ce4bha12rcd13ifvqef0","pricing_plan_id":"free"},{"bike_id":"b918e339-87c3-4820-b96c-82c89f985e1d","system_id":"levelo_inurba_marseille","lat":43.29034,"lon":5.39957,"is_reserved":false,"is_disabled":false,"rental_uris":{"android":"levelo://app?vid=b918e339-87c3-4820-b96c-82c89f985e1d","ios":"levelo://app?vid=b918e339-87c3-4820-b96c-82c89f985e1d"},"vehicle_type_id":"4","last_reported":1706425634,"current_range_meters":27600,"station_id":"ce4bh392rcd13ifvqdm0","pricing_plan_id":"free"},{"bike_id":"ca37fd7c-d220-41a8-a9d8-9e0559ab5f40","system_id":"levelo_inurba_marseille","lat":43.296263,"lon":5.40601,"is_reserved":false,"is_disabled":false,"rental_uris":{"android":"levelo://app?vid=ca37fd7c-d220-41a8-a9d8-9e0559ab5f40","ios":"levelo://app?vid=ca37fd7c-d220-41a8-a9d8-9e0559ab5f40"},"vehicle_type_id":"4","last_reported":1706425634,"current_range_meters":26800,"station_id":"ce4bh0h2rcd13ifvqd60","pricing_plan_id":"free"},{"bike_id":"801e1043-76ab-4b1e-bddd-25df1d3c2299","system_id":"levelo_inurba_marseille","lat":43.284462,"lon":5.392121,"is_reserved":false,"is_disabled":false,"rental_uris":{"android":"levelo://app?vid=801e1043-76ab-4b1e-bddd-25df1d3c2299","ios":"levelo://app?vid=801e1043-76ab-4b1e-bddd-25df1d3c2299"},"vehicle_type_id":"4","last_reported":1706425634,"current_range_meters":23600,"station_id":"ce4bhoh2rcd13ifvqh5g","pricing_plan_id":"free"},{"bike_id":"85283570-766e-4f09-b6d7-924805593782","system_id":"levelo_inurba_marseille","lat":43.284462,"lon":5.392121,"is_reserved":false,"is_disabled":false,"rental_uris":{"android":"levelo://app?vid=85283570-766e-4f09-b6d7-924805593782","ios":"levelo://app?vid=85283570-766e-4f09-b6d7-924805593782"},"vehicle_type_id":"4","last_reported":1706425634,"current_range_meters":22800,"station_id":"ce4bhoh2rcd13ifvqh5g","pricing_plan_id":"free"},{"bike_id":"ebd50005-3faa-4b4c-bc65-0c0a5a2afc4f","system_id":"levelo_inurba_marseille","lat":43.28573,"lon":5.394992,"is_reserved":false,"is_disabled":false,"rental_uris":{"android":"levelo://app?vid=ebd50005-3faa-4b4c-bc65-0c0a5a2afc4f","ios":"levelo://app?vid=ebd50005-3faa-4b4c-bc65-0c0a5a2afc4f"},"vehicle_type_id":"4","last_reported":1706425634,"current_range_meters":30800,"station_id":"ce4bh292rcd13ifvqdg0","pricing_plan_id":"free"},{"bike_id":"046406e2-3124-4f65-a46c-e831ec439c33","system_id":"levelo_inurba_marseille","lat":43.326605,"lon":5.409903,"is_reserved":false,"is_disabled":false,"rental_uris":{"android":"levelo://app?vid=046406e2-3124-4f65-a46c-e831ec439c33","ios":"levelo://app?vid=046406e2-3124-4f65-a46c-e831ec439c33"},"vehicle_type_id":"4","last_reported":1706425634,"current_range_meters":30400,"station_id":"ce4bhpp2rcd13ifvqhgg","pricing_plan_id":"free"},{"bike_id":"1e236eff-08d0-4fd7-afa5-dba795c059f5","system_id":"levelo_inurba_marseille","lat":43.304188,"lon":5.412904,"is_reserved":false,"is_disabled":false,"rental_uris":{"android":"levelo://app?vid=1e236eff-08d0-4fd7-afa5-dba795c059f5","ios":"levelo://app?vid=1e236eff-08d0-4fd7-afa5-dba795c059f5"},"vehicle_type_id":"4","last_reported":1706425634,"current_range_meters":25600,"station_id":"ce4bhop2rcd13ifvqh8g","pricing_plan_id":"free"},{"bike_id":"e17fd06b-aaed-4b58-8ddd-8de8911cc03d","system_id":"levelo_inurba_marseille","lat":43.304188,"lon":5.412904,"is_reserved":false,"is_disabled":false,"rental_uris":{"android":"levelo://app?vid=e17fd06b-aaed-4b58-8ddd-8de8911cc03d","ios":"levelo://app?vid=e17fd06b-aaed-4b58-8ddd-8de8911cc03d"},"vehicle_type_id":"4","last_reported":1706425634,"current_range_meters":31600,"station_id":"ce4bhop2rcd13ifvqh8g","pricing_plan_id":"free"},{"bike_id":"bb00f9fd-c33a-4782-b405-d2b5fb2eb549","system_id":"levelo_inurba_marseille","lat":43.304188,"lon":5.412904,"is_reserved":false,"is_disabled":false,"rental_uris":{"android":"levelo://app?vid=bb00f9fd-c33a-4782-b405-d2b5fb2eb549","ios":"levelo://app?vid=bb00f9fd-c33a-4782-b405-d2b5fb2eb549"},"vehicle_type_id":"4","last_reported":1706425634,"current_range_meters":16000,"station_id":"ce4bhop2rcd13ifvqh8g","pricing_plan_id":"free"},{"bike_id":"a4b598d9-46c7-4a0f-8f07-288aa15db90d","system_id":"levelo_inurba_marseille","lat":43.287154,"lon":5.399979,"is_reserved":false,"is_disabled":false,"rental_uris":{"android":"levelo://app?vid=a4b598d9-46c7-4a0f-8f07-288aa15db90d","ios":"levelo://app?vid=a4b598d9-46c7-4a0f-8f07-288aa15db90d"},"vehicle_type_id":"4","last_reported":1706425634,"current_range_meters":28000,"station_id":"ce4bho92rcd13ifvqh3g","pricing_plan_id":"free"},{"bike_id":"a539d426-9e55-4e9c-b7bf-13cd28eecf36","system_id":"levelo_inurba_marseille","lat":43.27819,"lon":5.35483,"is_reserved":false,"is_disabled":false,"rental_uris":{"android":"levelo://app?vid=a539d426-9e55-4e9c-b7bf-13cd28eecf36","ios":"levelo://app?vid=a539d426-9e55-4e9c-b7bf-13cd28eecf36"},"vehicle_type_id":"4","last_reported":1706425634,"current_range_meters":9600,"station_id":"","pricing_plan_id":"free"},{"bike_id":"3235c796-1175-436d-8c89-b2cff577e130","system_id":"levelo_inurba_marseille","lat":43.320045,"lon":5.415048,"is_reserved":false,"is_disabled":false,"rental_uris":{"android":"levelo://app?vid=3235c796-1175-436d-8c89-b2cff577e130","ios":"levelo://app?vid=3235c796-1175-436d-8c89-b2cff577e130"},"vehicle_type_id":"4","last_reported":1706425634,"current_range_meters":15600,"station_id":"ce4bhq92rcd13ifvqhkg","pricing_plan_id":"free"},{"bike_id":"7e291c2c-52f0-4b12-aca2-4d8672a1b188","system_id":"levelo_inurba_marseille","lat":43.292569,"lon":5.409107,"is_reserved":false,"is_disabled":false,"rental_uris":{"android":"levelo://app?vid=7e291c2c-52f0-4b12-aca2-4d8672a1b188","ios":"levelo://app?vid=7e291c2c-52f0-4b12-aca2-4d8672a1b188"},"vehicle_type_id":"4","last_reported":1706425634,"current_range_meters":24000,"station_id":"ce4bh192rcd13ifvqdc0","pricing_plan_id":"free"},{"bike_id":"9fafb5a4-62a8-40b6-bb64-a5ef003f5895","system_id":"levelo_inurba_marseille","lat":43.27618,"lon":5.361009,"is_reserved":false,"is_disabled":false,"rental_uris":{"android":"levelo://app?vid=9fafb5a4-62a8-40b6-bb64-a5ef003f5895","ios":"levelo://app?vid=9fafb5a4-62a8-40b6-bb64-a5ef003f5895"},"vehicle_type_id":"4","last_reported":1706425634,"current_range_meters":28400,"station_id":"ce4bgj92rcd13ifvqbe0","pricing_plan_id":"free"},{"bike_id":"15d3cff5-e5f0-4286-bb62-80c1a7cb751e","system_id":"levelo_inurba_marseille","lat":43.27613,"lon":5.36106,"is_reserved":false,"is_disabled":false,"rental_uris":{"android":"levelo://app?vid=15d3cff5-e5f0-4286-bb62-80c1a7cb751e","ios":"levelo://app?vid=15d3cff5-e5f0-4286-bb62-80c1a7cb751e"},"vehicle_type_id":"4","last_reported":1706425634,"current_range_meters":28400,"station_id":"ce4bgj92rcd13ifvqbe0","pricing_plan_id":"free"},{"bike_id":"84e76198-ec4f-4126-ae89-823c1ce4b85c","system_id":"levelo_inurba_marseille","lat":43.276179,"lon":5.361009,"is_reserved":false,"is_disabled":false,"rental_uris":{"android":"levelo://app?vid=84e76198-ec4f-4126-ae89-823c1ce4b85c","ios":"levelo://app?vid=84e76198-ec4f-4126-ae89-823c1ce4b85c"},"vehicle_type_id":"4","last_reported":1706425634,"current_range_meters":28000,"station_id":"ce4bgj92rcd13ifvqbe0","pricing_plan_id":"free"},{"bike_id":"adb8fcf8-9dad-464c-89b3-1f63ea3fcee3","system_id":"levelo_inurba_marseille","lat":43.278401,"lon":5.392152,"is_reserved":false,"is_disabled":false,"rental_uris":{"android":"levelo://app?vid=adb8fcf8-9dad-464c-89b3-1f63ea3fcee3","ios":"levelo://app?vid=adb8fcf8-9dad-464c-89b3-1f63ea3fcee3"},"vehicle_type_id":"4","last_reported":1706425634,"current_range_meters":5200,"station_id":"ce4bhjp2rcd13ifvqga0","pricing_plan_id":"free"},{"bike_id":"aa0f517f-ada5-4a72-96f0-a728567ac06e","system_id":"levelo_inurba_marseille","lat":43.27379,"lon":5.36247,"is_reserved":false,"is_disabled":false,"rental_uris":{"android":"levelo://app?vid=aa0f517f-ada5-4a72-96f0-a728567ac06e","ios":"levelo://app?vid=aa0f517f-ada5-4a72-96f0-a728567ac06e"},"vehicle_type_id":"4","last_reported":1706425634,"current_range_meters":31600,"station_id":"ce4bhbh2rcd13ifvqeo0","pricing_plan_id":"free"},{"bike_id":"08e95487-6327-4001-8f0d-8ed1d4593628","system_id":"levelo_inurba_marseille","lat":43.27379,"lon":5.36246,"is_reserved":false,"is_disabled":false,"rental_uris":{"android":"levelo://app?vid=08e95487-6327-4001-8f0d-8ed1d4593628","ios":"levelo://app?vid=08e95487-6327-4001-8f0d-8ed1d4593628"},"vehicle_type_id":"4","last_reported":1706425634,"current_range_meters":31200,"station_id":"ce4bhbh2rcd13ifvqeo0","pricing_plan_id":"free"},{"bike_id":"d7dc0b00-e321-4a53-b20b-d2ce6f8725dc","system_id":"levelo_inurba_marseille","lat":43.27379,"lon":5.36246,"is_reserved":false,"is_disabled":false,"rental_uris":{"android":"levelo://app?vid=d7dc0b00-e321-4a53-b20b-d2ce6f8725dc","ios":"levelo://app?vid=d7dc0b00-e321-4a53-b20b-d2ce6f8725dc"},"vehicle_type_id":"4","last_reported":1706425634,"current_range_meters":29200,"station_id":"ce4bhbh2rcd13ifvqeo0","pricing_plan_id":"free"},{"bike_id":"a13dd372-9444-40e2-b6c6-1f77d905b760","system_id":"levelo_inurba_marseille","lat":43.27377,"lon":5.3625,"is_reserved":false,"is_disabled":false,"rental_uris":{"android":"levelo://app?vid=a13dd372-9444-40e2-b6c6-1f77d905b760","ios":"levelo://app?vid=a13dd372-9444-40e2-b6c6-1f77d905b760"},"vehicle_type_id":"4","last_reported":1706425634,"current_range_meters":31200,"station_id":"ce4bhbh2rcd13ifvqeo0","pricing_plan_id":"free"},{"bike_id":"e4efff38-d966-4504-ad33-3fc8020a72eb","system_id":"levelo_inurba_marseille","lat":43.275625,"lon":5.384392,"is_reserved":false,"is_disabled":false,"rental_uris":{"android":"levelo://app?vid=e4efff38-d966-4504-ad33-3fc8020a72eb","ios":"levelo://app?vid=e4efff38-d966-4504-ad33-3fc8020a72eb"},"vehicle_type_id":"4","last_reported":1706425634,"current_range_meters":22800,"station_id":"ce4bhh92rcd13ifvqfi0","pricing_plan_id":"free"},{"bike_id":"6725f519-dd54-49ce-a008-d33021b7f376","system_id":"levelo_inurba_marseille","lat":43.273609,"lon":5.362708,"is_reserved":false,"is_disabled":false,"rental_uris":{"android":"levelo://app?vid=6725f519-dd54-49ce-a008-d33021b7f376","ios":"levelo://app?vid=6725f519-dd54-49ce-a008-d33021b7f376"},"vehicle_type_id":"4","last_reported":1706425634,"current_range_meters":23600,"station_id":"ce4bhbh2rcd13ifvqeo0","pricing_plan_id":"free"},{"bike_id":"e43ca11c-c250-4606-92b1-16adfe316fd1","system_id":"levelo_inurba_marseille","lat":43.3361,"lon":5.41016,"is_reserved":false,"is_disabled":false,"rental_uris":{"android":"levelo://app?vid=e43ca11c-c250-4606-92b1-16adfe316fd1","ios":"levelo://app?vid=e43ca11c-c250-4606-92b1-16adfe316fd1"},"vehicle_type_id":"4","last_reported":1706425634,"current_range_meters":13600,"station_id":"ce4bhqh2rcd13ifvqhmg","pricing_plan_id":"free"},{"bike_id":"c5798cc5-84ea-45b9-b9e0-9d3998f44cb9","system_id":"levelo_inurba_marseille","lat":43.273609,"lon":5.362708,"is_reserved":false,"is_disabled":false,"rental_uris":{"android":"levelo://app?vid=c5798cc5-84ea-45b9-b9e0-9d3998f44cb9","ios":"levelo://app?vid=c5798cc5-84ea-45b9-b9e0-9d3998f44cb9"},"vehicle_type_id":"4","last_reported":1706425634,"current_range_meters":24400,"station_id":"ce4bhbh2rcd13ifvqeo0","pricing_plan_id":"free"},{"bike_id":"76d7c7cc-4d99-4ec3-9c11-3659d8e5ea82","system_id":"levelo_inurba_marseille","lat":43.336073,"lon":5.410216,"is_reserved":false,"is_disabled":false,"rental_uris":{"android":"levelo://app?vid=76d7c7cc-4d99-4ec3-9c11-3659d8e5ea82","ios":"levelo://app?vid=76d7c7cc-4d99-4ec3-9c11-3659d8e5ea82"},"vehicle_type_id":"4","last_reported":1706425634,"current_range_meters":6000,"station_id":"ce4bhqh2rcd13ifvqhmg","pricing_plan_id":"free"},{"bike_id":"710a6d3b-7695-45f4-926e-1e8a9793c4ad","system_id":"levelo_inurba_marseille","lat":43.336134,"lon":5.410341,"is_reserved":false,"is_disabled":false,"rental_uris":{"android":"levelo://app?vid=710a6d3b-7695-45f4-926e-1e8a9793c4ad","ios":"levelo://app?vid=710a6d3b-7695-45f4-926e-1e8a9793c4ad"},"vehicle_type_id":"4","last_reported":1706425634,"current_range_meters":14800,"station_id":"ce4bhqh2rcd13ifvqhmg","pricing_plan_id":"free"},{"bike_id":"0bd470c3-afd0-46ed-b569-4279e2016a2d","system_id":"levelo_inurba_marseille","lat":43.336134,"lon":5.410341,"is_reserved":false,"is_disabled":false,"rental_uris":{"android":"levelo://app?vid=0bd470c3-afd0-46ed-b569-4279e2016a2d","ios":"levelo://app?vid=0bd470c3-afd0-46ed-b569-4279e2016a2d"},"vehicle_type_id":"4","last_reported":1706425634,"current_range_meters":17600,"station_id":"ce4bhqh2rcd13ifvqhmg","pricing_plan_id":"free"},{"bike_id":"662dc768-8d66-452a-9022-759985e18a90","system_id":"levelo_inurba_marseille","lat":43.336134,"lon":5.410341,"is_reserved":false,"is_disabled":false,"rental_uris":{"android":"levelo://app?vid=662dc768-8d66-452a-9022-759985e18a90","ios":"levelo://app?vid=662dc768-8d66-452a-9022-759985e18a90"},"vehicle_type_id":"4","last_reported":1706425634,"current_range_meters":2400,"station_id":"ce4bhqh2rcd13ifvqhmg","pricing_plan_id":"free"},{"bike_id":"8f5a4b00-5747-43af-8fb9-6bf63647eb7f","system_id":"levelo_inurba_marseille","lat":43.336134,"lon":5.410341,"is_reserved":false,"is_disabled":false,"rental_uris":{"android":"levelo://app?vid=8f5a4b00-5747-43af-8fb9-6bf63647eb7f","ios":"levelo://app?vid=8f5a4b00-5747-43af-8fb9-6bf63647eb7f"},"vehicle_type_id":"4","last_reported":1706425634,"current_range_meters":10800,"station_id":"ce4bhqh2rcd13ifvqhmg","pricing_plan_id":"free"},{"bike_id":"7c340cc5-8aa7-449a-bbcf-bbd63e0d35df","system_id":"levelo_inurba_marseille","lat":43.336134,"lon":5.410341,"is_reserved":false,"is_disabled":false,"rental_uris":{"android":"levelo://app?vid=7c340cc5-8aa7-449a-bbcf-bbd63e0d35df","ios":"levelo://app?vid=7c340cc5-8aa7-449a-bbcf-bbd63e0d35df"},"vehicle_type_id":"4","last_reported":1706425634,"current_range_meters":20400,"station_id":"ce4bhqh2rcd13ifvqhmg","pricing_plan_id":"free"},