{"last_updated":1747800882,"ttl":60,"version":"2.2","data":{"bikes":[{"bike_id":"c0b9fd4f-e181-46ce-b0bf-f5119973334f","system_id":"levelo_inurba_marseille","lat":43.33771,"lon":5.37424,"is_reserved":false,"is_disabled":true,"rental_uris":{"android":"levelo://app?vid=c0b9fd4f-e181-46ce-b0bf-f5119973334f","ios":"levelo://app?vid=c0b9fd4f-e181-46ce-b0bf-f5119973334f"},"vehicle_type_id":"4","last_reported":1747800882,"current_range_meters":0,"station_id":"","pricing_plan_id":"cebpf4jnsgd1na2vs0mg"},{"bike_id":"fc2577e7-1497-425b-9d4f-ab8d7dc843c6","system_id":"levelo_inurba_marseille","lat":43.33771,"lon":5.37485,"is_reserved":false,"is_disabled":true,"rental_uris":{"android":"levelo://app?vid=fc2577e7-1497-425b-9d4f-ab8d7dc843c6","ios":"levelo://app?vid=fc2577e7-1497-425b-9d4f-ab8d7dc843c6"},"vehicle_type_id":"4","last_reported":1747800882,"current_range_meters":0,"station_id":"","pricing_plan_id":"cebpf4jnsgd1na2vs0mg"},{"bike_id":"3c2e874b-823b-4069-8a4a-aca4fb4238f3","system_id":"levelo_inurba_marseille","lat":43.27631,"lon":5.397268,"is_reserved":false,"is_disabled":true,"rental_uris":{"android":"levelo://app?vid=3c2e874b-823b-4069-8a4a-aca4fb4238f3","ios":"levelo://app?vid=3c2e874b-823b-4069-8a4a-aca4fb4238f3"},"vehicle_type_id":"4","last_reported":1747800882,"current_range_meters":0,"station_id":"","pricing_plan_id":"cebpf4jnsgd1na2vs0mg"},{"bike_id":"399c41cd-ce0f-41ec-852e-8ace5217f7e1","system_id":"levelo_inurba_marseille","lat":43.299569,"lon":5.452853,"is_reserved":false,"is_disabled":true,"rental_uris":{"android":"levelo://app?vid=399c41cd-ce0f-41ec-852e-8ace5217f7e1","ios":"levelo://app?vid=399c41cd-ce0f-41ec-852e-8ace5217f7e1"},"vehicle_type_id":"4","last_reported":1747800882,"current_range_meters":0,"station_id":"","pricing_plan_id":"cebpf4jnsgd1na2vs0mg"},{"bike_id":"e9dd3aa4-b5e7-4480-926d-d7f537719bfa","system_id":"levelo_inurba_marseille","lat":43.230331,"lon":5.401847,"is_reserved":false,"is_disabled":true,"rental_uris":{"android":"levelo://app?vid=e9dd3aa4-b5e7-4480-926d-d7f537719bfa","ios":"levelo://app?vid=e9dd3aa4-b5e7-4480-926d-d7f537719bfa"},"vehicle_type_id":"4","last_reported":1747800882,"current_range_meters":0,"station_id":"","pricing_plan_id":"cebpf4jnsgd1na2vs0mg"},{"bike_id":"9ac3f774-a07f-404e-adfe-2bb063a4ba3f","system_id":"levelo_inurba_marseille","lat":43.2511,"lon":5.40323,"is_reserved":false,"is_disabled":true,"rental_uris":{"android":"levelo://app?vid=9ac3f774-a07f-404e-adfe-2bb063a4ba3f","ios":"levelo://app?vid=9ac3f774-a07f-404e-adfe-2bb063a4ba3f"},"vehicle_type_id":"4","last_reported":1747800882,"current_range_meters":0,"station_id":"ce4bhlh2rcd13ifvqgig","pricing_plan_id":"cebpf4jnsgd1na2vs0mg"},{"bike_id":"0dabc0fd-954f-4f9c-bdb9-ad72c507483a","system_id":"levelo_inurba_marseille","lat":43.269257,"lon":5.402524,"is_reserved":false,"is_disabled":true,"rental_uris":{"android":"levelo://app?vid=0dabc0fd-954f-4f9c-bdb9-ad72c507483a","ios":"levelo://app?vid=0dabc0fd-954f-4f9c-bdb9-ad72c507483a"},"vehicle_type_id":"4","last_reported":1747800882,"current_range_meters":0,"station_id":"cjm6bp8fraef2m0cb0m0","pricing_plan_id":"cebpf4jnsgd1na2vs0mg"},{"bike_id":"e64e36d1-c3e7-4427-9260-70ac75fa0a1c","system_id":"levelo_inurba_marseille","lat":43.337656,"lon":5.374734,"is_reserved":false,"is_disabled":true,"rental_uris":{"android":"levelo://app?vid=e64e36d1-c3e7-4427-9260-70ac75fa0a1c","ios":"levelo://app?vid=e64e36d1-c3e7-4427-9260-70ac75fa0a1c"},"vehicle_type_id":"4","last_reported":1747800882,"current_range_meters":2000,"station_id":"","pricing_plan_id":"cebpf4jnsgd1na2vs0mg"},{"bike_id":"bbf79f8d-15df-48f9-8ffb-6b1815a87551","system_id":"levelo_inurba_marseille","lat":43.302531,"lon":5.400621,"is_reserved":false,"is_disabled":true,"rental_uris":{"android":"levelo://app?vid=bbf79f8d-15df-48f9-8ffb-6b1815a87551","ios":"levelo://app?vid=bbf79f8d-15df-48f9-8ffb-6b1815a87551"},"vehicle_type_id":"4","last_reported":1747800882,"current_range_meters":2000,"station_id":"ce4bgvh2rcd13ifvqcs0","pricing_plan_id":"cebpf4jnsgd1na2vs0mg"},{"bike_id":"e40cc09c-dcef-4866-8b14-49847c612097","system_id":"levelo_inurba_marseille","lat":43.280332,"lon":5.369494,"is_reserved":false,"is_disabled":true,"rental_uris":{"android":"levelo://app?vid=e40cc09c-dcef-4866-8b14-49847c612097","ios":"levelo://app?vid=e40cc09c-dcef-4866-8b14-49847c612097"},"vehicle_type_id":"4","last_reported":1747800882,"current_range_meters":2000,"station_id":"ce4bha12rcd13ifvqef0","pricing_plan_id":"cebpf4jnsgd1na2vs0mg"},{"bike_id":"20bee342-4a3f-4f34-940d-bb6cf00d52ae","system_id":"levelo_inurba_marseille","lat":43.26673,"lon":5.3858,"is_reserved":false,"is_disabled":false,"rental_uris":{"android":"levelo://app?vid=20bee342-4a3f-4f34-940d-bb6cf00d52ae","ios":"levelo://app?vid=20bee342-4a3f-4f34-940d-bb6cf00d52ae"},"vehicle_type_id":"4","last_reported":1747800882,"current_range_meters":2800,"station_id":"","pricing_plan_id":"cebpf4jnsgd1na2vs0mg"},{"bike_id":"2150c90f-31d5-49fd-89de-399fa134a212","system_id":"levelo_inurba_marseille","lat":43.3235,"lon":5.40612,"is_reserved":false,"is_disabled":false,"rental_uris":{"android":"levelo://app?vid=2150c90f-31d5-49fd-89de-399fa134a212","ios":"levelo://app?vid=2150c90f-31d5-49fd-89de-399fa134a212"},"vehicle_type_id":"4","last_reported":1747800882,"current_range_meters":2800,"station_id":"ce4bhq92rcd13ifvqhjg","pricing_plan_id":"cebpf4jnsgd1na2vs0mg"},{"bike_id":"a22db400-c240-41f8-b50f-820905229ead","system_id":"levelo_inurba_marseille","lat":43.28274,"lon":5.3508,"is_reserved":false,"is_disabled":false,"rental_uris":{"android":"levelo://app?vid=a22db400-c240-41f8-b50f-820905229ead","ios":"levelo://app?vid=a22db400-c240-41f8-b50f-820905229ead"},"vehicle_type_id":"4","last_reported":1747800882,"current_range_meters":3600,"station_id":"ce4bhbp2rcd13ifvqerg","pricing_plan_id":"cebpf4jnsgd1na2vs0mg"},{"bike_id":"0b4c7494-d548-4b9e-aade-e9bca9fb8da0","system_id":"levelo_inurba_marseille","lat":43.25105,"lon":5.40353,"is_reserved":false,"is_disabled":false,"rental_uris":{"android":"levelo://app?vid=0b4c7494-d548-4b9e-aade-e9bca9fb8da0","ios":"levelo://app?vid=0b4c7494-d548-4b9e-aade-e9bca9fb8da0"},"vehicle_type_id":"4","last_reported":1747800882,"current_range_meters":3600,"station_id":"ce4bhlh2rcd13ifvqgig","pricing_plan_id":"cebpf4jnsgd1na2vs0mg"},{"bike_id":"4b88fdea-9410-479b-abf3-7d2c52ae8721","system_id":"levelo_inurba_marseille","lat":43.25147,"lon":5.40336,"is_reserved":false,"is_disabled":false,"rental_uris":{"android":"levelo://app?vid=4b88fdea-9410-479b-abf3-7d2c52ae8721","ios":"levelo://app?vid=4b88fdea-9410-479b-abf3-7d2c52ae8721"},"vehicle_type_id":"4","last_reported":1747800882,"current_range_meters":4000,"station_id":"","pricing_plan_id":"cebpf4jnsgd1na2vs0mg"},{"bike_id":"a6863a10-ab1d-4495-891d-de96425c7efb","system_id":"levelo_inurba_marseille","lat":43.311193,"lon":5.37777,"is_reserved":false,"is_disabled":false,"rental_uris":{"android":"levelo://app?vid=a6863a10-ab1d-4495-891d-de96425c7efb","ios":"levelo://app?vid=a6863a10-ab1d-4495-891d-de96425c7efb"},"vehicle_type_id":"4","last_reported":1747800882,"current_range_meters":4000,"station_id":"ce4bgt92rcd13ifvqcg0","pricing_plan_id":"cebpf4jnsgd1na2vs0mg"},{"bike_id":"bcbdbd69-7be8-42f8-a855-a4358565de8f","system_id":"levelo_inurba_marseille","lat":43.27728,"lon":5.41408,"is_reserved":false,"is_disabled":false,"rental_uris":{"android":"levelo://app?vid=bcbdbd69-7be8-42f8-a855-a4358565de8f","ios":"levelo://app?vid=bcbdbd69-7be8-42f8-a855-a4358565de8f"},"vehicle_type_id":"4","last_reported":1747800882,"current_range_meters":4400,"station_id":"","pricing_plan_id":"cebpf4jnsgd1na2vs0mg"},{"bike_id":"43c03801-dc54-42f6-a1de-277ec4aa4a5b","system_id":"levelo_inurba_marseille","lat":43.23182,"lon":5.40001,"is_reserved":false,"is_disabled":false,"rental_uris":{"android":"levelo://app?vid=43c03801-dc54-42f6-a1de-277ec4aa4a5b","ios":"levelo://app?vid=43c03801-dc54-42f6-a1de-277ec4aa4a5b"},"vehicle_type_id":"4","last_reported":1747800882,"current_range_meters":4400,"station_id":"ce4bhn12rcd13ifvqgqg","pricing_plan_id":"cebpf4jnsgd1na2vs0mg"},{"bike_id":"8f0f531d-6a65-4647-8a6f-baa3d982f42f","system_id":"levelo_inurba_marseille","lat":43.28124,"lon":5.42582,"is_reserved":false,"is_disabled":false,"rental_uris":{"android":"levelo://app?vid=8f0f531d-6a65-4647-8a6f-baa3d982f42f","ios":"levelo://app?vid=8f0f531d-6a65-4647-8a6f-baa3d982f42f"},"vehicle_type_id":"4","last_reported":1747800882,"current_range_meters":4800,"station_id":"","pricing_plan_id":"cebpf4jnsgd1na2vs0mg"},{"bike_id":"cb3c14ba-8cfa-4515-9593-8d523c999148","system_id":"levelo_inurba_marseille","lat":43.265559,"lon":5.372868,"is_reserved":false,"is_disabled":false,"rental_uris":{"android":"levelo://app?vid=cb3c14ba-8cfa-4515-9593-8d523c999148","ios":"levelo://app?vid=cb3c14ba-8cfa-4515-9593-8d523c999148"},"vehicle_type_id":"4","last_reported":1747800882,"current_range_meters":5600,"station_id":"ce4bhg12rcd13ifvqf70","pricing_plan_id":"cebpf4jnsgd1na2vs0mg"},{"bike_id":"c781ad9b-f056-42a1-97da-43a40b1b92e7","system_id":"levelo_inurba_marseille","lat":43.231927,"lon":5.355611,"is_reserved":false,"is_disabled":false,"rental_uris":{"android":"levelo://app?vid=c781ad9b-f056-42a1-97da-43a40b1b92e7","ios":"levelo://app?vid=c781ad9b-f056-42a1-97da-43a40b1b92e7"},"vehicle_type_id":"4","last_reported":1747800882,"current_range_meters":5600,"station_id":"ce4bhu92rcd13ifvqi70","pricing_plan_id":"cebpf4jnsgd1na2vs0mg"},{"bike_id":"12549c08-9fcb-42d7-9285-ec4eef7e0796","system_id":"levelo_inurba_marseille","lat":43.265773,"lon":5.39007,"is_reserved":false,"is_disabled":false,"rental_uris":{"android":"levelo://app?vid=12549c08-9fcb-42d7-9285-ec4eef7e0796","ios":"levelo://app?vid=12549c08-9fcb-42d7-9285-ec4eef7e0796"},"vehicle_type_id":"4","last_reported":1747800882,"current_range_meters":6000,"station_id":"ce4bhe12rcd13ifvqf30","pricing_plan_id":"cebpf4jnsgd1na2vs0mg"},{"bike_id":"1addcad7-d488-4e1c-b76c-777e91802e42","system_id":"levelo_inurba_marseille","lat":43.250847,"lon":5.395327,"is_reserved":false,"is_disabled":false,"rental_uris":{"android":"levelo://app?vid=1addcad7-d488-4e1c-b76c-777e91802e42","ios":"levelo://app?vid=1addcad7-d488-4e1c-b76c-777e91802e42"},"vehicle_type_id":"4","last_reported":1747800882,"current_range_meters":6000,"station_id":"ce4bhm12rcd13ifvqgkg","pricing_plan_id":"cebpf4jnsgd1na2vs0mg"},{"bike_id":"85eaca89-9437-48d0-9bca-a254337b88db","system_id":"levelo_inurba_marseille","lat":43.274578,"lon":5.409516,"is_reserved":false,"is_disabled":false,"rental_uris":{"android":"levelo://app?vid=85eaca89-9437-48d0-9bca-a254337b88db","ios":"levelo://app?vid=85eaca89-9437-48d0-9bca-a254337b88db"},"vehicle_type_id":"4","last_reported":1747800882,"current_range_meters":6400,"station_id":"","pricing_plan_id":"cebpf4jnsgd1na2vs0mg"},{"bike_id":"8a77c670-a7af-4ac0-9918-4e6c1c91e962","system_id":"levelo_inurba_marseille","lat":43.2509,"lon":5.39515,"is_reserved":false,"is_disabled":false,"rental_uris":{"android":"levelo://app?vid=8a77c670-a7af-4ac0-9918-4e6c1c91e962","ios":"levelo://app?vid=8a77c670-a7af-4ac0-9918-4e6c1c91e962"},"vehicle_type_id":"4","last_reported":1747800882,"current_range_meters":6400,"station_id":"ce4bhm12rcd13ifvqgkg","pricing_plan_id":"cebpf4jnsgd1na2vs0mg"},{"bike_id":"feadd485-e507-4070-a97d-b228f8e95bcb","system_id":"levelo_inurba_marseille","lat":43.295469,"lon":5.422832,"is_reserved":false,"is_disabled":false,"rental_uris":{"android":"levelo://app?vid=feadd485-e507-4070-a97d-b228f8e95bcb","ios":"levelo://app?vid=feadd485-e507-4070-a97d-b228f8e95bcb"},"vehicle_type_id":"4","last_reported":1747800882,"current_range_meters":6400,"station_id":"ce4bhph2rcd13ifvqhdg","pricing_plan_id":"cebpf4jnsgd1na2vs0mg"},{"bike_id":"bcc938d8-2314-431f-89b0-e089a0362855","system_id":"levelo_inurba_marseille","lat":43.31693,"lon":5.40465,"is_reserved":false,"is_disabled":false,"rental_uris":{"android":"levelo://app?vid=bcc938d8-2314-431f-89b0-e089a0362855","ios":"levelo://app?vid=bcc938d8-2314-431f-89b0-e089a0362855"},"vehicle_type_id":"4","last_reported":1747800882,"current_range_meters":6800,"station_id":"ce4bh012rcd13ifvqd00","pricing_plan_id":"cebpf4jnsgd1na2vs0mg"},{"bike_id":"25237339-253a-44e5-ab01-1cb4797f99d2","system_id":"levelo_inurba_marseille","lat":43.23162,"lon":5.43722,"is_reserved":false,"is_disabled":false,"rental_uris":{"android":"levelo://app?vid=25237339-253a-44e5-ab01-1cb4797f99d2","ios":"levelo://app?vid=25237339-253a-44e5-ab01-1cb4797f99d2"},"vehicle_type_id":"4","last_reported":1747800882,"current_range_meters":6800,"station_id":"ce4bhmp2rcd13ifvqgog","pricing_plan_id":"cebpf4jnsgd1na2vs0mg"},{"bike_id":"4ab9b3ed-a9ed-4877-9a5d-facdce5179e1","system_id":"levelo_inurba_marseille","lat":43.3133,"lon":5.39705,"is_reserved":false,"is_disabled":false,"rental_uris":{"android":"levelo://app?vid=4ab9b3ed-a9ed-4877-9a5d-facdce5179e1","ios":"levelo://app?vid=4ab9b3ed-a9ed-4877-9a5d-facdce5179e1"},"vehicle_type_id":"4","last_reported":1747800882,"current_range_meters":7200,"station_id":"ce4bgvp2rcd13ifvqcu0","pricing_plan_id":"cebpf4jnsgd1na2vs0mg"},{"bike_id":"aad273d5-40f2-4aaa-a1df-09503b789c5f","system_id":"levelo_inurba_marseille","lat":43.303675,"lon":5.425045,"is_reserved":false,"is_disabled":false,"rental_uris":{"android":"levelo://app?vid=aad273d5-40f2-4aaa-a1df-09503b789c5f","ios":"levelo://app?vid=aad273d5-40f2-4aaa-a1df-09503b789c5f"},"vehicle_type_id":"4","last_reported":1747800882,"current_range_meters":7200,"station_id":"ce4bhoh2rcd13ifvqh6g","pricing_plan_id":"cebpf4jnsgd1na2vs0mg"},{"bike_id":"bffbaf88-357a-4e87-a68c-a9a27a6e01e6","system_id":"levelo_inurba_marseille","lat":43.262229,"lon":5.4214,"is_reserved":false,"is_disabled":false,"rental_uris":{"android":"levelo://app?vid=bffbaf88-357a-4e87-a68c-a9a27a6e01e6","ios":"levelo://app?vid=bffbaf88-357a-4e87-a68c-a9a27a6e01e6"},"vehicle_type_id":"4","last_reported":1747800882,"current_range_meters":8000,"station_id":"","pricing_plan_id":"cebpf4jnsgd1na2vs0mg"},{"bike_id":"cedb5090-53fc-4a1c-bcbc-bc6faf25b7a5","system_id":"levelo_inurba_marseille","lat":43.285699,"lon":5.395024,"is_reserved":false,"is_disabled":false,"rental_uris":{"android":"levelo://app?vid=cedb5090-53fc-4a1c-bcbc-bc6faf25b7a5","ios":"levelo://app?vid=cedb5090-53fc-4a1c-bcbc-bc6faf25b7a5"},"vehicle_type_id":"4","last_reported":1747800882,"current_range_meters":8000,"station_id":"ce4bh292rcd13ifvqdg0","pricing_plan_id":"cebpf4jnsgd1na2vs0mg"},{"bike_id":"e9727e39-b519-4508-9b82-c1a6359db80f","system_id":"levelo_inurba_marseille","lat":43.28934,"lon":5.37286,"is_reserved":false,"is_disabled":false,"rental_uris":{"android":"levelo://app?vid=e9727e39-b519-4508-9b82-c1a6359db80f","ios":"levelo://app?vid=e9727e39-b519-4508-9b82-c1a6359db80f"},"vehicle_type_id":"4","last_reported":1747800882,"current_range_meters":8400,"station_id":"","pricing_plan_id":"cebpf4jnsgd1na2vs0mg"},{"bike_id":"7f825377-8337-456e-ad6d-576acbcc68af","system_id":"levelo_inurba_marseille","lat":43.3093,"lon":5.401471,"is_reserved":false,"is_disabled":false,"rental_uris":{"android":"levelo://app?vid=7f825377-8337-456e-ad6d-576acbcc68af","ios":"levelo://app?vid=7f825377-8337-456e-ad6d-576acbcc68af"},"vehicle_type_id":"4","last_reported":1747800882,"current_range_meters":8400,"station_id":"ce4bgvp2rcd13ifvqct0","pricing_plan_id":"cebpf4jnsgd1na2vs0mg"},{"bike_id":"287d852c-af91-464e-844b-5477afe0337f","system_id":"levelo_inurba_marseille","lat":43.278155,"lon":5.407163,"is_reserved":false,"is_disabled":false,"rental_uris":{"android":"levelo://app?vid=287d852c-af91-464e-844b-5477afe0337f","ios":"levelo://app?vid=287d852c-af91-464e-844b-5477afe0337f"},"vehicle_type_id":"4","last_reported":1747800882,"current_range_meters":8400,"station_id":"ce4bhnh2rcd13ifvqgtg","pricing_plan_id":"cebpf4jnsgd1na2vs0mg"},{"bike_id":"8c6e391d-6de7-4d45-b5f7-5ee9efc08a5a","system_id":"levelo_inurba_marseille","lat":43.31439,"lon":5.39658,"is_reserved":false,"is_disabled":false,"rental_uris":{"android":"levelo://app?vid=8c6e391d-6de7-4d45-b5f7-5ee9efc08a5a","ios":"levelo://app?vid=8c6e391d-6de7-4d45-b5f7-5ee9efc08a5a"},"vehicle_type_id":"4","last_reported":1747800882,"current_range_meters":8800,"station_id":"","pricing_plan_id":"cebpf4jnsgd1na2vs0mg"},{"bike_id":"8515e518-e6ae-4d30-823e-a81239625260","system_id":"levelo_inurba_marseille","lat":43.29687,"lon":5.36151,"is_reserved":false,"is_disabled":false,"rental_uris":{"android":"levelo://app?vid=8515e518-e6ae-4d30-823e-a81239625260","ios":"levelo://app?vid=8515e518-e6ae-4d30-823e-a81239625260"},"vehicle_type_id":"4","last_reported":1747800882,"current_range_meters":8800,"station_id":"","pricing_plan_id":"cebpf4jnsgd1na2vs0mg"},{"bike_id":"efa3d3ee-6ab6-4771-aa3d-1ec2742cd864","system_id":"levelo_inurba_marseille","lat":43.27836,"lon":5.40813,"is_reserved":false,"is_disabled":false,"rental_uris":{"android":"levelo://app?vid=efa3d3ee-6ab6-4771-aa3d-1ec2742cd864","ios":"levelo://app?vid=efa3d3ee-6ab6-4771-aa3d-1ec2742cd864"},"vehicle_type_id":"4","last_reported":1747800882,"current_range_meters":8800,"station_id":"ce4bhnh2rcd13ifvqgtg","pricing_plan_id":"cebpf4jnsgd1na2vs0mg"},{"bike_id":"e8162579-a5ad-485f-ad83-fec8a2ebe7e1","system_id":"levelo_inurba_marseille","lat":43.26826,"lon":5.39099,"is_reserved":false,"is_disabled":false,"rental_uris":{"android":"levelo://app?vid=e8162579-a5ad-485f-ad83-fec8a2ebe7e1","ios":"levelo://app?vid=e8162579-a5ad-485f-ad83-fec8a2ebe7e1"},"vehicle_type_id":"4","last_reported":1747800882,"current_range_meters":9200,"station_id":"","pricing_plan_id":"cebpf4jnsgd1na2vs0mg"},{"bike_id":"2fadb3d3-e3dc-49f6-9d4b-dd950097572a","system_id":"levelo_inurba_marseille","lat":43.2834,"lon":5.381118,"is_reserved":false,"is_disabled":false,"rental_uris":{"android":"levelo://app?vid=2fadb3d3-e3dc-49f6-9d4b-dd950097572a","ios":"levelo://app?vid=2fadb3d3-e3dc-49f6-9d4b-dd950097572a"},"vehicle_type_id":"4","last_reported":1747800882,"current_range_meters":9200,"station_id":"ce4bh412rcd13ifvqdr0","pricing_plan_id":"cebpf4jnsgd1na2vs0mg"},{"bike_id":"a72327c3-12dd-430e-9feb-14321dc644e9","system_id":"levelo_inurba_marseille","lat":43.289324,"lon":5.366382,"is_reserved":false,"is_disabled":false,"rental_uris":{"android":"levelo://app?vid=a72327c3-12dd-430e-9feb-14321dc644e9","ios":"levelo://app?vid=a72327c3-12dd-430e-9feb-14321dc644e9"},"vehicle_type_id":"4","last_reported":1747800882,"current_range_meters":9200,"station_id":"ce4bhap2rcd13ifvqek0","pricing_plan_id":"cebpf4jnsgd1na2vs0mg"},{"bike_id":"d537ca04-8e12-4e15-99bb-2fbab0c48053","system_id":"levelo_inurba_marseille","lat":43.27202,"lon":5.39189,"is_reserved":false,"is_disabled":false,"rental_uris":{"android":"levelo://app?vid=d537ca04-8e12-4e15-99bb-2fbab0c48053","ios":"levelo://app?vid=d537ca04-8e12-4e15-99bb-2fbab0c48053"},"vehicle_type_id":"4","last_reported":1747800882,"current_range_meters":9200,"station_id":"ce4bhhp2rcd13ifvqfm0","pricing_plan_id":"cebpf4jnsgd1na2vs0mg"},{"bike_id":"af06e515-da7f-49f3-a2f5-a078a63839d3","system_id":"levelo_inurba_marseille","lat":43.2467,"lon":5.3816,"is_reserved":false,"is_disabled":false,"rental_uris":{"android":"levelo://app?vid=af06e515-da7f-49f3-a2f5-a078a63839d3","ios":"levelo://app?vid=af06e515-da7f-49f3-a2f5-a078a63839d3"},"vehicle_type_id":"4","last_reported":1747800882,"current_range_meters":9200,"station_id":"ce4bhih2rcd13ifvqfr0","pricing_plan_id":"cebpf4jnsgd1na2vs0mg"},{"bike_id":"99af6b54-f624-460f-b60d-c893dd375f78","system_id":"levelo_inurba_marseille","lat":43.246659,"lon":5.381635,"is_reserved":false,"is_disabled":false,"rental_uris":{"android":"levelo://app?vid=99af6b54-f624-460f-b60d-c893dd375f78","ios":"levelo://app?vid=99af6b54-f624-460f-b60d-c893dd375f78"},"vehicle_type_id":"4","last_reported":1747800882,"current_range_meters":9200,"station_id":"ce4bhih2rcd13ifvqfr0","pricing_plan_id":"cebpf4jnsgd1na2vs0mg"},{"bike_id":"49f05bcc-fd58-450f-908f-51a1dca2ea65","system_id":"levelo_inurba_marseille","lat":43.250837,"lon":5.395122,"is_reserved":false,"is_disabled":false,"rental_uris":{"android":"levelo://app?vid=49f05bcc-fd58-450f-908f-51a1dca2ea65","ios":"levelo://app?vid=49f05bcc-fd58-450f-908f-51a1dca2ea65"},"vehicle_type_id":"4","last_reported":1747800882,"current_range_meters":9200,"station_id":"ce4bhm12rcd13ifvqgkg","pricing_plan_id":"cebpf4jnsgd1na2vs0mg"},{"bike_id":"71e146ad-5169-4dc5-a288-c7c746aad618","system_id":"levelo_inurba_marseille","lat":43.231895,"lon":5.400031,"is_reserved":false,"is_disabled":false,"rental_uris":{"android":"levelo://app?vid=71e146ad-5169-4dc5-a288-c7c746aad618","ios":"levelo://app?vid=71e146ad-5169-4dc5-a288-c7c746aad618"},"vehicle_type_id":"4","last_reported":1747800882,"current_range_meters":9200,"station_id":"ce4bhn12rcd13ifvqgqg","pricing_plan_id":"cebpf4jnsgd1na2vs0mg"},{"bike_id":"a0aabdb9-5fa2-40e6-8b72-83f513b3ace8","system_id":"levelo_inurba_marseille","lat":43.231896,"lon":5.355532,"is_reserved":false,"is_disabled":false,"rental_uris":{"android":"levelo://app?vid=a0aabdb9-5fa2-40e6-8b72-83f513b3ace8","ios":"levelo://app?vid=a0aabdb9-5fa2-40e6-8b72-83f513b3ace8"},"vehicle_type_id":"4","last_reported":1747800882,"current_range_meters":9200,"station_id":"ce4bhu92rcd13ifvqi70","pricing_plan_id":"cebpf4jnsgd1na2vs0mg"},{"bike_id":"3552fbf2-b43a-446f-93f5-d695fc251b73","system_id":"levelo_inurba_marseille","lat":43.25172,"lon":5.37518,"is_reserved":false,"is_disabled":false,"rental_uris":{"android":"levelo://app?vid=3552fbf2-b43a-446f-93f5-d695fc251b73","ios":"levelo://app?vid=3552fbf2-b43a-446f-93f5-d695fc251b73"},"vehicle_type_id":"4","last_reported":1747800882,"current_range_meters":9600,"station_id":"","pricing_plan_id":"cebpf4jnsgd1na2vs0mg"},{"bike_id":"1802cea5-8738-4946-9589-58e1c7c45ded","system_id":"levelo_inurba_marseille","lat":43.31179,"lon":5.38706,"is_reserved":false,"is_disabled":false,"rental_uris":{"android":"levelo://app?vid=1802cea5-8738-4946-9589-58e1c7c45ded","ios":"levelo://app?vid=1802cea5-8738-4946-9589-58e1c7c45ded"},"vehicle_type_id":"4","last_reported":1747800882,"current_range_meters":9600,"station_id":"ce4bgv12rcd13ifvqcp0","pricing_plan_id":"cebpf4jnsgd1na2vs0mg"},{"bike_id":"8c171a4d-8397-4c13-a661-68367ff70090","system_id":"levelo_inurba_marseille","lat":43.28661,"lon":5.363521,"is_reserved":false,"is_disabled":false,"rental_uris":{"android":"levelo://app?vid=8c171a4d-8397-4c13-a661-68367ff70090","ios":"levelo://app?vid=8c171a4d-8397-4c13-a661-68367ff70090"},"vehicle_type_id":"4","last_reported":1747800882,"current_range_meters":9600,"station_id":"ce4bhah2rcd13ifvqej0","pricing_plan_id":"cebpf4jnsgd1na2vs0mg"},{"bike_id":"1ff4dd87-bf56-4ab1-8365-aad71fcb827c","system_id":"levelo_inurba_marseille","lat":43.316076,"lon":5.423906,"is_reserved":false,"is_disabled":false,"rental_uris":{"android":"levelo://app?vid=1ff4dd87-bf56-4ab1-8365-aad71fcb827c","ios":"levelo://app?vid=1ff4dd87-bf56-4ab1-8365-aad71fcb827c"},"vehicle_type_id":"4","last_reported":1747800882,"current_range_meters":9600,"station_id":"ce4bhp92rcd13ifvqhbg","pricing_plan_id":"cebpf4jnsgd1na2vs0mg"},{"bike_id":"d222c036-c02a-40db-bb80-83d7b7358871","system_id":"levelo_inurba_marseille","lat":43.3374,"lon":5.39187,"is_reserved":false,"is_disabled":false,"rental_uris":{"android":"levelo://app?vid=d222c036-c02a-40db-bb80-83d7b7358871","ios":"levelo://app?vid=d222c036-c02a-40db-bb80-83d7b7358871"},"vehicle_type_id":"4","last_reported":1747800882,"current_range_meters":9600,"station_id":"ce4bhr92rcd13ifvqhsg","pricing_plan_id":"cebpf4jnsgd1na2vs0mg"},{"bike_id":"48f27f29-5850-4f4f-b193-450032ac8cf8","system_id":"levelo_inurba_marseille","lat":43.268042,"lon":5.402594,"is_reserved":false,"is_disabled":false,"rental_uris":{"android":"levelo://app?vid=48f27f29-5850-4f4f-b193-450032ac8cf8","ios":"levelo://app?vid=48f27f29-5850-4f4f-b193-450032ac8cf8"},"vehicle_type_id":"4","last_reported":1747800882,"current_range_meters":9600,"station_id":"ce501612rcd8frsf0b60","pricing_plan_id":"cebpf4jnsgd1na2vs0mg"},{"bike_id":"82743120-7212-4584-a715-50a1b92e9e90","system_id":"levelo_inurba_marseille","lat":43.311171,"lon":5.377639,"is_reserved":false,"is_disabled":false,"rental_uris":{"android":"levelo://app?vid=82743120-7212-4584-a715-50a1b92e9e90","ios":"levelo://app?vid=82743120-7212-4584-a715-50a1b92e9e90"},"vehicle_type_id":"4","last_reported":1747800882,"current_range_meters":10000,"station_id":"ce4bgt92rcd13ifvqcg0","pricing_plan_id":"cebpf4jnsgd1na2vs0mg"},{"bike_id":"b126fc3b-f437-49d0-8f6b-dc7508e5d805","system_id":"levelo_inurba_marseille","lat":43.286813,"lon":5.363015,"is_reserved":false,"is_disabled":false,"rental_uris":{"android":"levelo://app?vid=b126fc3b-f437-49d0-8f6b-dc7508e5d805","ios":"levelo://app?vid=b126fc3b-f437-49d0-8f6b-dc7508e5d805"},"vehicle_type_id":"4","last_reported":1747800882,"current_range_meters":10000,"station_id":"ce4bhah2rcd13ifvqej0","pricing_plan_id":"cebpf4jnsgd1na2vs0mg"},{"bike_id":"c3c11b11-8507-45b4-bd48-1e3bdd46fbbe","system_id":"levelo_inurba_marseille","lat":43.23214,"lon":5.39985,"is_reserved":false,"is_disabled":false,"rental_uris":{"android":"levelo://app?vid=c3c11b11-8507-45b4-bd48-1e3bdd46fbbe","ios":"levelo://app?vid=c3c11b11-8507-45b4-bd48-1e3bdd46fbbe"},"vehicle_type_id":"4","last_reported":1747800882,"current_range_meters":10000,"station_id":"ce4bhn12rcd13ifvqgqg","pricing_plan_id":"cebpf4jnsgd1na2vs0mg"},{"bike_id":"a108c6fe-fc59-467c-8bf3-782c2c64dc0a","system_id":"levelo_inurba_marseille","lat":43.287282,"lon":5.36088,"is_reserved":false,"is_disabled":false,"rental_uris":{"android":"levelo://app?vid=a108c6fe-fc59-467c-8bf3-782c2c64dc0a","ios":"levelo://app?vid=a108c6fe-fc59-467c-8bf3-782c2c64dc0a"},"vehicle_type_id":"4","last_reported":1747800882,"current_range_meters":10000,"station_id":"cki0cbj6b192h4jlfktg","pricing_plan_id":"cebpf4jnsgd1na2vs0mg"},{"bike_id":"ce9e01b4-2191-4a82-9a19-d7364493dc2c","system_id":"levelo_inurba_marseille","lat":43.299239,"lon":5.365609,"is_reserved":false,"is_disabled":false,"rental_uris":{"android":"levelo://app?vid=ce9e01b4-2191-4a82-9a19-d7364493dc2c","ios":"levelo://app?vid=ce9e01b4-2191-4a82-9a19-d7364493dc2c"},"vehicle_type_id":"4","last_reported":1747800882,"current_range_meters":10800,"station_id":"ce4bgm92rcd13ifvqbr0","pricing_plan_id":"cebpf4jnsgd1na2vs0mg"},{"bike_id":"2fdf9f74-b105-438a-aeb4-b7a8e79388ef","system_id":"levelo_inurba_marseille","lat":43.31322,"lon":5.39751,"is_reserved":false,"is_disabled":false,"rental_uris":{"android":"levelo://app?vid=2fdf9f74-b105-438a-aeb4-b7a8e79388ef","ios":"levelo://app?vid=2fdf9f74-b105-438a-aeb4-b7a8e79388ef"},"vehicle_type_id":"4","last_reported":1747800882,"current_range_meters":10800,"station_id":"ce4bgvp2rcd13ifvqcu0","pricing_plan_id":"cebpf4jnsgd1na2vs0mg"},{"bike_id":"99d1eda0-e5d7-4556-a75c-74bc564c99a0","system_id":"levelo_inurba_marseille","lat":43.28946,"lon":5.36635,"is_reserved":false,"is_disabled":false,"rental_uris":{"android":"levelo://app?vid=99d1eda0-e5d7-4556-a75c-74bc564c99a0","ios":"levelo://app?vid=99d1eda0-e5d7-4556-a75c-74bc564c99a0"},"vehicle_type_id":"4","last_reported":1747800882,"current_range_meters":10800,"station_id":"ce4bhap2rcd13ifvqek0","pricing_plan_id":"cebpf4jnsgd1na2vs0mg"},{"bike_id":"e1d316b5-1a5f-402b-bba2-7214273c69f4","system_id":"levelo_inurba_marseille","lat":43.26222,"lon":5.404553,"is_reserved":false,"is_disabled":false,"rental_uris":{"android":"levelo://app?vid=e1d316b5-1a5f-402b-bba2-7214273c69f4","ios":"levelo://app?vid=e1d316b5-1a5f-402b-bba2-7214273c69f4"},"vehicle_type_id":"4","last_reported":1747800882,"current_range_meters":10800,"station_id":"ce4bhmh2rcd13ifvqgmg","pricing_plan_id":"cebpf4jnsgd1na2vs0mg"},{"bike_id":"dc80936a-51b4-4ef9-b71e-e259b58f2ac3","system_id":"levelo_inurba_marseille","lat":43.23185,"lon":5.40013,"is_reserved":false,"is_disabled":false,"rental_uris":{"android":"levelo://app?vid=dc80936a-51b4-4ef9-b71e-e259b58f2ac3","ios":"levelo://app?vid=dc80936a-51b4-4ef9-b71e-e259b58f2ac3"},"vehicle_type_id":"4","last_reported":1747800882,"current_range_meters":10800,"station_id":"ce4bhn12rcd13ifvqgqg","pricing_plan_id":"cebpf4jnsgd1na2vs0mg"},{"bike_id":"811f2f0e-4eb2-4aa5-823f-6fa13bac68c5","system_id":"levelo_inurba_marseille","lat":43.287266,"lon":5.360799,"is_reserved":false,"is_disabled":false,"rental_uris":{"android":"levelo://app?vid=811f2f0e-4eb2-4aa5-823f-6fa13bac68c5","ios":"levelo://app?vid=811f2f0e-4eb2-4aa5-823f-6fa13bac68c5"},"vehicle_type_id":"4","last_reported":1747800882,"current_range_meters":10800,"station_id":"cki0cbj6b192h4jlfktg","pricing_plan_id":"cebpf4jnsgd1na2vs0mg"},{"bike_id":"bd6d7942-fe35-47f9-9314-0f83fb285e3d","system_id":"levelo_inurba_marseille","lat":43.281005,"lon":5.378529,"is_reserved":false,"is_disabled":false,"rental_uris":{"android":"levelo://app?vid=bd6d7942-fe35-47f9-9314-0f83fb285e3d","ios":"levelo://app?vid=bd6d7942-fe35-47f9-9314-0f83fb285e3d"},"vehicle_type_id":"4","last_reported":1747800882,"current_range_meters":11200,"station_id":"ce4bha12rcd13ifvqee0","pricing_plan_id":"cebpf4jnsgd1na2vs0mg"},{"bike_id":"5eb68c04-da7f-4459-b57e-7fa15a1ceae4","system_id":"levelo_inurba_marseille","lat":43.30413,"lon":5.41288,"is_reserved":false,"is_disabled":false,"rental_uris":{"android":"levelo://app?vid=5eb68c04-da7f-4459-b57e-7fa15a1ceae4","ios":"levelo://app?vid=5eb68c04-da7f-4459-b57e-7fa15a1ceae4"},"vehicle_type_id":"4","last_reported":1747800882,"current_range_meters":11200,"station_id":"ce4bhop2rcd13ifvqh8g","pricing_plan_id":"cebpf4jnsgd1na2vs0mg"},{"bike_id":"5d814b1f-1369-4138-9e5a-5c17a513eae1","system_id":"levelo_inurba_marseille","lat":43.31162,"lon":5.387206,"is_reserved":false,"is_disabled":false,"rental_uris":{"android":"levelo://app?vid=5d814b1f-1369-4138-9e5a-5c17a513eae1","ios":"levelo://app?vid=5d814b1f-1369-4138-9e5a-5c17a513eae1"},"vehicle_type_id":"4","last_reported":1747800882,"current_range_meters":11600,"station_id":"ce4bgv12rcd13ifvqcp0","pricing_plan_id":"cebpf4jnsgd1na2vs0mg"},{"bike_id":"97e9fd1e-8136-4406-a1ea-a5a8831b7bd1","system_id":"levelo_inurba_marseille","lat":43.231925,"lon":5.399906,"is_reserved":false,"is_disabled":false,"rental_uris":{"android":"levelo://app?vid=97e9fd1e-8136-4406-a1ea-a5a8831b7bd1","ios":"levelo://app?vid=97e9fd1e-8136-4406-a1ea-a5a8831b7bd1"},"vehicle_type_id":"4","last_reported":1747800882,"current_range_meters":11600,"station_id":"ce4bhn12rcd13ifvqgqg","pricing_plan_id":"cebpf4jnsgd1na2vs0mg"},{"bike_id":"546a3036-bff0-4db0-a4ff-79bb792d783d","system_id":"levelo_inurba_marseille","lat":43.30932,"lon":5.40191,"is_reserved":false,"is_disabled":false,"rental_uris":{"android":"levelo://app?vid=546a3036-bff0-4db0-a4ff-79bb792d783d","ios":"levelo://app?vid=546a3036-bff0-4db0-a4ff-79bb792d783d"},"vehicle_type_id":"4","last_reported":1747800882,"current_range_meters":12000,"station_id":"ce4bgvp2rcd13ifvqct0","pricing_plan_id":"cebpf4jnsgd1na2vs0mg"},{"bike_id":"774790b0-fd82-40fb-a7e2-c958965bc348","system_id":"levelo_inurba_marseille","lat":43.26819,"lon":5.40251,"is_reserved":false,"is_disabled":false,"rental_uris":{"android":"levelo://app?vid=774790b0-fd82-40fb-a7e2-c958965bc348","ios":"levelo://app?vid=774790b0-fd82-40fb-a7e2-c958965bc348"},"vehicle_type_id":"4","last_reported":1747800882,"current_range_meters":12000,"station_id":"ce501612rcd8frsf0b60","pricing_plan_id":"cebpf4jnsgd1na2vs0mg"},{"bike_id":"b16c0a76-7351-4a6b-8488-d9c5f9dbece9","system_id":"levelo_inurba_marseille","lat":43.30723,"lon":5.42447,"is_reserved":false,"is_disabled":false,"rental_uris":{"android":"levelo://app?vid=b16c0a76-7351-4a6b-8488-d9c5f9dbece9","ios":"levelo://app?vid=b16c0a76-7351-4a6b-8488-d9c5f9dbece9"},"vehicle_type_id":"4","last_reported":1747800882,"current_range_meters":12000,"station_id":"st_cvj6ca6bvosntc0bfgr0","pricing_plan_id":"cebpf4jnsgd1na2vs0mg"},{"bike_id":"d22b0fd0-78a6-46fc-aad8-ce2ca2a629e3","system_id":"levelo_inurba_marseille","lat":43.211928,"lon":5.350739,"is_reserved":false,"is_disabled":false,"rental_uris":{"android":"levelo://app?vid=d22b0fd0-78a6-46fc-aad8-ce2ca2a629e3","ios":"levelo://app?vid=d22b0fd0-78a6-46fc-aad8-ce2ca2a629e3"},"vehicle_type_id":"4","last_reported":1747800882,"current_range_meters":12000,"station_id":"st_cvj6sg6p6f1abm77japg","pricing_plan_id":"cebpf4jnsgd1na2vs0mg"},{"bike_id":"25b93cff-d6a4-44e2-93bf-adadd73ecfd6","system_id":"levelo_inurba_marseille","lat":43.28034,"lon":5.36922,"is_reserved":false,"is_disabled":false,"rental_uris":{"android":"levelo://app?vid=25b93cff-d6a4-44e2-93bf-adadd73ecfd6","ios":"levelo://app?vid=25b93cff-d6a4-44e2-93bf-adadd73ecfd6"},"vehicle_type_id":"4","last_reported":1747800882,"current_range_meters":12400,"station_id":"ce4bha12rcd13ifvqef0","pricing_plan_id":"cebpf4jnsgd1na2vs0mg"},{"bike_id":"5765434c-77b5-41b5-8b14-b978e4d6dd10","system_id":"levelo_inurba_marseille","lat":43.211906,"lon":5.350745,"is_reserved":false,"is_disabled":false,"rental_uris":{"android":"levelo://app?vid=5765434c-77b5-41b5-8b14-b978e4d6dd10","ios":"levelo://app?vid=5765434c-77b5-41b5-8b14-b978e4d6dd10"},"vehicle_type_id":"4","last_reported":1747800882,"current_range_meters":12400,"station_id":"st_cvj6sg6p6f1abm77japg","pricing_plan_id":"cebpf4jnsgd1na2vs0mg"},{"bike_id":"d3794132-a70f-416f-8f79-15d73a23ca4b","system_id":"levelo_inurba_marseille","lat":43.24634,"lon":5.38909,"is_reserved":false,"is_disabled":false,"rental_uris":{"android":"levelo://app?vid=d3794132-a70f-416f-8f79-15d73a23ca4b","ios":"levelo://app?vid=d3794132-a70f-416f-8f79-15d73a23ca4b"},"vehicle_type_id":"4","last_reported":1747800882,"current_range_meters":12800,"station_id":"ce4bhg12rcd13ifvqf60","pricing_plan_id":"cebpf4jnsgd1na2vs0mg"},{"bike_id":"d14cb34f-c088-4fce-8177-7d93d185cb84","system_id":"levelo_inurba_marseille","lat":43.28089,"lon":5.39655,"is_reserved":false,"is_disabled":false,"rental_uris":{"android":"levelo://app?vid=d14cb34f-c088-4fce-8177-7d93d185cb84","ios":"levelo://app?vid=d14cb34f-c088-4fce-8177-7d93d185cb84"},"vehicle_type_id":"4","last_reported":1747800882,"current_range_meters":12800,"station_id":"ce4bho12rcd13ifvqh2g","pricing_plan_id":"cebpf4jnsgd1na2vs0mg"},{"bike_id":"e4cf2a23-0f18-43b2-83e5-ee73af656d7a","system_id":"levelo_inurba_marseille","lat":43.2801,"lon":5.40024,"is_reserved":false,"is_disabled":false,"rental_uris":{"android":"levelo://app?vid=e4cf2a23-0f18-43b2-83e5-ee73af656d7a","ios":"levelo://app?vid=e4cf2a23-0f18-43b2-83e5-ee73af656d7a"},"vehicle_type_id":"4","last_reported":1747800882,"current_range_meters":12800,"station_id":"ce4bho92rcd13ifvqh4g","pricing_plan_id":"cebpf4jnsgd1na2vs0mg"},{"bike_id":"a420846c-1cf0-48f0-bdd5-c86b47a6bc90","system_id":"levelo_inurba_marseille","lat":43.24171,"lon":5.36397,"is_reserved":false,"is_disabled":false,"rental_uris":{"android":"levelo://app?vid=a420846c-1cf0-48f0-bdd5-c86b47a6bc90","ios":"levelo://app?vid=a420846c-1cf0-48f0-bdd5-c86b47a6bc90"},"vehicle_type_id":"4","last_reported":1747800882,"current_range_meters":12800,"station_id":"cpo36qri1sfpv3e86is0","pricing_plan_id":"cebpf4jnsgd1na2vs0mg"},{"bike_id":"e2438e45-de58-44ae-b62e-c924cf0e7151","system_id":"levelo_inurba_marseille","lat":43.298771,"lon":5.397355,"is_reserved":false,"is_disabled":false,"rental_uris":{"android":"levelo://app?vid=e2438e45-de58-44ae-b62e-c924cf0e7151","ios":"levelo://app?vid=e2438e45-de58-44ae-b62e-c924cf0e7151"},"vehicle_type_id":"4","last_reported":1747800882,"current_range_meters":13600,"station_id":"ce4bh0h2rcd13ifvqd50","pricing_plan_id":"cebpf4jnsgd1na2vs0mg"},{"bike_id":"56cf80a0-6e20-4517-b7ab-ff4ac3730a84","system_id":"levelo_inurba_marseille","lat":43.231787,"lon":5.400144,"is_reserved":false,"is_disabled":false,"rental_uris":{"android":"levelo://app?vid=56cf80a0-6e20-4517-b7ab-ff4ac3730a84","ios":"levelo://app?vid=56cf80a0-6e20-4517-b7ab-ff4ac3730a84"},"vehicle_type_id":"4","last_reported":1747800882,"current_range_meters":13600,"station_id":"ce4bhn12rcd13ifvqgqg","pricing_plan_id":"cebpf4jnsgd1na2vs0mg"},{"bike_id":"ee222a69-22c8-443a-9094-3b7c8c2d365a","system_id":"levelo_inurba_marseille","lat":43.280736,"lon":5.396724,"is_reserved":false,"is_disabled":false,"rental_uris":{"android":"levelo://app?vid=ee222a69-22c8-443a-9094-3b7c8c2d365a","ios":"levelo://app?vid=ee222a69-22c8-443a-9094-3b7c8c2d365a"},"vehicle_type_id":"4","last_reported":1747800882,"current_range_meters":13600,"station_id":"ce4bho12rcd13ifvqh2g","pricing_plan_id":"cebpf4jnsgd1na2vs0mg"},{"bike_id":"a253706b-1cb9-4ca4-9560-173eeb92ac1f","system_id":"levelo_inurba_marseille","lat":43.308141,"lon":5.435283,"is_reserved":false,"is_disabled":false,"rental_uris":{"android":"levelo://app?vid=a253706b-1cb9-4ca4-9560-173eeb92ac1f","ios":"levelo://app?vid=a253706b-1cb9-4ca4-9560-173eeb92ac1f"},"vehicle_type_id":"4","last_reported":1747800882,"current_range_meters":13600,"station_id":"ce4bhph2rcd13ifvqheg","pricing_plan_id":"cebpf4jnsgd1na2vs0mg"},{"bike_id":"1a340bac-8012-4c7c-b50a-247d19f083a9","system_id":"levelo_inurba_marseille","lat":43.211913,"lon":5.350691,"is_reserved":false,"is_disabled":false,"rental_uris":{"android":"levelo://app?vid=1a340bac-8012-4c7c-b50a-247d19f083a9","ios":"levelo://app?vid=1a340bac-8012-4c7c-b50a-247d19f083a9"},"vehicle_type_id":"4","last_reported":1747800882,"current_range_meters":13600,"station_id":"st_cvj6sg6p6f1abm77japg","pricing_plan_id":"cebpf4jnsgd1na2vs0mg"},{"bike_id":"b2098f36-3a4b-4364-a6b7-9bce689a500e","system_id":"levelo_inurba_marseille","lat":43.278189,"lon":5.407113,"is_reserved":false,"is_disabled":false,"rental_uris":{"android":"levelo://app?vid=b2098f36-3a4b-4364-a6b7-9bce689a500e","ios":"levelo://app?vid=b2098f36-3a4b-4364-a6b7-9bce689a500e"},"vehicle_type_id":"4","last_reported":1747800882,"current_range_meters":14400,"station_id":"ce4bhnh2rcd13ifvqgtg","pricing_plan_id":"cebpf4jnsgd1na2vs0mg"},{"bike_id":"a47f5549-006e-4808-93e6-635d1e630e7e","system_id":"levelo_inurba_marseille","lat":43.303811,"lon":5.425065,"is_reserved":false,"is_disabled":false,"rental_uris":{"android":"levelo://app?vid=a47f5549-006e-4808-93e6-635d1e630e7e","ios":"levelo://app?vid=a47f5549-006e-4808-93e6-635d1e630e7e"},"vehicle_type_id":"4","last_reported":1747800882,"current_range_meters":14400,"station_id":"ce4bhoh2rcd13ifvqh6g","pricing_plan_id":"cebpf4jnsgd1na2vs0mg"},{"bike_id":"edffe597-6f79-49f9-8df7-4789a9f67718","system_id":"levelo_inurba_marseille","lat":43.321011,"lon":5.367864,"is_reserved":false,"is_disabled":false,"rental_uris":{"android":"levelo://app?vid=edffe597-6f79-49f9-8df7-4789a9f67718","ios":"levelo://app?vid=edffe597-6f79-49f9-8df7-4789a9f67718"},"vehicle_type_id":"4","last_reported":1747800882,"current_range_meters":14400,"station_id":"ce4bhrh2rcd13ifvqhug","pricing_plan_id":"cebpf4jnsgd1na2vs0mg"},{"bike_id":"41a63ad7-5271-4c92-a07b-12a7b1d342de","system_id":"levelo_inurba_marseille","lat":43.21213,"lon":5.35076,"is_reserved":false,"is_disabled":false,"rental_uris":{"android":"levelo://app?vid=41a63ad7-5271-4c92-a07b-12a7b1d342de","ios":"levelo://app?vid=41a63ad7-5271-4c92-a07b-12a7b1d342de"},"vehicle_type_id":"4","last_reported":1747800882,"current_range_meters":14400,"station_id":"st_cvj6sg6p6f1abm77japg","pricing_plan_id":"cebpf4jnsgd1na2vs0mg"},{"bike_id":"20341d8a-5a7b-49d2-9f9d-dafcc3b6b254","system_id":"levelo_inurba_marseille","lat":43.317574,"lon":5.390231,"is_reserved":false,"is_disabled":false,"rental_uris":{"android":"levelo://app?vid=20341d8a-5a7b-49d2-9f9d-dafcc3b6b254","ios":"levelo://app?vid=20341d8a-5a7b-49d2-9f9d-dafcc3b6b254"},"vehicle_type_id":"4","last_reported":1747800882,"current_range_meters":14800,"station_id":"ce4bhqp2rcd13ifvqhng","pricing_plan_id":"cebpf4jnsgd1na2vs0mg"},{"bike_id":"0e6bb125-ff93-4853-97e0-da4a593482f4","system_id":"levelo_inurba_marseille","lat":43.280781,"lon":5.396609,"is_reserved":false,"is_disabled":false,"rental_uris":{"android":"levelo://app?vid=0e6bb125-ff93-4853-97e0-da4a593482f4","ios":"levelo://app?vid=0e6bb125-ff93-4853-97e0-da4a593482f4"},"vehicle_type_id":"4","last_reported":1747800882,"current_range_meters":15200,"station_id":"ce4bho12rcd13ifvqh2g","pricing_plan_id":"cebpf4jnsgd1na2vs0mg"},{"bike_id":"f9fb40c0-1fcd-48cb-8e26-3f2dc0fb2451","system_id":"levelo_inurba_marseille","lat":43.33751,"lon":5.37509,"is_reserved":false,"is_disabled":false,"rental_uris":{"android":"levelo://app?vid=f9fb40c0-1fcd-48cb-8e26-3f2dc0fb2451","ios":"levelo://app?vid=f9fb40c0-1fcd-48cb-8e26-3f2dc0fb2451"},"vehicle_type_id":"4","last_reported":1747800882,"current_range_meters":16000,"station_id":"","pricing_plan_id":"cebpf4jnsgd1na2vs0mg"},{"bike_id":"bac4a84b-8594-4d89-bfe1-94e8cf74d9ec","system_id":"levelo_inurba_marseille","lat":43.3133,"lon":5.39709,"is_reserved":false,"is_disabled":false,"rental_uris":{"android":"levelo://app?vid=bac4a84b-8594-4d89-bfe1-94e8cf74d9ec","ios":"levelo://app?vid=bac4a84b-8594-4d89-bfe1-94e8cf74d9ec"},"vehicle_type_id":"4","last_reported":1747800882,"current_range_meters":16000,"station_id":"ce4bgvp2rcd13ifvqcu0","pricing_plan_id":"cebpf4jnsgd1na2vs0mg"},{"bike_id":"d3787df1-b187-4674-a172-34b227ec7bf2","system_id":"levelo_inurba_marseille","lat":43.26064,"lon":5.39419,"is_reserved":false,"is_disabled":false,"rental_uris":{"android":"levelo://app?vid=d3787df1-b187-4674-a172-34b227ec7bf2","ios":"levelo://app?vid=d3787df1-b187-4674-a172-34b227ec7bf2"},"vehicle_type_id":"4","last_reported":1747800882,"current_range_meters":16000,"station_id":"ce4bhh92rcd13ifvqfj0","pricing_plan_id":"cebpf4jnsgd1na2vs0mg"},{"bike_id":"824a86f4-99ca-47bd-ae65-1ed008ec6a72","system_id":"levelo_inurba_marseille","lat":43.23181,"lon":5.399928,"is_reserved":false,"is_disabled":false,"rental_uris":{"android":"levelo://app?vid=824a86f4-99ca-47bd-ae65-1ed008ec6a72","ios":"levelo://app?vid=824a86f4-99ca-47bd-ae65-1ed008ec6a72"},"vehicle_type_id":"4","last_reported":1747800882,"current_range_meters":16000,"station_id":"ce4bhn12rcd13ifvqgqg","pricing_plan_id":"cebpf4jnsgd1na2vs0mg"},{"bike_id":"d2243da5-46a4-4675-a166-c5959f727fa3","system_id":"levelo_inurba_marseille","lat":43.279373,"lon":5.410446,"is_reserved":false,"is_disabled":false,"rental_uris":{"android":"levelo://app?vid=d2243da5-46a4-4675-a166-c5959f727fa3","ios":"levelo://app?vid=d2243da5-46a4-4675-a166-c5959f727fa3"},"vehicle_type_id":"4","last_reported":1747800882,"current_range_meters":16000,"station_id":"ce4bhnp2rcd13ifvqh0g","pricing_plan_id":"cebpf4jnsgd1na2vs0mg"},{"bike_id":"cd03850e-8753-4b55-852b-f4f0d98adcda","system_id":"levelo_inurba_marseille","lat":43.30188,"lon":5.38084,"is_reserved":false,"is_disabled":false,"rental_uris":{"android":"levelo://app?vid=cd03850e-8753-4b55-852b-f4f0d98adcda","ios":"levelo://app?vid=cd03850e-8753-4b55-852b-f4f0d98adcda"},"vehicle_type_id":"4","last_reported":1747800882,"current_range_meters":16400,"station_id":"","pricing_plan_id":"cebpf4jnsgd1na2vs0mg"},{"bike_id":"511fe0c5-c8fb-4f63-8a00-d8b23c695b71","system_id":"levelo_inurba_marseille","lat":43.324294,"lon":5.428516,"is_reserved":false,"is_disabled":false,"rental_uris":{"android":"levelo://app?vid=511fe0c5-c8fb-4f63-8a00-d8b23c695b71","ios":"levelo://app?vid=511fe0c5-c8fb-4f63-8a00-d8b23c695b71"},"vehicle_type_id":"4","last_reported":1747800882,"current_range_meters":16400,"station_id":"","pricing_plan_id":"cebpf4jnsgd1na2vs0mg"},{"bike_id":"4c089b95-2d11-4e2f-9116-90d4de4101ea","system_id":"levelo_inurba_marseille","lat":43.299971,"lon":5.37338,"is_reserved":false,"is_disabled":false,"rental_uris":{"android":"levelo://app?vid=4c089b95-2d11-4e2f-9116-90d4de4101ea","ios":"levelo://app?vid=4c089b95-2d11-4e2f-9116-90d4de4101ea"},"vehicle_type_id":"4","last_reported":1747800882,"current_range_meters":16400,"station_id":"","pricing_plan_id":"cebpf4jnsgd1na2vs0mg"},{"bike_id":"846cb4f3-64b3-48b0-86b0-b95afeb152a0","system_id":"levelo_inurba_marseille","lat":43.31496,"lon":5.37303,"is_reserved":false,"is_disabled":false,"rental_uris":{"android":"levelo://app?vid=846cb4f3-64b3-48b0-86b0-b95afeb152a0","ios":"levelo://app?vid=846cb4f3-64b3-48b0-86b0-b95afeb152a0"},"vehicle_type_id":"4","last_reported":1747800882,"current_range_meters":16400,"station_id":"ce4bgt12rcd13ifvqcd0","pricing_plan_id":"cebpf4jnsgd1na2vs0mg"},{"bike_id":"1b6472a4-6239-410f-9292-d8d6d89573d5","system_id":"levelo_inurba_marseille","lat":43.31356,"lon":5.38499,"is_reserved":false,"is_disabled":false,"rental_uris":{"android":"levelo://app?vid=1b6472a4-6239-410f-9292-d8d6d89573d5","ios":"levelo://app?vid=1b6472a4-6239-410f-9292-d8d6d89573d5"},"vehicle_type_id":"4","last_reported":1747800882,"current_range_meters":16400,"station_id":"ce4bgt92rcd13ifvqcf0","pricing_plan_id":"cebpf4jnsgd1na2vs0mg"},{"bike_id":"f4e5340f-f1e3-4806-b0aa-a7d40b8cfcfe","system_id":"levelo_inurba_marseille","lat":43.30264,"lon":5.40061,"is_reserved":false,"is_disabled":false,"rental_uris":{"android":"levelo://app?vid=f4e5340f-f1e3-4806-b0aa-a7d40b8cfcfe","ios":"levelo://app?vid=f4e5340f-f1e3-4806-b0aa-a7d40b8cfcfe"},"vehicle_type_id":"4","last_reported":1747800882,"current_range_meters":16400,"station_id":"ce4bgvh2rcd13ifvqcs0","pricing_plan_id":"cebpf4jnsgd1na2vs0mg"},{"bike_id":"d7d1ab4c-ece4-4fe1-aa46-345411b59fa3","system_id":"levelo_inurba_marseille","lat":43.29227,"lon":5.36066,"is_reserved":false,"is_disabled":false,"rental_uris":{"android":"levelo://app?vid=d7d1ab4c-ece4-4fe1-aa46-345411b59fa3","ios":"levelo://app?vid=d7d1ab4c-ece4-4fe1-aa46-345411b59fa3"},"vehicle_type_id":"4","last_reported":1747800882,"current_range_meters":16400,"station_id":"ce4bhbh2rcd13ifvqeqg","pricing_plan_id":"cebpf4jnsgd1na2vs0mg"},{"bike_id":"434561d2-5ca0-4730-ac11-a184fd49e1ea","system_id":"levelo_inurba_marseille","lat":43.2418,"lon":5.39734,"is_reserved":false,"is_disabled":false,"rental_uris":{"android":"levelo://app?vid=434561d2-5ca0-4730-ac11-a184fd49e1ea","ios":"levelo://app?vid=434561d2-5ca0-4730-ac11-a184fd49e1ea"},"vehicle_type_id":"4","last_reported":1747800882,"current_range_meters":16400,"station_id":"ce4bhn12rcd13ifvqgpg","pricing_plan_id":"cebpf4jnsgd1na2vs0mg"},{"bike_id":"c4f0ddbf-912f-4dc6-81b8-da7688e7978e","system_id":"levelo_inurba_marseille","lat":43.30822,"lon":5.43541,"is_reserved":false,"is_disabled":false,"rental_uris":{"android":"levelo://app?vid=c4f0ddbf-912f-4dc6-81b8-da7688e7978e","ios":"levelo://app?vid=c4f0ddbf-912f-4dc6-81b8-da7688e7978e"},"vehicle_type_id":"4","last_reported":1747800882,"current_range_meters":16400,"station_id":"ce4bhph2rcd13ifvqheg","pricing_plan_id":"cebpf4jnsgd1na2vs0mg"},{"bike_id":"a7dd5f98-1109-4c9c-b9c4-482f6fc45105","system_id":"levelo_inurba_marseille","lat":43.317579,"lon":5.390151,"is_reserved":false,"is_disabled":false,"rental_uris":{"android":"levelo://app?vid=a7dd5f98-1109-4c9c-b9c4-482f6fc45105","ios":"levelo://app?vid=a7dd5f98-1109-4c9c-b9c4-482f6fc45105"},"vehicle_type_id":"4","last_reported":1747800882,"current_range_meters":16400,"station_id":"ce4bhqp2rcd13ifvqhng","pricing_plan_id":"cebpf4jnsgd1na2vs0mg"},{"bike_id":"509a7bc5-3ed4-44a0-83b3-6bbf477b3a61","system_id":"levelo_inurba_marseille","lat":43.212068,"lon":5.350911,"is_reserved":false,"is_disabled":false,"rental_uris":{"android":"levelo://app?vid=509a7bc5-3ed4-44a0-83b3-6bbf477b3a61","ios":"levelo://app?vid=509a7bc5-3ed4-44a0-83b3-6bbf477b3a61"},"vehicle_type_id":"4","last_reported":1747800882,"current_range_meters":16400,"station_id":"st_cvj6sg6p6f1abm77japg","pricing_plan_id":"cebpf4jnsgd1na2vs0mg"},{"bike_id":"05ee309d-ea32-460a-abec-d7dc6500781d","system_id":"levelo_inurba_marseille","lat":43.28942,"lon":5.36634,"is_reserved":false,"is_disabled":false,"rental_uris":{"android":"levelo://app?vid=05ee309d-ea32-460a-abec-d7dc6500781d","ios":"levelo://app?vid=05ee309d-ea32-460a-abec-d7dc6500781d"},"vehicle_type_id":"4","last_reported":1747800882,"current_range_meters":16800,"station_id":"ce4bhap2rcd13ifvqek0","pricing_plan_id":"cebpf4jnsgd1na2vs0mg"},{"bike_id":"ac54cb9d-c717-4084-9363-e0498a0029df","system_id":"levelo_inurba_marseille","lat":43.279393,"lon":5.410455,"is_reserved":false,"is_disabled":false,"rental_uris":{"android":"levelo://app?vid=ac54cb9d-c717-4084-9363-e0498a0029df","ios":"levelo://app?vid=ac54cb9d-c717-4084-9363-e0498a0029df"},"vehicle_type_id":"4","last_reported":1747800882,"current_range_meters":16800,"station_id":"ce4bhnp2rcd13ifvqh0g","pricing_plan_id":"cebpf4jnsgd1na2vs0mg"},{"bike_id":"ec1e5af5-a2c9-40c7-8196-abeddc2c4e77","system_id":"levelo_inurba_marseille","lat":43.33607,"lon":5.41028,"is_reserved":false,"is_disabled":false,"rental_uris":{"android":"levelo://app?vid=ec1e5af5-a2c9-40c7-8196-abeddc2c4e77","ios":"levelo://app?vid=ec1e5af5-a2c9-40c7-8196-abeddc2c4e77"},"vehicle_type_id":"4","last_reported":1747800882,"current_range_meters":16800,"station_id":"ce4bhqh2rcd13ifvqhmg","pricing_plan_id":"cebpf4jnsgd1na2vs0mg"},{"bike_id":"8660b6f6-b867-4559-bd28-88ff02eaa040","system_id":"levelo_inurba_marseille","lat":43.287248,"lon":5.360914,"is_reserved":false,"is_disabled":false,"rental_uris":{"android":"levelo://app?vid=8660b6f6-b867-4559-bd28-88ff02eaa040","ios":"levelo://app?vid=8660b6f6-b867-4559-bd28-88ff02eaa040"},"vehicle_type_id":"4","last_reported":1747800882,"current_range_meters":16800,"station_id":"cki0cbj6b192h4jlfktg","pricing_plan_id":"cebpf4jnsgd1na2vs0mg"},{"bike_id":"628c52ae-b897-4dca-953c-8475bb2941d3","system_id":"levelo_inurba_marseille","lat":43.21203,"lon":5.35054,"is_reserved":false,"is_disabled":false,"rental_uris":{"android":"levelo://app?vid=628c52ae-b897-4dca-953c-8475bb2941d3","ios":"levelo://app?vid=628c52ae-b897-4dca-953c-8475bb2941d3"},"vehicle_type_id":"4","last_reported":1747800882,"current_range_meters":16800,"station_id":"st_cvj6sg6p6f1abm77japg","pricing_plan_id":"cebpf4jnsgd1na2vs0mg"},{"bike_id":"c9a00e74-029a-454e-8e85-1b3d994b9d78","system_id":"levelo_inurba_marseille","lat":43.211925,"lon":5.350738,"is_reserved":false,"is_disabled":false,"rental_uris":{"android":"levelo://app?vid=c9a00e74-029a-454e-8e85-1b3d994b9d78","ios":"levelo://app?vid=c9a00e74-029a-454e-8e85-1b3d994b9d78"},"vehicle_type_id":"4","last_reported":1747800882,"current_range_meters":16800,"station_id":"st_cvj6sg6p6f1abm77japg","pricing_plan_id":"cebpf4jnsgd1na2vs0mg"},{"bike_id":"8bb7d43c-e583-40c0-9a6a-a2f0c4f03243","system_id":"levelo_inurba_marseille","lat":43.292601,"lon":5.409128,"is_reserved":false,"is_disabled":false,"rental_uris":{"android":"levelo://app?vid=8bb7d43c-e583-40c0-9a6a-a2f0c4f03243","ios":"levelo://app?vid=8bb7d43c-e583-40c0-9a6a-a2f0c4f03243"},"vehicle_type_id":"4","last_reported":1747800882,"current_range_meters":17200,"station_id":"ce4bh192rcd13ifvqdc0","pricing_plan_id":"cebpf4jnsgd1na2vs0mg"},{"bike_id":"7fd0a505-9ee9-48d1-8612-b28bbf297cda","system_id":"levelo_inurba_marseille","lat":43.26556,"lon":5.372936,"is_reserved":false,"is_disabled":false,"rental_uris":{"android":"levelo://app?vid=7fd0a505-9ee9-48d1-8612-b28bbf297cda","ios":"levelo://app?vid=7fd0a505-9ee9-48d1-8612-b28bbf297cda"},"vehicle_type_id":"4","last_reported":1747800882,"current_range_meters":17200,"station_id":"ce4bhg12rcd13ifvqf70","pricing_plan_id":"cebpf4jnsgd1na2vs0mg"},{"bike_id":"230c268f-69d1-4b4c-ba03-463d6c764e64","system_id":"levelo_inurba_marseille","lat":43.265548,"lon":5.372918,"is_reserved":false,"is_disabled":false,"rental_uris":{"android":"levelo://app?vid=230c268f-69d1-4b4c-ba03-463d6c764e64","ios":"levelo://app?vid=230c268f-69d1-4b4c-ba03-463d6c764e64"},"vehicle_type_id":"4","last_reported":1747800882,"current_range_meters":17200,"station_id":"ce4bhg12rcd13ifvqf70","pricing_plan_id":"cebpf4jnsgd1na2vs0mg"},{"bike_id":"3aa335f5-2337-417e-9923-07d4840feb44","system_id":"levelo_inurba_marseille","lat":43.28076,"lon":5.39658,"is_reserved":false,"is_disabled":false,"rental_uris":{"android":"levelo://app?vid=3aa335f5-2337-417e-9923-07d4840feb44","ios":"levelo://app?vid=3aa335f5-2337-417e-9923-07d4840feb44"},"vehicle_type_id":"4","last_reported":1747800882,"current_range_meters":17200,"station_id":"ce4bho12rcd13ifvqh2g","pricing_plan_id":"cebpf4jnsgd1na2vs0mg"},{"bike_id":"2dd295c8-b87d-4299-b96c-e55573da576c","system_id":"levelo_inurba_marseille","lat":43.286624,"lon":5.363508,"is_reserved":false,"is_disabled":false,"rental_uris":{"android":"levelo://app?vid=2dd295c8-b87d-4299-b96c-e55573da576c","ios":"levelo://app?vid=2dd295c8-b87d-4299-b96c-e55573da576c"},"vehicle_type_id":"4","last_reported":1747800882,"current_range_meters":17600,"station_id":"ce4bhah2rcd13ifvqej0","pricing_plan_id":"cebpf4jnsgd1na2vs0mg"},{"bike_id":"4566dff8-e611-4624-bb8f-6d25e097d0ee","system_id":"levelo_inurba_marseille","lat":43.28655,"lon":5.363724,"is_reserved":false,"is_disabled":false,"rental_uris":{"android":"levelo://app?vid=4566dff8-e611-4624-bb8f-6d25e097d0ee","ios":"levelo://app?vid=4566dff8-e611-4624-bb8f-6d25e097d0ee"},"vehicle_type_id":"4","last_reported":1747800882,"current_range_meters":17600,"station_id":"ce4bhah2rcd13ifvqej0","pricing_plan_id":"cebpf4jnsgd1na2vs0mg"},{"bike_id":"7d90a350-9521-4882-9d76-cb6428ee4bfe","system_id":"levelo_inurba_marseille","lat":43.28658,"lon":5.36354,"is_reserved":false,"is_disabled":false,"rental_uris":{"android":"levelo://app?vid=7d90a350-9521-4882-9d76-cb6428ee4bfe","ios":"levelo://app?vid=7d90a350-9521-4882-9d76-cb6428ee4bfe"},"vehicle_type_id":"4","last_reported":1747800882,"current_range_meters":17600,"station_id":"ce4bhah2rcd13ifvqej0","pricing_plan_id":"cebpf4jnsgd1na2vs0mg"},{"bike_id":"d2bec294-4343-4dfb-afc5-6ff1bb15187e","system_id":"levelo_inurba_marseille","lat":43.240691,"lon":5.377627,"is_reserved":false,"is_disabled":false,"rental_uris":{"android":"levelo://app?vid=d2bec294-4343-4dfb-afc5-6ff1bb15187e","ios":"levelo://app?vid=d2bec294-4343-4dfb-afc5-6ff1bb15187e"},"vehicle_type_id":"4","last_reported":1747800882,"current_range_meters":17600,"station_id":"ce4bhnp2rcd13ifvqgvg","pricing_plan_id":"cebpf4jnsgd1na2vs0mg"},{"bike_id":"ed11f8f9-2a2d-4592-809e-e655bba14632","system_id":"levelo_inurba_marseille","lat":43.21757,"lon":5.34606,"is_reserved":false,"is_disabled":false,"rental_uris":{"android":"levelo://app?vid=ed11f8f9-2a2d-4592-809e-e655bba14632","ios":"levelo://app?vid=ed11f8f9-2a2d-4592-809e-e655bba14632"},"vehicle_type_id":"4","last_reported":1747800882,"current_range_meters":17600,"station_id":"st_cvj6r9ubvosntc0bgbag","pricing_plan_id":"cebpf4jnsgd1na2vs0mg"},{"bike_id":"8caa4c3f-4378-4e9a-9722-c36c1a5d5da1","system_id":"levelo_inurba_marseille","lat":43.30155,"lon":5.38084,"is_reserved":false,"is_disabled":false,"rental_uris":{"android":"levelo://app?vid=8caa4c3f-4378-4e9a-9722-c36c1a5d5da1","ios":"levelo://app?vid=8caa4c3f-4378-4e9a-9722-c36c1a5d5da1"},"vehicle_type_id":"4","last_reported":1747800882,"current_range_meters":18000,"station_id":"ce4bgjp2rcd13ifvqbh0","pricing_plan_id":"cebpf4jnsgd1na2vs0mg"},{"bike_id":"b43b5a88-e21f-4c73-89f4-d0e76e6fee7a","system_id":"levelo_inurba_marseille","lat":43.30929,"lon":5.401512,"is_reserved":false,"is_disabled":false,"rental_uris":{"android":"levelo://app?vid=b43b5a88-e21f-4c73-89f4-d0e76e6fee7a","ios":"levelo://app?vid=b43b5a88-e21f-4c73-89f4-d0e76e6fee7a"},"vehicle_type_id":"4","last_reported":1747800882,"current_range_meters":18000,"station_id":"ce4bgvp2rcd13ifvqct0","pricing_plan_id":"cebpf4jnsgd1na2vs0mg"},{"bike_id":"80180917-c558-443c-917b-d82f1a70a891","system_id":"levelo_inurba_marseille","lat":43.288531,"lon":5.358502,"is_reserved":false,"is_disabled":false,"rental_uris":{"android":"levelo://app?vid=80180917-c558-443c-917b-d82f1a70a891","ios":"levelo://app?vid=80180917-c558-443c-917b-d82f1a70a891"},"vehicle_type_id":"4","last_reported":1747800882,"current_range_meters":18000,"station_id":"ce4bhb12rcd13ifvqem0","pricing_plan_id":"cebpf4jnsgd1na2vs0mg"},{"bike_id":"337cd117-753f-4902-926a-74f688956ef1","system_id":"levelo_inurba_marseille","lat":43.307331,"lon":5.424474,"is_reserved":false,"is_disabled":false,"rental_uris":{"android":"levelo://app?vid=337cd117-753f-4902-926a-74f688956ef1","ios":"levelo://app?vid=337cd117-753f-4902-926a-74f688956ef1"},"vehicle_type_id":"4","last_reported":1747800882,"current_range_meters":18000,"station_id":"st_cvj6ca6bvosntc0bfgr0","pricing_plan_id":"cebpf4jnsgd1na2vs0mg"},{"bike_id":"a1196188-2c7c-465c-999b-7edb1f0906f1","system_id":"levelo_inurba_marseille","lat":43.269584,"lon":5.421336,"is_reserved":false,"is_disabled":false,"rental_uris":{"android":"levelo://app?vid=a1196188-2c7c-465c-999b-7edb1f0906f1","ios":"levelo://app?vid=a1196188-2c7c-465c-999b-7edb1f0906f1"},"vehicle_type_id":"4","last_reported":1747800882,"current_range_meters":18800,"station_id":"","pricing_plan_id":"cebpf4jnsgd1na2vs0mg"},{"bike_id":"2952ade9-356c-4336-99a1-396e23965977","system_id":"levelo_inurba_marseille","lat":43.28422,"lon":5.37521,"is_reserved":false,"is_disabled":false,"rental_uris":{"android":"levelo://app?vid=2952ade9-356c-4336-99a1-396e23965977","ios":"levelo://app?vid=2952ade9-356c-4336-99a1-396e23965977"},"vehicle_type_id":"4","last_reported":1747800882,"current_range_meters":18800,"station_id":"ce4bh412rcd13ifvqds0","pricing_plan_id":"cebpf4jnsgd1na2vs0mg"},{"bike_id":"c0058ff1-f32e-49de-93ac-d32f597b979c","system_id":"levelo_inurba_marseille","lat":43.281019,"lon":5.378425,"is_reserved":false,"is_disabled":false,"rental_uris":{"android":"levelo://app?vid=c0058ff1-f32e-49de-93ac-d32f597b979c","ios":"levelo://app?vid=c0058ff1-f32e-49de-93ac-d32f597b979c"},"vehicle_type_id":"4","last_reported":1747800882,"current_range_meters":18800,"station_id":"ce4bha12rcd13ifvqee0","pricing_plan_id":"cebpf4jnsgd1na2vs0mg"},{"bike_id":"dc61c065-6ed1-487e-9ecf-5a93a8f61ca7","system_id":"levelo_inurba_marseille","lat":43.23194,"lon":5.39999,"is_reserved":false,"is_disabled":false,"rental_uris":{"android":"levelo://app?vid=dc61c065-6ed1-487e-9ecf-5a93a8f61ca7","ios":"levelo://app?vid=dc61c065-6ed1-487e-9ecf-5a93a8f61ca7"},"vehicle_type_id":"4","last_reported":1747800882,"current_range_meters":18800,"station_id":"ce4bhn12rcd13ifvqgqg","pricing_plan_id":"cebpf4jnsgd1na2vs0mg"},{"bike_id":"512cad48-a180-4060-b1f1-89c6ef5852f2","system_id":"levelo_inurba_marseille","lat":43.231874,"lon":5.399883,"is_reserved":false,"is_disabled":false,"rental_uris":{"android":"levelo://app?vid=512cad48-a180-4060-b1f1-89c6ef5852f2","ios":"levelo://app?vid=512cad48-a180-4060-b1f1-89c6ef5852f2"},"vehicle_type_id":"4","last_reported":1747800882,"current_range_meters":18800,"station_id":"ce4bhn12rcd13ifvqgqg","pricing_plan_id":"cebpf4jnsgd1na2vs0mg"},{"bike_id":"bd4670fe-0c64-4ee3-aef4-7f7aaffbfa80","system_id":"levelo_inurba_marseille","lat":43.279532,"lon":5.410372,"is_reserved":false,"is_disabled":false,"rental_uris":{"android":"levelo://app?vid=bd4670fe-0c64-4ee3-aef4-7f7aaffbfa80","ios":"levelo://app?vid=bd4670fe-0c64-4ee3-aef4-7f7aaffbfa80"},"vehicle_type_id":"4","last_reported":1747800882,"current_range_meters":18800,"station_id":"ce4bhnp2rcd13ifvqh0g","pricing_plan_id":"cebpf4jnsgd1na2vs0mg"},{"bike_id":"961d52e8-6ee8-4ceb-a690-58c92b378268","system_id":"levelo_inurba_marseille","lat":43.279895,"lon":5.41633,"is_reserved":false,"is_disabled":false,"rental_uris":{"android":"levelo://app?vid=961d52e8-6ee8-4ceb-a690-58c92b378268","ios":"levelo://app?vid=961d52e8-6ee8-4ceb-a690-58c92b378268"},"vehicle_type_id":"4","last_reported":1747800882,"current_range_meters":18800,"station_id":"ce4bho12rcd13ifvqh1g","pricing_plan_id":"cebpf4jnsgd1na2vs0mg"},{"bike_id":"553135f0-dee7-4466-aae9-11e57507bc98","system_id":"levelo_inurba_marseille","lat":43.28725,"lon":5.360921,"is_reserved":false,"is_disabled":false,"rental_uris":{"android":"levelo://app?vid=553135f0-dee7-4466-aae9-11e57507bc98","ios":"levelo://app?vid=553135f0-dee7-4466-aae9-11e57507bc98"},"vehicle_type_id":"4","last_reported":1747800882,"current_range_meters":18800,"station_id":"cki0cbj6b192h4jlfktg","pricing_plan_id":"cebpf4jnsgd1na2vs0mg"},{"bike_id":"1e0f9b24-f9e8-4a26-a560-aff27e569440","system_id":"levelo_inurba_marseille","lat":43.30933,"lon":5.40165,"is_reserved":false,"is_disabled":false,"rental_uris":{"android":"levelo://app?vid=1e0f9b24-f9e8-4a26-a560-aff27e569440","ios":"levelo://app?vid=1e0f9b24-f9e8-4a26-a560-aff27e569440"},"vehicle_type_id":"4","last_reported":1747800882,"current_range_meters":19200,"station_id":"ce4bgvp2rcd13ifvqct0","pricing_plan_id":"cebpf4jnsgd1na2vs0mg"},{"bike_id":"bb25337a-f021-44a4-b1da-bf67bf4c55fa","system_id":"levelo_inurba_marseille","lat":43.308871,"lon":5.396311,"is_reserved":false,"is_disabled":false,"rental_uris":{"android":"levelo://app?vid=bb25337a-f021-44a4-b1da-bf67bf4c55fa","ios":"levelo://app?vid=bb25337a-f021-44a4-b1da-bf67bf4c55fa"},"vehicle_type_id":"4","last_reported":1747800882,"current_range_meters":19200,"station_id":"ce4bh012rcd13ifvqcv0","pricing_plan_id":"cebpf4jnsgd1na2vs0mg"},{"bike_id":"3334f1b9-bb5f-4124-a977-cdf125e3268b","system_id":"levelo_inurba_marseille","lat":43.28416,"lon":5.37529,"is_reserved":false,"is_disabled":false,"rental_uris":{"android":"levelo://app?vid=3334f1b9-bb5f-4124-a977-cdf125e3268b","ios":"levelo://app?vid=3334f1b9-bb5f-4124-a977-cdf125e3268b"},"vehicle_type_id":"4","last_reported":1747800882,"current_range_meters":19200,"station_id":"ce4bh412rcd13ifvqds0","pricing_plan_id":"cebpf4jnsgd1na2vs0mg"},{"bike_id":"7e6f45d4-4cf0-4ad5-8cfd-b542dae1dfa4","system_id":"levelo_inurba_marseille","lat":43.289414,"lon":5.363923,"is_reserved":false,"is_disabled":false,"rental_uris":{"android":"levelo://app?vid=7e6f45d4-4cf0-4ad5-8cfd-b542dae1dfa4","ios":"levelo://app?vid=7e6f45d4-4cf0-4ad5-8cfd-b542dae1dfa4"},"vehicle_type_id":"4","last_reported":1747800882,"current_range_meters":19200,"station_id":"ce4bhc92rcd13ifvqetg","pricing_plan_id":"cebpf4jnsgd1na2vs0mg"},{"bike_id":"07fc587e-9b1b-430c-9736-fff9a624f203","system_id":"levelo_inurba_marseille","lat":43.24648,"lon":5.3891,"is_reserved":false,"is_disabled":false,"rental_uris":{"android":"levelo://app?vid=07fc587e-9b1b-430c-9736-fff9a624f203","ios":"levelo://app?vid=07fc587e-9b1b-430c-9736-fff9a624f203"},"vehicle_type_id":"4","last_reported":1747800882,"current_range_meters":19200,"station_id":"ce4bhg12rcd13ifvqf60","pricing_plan_id":"cebpf4jnsgd1na2vs0mg"},{"bike_id":"ba95fa02-1a69-4544-96db-0e72741d06aa","system_id":"levelo_inurba_marseille","lat":43.27941,"lon":5.41063,"is_reserved":false,"is_disabled":false,"rental_uris":{"android":"levelo://app?vid=ba95fa02-1a69-4544-96db-0e72741d06aa","ios":"levelo://app?vid=ba95fa02-1a69-4544-96db-0e72741d06aa"},"vehicle_type_id":"4","last_reported":1747800882,"current_range_meters":19200,"station_id":"ce4bhnp2rcd13ifvqh0g","pricing_plan_id":"cebpf4jnsgd1na2vs0mg"},{"bike_id":"1b43889f-dc7f-4ed1-b7e5-63cbbb8633e3","system_id":"levelo_inurba_marseille","lat":43.304224,"lon":5.412738,"is_reserved":false,"is_disabled":false,"rental_uris":{"android":"levelo://app?vid=1b43889f-dc7f-4ed1-b7e5-63cbbb8633e3","ios":"levelo://app?vid=1b43889f-dc7f-4ed1-b7e5-63cbbb8633e3"},"vehicle_type_id":"4","last_reported":1747800882,"current_range_meters":19200,"station_id":"ce4bhop2rcd13ifvqh8g","pricing_plan_id":"cebpf4jnsgd1na2vs0mg"},{"bike_id":"89dd39a7-4632-4e09-95c2-98ae1f325ac1","system_id":"levelo_inurba_marseille","lat":43.30429,"lon":5.41293,"is_reserved":false,"is_disabled":false,"rental_uris":{"android":"levelo://app?vid=89dd39a7-4632-4e09-95c2-98ae1f325ac1","ios":"levelo://app?vid=89dd39a7-4632-4e09-95c2-98ae1f325ac1"},"vehicle_type_id":"4","last_reported":1747800882,"current_range_meters":19200,"station_id":"ce4bhop2rcd13ifvqh8g","pricing_plan_id":"cebpf4jnsgd1na2vs0mg"},{"bike_id":"3a48c182-8aa9-4817-97ec-3a2c2ae3fb96","system_id":"levelo_inurba_marseille","lat":43.29904,"lon":5.4366,"is_reserved":false,"is_disabled":false,"rental_uris":{"android":"levelo://app?vid=3a48c182-8aa9-4817-97ec-3a2c2ae3fb96","ios":"levelo://app?vid=3a48c182-8aa9-4817-97ec-3a2c2ae3fb96"},"vehicle_type_id":"4","last_reported":1747800882,"current_range_meters":19200,"station_id":"ce4bhpp2rcd13ifvqhfg","pricing_plan_id":"cebpf4jnsgd1na2vs0mg"},{"bike_id":"f54e3731-aafb-4523-ae80-4690a4c65d29","system_id":"levelo_inurba_marseille","lat":43.323368,"lon":5.406188,"is_reserved":false,"is_disabled":false,"rental_uris":{"android":"levelo://app?vid=f54e3731-aafb-4523-ae80-4690a4c65d29","ios":"levelo://app?vid=f54e3731-aafb-4523-ae80-4690a4c65d29"},"vehicle_type_id":"4","last_reported":1747800882,"current_range_meters":19200,"station_id":"ce4bhq92rcd13ifvqhjg","pricing_plan_id":"cebpf4jnsgd1na2vs0mg"},{"bike_id":"b0799c00-07a1-4372-aab9-8e74e1a3ec7a","system_id":"levelo_inurba_marseille","lat":43.32472,"lon":5.43501,"is_reserved":false,"is_disabled":false,"rental_uris":{"android":"levelo://app?vid=b0799c00-07a1-4372-aab9-8e74e1a3ec7a","ios":"levelo://app?vid=b0799c00-07a1-4372-aab9-8e74e1a3ec7a"},"vehicle_type_id":"4","last_reported":1747800882,"current_range_meters":19600,"station_id":"","pricing_plan_id":"cebpf4jnsgd1na2vs0mg"},{"bike_id":"a7b7dc5b-4485-42a3-a015-174e408e86a1","system_id":"levelo_inurba_marseille","lat":43.309304,"lon":5.401486,"is_reserved":false,"is_disabled":false,"rental_uris":{"android":"levelo://app?vid=a7b7dc5b-4485-42a3-a015-174e408e86a1","ios":"levelo://app?vid=a7b7dc5b-4485-42a3-a015-174e408e86a1"},"vehicle_type_id":"4","last_reported":1747800882,"current_range_meters":19600,"station_id":"ce4bgvp2rcd13ifvqct0","pricing_plan_id":"cebpf4jnsgd1na2vs0mg"},{"bike_id":"ae9777e5-4b1e-46ae-9bf6-9b66cb04c8a9","system_id":"levelo_inurba_marseille","lat":43.2803,"lon":5.36896,"is_reserved":false,"is_disabled":false,"rental_uris":{"android":"levelo://app?vid=ae9777e5-4b1e-46ae-9bf6-9b66cb04c8a9","ios":"levelo://app?vid=ae9777e5-4b1e-46ae-9bf6-9b66cb04c8a9"},"vehicle_type_id":"4","last_reported":1747800882,"current_range_meters":19600,"station_id":"ce4bha12rcd13ifvqef0","pricing_plan_id":"cebpf4jnsgd1na2vs0mg"},{"bike_id":"48c5c1ae-570b-4cbf-8f05-0afff3278d8d","system_id":"levelo_inurba_marseille","lat":43.286632,"lon":5.363508,"is_reserved":false,"is_disabled":false,"rental_uris":{"android":"levelo://app?vid=48c5c1ae-570b-4cbf-8f05-0afff3278d8d","ios":"levelo://app?vid=48c5c1ae-570b-4cbf-8f05-0afff3278d8d"},"vehicle_type_id":"4","last_reported":1747800882,"current_range_meters":19600,"station_id":"ce4bhah2rcd13ifvqej0","pricing_plan_id":"cebpf4jnsgd1na2vs0mg"},{"bike_id":"605365fd-0976-4fcc-a42a-ee810d6ebd22","system_id":"levelo_inurba_marseille","lat":43.250894,"lon":5.395231,"is_reserved":false,"is_disabled":false,"rental_uris":{"android":"levelo://app?vid=605365fd-0976-4fcc-a42a-ee810d6ebd22","ios":"levelo://app?vid=605365fd-0976-4fcc-a42a-ee810d6ebd22"},"vehicle_type_id":"4","last_reported":1747800882,"current_range_meters":19600,"station_id":"ce4bhm12rcd13ifvqgkg","pricing_plan_id":"cebpf4jnsgd1na2vs0mg"},{"bike_id":"a2f62b82-021a-40cb-a76c-22b76e650f0b","system_id":"levelo_inurba_marseille","lat":43.287326,"lon":5.360856,"is_reserved":false,"is_disabled":false,"rental_uris":{"android":"levelo://app?vid=a2f62b82-021a-40cb-a76c-22b76e650f0b","ios":"levelo://app?vid=a2f62b82-021a-40cb-a76c-22b76e650f0b"},"vehicle_type_id":"4","last_reported":1747800882,"current_range_meters":19600,"station_id":"cki0cbj6b192h4jlfktg","pricing_plan_id":"cebpf4jnsgd1na2vs0mg"},{"bike_id":"20abaeb5-59e2-4ef4-9a0b-31d6664bd12e","system_id":"levelo_inurba_marseille","lat":43.2743,"lon":5.39415,"is_reserved":false,"is_disabled":false,"rental_uris":{"android":"levelo://app?vid=20abaeb5-59e2-4ef4-9a0b-31d6664bd12e","ios":"levelo://app?vid=20abaeb5-59e2-4ef4-9a0b-31d6664bd12e"},"vehicle_type_id":"4","last_reported":1747800882,"current_range_meters":20000,"station_id":"","pricing_plan_id":"cebpf4jnsgd1na2vs0mg"},{"bike_id":"96df72c4-d4a9-470b-84cf-b7acca1bfa67","system_id":"levelo_inurba_marseille","lat":43.28276,"lon":5.35061,"is_reserved":false,"is_disabled":false,"rental_uris":{"android":"levelo://app?vid=96df72c4-d4a9-470b-84cf-b7acca1bfa67","ios":"levelo://app?vid=96df72c4-d4a9-470b-84cf-b7acca1bfa67"},"vehicle_type_id":"4","last_reported":1747800882,"current_range_meters":20000,"station_id":"ce4bhbp2rcd13ifvqerg","pricing_plan_id":"cebpf4jnsgd1na2vs0mg"},{"bike_id":"347b5303-d3a0-42a1-86d4-9249ec3db0d6","system_id":"levelo_inurba_marseille","lat":43.280723,"lon":5.396497,"is_reserved":false,"is_disabled":false,"rental_uris":{"android":"levelo://app?vid=347b5303-d3a0-42a1-86d4-9249ec3db0d6","ios":"levelo://app?vid=347b5303-d3a0-42a1-86d4-9249ec3db0d6"},"vehicle_type_id":"4","last_reported":1747800882,"current_range_meters":20000,"station_id":"ce4bho12rcd13ifvqh2g","pricing_plan_id":"cebpf4jnsgd1na2vs0mg"},{"bike_id":"32c40c37-da51-4bbc-b9cf-d751671ac1b2","system_id":"levelo_inurba_marseille","lat":43.287046,"lon":5.399752,"is_reserved":false,"is_disabled":false,"rental_uris":{"android":"levelo://app?vid=32c40c37-da51-4bbc-b9cf-d751671ac1b2","ios":"levelo://app?vid=32c40c37-da51-4bbc-b9cf-d751671ac1b2"},"vehicle_type_id":"4","last_reported":1747800882,"current_range_meters":20000,"station_id":"ce4bho92rcd13ifvqh3g","pricing_plan_id":"cebpf4jnsgd1na2vs0mg"},{"bike_id":"62e750ee-0201-4650-bc93-8cb680fcb14a","system_id":"levelo_inurba_marseille","lat":43.287324,"lon":5.360824,"is_reserved":false,"is_disabled":false,"rental_uris":{"android":"levelo://app?vid=62e750ee-0201-4650-bc93-8cb680fcb14a","ios":"levelo://app?vid=62e750ee-0201-4650-bc93-8cb680fcb14a"},"vehicle_type_id":"4","last_reported":1747800882,"current_range_meters":20000,"station_id":"cki0cbj6b192h4jlfktg","pricing_plan_id":"cebpf4jnsgd1na2vs0mg"},{"bike_id":"ce579e2d-3bfe-46e2-8c45-a0eba325802c","system_id":"levelo_inurba_marseille","lat":43.261143,"lon":5.414685,"is_reserved":false,"is_disabled":false,"rental_uris":{"android":"levelo://app?vid=ce579e2d-3bfe-46e2-8c45-a0eba325802c","ios":"levelo://app?vid=ce579e2d-3bfe-46e2-8c45-a0eba325802c"},"vehicle_type_id":"4","last_reported":1747800882,"current_range_meters":20400,"station_id":"","pricing_plan_id":"cebpf4jnsgd1na2vs0mg"},{"bike_id":"357269d6-3b2b-477d-992f-24e2aae4a4ef","system_id":"levelo_inurba_marseille","lat":43.29282,"lon":5.40146,"is_reserved":false,"is_disabled":false,"rental_uris":{"android":"levelo://app?vid=357269d6-3b2b-477d-992f-24e2aae4a4ef","ios":"levelo://app?vid=357269d6-3b2b-477d-992f-24e2aae4a4ef"},"vehicle_type_id":"4","last_reported":1747800882,"current_range_meters":20400,"station_id":"ce4bh312rcd13ifvqdk0","pricing_plan_id":"cebpf4jnsgd1na2vs0mg"},{"bike_id":"403d23ef-e604-493b-9010-8d296f509116","system_id":"levelo_inurba_marseille","lat":43.28663,"lon":5.36362,"is_reserved":false,"is_disabled":false,"rental_uris":{"android":"levelo://app?vid=403d23ef-e604-493b-9010-8d296f509116","ios":"levelo://app?vid=403d23ef-e604-493b-9010-8d296f509116"},"vehicle_type_id":"4","last_reported":1747800882,"current_range_meters":20400,"station_id":"ce4bhah2rcd13ifvqej0","pricing_plan_id":"cebpf4jnsgd1na2vs0mg"},{"bike_id":"67bd5bb2-a8c8-49e1-aefb-05cba2c37d36","system_id":"levelo_inurba_marseille","lat":43.28167,"lon":5.4266,"is_reserved":false,"is_disabled":false,"rental_uris":{"android":"levelo://app?vid=67bd5bb2-a8c8-49e1-aefb-05cba2c37d36","ios":"levelo://app?vid=67bd5bb2-a8c8-49e1-aefb-05cba2c37d36"},"vehicle_type_id":"4","last_reported":1747800882,"current_range_meters":20400,"station_id":"ce4bhnh2rcd13ifvqgug","pricing_plan_id":"cebpf4jnsgd1na2vs0mg"},{"bike_id":"c79b8ff0-5c6a-4846-9d3b-33cc0a0cc14b","system_id":"levelo_inurba_marseille","lat":43.32353,"lon":5.40622,"is_reserved":false,"is_disabled":false,"rental_uris":{"android":"levelo://app?vid=c79b8ff0-5c6a-4846-9d3b-33cc0a0cc14b","ios":"levelo://app?vid=c79b8ff0-5c6a-4846-9d3b-33cc0a0cc14b"},"vehicle_type_id":"4","last_reported":1747800882,"current_range_meters":20400,"station_id":"ce4bhq92rcd13ifvqhjg","pricing_plan_id":"cebpf4jnsgd1na2vs0mg"},{"bike_id":"f1372f0a-af75-4512-b45e-677f604d8708","system_id":"levelo_inurba_marseille","lat":43.287269,"lon":5.360786,"is_reserved":false,"is_disabled":false,"rental_uris":{"android":"levelo://app?vid=f1372f0a-af75-4512-b45e-677f604d8708","ios":"levelo://app?vid=f1372f0a-af75-4512-b45e-677f604d8708"},"vehicle_type_id":"4","last_reported":1747800882,"current_range_meters":20400,"station_id":"cki0cbj6b192h4jlfktg","pricing_plan_id":"cebpf4jnsgd1na2vs0mg"},{"bike_id":"f1b5276a-f639-4dd1-bbc9-96bf6ce50b6f","system_id":"levelo_inurba_marseille","lat":43.284083,"lon":5.375189,"is_reserved":false,"is_disabled":false,"rental_uris":{"android":"levelo://app?vid=f1b5276a-f639-4dd1-bbc9-96bf6ce50b6f","ios":"levelo://app?vid=f1b5276a-f639-4dd1-bbc9-96bf6ce50b6f"},"vehicle_type_id":"4","last_reported":1747800882,"current_range_meters":20800,"station_id":"ce4bh412rcd13ifvqds0","pricing_plan_id":"cebpf4jnsgd1na2vs0mg"},{"bike_id":"47b4be56-50cd-4e14-afec-fa625a6ba20e","system_id":"levelo_inurba_marseille","lat":43.279149,"lon":5.395779,"is_reserved":false,"is_disabled":false,"rental_uris":{"android":"levelo://app?vid=47b4be56-50cd-4e14-afec-fa625a6ba20e","ios":"levelo://app?vid=47b4be56-50cd-4e14-afec-fa625a6ba20e"},"vehicle_type_id":"4","last_reported":1747800882,"current_range_meters":20800,"station_id":"ce4bhf92rcd13ifvqf40","pricing_plan_id":"cebpf4jnsgd1na2vs0mg"},{"bike_id":"7ca34761-7aa2-4ddb-9f02-b848cfacf517","system_id":"levelo_inurba_marseille","lat":43.32657,"lon":5.40989,"is_reserved":false,"is_disabled":false,"rental_uris":{"android":"levelo://app?vid=7ca34761-7aa2-4ddb-9f02-b848cfacf517","ios":"levelo://app?vid=7ca34761-7aa2-4ddb-9f02-b848cfacf517"},"vehicle_type_id":"4","last_reported":1747800882,"current_range_meters":20800,"station_id":"ce4bhpp2rcd13ifvqhgg","pricing_plan_id":"cebpf4jnsgd1na2vs0mg"},{"bike_id":"7f7a0105-8f7a-4ff5-b4cc-049086a16bb3","system_id":"levelo_inurba_marseille","lat":43.302549,"lon":5.400647,"is_reserved":false,"is_disabled":false,"rental_uris":{"android":"levelo://app?vid=7f7a0105-8f7a-4ff5-b4cc-049086a16bb3","ios":"levelo://app?vid=7f7a0105-8f7a-4ff5-b4cc-049086a16bb3"},"vehicle_type_id":"4","last_reported":1747800882,"current_range_meters":21600,"station_id":"ce4bgvh2rcd13ifvqcs0","pricing_plan_id":"cebpf4jnsgd1na2vs0mg"},{"bike_id":"984aa5c0-6ff0-4c13-8dcf-e226c62ddf46","system_id":"levelo_inurba_marseille","lat":43.25119,"lon":5.403195,"is_reserved":false,"is_disabled":false,"rental_uris":{"android":"levelo://app?vid=984aa5c0-6ff0-4c13-8dcf-e226c62ddf46","ios":"levelo://app?vid=984aa5c0-6ff0-4c13-8dcf-e226c62ddf46"},"vehicle_type_id":"4","last_reported":1747800882,"current_range_meters":21600,"station_id":"ce4bhlh2rcd13ifvqgig","pricing_plan_id":"cebpf4jnsgd1na2vs0mg"},{"bike_id":"5d25dc35-49a9-4ee7-987f-50f0d16e7048","system_id":"levelo_inurba_marseille","lat":43.280816,"lon":5.396628,"is_reserved":false,"is_disabled":false,"rental_uris":{"android":"levelo://app?vid=5d25dc35-49a9-4ee7-987f-50f0d16e7048","ios":"levelo://app?vid=5d25dc35-49a9-4ee7-987f-50f0d16e7048"},"vehicle_type_id":"4","last_reported":1747800882,"current_range_meters":21600,"station_id":"ce4bho12rcd13ifvqh2g","pricing_plan_id":"cebpf4jnsgd1na2vs0mg"},{"bike_id":"e7dd5733-1fdb-41a7-bf4e-9071353eb2f9","system_id":"levelo_inurba_marseille","lat":43.287299,"lon":5.360839,"is_reserved":false,"is_disabled":false,"rental_uris":{"android":"levelo://app?vid=e7dd5733-1fdb-41a7-bf4e-9071353eb2f9","ios":"levelo://app?vid=e7dd5733-1fdb-41a7-bf4e-9071353eb2f9"},"vehicle_type_id":"4","last_reported":1747800882,"current_range_meters":21600,"station_id":"cki0cbj6b192h4jlfktg","pricing_plan_id":"cebpf4jnsgd1na2vs0mg"},{"bike_id":"41bef200-0210-46a9-afd1-c001d345c4b0","system_id":"levelo_inurba_marseille","lat":43.336535,"lon":5.378296,"is_reserved":false,"is_disabled":false,"rental_uris":{"android":"levelo://app?vid=41bef200-0210-46a9-afd1-c001d345c4b0","ios":"levelo://app?vid=41bef200-0210-46a9-afd1-c001d345c4b0"},"vehicle_type_id":"4","last_reported":1747800882,"current_range_meters":22000,"station_id":"","pricing_plan_id":"cebpf4jnsgd1na2vs0mg"},{"bike_id":"f2c57c97-cdd3-419e-85d0-6479134de3b2","system_id":"levelo_inurba_marseille","lat":43.281116,"lon":5.378469,"is_reserved":false,"is_disabled":false,"rental_uris":{"android":"levelo://app?vid=f2c57c97-cdd3-419e-85d0-6479134de3b2","ios":"levelo://app?vid=f2c57c97-cdd3-419e-85d0-6479134de3b2"},"vehicle_type_id":"4","last_reported":1747800882,"current_range_meters":22000,"station_id":"ce4bha12rcd13ifvqee0","pricing_plan_id":"cebpf4jnsgd1na2vs0mg"},{"bike_id":"d4acc3d6-22e6-44af-8a92-fc4a8985e714","system_id":"levelo_inurba_marseille","lat":43.2507,"lon":5.395,"is_reserved":false,"is_disabled":false,"rental_uris":{"android":"levelo://app?vid=d4acc3d6-22e6-44af-8a92-fc4a8985e714","ios":"levelo://app?vid=d4acc3d6-22e6-44af-8a92-fc4a8985e714"},"vehicle_type_id":"4","last_reported":1747800882,"current_range_meters":22000,"station_id":"ce4bhm12rcd13ifvqgkg","pricing_plan_id":"cebpf4jnsgd1na2vs0mg"},{"bike_id":"63183dcd-44e7-467e-8429-ffd14737d2b8","system_id":"levelo_inurba_marseille","lat":43.23159,"lon":5.43711,"is_reserved":false,"is_disabled":false,"rental_uris":{"android":"levelo://app?vid=63183dcd-44e7-467e-8429-ffd14737d2b8","ios":"levelo://app?vid=63183dcd-44e7-467e-8429-ffd14737d2b8"},"vehicle_type_id":"4","last_reported":1747800882,"current_range_meters":22000,"station_id":"ce4bhmp2rcd13ifvqgog","pricing_plan_id":"cebpf4jnsgd1na2vs0mg"},{"bike_id":"6e063f0c-9f56-4514-88d0-3b629ffb4d85","system_id":"levelo_inurba_marseille","lat":43.26818,"lon":5.40255,"is_reserved":false,"is_disabled":false,"rental_uris":{"android":"levelo://app?vid=6e063f0c-9f56-4514-88d0-3b629ffb4d85","ios":"levelo://app?vid=6e063f0c-9f56-4514-88d0-3b629ffb4d85"},"vehicle_type_id":"4","last_reported":1747800882,"current_range_meters":22000,"station_id":"ce501612rcd8frsf0b60","pricing_plan_id":"cebpf4jnsgd1na2vs0mg"},{"bike_id":"618192f9-d2be-446b-823b-5e1ffaf8f5f0","system_id":"levelo_inurba_marseille","lat":43.313674,"lon":5.384969,"is_reserved":false,"is_disabled":false,"rental_uris":{"android":"levelo://app?vid=618192f9-d2be-446b-823b-5e1ffaf8f5f0","ios":"levelo://app?vid=618192f9-d2be-446b-823b-5e1ffaf8f5f0"},"vehicle_type_id":"4","last_reported":1747800882,"current_range_meters":22400,"station_id":"ce4bgt92rcd13ifvqcf0","pricing_plan_id":"cebpf4jnsgd1na2vs0mg"},{"bike_id":"76ca7af0-e4a0-4f5d-b371-31e98b7779ac","system_id":"levelo_inurba_marseille","lat":43.283479,"lon":5.381071,"is_reserved":false,"is_disabled":false,"rental_uris":{"android":"levelo://app?vid=76ca7af0-e4a0-4f5d-b371-31e98b7779ac","ios":"levelo://app?vid=76ca7af0-e4a0-4f5d-b371-31e98b7779ac"},"vehicle_type_id":"4","last_reported":1747800882,"current_range_meters":22400,"station_id":"ce4bh412rcd13ifvqdr0","pricing_plan_id":"cebpf4jnsgd1na2vs0mg"},{"bike_id":"54618f2c-264b-4d63-b123-0960e416d096","system_id":"levelo_inurba_marseille","lat":43.28699,"lon":5.37953,"is_reserved":false,"is_disabled":false,"rental_uris":{"android":"levelo://app?vid=54618f2c-264b-4d63-b123-0960e416d096","ios":"levelo://app?vid=54618f2c-264b-4d63-b123-0960e416d096"},"vehicle_type_id":"4","last_reported":1747800882,"current_range_meters":22400,"station_id":"ce4bh9p2rcd13ifvqec0","pricing_plan_id":"cebpf4jnsgd1na2vs0mg"},{"bike_id":"375a1889-a82a-4e34-bcc4-cb1f99405608","system_id":"levelo_inurba_marseille","lat":43.321163,"lon":5.367753,"is_reserved":false,"is_disabled":false,"rental_uris":{"android":"levelo://app?vid=375a1889-a82a-4e34-bcc4-cb1f99405608","ios":"levelo://app?vid=375a1889-a82a-4e34-bcc4-cb1f99405608"},"vehicle_type_id":"4","last_reported":1747800882,"current_range_meters":22400,"station_id":"ce4bhrh2rcd13ifvqhug","pricing_plan_id":"cebpf4jnsgd1na2vs0mg"},{"bike_id":"93fbab1f-b302-4d2c-9822-e951f3d3cdee","system_id":"levelo_inurba_marseille","lat":43.241631,"lon":5.364114,"is_reserved":false,"is_disabled":false,"rental_uris":{"android":"levelo://app?vid=93fbab1f-b302-4d2c-9822-e951f3d3cdee","ios":"levelo://app?vid=93fbab1f-b302-4d2c-9822-e951f3d3cdee"},"vehicle_type_id":"4","last_reported":1747800882,"current_range_meters":22400,"station_id":"cpo36qri1sfpv3e86is0","pricing_plan_id":"cebpf4jnsgd1na2vs0mg"},{"bike_id":"2780ea46-a96e-47dd-8655-7d91530ce0dc","system_id":"levelo_inurba_marseille","lat":43.314864,"lon":5.372864,"is_reserved":false,"is_disabled":false,"rental_uris":{"android":"levelo://app?vid=2780ea46-a96e-47dd-8655-7d91530ce0dc","ios":"levelo://app?vid=2780ea46-a96e-47dd-8655-7d91530ce0dc"},"vehicle_type_id":"4","last_reported":1747800882,"current_range_meters":22800,"station_id":"ce4bgt12rcd13ifvqcd0","pricing_plan_id":"cebpf4jnsgd1na2vs0mg"},{"bike_id":"fdfa7050-87b9-44d4-ab51-d13dc3297f7c","system_id":"levelo_inurba_marseille","lat":43.313286,"lon":5.396956,"is_reserved":false,"is_disabled":false,"rental_uris":{"android":"levelo://app?vid=fdfa7050-87b9-44d4-ab51-d13dc3297f7c","ios":"levelo://app?vid=fdfa7050-87b9-44d4-ab51-d13dc3297f7c"},"vehicle_type_id":"4","last_reported":1747800882,"current_range_meters":22800,"station_id":"ce4bgvp2rcd13ifvqcu0","pricing_plan_id":"cebpf4jnsgd1na2vs0mg"},{"bike_id":"867d940e-7234-4cd9-9dac-96505337d158","system_id":"levelo_inurba_marseille","lat":43.31314,"lon":5.39753,"is_reserved":false,"is_disabled":false,"rental_uris":{"android":"levelo://app?vid=867d940e-7234-4cd9-9dac-96505337d158","ios":"levelo://app?vid=867d940e-7234-4cd9-9dac-96505337d158"},"vehicle_type_id":"4","last_reported":1747800882,"current_range_meters":22800,"station_id":"ce4bgvp2rcd13ifvqcu0","pricing_plan_id":"cebpf4jnsgd1na2vs0mg"},{"bike_id":"a0a60a04-55a9-4168-93e3-2c521ac2ef06","system_id":"levelo_inurba_marseille","lat":43.287276,"lon":5.360854,"is_reserved":false,"is_disabled":false,"rental_uris":{"android":"levelo://app?vid=a0a60a04-55a9-4168-93e3-2c521ac2ef06","ios":"levelo://app?vid=a0a60a04-55a9-4168-93e3-2c521ac2ef06"},"vehicle_type_id":"4","last_reported":1747800882,"current_range_meters":22800,"station_id":"cki0cbj6b192h4jlfktg","pricing_plan_id":"cebpf4jnsgd1na2vs0mg"},{"bike_id":"b1324977-314c-4c6a-b259-dd7aa47fa2ce","system_id":"levelo_inurba_marseille","lat":43.295878,"lon":5.365251,"is_reserved":false,"is_disabled":false,"rental_uris":{"android":"levelo://app?vid=b1324977-314c-4c6a-b259-dd7aa47fa2ce","ios":"levelo://app?vid=b1324977-314c-4c6a-b259-dd7aa47fa2ce"},"vehicle_type_id":"4","last_reported":1747800882,"current_range_meters":23200,"station_id":"","pricing_plan_id":"cebpf4jnsgd1na2vs0mg"},{"bike_id":"0a11884a-975d-413c-8e52-07cd7ff9db8f","system_id":"levelo_inurba_marseille","lat":43.28098,"lon":5.37836,"is_reserved":false,"is_disabled":false,"rental_uris":{"android":"levelo://app?vid=0a11884a-975d-413c-8e52-07cd7ff9db8f","ios":"levelo://app?vid=0a11884a-975d-413c-8e52-07cd7ff9db8f"},"vehicle_type_id":"4","last_reported":1747800882,"current_range_meters":23200,"station_id":"ce4bha12rcd13ifvqee0","pricing_plan_id":"cebpf4jnsgd1na2vs0mg"},{"bike_id":"24ef4e63-d6bd-470b-95ed-5c34f03f536a","system_id":"levelo_inurba_marseille","lat":43.24062,"lon":5.37766,"is_reserved":false,"is_disabled":false,"rental_uris":{"android":"levelo://app?vid=24ef4e63-d6bd-470b-95ed-5c34f03f536a","ios":"levelo://app?vid=24ef4e63-d6bd-470b-95ed-5c34f03f536a"},"vehicle_type_id":"4","last_reported":1747800882,"current_range_meters":23200,"station_id":"ce4bhnp2rcd13ifvqgvg","pricing_plan_id":"cebpf4jnsgd1na2vs0mg"},{"bike_id":"bf794009-24f9-44a3-9c82-5d1f7be01a91","system_id":"levelo_inurba_marseille","lat":43.268035,"lon":5.402666,"is_reserved":false,"is_disabled":false,"rental_uris":{"android":"levelo://app?vid=bf794009-24f9-44a3-9c82-5d1f7be01a91","ios":"levelo://app?vid=bf794009-24f9-44a3-9c82-5d1f7be01a91"},"vehicle_type_id":"4","last_reported":1747800882,"current_range_meters":23200,"station_id":"ce501612rcd8frsf0b60","pricing_plan_id":"cebpf4jnsgd1na2vs0mg"},{"bike_id":"e7edf8b3-cee2-409c-86d9-0e291cfcc47a","system_id":"levelo_inurba_marseille","lat":43.28735,"lon":5.36124,"is_reserved":false,"is_disabled":false,"rental_uris":{"android":"levelo://app?vid=e7edf8b3-cee2-409c-86d9-0e291cfcc47a","ios":"levelo://app?vid=e7edf8b3-cee2-409c-86d9-0e291cfcc47a"},"vehicle_type_id":"4","last_reported":1747800882,"current_range_meters":23200,"station_id":"cki0cbj6b192h4jlfktg","pricing_plan_id":"cebpf4jnsgd1na2vs0mg"},{"bike_id":"054b3aad-cd67-4742-9361-9f0105e4ede4","system_id":"levelo_inurba_marseille","lat":43.229321,"lon":5.353763,"is_reserved":false,"is_disabled":false,"rental_uris":{"android":"levelo://app?vid=054b3aad-cd67-4742-9361-9f0105e4ede4","ios":"levelo://app?vid=054b3aad-cd67-4742-9361-9f0105e4ede4"},"vehicle_type_id":"4","last_reported":1747800882,"current_range_meters":23200,"station_id":"cpo3532slgdg3j2ikp40","pricing_plan_id":"cebpf4jnsgd1na2vs0mg"},{"bike_id":"ee539724-15bf-477e-8355-efd475e9599e","system_id":"levelo_inurba_marseille","lat":43.29197,"lon":5.39348,"is_reserved":false,"is_disabled":false,"rental_uris":{"android":"levelo://app?vid=ee539724-15bf-477e-8355-efd475e9599e","ios":"levelo://app?vid=ee539724-15bf-477e-8355-efd475e9599e"},"vehicle_type_id":"4","last_reported":1747800882,"current_range_meters":24000,"station_id":"ce4bh192rcd13ifvqdd0","pricing_plan_id":"cebpf4jnsgd1na2vs0mg"},{"bike_id":"842690c1-e7d8-4648-8891-eaa126767b34","system_id":"levelo_inurba_marseille","lat":43.292785,"lon":5.401212,"is_reserved":false,"is_disabled":false,"rental_uris":{"android":"levelo://app?vid=842690c1-e7d8-4648-8891-eaa126767b34","ios":"levelo://app?vid=842690c1-e7d8-4648-8891-eaa126767b34"},"vehicle_type_id":"4","last_reported":1747800882,"current_range_meters":24000,"station_id":"ce4bh312rcd13ifvqdk0","pricing_plan_id":"cebpf4jnsgd1na2vs0mg"},{"bike_id":"de3d35ec-b959-4bbc-b39e-82e24ec11c32","system_id":"levelo_inurba_marseille","lat":43.284044,"lon":5.375228,"is_reserved":false,"is_disabled":false,"rental_uris":{"android":"levelo://app?vid=de3d35ec-b959-4bbc-b39e-82e24ec11c32","ios":"levelo://app?vid=de3d35ec-b959-4bbc-b39e-82e24ec11c32"},"vehicle_type_id":"4","last_reported":1747800882,"current_range_meters":24000,"station_id":"ce4bh412rcd13ifvqds0","pricing_plan_id":"cebpf4jnsgd1na2vs0mg"},{"bike_id":"76bf9dd9-7e55-441e-89e4-ea1df8a24330","system_id":"levelo_inurba_marseille","lat":43.24648,"lon":5.388948,"is_reserved":false,"is_disabled":false,"rental_uris":{"android":"levelo://app?vid=76bf9dd9-7e55-441e-89e4-ea1df8a24330","ios":"levelo://app?vid=76bf9dd9-7e55-441e-89e4-ea1df8a24330"},"vehicle_type_id":"4","last_reported":1747800882,"current_range_meters":24000,"station_id":"ce4bhg12rcd13ifvqf60","pricing_plan_id":"cebpf4jnsgd1na2vs0mg"},{"bike_id":"b76e566d-a1d7-4e19-a89f-fd1e6cacae8d","system_id":"levelo_inurba_marseille","lat":43.32002,"lon":5.38149,"is_reserved":false,"is_disabled":false,"rental_uris":{"android":"levelo://app?vid=b76e566d-a1d7-4e19-a89f-fd1e6cacae8d","ios":"levelo://app?vid=b76e566d-a1d7-4e19-a89f-fd1e6cacae8d"},"vehicle_type_id":"4","last_reported":1747800882,"current_range_meters":24000,"station_id":"ce4bhr12rcd13ifvqhpg","pricing_plan_id":"cebpf4jnsgd1na2vs0mg"},{"bike_id":"590b9f54-ca68-412d-b581-fcd2ce0090f3","system_id":"levelo_inurba_marseille","lat":43.30003,"lon":5.3736,"is_reserved":false,"is_disabled":false,"rental_uris":{"android":"levelo://app?vid=590b9f54-ca68-412d-b581-fcd2ce0090f3","ios":"levelo://app?vid=590b9f54-ca68-412d-b581-fcd2ce0090f3"},"vehicle_type_id":"4","last_reported":1747800882,"current_range_meters":24400,"station_id":"","pricing_plan_id":"cebpf4jnsgd1na2vs0mg"},{"bike_id":"c1a246eb-8f11-4f8c-ab79-cec700bc427f","system_id":"levelo_inurba_marseille","lat":43.310705,"lon":5.383562,"is_reserved":false,"is_disabled":false,"rental_uris":{"android":"levelo://app?vid=c1a246eb-8f11-4f8c-ab79-cec700bc427f","ios":"levelo://app?vid=c1a246eb-8f11-4f8c-ab79-cec700bc427f"},"vehicle_type_id":"4","last_reported":1747800882,"current_range_meters":24400,"station_id":"ce4bgv92rcd13ifvqcr0","pricing_plan_id":"cebpf4jnsgd1na2vs0mg"},{"bike_id":"85201b7a-19b0-45a5-9006-a1ec3a8c4e28","system_id":"levelo_inurba_marseille","lat":43.30949,"lon":5.40157,"is_reserved":false,"is_disabled":false,"rental_uris":{"android":"levelo://app?vid=85201b7a-19b0-45a5-9006-a1ec3a8c4e28","ios":"levelo://app?vid=85201b7a-19b0-45a5-9006-a1ec3a8c4e28"},"vehicle_type_id":"4","last_reported":1747800882,"current_range_meters":24400,"station_id":"ce4bgvp2rcd13ifvqct0","pricing_plan_id":"cebpf4jnsgd1na2vs0mg"},{"bike_id":"b767c5fa-715e-4785-92ce-f31408d99596","system_id":"levelo_inurba_marseille","lat":43.31347,"lon":5.39677,"is_reserved":false,"is_disabled":false,"rental_uris":{"android":"levelo://app?vid=b767c5fa-715e-4785-92ce-f31408d99596","ios":"levelo://app?vid=b767c5fa-715e-4785-92ce-f31408d99596"},"vehicle_type_id":"4","last_reported":1747800882,"current_range_meters":24400,"station_id":"ce4bgvp2rcd13ifvqcu0","pricing_plan_id":"cebpf4jnsgd1na2vs0mg"},{"bike_id":"e9c913b9-d2e5-4c6a-a368-65d106189c20","system_id":"levelo_inurba_marseille","lat":43.2841,"lon":5.37522,"is_reserved":false,"is_disabled":false,"rental_uris":{"android":"levelo://app?vid=e9c913b9-d2e5-4c6a-a368-65d106189c20","ios":"levelo://app?vid=e9c913b9-d2e5-4c6a-a368-65d106189c20"},"vehicle_type_id":"4","last_reported":1747800882,"current_range_meters":24400,"station_id":"ce4bh412rcd13ifvqds0","pricing_plan_id":"cebpf4jnsgd1na2vs0mg"},{"bike_id":"0365f1dc-4823-48d2-b5d7-7571b430ec06","system_id":"levelo_inurba_marseille","lat":43.265646,"lon":5.390119,"is_reserved":false,"is_disabled":false,"rental_uris":{"android":"levelo://app?vid=0365f1dc-4823-48d2-b5d7-7571b430ec06","ios":"levelo://app?vid=0365f1dc-4823-48d2-b5d7-7571b430ec06"},"vehicle_type_id":"4","last_reported":1747800882,"current_range_meters":24400,"station_id":"ce4bhe12rcd13ifvqf30","pricing_plan_id":"cebpf4jnsgd1na2vs0mg"},{"bike_id":"9b2021c5-d712-4443-81ff-47440acbc00c","system_id":"levelo_inurba_marseille","lat":43.23199,"lon":5.39992,"is_reserved":false,"is_disabled":false,"rental_uris":{"android":"levelo://app?vid=9b2021c5-d712-4443-81ff-47440acbc00c","ios":"levelo://app?vid=9b2021c5-d712-4443-81ff-47440acbc00c"},"vehicle_type_id":"4","last_reported":1747800882,"current_range_meters":24400,"station_id":"ce4bhn12rcd13ifvqgqg","pricing_plan_id":"cebpf4jnsgd1na2vs0mg"},{"bike_id":"1ed60f6c-bd83-4541-b30e-d0ec879fdfb7","system_id":"levelo_inurba_marseille","lat":43.231907,"lon":5.399777,"is_reserved":false,"is_disabled":false,"rental_uris":{"android":"levelo://app?vid=1ed60f6c-bd83-4541-b30e-d0ec879fdfb7","ios":"levelo://app?vid=1ed60f6c-bd83-4541-b30e-d0ec879fdfb7"},"vehicle_type_id":"4","last_reported":1747800882,"current_range_meters":24400,"station_id":"ce4bhn12rcd13ifvqgqg","pricing_plan_id":"cebpf4jnsgd1na2vs0mg"},{"bike_id":"51f721ff-1319-45fc-ba63-b8b1a66b2699","system_id":"levelo_inurba_marseille","lat":43.240824,"lon":5.377349,"is_reserved":false,"is_disabled":false,"rental_uris":{"android":"levelo://app?vid=51f721ff-1319-45fc-ba63-b8b1a66b2699","ios":"levelo://app?vid=51f721ff-1319-45fc-ba63-b8b1a66b2699"},"vehicle_type_id":"4","last_reported":1747800882,"current_range_meters":24400,"station_id":"ce4bhnp2rcd13ifvqgvg","pricing_plan_id":"cebpf4jnsgd1na2vs0mg"},{"bike_id":"9ceb2e87-e833-43ce-b233-11048308991d","system_id":"levelo_inurba_marseille","lat":43.28052,"lon":5.41722,"is_reserved":false,"is_disabled":false,"rental_uris":{"android":"levelo://app?vid=9ceb2e87-e833-43ce-b233-11048308991d","ios":"levelo://app?vid=9ceb2e87-e833-43ce-b233-11048308991d"},"vehicle_type_id":"4","last_reported":1747800882,"current_range_meters":24400,"station_id":"ce4bho12rcd13ifvqh1g","pricing_plan_id":"cebpf4jnsgd1na2vs0mg"},{"bike_id":"d44798e0-a73f-4e25-8897-93e73194e1ba","system_id":"levelo_inurba_marseille","lat":43.287129,"lon":5.39987,"is_reserved":false,"is_disabled":false,"rental_uris":{"android":"levelo://app?vid=d44798e0-a73f-4e25-8897-93e73194e1ba","ios":"levelo://app?vid=d44798e0-a73f-4e25-8897-93e73194e1ba"},"vehicle_type_id":"4","last_reported":1747800882,"current_range_meters":24400,"station_id":"ce4bho92rcd13ifvqh3g","pricing_plan_id":"cebpf4jnsgd1na2vs0mg"},{"bike_id":"a7263703-a24f-472c-9bf8-a0f4b19003bc","system_id":"levelo_inurba_marseille","lat":43.3048,"lon":5.37927,"is_reserved":false,"is_disabled":false,"rental_uris":{"android":"levelo://app?vid=a7263703-a24f-472c-9bf8-a0f4b19003bc","ios":"levelo://app?vid=a7263703-a24f-472c-9bf8-a0f4b19003bc"},"vehicle_type_id":"4","last_reported":1747800882,"current_range_meters":24800,"station_id":"ce4bgup2rcd13ifvqcn0","pricing_plan_id":"cebpf4jnsgd1na2vs0mg"},{"bike_id":"78b703c8-af90-46fb-b167-44c9eb114a5e","system_id":"levelo_inurba_marseille","lat":43.30778,"lon":5.37653,"is_reserved":false,"is_disabled":false,"rental_uris":{"android":"levelo://app?vid=78b703c8-af90-46fb-b167-44c9eb114a5e","ios":"levelo://app?vid=78b703c8-af90-46fb-b167-44c9eb114a5e"},"vehicle_type_id":"4","last_reported":1747800882,"current_range_meters":24800,"station_id":"ce4bgv92rcd13ifvqcq0","pricing_plan_id":"cebpf4jnsgd1na2vs0mg"},{"bike_id":"56657308-df49-4529-901f-5cbfc5b5cf76","system_id":"levelo_inurba_marseille","lat":43.309281,"lon":5.40152,"is_reserved":false,"is_disabled":false,"rental_uris":{"android":"levelo://app?vid=56657308-df49-4529-901f-5cbfc5b5cf76","ios":"levelo://app?vid=56657308-df49-4529-901f-5cbfc5b5cf76"},"vehicle_type_id":"4","last_reported":1747800882,"current_range_meters":24800,"station_id":"ce4bgvp2rcd13ifvqct0","pricing_plan_id":"cebpf4jnsgd1na2vs0mg"},{"bike_id":"12dc90ba-58c3-402e-a91a-9d775091e241","system_id":"levelo_inurba_marseille","lat":43.281052,"lon":5.378403,"is_reserved":false,"is_disabled":false,"rental_uris":{"android":"levelo://app?vid=12dc90ba-58c3-402e-a91a-9d775091e241","ios":"levelo://app?vid=12dc90ba-58c3-402e-a91a-9d775091e241"},"vehicle_type_id":"4","last_reported":1747800882,"current_range_meters":24800,"station_id":"ce4bha12rcd13ifvqee0","pricing_plan_id":"cebpf4jnsgd1na2vs0mg"},{"bike_id":"8bff7452-3019-4cf3-b12a-e89825c1bd38","system_id":"levelo_inurba_marseille","lat":43.2794,"lon":5.41043,"is_reserved":false,"is_disabled":false,"rental_uris":{"android":"levelo://app?vid=8bff7452-3019-4cf3-b12a-e89825c1bd38","ios":"levelo://app?vid=8bff7452-3019-4cf3-b12a-e89825c1bd38"},"vehicle_type_id":"4","last_reported":1747800882,"current_range_meters":24800,"station_id":"ce4bhnp2rcd13ifvqh0g","pricing_plan_id":"cebpf4jnsgd1na2vs0mg"},{"bike_id":"a29b6aa0-da72-43ce-a2e9-b744e38a7401","system_id":"levelo_inurba_marseille","lat":43.279412,"lon":5.41042,"is_reserved":false,"is_disabled":false,"rental_uris":{"android":"levelo://app?vid=a29b6aa0-da72-43ce-a2e9-b744e38a7401","ios":"levelo://app?vid=a29b6aa0-da72-43ce-a2e9-b744e38a7401"},"vehicle_type_id":"4","last_reported":1747800882,"current_range_meters":24800,"station_id":"ce4bhnp2rcd13ifvqh0g","pricing_plan_id":"cebpf4jnsgd1na2vs0mg"},{"bike_id":"66ff4391-d1e7-4cef-a47c-1d97d00fef7d","system_id":"levelo_inurba_marseille","lat":43.28713,"lon":5.40042,"is_reserved":false,"is_disabled":false,"rental_uris":{"android":"levelo://app?vid=66ff4391-d1e7-4cef-a47c-1d97d00fef7d","ios":"levelo://app?vid=66ff4391-d1e7-4cef-a47c-1d97d00fef7d"},"vehicle_type_id":"4","last_reported":1747800882,"current_range_meters":24800,"station_id":"ce4bho92rcd13ifvqh3g","pricing_plan_id":"cebpf4jnsgd1na2vs0mg"},{"bike_id":"33718d01-346b-46a4-b768-ff375030eeef","system_id":"levelo_inurba_marseille","lat":43.229286,"lon":5.353842,"is_reserved":false,"is_disabled":false,"rental_uris":{"android":"levelo://app?vid=33718d01-346b-46a4-b768-ff375030eeef","ios":"levelo://app?vid=33718d01-346b-46a4-b768-ff375030eeef"},"vehicle_type_id":"4","last_reported":1747800882,"current_range_meters":24800,"station_id":"cpo3532slgdg3j2ikp40","pricing_plan_id":"cebpf4jnsgd1na2vs0mg"},{"bike_id":"7fe517dd-97e0-4ec0-84f0-4cc906a1c163","system_id":"levelo_inurba_marseille","lat":43.346906,"lon":5.345466,"is_reserved":false,"is_disabled":false,"rental_uris":{"android":"levelo://app?vid=7fe517dd-97e0-4ec0-84f0-4cc906a1c163","ios":"levelo://app?vid=7fe517dd-97e0-4ec0-84f0-4cc906a1c163"},"vehicle_type_id":"4","last_reported":1747800882,"current_range_meters":25200,"station_id":"","pricing_plan_id":"cebpf4jnsgd1na2vs0mg"},{"bike_id":"312143da-744c-4308-956e-b8fee50e0ddc","system_id":"levelo_inurba_marseille","lat":43.31167,"lon":5.38728,"is_reserved":false,"is_disabled":false,"rental_uris":{"android":"levelo://app?vid=312143da-744c-4308-956e-b8fee50e0ddc","ios":"levelo://app?vid=312143da-744c-4308-956e-b8fee50e0ddc"},"vehicle_type_id":"4","last_reported":1747800882,"current_range_meters":25200,"station_id":"ce4bgv12rcd13ifvqcp0","pricing_plan_id":"cebpf4jnsgd1na2vs0mg"},{"bike_id":"01c5ee3e-9189-4767-b6d6-55f732f96be1","system_id":"levelo_inurba_marseille","lat":43.298774,"lon":5.397379,"is_reserved":false,"is_disabled":false,"rental_uris":{"android":"levelo://app?vid=01c5ee3e-9189-4767-b6d6-55f732f96be1","ios":"levelo://app?vid=01c5ee3e-9189-4767-b6d6-55f732f96be1"},"vehicle_type_id":"4","last_reported":1747800882,"current_range_meters":25200,"station_id":"ce4bh0h2rcd13ifvqd50","pricing_plan_id":"cebpf4jnsgd1na2vs0mg"},{"bike_id":"f0aaac8f-4aa3-4220-b9de-fe0f5006410a","system_id":"levelo_inurba_marseille","lat":43.284057,"lon":5.375269,"is_reserved":false,"is_disabled":false,"rental_uris":{"android":"levelo://app?vid=f0aaac8f-4aa3-4220-b9de-fe0f5006410a","ios":"levelo://app?vid=f0aaac8f-4aa3-4220-b9de-fe0f5006410a"},"vehicle_type_id":"4","last_reported":1747800882,"current_range_meters":25200,"station_id":"ce4bh412rcd13ifvqds0","pricing_plan_id":"cebpf4jnsgd1na2vs0mg"},{"bike_id":"2c9636be-07a9-44aa-a0ed-075902b95ea9","system_id":"levelo_inurba_marseille","lat":43.284093,"lon":5.375314,"is_reserved":false,"is_disabled":false,"rental_uris":{"android":"levelo://app?vid=2c9636be-07a9-44aa-a0ed-075902b95ea9","ios":"levelo://app?vid=2c9636be-07a9-44aa-a0ed-075902b95ea9"},"vehicle_type_id":"4","last_reported":1747800882,"current_range_meters":25200,"station_id":"ce4bh412rcd13ifvqds0","pricing_plan_id":"cebpf4jnsgd1na2vs0mg"},{"bike_id":"4c3b55fa-da9d-4965-ab23-0a7319d46d22","system_id":"levelo_inurba_marseille","lat":43.239648,"lon":5.366495,"is_reserved":false,"is_disabled":false,"rental_uris":{"android":"levelo://app?vid=4c3b55fa-da9d-4965-ab23-0a7319d46d22","ios":"levelo://app?vid=4c3b55fa-da9d-4965-ab23-0a7319d46d22"},"vehicle_type_id":"4","last_reported":1747800882,"current_range_meters":25200,"station_id":"ce4bhi12rcd13ifvqfp0","pricing_plan_id":"cebpf4jnsgd1na2vs0mg"},{"bike_id":"0b173a54-7be2-4aff-b912-a9c298a2a158","system_id":"levelo_inurba_marseille","lat":43.25829,"lon":5.39437,"is_reserved":false,"is_disabled":false,"rental_uris":{"android":"levelo://app?vid=0b173a54-7be2-4aff-b912-a9c298a2a158","ios":"levelo://app?vid=0b173a54-7be2-4aff-b912-a9c298a2a158"},"vehicle_type_id":"4","last_reported":1747800882,"current_range_meters":25200,"station_id":"ce4bhip2rcd13ifvqft0","pricing_plan_id":"cebpf4jnsgd1na2vs0mg"},{"bike_id":"8d36d804-64a1-46f1-a6b8-81fa1dd1f210","system_id":"levelo_inurba_marseille","lat":43.25123,"lon":5.40323,"is_reserved":false,"is_disabled":false,"rental_uris":{"android":"levelo://app?vid=8d36d804-64a1-46f1-a6b8-81fa1dd1f210","ios":"levelo://app?vid=8d36d804-64a1-46f1-a6b8-81fa1dd1f210"},"vehicle_type_id":"4","last_reported":1747800882,"current_range_meters":25200,"station_id":"ce4bhlh2rcd13ifvqgig","pricing_plan_id":"cebpf4jnsgd1na2vs0mg"},{"bike_id":"c5f9051a-e987-4455-b49e-edd5155eb446","system_id":"levelo_inurba_marseille","lat":43.23173,"lon":5.40002,"is_reserved":false,"is_disabled":false,"rental_uris":{"android":"levelo://app?vid=c5f9051a-e987-4455-b49e-edd5155eb446","ios":"levelo://app?vid=c5f9051a-e987-4455-b49e-edd5155eb446"},"vehicle_type_id":"4","last_reported":1747800882,"current_range_meters":25200,"station_id":"ce4bhn12rcd13ifvqgqg","pricing_plan_id":"cebpf4jnsgd1na2vs0mg"},{"bike_id":"2b6dec27-c672-4854-b7a7-7e2748b044aa","system_id":"levelo_inurba_marseille","lat":43.30938,"lon":5.40144,"is_reserved":false,"is_disabled":false,"rental_uris":{"android":"levelo://app?vid=2b6dec27-c672-4854-b7a7-7e2748b044aa","ios":"levelo://app?vid=2b6dec27-c672-4854-b7a7-7e2748b044aa"},"vehicle_type_id":"4","last_reported":1747800882,"current_range_meters":25600,"station_id":"ce4bgvp2rcd13ifvqct0","pricing_plan_id":"cebpf4jnsgd1na2vs0mg"},