{"last_updated":1726081576,"ttl":30,"version":"2.2","data":{"bikes":[{"bike_id":"36545c9f-54f9-450a-880d-0aaef85c4546","system_id":"levelo_inurba_marseille","lat":43.30535,"lon":5.36541,"is_reserved":false,"is_disabled":false,"rental_uris":{"android":"levelo://app?vid=36545c9f-54f9-450a-880d-0aaef85c4546","ios":"levelo://app?vid=36545c9f-54f9-450a-880d-0aaef85c4546"},"vehicle_type_id":"4","last_reported":1726081576,"current_range_meters":20800,"station_id":"ce4bgs12rcd13ifvqcag","pricing_plan_id":"cebpf4jnsgd1na2vs0mg"},{"bike_id":"c8d8b2c1-e873-4901-b875-5672f75af04f","system_id":"levelo_inurba_marseille","lat":43.29004,"lon":5.3561,"is_reserved":false,"is_disabled":false,"rental_uris":{"android":"levelo://app?vid=c8d8b2c1-e873-4901-b875-5672f75af04f","ios":"levelo://app?vid=c8d8b2c1-e873-4901-b875-5672f75af04f"},"vehicle_type_id":"4","last_reported":1726081576,"current_range_meters":38800,"station_id":"ce4bhb92rcd13ifvqen0","pricing_plan_id":"cebpf4jnsgd1na2vs0mg"},{"bike_id":"59a275ca-7032-43f1-a52d-c4b3f8fbb374","system_id":"levelo_inurba_marseille","lat":43.29875,"lon":5.39741,"is_reserved":false,"is_disabled":false,"rental_uris":{"android":"levelo://app?vid=59a275ca-7032-43f1-a52d-c4b3f8fbb374","ios":"levelo://app?vid=59a275ca-7032-43f1-a52d-c4b3f8fbb374"},"vehicle_type_id":"4","last_reported":1726081576,"current_range_meters":11200,"station_id":"ce4bh0h2rcd13ifvqd50","pricing_plan_id":"cebpf4jnsgd1na2vs0mg"},{"bike_id":"fffd6d98-9aa9-4c52-8fec-a8c210be0600","system_id":"levelo_inurba_marseille","lat":43.30793,"lon":5.43532,"is_reserved":false,"is_disabled":false,"rental_uris":{"android":"levelo://app?vid=fffd6d98-9aa9-4c52-8fec-a8c210be0600","ios":"levelo://app?vid=fffd6d98-9aa9-4c52-8fec-a8c210be0600"},"vehicle_type_id":"4","last_reported":1726081576,"current_range_meters":23200,"station_id":"ce4bhph2rcd13ifvqheg","pricing_plan_id":"cebpf4jnsgd1na2vs0mg"},{"bike_id":"e8590ed1-1241-47ab-b8e9-5413de2d06e4","system_id":"levelo_inurba_marseille","lat":43.33025,"lon":5.39043,"is_reserved":false,"is_disabled":false,"rental_uris":{"android":"levelo://app?vid=e8590ed1-1241-47ab-b8e9-5413de2d06e4","ios":"levelo://app?vid=e8590ed1-1241-47ab-b8e9-5413de2d06e4"},"vehicle_type_id":"4","last_reported":1726081576,"current_range_meters":38000,"station_id":"ce4bhr92rcd13ifvqhrg","pricing_plan_id":"cebpf4jnsgd1na2vs0mg"},{"bike_id":"dda2e646-2c4f-4797-9db7-2e1991024ed4","system_id":"levelo_inurba_marseille","lat":43.29,"lon":5.35604,"is_reserved":false,"is_disabled":false,"rental_uris":{"android":"levelo://app?vid=dda2e646-2c4f-4797-9db7-2e1991024ed4","ios":"levelo://app?vid=dda2e646-2c4f-4797-9db7-2e1991024ed4"},"vehicle_type_id":"4","last_reported":1726081576,"current_range_meters":39200,"station_id":"ce4bhb92rcd13ifvqen0","pricing_plan_id":"cebpf4jnsgd1na2vs0mg"},{"bike_id":"4a36f624-934a-49c6-8d82-beb2e7aa8fd3","system_id":"levelo_inurba_marseille","lat":43.312768,"lon":5.401789,"is_reserved":false,"is_disabled":false,"rental_uris":{"android":"levelo://app?vid=4a36f624-934a-49c6-8d82-beb2e7aa8fd3","ios":"levelo://app?vid=4a36f624-934a-49c6-8d82-beb2e7aa8fd3"},"vehicle_type_id":"4","last_reported":1726081576,"current_range_meters":38800,"station_id":"ce4bh092rcd13ifvqd30","pricing_plan_id":"cebpf4jnsgd1na2vs0mg"},{"bike_id":"c7c1396e-2faa-45f9-8fd7-26ed189968dc","system_id":"levelo_inurba_marseille","lat":43.28441,"lon":5.39202,"is_reserved":false,"is_disabled":false,"rental_uris":{"android":"levelo://app?vid=c7c1396e-2faa-45f9-8fd7-26ed189968dc","ios":"levelo://app?vid=c7c1396e-2faa-45f9-8fd7-26ed189968dc"},"vehicle_type_id":"4","last_reported":1726081576,"current_range_meters":30800,"station_id":"ce4bhoh2rcd13ifvqh5g","pricing_plan_id":"cebpf4jnsgd1na2vs0mg"},{"bike_id":"9e0b801e-5e69-49f7-9046-a0346f58d51e","system_id":"levelo_inurba_marseille","lat":43.27066,"lon":5.42286,"is_reserved":false,"is_disabled":false,"rental_uris":{"android":"levelo://app?vid=9e0b801e-5e69-49f7-9046-a0346f58d51e","ios":"levelo://app?vid=9e0b801e-5e69-49f7-9046-a0346f58d51e"},"vehicle_type_id":"4","last_reported":1726081576,"current_range_meters":37600,"station_id":"ce4bhk92rcd13ifvqgb0","pricing_plan_id":"cebpf4jnsgd1na2vs0mg"},{"bike_id":"37ace039-7b24-497c-aca8-2ec2ca868c7c","system_id":"levelo_inurba_marseille","lat":43.29528,"lon":5.39034,"is_reserved":false,"is_disabled":false,"rental_uris":{"android":"levelo://app?vid=37ace039-7b24-497c-aca8-2ec2ca868c7c","ios":"levelo://app?vid=37ace039-7b24-497c-aca8-2ec2ca868c7c"},"vehicle_type_id":"4","last_reported":1726081576,"current_range_meters":24400,"station_id":"ce4bh3p2rcd13ifvqdp0","pricing_plan_id":"cebpf4jnsgd1na2vs0mg"},{"bike_id":"5ce6cd8b-eaf4-4670-977f-004d099d9e83","system_id":"levelo_inurba_marseille","lat":43.31301,"lon":5.39736,"is_reserved":false,"is_disabled":false,"rental_uris":{"android":"levelo://app?vid=5ce6cd8b-eaf4-4670-977f-004d099d9e83","ios":"levelo://app?vid=5ce6cd8b-eaf4-4670-977f-004d099d9e83"},"vehicle_type_id":"4","last_reported":1726081576,"current_range_meters":7200,"station_id":"ce4bgvp2rcd13ifvqcu0","pricing_plan_id":"cebpf4jnsgd1na2vs0mg"},{"bike_id":"b6ab963b-b5f9-4139-8afa-93d51431cdf4","system_id":"levelo_inurba_marseille","lat":43.26574,"lon":5.39017,"is_reserved":false,"is_disabled":false,"rental_uris":{"android":"levelo://app?vid=b6ab963b-b5f9-4139-8afa-93d51431cdf4","ios":"levelo://app?vid=b6ab963b-b5f9-4139-8afa-93d51431cdf4"},"vehicle_type_id":"4","last_reported":1726081576,"current_range_meters":38800,"station_id":"ce4bhe12rcd13ifvqf30","pricing_plan_id":"cebpf4jnsgd1na2vs0mg"},{"bike_id":"35967576-4ebf-411e-9c13-7407a6687b61","system_id":"levelo_inurba_marseille","lat":43.32364,"lon":5.38886,"is_reserved":false,"is_disabled":false,"rental_uris":{"android":"levelo://app?vid=35967576-4ebf-411e-9c13-7407a6687b61","ios":"levelo://app?vid=35967576-4ebf-411e-9c13-7407a6687b61"},"vehicle_type_id":"4","last_reported":1726081576,"current_range_meters":36800,"station_id":"ce4bhqp2rcd13ifvqhog","pricing_plan_id":"cebpf4jnsgd1na2vs0mg"},{"bike_id":"dd8e6751-b4e6-4ad9-ac5e-e550127b511c","system_id":"levelo_inurba_marseille","lat":43.30895,"lon":5.37187,"is_reserved":false,"is_disabled":false,"rental_uris":{"android":"levelo://app?vid=dd8e6751-b4e6-4ad9-ac5e-e550127b511c","ios":"levelo://app?vid=dd8e6751-b4e6-4ad9-ac5e-e550127b511c"},"vehicle_type_id":"4","last_reported":1726081576,"current_range_meters":29600,"station_id":"ce4bguh2rcd13ifvqckg","pricing_plan_id":"cebpf4jnsgd1na2vs0mg"},{"bike_id":"b4fc6ad3-6b56-44cd-bf56-ab7bb2e0fd85","system_id":"levelo_inurba_marseille","lat":43.26954,"lon":5.38634,"is_reserved":false,"is_disabled":false,"rental_uris":{"android":"levelo://app?vid=b4fc6ad3-6b56-44cd-bf56-ab7bb2e0fd85","ios":"levelo://app?vid=b4fc6ad3-6b56-44cd-bf56-ab7bb2e0fd85"},"vehicle_type_id":"4","last_reported":1726081576,"current_range_meters":27600,"station_id":"ce4bhh92rcd13ifvqfh0","pricing_plan_id":"cebpf4jnsgd1na2vs0mg"},{"bike_id":"d75b4928-4f76-4dcf-adb7-44bfe52789e6","system_id":"levelo_inurba_marseille","lat":43.29718,"lon":5.37688,"is_reserved":false,"is_disabled":false,"rental_uris":{"android":"levelo://app?vid=d75b4928-4f76-4dcf-adb7-44bfe52789e6","ios":"levelo://app?vid=d75b4928-4f76-4dcf-adb7-44bfe52789e6"},"vehicle_type_id":"4","last_reported":1726081576,"current_range_meters":8400,"station_id":"ce4bgkh2rcd13ifvqbl0","pricing_plan_id":"cebpf4jnsgd1na2vs0mg"},{"bike_id":"e7a5839c-8fe9-4805-a0e8-ec1c242be023","system_id":"levelo_inurba_marseille","lat":43.29873,"lon":5.38092,"is_reserved":false,"is_disabled":false,"rental_uris":{"android":"levelo://app?vid=e7a5839c-8fe9-4805-a0e8-ec1c242be023","ios":"levelo://app?vid=e7a5839c-8fe9-4805-a0e8-ec1c242be023"},"vehicle_type_id":"4","last_reported":1726081576,"current_range_meters":9600,"station_id":"ce4bgj12rcd13ifvqbc0","pricing_plan_id":"cebpf4jnsgd1na2vs0mg"},{"bike_id":"4856d1ed-c8cf-41fd-87dd-0e728fcb5ad7","system_id":"levelo_inurba_marseille","lat":43.29099,"lon":5.37978,"is_reserved":false,"is_disabled":false,"rental_uris":{"android":"levelo://app?vid=4856d1ed-c8cf-41fd-87dd-0e728fcb5ad7","ios":"levelo://app?vid=4856d1ed-c8cf-41fd-87dd-0e728fcb5ad7"},"vehicle_type_id":"4","last_reported":1726081576,"current_range_meters":22800,"station_id":"ce4bh512rcd13ifvqe2g","pricing_plan_id":"cebpf4jnsgd1na2vs0mg"},{"bike_id":"ba0cee5d-8c02-4778-b619-8ee4e6977f29","system_id":"levelo_inurba_marseille","lat":43.29786,"lon":5.39342,"is_reserved":false,"is_disabled":false,"rental_uris":{"android":"levelo://app?vid=ba0cee5d-8c02-4778-b619-8ee4e6977f29","ios":"levelo://app?vid=ba0cee5d-8c02-4778-b619-8ee4e6977f29"},"vehicle_type_id":"4","last_reported":1726081576,"current_range_meters":27600,"station_id":"chh1huq6cuj3fo74tm60","pricing_plan_id":"cebpf4jnsgd1na2vs0mg"},{"bike_id":"b0af54d1-a7ee-48fb-b3e6-0eb7ce098886","system_id":"levelo_inurba_marseille","lat":43.27993,"lon":5.40011,"is_reserved":false,"is_disabled":false,"rental_uris":{"android":"levelo://app?vid=b0af54d1-a7ee-48fb-b3e6-0eb7ce098886","ios":"levelo://app?vid=b0af54d1-a7ee-48fb-b3e6-0eb7ce098886"},"vehicle_type_id":"4","last_reported":1726081576,"current_range_meters":14800,"station_id":"ce4bho92rcd13ifvqh4g","pricing_plan_id":"cebpf4jnsgd1na2vs0mg"},{"bike_id":"ad5fc5ad-0c18-45b2-abeb-52be2cde7e56","system_id":"levelo_inurba_marseille","lat":43.29578,"lon":5.36748,"is_reserved":false,"is_disabled":false,"rental_uris":{"android":"levelo://app?vid=ad5fc5ad-0c18-45b2-abeb-52be2cde7e56","ios":"levelo://app?vid=ad5fc5ad-0c18-45b2-abeb-52be2cde7e56"},"vehicle_type_id":"4","last_reported":1726081576,"current_range_meters":22800,"station_id":"ce4bgph2rcd13ifvqc2g","pricing_plan_id":"cebpf4jnsgd1na2vs0mg"},{"bike_id":"e9a07c10-6502-4152-9338-79b73f109ede","system_id":"levelo_inurba_marseille","lat":43.31685,"lon":5.40475,"is_reserved":false,"is_disabled":false,"rental_uris":{"android":"levelo://app?vid=e9a07c10-6502-4152-9338-79b73f109ede","ios":"levelo://app?vid=e9a07c10-6502-4152-9338-79b73f109ede"},"vehicle_type_id":"4","last_reported":1726081576,"current_range_meters":38800,"station_id":"ce4bh012rcd13ifvqd00","pricing_plan_id":"cebpf4jnsgd1na2vs0mg"},{"bike_id":"9383a5fe-5dfb-488d-9384-3525a3cdf0e7","system_id":"levelo_inurba_marseille","lat":43.29174,"lon":5.37168,"is_reserved":false,"is_disabled":false,"rental_uris":{"android":"levelo://app?vid=9383a5fe-5dfb-488d-9384-3525a3cdf0e7","ios":"levelo://app?vid=9383a5fe-5dfb-488d-9384-3525a3cdf0e7"},"vehicle_type_id":"4","last_reported":1726081576,"current_range_meters":25200,"station_id":"ce4bha92rcd13ifvqeh0","pricing_plan_id":"cebpf4jnsgd1na2vs0mg"},{"bike_id":"c3a84de0-e074-45d2-96a4-3ff17abba9fe","system_id":"levelo_inurba_marseille","lat":43.2408,"lon":5.3774,"is_reserved":false,"is_disabled":false,"rental_uris":{"android":"levelo://app?vid=c3a84de0-e074-45d2-96a4-3ff17abba9fe","ios":"levelo://app?vid=c3a84de0-e074-45d2-96a4-3ff17abba9fe"},"vehicle_type_id":"4","last_reported":1726081576,"current_range_meters":13600,"station_id":"ce4bhnp2rcd13ifvqgvg","pricing_plan_id":"cebpf4jnsgd1na2vs0mg"},{"bike_id":"98cf4cde-6837-4142-86ba-96f8e9f38668","system_id":"levelo_inurba_marseille","lat":43.31215,"lon":5.38968,"is_reserved":false,"is_disabled":false,"rental_uris":{"android":"levelo://app?vid=98cf4cde-6837-4142-86ba-96f8e9f38668","ios":"levelo://app?vid=98cf4cde-6837-4142-86ba-96f8e9f38668"},"vehicle_type_id":"4","last_reported":1726081576,"current_range_meters":28400,"station_id":"","pricing_plan_id":"cebpf4jnsgd1na2vs0mg"},{"bike_id":"c62bfb1c-0174-4256-a6d3-9b9b288f6ffb","system_id":"levelo_inurba_marseille","lat":43.25084,"lon":5.39526,"is_reserved":false,"is_disabled":false,"rental_uris":{"android":"levelo://app?vid=c62bfb1c-0174-4256-a6d3-9b9b288f6ffb","ios":"levelo://app?vid=c62bfb1c-0174-4256-a6d3-9b9b288f6ffb"},"vehicle_type_id":"4","last_reported":1726081576,"current_range_meters":8400,"station_id":"ce4bhm12rcd13ifvqgkg","pricing_plan_id":"cebpf4jnsgd1na2vs0mg"},{"bike_id":"7091707d-6995-4194-86ea-e7757fcf148e","system_id":"levelo_inurba_marseille","lat":43.29169,"lon":5.37156,"is_reserved":false,"is_disabled":false,"rental_uris":{"android":"levelo://app?vid=7091707d-6995-4194-86ea-e7757fcf148e","ios":"levelo://app?vid=7091707d-6995-4194-86ea-e7757fcf148e"},"vehicle_type_id":"4","last_reported":1726081576,"current_range_meters":17600,"station_id":"ce4bha92rcd13ifvqeh0","pricing_plan_id":"cebpf4jnsgd1na2vs0mg"},{"bike_id":"fc25188c-39a4-4abd-a640-0d29e140782f","system_id":"levelo_inurba_marseille","lat":43.29783,"lon":5.38092,"is_reserved":false,"is_disabled":false,"rental_uris":{"android":"levelo://app?vid=fc25188c-39a4-4abd-a640-0d29e140782f","ios":"levelo://app?vid=fc25188c-39a4-4abd-a640-0d29e140782f"},"vehicle_type_id":"4","last_reported":1726081576,"current_range_meters":4000,"station_id":"ce4bgip2rcd13ifvqbb0","pricing_plan_id":"cebpf4jnsgd1na2vs0mg"},{"bike_id":"0eeb4de0-fed0-4908-a175-5ca6c52e7139","system_id":"levelo_inurba_marseille","lat":43.2866,"lon":5.36366,"is_reserved":false,"is_disabled":false,"rental_uris":{"android":"levelo://app?vid=0eeb4de0-fed0-4908-a175-5ca6c52e7139","ios":"levelo://app?vid=0eeb4de0-fed0-4908-a175-5ca6c52e7139"},"vehicle_type_id":"4","last_reported":1726081576,"current_range_meters":19600,"station_id":"ce4bhah2rcd13ifvqej0","pricing_plan_id":"cebpf4jnsgd1na2vs0mg"},{"bike_id":"7f1ecfa9-3aad-41a5-a9a1-f8ebeb47a92c","system_id":"levelo_inurba_marseille","lat":43.29617,"lon":5.38117,"is_reserved":false,"is_disabled":false,"rental_uris":{"android":"levelo://app?vid=7f1ecfa9-3aad-41a5-a9a1-f8ebeb47a92c","ios":"levelo://app?vid=7f1ecfa9-3aad-41a5-a9a1-f8ebeb47a92c"},"vehicle_type_id":"4","last_reported":1726081576,"current_range_meters":10800,"station_id":"ce4bgl12rcd13ifvqbo0","pricing_plan_id":"cebpf4jnsgd1na2vs0mg"},{"bike_id":"23073baa-fe26-4adc-afc7-9673479f3c99","system_id":"levelo_inurba_marseille","lat":43.292578,"lon":5.366501,"is_reserved":false,"is_disabled":false,"rental_uris":{"android":"levelo://app?vid=23073baa-fe26-4adc-afc7-9673479f3c99","ios":"levelo://app?vid=23073baa-fe26-4adc-afc7-9673479f3c99"},"vehicle_type_id":"4","last_reported":1726081576,"current_range_meters":17200,"station_id":"ce4bhb92rcd13ifvqen0","pricing_plan_id":"cebpf4jnsgd1na2vs0mg"},{"bike_id":"399ac478-604a-4a4d-8571-c3f918ab8cde","system_id":"levelo_inurba_marseille","lat":43.262,"lon":5.37446,"is_reserved":false,"is_disabled":false,"rental_uris":{"android":"levelo://app?vid=399ac478-604a-4a4d-8571-c3f918ab8cde","ios":"levelo://app?vid=399ac478-604a-4a4d-8571-c3f918ab8cde"},"vehicle_type_id":"4","last_reported":1726081576,"current_range_meters":14000,"station_id":"ce4bhgp2rcd13ifvqfc0","pricing_plan_id":"cebpf4jnsgd1na2vs0mg"},{"bike_id":"dd6d94c7-f35e-4acc-863e-4063ec5abc48","system_id":"levelo_inurba_marseille","lat":43.32371,"lon":5.38858,"is_reserved":false,"is_disabled":false,"rental_uris":{"android":"levelo://app?vid=dd6d94c7-f35e-4acc-863e-4063ec5abc48","ios":"levelo://app?vid=dd6d94c7-f35e-4acc-863e-4063ec5abc48"},"vehicle_type_id":"4","last_reported":1726081576,"current_range_meters":38800,"station_id":"ce4bhqp2rcd13ifvqhog","pricing_plan_id":"cebpf4jnsgd1na2vs0mg"},{"bike_id":"0c1f3d16-03c2-41de-9934-de4d4bd447f7","system_id":"levelo_inurba_marseille","lat":43.299036,"lon":5.37571,"is_reserved":false,"is_disabled":false,"rental_uris":{"android":"levelo://app?vid=0c1f3d16-03c2-41de-9934-de4d4bd447f7","ios":"levelo://app?vid=0c1f3d16-03c2-41de-9934-de4d4bd447f7"},"vehicle_type_id":"4","last_reported":1726081576,"current_range_meters":20400,"station_id":"ce4bgjh2rcd13ifvqbg0","pricing_plan_id":"cebpf4jnsgd1na2vs0mg"},{"bike_id":"475e65ce-bb22-4865-866b-7eaebe51ea0f","system_id":"levelo_inurba_marseille","lat":43.28155,"lon":5.4265,"is_reserved":false,"is_disabled":false,"rental_uris":{"android":"levelo://app?vid=475e65ce-bb22-4865-866b-7eaebe51ea0f","ios":"levelo://app?vid=475e65ce-bb22-4865-866b-7eaebe51ea0f"},"vehicle_type_id":"4","last_reported":1726081576,"current_range_meters":3600,"station_id":"ce4bhnh2rcd13ifvqgug","pricing_plan_id":"cebpf4jnsgd1na2vs0mg"},{"bike_id":"fa6da0d2-ce69-4cdf-b203-50f88d459d9a","system_id":"levelo_inurba_marseille","lat":43.32652,"lon":5.41001,"is_reserved":false,"is_disabled":false,"rental_uris":{"android":"levelo://app?vid=fa6da0d2-ce69-4cdf-b203-50f88d459d9a","ios":"levelo://app?vid=fa6da0d2-ce69-4cdf-b203-50f88d459d9a"},"vehicle_type_id":"4","last_reported":1726081576,"current_range_meters":38800,"station_id":"ce4bhpp2rcd13ifvqhgg","pricing_plan_id":"cebpf4jnsgd1na2vs0mg"},{"bike_id":"57279865-f0a2-4516-9dd4-834f33bac6c4","system_id":"levelo_inurba_marseille","lat":43.29006,"lon":5.35615,"is_reserved":false,"is_disabled":false,"rental_uris":{"android":"levelo://app?vid=57279865-f0a2-4516-9dd4-834f33bac6c4","ios":"levelo://app?vid=57279865-f0a2-4516-9dd4-834f33bac6c4"},"vehicle_type_id":"4","last_reported":1726081576,"current_range_meters":39200,"station_id":"ce4bhb92rcd13ifvqen0","pricing_plan_id":"cebpf4jnsgd1na2vs0mg"},{"bike_id":"a36a6131-7175-4d21-afcf-16a3b952996a","system_id":"levelo_inurba_marseille","lat":43.30814,"lon":5.37671,"is_reserved":false,"is_disabled":false,"rental_uris":{"android":"levelo://app?vid=a36a6131-7175-4d21-afcf-16a3b952996a","ios":"levelo://app?vid=a36a6131-7175-4d21-afcf-16a3b952996a"},"vehicle_type_id":"4","last_reported":1726081576,"current_range_meters":8400,"station_id":"ce4bgv92rcd13ifvqcq0","pricing_plan_id":"cebpf4jnsgd1na2vs0mg"},{"bike_id":"eca14fe1-a019-466c-9fa1-1dd04c0391ea","system_id":"levelo_inurba_marseille","lat":43.29273,"lon":5.36844,"is_reserved":false,"is_disabled":false,"rental_uris":{"android":"levelo://app?vid=eca14fe1-a019-466c-9fa1-1dd04c0391ea","ios":"levelo://app?vid=eca14fe1-a019-466c-9fa1-1dd04c0391ea"},"vehicle_type_id":"4","last_reported":1726081576,"current_range_meters":26000,"station_id":"ce4bhbp2rcd13ifvqesg","pricing_plan_id":"cebpf4jnsgd1na2vs0mg"},{"bike_id":"e9cee468-d8ec-437a-b77c-2bb05679786e","system_id":"levelo_inurba_marseille","lat":43.28073,"lon":5.39648,"is_reserved":false,"is_disabled":false,"rental_uris":{"android":"levelo://app?vid=e9cee468-d8ec-437a-b77c-2bb05679786e","ios":"levelo://app?vid=e9cee468-d8ec-437a-b77c-2bb05679786e"},"vehicle_type_id":"4","last_reported":1726081576,"current_range_meters":7200,"station_id":"ce4bho12rcd13ifvqh2g","pricing_plan_id":"cebpf4jnsgd1na2vs0mg"},{"bike_id":"4d054315-278e-42f7-b519-f02930c01baa","system_id":"levelo_inurba_marseille","lat":43.29371,"lon":5.3785,"is_reserved":false,"is_disabled":false,"rental_uris":{"android":"levelo://app?vid=4d054315-278e-42f7-b519-f02930c01baa","ios":"levelo://app?vid=4d054315-278e-42f7-b519-f02930c01baa"},"vehicle_type_id":"4","last_reported":1726081576,"current_range_meters":12000,"station_id":"ce4bgjh2rcd13ifvqbf0","pricing_plan_id":"cebpf4jnsgd1na2vs0mg"},{"bike_id":"257df995-474c-489e-93e6-1898def2a181","system_id":"levelo_inurba_marseille","lat":43.31068,"lon":5.40099,"is_reserved":false,"is_disabled":false,"rental_uris":{"android":"levelo://app?vid=257df995-474c-489e-93e6-1898def2a181","ios":"levelo://app?vid=257df995-474c-489e-93e6-1898def2a181"},"vehicle_type_id":"4","last_reported":1726081576,"current_range_meters":14400,"station_id":"","pricing_plan_id":"cebpf4jnsgd1na2vs0mg"},{"bike_id":"ed6cff26-b9b3-4e7c-8d85-9c3ff22ba3be","system_id":"levelo_inurba_marseille","lat":43.27495,"lon":5.42454,"is_reserved":false,"is_disabled":false,"rental_uris":{"android":"levelo://app?vid=ed6cff26-b9b3-4e7c-8d85-9c3ff22ba3be","ios":"levelo://app?vid=ed6cff26-b9b3-4e7c-8d85-9c3ff22ba3be"},"vehicle_type_id":"4","last_reported":1726081576,"current_range_meters":14800,"station_id":"ce4bhn92rcd13ifvqgrg","pricing_plan_id":"cebpf4jnsgd1na2vs0mg"},{"bike_id":"521ac9eb-aeb3-4716-a5c7-40c1c5dfc1ab","system_id":"levelo_inurba_marseille","lat":43.28035,"lon":5.36947,"is_reserved":false,"is_disabled":false,"rental_uris":{"android":"levelo://app?vid=521ac9eb-aeb3-4716-a5c7-40c1c5dfc1ab","ios":"levelo://app?vid=521ac9eb-aeb3-4716-a5c7-40c1c5dfc1ab"},"vehicle_type_id":"4","last_reported":1726081576,"current_range_meters":28400,"station_id":"ce4bha12rcd13ifvqef0","pricing_plan_id":"cebpf4jnsgd1na2vs0mg"},{"bike_id":"f47b1677-9f6c-43f1-88b5-82b60d3a6b15","system_id":"levelo_inurba_marseille","lat":43.2919,"lon":5.35807,"is_reserved":false,"is_disabled":false,"rental_uris":{"android":"levelo://app?vid=f47b1677-9f6c-43f1-88b5-82b60d3a6b15","ios":"levelo://app?vid=f47b1677-9f6c-43f1-88b5-82b60d3a6b15"},"vehicle_type_id":"4","last_reported":1726081576,"current_range_meters":33600,"station_id":"ce4bhb12rcd13ifvqel0","pricing_plan_id":"cebpf4jnsgd1na2vs0mg"},{"bike_id":"ecca6509-f0ec-44bb-a9ea-81382cf67e4e","system_id":"levelo_inurba_marseille","lat":43.28849,"lon":5.35856,"is_reserved":false,"is_disabled":false,"rental_uris":{"android":"levelo://app?vid=ecca6509-f0ec-44bb-a9ea-81382cf67e4e","ios":"levelo://app?vid=ecca6509-f0ec-44bb-a9ea-81382cf67e4e"},"vehicle_type_id":"4","last_reported":1726081576,"current_range_meters":38800,"station_id":"ce4bhb12rcd13ifvqem0","pricing_plan_id":"cebpf4jnsgd1na2vs0mg"},{"bike_id":"003b1cc7-9136-4dfc-b9bf-1124dbe99a52","system_id":"levelo_inurba_marseille","lat":43.28858,"lon":5.39318,"is_reserved":false,"is_disabled":false,"rental_uris":{"android":"levelo://app?vid=003b1cc7-9136-4dfc-b9bf-1124dbe99a52","ios":"levelo://app?vid=003b1cc7-9136-4dfc-b9bf-1124dbe99a52"},"vehicle_type_id":"4","last_reported":1726081576,"current_range_meters":20000,"station_id":"ce4bh2p2rcd13ifvqdi0","pricing_plan_id":"cebpf4jnsgd1na2vs0mg"},{"bike_id":"ccf6bb97-220a-46f1-9a6e-c59384ed6b2b","system_id":"levelo_inurba_marseille","lat":43.29264,"lon":5.38437,"is_reserved":false,"is_disabled":false,"rental_uris":{"android":"levelo://app?vid=ccf6bb97-220a-46f1-9a6e-c59384ed6b2b","ios":"levelo://app?vid=ccf6bb97-220a-46f1-9a6e-c59384ed6b2b"},"vehicle_type_id":"4","last_reported":1726081576,"current_range_meters":38800,"station_id":"ce4bh692rcd13ifvqea0","pricing_plan_id":"cebpf4jnsgd1na2vs0mg"},{"bike_id":"28ecc454-85cf-4381-ae43-36b68d2a49c4","system_id":"levelo_inurba_marseille","lat":43.29527,"lon":5.38539,"is_reserved":false,"is_disabled":false,"rental_uris":{"android":"levelo://app?vid=28ecc454-85cf-4381-ae43-36b68d2a49c4","ios":"levelo://app?vid=28ecc454-85cf-4381-ae43-36b68d2a49c4"},"vehicle_type_id":"4","last_reported":1726081576,"current_range_meters":39200,"station_id":"ce4bgih2rcd13ifvqba0","pricing_plan_id":"cebpf4jnsgd1na2vs0mg"},{"bike_id":"60f34909-e7a5-4335-9114-1384dcbe1055","system_id":"levelo_inurba_marseille","lat":43.29864,"lon":5.39739,"is_reserved":false,"is_disabled":false,"rental_uris":{"android":"levelo://app?vid=60f34909-e7a5-4335-9114-1384dcbe1055","ios":"levelo://app?vid=60f34909-e7a5-4335-9114-1384dcbe1055"},"vehicle_type_id":"4","last_reported":1726081576,"current_range_meters":4000,"station_id":"ce4bh0h2rcd13ifvqd50","pricing_plan_id":"cebpf4jnsgd1na2vs0mg"},{"bike_id":"ca33d2bf-c9f2-4944-aec8-d1b6204ec37b","system_id":"levelo_inurba_marseille","lat":43.29546,"lon":5.42288,"is_reserved":false,"is_disabled":false,"rental_uris":{"android":"levelo://app?vid=ca33d2bf-c9f2-4944-aec8-d1b6204ec37b","ios":"levelo://app?vid=ca33d2bf-c9f2-4944-aec8-d1b6204ec37b"},"vehicle_type_id":"4","last_reported":1726081576,"current_range_meters":26000,"station_id":"ce4bhph2rcd13ifvqhdg","pricing_plan_id":"cebpf4jnsgd1na2vs0mg"},{"bike_id":"fe4ab699-c2ae-4ec0-9f93-db3d0ce81184","system_id":"levelo_inurba_marseille","lat":43.29197,"lon":5.358,"is_reserved":false,"is_disabled":false,"rental_uris":{"android":"levelo://app?vid=fe4ab699-c2ae-4ec0-9f93-db3d0ce81184","ios":"levelo://app?vid=fe4ab699-c2ae-4ec0-9f93-db3d0ce81184"},"vehicle_type_id":"4","last_reported":1726081576,"current_range_meters":38800,"station_id":"ce4bhb12rcd13ifvqel0","pricing_plan_id":"cebpf4jnsgd1na2vs0mg"},{"bike_id":"1f7d7368-a781-4eff-8dc8-da2f039f0595","system_id":"levelo_inurba_marseille","lat":43.259088,"lon":5.398746,"is_reserved":false,"is_disabled":false,"rental_uris":{"android":"levelo://app?vid=1f7d7368-a781-4eff-8dc8-da2f039f0595","ios":"levelo://app?vid=1f7d7368-a781-4eff-8dc8-da2f039f0595"},"vehicle_type_id":"4","last_reported":1726081576,"current_range_meters":28800,"station_id":"ce4bhl92rcd13ifvqghg","pricing_plan_id":"cebpf4jnsgd1na2vs0mg"},{"bike_id":"29838bd8-4cbb-4929-a9b4-8758b0f06e74","system_id":"levelo_inurba_marseille","lat":43.2927,"lon":5.38451,"is_reserved":false,"is_disabled":false,"rental_uris":{"android":"levelo://app?vid=29838bd8-4cbb-4929-a9b4-8758b0f06e74","ios":"levelo://app?vid=29838bd8-4cbb-4929-a9b4-8758b0f06e74"},"vehicle_type_id":"4","last_reported":1726081576,"current_range_meters":4000,"station_id":"ce4bh692rcd13ifvqea0","pricing_plan_id":"cebpf4jnsgd1na2vs0mg"},{"bike_id":"cbccffca-fad5-48ed-b993-98702f1e3c32","system_id":"levelo_inurba_marseille","lat":43.30319,"lon":5.40433,"is_reserved":false,"is_disabled":false,"rental_uris":{"android":"levelo://app?vid=cbccffca-fad5-48ed-b993-98702f1e3c32","ios":"levelo://app?vid=cbccffca-fad5-48ed-b993-98702f1e3c32"},"vehicle_type_id":"4","last_reported":1726081576,"current_range_meters":25600,"station_id":"ce4bh012rcd13ifvqd10","pricing_plan_id":"cebpf4jnsgd1na2vs0mg"},{"bike_id":"b7d80a4a-02c8-45b6-926f-d5ccf7f3a797","system_id":"levelo_inurba_marseille","lat":43.29523,"lon":5.38537,"is_reserved":false,"is_disabled":false,"rental_uris":{"android":"levelo://app?vid=b7d80a4a-02c8-45b6-926f-d5ccf7f3a797","ios":"levelo://app?vid=b7d80a4a-02c8-45b6-926f-d5ccf7f3a797"},"vehicle_type_id":"4","last_reported":1726081576,"current_range_meters":22000,"station_id":"","pricing_plan_id":"cebpf4jnsgd1na2vs0mg"},{"bike_id":"4cf868cb-673f-46a3-ab0b-19bafdd95b2e","system_id":"levelo_inurba_marseille","lat":43.29513,"lon":5.39038,"is_reserved":false,"is_disabled":false,"rental_uris":{"android":"levelo://app?vid=4cf868cb-673f-46a3-ab0b-19bafdd95b2e","ios":"levelo://app?vid=4cf868cb-673f-46a3-ab0b-19bafdd95b2e"},"vehicle_type_id":"4","last_reported":1726081576,"current_range_meters":20800,"station_id":"ce4bh3p2rcd13ifvqdp0","pricing_plan_id":"cebpf4jnsgd1na2vs0mg"},{"bike_id":"8e06870f-59b1-4019-8c4e-0fd97a649554","system_id":"levelo_inurba_marseille","lat":43.28002,"lon":5.40011,"is_reserved":false,"is_disabled":false,"rental_uris":{"android":"levelo://app?vid=8e06870f-59b1-4019-8c4e-0fd97a649554","ios":"levelo://app?vid=8e06870f-59b1-4019-8c4e-0fd97a649554"},"vehicle_type_id":"4","last_reported":1726081576,"current_range_meters":14000,"station_id":"ce4bho92rcd13ifvqh4g","pricing_plan_id":"cebpf4jnsgd1na2vs0mg"},{"bike_id":"c645e559-1e2a-423b-b35a-535a5f50e58e","system_id":"levelo_inurba_marseille","lat":43.31264,"lon":5.40181,"is_reserved":false,"is_disabled":false,"rental_uris":{"android":"levelo://app?vid=c645e559-1e2a-423b-b35a-535a5f50e58e","ios":"levelo://app?vid=c645e559-1e2a-423b-b35a-535a5f50e58e"},"vehicle_type_id":"4","last_reported":1726081576,"current_range_meters":11200,"station_id":"ce4bh092rcd13ifvqd30","pricing_plan_id":"cebpf4jnsgd1na2vs0mg"},{"bike_id":"c3baa9f4-1a80-441e-aae4-6876a6aba553","system_id":"levelo_inurba_marseille","lat":43.32289,"lon":5.38263,"is_reserved":false,"is_disabled":false,"rental_uris":{"android":"levelo://app?vid=c3baa9f4-1a80-441e-aae4-6876a6aba553","ios":"levelo://app?vid=c3baa9f4-1a80-441e-aae4-6876a6aba553"},"vehicle_type_id":"4","last_reported":1726081576,"current_range_meters":38800,"station_id":"ce4bhr12rcd13ifvqhqg","pricing_plan_id":"cebpf4jnsgd1na2vs0mg"},{"bike_id":"ffdfe252-ccc5-4a14-ab97-266e217d230c","system_id":"levelo_inurba_marseille","lat":43.30419,"lon":5.41291,"is_reserved":false,"is_disabled":false,"rental_uris":{"android":"levelo://app?vid=ffdfe252-ccc5-4a14-ab97-266e217d230c","ios":"levelo://app?vid=ffdfe252-ccc5-4a14-ab97-266e217d230c"},"vehicle_type_id":"4","last_reported":1726081576,"current_range_meters":30000,"station_id":"ce4bhop2rcd13ifvqh8g","pricing_plan_id":"cebpf4jnsgd1na2vs0mg"},{"bike_id":"ae342137-c609-49f2-acd6-ff84fa561c5d","system_id":"levelo_inurba_marseille","lat":43.30426,"lon":5.38888,"is_reserved":false,"is_disabled":false,"rental_uris":{"android":"levelo://app?vid=ae342137-c609-49f2-acd6-ff84fa561c5d","ios":"levelo://app?vid=ae342137-c609-49f2-acd6-ff84fa561c5d"},"vehicle_type_id":"4","last_reported":1726081576,"current_range_meters":6800,"station_id":"ce4bgk12rcd13ifvqbi0","pricing_plan_id":"cebpf4jnsgd1na2vs0mg"},{"bike_id":"eb4ca083-3e2d-4224-8207-769731de10da","system_id":"levelo_inurba_marseille","lat":43.28716,"lon":5.37943,"is_reserved":false,"is_disabled":false,"rental_uris":{"android":"levelo://app?vid=eb4ca083-3e2d-4224-8207-769731de10da","ios":"levelo://app?vid=eb4ca083-3e2d-4224-8207-769731de10da"},"vehicle_type_id":"4","last_reported":1726081576,"current_range_meters":38800,"station_id":"ce4bh9p2rcd13ifvqec0","pricing_plan_id":"cebpf4jnsgd1na2vs0mg"},{"bike_id":"33cace80-ffa6-4ed8-b8a4-2845bd53ea18","system_id":"levelo_inurba_marseille","lat":43.27945,"lon":5.41045,"is_reserved":false,"is_disabled":false,"rental_uris":{"android":"levelo://app?vid=33cace80-ffa6-4ed8-b8a4-2845bd53ea18","ios":"levelo://app?vid=33cace80-ffa6-4ed8-b8a4-2845bd53ea18"},"vehicle_type_id":"4","last_reported":1726081576,"current_range_meters":3600,"station_id":"ce4bhnp2rcd13ifvqh0g","pricing_plan_id":"cebpf4jnsgd1na2vs0mg"},{"bike_id":"ff8bf072-6b7b-4853-9b61-024626825c1c","system_id":"levelo_inurba_marseille","lat":43.29602,"lon":5.38119,"is_reserved":false,"is_disabled":false,"rental_uris":{"android":"levelo://app?vid=ff8bf072-6b7b-4853-9b61-024626825c1c","ios":"levelo://app?vid=ff8bf072-6b7b-4853-9b61-024626825c1c"},"vehicle_type_id":"4","last_reported":1726081576,"current_range_meters":39200,"station_id":"ce4bgl12rcd13ifvqbo0","pricing_plan_id":"cebpf4jnsgd1na2vs0mg"},{"bike_id":"31e0006f-38a6-497c-8eef-28afa9fd2fca","system_id":"levelo_inurba_marseille","lat":43.29024,"lon":5.37562,"is_reserved":false,"is_disabled":false,"rental_uris":{"android":"levelo://app?vid=31e0006f-38a6-497c-8eef-28afa9fd2fca","ios":"levelo://app?vid=31e0006f-38a6-497c-8eef-28afa9fd2fca"},"vehicle_type_id":"4","last_reported":1726081576,"current_range_meters":39200,"station_id":"ce4bh692rcd13ifvqe90","pricing_plan_id":"cebpf4jnsgd1na2vs0mg"},{"bike_id":"49f0cea4-0edc-445c-aab9-da923325b82d","system_id":"levelo_inurba_marseille","lat":43.3254,"lon":5.41438,"is_reserved":false,"is_disabled":false,"rental_uris":{"android":"levelo://app?vid=49f0cea4-0edc-445c-aab9-da923325b82d","ios":"levelo://app?vid=49f0cea4-0edc-445c-aab9-da923325b82d"},"vehicle_type_id":"4","last_reported":1726081576,"current_range_meters":17200,"station_id":"ce4bhq12rcd13ifvqhhg","pricing_plan_id":"cebpf4jnsgd1na2vs0mg"},{"bike_id":"a4490fa0-8849-4142-9a49-507ac7ab2930","system_id":"levelo_inurba_marseille","lat":43.29408,"lon":5.3863,"is_reserved":false,"is_disabled":false,"rental_uris":{"android":"levelo://app?vid=a4490fa0-8849-4142-9a49-507ac7ab2930","ios":"levelo://app?vid=a4490fa0-8849-4142-9a49-507ac7ab2930"},"vehicle_type_id":"4","last_reported":1726081576,"current_range_meters":32000,"station_id":"ce4bh2h2rcd13ifvqdh0","pricing_plan_id":"cebpf4jnsgd1na2vs0mg"},{"bike_id":"cf556c10-8298-4e7b-996a-26eaad4467f9","system_id":"levelo_inurba_marseille","lat":43.30649,"lon":5.40102,"is_reserved":false,"is_disabled":false,"rental_uris":{"android":"levelo://app?vid=cf556c10-8298-4e7b-996a-26eaad4467f9","ios":"levelo://app?vid=cf556c10-8298-4e7b-996a-26eaad4467f9"},"vehicle_type_id":"4","last_reported":1726081576,"current_range_meters":20800,"station_id":"ce4bh112rcd13ifvqda0","pricing_plan_id":"cebpf4jnsgd1na2vs0mg"},{"bike_id":"1c05497f-f70f-4638-a673-c0589d478cfa","system_id":"levelo_inurba_marseille","lat":43.29305,"lon":5.37163,"is_reserved":false,"is_disabled":false,"rental_uris":{"android":"levelo://app?vid=1c05497f-f70f-4638-a673-c0589d478cfa","ios":"levelo://app?vid=1c05497f-f70f-4638-a673-c0589d478cfa"},"vehicle_type_id":"4","last_reported":1726081576,"current_range_meters":6400,"station_id":"ce4bgh92rcd13ifvqb40","pricing_plan_id":"cebpf4jnsgd1na2vs0mg"},{"bike_id":"f657fd88-6956-4b9e-987b-07745f983ac4","system_id":"levelo_inurba_marseille","lat":43.28853,"lon":5.35843,"is_reserved":false,"is_disabled":false,"rental_uris":{"android":"levelo://app?vid=f657fd88-6956-4b9e-987b-07745f983ac4","ios":"levelo://app?vid=f657fd88-6956-4b9e-987b-07745f983ac4"},"vehicle_type_id":"4","last_reported":1726081576,"current_range_meters":28800,"station_id":"ce4bhb12rcd13ifvqem0","pricing_plan_id":"cebpf4jnsgd1na2vs0mg"},{"bike_id":"92675b8e-66c8-4168-873d-70d65424518b","system_id":"levelo_inurba_marseille","lat":43.25005,"lon":5.38922,"is_reserved":false,"is_disabled":false,"rental_uris":{"android":"levelo://app?vid=92675b8e-66c8-4168-873d-70d65424518b","ios":"levelo://app?vid=92675b8e-66c8-4168-873d-70d65424518b"},"vehicle_type_id":"4","last_reported":1726081576,"current_range_meters":10800,"station_id":"ce4bhgp2rcd13ifvqfd0","pricing_plan_id":"cebpf4jnsgd1na2vs0mg"},{"bike_id":"1218d328-fdf6-45d1-9541-091fda7f65d0","system_id":"levelo_inurba_marseille","lat":43.30881,"lon":5.39641,"is_reserved":false,"is_disabled":false,"rental_uris":{"android":"levelo://app?vid=1218d328-fdf6-45d1-9541-091fda7f65d0","ios":"levelo://app?vid=1218d328-fdf6-45d1-9541-091fda7f65d0"},"vehicle_type_id":"4","last_reported":1726081576,"current_range_meters":8400,"station_id":"ce4bh012rcd13ifvqcv0","pricing_plan_id":"cebpf4jnsgd1na2vs0mg"},{"bike_id":"ca75c7a6-cabe-4c89-8d49-64873ab319b0","system_id":"levelo_inurba_marseille","lat":43.296,"lon":5.38087,"is_reserved":false,"is_disabled":false,"rental_uris":{"android":"levelo://app?vid=ca75c7a6-cabe-4c89-8d49-64873ab319b0","ios":"levelo://app?vid=ca75c7a6-cabe-4c89-8d49-64873ab319b0"},"vehicle_type_id":"4","last_reported":1726081576,"current_range_meters":1200,"station_id":"ce4bgl12rcd13ifvqbo0","pricing_plan_id":"cebpf4jnsgd1na2vs0mg"},{"bike_id":"661e1689-1569-4281-9515-d3f5f8fda053","system_id":"levelo_inurba_marseille","lat":43.257214,"lon":5.410989,"is_reserved":false,"is_disabled":false,"rental_uris":{"android":"levelo://app?vid=661e1689-1569-4281-9515-d3f5f8fda053","ios":"levelo://app?vid=661e1689-1569-4281-9515-d3f5f8fda053"},"vehicle_type_id":"4","last_reported":1726081576,"current_range_meters":4400,"station_id":"ce4bhkp2rcd13ifvqgd0","pricing_plan_id":"cebpf4jnsgd1na2vs0mg"},{"bike_id":"373ed902-180b-432e-82ef-e62ddd478077","system_id":"levelo_inurba_marseille","lat":43.29272,"lon":5.36854,"is_reserved":false,"is_disabled":false,"rental_uris":{"android":"levelo://app?vid=373ed902-180b-432e-82ef-e62ddd478077","ios":"levelo://app?vid=373ed902-180b-432e-82ef-e62ddd478077"},"vehicle_type_id":"4","last_reported":1726081576,"current_range_meters":33600,"station_id":"ce4bhbp2rcd13ifvqesg","pricing_plan_id":"cebpf4jnsgd1na2vs0mg"},{"bike_id":"e42b3d56-7263-480f-8178-f4d0fc73f303","system_id":"levelo_inurba_marseille","lat":43.28848,"lon":5.39316,"is_reserved":false,"is_disabled":false,"rental_uris":{"android":"levelo://app?vid=e42b3d56-7263-480f-8178-f4d0fc73f303","ios":"levelo://app?vid=e42b3d56-7263-480f-8178-f4d0fc73f303"},"vehicle_type_id":"4","last_reported":1726081576,"current_range_meters":19200,"station_id":"ce4bh2p2rcd13ifvqdi0","pricing_plan_id":"cebpf4jnsgd1na2vs0mg"},{"bike_id":"c61e69cf-4f70-430c-86d1-9e3fc9354735","system_id":"levelo_inurba_marseille","lat":43.29522,"lon":5.38533,"is_reserved":false,"is_disabled":false,"rental_uris":{"android":"levelo://app?vid=c61e69cf-4f70-430c-86d1-9e3fc9354735","ios":"levelo://app?vid=c61e69cf-4f70-430c-86d1-9e3fc9354735"},"vehicle_type_id":"4","last_reported":1726081576,"current_range_meters":38800,"station_id":"ce4bgih2rcd13ifvqba0","pricing_plan_id":"cebpf4jnsgd1na2vs0mg"},{"bike_id":"07f2fbb7-f8b6-460d-8cf7-341c264fb369","system_id":"levelo_inurba_marseille","lat":43.28848,"lon":5.39302,"is_reserved":false,"is_disabled":false,"rental_uris":{"android":"levelo://app?vid=07f2fbb7-f8b6-460d-8cf7-341c264fb369","ios":"levelo://app?vid=07f2fbb7-f8b6-460d-8cf7-341c264fb369"},"vehicle_type_id":"4","last_reported":1726081576,"current_range_meters":13600,"station_id":"ce4bh2p2rcd13ifvqdi0","pricing_plan_id":"cebpf4jnsgd1na2vs0mg"},{"bike_id":"badf5163-6f5b-491f-93c3-589959ed647e","system_id":"levelo_inurba_marseille","lat":43.2768,"lon":5.38873,"is_reserved":false,"is_disabled":false,"rental_uris":{"android":"levelo://app?vid=badf5163-6f5b-491f-93c3-589959ed647e","ios":"levelo://app?vid=badf5163-6f5b-491f-93c3-589959ed647e"},"vehicle_type_id":"4","last_reported":1726081576,"current_range_meters":14400,"station_id":"ce4bhi12rcd13ifvqfo0","pricing_plan_id":"cebpf4jnsgd1na2vs0mg"},{"bike_id":"57e3657d-c929-4eec-a6f1-6c3ca93323c6","system_id":"levelo_inurba_marseille","lat":43.28699,"lon":5.39988,"is_reserved":false,"is_disabled":false,"rental_uris":{"android":"levelo://app?vid=57e3657d-c929-4eec-a6f1-6c3ca93323c6","ios":"levelo://app?vid=57e3657d-c929-4eec-a6f1-6c3ca93323c6"},"vehicle_type_id":"4","last_reported":1726081576,"current_range_meters":33200,"station_id":"ce4bho92rcd13ifvqh3g","pricing_plan_id":"cebpf4jnsgd1na2vs0mg"},{"bike_id":"ea8f8865-81dc-4aae-88e1-b7b41659d01b","system_id":"levelo_inurba_marseille","lat":43.295281,"lon":5.385406,"is_reserved":false,"is_disabled":false,"rental_uris":{"android":"levelo://app?vid=ea8f8865-81dc-4aae-88e1-b7b41659d01b","ios":"levelo://app?vid=ea8f8865-81dc-4aae-88e1-b7b41659d01b"},"vehicle_type_id":"4","last_reported":1726081576,"current_range_meters":36800,"station_id":"ce4bh092rcd13ifvqd20","pricing_plan_id":"cebpf4jnsgd1na2vs0mg"},{"bike_id":"93323f62-227d-4360-9df3-2e5b3fdf1fba","system_id":"levelo_inurba_marseille","lat":43.283447,"lon":5.382188,"is_reserved":false,"is_disabled":false,"rental_uris":{"android":"levelo://app?vid=93323f62-227d-4360-9df3-2e5b3fdf1fba","ios":"levelo://app?vid=93323f62-227d-4360-9df3-2e5b3fdf1fba"},"vehicle_type_id":"4","last_reported":1726081576,"current_range_meters":36400,"station_id":"ce4bh612rcd13ifvqe6g","pricing_plan_id":"cebpf4jnsgd1na2vs0mg"},{"bike_id":"f67f6f2d-2a1d-4a47-b16c-fbcff4218b90","system_id":"levelo_inurba_marseille","lat":43.26566,"lon":5.39024,"is_reserved":false,"is_disabled":false,"rental_uris":{"android":"levelo://app?vid=f67f6f2d-2a1d-4a47-b16c-fbcff4218b90","ios":"levelo://app?vid=f67f6f2d-2a1d-4a47-b16c-fbcff4218b90"},"vehicle_type_id":"4","last_reported":1726081576,"current_range_meters":39200,"station_id":"ce4bhe12rcd13ifvqf30","pricing_plan_id":"cebpf4jnsgd1na2vs0mg"},{"bike_id":"b5c3f6f7-1eff-44cb-b997-88c9c89662ca","system_id":"levelo_inurba_marseille","lat":43.29596,"lon":5.38099,"is_reserved":false,"is_disabled":false,"rental_uris":{"android":"levelo://app?vid=b5c3f6f7-1eff-44cb-b997-88c9c89662ca","ios":"levelo://app?vid=b5c3f6f7-1eff-44cb-b997-88c9c89662ca"},"vehicle_type_id":"4","last_reported":1726081576,"current_range_meters":9600,"station_id":"ce4bgl12rcd13ifvqbo0","pricing_plan_id":"cebpf4jnsgd1na2vs0mg"},{"bike_id":"25d29fcc-1ea5-43f8-a10d-b2f0737d4ae8","system_id":"levelo_inurba_marseille","lat":43.290055,"lon":5.356224,"is_reserved":false,"is_disabled":false,"rental_uris":{"android":"levelo://app?vid=25d29fcc-1ea5-43f8-a10d-b2f0737d4ae8","ios":"levelo://app?vid=25d29fcc-1ea5-43f8-a10d-b2f0737d4ae8"},"vehicle_type_id":"4","last_reported":1726081576,"current_range_meters":16800,"station_id":"ce4bhb92rcd13ifvqen0","pricing_plan_id":"cebpf4jnsgd1na2vs0mg"},{"bike_id":"b7a68706-76bc-47c0-b414-6f588fbc30c5","system_id":"levelo_inurba_marseille","lat":43.31722,"lon":5.42406,"is_reserved":false,"is_disabled":false,"rental_uris":{"android":"levelo://app?vid=b7a68706-76bc-47c0-b414-6f588fbc30c5","ios":"levelo://app?vid=b7a68706-76bc-47c0-b414-6f588fbc30c5"},"vehicle_type_id":"4","last_reported":1726081576,"current_range_meters":9200,"station_id":"ce4bhp92rcd13ifvqhbg","pricing_plan_id":"cebpf4jnsgd1na2vs0mg"},{"bike_id":"9e0c680d-e6b9-4adc-9887-4975dbf51c18","system_id":"levelo_inurba_marseille","lat":43.31483,"lon":5.37311,"is_reserved":false,"is_disabled":false,"rental_uris":{"android":"levelo://app?vid=9e0c680d-e6b9-4adc-9887-4975dbf51c18","ios":"levelo://app?vid=9e0c680d-e6b9-4adc-9887-4975dbf51c18"},"vehicle_type_id":"4","last_reported":1726081576,"current_range_meters":32400,"station_id":"ce4bgt12rcd13ifvqcd0","pricing_plan_id":"cebpf4jnsgd1na2vs0mg"},{"bike_id":"23dd40db-11b2-4466-ac94-32064395d882","system_id":"levelo_inurba_marseille","lat":43.30425,"lon":5.3889,"is_reserved":false,"is_disabled":false,"rental_uris":{"android":"levelo://app?vid=23dd40db-11b2-4466-ac94-32064395d882","ios":"levelo://app?vid=23dd40db-11b2-4466-ac94-32064395d882"},"vehicle_type_id":"4","last_reported":1726081576,"current_range_meters":12800,"station_id":"ce4bgk12rcd13ifvqbi0","pricing_plan_id":"cebpf4jnsgd1na2vs0mg"},{"bike_id":"88fd0741-25f8-4923-8756-1ae911492f6a","system_id":"levelo_inurba_marseille","lat":43.29,"lon":5.3562,"is_reserved":false,"is_disabled":false,"rental_uris":{"android":"levelo://app?vid=88fd0741-25f8-4923-8756-1ae911492f6a","ios":"levelo://app?vid=88fd0741-25f8-4923-8756-1ae911492f6a"},"vehicle_type_id":"4","last_reported":1726081576,"current_range_meters":36400,"station_id":"ce4bhb92rcd13ifvqen0","pricing_plan_id":"cebpf4jnsgd1na2vs0mg"},{"bike_id":"aa3afafb-f796-49ba-8467-7ebe5953994d","system_id":"levelo_inurba_marseille","lat":43.29417,"lon":5.38634,"is_reserved":false,"is_disabled":false,"rental_uris":{"android":"levelo://app?vid=aa3afafb-f796-49ba-8467-7ebe5953994d","ios":"levelo://app?vid=aa3afafb-f796-49ba-8467-7ebe5953994d"},"vehicle_type_id":"4","last_reported":1726081576,"current_range_meters":5600,"station_id":"ce4bh2h2rcd13ifvqdh0","pricing_plan_id":"cebpf4jnsgd1na2vs0mg"},{"bike_id":"bd54f45c-ee79-46cf-b4c1-c934e5dec5e4","system_id":"levelo_inurba_marseille","lat":43.25817,"lon":5.39434,"is_reserved":false,"is_disabled":false,"rental_uris":{"android":"levelo://app?vid=bd54f45c-ee79-46cf-b4c1-c934e5dec5e4","ios":"levelo://app?vid=bd54f45c-ee79-46cf-b4c1-c934e5dec5e4"},"vehicle_type_id":"4","last_reported":1726081576,"current_range_meters":38800,"station_id":"ce4bhip2rcd13ifvqft0","pricing_plan_id":"cebpf4jnsgd1na2vs0mg"},{"bike_id":"1313402d-e00d-4778-873f-b9c505bf9a45","system_id":"levelo_inurba_marseille","lat":43.295532,"lon":5.422955,"is_reserved":false,"is_disabled":false,"rental_uris":{"android":"levelo://app?vid=1313402d-e00d-4778-873f-b9c505bf9a45","ios":"levelo://app?vid=1313402d-e00d-4778-873f-b9c505bf9a45"},"vehicle_type_id":"4","last_reported":1726081576,"current_range_meters":30400,"station_id":"ce4bhph2rcd13ifvqhdg","pricing_plan_id":"cebpf4jnsgd1na2vs0mg"},{"bike_id":"7388bcdf-c056-430d-a30d-fc38727e4671","system_id":"levelo_inurba_marseille","lat":43.31529,"lon":5.3803,"is_reserved":false,"is_disabled":false,"rental_uris":{"android":"levelo://app?vid=7388bcdf-c056-430d-a30d-fc38727e4671","ios":"levelo://app?vid=7388bcdf-c056-430d-a30d-fc38727e4671"},"vehicle_type_id":"4","last_reported":1726081576,"current_range_meters":10800,"station_id":"ce4bhsp2rcd13ifvqi50","pricing_plan_id":"cebpf4jnsgd1na2vs0mg"},{"bike_id":"aa265efd-80e1-45bf-95d6-7589b10639c4","system_id":"levelo_inurba_marseille","lat":43.30641,"lon":5.40101,"is_reserved":false,"is_disabled":false,"rental_uris":{"android":"levelo://app?vid=aa265efd-80e1-45bf-95d6-7589b10639c4","ios":"levelo://app?vid=aa265efd-80e1-45bf-95d6-7589b10639c4"},"vehicle_type_id":"4","last_reported":1726081576,"current_range_meters":22800,"station_id":"ce4bh112rcd13ifvqda0","pricing_plan_id":"cebpf4jnsgd1na2vs0mg"},{"bike_id":"a364fb1e-4008-40c3-a4d5-ed3a9dfacaa6","system_id":"levelo_inurba_marseille","lat":43.24387,"lon":5.37061,"is_reserved":false,"is_disabled":false,"rental_uris":{"android":"levelo://app?vid=a364fb1e-4008-40c3-a4d5-ed3a9dfacaa6","ios":"levelo://app?vid=a364fb1e-4008-40c3-a4d5-ed3a9dfacaa6"},"vehicle_type_id":"4","last_reported":1726081576,"current_range_meters":12800,"station_id":"ce4bhhh2rcd13ifvqfk0","pricing_plan_id":"cebpf4jnsgd1na2vs0mg"},{"bike_id":"732a2560-5687-44cf-91e4-2bd0f3001508","system_id":"levelo_inurba_marseille","lat":43.2837,"lon":5.38638,"is_reserved":false,"is_disabled":false,"rental_uris":{"android":"levelo://app?vid=732a2560-5687-44cf-91e4-2bd0f3001508","ios":"levelo://app?vid=732a2560-5687-44cf-91e4-2bd0f3001508"},"vehicle_type_id":"4","last_reported":1726081576,"current_range_meters":20800,"station_id":"ce4bh492rcd13ifvqdvg","pricing_plan_id":"cebpf4jnsgd1na2vs0mg"},{"bike_id":"75bc3ad1-dc8d-4ab7-9440-43d158fd5daa","system_id":"levelo_inurba_marseille","lat":43.25722,"lon":5.41106,"is_reserved":false,"is_disabled":false,"rental_uris":{"android":"levelo://app?vid=75bc3ad1-dc8d-4ab7-9440-43d158fd5daa","ios":"levelo://app?vid=75bc3ad1-dc8d-4ab7-9440-43d158fd5daa"},"vehicle_type_id":"4","last_reported":1726081576,"current_range_meters":2000,"station_id":"ce4bhkp2rcd13ifvqgd0","pricing_plan_id":"cebpf4jnsgd1na2vs0mg"},{"bike_id":"729f692d-02cf-40a7-81c2-6c7c7fd098f7","system_id":"levelo_inurba_marseille","lat":43.27917,"lon":5.39585,"is_reserved":false,"is_disabled":false,"rental_uris":{"android":"levelo://app?vid=729f692d-02cf-40a7-81c2-6c7c7fd098f7","ios":"levelo://app?vid=729f692d-02cf-40a7-81c2-6c7c7fd098f7"},"vehicle_type_id":"4","last_reported":1726081576,"current_range_meters":28000,"station_id":"ce4bhf92rcd13ifvqf40","pricing_plan_id":"cebpf4jnsgd1na2vs0mg"},{"bike_id":"4d0e7f8d-5b6e-446e-b36d-6fb15c03aaae","system_id":"levelo_inurba_marseille","lat":43.26567,"lon":5.39021,"is_reserved":false,"is_disabled":false,"rental_uris":{"android":"levelo://app?vid=4d0e7f8d-5b6e-446e-b36d-6fb15c03aaae","ios":"levelo://app?vid=4d0e7f8d-5b6e-446e-b36d-6fb15c03aaae"},"vehicle_type_id":"4","last_reported":1726081576,"current_range_meters":36000,"station_id":"ce4bhe12rcd13ifvqf30","pricing_plan_id":"cebpf4jnsgd1na2vs0mg"},{"bike_id":"26bdf112-85d1-4cd1-8309-0f9f4d429c52","system_id":"levelo_inurba_marseille","lat":43.25104,"lon":5.40327,"is_reserved":false,"is_disabled":false,"rental_uris":{"android":"levelo://app?vid=26bdf112-85d1-4cd1-8309-0f9f4d429c52","ios":"levelo://app?vid=26bdf112-85d1-4cd1-8309-0f9f4d429c52"},"vehicle_type_id":"4","last_reported":1726081576,"current_range_meters":8000,"station_id":"ce4bhlh2rcd13ifvqgig","pricing_plan_id":"cebpf4jnsgd1na2vs0mg"},{"bike_id":"7febc141-5a04-4a2c-a79e-f05574b041f1","system_id":"levelo_inurba_marseille","lat":43.24659,"lon":5.38163,"is_reserved":false,"is_disabled":false,"rental_uris":{"android":"levelo://app?vid=7febc141-5a04-4a2c-a79e-f05574b041f1","ios":"levelo://app?vid=7febc141-5a04-4a2c-a79e-f05574b041f1"},"vehicle_type_id":"4","last_reported":1726081576,"current_range_meters":30400,"station_id":"ce4bhih2rcd13ifvqfr0","pricing_plan_id":"cebpf4jnsgd1na2vs0mg"},{"bike_id":"88931b83-42b2-423d-af14-f3387fd5ea31","system_id":"levelo_inurba_marseille","lat":43.28153,"lon":5.42645,"is_reserved":false,"is_disabled":false,"rental_uris":{"android":"levelo://app?vid=88931b83-42b2-423d-af14-f3387fd5ea31","ios":"levelo://app?vid=88931b83-42b2-423d-af14-f3387fd5ea31"},"vehicle_type_id":"4","last_reported":1726081576,"current_range_meters":12800,"station_id":"ce4bhnh2rcd13ifvqgug","pricing_plan_id":"cebpf4jnsgd1na2vs0mg"},{"bike_id":"f637ee6a-dfdd-40cc-8bc0-e4529d672da7","system_id":"levelo_inurba_marseille","lat":43.26194,"lon":5.37449,"is_reserved":false,"is_disabled":false,"rental_uris":{"android":"levelo://app?vid=f637ee6a-dfdd-40cc-8bc0-e4529d672da7","ios":"levelo://app?vid=f637ee6a-dfdd-40cc-8bc0-e4529d672da7"},"vehicle_type_id":"4","last_reported":1726081576,"current_range_meters":3600,"station_id":"ce4bhgp2rcd13ifvqfc0","pricing_plan_id":"cebpf4jnsgd1na2vs0mg"},{"bike_id":"f91ccea4-e9c9-40e1-880c-5f8eddc6e16f","system_id":"levelo_inurba_marseille","lat":43.29413,"lon":5.38627,"is_reserved":false,"is_disabled":false,"rental_uris":{"android":"levelo://app?vid=f91ccea4-e9c9-40e1-880c-5f8eddc6e16f","ios":"levelo://app?vid=f91ccea4-e9c9-40e1-880c-5f8eddc6e16f"},"vehicle_type_id":"4","last_reported":1726081576,"current_range_meters":38400,"station_id":"ce4bh2h2rcd13ifvqdh0","pricing_plan_id":"cebpf4jnsgd1na2vs0mg"},{"bike_id":"2f80c1f3-9886-46d4-bc64-325259cfbe8a","system_id":"levelo_inurba_marseille","lat":43.267705,"lon":5.389391,"is_reserved":false,"is_disabled":false,"rental_uris":{"android":"levelo://app?vid=2f80c1f3-9886-46d4-bc64-325259cfbe8a","ios":"levelo://app?vid=2f80c1f3-9886-46d4-bc64-325259cfbe8a"},"vehicle_type_id":"4","last_reported":1726081576,"current_range_meters":6000,"station_id":"ce4bh412rcd13ifvqds0","pricing_plan_id":"cebpf4jnsgd1na2vs0mg"},{"bike_id":"5d2f7819-0a01-49c8-b1f4-32979043e9b1","system_id":"levelo_inurba_marseille","lat":43.30947,"lon":5.39035,"is_reserved":false,"is_disabled":false,"rental_uris":{"android":"levelo://app?vid=5d2f7819-0a01-49c8-b1f4-32979043e9b1","ios":"levelo://app?vid=5d2f7819-0a01-49c8-b1f4-32979043e9b1"},"vehicle_type_id":"4","last_reported":1726081576,"current_range_meters":29600,"station_id":"ce4bgup2rcd13ifvqco0","pricing_plan_id":"cebpf4jnsgd1na2vs0mg"},{"bike_id":"bd93ad96-3d66-4dab-a975-716363825001","system_id":"levelo_inurba_marseille","lat":43.3172,"lon":5.42409,"is_reserved":false,"is_disabled":false,"rental_uris":{"android":"levelo://app?vid=bd93ad96-3d66-4dab-a975-716363825001","ios":"levelo://app?vid=bd93ad96-3d66-4dab-a975-716363825001"},"vehicle_type_id":"4","last_reported":1726081576,"current_range_meters":29600,"station_id":"ce4bhp92rcd13ifvqhbg","pricing_plan_id":"cebpf4jnsgd1na2vs0mg"},{"bike_id":"20830e58-6dfa-4d74-b146-cb3e5ad772ce","system_id":"levelo_inurba_marseille","lat":43.28994,"lon":5.35616,"is_reserved":false,"is_disabled":false,"rental_uris":{"android":"levelo://app?vid=20830e58-6dfa-4d74-b146-cb3e5ad772ce","ios":"levelo://app?vid=20830e58-6dfa-4d74-b146-cb3e5ad772ce"},"vehicle_type_id":"4","last_reported":1726081576,"current_range_meters":30400,"station_id":"ce4bhb92rcd13ifvqen0","pricing_plan_id":"cebpf4jnsgd1na2vs0mg"},{"bike_id":"bb75b410-b4dc-4f52-84e0-29894fcaecdf","system_id":"levelo_inurba_marseille","lat":43.33027,"lon":5.3904,"is_reserved":false,"is_disabled":false,"rental_uris":{"android":"levelo://app?vid=bb75b410-b4dc-4f52-84e0-29894fcaecdf","ios":"levelo://app?vid=bb75b410-b4dc-4f52-84e0-29894fcaecdf"},"vehicle_type_id":"4","last_reported":1726081576,"current_range_meters":32400,"station_id":"ce4bhr92rcd13ifvqhrg","pricing_plan_id":"cebpf4jnsgd1na2vs0mg"},{"bike_id":"f030c1e7-ecb4-4320-baa2-65ab98aff5bf","system_id":"levelo_inurba_marseille","lat":43.29006,"lon":5.3562,"is_reserved":false,"is_disabled":false,"rental_uris":{"android":"levelo://app?vid=f030c1e7-ecb4-4320-baa2-65ab98aff5bf","ios":"levelo://app?vid=f030c1e7-ecb4-4320-baa2-65ab98aff5bf"},"vehicle_type_id":"4","last_reported":1726081576,"current_range_meters":38800,"station_id":"ce4bhb92rcd13ifvqen0","pricing_plan_id":"cebpf4jnsgd1na2vs0mg"},{"bike_id":"befc5316-988a-4687-81b8-afebbc473df4","system_id":"levelo_inurba_marseille","lat":43.31484,"lon":5.37307,"is_reserved":false,"is_disabled":false,"rental_uris":{"android":"levelo://app?vid=befc5316-988a-4687-81b8-afebbc473df4","ios":"levelo://app?vid=befc5316-988a-4687-81b8-afebbc473df4"},"vehicle_type_id":"4","last_reported":1726081576,"current_range_meters":14800,"station_id":"ce4bgt12rcd13ifvqcd0","pricing_plan_id":"cebpf4jnsgd1na2vs0mg"},{"bike_id":"6608c08a-0351-40db-bd30-c0807c6025fa","system_id":"levelo_inurba_marseille","lat":43.29075,"lon":5.37163,"is_reserved":false,"is_disabled":false,"rental_uris":{"android":"levelo://app?vid=6608c08a-0351-40db-bd30-c0807c6025fa","ios":"levelo://app?vid=6608c08a-0351-40db-bd30-c0807c6025fa"},"vehicle_type_id":"4","last_reported":1726081576,"current_range_meters":33600,"station_id":"ce4bh5p2rcd13ifvqe4g","pricing_plan_id":"cebpf4jnsgd1na2vs0mg"},{"bike_id":"b8435880-194b-4839-a261-462945e31011","system_id":"levelo_inurba_marseille","lat":43.28847,"lon":5.39298,"is_reserved":false,"is_disabled":false,"rental_uris":{"android":"levelo://app?vid=b8435880-194b-4839-a261-462945e31011","ios":"levelo://app?vid=b8435880-194b-4839-a261-462945e31011"},"vehicle_type_id":"4","last_reported":1726081576,"current_range_meters":38000,"station_id":"ce4bh2p2rcd13ifvqdi0","pricing_plan_id":"cebpf4jnsgd1na2vs0mg"},{"bike_id":"c3fcdd20-df31-49e8-8681-c56cb032a10b","system_id":"levelo_inurba_marseille","lat":43.27915,"lon":5.39579,"is_reserved":false,"is_disabled":false,"rental_uris":{"android":"levelo://app?vid=c3fcdd20-df31-49e8-8681-c56cb032a10b","ios":"levelo://app?vid=c3fcdd20-df31-49e8-8681-c56cb032a10b"},"vehicle_type_id":"4","last_reported":1726081576,"current_range_meters":8000,"station_id":"ce4bhf92rcd13ifvqf40","pricing_plan_id":"cebpf4jnsgd1na2vs0mg"},{"bike_id":"dd2d66a6-976d-43e6-83be-d6211ff78acc","system_id":"levelo_inurba_marseille","lat":43.33723,"lon":5.39187,"is_reserved":false,"is_disabled":false,"rental_uris":{"android":"levelo://app?vid=dd2d66a6-976d-43e6-83be-d6211ff78acc","ios":"levelo://app?vid=dd2d66a6-976d-43e6-83be-d6211ff78acc"},"vehicle_type_id":"4","last_reported":1726081576,"current_range_meters":16000,"station_id":"ce4bhr92rcd13ifvqhsg","pricing_plan_id":"cebpf4jnsgd1na2vs0mg"},{"bike_id":"8a605714-f43f-4f78-8f78-2c646a323ff5","system_id":"levelo_inurba_marseille","lat":43.28842,"lon":5.35857,"is_reserved":false,"is_disabled":false,"rental_uris":{"android":"levelo://app?vid=8a605714-f43f-4f78-8f78-2c646a323ff5","ios":"levelo://app?vid=8a605714-f43f-4f78-8f78-2c646a323ff5"},"vehicle_type_id":"4","last_reported":1726081576,"current_range_meters":23200,"station_id":"ce4bhb12rcd13ifvqem0","pricing_plan_id":"cebpf4jnsgd1na2vs0mg"},{"bike_id":"03b42dff-24f4-4875-ac3f-2e3a980389bf","system_id":"levelo_inurba_marseille","lat":43.2797,"lon":5.38735,"is_reserved":false,"is_disabled":false,"rental_uris":{"android":"levelo://app?vid=03b42dff-24f4-4875-ac3f-2e3a980389bf","ios":"levelo://app?vid=03b42dff-24f4-4875-ac3f-2e3a980389bf"},"vehicle_type_id":"4","last_reported":1726081576,"current_range_meters":38000,"station_id":"ce4bhg12rcd13ifvqf80","pricing_plan_id":"cebpf4jnsgd1na2vs0mg"},{"bike_id":"9c99abf4-ddb2-47ea-a3eb-652558b42316","system_id":"levelo_inurba_marseille","lat":43.29196,"lon":5.39309,"is_reserved":false,"is_disabled":false,"rental_uris":{"android":"levelo://app?vid=9c99abf4-ddb2-47ea-a3eb-652558b42316","ios":"levelo://app?vid=9c99abf4-ddb2-47ea-a3eb-652558b42316"},"vehicle_type_id":"4","last_reported":1726081576,"current_range_meters":23200,"station_id":"ce4bh192rcd13ifvqdd0","pricing_plan_id":"cebpf4jnsgd1na2vs0mg"},{"bike_id":"0d598a7d-d6b0-40b9-87f5-c49a1be70956","system_id":"levelo_inurba_marseille","lat":43.27053,"lon":5.40257,"is_reserved":false,"is_disabled":false,"rental_uris":{"android":"levelo://app?vid=0d598a7d-d6b0-40b9-87f5-c49a1be70956","ios":"levelo://app?vid=0d598a7d-d6b0-40b9-87f5-c49a1be70956"},"vehicle_type_id":"4","last_reported":1726081576,"current_range_meters":27200,"station_id":"ce4bhk92rcd13ifvqgc0","pricing_plan_id":"cebpf4jnsgd1na2vs0mg"},{"bike_id":"01906d26-6cb4-4012-8836-890840694aea","system_id":"levelo_inurba_marseille","lat":43.28413,"lon":5.3752,"is_reserved":false,"is_disabled":false,"rental_uris":{"android":"levelo://app?vid=01906d26-6cb4-4012-8836-890840694aea","ios":"levelo://app?vid=01906d26-6cb4-4012-8836-890840694aea"},"vehicle_type_id":"4","last_reported":1726081576,"current_range_meters":36000,"station_id":"ce4bh412rcd13ifvqds0","pricing_plan_id":"cebpf4jnsgd1na2vs0mg"},{"bike_id":"921d9313-1c02-4f5f-a1d8-3fcdaf7192d7","system_id":"levelo_inurba_marseille","lat":43.29535,"lon":5.38524,"is_reserved":false,"is_disabled":false,"rental_uris":{"android":"levelo://app?vid=921d9313-1c02-4f5f-a1d8-3fcdaf7192d7","ios":"levelo://app?vid=921d9313-1c02-4f5f-a1d8-3fcdaf7192d7"},"vehicle_type_id":"4","last_reported":1726081576,"current_range_meters":38000,"station_id":"ce4bgih2rcd13ifvqba0","pricing_plan_id":"cebpf4jnsgd1na2vs0mg"},{"bike_id":"4a282d71-450f-4989-b74e-1c4c3761e4ea","system_id":"levelo_inurba_marseille","lat":43.29506,"lon":5.39048,"is_reserved":false,"is_disabled":false,"rental_uris":{"android":"levelo://app?vid=4a282d71-450f-4989-b74e-1c4c3761e4ea","ios":"levelo://app?vid=4a282d71-450f-4989-b74e-1c4c3761e4ea"},"vehicle_type_id":"4","last_reported":1726081576,"current_range_meters":24400,"station_id":"ce4bh3p2rcd13ifvqdp0","pricing_plan_id":"cebpf4jnsgd1na2vs0mg"},{"bike_id":"15abdfc1-ddde-4cc7-abaa-457efcbceaf6","system_id":"levelo_inurba_marseille","lat":43.27375,"lon":5.3626,"is_reserved":false,"is_disabled":false,"rental_uris":{"android":"levelo://app?vid=15abdfc1-ddde-4cc7-abaa-457efcbceaf6","ios":"levelo://app?vid=15abdfc1-ddde-4cc7-abaa-457efcbceaf6"},"vehicle_type_id":"4","last_reported":1726081576,"current_range_meters":15200,"station_id":"ce4bhbh2rcd13ifvqeo0","pricing_plan_id":"cebpf4jnsgd1na2vs0mg"},{"bike_id":"5876c5ef-9fac-478d-bd3c-ea1780c21005","system_id":"levelo_inurba_marseille","lat":43.33755,"lon":5.37446,"is_reserved":false,"is_disabled":false,"rental_uris":{"android":"levelo://app?vid=5876c5ef-9fac-478d-bd3c-ea1780c21005","ios":"levelo://app?vid=5876c5ef-9fac-478d-bd3c-ea1780c21005"},"vehicle_type_id":"4","last_reported":1726081576,"current_range_meters":38400,"station_id":"","pricing_plan_id":"cebpf4jnsgd1na2vs0mg"},{"bike_id":"e677b515-5319-4216-9c4c-b1dda00cce1f","system_id":"levelo_inurba_marseille","lat":43.24802,"lon":5.37459,"is_reserved":false,"is_disabled":false,"rental_uris":{"android":"levelo://app?vid=e677b515-5319-4216-9c4c-b1dda00cce1f","ios":"levelo://app?vid=e677b515-5319-4216-9c4c-b1dda00cce1f"},"vehicle_type_id":"4","last_reported":1726081576,"current_range_meters":32000,"station_id":"ce4bhgh2rcd13ifvqfb0","pricing_plan_id":"cebpf4jnsgd1na2vs0mg"},{"bike_id":"5abf28fd-a11a-4eb4-87d0-9bad082219f7","system_id":"levelo_inurba_marseille","lat":43.3229,"lon":5.38274,"is_reserved":false,"is_disabled":false,"rental_uris":{"android":"levelo://app?vid=5abf28fd-a11a-4eb4-87d0-9bad082219f7","ios":"levelo://app?vid=5abf28fd-a11a-4eb4-87d0-9bad082219f7"},"vehicle_type_id":"4","last_reported":1726081576,"current_range_meters":36800,"station_id":"ce4bhr12rcd13ifvqhqg","pricing_plan_id":"cebpf4jnsgd1na2vs0mg"},{"bike_id":"926b2a48-8dd8-4764-aca3-bab40b5d8bd7","system_id":"levelo_inurba_marseille","lat":43.30433,"lon":5.38838,"is_reserved":false,"is_disabled":false,"rental_uris":{"android":"levelo://app?vid=926b2a48-8dd8-4764-aca3-bab40b5d8bd7","ios":"levelo://app?vid=926b2a48-8dd8-4764-aca3-bab40b5d8bd7"},"vehicle_type_id":"4","last_reported":1726081576,"current_range_meters":24400,"station_id":"ce4bgk12rcd13ifvqbi0","pricing_plan_id":"cebpf4jnsgd1na2vs0mg"},{"bike_id":"67a2ab76-61d3-4167-8081-83e14dff3ea1","system_id":"levelo_inurba_marseille","lat":43.29413,"lon":5.38629,"is_reserved":false,"is_disabled":false,"rental_uris":{"android":"levelo://app?vid=67a2ab76-61d3-4167-8081-83e14dff3ea1","ios":"levelo://app?vid=67a2ab76-61d3-4167-8081-83e14dff3ea1"},"vehicle_type_id":"4","last_reported":1726081576,"current_range_meters":35600,"station_id":"ce4bh2h2rcd13ifvqdh0","pricing_plan_id":"cebpf4jnsgd1na2vs0mg"},{"bike_id":"dccadc39-7e75-4ff6-801e-d97b0e1812f2","system_id":"levelo_inurba_marseille","lat":43.33027,"lon":5.39036,"is_reserved":false,"is_disabled":false,"rental_uris":{"android":"levelo://app?vid=dccadc39-7e75-4ff6-801e-d97b0e1812f2","ios":"levelo://app?vid=dccadc39-7e75-4ff6-801e-d97b0e1812f2"},"vehicle_type_id":"4","last_reported":1726081576,"current_range_meters":22800,"station_id":"ce4bhr92rcd13ifvqhrg","pricing_plan_id":"cebpf4jnsgd1na2vs0mg"},{"bike_id":"f9ce26e1-b687-4b9f-a33d-f85d6af9240e","system_id":"levelo_inurba_marseille","lat":43.33023,"lon":5.39053,"is_reserved":false,"is_disabled":false,"rental_uris":{"android":"levelo://app?vid=f9ce26e1-b687-4b9f-a33d-f85d6af9240e","ios":"levelo://app?vid=f9ce26e1-b687-4b9f-a33d-f85d6af9240e"},"vehicle_type_id":"4","last_reported":1726081576,"current_range_meters":25600,"station_id":"ce4bhr92rcd13ifvqhrg","pricing_plan_id":"cebpf4jnsgd1na2vs0mg"},{"bike_id":"982b3d07-a0ca-4bbd-aa3e-a6b54a0961d5","system_id":"levelo_inurba_marseille","lat":43.27684,"lon":5.38892,"is_reserved":false,"is_disabled":false,"rental_uris":{"android":"levelo://app?vid=982b3d07-a0ca-4bbd-aa3e-a6b54a0961d5","ios":"levelo://app?vid=982b3d07-a0ca-4bbd-aa3e-a6b54a0961d5"},"vehicle_type_id":"4","last_reported":1726081576,"current_range_meters":9600,"station_id":"ce4bhi12rcd13ifvqfo0","pricing_plan_id":"cebpf4jnsgd1na2vs0mg"},{"bike_id":"4b02a7e9-8265-4f92-8a5b-523194dc96fe","system_id":"levelo_inurba_marseille","lat":43.25828,"lon":5.39426,"is_reserved":false,"is_disabled":false,"rental_uris":{"android":"levelo://app?vid=4b02a7e9-8265-4f92-8a5b-523194dc96fe","ios":"levelo://app?vid=4b02a7e9-8265-4f92-8a5b-523194dc96fe"},"vehicle_type_id":"4","last_reported":1726081576,"current_range_meters":31200,"station_id":"ce4bhip2rcd13ifvqft0","pricing_plan_id":"cebpf4jnsgd1na2vs0mg"},{"bike_id":"19fc74b2-0977-409b-9d38-b0cf563ca0ec","system_id":"levelo_inurba_marseille","lat":43.30319,"lon":5.40441,"is_reserved":false,"is_disabled":false,"rental_uris":{"android":"levelo://app?vid=19fc74b2-0977-409b-9d38-b0cf563ca0ec","ios":"levelo://app?vid=19fc74b2-0977-409b-9d38-b0cf563ca0ec"},"vehicle_type_id":"4","last_reported":1726081576,"current_range_meters":38800,"station_id":"ce4bh012rcd13ifvqd10","pricing_plan_id":"cebpf4jnsgd1na2vs0mg"},{"bike_id":"af962dce-dd5d-4176-aa1a-cb64301240a6","system_id":"levelo_inurba_marseille","lat":43.310752,"lon":5.378649,"is_reserved":false,"is_disabled":false,"rental_uris":{"android":"levelo://app?vid=af962dce-dd5d-4176-aa1a-cb64301240a6","ios":"levelo://app?vid=af962dce-dd5d-4176-aa1a-cb64301240a6"},"vehicle_type_id":"4","last_reported":1726081576,"current_range_meters":6400,"station_id":"ce4bgt92rcd13ifvqcg0","pricing_plan_id":"cebpf4jnsgd1na2vs0mg"},{"bike_id":"5f496e81-63cb-4e63-8056-10225544c09f","system_id":"levelo_inurba_marseille","lat":43.293707,"lon":5.378576,"is_reserved":false,"is_disabled":false,"rental_uris":{"android":"levelo://app?vid=5f496e81-63cb-4e63-8056-10225544c09f","ios":"levelo://app?vid=5f496e81-63cb-4e63-8056-10225544c09f"},"vehicle_type_id":"4","last_reported":1726081576,"current_range_meters":24800,"station_id":"ce4bguh2rcd13ifvqckg","pricing_plan_id":"cebpf4jnsgd1na2vs0mg"},{"bike_id":"eb623b2c-926d-43d1-97cd-4c6448c2f5fd","system_id":"levelo_inurba_marseille","lat":43.30251,"lon":5.40065,"is_reserved":false,"is_disabled":false,"rental_uris":{"android":"levelo://app?vid=eb623b2c-926d-43d1-97cd-4c6448c2f5fd","ios":"levelo://app?vid=eb623b2c-926d-43d1-97cd-4c6448c2f5fd"},"vehicle_type_id":"4","last_reported":1726081576,"current_range_meters":19600,"station_id":"ce4bgvh2rcd13ifvqcs0","pricing_plan_id":"cebpf4jnsgd1na2vs0mg"},{"bike_id":"e551c4df-73a8-4cc4-977f-d0672bde7d8f","system_id":"levelo_inurba_marseille","lat":43.296218,"lon":5.371635,"is_reserved":false,"is_disabled":false,"rental_uris":{"android":"levelo://app?vid=e551c4df-73a8-4cc4-977f-d0672bde7d8f","ios":"levelo://app?vid=e551c4df-73a8-4cc4-977f-d0672bde7d8f"},"vehicle_type_id":"4","last_reported":1726081576,"current_range_meters":16400,"station_id":"ce4bgnh2rcd13ifvqc0g","pricing_plan_id":"cebpf4jnsgd1na2vs0mg"},{"bike_id":"7044a7b2-2f68-4a24-abba-9abfe429be7d","system_id":"levelo_inurba_marseille","lat":43.30307,"lon":5.39211,"is_reserved":false,"is_disabled":false,"rental_uris":{"android":"levelo://app?vid=7044a7b2-2f68-4a24-abba-9abfe429be7d","ios":"levelo://app?vid=7044a7b2-2f68-4a24-abba-9abfe429be7d"},"vehicle_type_id":"4","last_reported":1726081576,"current_range_meters":4400,"station_id":"ce4bgkh2rcd13ifvqbk0","pricing_plan_id":"cebpf4jnsgd1na2vs0mg"},{"bike_id":"a57604a1-27a9-48b5-81c5-9fb5045c08bc","system_id":"levelo_inurba_marseille","lat":43.25579,"lon":5.38247,"is_reserved":false,"is_disabled":false,"rental_uris":{"android":"levelo://app?vid=a57604a1-27a9-48b5-81c5-9fb5045c08bc","ios":"levelo://app?vid=a57604a1-27a9-48b5-81c5-9fb5045c08bc"},"vehicle_type_id":"4","last_reported":1726081576,"current_range_meters":26000,"station_id":"ce4bhih2rcd13ifvqfs0","pricing_plan_id":"cebpf4jnsgd1na2vs0mg"},{"bike_id":"be45a701-ee67-4928-b7e1-4e1546c93241","system_id":"levelo_inurba_marseille","lat":43.29196,"lon":5.35799,"is_reserved":false,"is_disabled":false,"rental_uris":{"android":"levelo://app?vid=be45a701-ee67-4928-b7e1-4e1546c93241","ios":"levelo://app?vid=be45a701-ee67-4928-b7e1-4e1546c93241"},"vehicle_type_id":"4","last_reported":1726081576,"current_range_meters":32000,"station_id":"ce4bhb12rcd13ifvqel0","pricing_plan_id":"cebpf4jnsgd1na2vs0mg"},{"bike_id":"4c52462d-c104-4023-b744-7eded6e1cbfd","system_id":"levelo_inurba_marseille","lat":43.2926,"lon":5.38436,"is_reserved":false,"is_disabled":false,"rental_uris":{"android":"levelo://app?vid=4c52462d-c104-4023-b744-7eded6e1cbfd","ios":"levelo://app?vid=4c52462d-c104-4023-b744-7eded6e1cbfd"},"vehicle_type_id":"4","last_reported":1726081576,"current_range_meters":7200,"station_id":"ce4bh692rcd13ifvqea0","pricing_plan_id":"cebpf4jnsgd1na2vs0mg"},{"bike_id":"4c386efd-d18a-4ef4-bea2-49d99e7c4947","system_id":"levelo_inurba_marseille","lat":43.28001,"lon":5.40022,"is_reserved":false,"is_disabled":false,"rental_uris":{"android":"levelo://app?vid=4c386efd-d18a-4ef4-bea2-49d99e7c4947","ios":"levelo://app?vid=4c386efd-d18a-4ef4-bea2-49d99e7c4947"},"vehicle_type_id":"4","last_reported":1726081576,"current_range_meters":12400,"station_id":"ce4bho92rcd13ifvqh4g","pricing_plan_id":"cebpf4jnsgd1na2vs0mg"},{"bike_id":"e06bfd01-c40b-47c2-94ca-ace2b2ea2d8f","system_id":"levelo_inurba_marseille","lat":43.25109,"lon":5.40327,"is_reserved":false,"is_disabled":false,"rental_uris":{"android":"levelo://app?vid=e06bfd01-c40b-47c2-94ca-ace2b2ea2d8f","ios":"levelo://app?vid=e06bfd01-c40b-47c2-94ca-ace2b2ea2d8f"},"vehicle_type_id":"4","last_reported":1726081576,"current_range_meters":8000,"station_id":"ce4bhlh2rcd13ifvqgig","pricing_plan_id":"cebpf4jnsgd1na2vs0mg"},{"bike_id":"d9801c90-8b53-4137-8fc1-ec3b156705bb","system_id":"levelo_inurba_marseille","lat":43.26954,"lon":5.38633,"is_reserved":false,"is_disabled":false,"rental_uris":{"android":"levelo://app?vid=d9801c90-8b53-4137-8fc1-ec3b156705bb","ios":"levelo://app?vid=d9801c90-8b53-4137-8fc1-ec3b156705bb"},"vehicle_type_id":"4","last_reported":1726081576,"current_range_meters":38800,"station_id":"ce4bhh92rcd13ifvqfh0","pricing_plan_id":"cebpf4jnsgd1na2vs0mg"},{"bike_id":"201264b9-bf7a-49b2-a7f3-fabac44b2803","system_id":"levelo_inurba_marseille","lat":43.28102,"lon":5.37837,"is_reserved":false,"is_disabled":false,"rental_uris":{"android":"levelo://app?vid=201264b9-bf7a-49b2-a7f3-fabac44b2803","ios":"levelo://app?vid=201264b9-bf7a-49b2-a7f3-fabac44b2803"},"vehicle_type_id":"4","last_reported":1726081576,"current_range_meters":38800,"station_id":"ce4bha12rcd13ifvqee0","pricing_plan_id":"cebpf4jnsgd1na2vs0mg"},{"bike_id":"9afdd98c-1ad6-42a9-ba81-507dcd50520d","system_id":"levelo_inurba_marseille","lat":43.2511,"lon":5.40324,"is_reserved":false,"is_disabled":false,"rental_uris":{"android":"levelo://app?vid=9afdd98c-1ad6-42a9-ba81-507dcd50520d","ios":"levelo://app?vid=9afdd98c-1ad6-42a9-ba81-507dcd50520d"},"vehicle_type_id":"4","last_reported":1726081576,"current_range_meters":17600,"station_id":"ce4bhlh2rcd13ifvqgig","pricing_plan_id":"cebpf4jnsgd1na2vs0mg"},{"bike_id":"f496ad62-51ea-4198-8413-dc7549e63542","system_id":"levelo_inurba_marseille","lat":43.2901,"lon":5.35619,"is_reserved":false,"is_disabled":false,"rental_uris":{"android":"levelo://app?vid=f496ad62-51ea-4198-8413-dc7549e63542","ios":"levelo://app?vid=f496ad62-51ea-4198-8413-dc7549e63542"},"vehicle_type_id":"4","last_reported":1726081576,"current_range_meters":36400,"station_id":"ce4bhb92rcd13ifvqen0","pricing_plan_id":"cebpf4jnsgd1na2vs0mg"},{"bike_id":"217b12d7-0655-4772-b8b6-d4b4b765627c","system_id":"levelo_inurba_marseille","lat":43.25574,"lon":5.3824,"is_reserved":false,"is_disabled":false,"rental_uris":{"android":"levelo://app?vid=217b12d7-0655-4772-b8b6-d4b4b765627c","ios":"levelo://app?vid=217b12d7-0655-4772-b8b6-d4b4b765627c"},"vehicle_type_id":"4","last_reported":1726081576,"current_range_meters":11200,"station_id":"ce4bhih2rcd13ifvqfs0","pricing_plan_id":"cebpf4jnsgd1na2vs0mg"},{"bike_id":"913b0980-9af3-414f-93d0-679a03b5ff67","system_id":"levelo_inurba_marseille","lat":43.30429,"lon":5.38885,"is_reserved":false,"is_disabled":false,"rental_uris":{"android":"levelo://app?vid=913b0980-9af3-414f-93d0-679a03b5ff67","ios":"levelo://app?vid=913b0980-9af3-414f-93d0-679a03b5ff67"},"vehicle_type_id":"4","last_reported":1726081576,"current_range_meters":14000,"station_id":"ce4bgk12rcd13ifvqbi0","pricing_plan_id":"cebpf4jnsgd1na2vs0mg"},{"bike_id":"e07fa6d2-2d1f-44f3-905c-c692618ea56b","system_id":"levelo_inurba_marseille","lat":43.28646,"lon":5.3846,"is_reserved":false,"is_disabled":false,"rental_uris":{"android":"levelo://app?vid=e07fa6d2-2d1f-44f3-905c-c692618ea56b","ios":"levelo://app?vid=e07fa6d2-2d1f-44f3-905c-c692618ea56b"},"vehicle_type_id":"4","last_reported":1726081576,"current_range_meters":37600,"station_id":"","pricing_plan_id":"cebpf4jnsgd1na2vs0mg"},{"bike_id":"b2adb7d5-0443-4c02-b782-036f4b4c8297","system_id":"levelo_inurba_marseille","lat":43.29791,"lon":5.38123,"is_reserved":false,"is_disabled":false,"rental_uris":{"android":"levelo://app?vid=b2adb7d5-0443-4c02-b782-036f4b4c8297","ios":"levelo://app?vid=b2adb7d5-0443-4c02-b782-036f4b4c8297"},"vehicle_type_id":"4","last_reported":1726081576,"current_range_meters":37600,"station_id":"ce4bgip2rcd13ifvqbb0","pricing_plan_id":"cebpf4jnsgd1na2vs0mg"},{"bike_id":"d0be1580-e040-40c5-ba29-70b86c66f20f","system_id":"levelo_inurba_marseille","lat":43.28265,"lon":5.35073,"is_reserved":false,"is_disabled":false,"rental_uris":{"android":"levelo://app?vid=d0be1580-e040-40c5-ba29-70b86c66f20f","ios":"levelo://app?vid=d0be1580-e040-40c5-ba29-70b86c66f20f"},"vehicle_type_id":"4","last_reported":1726081576,"current_range_meters":4000,"station_id":"ce4bhbp2rcd13ifvqerg","pricing_plan_id":"cebpf4jnsgd1na2vs0mg"},{"bike_id":"c8e0fcb6-1d3f-4d83-b861-1f56e6b3ab2c","system_id":"levelo_inurba_marseille","lat":43.32207,"lon":5.38737,"is_reserved":false,"is_disabled":false,"rental_uris":{"android":"levelo://app?vid=c8e0fcb6-1d3f-4d83-b861-1f56e6b3ab2c","ios":"levelo://app?vid=c8e0fcb6-1d3f-4d83-b861-1f56e6b3ab2c"},"vehicle_type_id":"4","last_reported":1726081576,"current_range_meters":32400,"station_id":"","pricing_plan_id":"cebpf4jnsgd1na2vs0mg"},{"bike_id":"6c4cc737-3431-413a-9495-58196a2d0cb1","system_id":"levelo_inurba_marseille","lat":43.31325,"lon":5.39703,"is_reserved":false,"is_disabled":false,"rental_uris":{"android":"levelo://app?vid=6c4cc737-3431-413a-9495-58196a2d0cb1","ios":"levelo://app?vid=6c4cc737-3431-413a-9495-58196a2d0cb1"},"vehicle_type_id":"4","last_reported":1726081576,"current_range_meters":6800,"station_id":"ce4bgvp2rcd13ifvqcu0","pricing_plan_id":"cebpf4jnsgd1na2vs0mg"},{"bike_id":"0774bbb0-5113-41f4-b425-31e925030cb7","system_id":"levelo_inurba_marseille","lat":43.27827,"lon":5.39212,"is_reserved":false,"is_disabled":false,"rental_uris":{"android":"levelo://app?vid=0774bbb0-5113-41f4-b425-31e925030cb7","ios":"levelo://app?vid=0774bbb0-5113-41f4-b425-31e925030cb7"},"vehicle_type_id":"4","last_reported":1726081576,"current_range_meters":16800,"station_id":"ce4bhjp2rcd13ifvqga0","pricing_plan_id":"cebpf4jnsgd1na2vs0mg"},{"bike_id":"309a7169-56f1-4c44-a45e-96df3696fc7d","system_id":"levelo_inurba_marseille","lat":43.311141,"lon":5.377725,"is_reserved":false,"is_disabled":false,"rental_uris":{"android":"levelo://app?vid=309a7169-56f1-4c44-a45e-96df3696fc7d","ios":"levelo://app?vid=309a7169-56f1-4c44-a45e-96df3696fc7d"},"vehicle_type_id":"4","last_reported":1726081576,"current_range_meters":36000,"station_id":"ce4bgt92rcd13ifvqcg0","pricing_plan_id":"cebpf4jnsgd1na2vs0mg"},{"bike_id":"24990dba-cb5c-44e3-b39e-9413cf954095","system_id":"levelo_inurba_marseille","lat":43.2319,"lon":5.39986,"is_reserved":false,"is_disabled":false,"rental_uris":{"android":"levelo://app?vid=24990dba-cb5c-44e3-b39e-9413cf954095","ios":"levelo://app?vid=24990dba-cb5c-44e3-b39e-9413cf954095"},"vehicle_type_id":"4","last_reported":1726081576,"current_range_meters":21600,"station_id":"ce4bhn12rcd13ifvqgqg","pricing_plan_id":"cebpf4jnsgd1na2vs0mg"},{"bike_id":"f7383583-f6d9-4a1f-9651-744703bbb837","system_id":"levelo_inurba_marseille","lat":43.30796,"lon":5.43527,"is_reserved":false,"is_disabled":false,"rental_uris":{"android":"levelo://app?vid=f7383583-f6d9-4a1f-9651-744703bbb837","ios":"levelo://app?vid=f7383583-f6d9-4a1f-9651-744703bbb837"},"vehicle_type_id":"4","last_reported":1726081576,"current_range_meters":8400,"station_id":"ce4bhph2rcd13ifvqheg","pricing_plan_id":"cebpf4jnsgd1na2vs0mg"},{"bike_id":"3ef79de9-77b4-4974-9497-df5130336669","system_id":"levelo_inurba_marseille","lat":43.28842,"lon":5.39308,"is_reserved":false,"is_disabled":false,"rental_uris":{"android":"levelo://app?vid=3ef79de9-77b4-4974-9497-df5130336669","ios":"levelo://app?vid=3ef79de9-77b4-4974-9497-df5130336669"},"vehicle_type_id":"4","last_reported":1726081576,"current_range_meters":3600,"station_id":"ce4bh2p2rcd13ifvqdi0","pricing_plan_id":"cebpf4jnsgd1na2vs0mg"},{"bike_id":"54fc95fd-2852-4c59-8eea-f3f9eada4067","system_id":"levelo_inurba_marseille","lat":43.28465,"lon":5.35892,"is_reserved":false,"is_disabled":false,"rental_uris":{"android":"levelo://app?vid=54fc95fd-2852-4c59-8eea-f3f9eada4067","ios":"levelo://app?vid=54fc95fd-2852-4c59-8eea-f3f9eada4067"},"vehicle_type_id":"4","last_reported":1726081576,"current_range_meters":18000,"station_id":"ce4bhah2rcd13ifvqei0","pricing_plan_id":"cebpf4jnsgd1na2vs0mg"},{"bike_id":"2cf6c505-4850-445d-aa79-fecfcf094308","system_id":"levelo_inurba_marseille","lat":43.3414,"lon":5.40909,"is_reserved":false,"is_disabled":false,"rental_uris":{"android":"levelo://app?vid=2cf6c505-4850-445d-aa79-fecfcf094308","ios":"levelo://app?vid=2cf6c505-4850-445d-aa79-fecfcf094308"},"vehicle_type_id":"4","last_reported":1726081576,"current_range_meters":26000,"station_id":"ce4bhqh2rcd13ifvqhlg","pricing_plan_id":"cebpf4jnsgd1na2vs0mg"},{"bike_id":"5f8714c2-4691-49c6-af6f-ae88c4dd369a","system_id":"levelo_inurba_marseille","lat":43.27997,"lon":5.40012,"is_reserved":false,"is_disabled":false,"rental_uris":{"android":"levelo://app?vid=5f8714c2-4691-49c6-af6f-ae88c4dd369a","ios":"levelo://app?vid=5f8714c2-4691-49c6-af6f-ae88c4dd369a"},"vehicle_type_id":"4","last_reported":1726081576,"current_range_meters":4800,"station_id":"ce4bho92rcd13ifvqh4g","pricing_plan_id":"cebpf4jnsgd1na2vs0mg"},{"bike_id":"b1591eff-e8a3-47a9-abf1-1dcd0498d798","system_id":"levelo_inurba_marseille","lat":43.28931,"lon":5.36394,"is_reserved":false,"is_disabled":false,"rental_uris":{"android":"levelo://app?vid=b1591eff-e8a3-47a9-abf1-1dcd0498d798","ios":"levelo://app?vid=b1591eff-e8a3-47a9-abf1-1dcd0498d798"},"vehicle_type_id":"4","last_reported":1726081576,"current_range_meters":36400,"station_id":"ce4bhc92rcd13ifvqetg","pricing_plan_id":"cebpf4jnsgd1na2vs0mg"},{"bike_id":"91e2a199-de4b-4f82-b1df-2925f2703785","system_id":"levelo_inurba_marseille","lat":43.29622,"lon":5.37718,"is_reserved":false,"is_disabled":false,"rental_uris":{"android":"levelo://app?vid=91e2a199-de4b-4f82-b1df-2925f2703785","ios":"levelo://app?vid=91e2a199-de4b-4f82-b1df-2925f2703785"},"vehicle_type_id":"4","last_reported":1726081576,"current_range_meters":25200,"station_id":"ce4bgi92rcd13ifvqb90","pricing_plan_id":"cebpf4jnsgd1na2vs0mg"},{"bike_id":"85260abb-bcc7-4281-aee8-6055ec9bf3a0","system_id":"levelo_inurba_marseille","lat":43.2926,"lon":5.38448,"is_reserved":false,"is_disabled":false,"rental_uris":{"android":"levelo://app?vid=85260abb-bcc7-4281-aee8-6055ec9bf3a0","ios":"levelo://app?vid=85260abb-bcc7-4281-aee8-6055ec9bf3a0"},"vehicle_type_id":"4","last_reported":1726081576,"current_range_meters":38800,"station_id":"ce4bh692rcd13ifvqea0","pricing_plan_id":"cebpf4jnsgd1na2vs0mg"},{"bike_id":"9b15142b-69cb-4281-994a-95134ce6d619","system_id":"levelo_inurba_marseille","lat":43.27417,"lon":5.39415,"is_reserved":false,"is_disabled":false,"rental_uris":{"android":"levelo://app?vid=9b15142b-69cb-4281-994a-95134ce6d619","ios":"levelo://app?vid=9b15142b-69cb-4281-994a-95134ce6d619"},"vehicle_type_id":"4","last_reported":1726081576,"current_range_meters":4400,"station_id":"ce4bhdp2rcd13ifvqf20","pricing_plan_id":"cebpf4jnsgd1na2vs0mg"},{"bike_id":"2cd888bf-ec36-424b-a743-7b998951e41e","system_id":"levelo_inurba_marseille","lat":43.25831,"lon":5.39432,"is_reserved":false,"is_disabled":false,"rental_uris":{"android":"levelo://app?vid=2cd888bf-ec36-424b-a743-7b998951e41e","ios":"levelo://app?vid=2cd888bf-ec36-424b-a743-7b998951e41e"},"vehicle_type_id":"4","last_reported":1726081576,"current_range_meters":38800,"station_id":"ce4bhip2rcd13ifvqft0","pricing_plan_id":"cebpf4jnsgd1na2vs0mg"},{"bike_id":"dc346b80-33dd-4e8d-bd17-85fcf95d706f","system_id":"levelo_inurba_marseille","lat":43.33607,"lon":5.41033,"is_reserved":false,"is_disabled":false,"rental_uris":{"android":"levelo://app?vid=dc346b80-33dd-4e8d-bd17-85fcf95d706f","ios":"levelo://app?vid=dc346b80-33dd-4e8d-bd17-85fcf95d706f"},"vehicle_type_id":"4","last_reported":1726081576,"current_range_meters":28000,"station_id":"ce4bhqh2rcd13ifvqhmg","pricing_plan_id":"cebpf4jnsgd1na2vs0mg"},{"bike_id":"c097fc37-870d-4768-ab94-ae87094395af","system_id":"levelo_inurba_marseille","lat":43.31749,"lon":5.39027,"is_reserved":false,"is_disabled":false,"rental_uris":{"android":"levelo://app?vid=c097fc37-870d-4768-ab94-ae87094395af","ios":"levelo://app?vid=c097fc37-870d-4768-ab94-ae87094395af"},"vehicle_type_id":"4","last_reported":1726081576,"current_range_meters":22000,"station_id":"ce4bhqp2rcd13ifvqhng","pricing_plan_id":"cebpf4jnsgd1na2vs0mg"},{"bike_id":"2d00abd8-6131-4a2a-8ce1-4f64b5e97d45","system_id":"levelo_inurba_marseille","lat":43.24658,"lon":5.38159,"is_reserved":false,"is_disabled":false,"rental_uris":{"android":"levelo://app?vid=2d00abd8-6131-4a2a-8ce1-4f64b5e97d45","ios":"levelo://app?vid=2d00abd8-6131-4a2a-8ce1-4f64b5e97d45"},"vehicle_type_id":"4","last_reported":1726081576,"current_range_meters":17600,"station_id":"ce4bhih2rcd13ifvqfr0","pricing_plan_id":"cebpf4jnsgd1na2vs0mg"},{"bike_id":"f400d370-a20e-4ced-86f0-64f62510749c","system_id":"levelo_inurba_marseille","lat":43.3237,"lon":5.38926,"is_reserved":false,"is_disabled":false,"rental_uris":{"android":"levelo://app?vid=f400d370-a20e-4ced-86f0-64f62510749c","ios":"levelo://app?vid=f400d370-a20e-4ced-86f0-64f62510749c"},"vehicle_type_id":"4","last_reported":1726081576,"current_range_meters":12400,"station_id":"","pricing_plan_id":"cebpf4jnsgd1na2vs0mg"},{"bike_id":"ca5d936b-031c-493c-83e3-59e5f82a2b8e","system_id":"levelo_inurba_marseille","lat":43.31716,"lon":5.42404,"is_reserved":false,"is_disabled":false,"rental_uris":{"android":"levelo://app?vid=ca5d936b-031c-493c-83e3-59e5f82a2b8e","ios":"levelo://app?vid=ca5d936b-031c-493c-83e3-59e5f82a2b8e"},"vehicle_type_id":"4","last_reported":1726081576,"current_range_meters":27200,"station_id":"ce4bhp92rcd13ifvqhbg","pricing_plan_id":"cebpf4jnsgd1na2vs0mg"},{"bike_id":"b5e980e2-3619-401e-bbd1-349e3aaf8a12","system_id":"levelo_inurba_marseille","lat":43.24663,"lon":5.38168,"is_reserved":false,"is_disabled":false,"rental_uris":{"android":"levelo://app?vid=b5e980e2-3619-401e-bbd1-349e3aaf8a12","ios":"levelo://app?vid=b5e980e2-3619-401e-bbd1-349e3aaf8a12"},"vehicle_type_id":"4","last_reported":1726081576,"current_range_meters":27600,"station_id":"ce4bhih2rcd13ifvqfr0","pricing_plan_id":"cebpf4jnsgd1na2vs0mg"},{"bike_id":"3c7e2569-50e4-43f2-a3c4-8e919a6856b2","system_id":"levelo_inurba_marseille","lat":43.2803,"lon":5.36947,"is_reserved":false,"is_disabled":false,"rental_uris":{"android":"levelo://app?vid=3c7e2569-50e4-43f2-a3c4-8e919a6856b2","ios":"levelo://app?vid=3c7e2569-50e4-43f2-a3c4-8e919a6856b2"},"vehicle_type_id":"4","last_reported":1726081576,"current_range_meters":20400,"station_id":"ce4bha12rcd13ifvqef0","pricing_plan_id":"cebpf4jnsgd1na2vs0mg"},{"bike_id":"693a8a68-24a2-4859-9697-adff1b55320a","system_id":"levelo_inurba_marseille","lat":43.31332,"lon":5.39695,"is_reserved":false,"is_disabled":false,"rental_uris":{"android":"levelo://app?vid=693a8a68-24a2-4859-9697-adff1b55320a","ios":"levelo://app?vid=693a8a68-24a2-4859-9697-adff1b55320a"},"vehicle_type_id":"4","last_reported":1726081576,"current_range_meters":29600,"station_id":"ce4bgvp2rcd13ifvqcu0","pricing_plan_id":"cebpf4jnsgd1na2vs0mg"},{"bike_id":"97cca100-b7ea-49f8-b0e4-c382f5e136de","system_id":"levelo_inurba_marseille","lat":43.299878,"lon":5.371711,"is_reserved":false,"is_disabled":false,"rental_uris":{"android":"levelo://app?vid=97cca100-b7ea-49f8-b0e4-c382f5e136de","ios":"levelo://app?vid=97cca100-b7ea-49f8-b0e4-c382f5e136de"},"vehicle_type_id":"4","last_reported":1726081576,"current_range_meters":14800,"station_id":"ce4bgr92rcd13ifvqc7g","pricing_plan_id":"cebpf4jnsgd1na2vs0mg"},{"bike_id":"143049cf-4830-4219-a121-2a60df83aa5d","system_id":"levelo_inurba_marseille","lat":43.337444,"lon":5.374475,"is_reserved":false,"is_disabled":false,"rental_uris":{"android":"levelo://app?vid=143049cf-4830-4219-a121-2a60df83aa5d","ios":"levelo://app?vid=143049cf-4830-4219-a121-2a60df83aa5d"},"vehicle_type_id":"4","last_reported":1726081576,"current_range_meters":31200,"station_id":"","pricing_plan_id":"cebpf4jnsgd1na2vs0mg"},{"bike_id":"a7e7422c-1f60-44de-8a1a-16176eb7e9bb","system_id":"levelo_inurba_marseille","lat":43.312759,"lon":5.401739,"is_reserved":false,"is_disabled":false,"rental_uris":{"android":"levelo://app?vid=a7e7422c-1f60-44de-8a1a-16176eb7e9bb","ios":"levelo://app?vid=a7e7422c-1f60-44de-8a1a-16176eb7e9bb"},"vehicle_type_id":"4","last_reported":1726081576,"current_range_meters":37600,"station_id":"ce4bh092rcd13ifvqd30","pricing_plan_id":"cebpf4jnsgd1na2vs0mg"},{"bike_id":"6933a479-ea6f-4d62-bdb5-a05f3b2e8c32","system_id":"levelo_inurba_marseille","lat":43.31076,"lon":5.42432,"is_reserved":false,"is_disabled":false,"rental_uris":{"android":"levelo://app?vid=6933a479-ea6f-4d62-bdb5-a05f3b2e8c32","ios":"levelo://app?vid=6933a479-ea6f-4d62-bdb5-a05f3b2e8c32"},"vehicle_type_id":"4","last_reported":1726081576,"current_range_meters":8400,"station_id":"ce4bhp92rcd13ifvqhag","pricing_plan_id":"cebpf4jnsgd1na2vs0mg"},{"bike_id":"3b3bee2d-7053-4676-8fc4-7bcf9f853937","system_id":"levelo_inurba_marseille","lat":43.3229,"lon":5.38275,"is_reserved":false,"is_disabled":false,"rental_uris":{"android":"levelo://app?vid=3b3bee2d-7053-4676-8fc4-7bcf9f853937","ios":"levelo://app?vid=3b3bee2d-7053-4676-8fc4-7bcf9f853937"},"vehicle_type_id":"4","last_reported":1726081576,"current_range_meters":38000,"station_id":"ce4bhr12rcd13ifvqhqg","pricing_plan_id":"cebpf4jnsgd1na2vs0mg"},{"bike_id":"047ad47f-12d9-4e34-a265-8098020725b2","system_id":"levelo_inurba_marseille","lat":43.24807,"lon":5.3746,"is_reserved":false,"is_disabled":false,"rental_uris":{"android":"levelo://app?vid=047ad47f-12d9-4e34-a265-8098020725b2","ios":"levelo://app?vid=047ad47f-12d9-4e34-a265-8098020725b2"},"vehicle_type_id":"4","last_reported":1726081576,"current_range_meters":38800,"station_id":"ce4bhgh2rcd13ifvqfb0","pricing_plan_id":"cebpf4jnsgd1na2vs0mg"},{"bike_id":"a5f48931-9a6a-4a11-90e6-c1f6abc70d4c","system_id":"levelo_inurba_marseille","lat":43.29525,"lon":5.38544,"is_reserved":false,"is_disabled":false,"rental_uris":{"android":"levelo://app?vid=a5f48931-9a6a-4a11-90e6-c1f6abc70d4c","ios":"levelo://app?vid=a5f48931-9a6a-4a11-90e6-c1f6abc70d4c"},"vehicle_type_id":"4","last_reported":1726081576,"current_range_meters":16000,"station_id":"ce4bgih2rcd13ifvqba0","pricing_plan_id":"cebpf4jnsgd1na2vs0mg"},{"bike_id":"94147736-fb5e-489f-8bc8-2e85d0c16009","system_id":"levelo_inurba_marseille","lat":43.27995,"lon":5.41662,"is_reserved":false,"is_disabled":false,"rental_uris":{"android":"levelo://app?vid=94147736-fb5e-489f-8bc8-2e85d0c16009","ios":"levelo://app?vid=94147736-fb5e-489f-8bc8-2e85d0c16009"},"vehicle_type_id":"4","last_reported":1726081576,"current_range_meters":9600,"station_id":"ce4bho12rcd13ifvqh1g","pricing_plan_id":"cebpf4jnsgd1na2vs0mg"},{"bike_id":"3d298cd3-4bd7-44eb-8726-ca29b59c9eb2","system_id":"levelo_inurba_marseille","lat":43.28103,"lon":5.37844,"is_reserved":false,"is_disabled":false,"rental_uris":{"android":"levelo://app?vid=3d298cd3-4bd7-44eb-8726-ca29b59c9eb2","ios":"levelo://app?vid=3d298cd3-4bd7-44eb-8726-ca29b59c9eb2"},"vehicle_type_id":"4","last_reported":1726081576,"current_range_meters":38800,"station_id":"ce4bha12rcd13ifvqee0","pricing_plan_id":"cebpf4jnsgd1na2vs0mg"},{"bike_id":"cec131b6-6c84-4899-9723-159f4b060af5","system_id":"levelo_inurba_marseille","lat":43.31711,"lon":5.37658,"is_reserved":false,"is_disabled":false,"rental_uris":{"android":"levelo://app?vid=cec131b6-6c84-4899-9723-159f4b060af5","ios":"levelo://app?vid=cec131b6-6c84-4899-9723-159f4b060af5"},"vehicle_type_id":"4","last_reported":1726081576,"current_range_meters":6400,"station_id":"","pricing_plan_id":"cebpf4jnsgd1na2vs0mg"},{"bike_id":"f2b3b549-7f8a-4eae-b464-4b6623533f44","system_id":"levelo_inurba_marseille","lat":43.33749,"lon":5.37451,"is_reserved":false,"is_disabled":false,"rental_uris":{"android":"levelo://app?vid=f2b3b549-7f8a-4eae-b464-4b6623533f44","ios":"levelo://app?vid=f2b3b549-7f8a-4eae-b464-4b6623533f44"},"vehicle_type_id":"4","last_reported":1726081576,"current_range_meters":31200,"station_id":"","pricing_plan_id":"cebpf4jnsgd1na2vs0mg"},{"bike_id":"f04611fc-41da-484f-a705-9095a13563c4","system_id":"levelo_inurba_marseille","lat":43.29416,"lon":5.38624,"is_reserved":false,"is_disabled":false,"rental_uris":{"android":"levelo://app?vid=f04611fc-41da-484f-a705-9095a13563c4","ios":"levelo://app?vid=f04611fc-41da-484f-a705-9095a13563c4"},"vehicle_type_id":"4","last_reported":1726081576,"current_range_meters":30000,"station_id":"ce4bh2h2rcd13ifvqdh0","pricing_plan_id":"cebpf4jnsgd1na2vs0mg"},{"bike_id":"c3e1dafc-4267-4cb7-95bf-481c0201e229","system_id":"levelo_inurba_marseille","lat":43.25831,"lon":5.3943,"is_reserved":false,"is_disabled":false,"rental_uris":{"android":"levelo://app?vid=c3e1dafc-4267-4cb7-95bf-481c0201e229","ios":"levelo://app?vid=c3e1dafc-4267-4cb7-95bf-481c0201e229"},"vehicle_type_id":"4","last_reported":1726081576,"current_range_meters":20800,"station_id":"ce4bhip2rcd13ifvqft0","pricing_plan_id":"cebpf4jnsgd1na2vs0mg"},{"bike_id":"beac5734-e1a9-4bf5-bd98-5a5aa5d81d2b","system_id":"levelo_inurba_marseille","lat":43.279393,"lon":5.410502,"is_reserved":false,"is_disabled":false,"rental_uris":{"android":"levelo://app?vid=beac5734-e1a9-4bf5-bd98-5a5aa5d81d2b","ios":"levelo://app?vid=beac5734-e1a9-4bf5-bd98-5a5aa5d81d2b"},"vehicle_type_id":"4","last_reported":1726081576,"current_range_meters":34800,"station_id":"ce4bh192rcd13ifvqdd0","pricing_plan_id":"cebpf4jnsgd1na2vs0mg"},{"bike_id":"fffbd652-9d9a-47e9-892c-68dc09e02ddb","system_id":"levelo_inurba_marseille","lat":43.2408,"lon":5.37735,"is_reserved":false,"is_disabled":false,"rental_uris":{"android":"levelo://app?vid=fffbd652-9d9a-47e9-892c-68dc09e02ddb","ios":"levelo://app?vid=fffbd652-9d9a-47e9-892c-68dc09e02ddb"},"vehicle_type_id":"4","last_reported":1726081576,"current_range_meters":32000,"station_id":"ce4bhnp2rcd13ifvqgvg","pricing_plan_id":"cebpf4jnsgd1na2vs0mg"},{"bike_id":"9da6e4c3-6aaa-4536-90f1-435c0689f25a","system_id":"levelo_inurba_marseille","lat":43.29535,"lon":5.38546,"is_reserved":false,"is_disabled":false,"rental_uris":{"android":"levelo://app?vid=9da6e4c3-6aaa-4536-90f1-435c0689f25a","ios":"levelo://app?vid=9da6e4c3-6aaa-4536-90f1-435c0689f25a"},"vehicle_type_id":"4","last_reported":1726081576,"current_range_meters":38000,"station_id":"ce4bgih2rcd13ifvqba0","pricing_plan_id":"cebpf4jnsgd1na2vs0mg"},{"bike_id":"a0a148a0-3ff4-4c3e-b861-f993675c022d","system_id":"levelo_inurba_marseille","lat":43.24075,"lon":5.37764,"is_reserved":false,"is_disabled":false,"rental_uris":{"android":"levelo://app?vid=a0a148a0-3ff4-4c3e-b861-f993675c022d","ios":"levelo://app?vid=a0a148a0-3ff4-4c3e-b861-f993675c022d"},"vehicle_type_id":"4","last_reported":1726081576,"current_range_meters":8800,"station_id":"ce4bhnp2rcd13ifvqgvg","pricing_plan_id":"cebpf4jnsgd1na2vs0mg"},{"bike_id":"b5c6c76e-03fc-4943-960a-3378f76aecf2","system_id":"levelo_inurba_marseille","lat":43.286957,"lon":5.399969,"is_reserved":false,"is_disabled":false,"rental_uris":{"android":"levelo://app?vid=b5c6c76e-03fc-4943-960a-3378f76aecf2","ios":"levelo://app?vid=b5c6c76e-03fc-4943-960a-3378f76aecf2"},"vehicle_type_id":"4","last_reported":1726081576,"current_range_meters":4000,"station_id":"ce4bh3h2rcd13ifvqdo0","pricing_plan_id":"cebpf4jnsgd1na2vs0mg"},{"bike_id":"efc56ccd-19c8-4639-83af-656ebbe55a0b","system_id":"levelo_inurba_marseille","lat":43.29197,"lon":5.35807,"is_reserved":false,"is_disabled":false,"rental_uris":{"android":"levelo://app?vid=efc56ccd-19c8-4639-83af-656ebbe55a0b","ios":"levelo://app?vid=efc56ccd-19c8-4639-83af-656ebbe55a0b"},"vehicle_type_id":"4","last_reported":1726081576,"current_range_meters":36000,"station_id":"ce4bhb12rcd13ifvqel0","pricing_plan_id":"cebpf4jnsgd1na2vs0mg"},{"bike_id":"e29319f0-1c3a-4e10-a2b6-892457274551","system_id":"levelo_inurba_marseille","lat":43.31123,"lon":5.37763,"is_reserved":false,"is_disabled":false,"rental_uris":{"android":"levelo://app?vid=e29319f0-1c3a-4e10-a2b6-892457274551","ios":"levelo://app?vid=e29319f0-1c3a-4e10-a2b6-892457274551"},"vehicle_type_id":"4","last_reported":1726081576,"current_range_meters":33600,"station_id":"ce4bgt92rcd13ifvqcg0","pricing_plan_id":"cebpf4jnsgd1na2vs0mg"},{"bike_id":"fe9bd51e-9904-43a3-8a46-63210ae4c021","system_id":"levelo_inurba_marseille","lat":43.29919,"lon":5.37464,"is_reserved":false,"is_disabled":false,"rental_uris":{"android":"levelo://app?vid=fe9bd51e-9904-43a3-8a46-63210ae4c021","ios":"levelo://app?vid=fe9bd51e-9904-43a3-8a46-63210ae4c021"},"vehicle_type_id":"4","last_reported":1726081576,"current_range_meters":2800,"station_id":"ce4bgjh2rcd13ifvqbg0","pricing_plan_id":"cebpf4jnsgd1na2vs0mg"},{"bike_id":"c1a52399-72f6-43f3-a209-526627a73018","system_id":"levelo_inurba_marseille","lat":43.28374,"lon":5.38641,"is_reserved":false,"is_disabled":false,"rental_uris":{"android":"levelo://app?vid=c1a52399-72f6-43f3-a209-526627a73018","ios":"levelo://app?vid=c1a52399-72f6-43f3-a209-526627a73018"},"vehicle_type_id":"4","last_reported":1726081576,"current_range_meters":8800,"station_id":"ce4bh492rcd13ifvqdvg","pricing_plan_id":"cebpf4jnsgd1na2vs0mg"},{"bike_id":"1b798f21-a5c3-4d13-b023-b90a7963bd8b","system_id":"levelo_inurba_marseille","lat":43.29189,"lon":5.39316,"is_reserved":false,"is_disabled":false,"rental_uris":{"android":"levelo://app?vid=1b798f21-a5c3-4d13-b023-b90a7963bd8b","ios":"levelo://app?vid=1b798f21-a5c3-4d13-b023-b90a7963bd8b"},"vehicle_type_id":"4","last_reported":1726081576,"current_range_meters":6400,"station_id":"ce4bh192rcd13ifvqdd0","pricing_plan_id":"cebpf4jnsgd1na2vs0mg"},{"bike_id":"2ac1ce92-e83f-48c1-8be0-35e4da4cb98f","system_id":"levelo_inurba_marseille","lat":43.24185,"lon":5.39733,"is_reserved":false,"is_disabled":false,"rental_uris":{"android":"levelo://app?vid=2ac1ce92-e83f-48c1-8be0-35e4da4cb98f","ios":"levelo://app?vid=2ac1ce92-e83f-48c1-8be0-35e4da4cb98f"},"vehicle_type_id":"4","last_reported":1726081576,"current_range_meters":21600,"station_id":"ce4bhn12rcd13ifvqgpg","pricing_plan_id":"cebpf4jnsgd1na2vs0mg"},{"bike_id":"57a1f05f-a068-434f-bdd0-a00f2f8b1f1f","system_id":"levelo_inurba_marseille","lat":43.25871,"lon":5.39898,"is_reserved":false,"is_disabled":false,"rental_uris":{"android":"levelo://app?vid=57a1f05f-a068-434f-bdd0-a00f2f8b1f1f","ios":"levelo://app?vid=57a1f05f-a068-434f-bdd0-a00f2f8b1f1f"},"vehicle_type_id":"4","last_reported":1726081576,"current_range_meters":22800,"station_id":"ce4bhl92rcd13ifvqghg","pricing_plan_id":"cebpf4jnsgd1na2vs0mg"},{"bike_id":"9bed756d-b59c-4e18-abbb-3bba0eed5d61","system_id":"levelo_inurba_marseille","lat":43.27204,"lon":5.39175,"is_reserved":false,"is_disabled":false,"rental_uris":{"android":"levelo://app?vid=9bed756d-b59c-4e18-abbb-3bba0eed5d61","ios":"levelo://app?vid=9bed756d-b59c-4e18-abbb-3bba0eed5d61"},"vehicle_type_id":"4","last_reported":1726081576,"current_range_meters":32800,"station_id":"ce4bhhp2rcd13ifvqfm0","pricing_plan_id":"cebpf4jnsgd1na2vs0mg"},{"bike_id":"c41cd3a1-4f61-4899-a7fb-f8fa41c41092","system_id":"levelo_inurba_marseille","lat":43.29165,"lon":5.37162,"is_reserved":false,"is_disabled":false,"rental_uris":{"android":"levelo://app?vid=c41cd3a1-4f61-4899-a7fb-f8fa41c41092","ios":"levelo://app?vid=c41cd3a1-4f61-4899-a7fb-f8fa41c41092"},"vehicle_type_id":"4","last_reported":1726081576,"current_range_meters":32000,"station_id":"ce4bha92rcd13ifvqeh0","pricing_plan_id":"cebpf4jnsgd1na2vs0mg"},{"bike_id":"14692876-7f07-4a85-bdc1-f19b7909707c","system_id":"levelo_inurba_marseille","lat":43.29574,"lon":5.37522,"is_reserved":false,"is_disabled":false,"rental_uris":{"android":"levelo://app?vid=14692876-7f07-4a85-bdc1-f19b7909707c","ios":"levelo://app?vid=14692876-7f07-4a85-bdc1-f19b7909707c"},"vehicle_type_id":"4","last_reported":1726081576,"current_range_meters":8000,"station_id":"ce4bgh92rcd13ifvqb50","pricing_plan_id":"cebpf4jnsgd1na2vs0mg"},{"bike_id":"8e2df5db-b727-4bdf-9e3c-79ebfcae4bd3","system_id":"levelo_inurba_marseille","lat":43.286926,"lon":5.373893,"is_reserved":false,"is_disabled":false,"rental_uris":{"android":"levelo://app?vid=8e2df5db-b727-4bdf-9e3c-79ebfcae4bd3","ios":"levelo://app?vid=8e2df5db-b727-4bdf-9e3c-79ebfcae4bd3"},"vehicle_type_id":"4","last_reported":1726081576,"current_range_meters":14800,"station_id":"ce4bh3p2rcd13ifvqdq0","pricing_plan_id":"cebpf4jnsgd1na2vs0mg"},{"bike_id":"6a567ef3-fa44-4ec3-a66a-d59315bd5395","system_id":"levelo_inurba_marseille","lat":43.29576,"lon":5.36745,"is_reserved":false,"is_disabled":false,"rental_uris":{"android":"levelo://app?vid=6a567ef3-fa44-4ec3-a66a-d59315bd5395","ios":"levelo://app?vid=6a567ef3-fa44-4ec3-a66a-d59315bd5395"},"vehicle_type_id":"4","last_reported":1726081576,"current_range_meters":8800,"station_id":"ce4bgph2rcd13ifvqc2g","pricing_plan_id":"cebpf4jnsgd1na2vs0mg"},{"bike_id":"c6f1bbdf-fd4d-491a-bfde-f4fbfb9518ed","system_id":"levelo_inurba_marseille","lat":43.28032,"lon":5.36956,"is_reserved":false,"is_disabled":false,"rental_uris":{"android":"levelo://app?vid=c6f1bbdf-fd4d-491a-bfde-f4fbfb9518ed","ios":"levelo://app?vid=c6f1bbdf-fd4d-491a-bfde-f4fbfb9518ed"},"vehicle_type_id":"4","last_reported":1726081576,"current_range_meters":28000,"station_id":"ce4bha12rcd13ifvqef0","pricing_plan_id":"cebpf4jnsgd1na2vs0mg"},{"bike_id":"78191612-45af-4ba1-bf32-9765636316a6","system_id":"levelo_inurba_marseille","lat":43.26943,"lon":5.40254,"is_reserved":false,"is_disabled":false,"rental_uris":{"android":"levelo://app?vid=78191612-45af-4ba1-bf32-9765636316a6","ios":"levelo://app?vid=78191612-45af-4ba1-bf32-9765636316a6"},"vehicle_type_id":"4","last_reported":1726081576,"current_range_meters":30800,"station_id":"cjm6bp8fraef2m0cb0m0","pricing_plan_id":"cebpf4jnsgd1na2vs0mg"},{"bike_id":"f3dd58dc-ab4b-4ec7-8d1b-661fa0880a62","system_id":"levelo_inurba_marseille","lat":43.29555,"lon":5.42286,"is_reserved":false,"is_disabled":false,"rental_uris":{"android":"levelo://app?vid=f3dd58dc-ab4b-4ec7-8d1b-661fa0880a62","ios":"levelo://app?vid=f3dd58dc-ab4b-4ec7-8d1b-661fa0880a62"},"vehicle_type_id":"4","last_reported":1726081576,"current_range_meters":25200,"station_id":"ce4bhph2rcd13ifvqhdg","pricing_plan_id":"cebpf4jnsgd1na2vs0mg"},{"bike_id":"3c45e72c-a88e-44aa-8bca-e1a0ffd178f8","system_id":"levelo_inurba_marseille","lat":43.27529,"lon":5.43437,"is_reserved":false,"is_disabled":false,"rental_uris":{"android":"levelo://app?vid=3c45e72c-a88e-44aa-8bca-e1a0ffd178f8","ios":"levelo://app?vid=3c45e72c-a88e-44aa-8bca-e1a0ffd178f8"},"vehicle_type_id":"4","last_reported":1726081576,"current_range_meters":4400,"station_id":"","pricing_plan_id":"cebpf4jnsgd1na2vs0mg"},{"bike_id":"42880d3e-8366-4764-a373-e7aa6ec43602","system_id":"levelo_inurba_marseille","lat":43.29016,"lon":5.38148,"is_reserved":false,"is_disabled":false,"rental_uris":{"android":"levelo://app?vid=42880d3e-8366-4764-a373-e7aa6ec43602","ios":"levelo://app?vid=42880d3e-8366-4764-a373-e7aa6ec43602"},"vehicle_type_id":"4","last_reported":1726081576,"current_range_meters":38000,"station_id":"ce4bh4p2rcd13ifvqe1g","pricing_plan_id":"cebpf4jnsgd1na2vs0mg"},{"bike_id":"e09130da-0942-4993-981b-ba7fc84dede4","system_id":"levelo_inurba_marseille","lat":43.30133,"lon":5.39861,"is_reserved":false,"is_disabled":false,"rental_uris":{"android":"levelo://app?vid=e09130da-0942-4993-981b-ba7fc84dede4","ios":"levelo://app?vid=e09130da-0942-4993-981b-ba7fc84dede4"},"vehicle_type_id":"4","last_reported":1726081576,"current_range_meters":23200,"station_id":"ce4bh0h2rcd13ifvqd40","pricing_plan_id":"cebpf4jnsgd1na2vs0mg"},{"bike_id":"00845bbc-fed0-4944-9a96-d4737edc6320","system_id":"levelo_inurba_marseille","lat":43.28411,"lon":5.37514,"is_reserved":false,"is_disabled":false,"rental_uris":{"android":"levelo://app?vid=00845bbc-fed0-4944-9a96-d4737edc6320","ios":"levelo://app?vid=00845bbc-fed0-4944-9a96-d4737edc6320"},"vehicle_type_id":"4","last_reported":1726081576,"current_range_meters":34800,"station_id":"ce4bh412rcd13ifvqds0","pricing_plan_id":"cebpf4jnsgd1na2vs0mg"},{"bike_id":"32846fc3-f252-4e82-a920-099fd3feb84a","system_id":"levelo_inurba_marseille","lat":43.3088,"lon":5.39643,"is_reserved":false,"is_disabled":false,"rental_uris":{"android":"levelo://app?vid=32846fc3-f252-4e82-a920-099fd3feb84a","ios":"levelo://app?vid=32846fc3-f252-4e82-a920-099fd3feb84a"},"vehicle_type_id":"4","last_reported":1726081576,"current_range_meters":27600,"station_id":"ce4bh012rcd13ifvqcv0","pricing_plan_id":"cebpf4jnsgd1na2vs0mg"},{"bike_id":"26b3987f-125a-4630-b183-365d71e5e527","system_id":"levelo_inurba_marseille","lat":43.29096,"lon":5.38133,"is_reserved":false,"is_disabled":false,"rental_uris":{"android":"levelo://app?vid=26b3987f-125a-4630-b183-365d71e5e527","ios":"levelo://app?vid=26b3987f-125a-4630-b183-365d71e5e527"},"vehicle_type_id":"4","last_reported":1726081576,"current_range_meters":39200,"station_id":"ce4bh512rcd13ifvqe2g","pricing_plan_id":"cebpf4jnsgd1na2vs0mg"},{"bike_id":"34cc4144-539e-45b6-b4ec-aa87165b82ec","system_id":"levelo_inurba_marseille","lat":43.25867,"lon":5.39896,"is_reserved":false,"is_disabled":false,"rental_uris":{"android":"levelo://app?vid=34cc4144-539e-45b6-b4ec-aa87165b82ec","ios":"levelo://app?vid=34cc4144-539e-45b6-b4ec-aa87165b82ec"},"vehicle_type_id":"4","last_reported":1726081576,"current_range_meters":14400,"station_id":"ce4bhl92rcd13ifvqghg","pricing_plan_id":"cebpf4jnsgd1na2vs0mg"},{"bike_id":"307f7f95-0104-41bd-b595-994159fbd609","system_id":"levelo_inurba_marseille","lat":43.30813,"lon":5.43529,"is_reserved":false,"is_disabled":false,"rental_uris":{"android":"levelo://app?vid=307f7f95-0104-41bd-b595-994159fbd609","ios":"levelo://app?vid=307f7f95-0104-41bd-b595-994159fbd609"},"vehicle_type_id":"4","last_reported":1726081576,"current_range_meters":12000,"station_id":"ce4bhph2rcd13ifvqheg","pricing_plan_id":"cebpf4jnsgd1na2vs0mg"},{"bike_id":"749d1bab-6b86-47aa-ac6e-96feacaad070","system_id":"levelo_inurba_marseille","lat":43.25497,"lon":5.37652,"is_reserved":false,"is_disabled":false,"rental_uris":{"android":"levelo://app?vid=749d1bab-6b86-47aa-ac6e-96feacaad070","ios":"levelo://app?vid=749d1bab-6b86-47aa-ac6e-96feacaad070"},"vehicle_type_id":"4","last_reported":1726081576,"current_range_meters":8000,"station_id":"ce4bhgh2rcd13ifvqfa0","pricing_plan_id":"cebpf4jnsgd1na2vs0mg"},{"bike_id":"6cc95b7a-cb37-48e2-8682-a1d2bf2d8e96","system_id":"levelo_inurba_marseille","lat":43.30524,"lon":5.36554,"is_reserved":false,"is_disabled":false,"rental_uris":{"android":"levelo://app?vid=6cc95b7a-cb37-48e2-8682-a1d2bf2d8e96","ios":"levelo://app?vid=6cc95b7a-cb37-48e2-8682-a1d2bf2d8e96"},"vehicle_type_id":"4","last_reported":1726081576,"current_range_meters":6400,"station_id":"ce4bgs12rcd13ifvqcag","pricing_plan_id":"cebpf4jnsgd1na2vs0mg"},