{"last_updated":1738444093,"ttl":60,"version":"2.2","data":{"bikes":[{"bike_id":"5121270c-1c11-4ce0-892b-9a8960db6210","system_id":"levelo_inurba_marseille","lat":43.31753,"lon":5.39002,"is_reserved":false,"is_disabled":false,"rental_uris":{"android":"levelo://app?vid=5121270c-1c11-4ce0-892b-9a8960db6210","ios":"levelo://app?vid=5121270c-1c11-4ce0-892b-9a8960db6210"},"vehicle_type_id":"4","last_reported":1738444093,"current_range_meters":28400,"station_id":"ce4bhqp2rcd13ifvqhng","pricing_plan_id":"cebpf4jnsgd1na2vs0mg"},{"bike_id":"7ac6de87-4cb5-4d58-adc2-a7c162322d3f","system_id":"levelo_inurba_marseille","lat":43.28471,"lon":5.38434,"is_reserved":false,"is_disabled":true,"rental_uris":{"android":"levelo://app?vid=7ac6de87-4cb5-4d58-adc2-a7c162322d3f","ios":"levelo://app?vid=7ac6de87-4cb5-4d58-adc2-a7c162322d3f"},"vehicle_type_id":"4","last_reported":1738444093,"current_range_meters":23200,"station_id":"ce4bh512rcd13ifvqe3g","pricing_plan_id":"cebpf4jnsgd1na2vs0mg"},{"bike_id":"9091112d-c886-4d63-835e-a2d7c0d758b0","system_id":"levelo_inurba_marseille","lat":43.29176,"lon":5.37153,"is_reserved":false,"is_disabled":false,"rental_uris":{"android":"levelo://app?vid=9091112d-c886-4d63-835e-a2d7c0d758b0","ios":"levelo://app?vid=9091112d-c886-4d63-835e-a2d7c0d758b0"},"vehicle_type_id":"4","last_reported":1738444093,"current_range_meters":39200,"station_id":"ce4bha92rcd13ifvqeh0","pricing_plan_id":"cebpf4jnsgd1na2vs0mg"},{"bike_id":"ea592dab-5ee4-4360-8b15-75de7d0cae17","system_id":"levelo_inurba_marseille","lat":43.30123,"lon":5.38774,"is_reserved":false,"is_disabled":false,"rental_uris":{"android":"levelo://app?vid=ea592dab-5ee4-4360-8b15-75de7d0cae17","ios":"levelo://app?vid=ea592dab-5ee4-4360-8b15-75de7d0cae17"},"vehicle_type_id":"4","last_reported":1738444093,"current_range_meters":26000,"station_id":"ce4bghh2rcd13ifvqb60","pricing_plan_id":"cebpf4jnsgd1na2vs0mg"},{"bike_id":"2afab6cd-a9e5-4155-8796-80c618679353","system_id":"levelo_inurba_marseille","lat":43.29282,"lon":5.37401,"is_reserved":false,"is_disabled":false,"rental_uris":{"android":"levelo://app?vid=2afab6cd-a9e5-4155-8796-80c618679353","ios":"levelo://app?vid=2afab6cd-a9e5-4155-8796-80c618679353"},"vehicle_type_id":"4","last_reported":1738444093,"current_range_meters":39200,"station_id":"ce4bgi12rcd13ifvqb70","pricing_plan_id":"cebpf4jnsgd1na2vs0mg"},{"bike_id":"68ec889f-fbad-4ec7-bbe1-dbda6b88a3f5","system_id":"levelo_inurba_marseille","lat":43.29025,"lon":5.3865,"is_reserved":false,"is_disabled":true,"rental_uris":{"android":"levelo://app?vid=68ec889f-fbad-4ec7-bbe1-dbda6b88a3f5","ios":"levelo://app?vid=68ec889f-fbad-4ec7-bbe1-dbda6b88a3f5"},"vehicle_type_id":"4","last_reported":1738444093,"current_range_meters":28000,"station_id":"ce4bh4p2rcd13ifvqe0g","pricing_plan_id":"cebpf4jnsgd1na2vs0mg"},{"bike_id":"9ce610fb-10e6-4c85-8f79-3c4377232d1a","system_id":"levelo_inurba_marseille","lat":43.25793,"lon":5.39429,"is_reserved":false,"is_disabled":false,"rental_uris":{"android":"levelo://app?vid=9ce610fb-10e6-4c85-8f79-3c4377232d1a","ios":"levelo://app?vid=9ce610fb-10e6-4c85-8f79-3c4377232d1a"},"vehicle_type_id":"4","last_reported":1738444093,"current_range_meters":22800,"station_id":"ce4bhip2rcd13ifvqft0","pricing_plan_id":"cebpf4jnsgd1na2vs0mg"},{"bike_id":"6291ceac-de6b-498d-b60b-238986c9b871","system_id":"levelo_inurba_marseille","lat":43.31112,"lon":5.37755,"is_reserved":false,"is_disabled":false,"rental_uris":{"android":"levelo://app?vid=6291ceac-de6b-498d-b60b-238986c9b871","ios":"levelo://app?vid=6291ceac-de6b-498d-b60b-238986c9b871"},"vehicle_type_id":"4","last_reported":1738444093,"current_range_meters":18000,"station_id":"ce4bgt92rcd13ifvqcg0","pricing_plan_id":"cebpf4jnsgd1na2vs0mg"},{"bike_id":"ed3b7fbe-dd9d-4bab-8f42-a2405c5dd34c","system_id":"levelo_inurba_marseille","lat":43.26732,"lon":5.38325,"is_reserved":false,"is_disabled":false,"rental_uris":{"android":"levelo://app?vid=ed3b7fbe-dd9d-4bab-8f42-a2405c5dd34c","ios":"levelo://app?vid=ed3b7fbe-dd9d-4bab-8f42-a2405c5dd34c"},"vehicle_type_id":"4","last_reported":1738444093,"current_range_meters":38800,"station_id":"ce4bhg92rcd13ifvqf90","pricing_plan_id":"cebpf4jnsgd1na2vs0mg"},{"bike_id":"790aab05-0654-48a5-9ff3-9d96b70d374f","system_id":"levelo_inurba_marseille","lat":43.27048,"lon":5.40287,"is_reserved":false,"is_disabled":false,"rental_uris":{"android":"levelo://app?vid=790aab05-0654-48a5-9ff3-9d96b70d374f","ios":"levelo://app?vid=790aab05-0654-48a5-9ff3-9d96b70d374f"},"vehicle_type_id":"4","last_reported":1738444093,"current_range_meters":23200,"station_id":"ce4bhk92rcd13ifvqgc0","pricing_plan_id":"cebpf4jnsgd1na2vs0mg"},{"bike_id":"0fbceb1b-1a09-42c6-8f5f-4eab86b3daff","system_id":"levelo_inurba_marseille","lat":43.30254,"lon":5.40081,"is_reserved":false,"is_disabled":false,"rental_uris":{"android":"levelo://app?vid=0fbceb1b-1a09-42c6-8f5f-4eab86b3daff","ios":"levelo://app?vid=0fbceb1b-1a09-42c6-8f5f-4eab86b3daff"},"vehicle_type_id":"4","last_reported":1738444093,"current_range_meters":35600,"station_id":"ce4bgvh2rcd13ifvqcs0","pricing_plan_id":"cebpf4jnsgd1na2vs0mg"},{"bike_id":"66aa5b8e-9b4b-4b4b-ac68-bc952f0f7213","system_id":"levelo_inurba_marseille","lat":43.29068,"lon":5.37211,"is_reserved":false,"is_disabled":false,"rental_uris":{"android":"levelo://app?vid=66aa5b8e-9b4b-4b4b-ac68-bc952f0f7213","ios":"levelo://app?vid=66aa5b8e-9b4b-4b4b-ac68-bc952f0f7213"},"vehicle_type_id":"4","last_reported":1738444093,"current_range_meters":38800,"station_id":"ce4bh5p2rcd13ifvqe4g","pricing_plan_id":"cebpf4jnsgd1na2vs0mg"},{"bike_id":"babeb983-9900-45dd-9c39-c974059de659","system_id":"levelo_inurba_marseille","lat":43.26816,"lon":5.40234,"is_reserved":false,"is_disabled":false,"rental_uris":{"android":"levelo://app?vid=babeb983-9900-45dd-9c39-c974059de659","ios":"levelo://app?vid=babeb983-9900-45dd-9c39-c974059de659"},"vehicle_type_id":"4","last_reported":1738444093,"current_range_meters":38800,"station_id":"ce501612rcd8frsf0b60","pricing_plan_id":"cebpf4jnsgd1na2vs0mg"},{"bike_id":"fc956d04-c3d4-49af-a96f-09d8a9fa43c4","system_id":"levelo_inurba_marseille","lat":43.29995,"lon":5.37167,"is_reserved":false,"is_disabled":false,"rental_uris":{"android":"levelo://app?vid=fc956d04-c3d4-49af-a96f-09d8a9fa43c4","ios":"levelo://app?vid=fc956d04-c3d4-49af-a96f-09d8a9fa43c4"},"vehicle_type_id":"4","last_reported":1738444093,"current_range_meters":27600,"station_id":"ce4bgr92rcd13ifvqc7g","pricing_plan_id":"cebpf4jnsgd1na2vs0mg"},{"bike_id":"36ab5ecb-529f-436a-8580-b52897f61d50","system_id":"levelo_inurba_marseille","lat":43.29223,"lon":5.3609,"is_reserved":false,"is_disabled":false,"rental_uris":{"android":"levelo://app?vid=36ab5ecb-529f-436a-8580-b52897f61d50","ios":"levelo://app?vid=36ab5ecb-529f-436a-8580-b52897f61d50"},"vehicle_type_id":"4","last_reported":1738444093,"current_range_meters":38000,"station_id":"ce4bhbh2rcd13ifvqeqg","pricing_plan_id":"cebpf4jnsgd1na2vs0mg"},{"bike_id":"c611a80d-56a5-48d4-bfea-cb38198ac066","system_id":"levelo_inurba_marseille","lat":43.29433,"lon":5.39758,"is_reserved":false,"is_disabled":false,"rental_uris":{"android":"levelo://app?vid=c611a80d-56a5-48d4-bfea-cb38198ac066","ios":"levelo://app?vid=c611a80d-56a5-48d4-bfea-cb38198ac066"},"vehicle_type_id":"4","last_reported":1738444093,"current_range_meters":37600,"station_id":"ce4bh3h2rcd13ifvqdo0","pricing_plan_id":"cebpf4jnsgd1na2vs0mg"},{"bike_id":"96b58446-7f6e-4253-abc9-cf735f6760db","system_id":"levelo_inurba_marseille","lat":43.29851,"lon":5.3627,"is_reserved":false,"is_disabled":false,"rental_uris":{"android":"levelo://app?vid=96b58446-7f6e-4253-abc9-cf735f6760db","ios":"levelo://app?vid=96b58446-7f6e-4253-abc9-cf735f6760db"},"vehicle_type_id":"4","last_reported":1738444093,"current_range_meters":38800,"station_id":"ce4bgpp2rcd13ifvqc3g","pricing_plan_id":"cebpf4jnsgd1na2vs0mg"},{"bike_id":"8d54af54-24d2-4781-81ce-174a43c53017","system_id":"levelo_inurba_marseille","lat":43.27902,"lon":5.38008,"is_reserved":false,"is_disabled":false,"rental_uris":{"android":"levelo://app?vid=8d54af54-24d2-4781-81ce-174a43c53017","ios":"levelo://app?vid=8d54af54-24d2-4781-81ce-174a43c53017"},"vehicle_type_id":"4","last_reported":1738444093,"current_range_meters":6400,"station_id":"ce4bhf92rcd13ifvqf50","pricing_plan_id":"cebpf4jnsgd1na2vs0mg"},{"bike_id":"1fbf3f20-0930-4b85-8900-561217e5a0eb","system_id":"levelo_inurba_marseille","lat":43.30401,"lon":5.41281,"is_reserved":false,"is_disabled":false,"rental_uris":{"android":"levelo://app?vid=1fbf3f20-0930-4b85-8900-561217e5a0eb","ios":"levelo://app?vid=1fbf3f20-0930-4b85-8900-561217e5a0eb"},"vehicle_type_id":"4","last_reported":1738444093,"current_range_meters":24000,"station_id":"ce4bhop2rcd13ifvqh8g","pricing_plan_id":"cebpf4jnsgd1na2vs0mg"},{"bike_id":"45bba3d4-c51e-4529-b556-4bbbe3f825a0","system_id":"levelo_inurba_marseille","lat":43.26957,"lon":5.38631,"is_reserved":false,"is_disabled":false,"rental_uris":{"android":"levelo://app?vid=45bba3d4-c51e-4529-b556-4bbbe3f825a0","ios":"levelo://app?vid=45bba3d4-c51e-4529-b556-4bbbe3f825a0"},"vehicle_type_id":"4","last_reported":1738444093,"current_range_meters":38400,"station_id":"ce4bhh92rcd13ifvqfh0","pricing_plan_id":"cebpf4jnsgd1na2vs0mg"},{"bike_id":"b7e1f20f-055e-479b-88c2-d857a7220b74","system_id":"levelo_inurba_marseille","lat":43.25109,"lon":5.40311,"is_reserved":false,"is_disabled":false,"rental_uris":{"android":"levelo://app?vid=b7e1f20f-055e-479b-88c2-d857a7220b74","ios":"levelo://app?vid=b7e1f20f-055e-479b-88c2-d857a7220b74"},"vehicle_type_id":"4","last_reported":1738444093,"current_range_meters":39200,"station_id":"ce4bhlh2rcd13ifvqgig","pricing_plan_id":"cebpf4jnsgd1na2vs0mg"},{"bike_id":"b53cf432-0e47-4b61-a305-952377a64c88","system_id":"levelo_inurba_marseille","lat":43.30791,"lon":5.38154,"is_reserved":false,"is_disabled":true,"rental_uris":{"android":"levelo://app?vid=b53cf432-0e47-4b61-a305-952377a64c88","ios":"levelo://app?vid=b53cf432-0e47-4b61-a305-952377a64c88"},"vehicle_type_id":"4","last_reported":1738444093,"current_range_meters":38800,"station_id":"ce4bgt12rcd13ifvqce0","pricing_plan_id":"cebpf4jnsgd1na2vs0mg"},{"bike_id":"5206335d-6e33-40fd-97fa-4c2d2c1057e1","system_id":"levelo_inurba_marseille","lat":43.27943,"lon":5.41049,"is_reserved":false,"is_disabled":false,"rental_uris":{"android":"levelo://app?vid=5206335d-6e33-40fd-97fa-4c2d2c1057e1","ios":"levelo://app?vid=5206335d-6e33-40fd-97fa-4c2d2c1057e1"},"vehicle_type_id":"4","last_reported":1738444093,"current_range_meters":22800,"station_id":"ce4bhnp2rcd13ifvqh0g","pricing_plan_id":"cebpf4jnsgd1na2vs0mg"},{"bike_id":"13a71ca0-af90-4e61-a6f2-18a028732efe","system_id":"levelo_inurba_marseille","lat":43.25087,"lon":5.39518,"is_reserved":false,"is_disabled":false,"rental_uris":{"android":"levelo://app?vid=13a71ca0-af90-4e61-a6f2-18a028732efe","ios":"levelo://app?vid=13a71ca0-af90-4e61-a6f2-18a028732efe"},"vehicle_type_id":"4","last_reported":1738444093,"current_range_meters":31200,"station_id":"ce4bhm12rcd13ifvqgkg","pricing_plan_id":"cebpf4jnsgd1na2vs0mg"},{"bike_id":"5453028c-5b79-4f04-82ef-dad10c29b612","system_id":"levelo_inurba_marseille","lat":43.28685,"lon":5.38659,"is_reserved":false,"is_disabled":false,"rental_uris":{"android":"levelo://app?vid=5453028c-5b79-4f04-82ef-dad10c29b612","ios":"levelo://app?vid=5453028c-5b79-4f04-82ef-dad10c29b612"},"vehicle_type_id":"4","last_reported":1738444093,"current_range_meters":20400,"station_id":"ce4bh492rcd13ifvqdug","pricing_plan_id":"cebpf4jnsgd1na2vs0mg"},{"bike_id":"c6f70c0d-9ef5-4c3f-831b-20a2d863d820","system_id":"levelo_inurba_marseille","lat":43.29074,"lon":5.3717,"is_reserved":false,"is_disabled":false,"rental_uris":{"android":"levelo://app?vid=c6f70c0d-9ef5-4c3f-831b-20a2d863d820","ios":"levelo://app?vid=c6f70c0d-9ef5-4c3f-831b-20a2d863d820"},"vehicle_type_id":"4","last_reported":1738444093,"current_range_meters":20000,"station_id":"ce4bh5p2rcd13ifvqe4g","pricing_plan_id":"cebpf4jnsgd1na2vs0mg"},{"bike_id":"8784a30a-a330-4b05-89bf-f5db332a6fc3","system_id":"levelo_inurba_marseille","lat":43.28712,"lon":5.37917,"is_reserved":false,"is_disabled":false,"rental_uris":{"android":"levelo://app?vid=8784a30a-a330-4b05-89bf-f5db332a6fc3","ios":"levelo://app?vid=8784a30a-a330-4b05-89bf-f5db332a6fc3"},"vehicle_type_id":"4","last_reported":1738444093,"current_range_meters":34000,"station_id":"ce4bh9p2rcd13ifvqec0","pricing_plan_id":"cebpf4jnsgd1na2vs0mg"},{"bike_id":"616ab4bd-85f5-4e17-a0e2-7b3122796fc9","system_id":"levelo_inurba_marseille","lat":43.29626,"lon":5.3716,"is_reserved":false,"is_disabled":false,"rental_uris":{"android":"levelo://app?vid=616ab4bd-85f5-4e17-a0e2-7b3122796fc9","ios":"levelo://app?vid=616ab4bd-85f5-4e17-a0e2-7b3122796fc9"},"vehicle_type_id":"4","last_reported":1738444093,"current_range_meters":25600,"station_id":"ce4bgnh2rcd13ifvqc0g","pricing_plan_id":"cebpf4jnsgd1na2vs0mg"},{"bike_id":"a1361b83-7dfc-447a-91a0-ca180866041b","system_id":"levelo_inurba_marseille","lat":43.3237,"lon":5.36763,"is_reserved":false,"is_disabled":false,"rental_uris":{"android":"levelo://app?vid=a1361b83-7dfc-447a-91a0-ca180866041b","ios":"levelo://app?vid=a1361b83-7dfc-447a-91a0-ca180866041b"},"vehicle_type_id":"4","last_reported":1738444093,"current_range_meters":29600,"station_id":"ce4bhsh2rcd13ifvqi2g","pricing_plan_id":"cebpf4jnsgd1na2vs0mg"},{"bike_id":"641e6133-b2c1-4943-9f45-d2d25aab5db7","system_id":"levelo_inurba_marseille","lat":43.29278,"lon":5.37399,"is_reserved":false,"is_disabled":false,"rental_uris":{"android":"levelo://app?vid=641e6133-b2c1-4943-9f45-d2d25aab5db7","ios":"levelo://app?vid=641e6133-b2c1-4943-9f45-d2d25aab5db7"},"vehicle_type_id":"4","last_reported":1738444093,"current_range_meters":39200,"station_id":"ce4bgi12rcd13ifvqb70","pricing_plan_id":"cebpf4jnsgd1na2vs0mg"},{"bike_id":"8b4d9178-5c29-4d78-b3ab-543cf39d1d34","system_id":"levelo_inurba_marseille","lat":43.31445,"lon":5.37556,"is_reserved":false,"is_disabled":false,"rental_uris":{"android":"levelo://app?vid=8b4d9178-5c29-4d78-b3ab-543cf39d1d34","ios":"levelo://app?vid=8b4d9178-5c29-4d78-b3ab-543cf39d1d34"},"vehicle_type_id":"4","last_reported":1738444093,"current_range_meters":24000,"station_id":"","pricing_plan_id":"cebpf4jnsgd1na2vs0mg"},{"bike_id":"cc47836a-b908-432f-8e0e-2f793407f141","system_id":"levelo_inurba_marseille","lat":43.2293,"lon":5.3536,"is_reserved":false,"is_disabled":false,"rental_uris":{"android":"levelo://app?vid=cc47836a-b908-432f-8e0e-2f793407f141","ios":"levelo://app?vid=cc47836a-b908-432f-8e0e-2f793407f141"},"vehicle_type_id":"4","last_reported":1738444093,"current_range_meters":37600,"station_id":"cpo3532slgdg3j2ikp40","pricing_plan_id":"cebpf4jnsgd1na2vs0mg"},{"bike_id":"b7b8b73a-0c1c-45e0-b545-54a4098ad50c","system_id":"levelo_inurba_marseille","lat":43.27556,"lon":5.38424,"is_reserved":false,"is_disabled":true,"rental_uris":{"android":"levelo://app?vid=b7b8b73a-0c1c-45e0-b545-54a4098ad50c","ios":"levelo://app?vid=b7b8b73a-0c1c-45e0-b545-54a4098ad50c"},"vehicle_type_id":"4","last_reported":1738444093,"current_range_meters":6000,"station_id":"ce4bhh92rcd13ifvqfi0","pricing_plan_id":"cebpf4jnsgd1na2vs0mg"},{"bike_id":"eccf3e1b-479c-430a-81d9-b77c081460ec","system_id":"levelo_inurba_marseille","lat":43.3176,"lon":5.39023,"is_reserved":false,"is_disabled":true,"rental_uris":{"android":"levelo://app?vid=eccf3e1b-479c-430a-81d9-b77c081460ec","ios":"levelo://app?vid=eccf3e1b-479c-430a-81d9-b77c081460ec"},"vehicle_type_id":"4","last_reported":1738444093,"current_range_meters":12800,"station_id":"ce4bhqp2rcd13ifvqhng","pricing_plan_id":"cebpf4jnsgd1na2vs0mg"},{"bike_id":"d71d72c3-6ab1-418b-a776-4e0c7c5959e7","system_id":"levelo_inurba_marseille","lat":43.25824,"lon":5.39412,"is_reserved":false,"is_disabled":false,"rental_uris":{"android":"levelo://app?vid=d71d72c3-6ab1-418b-a776-4e0c7c5959e7","ios":"levelo://app?vid=d71d72c3-6ab1-418b-a776-4e0c7c5959e7"},"vehicle_type_id":"4","last_reported":1738444093,"current_range_meters":38800,"station_id":"ce4bhip2rcd13ifvqft0","pricing_plan_id":"cebpf4jnsgd1na2vs0mg"},{"bike_id":"1ef35f1d-5c30-4cf4-91b4-baabb07b38d8","system_id":"levelo_inurba_marseille","lat":43.31087,"lon":5.3777,"is_reserved":false,"is_disabled":false,"rental_uris":{"android":"levelo://app?vid=1ef35f1d-5c30-4cf4-91b4-baabb07b38d8","ios":"levelo://app?vid=1ef35f1d-5c30-4cf4-91b4-baabb07b38d8"},"vehicle_type_id":"4","last_reported":1738444093,"current_range_meters":9600,"station_id":"ce4bgt92rcd13ifvqcg0","pricing_plan_id":"cebpf4jnsgd1na2vs0mg"},{"bike_id":"0edaa840-e8b0-4f2c-ad98-c123355c590c","system_id":"levelo_inurba_marseille","lat":43.2607,"lon":5.39382,"is_reserved":false,"is_disabled":true,"rental_uris":{"android":"levelo://app?vid=0edaa840-e8b0-4f2c-ad98-c123355c590c","ios":"levelo://app?vid=0edaa840-e8b0-4f2c-ad98-c123355c590c"},"vehicle_type_id":"4","last_reported":1738444093,"current_range_meters":33200,"station_id":"ce4bhh92rcd13ifvqfj0","pricing_plan_id":"cebpf4jnsgd1na2vs0mg"},{"bike_id":"0c8187f5-988a-4457-bbb8-4cf908ac31d3","system_id":"levelo_inurba_marseille","lat":43.25821,"lon":5.39419,"is_reserved":false,"is_disabled":false,"rental_uris":{"android":"levelo://app?vid=0c8187f5-988a-4457-bbb8-4cf908ac31d3","ios":"levelo://app?vid=0c8187f5-988a-4457-bbb8-4cf908ac31d3"},"vehicle_type_id":"4","last_reported":1738444093,"current_range_meters":16800,"station_id":"ce4bhip2rcd13ifvqft0","pricing_plan_id":"cebpf4jnsgd1na2vs0mg"},{"bike_id":"29ba31de-2e2d-473e-82b8-385e19143b60","system_id":"levelo_inurba_marseille","lat":43.26501,"lon":5.39537,"is_reserved":false,"is_disabled":false,"rental_uris":{"android":"levelo://app?vid=29ba31de-2e2d-473e-82b8-385e19143b60","ios":"levelo://app?vid=29ba31de-2e2d-473e-82b8-385e19143b60"},"vehicle_type_id":"4","last_reported":1738444093,"current_range_meters":16000,"station_id":"ce4bhi12rcd13ifvqfq0","pricing_plan_id":"cebpf4jnsgd1na2vs0mg"},{"bike_id":"486bfc6c-454d-4f95-8305-32f3ba4aee22","system_id":"levelo_inurba_marseille","lat":43.30252,"lon":5.36927,"is_reserved":false,"is_disabled":false,"rental_uris":{"android":"levelo://app?vid=486bfc6c-454d-4f95-8305-32f3ba4aee22","ios":"levelo://app?vid=486bfc6c-454d-4f95-8305-32f3ba4aee22"},"vehicle_type_id":"4","last_reported":1738444093,"current_range_meters":22400,"station_id":"","pricing_plan_id":"cebpf4jnsgd1na2vs0mg"},{"bike_id":"8b23552f-b7c0-40c8-9d4f-37ff82774c67","system_id":"levelo_inurba_marseille","lat":43.25571,"lon":5.38257,"is_reserved":false,"is_disabled":false,"rental_uris":{"android":"levelo://app?vid=8b23552f-b7c0-40c8-9d4f-37ff82774c67","ios":"levelo://app?vid=8b23552f-b7c0-40c8-9d4f-37ff82774c67"},"vehicle_type_id":"4","last_reported":1738444093,"current_range_meters":30400,"station_id":"ce4bhih2rcd13ifvqfs0","pricing_plan_id":"cebpf4jnsgd1na2vs0mg"},{"bike_id":"637e7848-7b84-4e1d-9cee-355c6601f7c3","system_id":"levelo_inurba_marseille","lat":43.27998,"lon":5.41653,"is_reserved":false,"is_disabled":true,"rental_uris":{"android":"levelo://app?vid=637e7848-7b84-4e1d-9cee-355c6601f7c3","ios":"levelo://app?vid=637e7848-7b84-4e1d-9cee-355c6601f7c3"},"vehicle_type_id":"4","last_reported":1738444093,"current_range_meters":6000,"station_id":"ce4bho12rcd13ifvqh1g","pricing_plan_id":"cebpf4jnsgd1na2vs0mg"},{"bike_id":"7a3d8c66-0114-475d-b38c-385b6eaec847","system_id":"levelo_inurba_marseille","lat":43.27818,"lon":5.4072,"is_reserved":false,"is_disabled":false,"rental_uris":{"android":"levelo://app?vid=7a3d8c66-0114-475d-b38c-385b6eaec847","ios":"levelo://app?vid=7a3d8c66-0114-475d-b38c-385b6eaec847"},"vehicle_type_id":"4","last_reported":1738444093,"current_range_meters":38800,"station_id":"ce4bhnh2rcd13ifvqgtg","pricing_plan_id":"cebpf4jnsgd1na2vs0mg"},{"bike_id":"fba4297e-e20c-429a-b805-fc12cdaf1763","system_id":"levelo_inurba_marseille","lat":43.29295,"lon":5.37448,"is_reserved":false,"is_disabled":false,"rental_uris":{"android":"levelo://app?vid=fba4297e-e20c-429a-b805-fc12cdaf1763","ios":"levelo://app?vid=fba4297e-e20c-429a-b805-fc12cdaf1763"},"vehicle_type_id":"4","last_reported":1738444093,"current_range_meters":39200,"station_id":"ce4bgi12rcd13ifvqb70","pricing_plan_id":"cebpf4jnsgd1na2vs0mg"},{"bike_id":"719ef290-08f5-4e21-9cf6-997772e28671","system_id":"levelo_inurba_marseille","lat":43.30173,"lon":5.36614,"is_reserved":false,"is_disabled":false,"rental_uris":{"android":"levelo://app?vid=719ef290-08f5-4e21-9cf6-997772e28671","ios":"levelo://app?vid=719ef290-08f5-4e21-9cf6-997772e28671"},"vehicle_type_id":"4","last_reported":1738444093,"current_range_meters":35200,"station_id":"ce4bgrh2rcd13ifvqc8g","pricing_plan_id":"cebpf4jnsgd1na2vs0mg"},{"bike_id":"6b9691b7-1d3c-496e-a246-f1c8ef4fa423","system_id":"levelo_inurba_marseille","lat":43.27573,"lon":5.38471,"is_reserved":false,"is_disabled":false,"rental_uris":{"android":"levelo://app?vid=6b9691b7-1d3c-496e-a246-f1c8ef4fa423","ios":"levelo://app?vid=6b9691b7-1d3c-496e-a246-f1c8ef4fa423"},"vehicle_type_id":"4","last_reported":1738444093,"current_range_meters":32400,"station_id":"ce4bhh92rcd13ifvqfi0","pricing_plan_id":"cebpf4jnsgd1na2vs0mg"},{"bike_id":"ffa8a266-adfd-4e30-82b3-ab3356d6a295","system_id":"levelo_inurba_marseille","lat":43.29573,"lon":5.37508,"is_reserved":false,"is_disabled":false,"rental_uris":{"android":"levelo://app?vid=ffa8a266-adfd-4e30-82b3-ab3356d6a295","ios":"levelo://app?vid=ffa8a266-adfd-4e30-82b3-ab3356d6a295"},"vehicle_type_id":"4","last_reported":1738444093,"current_range_meters":31200,"station_id":"ce4bgh92rcd13ifvqb50","pricing_plan_id":"cebpf4jnsgd1na2vs0mg"},{"bike_id":"8f467b83-f683-488f-9380-f0a72f37df79","system_id":"levelo_inurba_marseille","lat":43.29719,"lon":5.36574,"is_reserved":false,"is_disabled":false,"rental_uris":{"android":"levelo://app?vid=8f467b83-f683-488f-9380-f0a72f37df79","ios":"levelo://app?vid=8f467b83-f683-488f-9380-f0a72f37df79"},"vehicle_type_id":"4","last_reported":1738444093,"current_range_meters":38000,"station_id":"ce4bgn12rcd13ifvqbt0","pricing_plan_id":"cebpf4jnsgd1na2vs0mg"},{"bike_id":"3ff013f6-d8e5-414b-9dd9-2a1727ca2ddf","system_id":"levelo_inurba_marseille","lat":43.24078,"lon":5.377603,"is_reserved":false,"is_disabled":false,"rental_uris":{"android":"levelo://app?vid=3ff013f6-d8e5-414b-9dd9-2a1727ca2ddf","ios":"levelo://app?vid=3ff013f6-d8e5-414b-9dd9-2a1727ca2ddf"},"vehicle_type_id":"4","last_reported":1738444093,"current_range_meters":14800,"station_id":"ce4bhnp2rcd13ifvqgvg","pricing_plan_id":"cebpf4jnsgd1na2vs0mg"},{"bike_id":"dbcf21f9-c8aa-4c65-b6de-6b55b805d93b","system_id":"levelo_inurba_marseille","lat":43.2941,"lon":5.38633,"is_reserved":false,"is_disabled":false,"rental_uris":{"android":"levelo://app?vid=dbcf21f9-c8aa-4c65-b6de-6b55b805d93b","ios":"levelo://app?vid=dbcf21f9-c8aa-4c65-b6de-6b55b805d93b"},"vehicle_type_id":"4","last_reported":1738444093,"current_range_meters":36800,"station_id":"ce4bh2h2rcd13ifvqdh0","pricing_plan_id":"cebpf4jnsgd1na2vs0mg"},{"bike_id":"722d1c25-0d2c-417d-b70f-18965c649bcf","system_id":"levelo_inurba_marseille","lat":43.30215,"lon":5.39491,"is_reserved":false,"is_disabled":false,"rental_uris":{"android":"levelo://app?vid=722d1c25-0d2c-417d-b70f-18965c649bcf","ios":"levelo://app?vid=722d1c25-0d2c-417d-b70f-18965c649bcf"},"vehicle_type_id":"4","last_reported":1738444093,"current_range_meters":39200,"station_id":"ce4bh0p2rcd13ifvqd70","pricing_plan_id":"cebpf4jnsgd1na2vs0mg"},{"bike_id":"095e5291-f842-4478-bc34-3769cd441c0c","system_id":"levelo_inurba_marseille","lat":43.28157,"lon":5.42609,"is_reserved":false,"is_disabled":false,"rental_uris":{"android":"levelo://app?vid=095e5291-f842-4478-bc34-3769cd441c0c","ios":"levelo://app?vid=095e5291-f842-4478-bc34-3769cd441c0c"},"vehicle_type_id":"4","last_reported":1738444093,"current_range_meters":17200,"station_id":"ce4bhnh2rcd13ifvqgug","pricing_plan_id":"cebpf4jnsgd1na2vs0mg"},{"bike_id":"d586a450-3c03-492b-8830-ac9e67061b7f","system_id":"levelo_inurba_marseille","lat":43.29423,"lon":5.38601,"is_reserved":false,"is_disabled":false,"rental_uris":{"android":"levelo://app?vid=d586a450-3c03-492b-8830-ac9e67061b7f","ios":"levelo://app?vid=d586a450-3c03-492b-8830-ac9e67061b7f"},"vehicle_type_id":"4","last_reported":1738444093,"current_range_meters":28400,"station_id":"ce4bh2h2rcd13ifvqdh0","pricing_plan_id":"cebpf4jnsgd1na2vs0mg"},{"bike_id":"9f7cbc3c-6e0b-4442-8c70-64c0b2a1452e","system_id":"levelo_inurba_marseille","lat":43.23051,"lon":5.35505,"is_reserved":false,"is_disabled":false,"rental_uris":{"android":"levelo://app?vid=9f7cbc3c-6e0b-4442-8c70-64c0b2a1452e","ios":"levelo://app?vid=9f7cbc3c-6e0b-4442-8c70-64c0b2a1452e"},"vehicle_type_id":"4","last_reported":1738444093,"current_range_meters":35600,"station_id":"cpo3342slgdg3j2ifvpg","pricing_plan_id":"cebpf4jnsgd1na2vs0mg"},{"bike_id":"c8a3a0ed-dff2-4f3c-87dc-2e6b47b1ad28","system_id":"levelo_inurba_marseille","lat":43.337444,"lon":5.374475,"is_reserved":false,"is_disabled":true,"rental_uris":{"android":"levelo://app?vid=c8a3a0ed-dff2-4f3c-87dc-2e6b47b1ad28","ios":"levelo://app?vid=c8a3a0ed-dff2-4f3c-87dc-2e6b47b1ad28"},"vehicle_type_id":"4","last_reported":1738444093,"current_range_meters":0,"station_id":"","pricing_plan_id":"cebpf4jnsgd1na2vs0mg"},{"bike_id":"8afdb513-b832-4957-b577-864c8e16af85","system_id":"levelo_inurba_marseille","lat":43.30133,"lon":5.37436,"is_reserved":false,"is_disabled":false,"rental_uris":{"android":"levelo://app?vid=8afdb513-b832-4957-b577-864c8e16af85","ios":"levelo://app?vid=8afdb513-b832-4957-b577-864c8e16af85"},"vehicle_type_id":"4","last_reported":1738444093,"current_range_meters":38800,"station_id":"ce4bgs92rcd13ifvqcc0","pricing_plan_id":"cebpf4jnsgd1na2vs0mg"},{"bike_id":"9191983c-f500-4e34-800a-5c4da4f130cb","system_id":"levelo_inurba_marseille","lat":43.27959,"lon":5.41056,"is_reserved":false,"is_disabled":false,"rental_uris":{"android":"levelo://app?vid=9191983c-f500-4e34-800a-5c4da4f130cb","ios":"levelo://app?vid=9191983c-f500-4e34-800a-5c4da4f130cb"},"vehicle_type_id":"4","last_reported":1738444093,"current_range_meters":35600,"station_id":"ce4bhnp2rcd13ifvqh0g","pricing_plan_id":"cebpf4jnsgd1na2vs0mg"},{"bike_id":"62d565b0-7cae-461b-b7c1-5becd732430d","system_id":"levelo_inurba_marseille","lat":43.27062,"lon":5.40257,"is_reserved":false,"is_disabled":false,"rental_uris":{"android":"levelo://app?vid=62d565b0-7cae-461b-b7c1-5becd732430d","ios":"levelo://app?vid=62d565b0-7cae-461b-b7c1-5becd732430d"},"vehicle_type_id":"4","last_reported":1738444093,"current_range_meters":22800,"station_id":"ce4bhk92rcd13ifvqgc0","pricing_plan_id":"cebpf4jnsgd1na2vs0mg"},{"bike_id":"ed712d27-4088-429c-a476-bd703d066608","system_id":"levelo_inurba_marseille","lat":43.28674,"lon":5.38682,"is_reserved":false,"is_disabled":false,"rental_uris":{"android":"levelo://app?vid=ed712d27-4088-429c-a476-bd703d066608","ios":"levelo://app?vid=ed712d27-4088-429c-a476-bd703d066608"},"vehicle_type_id":"4","last_reported":1738444093,"current_range_meters":29600,"station_id":"ce4bh492rcd13ifvqdug","pricing_plan_id":"cebpf4jnsgd1na2vs0mg"},{"bike_id":"5299667e-c55c-45d5-a50f-9880a25cdbb8","system_id":"levelo_inurba_marseille","lat":43.29686,"lon":5.37292,"is_reserved":false,"is_disabled":false,"rental_uris":{"android":"levelo://app?vid=5299667e-c55c-45d5-a50f-9880a25cdbb8","ios":"levelo://app?vid=5299667e-c55c-45d5-a50f-9880a25cdbb8"},"vehicle_type_id":"4","last_reported":1738444093,"current_range_meters":38800,"station_id":"ce4bgk12rcd13ifvqbj0","pricing_plan_id":"cebpf4jnsgd1na2vs0mg"},{"bike_id":"179af509-55ff-412b-8ddc-dd6ca3674c45","system_id":"levelo_inurba_marseille","lat":43.29611,"lon":5.37725,"is_reserved":false,"is_disabled":false,"rental_uris":{"android":"levelo://app?vid=179af509-55ff-412b-8ddc-dd6ca3674c45","ios":"levelo://app?vid=179af509-55ff-412b-8ddc-dd6ca3674c45"},"vehicle_type_id":"4","last_reported":1738444093,"current_range_meters":39200,"station_id":"ce4bgi92rcd13ifvqb90","pricing_plan_id":"cebpf4jnsgd1na2vs0mg"},{"bike_id":"ee03fb8c-a170-4e8a-bfc7-8fdf50092698","system_id":"levelo_inurba_marseille","lat":43.25121,"lon":5.40323,"is_reserved":false,"is_disabled":false,"rental_uris":{"android":"levelo://app?vid=ee03fb8c-a170-4e8a-bfc7-8fdf50092698","ios":"levelo://app?vid=ee03fb8c-a170-4e8a-bfc7-8fdf50092698"},"vehicle_type_id":"4","last_reported":1738444093,"current_range_meters":38800,"station_id":"ce4bhlh2rcd13ifvqgig","pricing_plan_id":"cebpf4jnsgd1na2vs0mg"},{"bike_id":"0964b877-0605-43f0-8a3b-216b67da5b03","system_id":"levelo_inurba_marseille","lat":43.2893,"lon":5.38392,"is_reserved":false,"is_disabled":false,"rental_uris":{"android":"levelo://app?vid=0964b877-0605-43f0-8a3b-216b67da5b03","ios":"levelo://app?vid=0964b877-0605-43f0-8a3b-216b67da5b03"},"vehicle_type_id":"4","last_reported":1738444093,"current_range_meters":38800,"station_id":"ce4bh612rcd13ifvqe6g","pricing_plan_id":"cebpf4jnsgd1na2vs0mg"},{"bike_id":"842cb586-b14a-4907-8c8b-f0ebf26ea15c","system_id":"levelo_inurba_marseille","lat":43.31333,"lon":5.39692,"is_reserved":false,"is_disabled":false,"rental_uris":{"android":"levelo://app?vid=842cb586-b14a-4907-8c8b-f0ebf26ea15c","ios":"levelo://app?vid=842cb586-b14a-4907-8c8b-f0ebf26ea15c"},"vehicle_type_id":"4","last_reported":1738444093,"current_range_meters":19600,"station_id":"ce4bgvp2rcd13ifvqcu0","pricing_plan_id":"cebpf4jnsgd1na2vs0mg"},{"bike_id":"f4faee8d-a276-4a9e-871e-e61e50fcb96c","system_id":"levelo_inurba_marseille","lat":43.26791,"lon":5.39407,"is_reserved":false,"is_disabled":false,"rental_uris":{"android":"levelo://app?vid=f4faee8d-a276-4a9e-871e-e61e50fcb96c","ios":"levelo://app?vid=f4faee8d-a276-4a9e-871e-e61e50fcb96c"},"vehicle_type_id":"4","last_reported":1738444093,"current_range_meters":34000,"station_id":"ce4bhh12rcd13ifvqfg0","pricing_plan_id":"cebpf4jnsgd1na2vs0mg"},{"bike_id":"f3678c47-72a4-4226-933c-6f67ee50e2c3","system_id":"levelo_inurba_marseille","lat":43.24542,"lon":5.39534,"is_reserved":false,"is_disabled":false,"rental_uris":{"android":"levelo://app?vid=f3678c47-72a4-4226-933c-6f67ee50e2c3","ios":"levelo://app?vid=f3678c47-72a4-4226-933c-6f67ee50e2c3"},"vehicle_type_id":"4","last_reported":1738444093,"current_range_meters":38000,"station_id":"ce4bhlp2rcd13ifvqgjg","pricing_plan_id":"cebpf4jnsgd1na2vs0mg"},{"bike_id":"bb5fbced-3abd-49a4-885d-0c0c385ba528","system_id":"levelo_inurba_marseille","lat":43.30157,"lon":5.37407,"is_reserved":false,"is_disabled":false,"rental_uris":{"android":"levelo://app?vid=bb5fbced-3abd-49a4-885d-0c0c385ba528","ios":"levelo://app?vid=bb5fbced-3abd-49a4-885d-0c0c385ba528"},"vehicle_type_id":"4","last_reported":1738444093,"current_range_meters":10000,"station_id":"ce4bgs92rcd13ifvqcc0","pricing_plan_id":"cebpf4jnsgd1na2vs0mg"},{"bike_id":"a2992d69-aaa7-4661-90ee-b1d4537ca046","system_id":"levelo_inurba_marseille","lat":43.29271,"lon":5.3685,"is_reserved":false,"is_disabled":false,"rental_uris":{"android":"levelo://app?vid=a2992d69-aaa7-4661-90ee-b1d4537ca046","ios":"levelo://app?vid=a2992d69-aaa7-4661-90ee-b1d4537ca046"},"vehicle_type_id":"4","last_reported":1738444093,"current_range_meters":36800,"station_id":"ce4bhbp2rcd13ifvqesg","pricing_plan_id":"cebpf4jnsgd1na2vs0mg"},{"bike_id":"6593ce47-6842-4d95-b674-88e0eaab182e","system_id":"levelo_inurba_marseille","lat":43.30423,"lon":5.39731,"is_reserved":false,"is_disabled":false,"rental_uris":{"android":"levelo://app?vid=6593ce47-6842-4d95-b674-88e0eaab182e","ios":"levelo://app?vid=6593ce47-6842-4d95-b674-88e0eaab182e"},"vehicle_type_id":"4","last_reported":1738444093,"current_range_meters":26000,"station_id":"ce4bh092rcd13ifvqd20","pricing_plan_id":"cebpf4jnsgd1na2vs0mg"},{"bike_id":"5a583af2-ee7a-46d4-9499-f00aba451f9a","system_id":"levelo_inurba_marseille","lat":43.30323,"lon":5.40454,"is_reserved":false,"is_disabled":false,"rental_uris":{"android":"levelo://app?vid=5a583af2-ee7a-46d4-9499-f00aba451f9a","ios":"levelo://app?vid=5a583af2-ee7a-46d4-9499-f00aba451f9a"},"vehicle_type_id":"4","last_reported":1738444093,"current_range_meters":39200,"station_id":"ce4bh012rcd13ifvqd10","pricing_plan_id":"cebpf4jnsgd1na2vs0mg"},{"bike_id":"3b9ec21a-c5cf-47fa-a6f7-7853c2e66346","system_id":"levelo_inurba_marseille","lat":43.26193,"lon":5.37927,"is_reserved":false,"is_disabled":false,"rental_uris":{"android":"levelo://app?vid=3b9ec21a-c5cf-47fa-a6f7-7853c2e66346","ios":"levelo://app?vid=3b9ec21a-c5cf-47fa-a6f7-7853c2e66346"},"vehicle_type_id":"4","last_reported":1738444093,"current_range_meters":38800,"station_id":"ce4bhjp2rcd13ifvqg90","pricing_plan_id":"cebpf4jnsgd1na2vs0mg"},{"bike_id":"53ad3734-aa30-4c08-ba92-4d1896d6856d","system_id":"levelo_inurba_marseille","lat":43.29021,"lon":5.37206,"is_reserved":false,"is_disabled":false,"rental_uris":{"android":"levelo://app?vid=53ad3734-aa30-4c08-ba92-4d1896d6856d","ios":"levelo://app?vid=53ad3734-aa30-4c08-ba92-4d1896d6856d"},"vehicle_type_id":"4","last_reported":1738444093,"current_range_meters":38800,"station_id":"ce4bh5p2rcd13ifvqe4g","pricing_plan_id":"cebpf4jnsgd1na2vs0mg"},{"bike_id":"0c23a347-e336-4988-9361-6d0780e65074","system_id":"levelo_inurba_marseille","lat":43.31342,"lon":5.37596,"is_reserved":false,"is_disabled":false,"rental_uris":{"android":"levelo://app?vid=0c23a347-e336-4988-9361-6d0780e65074","ios":"levelo://app?vid=0c23a347-e336-4988-9361-6d0780e65074"},"vehicle_type_id":"4","last_reported":1738444093,"current_range_meters":36400,"station_id":"","pricing_plan_id":"cebpf4jnsgd1na2vs0mg"},{"bike_id":"cfdc3e36-f1ca-4859-b324-931a3f1626bd","system_id":"levelo_inurba_marseille","lat":43.2559,"lon":5.38238,"is_reserved":false,"is_disabled":false,"rental_uris":{"android":"levelo://app?vid=cfdc3e36-f1ca-4859-b324-931a3f1626bd","ios":"levelo://app?vid=cfdc3e36-f1ca-4859-b324-931a3f1626bd"},"vehicle_type_id":"4","last_reported":1738444093,"current_range_meters":38800,"station_id":"ce4bhih2rcd13ifvqfs0","pricing_plan_id":"cebpf4jnsgd1na2vs0mg"},{"bike_id":"210db315-d69f-4d86-b081-300c2035646e","system_id":"levelo_inurba_marseille","lat":43.31727,"lon":5.40505,"is_reserved":false,"is_disabled":false,"rental_uris":{"android":"levelo://app?vid=210db315-d69f-4d86-b081-300c2035646e","ios":"levelo://app?vid=210db315-d69f-4d86-b081-300c2035646e"},"vehicle_type_id":"4","last_reported":1738444093,"current_range_meters":36400,"station_id":"ce4bh012rcd13ifvqd00","pricing_plan_id":"cebpf4jnsgd1na2vs0mg"},{"bike_id":"29f86acd-aa50-4395-9377-730a470ce878","system_id":"levelo_inurba_marseille","lat":43.30802,"lon":5.43522,"is_reserved":false,"is_disabled":false,"rental_uris":{"android":"levelo://app?vid=29f86acd-aa50-4395-9377-730a470ce878","ios":"levelo://app?vid=29f86acd-aa50-4395-9377-730a470ce878"},"vehicle_type_id":"4","last_reported":1738444093,"current_range_meters":6000,"station_id":"ce4bhph2rcd13ifvqheg","pricing_plan_id":"cebpf4jnsgd1na2vs0mg"},{"bike_id":"176b98b4-dc30-4497-a10f-72ce6ebf5706","system_id":"levelo_inurba_marseille","lat":43.29521,"lon":5.39428,"is_reserved":false,"is_disabled":false,"rental_uris":{"android":"levelo://app?vid=176b98b4-dc30-4497-a10f-72ce6ebf5706","ios":"levelo://app?vid=176b98b4-dc30-4497-a10f-72ce6ebf5706"},"vehicle_type_id":"4","last_reported":1738444093,"current_range_meters":39200,"station_id":"ce4bh292rcd13ifvqdf0","pricing_plan_id":"cebpf4jnsgd1na2vs0mg"},{"bike_id":"2659f2e4-eb48-498e-973b-63a9893af11f","system_id":"levelo_inurba_marseille","lat":43.287,"lon":5.38655,"is_reserved":false,"is_disabled":false,"rental_uris":{"android":"levelo://app?vid=2659f2e4-eb48-498e-973b-63a9893af11f","ios":"levelo://app?vid=2659f2e4-eb48-498e-973b-63a9893af11f"},"vehicle_type_id":"4","last_reported":1738444093,"current_range_meters":6400,"station_id":"ce4bh492rcd13ifvqdug","pricing_plan_id":"cebpf4jnsgd1na2vs0mg"},{"bike_id":"10670e9f-2065-40ed-8863-f51a95d5ec60","system_id":"levelo_inurba_marseille","lat":43.29687,"lon":5.3729,"is_reserved":false,"is_disabled":false,"rental_uris":{"android":"levelo://app?vid=10670e9f-2065-40ed-8863-f51a95d5ec60","ios":"levelo://app?vid=10670e9f-2065-40ed-8863-f51a95d5ec60"},"vehicle_type_id":"4","last_reported":1738444093,"current_range_meters":38800,"station_id":"ce4bgk12rcd13ifvqbj0","pricing_plan_id":"cebpf4jnsgd1na2vs0mg"},{"bike_id":"204b9cd7-89fd-4273-9bb6-521b0cef5a71","system_id":"levelo_inurba_marseille","lat":43.27947,"lon":5.4106,"is_reserved":false,"is_disabled":false,"rental_uris":{"android":"levelo://app?vid=204b9cd7-89fd-4273-9bb6-521b0cef5a71","ios":"levelo://app?vid=204b9cd7-89fd-4273-9bb6-521b0cef5a71"},"vehicle_type_id":"4","last_reported":1738444093,"current_range_meters":23200,"station_id":"ce4bhnp2rcd13ifvqh0g","pricing_plan_id":"cebpf4jnsgd1na2vs0mg"},{"bike_id":"29e433c5-f86e-40bf-8cf3-374b024916b0","system_id":"levelo_inurba_marseille","lat":43.32296,"lon":5.38263,"is_reserved":false,"is_disabled":false,"rental_uris":{"android":"levelo://app?vid=29e433c5-f86e-40bf-8cf3-374b024916b0","ios":"levelo://app?vid=29e433c5-f86e-40bf-8cf3-374b024916b0"},"vehicle_type_id":"4","last_reported":1738444093,"current_range_meters":38800,"station_id":"ce4bhr12rcd13ifvqhqg","pricing_plan_id":"cebpf4jnsgd1na2vs0mg"},{"bike_id":"da422709-c96f-4f79-a25d-a22dd3337454","system_id":"levelo_inurba_marseille","lat":43.24066,"lon":5.37719,"is_reserved":false,"is_disabled":false,"rental_uris":{"android":"levelo://app?vid=da422709-c96f-4f79-a25d-a22dd3337454","ios":"levelo://app?vid=da422709-c96f-4f79-a25d-a22dd3337454"},"vehicle_type_id":"4","last_reported":1738444093,"current_range_meters":38800,"station_id":"ce4bhnp2rcd13ifvqgvg","pricing_plan_id":"cebpf4jnsgd1na2vs0mg"},{"bike_id":"d354e6d0-4c38-42d1-8529-08e2f972c1d7","system_id":"levelo_inurba_marseille","lat":43.30949,"lon":5.39037,"is_reserved":false,"is_disabled":false,"rental_uris":{"android":"levelo://app?vid=d354e6d0-4c38-42d1-8529-08e2f972c1d7","ios":"levelo://app?vid=d354e6d0-4c38-42d1-8529-08e2f972c1d7"},"vehicle_type_id":"4","last_reported":1738444093,"current_range_meters":31200,"station_id":"ce4bgup2rcd13ifvqco0","pricing_plan_id":"cebpf4jnsgd1na2vs0mg"},{"bike_id":"59e98682-9355-45ca-aaa0-29b37b791d30","system_id":"levelo_inurba_marseille","lat":43.29566,"lon":5.42234,"is_reserved":false,"is_disabled":false,"rental_uris":{"android":"levelo://app?vid=59e98682-9355-45ca-aaa0-29b37b791d30","ios":"levelo://app?vid=59e98682-9355-45ca-aaa0-29b37b791d30"},"vehicle_type_id":"4","last_reported":1738444093,"current_range_meters":6400,"station_id":"","pricing_plan_id":"cebpf4jnsgd1na2vs0mg"},{"bike_id":"61dfa111-9f48-41ce-a729-757af743db3d","system_id":"levelo_inurba_marseille","lat":43.24814,"lon":5.37458,"is_reserved":false,"is_disabled":false,"rental_uris":{"android":"levelo://app?vid=61dfa111-9f48-41ce-a729-757af743db3d","ios":"levelo://app?vid=61dfa111-9f48-41ce-a729-757af743db3d"},"vehicle_type_id":"4","last_reported":1738444093,"current_range_meters":38800,"station_id":"ce4bhgh2rcd13ifvqfb0","pricing_plan_id":"cebpf4jnsgd1na2vs0mg"},{"bike_id":"262a41f5-7817-4148-af74-3bcee67a4557","system_id":"levelo_inurba_marseille","lat":43.28913,"lon":5.39626,"is_reserved":false,"is_disabled":false,"rental_uris":{"android":"levelo://app?vid=262a41f5-7817-4148-af74-3bcee67a4557","ios":"levelo://app?vid=262a41f5-7817-4148-af74-3bcee67a4557"},"vehicle_type_id":"4","last_reported":1738444093,"current_range_meters":32800,"station_id":"ce4bh3h2rcd13ifvqdn0","pricing_plan_id":"cebpf4jnsgd1na2vs0mg"},{"bike_id":"e2c49145-d80d-4c68-8184-02b30e52c755","system_id":"levelo_inurba_marseille","lat":43.30786,"lon":5.43522,"is_reserved":false,"is_disabled":false,"rental_uris":{"android":"levelo://app?vid=e2c49145-d80d-4c68-8184-02b30e52c755","ios":"levelo://app?vid=e2c49145-d80d-4c68-8184-02b30e52c755"},"vehicle_type_id":"4","last_reported":1738444093,"current_range_meters":24000,"station_id":"ce4bhph2rcd13ifvqheg","pricing_plan_id":"cebpf4jnsgd1na2vs0mg"},{"bike_id":"21f3cf1f-71e5-4975-8f92-4ce137edf8ce","system_id":"levelo_inurba_marseille","lat":43.27191,"lon":5.40997,"is_reserved":false,"is_disabled":false,"rental_uris":{"android":"levelo://app?vid=21f3cf1f-71e5-4975-8f92-4ce137edf8ce","ios":"levelo://app?vid=21f3cf1f-71e5-4975-8f92-4ce137edf8ce"},"vehicle_type_id":"4","last_reported":1738444093,"current_range_meters":38800,"station_id":"ce4bhl12rcd13ifvqgf0","pricing_plan_id":"cebpf4jnsgd1na2vs0mg"},{"bike_id":"d979d8d2-ec65-47af-9229-e4270aab279a","system_id":"levelo_inurba_marseille","lat":43.2307,"lon":5.35492,"is_reserved":false,"is_disabled":false,"rental_uris":{"android":"levelo://app?vid=d979d8d2-ec65-47af-9229-e4270aab279a","ios":"levelo://app?vid=d979d8d2-ec65-47af-9229-e4270aab279a"},"vehicle_type_id":"4","last_reported":1738444093,"current_range_meters":38800,"station_id":"cpo3342slgdg3j2ifvpg","pricing_plan_id":"cebpf4jnsgd1na2vs0mg"},{"bike_id":"1cf31538-5f18-467f-8725-232cdef4f899","system_id":"levelo_inurba_marseille","lat":43.29849,"lon":5.36263,"is_reserved":false,"is_disabled":false,"rental_uris":{"android":"levelo://app?vid=1cf31538-5f18-467f-8725-232cdef4f899","ios":"levelo://app?vid=1cf31538-5f18-467f-8725-232cdef4f899"},"vehicle_type_id":"4","last_reported":1738444093,"current_range_meters":38400,"station_id":"ce4bgpp2rcd13ifvqc3g","pricing_plan_id":"cebpf4jnsgd1na2vs0mg"},{"bike_id":"82c6eebf-0519-4b18-a727-88dc1d4c976d","system_id":"levelo_inurba_marseille","lat":43.28263,"lon":5.35066,"is_reserved":false,"is_disabled":true,"rental_uris":{"android":"levelo://app?vid=82c6eebf-0519-4b18-a727-88dc1d4c976d","ios":"levelo://app?vid=82c6eebf-0519-4b18-a727-88dc1d4c976d"},"vehicle_type_id":"4","last_reported":1738444093,"current_range_meters":25200,"station_id":"ce4bhbp2rcd13ifvqerg","pricing_plan_id":"cebpf4jnsgd1na2vs0mg"},{"bike_id":"17df861c-a836-41f6-ade8-6d8208e6e917","system_id":"levelo_inurba_marseille","lat":43.29601,"lon":5.37717,"is_reserved":false,"is_disabled":false,"rental_uris":{"android":"levelo://app?vid=17df861c-a836-41f6-ade8-6d8208e6e917","ios":"levelo://app?vid=17df861c-a836-41f6-ade8-6d8208e6e917"},"vehicle_type_id":"4","last_reported":1738444093,"current_range_meters":27600,"station_id":"ce4bgi92rcd13ifvqb90","pricing_plan_id":"cebpf4jnsgd1na2vs0mg"},{"bike_id":"3ccd196e-cddd-41f1-8a25-97e7f22947f7","system_id":"levelo_inurba_marseille","lat":43.25112,"lon":5.40323,"is_reserved":false,"is_disabled":true,"rental_uris":{"android":"levelo://app?vid=3ccd196e-cddd-41f1-8a25-97e7f22947f7","ios":"levelo://app?vid=3ccd196e-cddd-41f1-8a25-97e7f22947f7"},"vehicle_type_id":"4","last_reported":1738444093,"current_range_meters":4400,"station_id":"ce4bhlh2rcd13ifvqgig","pricing_plan_id":"cebpf4jnsgd1na2vs0mg"},{"bike_id":"e8c84a16-b185-487d-a213-6d83ed3d959b","system_id":"levelo_inurba_marseille","lat":43.27314,"lon":5.3909,"is_reserved":false,"is_disabled":false,"rental_uris":{"android":"levelo://app?vid=e8c84a16-b185-487d-a213-6d83ed3d959b","ios":"levelo://app?vid=e8c84a16-b185-487d-a213-6d83ed3d959b"},"vehicle_type_id":"4","last_reported":1738444093,"current_range_meters":12800,"station_id":"ce4bhgp2rcd13ifvqfe0","pricing_plan_id":"cebpf4jnsgd1na2vs0mg"},{"bike_id":"d03bbd01-633e-4b06-934a-207f8556b44a","system_id":"levelo_inurba_marseille","lat":43.29222,"lon":5.3608,"is_reserved":false,"is_disabled":false,"rental_uris":{"android":"levelo://app?vid=d03bbd01-633e-4b06-934a-207f8556b44a","ios":"levelo://app?vid=d03bbd01-633e-4b06-934a-207f8556b44a"},"vehicle_type_id":"4","last_reported":1738444093,"current_range_meters":38800,"station_id":"ce4bhbh2rcd13ifvqeqg","pricing_plan_id":"cebpf4jnsgd1na2vs0mg"},{"bike_id":"14eb7a59-9b20-4e76-b93d-5c9f392068a1","system_id":"levelo_inurba_marseille","lat":43.28148,"lon":5.4264,"is_reserved":false,"is_disabled":false,"rental_uris":{"android":"levelo://app?vid=14eb7a59-9b20-4e76-b93d-5c9f392068a1","ios":"levelo://app?vid=14eb7a59-9b20-4e76-b93d-5c9f392068a1"},"vehicle_type_id":"4","last_reported":1738444093,"current_range_meters":18800,"station_id":"ce4bhnh2rcd13ifvqgug","pricing_plan_id":"cebpf4jnsgd1na2vs0mg"},{"bike_id":"90d8247b-1174-449d-9eb0-b1f3c78024c6","system_id":"levelo_inurba_marseille","lat":43.27993,"lon":5.41659,"is_reserved":false,"is_disabled":false,"rental_uris":{"android":"levelo://app?vid=90d8247b-1174-449d-9eb0-b1f3c78024c6","ios":"levelo://app?vid=90d8247b-1174-449d-9eb0-b1f3c78024c6"},"vehicle_type_id":"4","last_reported":1738444093,"current_range_meters":30800,"station_id":"ce4bho12rcd13ifvqh1g","pricing_plan_id":"cebpf4jnsgd1na2vs0mg"},{"bike_id":"b35409ae-0c21-4dc2-9a6d-431888198131","system_id":"levelo_inurba_marseille","lat":43.3014,"lon":5.37414,"is_reserved":false,"is_disabled":false,"rental_uris":{"android":"levelo://app?vid=b35409ae-0c21-4dc2-9a6d-431888198131","ios":"levelo://app?vid=b35409ae-0c21-4dc2-9a6d-431888198131"},"vehicle_type_id":"4","last_reported":1738444093,"current_range_meters":28000,"station_id":"ce4bgs92rcd13ifvqcc0","pricing_plan_id":"cebpf4jnsgd1na2vs0mg"},{"bike_id":"f99e91c4-2330-4795-bfe7-3495ca9ba92c","system_id":"levelo_inurba_marseille","lat":43.28932,"lon":5.36624,"is_reserved":false,"is_disabled":true,"rental_uris":{"android":"levelo://app?vid=f99e91c4-2330-4795-bfe7-3495ca9ba92c","ios":"levelo://app?vid=f99e91c4-2330-4795-bfe7-3495ca9ba92c"},"vehicle_type_id":"4","last_reported":1738444093,"current_range_meters":31200,"station_id":"ce4bhap2rcd13ifvqek0","pricing_plan_id":"cebpf4jnsgd1na2vs0mg"},{"bike_id":"55bcfd08-58f2-4f77-9e1d-5a8df3c15b85","system_id":"levelo_inurba_marseille","lat":43.29797,"lon":5.38105,"is_reserved":false,"is_disabled":false,"rental_uris":{"android":"levelo://app?vid=55bcfd08-58f2-4f77-9e1d-5a8df3c15b85","ios":"levelo://app?vid=55bcfd08-58f2-4f77-9e1d-5a8df3c15b85"},"vehicle_type_id":"4","last_reported":1738444093,"current_range_meters":35200,"station_id":"ce4bgip2rcd13ifvqbb0","pricing_plan_id":"cebpf4jnsgd1na2vs0mg"},{"bike_id":"1f964ade-4229-4bd0-b4e5-34bbe9d9464e","system_id":"levelo_inurba_marseille","lat":43.29011,"lon":5.38619,"is_reserved":false,"is_disabled":false,"rental_uris":{"android":"levelo://app?vid=1f964ade-4229-4bd0-b4e5-34bbe9d9464e","ios":"levelo://app?vid=1f964ade-4229-4bd0-b4e5-34bbe9d9464e"},"vehicle_type_id":"4","last_reported":1738444093,"current_range_meters":28400,"station_id":"ce4bh4p2rcd13ifvqe0g","pricing_plan_id":"cebpf4jnsgd1na2vs0mg"},{"bike_id":"d8b1c3f9-ff6e-4179-8423-4ba0d2a2af0e","system_id":"levelo_inurba_marseille","lat":43.33727,"lon":5.39184,"is_reserved":false,"is_disabled":false,"rental_uris":{"android":"levelo://app?vid=d8b1c3f9-ff6e-4179-8423-4ba0d2a2af0e","ios":"levelo://app?vid=d8b1c3f9-ff6e-4179-8423-4ba0d2a2af0e"},"vehicle_type_id":"4","last_reported":1738444093,"current_range_meters":38800,"station_id":"ce4bhr92rcd13ifvqhsg","pricing_plan_id":"cebpf4jnsgd1na2vs0mg"},{"bike_id":"aa9a502a-bd2c-4129-b0a1-12c36b93e0b4","system_id":"levelo_inurba_marseille","lat":43.24806,"lon":5.3746,"is_reserved":false,"is_disabled":false,"rental_uris":{"android":"levelo://app?vid=aa9a502a-bd2c-4129-b0a1-12c36b93e0b4","ios":"levelo://app?vid=aa9a502a-bd2c-4129-b0a1-12c36b93e0b4"},"vehicle_type_id":"4","last_reported":1738444093,"current_range_meters":38800,"station_id":"ce4bhgh2rcd13ifvqfb0","pricing_plan_id":"cebpf4jnsgd1na2vs0mg"},{"bike_id":"8dd50773-5024-40be-abab-3fc6842c9e03","system_id":"levelo_inurba_marseille","lat":43.2965,"lon":5.37673,"is_reserved":false,"is_disabled":false,"rental_uris":{"android":"levelo://app?vid=8dd50773-5024-40be-abab-3fc6842c9e03","ios":"levelo://app?vid=8dd50773-5024-40be-abab-3fc6842c9e03"},"vehicle_type_id":"4","last_reported":1738444093,"current_range_meters":4800,"station_id":"ce4bgi92rcd13ifvqb90","pricing_plan_id":"cebpf4jnsgd1na2vs0mg"},{"bike_id":"23d607b4-9cdd-4843-8952-4da90f95e291","system_id":"levelo_inurba_marseille","lat":43.24175,"lon":5.39725,"is_reserved":false,"is_disabled":false,"rental_uris":{"android":"levelo://app?vid=23d607b4-9cdd-4843-8952-4da90f95e291","ios":"levelo://app?vid=23d607b4-9cdd-4843-8952-4da90f95e291"},"vehicle_type_id":"4","last_reported":1738444093,"current_range_meters":28000,"station_id":"ce4bhn12rcd13ifvqgpg","pricing_plan_id":"cebpf4jnsgd1na2vs0mg"},{"bike_id":"4e984c2e-ccaf-4b68-b5a7-e2abc9f5c05d","system_id":"levelo_inurba_marseille","lat":43.29544,"lon":5.37512,"is_reserved":false,"is_disabled":false,"rental_uris":{"android":"levelo://app?vid=4e984c2e-ccaf-4b68-b5a7-e2abc9f5c05d","ios":"levelo://app?vid=4e984c2e-ccaf-4b68-b5a7-e2abc9f5c05d"},"vehicle_type_id":"4","last_reported":1738444093,"current_range_meters":38800,"station_id":"ce4bgkp2rcd13ifvqbmg","pricing_plan_id":"cebpf4jnsgd1na2vs0mg"},{"bike_id":"0ef83bbd-06ec-47f7-a25d-62aa89428599","system_id":"levelo_inurba_marseille","lat":43.25862,"lon":5.39882,"is_reserved":false,"is_disabled":false,"rental_uris":{"android":"levelo://app?vid=0ef83bbd-06ec-47f7-a25d-62aa89428599","ios":"levelo://app?vid=0ef83bbd-06ec-47f7-a25d-62aa89428599"},"vehicle_type_id":"4","last_reported":1738444093,"current_range_meters":34000,"station_id":"ce4bhl92rcd13ifvqghg","pricing_plan_id":"cebpf4jnsgd1na2vs0mg"},{"bike_id":"96cdde99-07e1-4e29-ada8-0165767ba907","system_id":"levelo_inurba_marseille","lat":43.27931,"lon":5.41038,"is_reserved":false,"is_disabled":false,"rental_uris":{"android":"levelo://app?vid=96cdde99-07e1-4e29-ada8-0165767ba907","ios":"levelo://app?vid=96cdde99-07e1-4e29-ada8-0165767ba907"},"vehicle_type_id":"4","last_reported":1738444093,"current_range_meters":12400,"station_id":"ce4bhnp2rcd13ifvqh0g","pricing_plan_id":"cebpf4jnsgd1na2vs0mg"},{"bike_id":"b324ab01-d633-4082-8709-27e50a68d29f","system_id":"levelo_inurba_marseille","lat":43.29612,"lon":5.3775,"is_reserved":false,"is_disabled":false,"rental_uris":{"android":"levelo://app?vid=b324ab01-d633-4082-8709-27e50a68d29f","ios":"levelo://app?vid=b324ab01-d633-4082-8709-27e50a68d29f"},"vehicle_type_id":"4","last_reported":1738444093,"current_range_meters":38800,"station_id":"ce4bgi92rcd13ifvqb90","pricing_plan_id":"cebpf4jnsgd1na2vs0mg"},{"bike_id":"8344a4b9-fe19-4ccf-9e1e-c66810831c8c","system_id":"levelo_inurba_marseille","lat":43.24386,"lon":5.37041,"is_reserved":false,"is_disabled":false,"rental_uris":{"android":"levelo://app?vid=8344a4b9-fe19-4ccf-9e1e-c66810831c8c","ios":"levelo://app?vid=8344a4b9-fe19-4ccf-9e1e-c66810831c8c"},"vehicle_type_id":"4","last_reported":1738444093,"current_range_meters":16000,"station_id":"ce4bhhh2rcd13ifvqfk0","pricing_plan_id":"cebpf4jnsgd1na2vs0mg"},{"bike_id":"18e3e948-838e-449a-ae4e-37e667bc4092","system_id":"levelo_inurba_marseille","lat":43.27674,"lon":5.38894,"is_reserved":false,"is_disabled":false,"rental_uris":{"android":"levelo://app?vid=18e3e948-838e-449a-ae4e-37e667bc4092","ios":"levelo://app?vid=18e3e948-838e-449a-ae4e-37e667bc4092"},"vehicle_type_id":"4","last_reported":1738444093,"current_range_meters":38800,"station_id":"ce4bhi12rcd13ifvqfo0","pricing_plan_id":"cebpf4jnsgd1na2vs0mg"},{"bike_id":"2047e938-57e3-4375-958a-69a4e97a2c7d","system_id":"levelo_inurba_marseille","lat":43.23198,"lon":5.39988,"is_reserved":false,"is_disabled":true,"rental_uris":{"android":"levelo://app?vid=2047e938-57e3-4375-958a-69a4e97a2c7d","ios":"levelo://app?vid=2047e938-57e3-4375-958a-69a4e97a2c7d"},"vehicle_type_id":"4","last_reported":1738444093,"current_range_meters":8400,"station_id":"ce4bhn12rcd13ifvqgqg","pricing_plan_id":"cebpf4jnsgd1na2vs0mg"},{"bike_id":"03318d1a-44ca-4d4e-bc09-621c39d9b03a","system_id":"levelo_inurba_marseille","lat":43.2958,"lon":5.37498,"is_reserved":false,"is_disabled":false,"rental_uris":{"android":"levelo://app?vid=03318d1a-44ca-4d4e-bc09-621c39d9b03a","ios":"levelo://app?vid=03318d1a-44ca-4d4e-bc09-621c39d9b03a"},"vehicle_type_id":"4","last_reported":1738444093,"current_range_meters":32000,"station_id":"ce4bgh92rcd13ifvqb50","pricing_plan_id":"cebpf4jnsgd1na2vs0mg"},{"bike_id":"4f6709e2-12e9-4e0f-9755-3c29a46c04c3","system_id":"levelo_inurba_marseille","lat":43.30098,"lon":5.39065,"is_reserved":false,"is_disabled":false,"rental_uris":{"android":"levelo://app?vid=4f6709e2-12e9-4e0f-9755-3c29a46c04c3","ios":"levelo://app?vid=4f6709e2-12e9-4e0f-9755-3c29a46c04c3"},"vehicle_type_id":"4","last_reported":1738444093,"current_range_meters":24000,"station_id":"ce4bh192rcd13ifvqdb0","pricing_plan_id":"cebpf4jnsgd1na2vs0mg"},{"bike_id":"b1cad565-9fde-44f3-92e2-67d26f1c3e83","system_id":"levelo_inurba_marseille","lat":43.28261,"lon":5.35068,"is_reserved":false,"is_disabled":false,"rental_uris":{"android":"levelo://app?vid=b1cad565-9fde-44f3-92e2-67d26f1c3e83","ios":"levelo://app?vid=b1cad565-9fde-44f3-92e2-67d26f1c3e83"},"vehicle_type_id":"4","last_reported":1738444093,"current_range_meters":36400,"station_id":"ce4bhbp2rcd13ifvqerg","pricing_plan_id":"cebpf4jnsgd1na2vs0mg"},{"bike_id":"f400731c-7fdb-444e-a0b2-4e35fe94b18c","system_id":"levelo_inurba_marseille","lat":43.32652,"lon":5.40994,"is_reserved":false,"is_disabled":false,"rental_uris":{"android":"levelo://app?vid=f400731c-7fdb-444e-a0b2-4e35fe94b18c","ios":"levelo://app?vid=f400731c-7fdb-444e-a0b2-4e35fe94b18c"},"vehicle_type_id":"4","last_reported":1738444093,"current_range_meters":39200,"station_id":"ce4bhpp2rcd13ifvqhgg","pricing_plan_id":"cebpf4jnsgd1na2vs0mg"},{"bike_id":"4c93d00c-68ba-4a15-b84d-c668c74edab1","system_id":"levelo_inurba_marseille","lat":43.288473,"lon":5.39299,"is_reserved":false,"is_disabled":false,"rental_uris":{"android":"levelo://app?vid=4c93d00c-68ba-4a15-b84d-c668c74edab1","ios":"levelo://app?vid=4c93d00c-68ba-4a15-b84d-c668c74edab1"},"vehicle_type_id":"4","last_reported":1738444093,"current_range_meters":32400,"station_id":"ce4bh2p2rcd13ifvqdi0","pricing_plan_id":"cebpf4jnsgd1na2vs0mg"},{"bike_id":"715258ce-0406-4bd9-9a91-f7713bd90da7","system_id":"levelo_inurba_marseille","lat":43.30606,"lon":5.37224,"is_reserved":false,"is_disabled":false,"rental_uris":{"android":"levelo://app?vid=715258ce-0406-4bd9-9a91-f7713bd90da7","ios":"levelo://app?vid=715258ce-0406-4bd9-9a91-f7713bd90da7"},"vehicle_type_id":"4","last_reported":1738444093,"current_range_meters":38000,"station_id":"ce4bgqh2rcd13ifvqc4g","pricing_plan_id":"cebpf4jnsgd1na2vs0mg"},{"bike_id":"c3f23dfa-effe-44e6-8263-dbdb8e80402d","system_id":"levelo_inurba_marseille","lat":43.30591,"lon":5.39352,"is_reserved":false,"is_disabled":false,"rental_uris":{"android":"levelo://app?vid=c3f23dfa-effe-44e6-8263-dbdb8e80402d","ios":"levelo://app?vid=c3f23dfa-effe-44e6-8263-dbdb8e80402d"},"vehicle_type_id":"4","last_reported":1738444093,"current_range_meters":7200,"station_id":"ce4bh0p2rcd13ifvqd80","pricing_plan_id":"cebpf4jnsgd1na2vs0mg"},{"bike_id":"b10ab44b-dfeb-4ae6-8750-455f16d26933","system_id":"levelo_inurba_marseille","lat":43.30944,"lon":5.39102,"is_reserved":false,"is_disabled":false,"rental_uris":{"android":"levelo://app?vid=b10ab44b-dfeb-4ae6-8750-455f16d26933","ios":"levelo://app?vid=b10ab44b-dfeb-4ae6-8750-455f16d26933"},"vehicle_type_id":"4","last_reported":1738444093,"current_range_meters":36400,"station_id":"ce4bgup2rcd13ifvqco0","pricing_plan_id":"cebpf4jnsgd1na2vs0mg"},{"bike_id":"3a60ebc0-dac7-4b3e-a8c5-4699cca32d17","system_id":"levelo_inurba_marseille","lat":43.30804,"lon":5.43524,"is_reserved":false,"is_disabled":false,"rental_uris":{"android":"levelo://app?vid=3a60ebc0-dac7-4b3e-a8c5-4699cca32d17","ios":"levelo://app?vid=3a60ebc0-dac7-4b3e-a8c5-4699cca32d17"},"vehicle_type_id":"4","last_reported":1738444093,"current_range_meters":32400,"station_id":"ce4bhph2rcd13ifvqheg","pricing_plan_id":"cebpf4jnsgd1na2vs0mg"},{"bike_id":"f5007e60-5553-47a5-ad90-99d68a1f73e0","system_id":"levelo_inurba_marseille","lat":43.29574,"lon":5.37516,"is_reserved":false,"is_disabled":false,"rental_uris":{"android":"levelo://app?vid=f5007e60-5553-47a5-ad90-99d68a1f73e0","ios":"levelo://app?vid=f5007e60-5553-47a5-ad90-99d68a1f73e0"},"vehicle_type_id":"4","last_reported":1738444093,"current_range_meters":34000,"station_id":"ce4bgh92rcd13ifvqb50","pricing_plan_id":"cebpf4jnsgd1na2vs0mg"},{"bike_id":"250b4c0b-2b74-4406-bcef-664c743b42f4","system_id":"levelo_inurba_marseille","lat":43.3094,"lon":5.39033,"is_reserved":false,"is_disabled":false,"rental_uris":{"android":"levelo://app?vid=250b4c0b-2b74-4406-bcef-664c743b42f4","ios":"levelo://app?vid=250b4c0b-2b74-4406-bcef-664c743b42f4"},"vehicle_type_id":"4","last_reported":1738444093,"current_range_meters":39200,"station_id":"ce4bgup2rcd13ifvqco0","pricing_plan_id":"cebpf4jnsgd1na2vs0mg"},{"bike_id":"aecaf7b7-7e32-428d-a67d-2e8ccaaee2d1","system_id":"levelo_inurba_marseille","lat":43.28833,"lon":5.39296,"is_reserved":false,"is_disabled":false,"rental_uris":{"android":"levelo://app?vid=aecaf7b7-7e32-428d-a67d-2e8ccaaee2d1","ios":"levelo://app?vid=aecaf7b7-7e32-428d-a67d-2e8ccaaee2d1"},"vehicle_type_id":"4","last_reported":1738444093,"current_range_meters":39200,"station_id":"ce4bh2p2rcd13ifvqdi0","pricing_plan_id":"cebpf4jnsgd1na2vs0mg"},{"bike_id":"fdd6abb6-21d6-4f86-bfd3-9d4782ceec5d","system_id":"levelo_inurba_marseille","lat":43.2978,"lon":5.38105,"is_reserved":false,"is_disabled":false,"rental_uris":{"android":"levelo://app?vid=fdd6abb6-21d6-4f86-bfd3-9d4782ceec5d","ios":"levelo://app?vid=fdd6abb6-21d6-4f86-bfd3-9d4782ceec5d"},"vehicle_type_id":"4","last_reported":1738444093,"current_range_meters":36400,"station_id":"ce4bgip2rcd13ifvqbb0","pricing_plan_id":"cebpf4jnsgd1na2vs0mg"},{"bike_id":"2a22f1df-3b9e-4f57-8a0c-9250df6f4b0f","system_id":"levelo_inurba_marseille","lat":43.25823,"lon":5.39433,"is_reserved":false,"is_disabled":false,"rental_uris":{"android":"levelo://app?vid=2a22f1df-3b9e-4f57-8a0c-9250df6f4b0f","ios":"levelo://app?vid=2a22f1df-3b9e-4f57-8a0c-9250df6f4b0f"},"vehicle_type_id":"4","last_reported":1738444093,"current_range_meters":38800,"station_id":"ce4bhip2rcd13ifvqft0","pricing_plan_id":"cebpf4jnsgd1na2vs0mg"},{"bike_id":"56b09552-4219-4565-a734-8e0fd6e4802e","system_id":"levelo_inurba_marseille","lat":43.26216,"lon":5.37457,"is_reserved":false,"is_disabled":false,"rental_uris":{"android":"levelo://app?vid=56b09552-4219-4565-a734-8e0fd6e4802e","ios":"levelo://app?vid=56b09552-4219-4565-a734-8e0fd6e4802e"},"vehicle_type_id":"4","last_reported":1738444093,"current_range_meters":38800,"station_id":"ce4bhgp2rcd13ifvqfc0","pricing_plan_id":"cebpf4jnsgd1na2vs0mg"},{"bike_id":"beb3c881-0b27-473c-b215-e3abd2d5448f","system_id":"levelo_inurba_marseille","lat":43.29583,"lon":5.3751,"is_reserved":false,"is_disabled":false,"rental_uris":{"android":"levelo://app?vid=beb3c881-0b27-473c-b215-e3abd2d5448f","ios":"levelo://app?vid=beb3c881-0b27-473c-b215-e3abd2d5448f"},"vehicle_type_id":"4","last_reported":1738444093,"current_range_meters":38000,"station_id":"ce4bgh92rcd13ifvqb50","pricing_plan_id":"cebpf4jnsgd1na2vs0mg"},{"bike_id":"8e0380af-2c54-4df2-a6df-9b347e200a76","system_id":"levelo_inurba_marseille","lat":43.29858,"lon":5.36268,"is_reserved":false,"is_disabled":false,"rental_uris":{"android":"levelo://app?vid=8e0380af-2c54-4df2-a6df-9b347e200a76","ios":"levelo://app?vid=8e0380af-2c54-4df2-a6df-9b347e200a76"},"vehicle_type_id":"4","last_reported":1738444093,"current_range_meters":30400,"station_id":"ce4bgpp2rcd13ifvqc3g","pricing_plan_id":"cebpf4jnsgd1na2vs0mg"},{"bike_id":"a400cb11-351f-4890-b5eb-6c927b2cc51d","system_id":"levelo_inurba_marseille","lat":43.32337,"lon":5.38893,"is_reserved":false,"is_disabled":false,"rental_uris":{"android":"levelo://app?vid=a400cb11-351f-4890-b5eb-6c927b2cc51d","ios":"levelo://app?vid=a400cb11-351f-4890-b5eb-6c927b2cc51d"},"vehicle_type_id":"4","last_reported":1738444093,"current_range_meters":20400,"station_id":"ce4bhqp2rcd13ifvqhog","pricing_plan_id":"cebpf4jnsgd1na2vs0mg"},{"bike_id":"ab2c796a-c23b-4a3a-9534-777b873d6a05","system_id":"levelo_inurba_marseille","lat":43.24167,"lon":5.36407,"is_reserved":false,"is_disabled":false,"rental_uris":{"android":"levelo://app?vid=ab2c796a-c23b-4a3a-9534-777b873d6a05","ios":"levelo://app?vid=ab2c796a-c23b-4a3a-9534-777b873d6a05"},"vehicle_type_id":"4","last_reported":1738444093,"current_range_meters":31200,"station_id":"cpo36qri1sfpv3e86is0","pricing_plan_id":"cebpf4jnsgd1na2vs0mg"},{"bike_id":"8c1053cb-f2df-4a57-9e26-1127bc273edf","system_id":"levelo_inurba_marseille","lat":43.28482,"lon":5.38423,"is_reserved":false,"is_disabled":true,"rental_uris":{"android":"levelo://app?vid=8c1053cb-f2df-4a57-9e26-1127bc273edf","ios":"levelo://app?vid=8c1053cb-f2df-4a57-9e26-1127bc273edf"},"vehicle_type_id":"4","last_reported":1738444093,"current_range_meters":0,"station_id":"ce4bh512rcd13ifvqe3g","pricing_plan_id":"cebpf4jnsgd1na2vs0mg"},{"bike_id":"be6752d5-5b6c-462c-b915-9b893e697b85","system_id":"levelo_inurba_marseille","lat":43.29625,"lon":5.37719,"is_reserved":false,"is_disabled":false,"rental_uris":{"android":"levelo://app?vid=be6752d5-5b6c-462c-b915-9b893e697b85","ios":"levelo://app?vid=be6752d5-5b6c-462c-b915-9b893e697b85"},"vehicle_type_id":"4","last_reported":1738444093,"current_range_meters":16800,"station_id":"ce4bgi92rcd13ifvqb90","pricing_plan_id":"cebpf4jnsgd1na2vs0mg"},{"bike_id":"5828b83b-f7c6-4d80-a783-c5c9cb673d67","system_id":"levelo_inurba_marseille","lat":43.3014,"lon":5.37422,"is_reserved":false,"is_disabled":false,"rental_uris":{"android":"levelo://app?vid=5828b83b-f7c6-4d80-a783-c5c9cb673d67","ios":"levelo://app?vid=5828b83b-f7c6-4d80-a783-c5c9cb673d67"},"vehicle_type_id":"4","last_reported":1738444093,"current_range_meters":38800,"station_id":"ce4bgs92rcd13ifvqcc0","pricing_plan_id":"cebpf4jnsgd1na2vs0mg"},{"bike_id":"58feef8f-17b5-470d-8151-c7a13f0dbe24","system_id":"levelo_inurba_marseille","lat":43.28405,"lon":5.37507,"is_reserved":false,"is_disabled":true,"rental_uris":{"android":"levelo://app?vid=58feef8f-17b5-470d-8151-c7a13f0dbe24","ios":"levelo://app?vid=58feef8f-17b5-470d-8151-c7a13f0dbe24"},"vehicle_type_id":"4","last_reported":1738444093,"current_range_meters":0,"station_id":"ce4bh412rcd13ifvqds0","pricing_plan_id":"cebpf4jnsgd1na2vs0mg"},{"bike_id":"7b1972b5-4724-4ee7-8ef3-3d52a3645f58","system_id":"levelo_inurba_marseille","lat":43.28139,"lon":5.4266,"is_reserved":false,"is_disabled":false,"rental_uris":{"android":"levelo://app?vid=7b1972b5-4724-4ee7-8ef3-3d52a3645f58","ios":"levelo://app?vid=7b1972b5-4724-4ee7-8ef3-3d52a3645f58"},"vehicle_type_id":"4","last_reported":1738444093,"current_range_meters":28800,"station_id":"ce4bhnh2rcd13ifvqgug","pricing_plan_id":"cebpf4jnsgd1na2vs0mg"},{"bike_id":"c5f32d59-e2e7-466c-bbb9-0262533a9be4","system_id":"levelo_inurba_marseille","lat":43.29564,"lon":5.37516,"is_reserved":false,"is_disabled":false,"rental_uris":{"android":"levelo://app?vid=c5f32d59-e2e7-466c-bbb9-0262533a9be4","ios":"levelo://app?vid=c5f32d59-e2e7-466c-bbb9-0262533a9be4"},"vehicle_type_id":"4","last_reported":1738444093,"current_range_meters":26000,"station_id":"ce4bgh92rcd13ifvqb50","pricing_plan_id":"cebpf4jnsgd1na2vs0mg"},{"bike_id":"b0fbef52-287b-4774-8a30-b50fd2ccc74a","system_id":"levelo_inurba_marseille","lat":43.30316,"lon":5.40434,"is_reserved":false,"is_disabled":false,"rental_uris":{"android":"levelo://app?vid=b0fbef52-287b-4774-8a30-b50fd2ccc74a","ios":"levelo://app?vid=b0fbef52-287b-4774-8a30-b50fd2ccc74a"},"vehicle_type_id":"4","last_reported":1738444093,"current_range_meters":13600,"station_id":"ce4bh012rcd13ifvqd10","pricing_plan_id":"cebpf4jnsgd1na2vs0mg"},{"bike_id":"dd7dd907-e167-42e7-95f9-83a36df1b290","system_id":"levelo_inurba_marseille","lat":43.28941,"lon":5.3661,"is_reserved":false,"is_disabled":false,"rental_uris":{"android":"levelo://app?vid=dd7dd907-e167-42e7-95f9-83a36df1b290","ios":"levelo://app?vid=dd7dd907-e167-42e7-95f9-83a36df1b290"},"vehicle_type_id":"4","last_reported":1738444093,"current_range_meters":39200,"station_id":"ce4bhap2rcd13ifvqek0","pricing_plan_id":"cebpf4jnsgd1na2vs0mg"},{"bike_id":"84fcd398-95d6-4b13-af08-289880890f93","system_id":"levelo_inurba_marseille","lat":43.28617,"lon":5.35099,"is_reserved":false,"is_disabled":false,"rental_uris":{"android":"levelo://app?vid=84fcd398-95d6-4b13-af08-289880890f93","ios":"levelo://app?vid=84fcd398-95d6-4b13-af08-289880890f93"},"vehicle_type_id":"4","last_reported":1738444093,"current_range_meters":36800,"station_id":"ce4bhch2rcd13ifvqeug","pricing_plan_id":"cebpf4jnsgd1na2vs0mg"},{"bike_id":"e1d4a2f1-c484-42e0-9232-e98e59dd1624","system_id":"levelo_inurba_marseille","lat":43.29051,"lon":5.38633,"is_reserved":false,"is_disabled":true,"rental_uris":{"android":"levelo://app?vid=e1d4a2f1-c484-42e0-9232-e98e59dd1624","ios":"levelo://app?vid=e1d4a2f1-c484-42e0-9232-e98e59dd1624"},"vehicle_type_id":"4","last_reported":1738444093,"current_range_meters":38800,"station_id":"ce4bh4p2rcd13ifvqe0g","pricing_plan_id":"cebpf4jnsgd1na2vs0mg"},{"bike_id":"f5192a48-f127-416f-ac25-5dcd6cb43014","system_id":"levelo_inurba_marseille","lat":43.31082,"lon":5.42428,"is_reserved":false,"is_disabled":false,"rental_uris":{"android":"levelo://app?vid=f5192a48-f127-416f-ac25-5dcd6cb43014","ios":"levelo://app?vid=f5192a48-f127-416f-ac25-5dcd6cb43014"},"vehicle_type_id":"4","last_reported":1738444093,"current_range_meters":36800,"station_id":"ce4bhp92rcd13ifvqhag","pricing_plan_id":"cebpf4jnsgd1na2vs0mg"},{"bike_id":"e8e1f7c6-d773-4c38-bfcc-4a6d773355ce","system_id":"levelo_inurba_marseille","lat":43.22952,"lon":5.35346,"is_reserved":false,"is_disabled":false,"rental_uris":{"android":"levelo://app?vid=e8e1f7c6-d773-4c38-bfcc-4a6d773355ce","ios":"levelo://app?vid=e8e1f7c6-d773-4c38-bfcc-4a6d773355ce"},"vehicle_type_id":"4","last_reported":1738444093,"current_range_meters":38800,"station_id":"cpo3532slgdg3j2ikp40","pricing_plan_id":"cebpf4jnsgd1na2vs0mg"},{"bike_id":"c8a9a99a-0689-460c-a70e-fc2df20c48cb","system_id":"levelo_inurba_marseille","lat":43.29035,"lon":5.38644,"is_reserved":false,"is_disabled":false,"rental_uris":{"android":"levelo://app?vid=c8a9a99a-0689-460c-a70e-fc2df20c48cb","ios":"levelo://app?vid=c8a9a99a-0689-460c-a70e-fc2df20c48cb"},"vehicle_type_id":"4","last_reported":1738444093,"current_range_meters":38800,"station_id":"ce4bh4p2rcd13ifvqe0g","pricing_plan_id":"cebpf4jnsgd1na2vs0mg"},{"bike_id":"e479cb2a-5bb1-4a54-9a02-4183dd11c617","system_id":"levelo_inurba_marseille","lat":43.31175,"lon":5.38719,"is_reserved":false,"is_disabled":false,"rental_uris":{"android":"levelo://app?vid=e479cb2a-5bb1-4a54-9a02-4183dd11c617","ios":"levelo://app?vid=e479cb2a-5bb1-4a54-9a02-4183dd11c617"},"vehicle_type_id":"4","last_reported":1738444093,"current_range_meters":22400,"station_id":"ce4bgv12rcd13ifvqcp0","pricing_plan_id":"cebpf4jnsgd1na2vs0mg"},{"bike_id":"3d5cd3e3-9417-45ac-91cc-715af0568bfc","system_id":"levelo_inurba_marseille","lat":43.25881,"lon":5.39889,"is_reserved":false,"is_disabled":false,"rental_uris":{"android":"levelo://app?vid=3d5cd3e3-9417-45ac-91cc-715af0568bfc","ios":"levelo://app?vid=3d5cd3e3-9417-45ac-91cc-715af0568bfc"},"vehicle_type_id":"4","last_reported":1738444093,"current_range_meters":37600,"station_id":"ce4bhl92rcd13ifvqghg","pricing_plan_id":"cebpf4jnsgd1na2vs0mg"},{"bike_id":"ea6c894d-2016-4405-87c2-24a4ddf729fd","system_id":"levelo_inurba_marseille","lat":43.26201,"lon":5.37442,"is_reserved":false,"is_disabled":false,"rental_uris":{"android":"levelo://app?vid=ea6c894d-2016-4405-87c2-24a4ddf729fd","ios":"levelo://app?vid=ea6c894d-2016-4405-87c2-24a4ddf729fd"},"vehicle_type_id":"4","last_reported":1738444093,"current_range_meters":38800,"station_id":"ce4bhgp2rcd13ifvqfc0","pricing_plan_id":"cebpf4jnsgd1na2vs0mg"},{"bike_id":"ad0446da-8e64-49b9-b37d-c4f212086e3b","system_id":"levelo_inurba_marseille","lat":43.27808,"lon":5.40703,"is_reserved":false,"is_disabled":false,"rental_uris":{"android":"levelo://app?vid=ad0446da-8e64-49b9-b37d-c4f212086e3b","ios":"levelo://app?vid=ad0446da-8e64-49b9-b37d-c4f212086e3b"},"vehicle_type_id":"4","last_reported":1738444093,"current_range_meters":32400,"station_id":"ce4bhnh2rcd13ifvqgtg","pricing_plan_id":"cebpf4jnsgd1na2vs0mg"},{"bike_id":"446cfbd8-380d-483d-82ba-61ff47e31d05","system_id":"levelo_inurba_marseille","lat":43.29253,"lon":5.38435,"is_reserved":false,"is_disabled":true,"rental_uris":{"android":"levelo://app?vid=446cfbd8-380d-483d-82ba-61ff47e31d05","ios":"levelo://app?vid=446cfbd8-380d-483d-82ba-61ff47e31d05"},"vehicle_type_id":"4","last_reported":1738444093,"current_range_meters":33200,"station_id":"ce4bh692rcd13ifvqea0","pricing_plan_id":"cebpf4jnsgd1na2vs0mg"},{"bike_id":"6d8d7d5f-bcf3-4645-9619-220b98c5dc26","system_id":"levelo_inurba_marseille","lat":43.28167,"lon":5.42643,"is_reserved":false,"is_disabled":false,"rental_uris":{"android":"levelo://app?vid=6d8d7d5f-bcf3-4645-9619-220b98c5dc26","ios":"levelo://app?vid=6d8d7d5f-bcf3-4645-9619-220b98c5dc26"},"vehicle_type_id":"4","last_reported":1738444093,"current_range_meters":22400,"station_id":"ce4bhnh2rcd13ifvqgug","pricing_plan_id":"cebpf4jnsgd1na2vs0mg"},{"bike_id":"3d2ad4eb-c3df-4be8-82a3-1864655479da","system_id":"levelo_inurba_marseille","lat":43.28608,"lon":5.35111,"is_reserved":false,"is_disabled":false,"rental_uris":{"android":"levelo://app?vid=3d2ad4eb-c3df-4be8-82a3-1864655479da","ios":"levelo://app?vid=3d2ad4eb-c3df-4be8-82a3-1864655479da"},"vehicle_type_id":"4","last_reported":1738444093,"current_range_meters":38400,"station_id":"ce4bhch2rcd13ifvqeug","pricing_plan_id":"cebpf4jnsgd1na2vs0mg"},{"bike_id":"64bcf8da-9212-426c-807a-0ba34b63b099","system_id":"levelo_inurba_marseille","lat":43.31487,"lon":5.37308,"is_reserved":false,"is_disabled":false,"rental_uris":{"android":"levelo://app?vid=64bcf8da-9212-426c-807a-0ba34b63b099","ios":"levelo://app?vid=64bcf8da-9212-426c-807a-0ba34b63b099"},"vehicle_type_id":"4","last_reported":1738444093,"current_range_meters":32400,"station_id":"ce4bgt12rcd13ifvqcd0","pricing_plan_id":"cebpf4jnsgd1na2vs0mg"},{"bike_id":"b681b220-3756-4fa0-8f47-7c71ffcd9220","system_id":"levelo_inurba_marseille","lat":43.30905,"lon":5.36841,"is_reserved":false,"is_disabled":false,"rental_uris":{"android":"levelo://app?vid=b681b220-3756-4fa0-8f47-7c71ffcd9220","ios":"levelo://app?vid=b681b220-3756-4fa0-8f47-7c71ffcd9220"},"vehicle_type_id":"4","last_reported":1738444093,"current_range_meters":30000,"station_id":"ce4bgn92rcd13ifvqbvg","pricing_plan_id":"cebpf4jnsgd1na2vs0mg"},{"bike_id":"6d071d80-f695-4f32-b86e-009443834ab9","system_id":"levelo_inurba_marseille","lat":43.30538,"lon":5.36706,"is_reserved":false,"is_disabled":false,"rental_uris":{"android":"levelo://app?vid=6d071d80-f695-4f32-b86e-009443834ab9","ios":"levelo://app?vid=6d071d80-f695-4f32-b86e-009443834ab9"},"vehicle_type_id":"4","last_reported":1738444093,"current_range_meters":30400,"station_id":"ce4bgrp2rcd13ifvqc9g","pricing_plan_id":"cebpf4jnsgd1na2vs0mg"},{"bike_id":"8b409302-a9d3-4581-9d93-e2b201acf045","system_id":"levelo_inurba_marseille","lat":43.30532,"lon":5.36529,"is_reserved":false,"is_disabled":false,"rental_uris":{"android":"levelo://app?vid=8b409302-a9d3-4581-9d93-e2b201acf045","ios":"levelo://app?vid=8b409302-a9d3-4581-9d93-e2b201acf045"},"vehicle_type_id":"4","last_reported":1738444093,"current_range_meters":25200,"station_id":"ce4bgs12rcd13ifvqcag","pricing_plan_id":"cebpf4jnsgd1na2vs0mg"},{"bike_id":"7095d643-c88c-4380-b0d5-45028aa7507f","system_id":"levelo_inurba_marseille","lat":43.24643,"lon":5.38921,"is_reserved":false,"is_disabled":false,"rental_uris":{"android":"levelo://app?vid=7095d643-c88c-4380-b0d5-45028aa7507f","ios":"levelo://app?vid=7095d643-c88c-4380-b0d5-45028aa7507f"},"vehicle_type_id":"4","last_reported":1738444093,"current_range_meters":21600,"station_id":"ce4bhg12rcd13ifvqf60","pricing_plan_id":"cebpf4jnsgd1na2vs0mg"},{"bike_id":"bbb50bd1-1308-41e5-aa5c-c9e291f5d5ca","system_id":"levelo_inurba_marseille","lat":43.26689,"lon":5.38274,"is_reserved":false,"is_disabled":false,"rental_uris":{"android":"levelo://app?vid=bbb50bd1-1308-41e5-aa5c-c9e291f5d5ca","ios":"levelo://app?vid=bbb50bd1-1308-41e5-aa5c-c9e291f5d5ca"},"vehicle_type_id":"4","last_reported":1738444093,"current_range_meters":7200,"station_id":"ce4bhg92rcd13ifvqf90","pricing_plan_id":"cebpf4jnsgd1na2vs0mg"},{"bike_id":"ddd00e95-387d-4687-9b99-27d0e7bf1447","system_id":"levelo_inurba_marseille","lat":43.296408,"lon":5.390321,"is_reserved":false,"is_disabled":true,"rental_uris":{"android":"levelo://app?vid=ddd00e95-387d-4687-9b99-27d0e7bf1447","ios":"levelo://app?vid=ddd00e95-387d-4687-9b99-27d0e7bf1447"},"vehicle_type_id":"4","last_reported":1738444093,"current_range_meters":0,"station_id":"","pricing_plan_id":"cebpf4jnsgd1na2vs0mg"},{"bike_id":"9ec89f7c-bbcb-44ac-a4d6-d72ce4984143","system_id":"levelo_inurba_marseille","lat":43.292108,"lon":5.360496,"is_reserved":false,"is_disabled":false,"rental_uris":{"android":"levelo://app?vid=9ec89f7c-bbcb-44ac-a4d6-d72ce4984143","ios":"levelo://app?vid=9ec89f7c-bbcb-44ac-a4d6-d72ce4984143"},"vehicle_type_id":"4","last_reported":1738444093,"current_range_meters":38800,"station_id":"ce4bhbh2rcd13ifvqeqg","pricing_plan_id":"cebpf4jnsgd1na2vs0mg"},{"bike_id":"71f34f72-d3b7-46a5-9bd4-1fe057b3152f","system_id":"levelo_inurba_marseille","lat":43.2293,"lon":5.35378,"is_reserved":false,"is_disabled":false,"rental_uris":{"android":"levelo://app?vid=71f34f72-d3b7-46a5-9bd4-1fe057b3152f","ios":"levelo://app?vid=71f34f72-d3b7-46a5-9bd4-1fe057b3152f"},"vehicle_type_id":"4","last_reported":1738444093,"current_range_meters":38800,"station_id":"cpo3532slgdg3j2ikp40","pricing_plan_id":"cebpf4jnsgd1na2vs0mg"},{"bike_id":"ba1b16dd-09e2-4536-8411-babb750bcb3c","system_id":"levelo_inurba_marseille","lat":43.23186,"lon":5.39997,"is_reserved":false,"is_disabled":true,"rental_uris":{"android":"levelo://app?vid=ba1b16dd-09e2-4536-8411-babb750bcb3c","ios":"levelo://app?vid=ba1b16dd-09e2-4536-8411-babb750bcb3c"},"vehicle_type_id":"4","last_reported":1738444093,"current_range_meters":25600,"station_id":"ce4bhn12rcd13ifvqgqg","pricing_plan_id":"cebpf4jnsgd1na2vs0mg"},{"bike_id":"20029bdd-9f9c-4ff9-86e4-5ba6ed30f46a","system_id":"levelo_inurba_marseille","lat":43.23148,"lon":5.43705,"is_reserved":false,"is_disabled":true,"rental_uris":{"android":"levelo://app?vid=20029bdd-9f9c-4ff9-86e4-5ba6ed30f46a","ios":"levelo://app?vid=20029bdd-9f9c-4ff9-86e4-5ba6ed30f46a"},"vehicle_type_id":"4","last_reported":1738444093,"current_range_meters":0,"station_id":"ce4bhmp2rcd13ifvqgog","pricing_plan_id":"cebpf4jnsgd1na2vs0mg"},{"bike_id":"0cfa5034-3372-498c-a10d-880c541eb7f7","system_id":"levelo_inurba_marseille","lat":43.31493,"lon":5.37466,"is_reserved":false,"is_disabled":false,"rental_uris":{"android":"levelo://app?vid=0cfa5034-3372-498c-a10d-880c541eb7f7","ios":"levelo://app?vid=0cfa5034-3372-498c-a10d-880c541eb7f7"},"vehicle_type_id":"4","last_reported":1738444093,"current_range_meters":20000,"station_id":"","pricing_plan_id":"cebpf4jnsgd1na2vs0mg"},{"bike_id":"d939c892-40c0-4722-81b1-c0d3b2d3ae6f","system_id":"levelo_inurba_marseille","lat":43.3093,"lon":5.40143,"is_reserved":false,"is_disabled":false,"rental_uris":{"android":"levelo://app?vid=d939c892-40c0-4722-81b1-c0d3b2d3ae6f","ios":"levelo://app?vid=d939c892-40c0-4722-81b1-c0d3b2d3ae6f"},"vehicle_type_id":"4","last_reported":1738444093,"current_range_meters":20000,"station_id":"ce4bgvp2rcd13ifvqct0","pricing_plan_id":"cebpf4jnsgd1na2vs0mg"},{"bike_id":"8d218b50-5132-4a3a-bb3e-ac453106b368","system_id":"levelo_inurba_marseille","lat":43.29793,"lon":5.38083,"is_reserved":false,"is_disabled":false,"rental_uris":{"android":"levelo://app?vid=8d218b50-5132-4a3a-bb3e-ac453106b368","ios":"levelo://app?vid=8d218b50-5132-4a3a-bb3e-ac453106b368"},"vehicle_type_id":"4","last_reported":1738444093,"current_range_meters":38400,"station_id":"ce4bgip2rcd13ifvqbb0","pricing_plan_id":"cebpf4jnsgd1na2vs0mg"},{"bike_id":"af605d95-fdd8-4cdd-9337-ee2e521148b8","system_id":"levelo_inurba_marseille","lat":43.279114,"lon":5.395864,"is_reserved":false,"is_disabled":true,"rental_uris":{"android":"levelo://app?vid=af605d95-fdd8-4cdd-9337-ee2e521148b8","ios":"levelo://app?vid=af605d95-fdd8-4cdd-9337-ee2e521148b8"},"vehicle_type_id":"4","last_reported":1738444093,"current_range_meters":0,"station_id":"ce4bhf92rcd13ifvqf40","pricing_plan_id":"cebpf4jnsgd1na2vs0mg"},{"bike_id":"7e5dc81f-17e3-4728-ac43-be73e6d30ab0","system_id":"levelo_inurba_marseille","lat":43.28416,"lon":5.37514,"is_reserved":false,"is_disabled":false,"rental_uris":{"android":"levelo://app?vid=7e5dc81f-17e3-4728-ac43-be73e6d30ab0","ios":"levelo://app?vid=7e5dc81f-17e3-4728-ac43-be73e6d30ab0"},"vehicle_type_id":"4","last_reported":1738444093,"current_range_meters":34800,"station_id":"ce4bh412rcd13ifvqds0","pricing_plan_id":"cebpf4jnsgd1na2vs0mg"},{"bike_id":"e9e4b3eb-bc19-4983-9eb8-e640255903b1","system_id":"levelo_inurba_marseille","lat":43.2885,"lon":5.358564,"is_reserved":false,"is_disabled":false,"rental_uris":{"android":"levelo://app?vid=e9e4b3eb-bc19-4983-9eb8-e640255903b1","ios":"levelo://app?vid=e9e4b3eb-bc19-4983-9eb8-e640255903b1"},"vehicle_type_id":"4","last_reported":1738444093,"current_range_meters":38000,"station_id":"ce4bhb12rcd13ifvqem0","pricing_plan_id":"cebpf4jnsgd1na2vs0mg"},{"bike_id":"6e67e74f-87f0-4b2f-b0a1-e26e9e6a512a","system_id":"levelo_inurba_marseille","lat":43.311,"lon":5.37777,"is_reserved":false,"is_disabled":false,"rental_uris":{"android":"levelo://app?vid=6e67e74f-87f0-4b2f-b0a1-e26e9e6a512a","ios":"levelo://app?vid=6e67e74f-87f0-4b2f-b0a1-e26e9e6a512a"},"vehicle_type_id":"4","last_reported":1738444093,"current_range_meters":14800,"station_id":"ce4bgt92rcd13ifvqcg0","pricing_plan_id":"cebpf4jnsgd1na2vs0mg"},{"bike_id":"491407c5-a175-44f0-86fc-0f4ccadf82e3","system_id":"levelo_inurba_marseille","lat":43.337444,"lon":5.374475,"is_reserved":false,"is_disabled":true,"rental_uris":{"android":"levelo://app?vid=491407c5-a175-44f0-86fc-0f4ccadf82e3","ios":"levelo://app?vid=491407c5-a175-44f0-86fc-0f4ccadf82e3"},"vehicle_type_id":"4","last_reported":1738444093,"current_range_meters":0,"station_id":"","pricing_plan_id":"cebpf4jnsgd1na2vs0mg"},{"bike_id":"f15b606d-b287-44c9-8e50-29d4fd2445a7","system_id":"levelo_inurba_marseille","lat":43.29798,"lon":5.38093,"is_reserved":false,"is_disabled":false,"rental_uris":{"android":"levelo://app?vid=f15b606d-b287-44c9-8e50-29d4fd2445a7","ios":"levelo://app?vid=f15b606d-b287-44c9-8e50-29d4fd2445a7"},"vehicle_type_id":"4","last_reported":1738444093,"current_range_meters":38800,"station_id":"ce4bgip2rcd13ifvqbb0","pricing_plan_id":"cebpf4jnsgd1na2vs0mg"},{"bike_id":"0caac831-50a1-4be3-b41d-b835da9ab582","system_id":"levelo_inurba_marseille","lat":43.28938,"lon":5.36635,"is_reserved":false,"is_disabled":false,"rental_uris":{"android":"levelo://app?vid=0caac831-50a1-4be3-b41d-b835da9ab582","ios":"levelo://app?vid=0caac831-50a1-4be3-b41d-b835da9ab582"},"vehicle_type_id":"4","last_reported":1738444093,"current_range_meters":36400,"station_id":"ce4bhap2rcd13ifvqek0","pricing_plan_id":"cebpf4jnsgd1na2vs0mg"},{"bike_id":"2df9aa98-accf-422f-90fb-e3765e2c74a2","system_id":"levelo_inurba_marseille","lat":43.29628,"lon":5.4058,"is_reserved":false,"is_disabled":false,"rental_uris":{"android":"levelo://app?vid=2df9aa98-accf-422f-90fb-e3765e2c74a2","ios":"levelo://app?vid=2df9aa98-accf-422f-90fb-e3765e2c74a2"},"vehicle_type_id":"4","last_reported":1738444093,"current_range_meters":38000,"station_id":"ce4bh0h2rcd13ifvqd60","pricing_plan_id":"cebpf4jnsgd1na2vs0mg"},{"bike_id":"534562f2-7722-42cc-b116-bad32c2065eb","system_id":"levelo_inurba_marseille","lat":43.29263,"lon":5.38451,"is_reserved":false,"is_disabled":false,"rental_uris":{"android":"levelo://app?vid=534562f2-7722-42cc-b116-bad32c2065eb","ios":"levelo://app?vid=534562f2-7722-42cc-b116-bad32c2065eb"},"vehicle_type_id":"4","last_reported":1738444093,"current_range_meters":32800,"station_id":"ce4bh692rcd13ifvqea0","pricing_plan_id":"cebpf4jnsgd1na2vs0mg"},{"bike_id":"22bfe184-b376-4b07-80ff-e854631c2e1d","system_id":"levelo_inurba_marseille","lat":43.305453,"lon":5.367036,"is_reserved":false,"is_disabled":false,"rental_uris":{"android":"levelo://app?vid=22bfe184-b376-4b07-80ff-e854631c2e1d","ios":"levelo://app?vid=22bfe184-b376-4b07-80ff-e854631c2e1d"},"vehicle_type_id":"4","last_reported":1738444093,"current_range_meters":27200,"station_id":"ce4bgrp2rcd13ifvqc9g","pricing_plan_id":"cebpf4jnsgd1na2vs0mg"},{"bike_id":"249b7b60-8305-4794-bc88-bf145ce1b67c","system_id":"levelo_inurba_marseille","lat":43.23196,"lon":5.39967,"is_reserved":false,"is_disabled":false,"rental_uris":{"android":"levelo://app?vid=249b7b60-8305-4794-bc88-bf145ce1b67c","ios":"levelo://app?vid=249b7b60-8305-4794-bc88-bf145ce1b67c"},"vehicle_type_id":"4","last_reported":1738444093,"current_range_meters":7200,"station_id":"ce4bhn12rcd13ifvqgqg","pricing_plan_id":"cebpf4jnsgd1na2vs0mg"},{"bike_id":"0b439ceb-bbef-470b-b522-3e20f798d948","system_id":"levelo_inurba_marseille","lat":43.2908,"lon":5.38196,"is_reserved":false,"is_disabled":true,"rental_uris":{"android":"levelo://app?vid=0b439ceb-bbef-470b-b522-3e20f798d948","ios":"levelo://app?vid=0b439ceb-bbef-470b-b522-3e20f798d948"},"vehicle_type_id":"4","last_reported":1738444093,"current_range_meters":21600,"station_id":"","pricing_plan_id":"cebpf4jnsgd1na2vs0mg"},{"bike_id":"528fe304-774b-4f5e-99b0-3a6df52f7bd5","system_id":"levelo_inurba_marseille","lat":43.26675,"lon":5.38256,"is_reserved":false,"is_disabled":false,"rental_uris":{"android":"levelo://app?vid=528fe304-774b-4f5e-99b0-3a6df52f7bd5","ios":"levelo://app?vid=528fe304-774b-4f5e-99b0-3a6df52f7bd5"},"vehicle_type_id":"4","last_reported":1738444093,"current_range_meters":18000,"station_id":"ce4bhg92rcd13ifvqf90","pricing_plan_id":"cebpf4jnsgd1na2vs0mg"},{"bike_id":"693a29bd-5ac5-4712-a645-e5d8a8553060","system_id":"levelo_inurba_marseille","lat":43.29567,"lon":5.39978,"is_reserved":false,"is_disabled":true,"rental_uris":{"android":"levelo://app?vid=693a29bd-5ac5-4712-a645-e5d8a8553060","ios":"levelo://app?vid=693a29bd-5ac5-4712-a645-e5d8a8553060"},"vehicle_type_id":"4","last_reported":1738444093,"current_range_meters":38800,"station_id":"ce4bh312rcd13ifvqdj0","pricing_plan_id":"cebpf4jnsgd1na2vs0mg"},{"bike_id":"4e2966ba-8a68-4b2a-8953-edadab0e4624","system_id":"levelo_inurba_marseille","lat":43.29039,"lon":5.39952,"is_reserved":false,"is_disabled":false,"rental_uris":{"android":"levelo://app?vid=4e2966ba-8a68-4b2a-8953-edadab0e4624","ios":"levelo://app?vid=4e2966ba-8a68-4b2a-8953-edadab0e4624"},"vehicle_type_id":"4","last_reported":1738444093,"current_range_meters":26000,"station_id":"ce4bh392rcd13ifvqdm0","pricing_plan_id":"cebpf4jnsgd1na2vs0mg"},{"bike_id":"f38a9b51-7bc8-4445-89b3-2095fb6b771f","system_id":"levelo_inurba_marseille","lat":43.28676,"lon":5.37393,"is_reserved":false,"is_disabled":true,"rental_uris":{"android":"levelo://app?vid=f38a9b51-7bc8-4445-89b3-2095fb6b771f","ios":"levelo://app?vid=f38a9b51-7bc8-4445-89b3-2095fb6b771f"},"vehicle_type_id":"4","last_reported":1738444093,"current_range_meters":26800,"station_id":"ce4bh3p2rcd13ifvqdq0","pricing_plan_id":"cebpf4jnsgd1na2vs0mg"},{"bike_id":"bfeb49c1-afef-491e-a3d3-723295bc34e0","system_id":"levelo_inurba_marseille","lat":43.30949,"lon":5.39045,"is_reserved":false,"is_disabled":false,"rental_uris":{"android":"levelo://app?vid=bfeb49c1-afef-491e-a3d3-723295bc34e0","ios":"levelo://app?vid=bfeb49c1-afef-491e-a3d3-723295bc34e0"},"vehicle_type_id":"4","last_reported":1738444093,"current_range_meters":37600,"station_id":"ce4bgup2rcd13ifvqco0","pricing_plan_id":"cebpf4jnsgd1na2vs0mg"},{"bike_id":"fe117411-d9ae-46ad-96d7-1d4828206f4a","system_id":"levelo_inurba_marseille","lat":43.259324,"lon":5.409126,"is_reserved":false,"is_disabled":false,"rental_uris":{"android":"levelo://app?vid=fe117411-d9ae-46ad-96d7-1d4828206f4a","ios":"levelo://app?vid=fe117411-d9ae-46ad-96d7-1d4828206f4a"},"vehicle_type_id":"4","last_reported":1738444093,"current_range_meters":38000,"station_id":"ce4bhm92rcd13ifvqglg","pricing_plan_id":"cebpf4jnsgd1na2vs0mg"},{"bike_id":"280a6fd2-e02b-4f1f-b76f-c469c57691c3","system_id":"levelo_inurba_marseille","lat":43.27998,"lon":5.40007,"is_reserved":false,"is_disabled":false,"rental_uris":{"android":"levelo://app?vid=280a6fd2-e02b-4f1f-b76f-c469c57691c3","ios":"levelo://app?vid=280a6fd2-e02b-4f1f-b76f-c469c57691c3"},"vehicle_type_id":"4","last_reported":1738444093,"current_range_meters":35600,"station_id":"ce4bho92rcd13ifvqh4g","pricing_plan_id":"cebpf4jnsgd1na2vs0mg"},{"bike_id":"6093a2ba-2478-487d-b318-6355bf4c137c","system_id":"levelo_inurba_marseille","lat":43.28501,"lon":5.38565,"is_reserved":false,"is_disabled":false,"rental_uris":{"android":"levelo://app?vid=6093a2ba-2478-487d-b318-6355bf4c137c","ios":"levelo://app?vid=6093a2ba-2478-487d-b318-6355bf4c137c"},"vehicle_type_id":"4","last_reported":1738444093,"current_range_meters":28400,"station_id":"ce4bh8p2rcd13ifvqeb0","pricing_plan_id":"cebpf4jnsgd1na2vs0mg"},{"bike_id":"6725a974-636a-4cad-bf4d-273395199ad4","system_id":"levelo_inurba_marseille","lat":43.33762,"lon":5.39198,"is_reserved":false,"is_disabled":false,"rental_uris":{"android":"levelo://app?vid=6725a974-636a-4cad-bf4d-273395199ad4","ios":"levelo://app?vid=6725a974-636a-4cad-bf4d-273395199ad4"},"vehicle_type_id":"4","last_reported":1738444093,"current_range_meters":16400,"station_id":"","pricing_plan_id":"cebpf4jnsgd1na2vs0mg"},{"bike_id":"dd71fa81-3d5d-4ec8-822a-2e568fe5f14f","system_id":"levelo_inurba_marseille","lat":43.2842,"lon":5.3498,"is_reserved":false,"is_disabled":false,"rental_uris":{"android":"levelo://app?vid=dd71fa81-3d5d-4ec8-822a-2e568fe5f14f","ios":"levelo://app?vid=dd71fa81-3d5d-4ec8-822a-2e568fe5f14f"},"vehicle_type_id":"4","last_reported":1738444093,"current_range_meters":13600,"station_id":"ce4bhbh2rcd13ifvqepg","pricing_plan_id":"cebpf4jnsgd1na2vs0mg"},{"bike_id":"7a3ee36d-dff6-4fc1-9633-547c3474f6a7","system_id":"levelo_inurba_marseille","lat":43.31265,"lon":5.40172,"is_reserved":false,"is_disabled":false,"rental_uris":{"android":"levelo://app?vid=7a3ee36d-dff6-4fc1-9633-547c3474f6a7","ios":"levelo://app?vid=7a3ee36d-dff6-4fc1-9633-547c3474f6a7"},"vehicle_type_id":"4","last_reported":1738444093,"current_range_meters":28800,"station_id":"ce4bh092rcd13ifvqd30","pricing_plan_id":"cebpf4jnsgd1na2vs0mg"},{"bike_id":"bc3fbcf7-d8da-43e2-afbf-4afdef2c1b18","system_id":"levelo_inurba_marseille","lat":43.29617,"lon":5.37733,"is_reserved":false,"is_disabled":false,"rental_uris":{"android":"levelo://app?vid=bc3fbcf7-d8da-43e2-afbf-4afdef2c1b18","ios":"levelo://app?vid=bc3fbcf7-d8da-43e2-afbf-4afdef2c1b18"},"vehicle_type_id":"4","last_reported":1738444093,"current_range_meters":36000,"station_id":"ce4bgi92rcd13ifvqb90","pricing_plan_id":"cebpf4jnsgd1na2vs0mg"},{"bike_id":"d3ff5d8c-fd88-4994-bcda-87c9642c2698","system_id":"levelo_inurba_marseille","lat":43.295827,"lon":5.367363,"is_reserved":false,"is_disabled":false,"rental_uris":{"android":"levelo://app?vid=d3ff5d8c-fd88-4994-bcda-87c9642c2698","ios":"levelo://app?vid=d3ff5d8c-fd88-4994-bcda-87c9642c2698"},"vehicle_type_id":"4","last_reported":1738444093,"current_range_meters":33200,"station_id":"ce4bgph2rcd13ifvqc2g","pricing_plan_id":"cebpf4jnsgd1na2vs0mg"},{"bike_id":"51a03f0d-c20f-450e-b872-df16b1b20a77","system_id":"levelo_inurba_marseille","lat":43.29423,"lon":5.38629,"is_reserved":false,"is_disabled":false,"rental_uris":{"android":"levelo://app?vid=51a03f0d-c20f-450e-b872-df16b1b20a77","ios":"levelo://app?vid=51a03f0d-c20f-450e-b872-df16b1b20a77"},"vehicle_type_id":"4","last_reported":1738444093,"current_range_meters":6400,"station_id":"ce4bh2h2rcd13ifvqdh0","pricing_plan_id":"cebpf4jnsgd1na2vs0mg"},{"bike_id":"8747196a-7850-4580-80a7-49ca68544a5e","system_id":"levelo_inurba_marseille","lat":43.255,"lon":5.37645,"is_reserved":false,"is_disabled":false,"rental_uris":{"android":"levelo://app?vid=8747196a-7850-4580-80a7-49ca68544a5e","ios":"levelo://app?vid=8747196a-7850-4580-80a7-49ca68544a5e"},"vehicle_type_id":"4","last_reported":1738444093,"current_range_meters":30000,"station_id":"ce4bhh12rcd13ifvqff0","pricing_plan_id":"cebpf4jnsgd1na2vs0mg"},{"bike_id":"38156b20-5ac3-4f5c-b564-8b8cdab00b53","system_id":"levelo_inurba_marseille","lat":43.29945,"lon":5.37489,"is_reserved":false,"is_disabled":false,"rental_uris":{"android":"levelo://app?vid=38156b20-5ac3-4f5c-b564-8b8cdab00b53","ios":"levelo://app?vid=38156b20-5ac3-4f5c-b564-8b8cdab00b53"},"vehicle_type_id":"4","last_reported":1738444093,"current_range_meters":27600,"station_id":"ce4bgjh2rcd13ifvqbg0","pricing_plan_id":"cebpf4jnsgd1na2vs0mg"},{"bike_id":"8651c991-e6d5-43cc-89da-f8dbd0649662","system_id":"levelo_inurba_marseille","lat":43.29019,"lon":5.37535,"is_reserved":false,"is_disabled":false,"rental_uris":{"android":"levelo://app?vid=8651c991-e6d5-43cc-89da-f8dbd0649662","ios":"levelo://app?vid=8651c991-e6d5-43cc-89da-f8dbd0649662"},"vehicle_type_id":"4","last_reported":1738444093,"current_range_meters":38000,"station_id":"ce4bh692rcd13ifvqe90","pricing_plan_id":"cebpf4jnsgd1na2vs0mg"},{"bike_id":"c76751bc-1d6a-4469-afc6-d5344e0cea6a","system_id":"levelo_inurba_marseille","lat":43.27425,"lon":5.39416,"is_reserved":false,"is_disabled":false,"rental_uris":{"android":"levelo://app?vid=c76751bc-1d6a-4469-afc6-d5344e0cea6a","ios":"levelo://app?vid=c76751bc-1d6a-4469-afc6-d5344e0cea6a"},"vehicle_type_id":"4","last_reported":1738444093,"current_range_meters":38000,"station_id":"ce4bhdp2rcd13ifvqf20","pricing_plan_id":"cebpf4jnsgd1na2vs0mg"},{"bike_id":"e61ab79e-1af1-4809-b1d6-f5e83250bddb","system_id":"levelo_inurba_marseille","lat":43.25084,"lon":5.39508,"is_reserved":false,"is_disabled":false,"rental_uris":{"android":"levelo://app?vid=e61ab79e-1af1-4809-b1d6-f5e83250bddb","ios":"levelo://app?vid=e61ab79e-1af1-4809-b1d6-f5e83250bddb"},"vehicle_type_id":"4","last_reported":1738444093,"current_range_meters":39200,"station_id":"ce4bhm12rcd13ifvqgkg","pricing_plan_id":"cebpf4jnsgd1na2vs0mg"},{"bike_id":"1f4e4183-ba38-4674-b19d-0c758736fe8e","system_id":"levelo_inurba_marseille","lat":43.25077,"lon":5.39524,"is_reserved":false,"is_disabled":false,"rental_uris":{"android":"levelo://app?vid=1f4e4183-ba38-4674-b19d-0c758736fe8e","ios":"levelo://app?vid=1f4e4183-ba38-4674-b19d-0c758736fe8e"},"vehicle_type_id":"4","last_reported":1738444093,"current_range_meters":27600,"station_id":"ce4bhm12rcd13ifvqgkg","pricing_plan_id":"cebpf4jnsgd1na2vs0mg"},{"bike_id":"c890785b-a449-4d52-91fc-f5f1b26df012","system_id":"levelo_inurba_marseille","lat":43.25864,"lon":5.39899,"is_reserved":false,"is_disabled":false,"rental_uris":{"android":"levelo://app?vid=c890785b-a449-4d52-91fc-f5f1b26df012","ios":"levelo://app?vid=c890785b-a449-4d52-91fc-f5f1b26df012"},"vehicle_type_id":"4","last_reported":1738444093,"current_range_meters":18000,"station_id":"ce4bhl92rcd13ifvqghg","pricing_plan_id":"cebpf4jnsgd1na2vs0mg"},{"bike_id":"9bf21a81-04d3-463d-a3a8-28fcef1cc5f8","system_id":"levelo_inurba_marseille","lat":43.33023,"lon":5.39055,"is_reserved":false,"is_disabled":false,"rental_uris":{"android":"levelo://app?vid=9bf21a81-04d3-463d-a3a8-28fcef1cc5f8","ios":"levelo://app?vid=9bf21a81-04d3-463d-a3a8-28fcef1cc5f8"},"vehicle_type_id":"4","last_reported":1738444093,"current_range_meters":38800,"station_id":"ce4bhr92rcd13ifvqhrg","pricing_plan_id":"cebpf4jnsgd1na2vs0mg"},{"bike_id":"91cc7914-c063-4858-8e19-21118bfd99a8","system_id":"levelo_inurba_marseille","lat":43.2937,"lon":5.37827,"is_reserved":false,"is_disabled":false,"rental_uris":{"android":"levelo://app?vid=91cc7914-c063-4858-8e19-21118bfd99a8","ios":"levelo://app?vid=91cc7914-c063-4858-8e19-21118bfd99a8"},"vehicle_type_id":"4","last_reported":1738444093,"current_range_meters":36400,"station_id":"ce4bgjh2rcd13ifvqbf0","pricing_plan_id":"cebpf4jnsgd1na2vs0mg"},{"bike_id":"56d6b97f-30a2-4c2a-8be6-a12a9fc19507","system_id":"levelo_inurba_marseille","lat":43.31755,"lon":5.3902,"is_reserved":false,"is_disabled":false,"rental_uris":{"android":"levelo://app?vid=56d6b97f-30a2-4c2a-8be6-a12a9fc19507","ios":"levelo://app?vid=56d6b97f-30a2-4c2a-8be6-a12a9fc19507"},"vehicle_type_id":"4","last_reported":1738444093,"current_range_meters":8800,"station_id":"ce4bhqp2rcd13ifvqhng","pricing_plan_id":"cebpf4jnsgd1na2vs0mg"},{"bike_id":"a895efa9-50aa-435c-91d1-c119eaf59a54","system_id":"levelo_inurba_marseille","lat":43.26489,"lon":5.39568,"is_reserved":false,"is_disabled":false,"rental_uris":{"android":"levelo://app?vid=a895efa9-50aa-435c-91d1-c119eaf59a54","ios":"levelo://app?vid=a895efa9-50aa-435c-91d1-c119eaf59a54"},"vehicle_type_id":"4","last_reported":1738444093,"current_range_meters":34800,"station_id":"ce4bhi12rcd13ifvqfq0","pricing_plan_id":"cebpf4jnsgd1na2vs0mg"},{"bike_id":"32e8657c-7e52-4c6f-9cc3-fa9c15f63333","system_id":"levelo_inurba_marseille","lat":43.30098,"lon":5.39075,"is_reserved":false,"is_disabled":false,"rental_uris":{"android":"levelo://app?vid=32e8657c-7e52-4c6f-9cc3-fa9c15f63333","ios":"levelo://app?vid=32e8657c-7e52-4c6f-9cc3-fa9c15f63333"},"vehicle_type_id":"4","last_reported":1738444093,"current_range_meters":15200,"station_id":"ce4bh192rcd13ifvqdb0","pricing_plan_id":"cebpf4jnsgd1na2vs0mg"},{"bike_id":"8e104399-aef2-4f9b-ac7b-a192d80911fa","system_id":"levelo_inurba_marseille","lat":43.2653,"lon":5.39124,"is_reserved":false,"is_disabled":false,"rental_uris":{"android":"levelo://app?vid=8e104399-aef2-4f9b-ac7b-a192d80911fa","ios":"levelo://app?vid=8e104399-aef2-4f9b-ac7b-a192d80911fa"},"vehicle_type_id":"4","last_reported":1738444093,"current_range_meters":38800,"station_id":"ce4bhe12rcd13ifvqf30","pricing_plan_id":"cebpf4jnsgd1na2vs0mg"},{"bike_id":"7e3fb6d9-ccd4-42a0-ad5f-bbecad48c859","system_id":"levelo_inurba_marseille","lat":43.31329,"lon":5.36725,"is_reserved":false,"is_disabled":false,"rental_uris":{"android":"levelo://app?vid=7e3fb6d9-ccd4-42a0-ad5f-bbecad48c859","ios":"levelo://app?vid=7e3fb6d9-ccd4-42a0-ad5f-bbecad48c859"},"vehicle_type_id":"4","last_reported":1738444093,"current_range_meters":30400,"station_id":"ce4bgr92rcd13ifvqc6g","pricing_plan_id":"cebpf4jnsgd1na2vs0mg"},{"bike_id":"d8ed3149-1b3d-468c-b65c-32b89925f608","system_id":"levelo_inurba_marseille","lat":43.3302,"lon":5.41295,"is_reserved":false,"is_disabled":false,"rental_uris":{"android":"levelo://app?vid=d8ed3149-1b3d-468c-b65c-32b89925f608","ios":"levelo://app?vid=d8ed3149-1b3d-468c-b65c-32b89925f608"},"vehicle_type_id":"4","last_reported":1738444093,"current_range_meters":8800,"station_id":"","pricing_plan_id":"cebpf4jnsgd1na2vs0mg"},{"bike_id":"dd726779-5800-4957-b987-a80b76d90d6f","system_id":"levelo_inurba_marseille","lat":43.30813,"lon":5.38144,"is_reserved":false,"is_disabled":false,"rental_uris":{"android":"levelo://app?vid=dd726779-5800-4957-b987-a80b76d90d6f","ios":"levelo://app?vid=dd726779-5800-4957-b987-a80b76d90d6f"},"vehicle_type_id":"4","last_reported":1738444093,"current_range_meters":36800,"station_id":"ce4bgt12rcd13ifvqce0","pricing_plan_id":"cebpf4jnsgd1na2vs0mg"},{"bike_id":"7a163fc0-07aa-41da-86bd-3a408e536729","system_id":"levelo_inurba_marseille","lat":43.30526,"lon":5.36523,"is_reserved":false,"is_disabled":false,"rental_uris":{"android":"levelo://app?vid=7a163fc0-07aa-41da-86bd-3a408e536729","ios":"levelo://app?vid=7a163fc0-07aa-41da-86bd-3a408e536729"},"vehicle_type_id":"4","last_reported":1738444093,"current_range_meters":24000,"station_id":"","pricing_plan_id":"cebpf4jnsgd1na2vs0mg"},{"bike_id":"51e98b31-1659-413c-a2fd-ad1f5f5b25a8","system_id":"levelo_inurba_marseille","lat":43.31013,"lon":5.36691,"is_reserved":false,"is_disabled":false,"rental_uris":{"android":"levelo://app?vid=51e98b31-1659-413c-a2fd-ad1f5f5b25a8","ios":"levelo://app?vid=51e98b31-1659-413c-a2fd-ad1f5f5b25a8"},"vehicle_type_id":"4","last_reported":1738444093,"current_range_meters":35600,"station_id":"","pricing_plan_id":"cebpf4jnsgd1na2vs0mg"},{"bike_id":"df24545b-590b-418c-9ab9-9f9ec88b5ad8","system_id":"levelo_inurba_marseille","lat":43.27562,"lon":5.38391,"is_reserved":false,"is_disabled":false,"rental_uris":{"android":"levelo://app?vid=df24545b-590b-418c-9ab9-9f9ec88b5ad8","ios":"levelo://app?vid=df24545b-590b-418c-9ab9-9f9ec88b5ad8"},"vehicle_type_id":"4","last_reported":1738444093,"current_range_meters":39200,"station_id":"ce4bhh92rcd13ifvqfi0","pricing_plan_id":"cebpf4jnsgd1na2vs0mg"},{"bike_id":"bfc62d32-6530-4095-9e14-8e2530dc280f","system_id":"levelo_inurba_marseille","lat":43.25871,"lon":5.39907,"is_reserved":false,"is_disabled":false,"rental_uris":{"android":"levelo://app?vid=bfc62d32-6530-4095-9e14-8e2530dc280f","ios":"levelo://app?vid=bfc62d32-6530-4095-9e14-8e2530dc280f"},"vehicle_type_id":"4","last_reported":1738444093,"current_range_meters":38000,"station_id":"ce4bhl92rcd13ifvqghg","pricing_plan_id":"cebpf4jnsgd1na2vs0mg"},{"bike_id":"1dea0d1d-b5f5-454c-bafa-5ed21154abef","system_id":"levelo_inurba_marseille","lat":43.29719,"lon":5.37694,"is_reserved":false,"is_disabled":false,"rental_uris":{"android":"levelo://app?vid=1dea0d1d-b5f5-454c-bafa-5ed21154abef","ios":"levelo://app?vid=1dea0d1d-b5f5-454c-bafa-5ed21154abef"},"vehicle_type_id":"4","last_reported":1738444093,"current_range_meters":38800,"station_id":"ce4bgkh2rcd13ifvqbl0","pricing_plan_id":"cebpf4jnsgd1na2vs0mg"},{"bike_id":"288f11d2-9720-48bf-b8a1-662748557abc","system_id":"levelo_inurba_marseille","lat":43.29815,"lon":5.38128,"is_reserved":false,"is_disabled":false,"rental_uris":{"android":"levelo://app?vid=288f11d2-9720-48bf-b8a1-662748557abc","ios":"levelo://app?vid=288f11d2-9720-48bf-b8a1-662748557abc"},"vehicle_type_id":"4","last_reported":1738444093,"current_range_meters":36000,"station_id":"ce4bgip2rcd13ifvqbb0","pricing_plan_id":"cebpf4jnsgd1na2vs0mg"},{"bike_id":"c8902182-a8b7-42f9-8e2b-fc0543656163","system_id":"levelo_inurba_marseille","lat":43.25007,"lon":5.38904,"is_reserved":false,"is_disabled":false,"rental_uris":{"android":"levelo://app?vid=c8902182-a8b7-42f9-8e2b-fc0543656163","ios":"levelo://app?vid=c8902182-a8b7-42f9-8e2b-fc0543656163"},"vehicle_type_id":"4","last_reported":1738444093,"current_range_meters":38800,"station_id":"ce4bhgp2rcd13ifvqfd0","pricing_plan_id":"cebpf4jnsgd1na2vs0mg"},{"bike_id":"db58267b-3f68-4308-b6ef-c4abc7d82191","system_id":"levelo_inurba_marseille","lat":43.29046,"lon":5.35911,"is_reserved":false,"is_disabled":false,"rental_uris":{"android":"levelo://app?vid=db58267b-3f68-4308-b6ef-c4abc7d82191","ios":"levelo://app?vid=db58267b-3f68-4308-b6ef-c4abc7d82191"},"vehicle_type_id":"4","last_reported":1738444093,"current_range_meters":17600,"station_id":"ce4bha92rcd13ifvqeg0","pricing_plan_id":"cebpf4jnsgd1na2vs0mg"},{"bike_id":"32d9a329-7366-4eb8-8d55-73b5c99c70c3","system_id":"levelo_inurba_marseille","lat":43.23198,"lon":5.35542,"is_reserved":false,"is_disabled":false,"rental_uris":{"android":"levelo://app?vid=32d9a329-7366-4eb8-8d55-73b5c99c70c3","ios":"levelo://app?vid=32d9a329-7366-4eb8-8d55-73b5c99c70c3"},"vehicle_type_id":"4","last_reported":1738444093,"current_range_meters":38800,"station_id":"ce4bhu92rcd13ifvqi70","pricing_plan_id":"cebpf4jnsgd1na2vs0mg"},{"bike_id":"84e02a3d-3f7f-46b1-b7f1-97431a8c6cee","system_id":"levelo_inurba_marseille","lat":43.248,"lon":5.37455,"is_reserved":false,"is_disabled":true,"rental_uris":{"android":"levelo://app?vid=84e02a3d-3f7f-46b1-b7f1-97431a8c6cee","ios":"levelo://app?vid=84e02a3d-3f7f-46b1-b7f1-97431a8c6cee"},"vehicle_type_id":"4","last_reported":1738444093,"current_range_meters":20400,"station_id":"ce4bhgh2rcd13ifvqfb0","pricing_plan_id":"cebpf4jnsgd1na2vs0mg"},{"bike_id":"0a2fd205-d616-4064-aa75-d4d529957d90","system_id":"levelo_inurba_marseille","lat":43.23085,"lon":5.35474,"is_reserved":false,"is_disabled":false,"rental_uris":{"android":"levelo://app?vid=0a2fd205-d616-4064-aa75-d4d529957d90","ios":"levelo://app?vid=0a2fd205-d616-4064-aa75-d4d529957d90"},"vehicle_type_id":"4","last_reported":1738444093,"current_range_meters":14800,"station_id":"cpo3342slgdg3j2ifvpg","pricing_plan_id":"cebpf4jnsgd1na2vs0mg"},{"bike_id":"c3dee544-46d4-49bf-88de-13b700ea9961","system_id":"levelo_inurba_marseille","lat":43.29185,"lon":5.37163,"is_reserved":false,"is_disabled":false,"rental_uris":{"android":"levelo://app?vid=c3dee544-46d4-49bf-88de-13b700ea9961","ios":"levelo://app?vid=c3dee544-46d4-49bf-88de-13b700ea9961"},"vehicle_type_id":"4","last_reported":1738444093,"current_range_meters":38800,"station_id":"ce4bha92rcd13ifvqeh0","pricing_plan_id":"cebpf4jnsgd1na2vs0mg"},