{"last_updated":1714071996,"ttl":30,"version":"2.2","data":{"bikes":[{"bike_id":"c289cad0-9ba4-4708-9e84-84bf16d65a5f","system_id":"levelo_inurba_marseille","lat":43.312239,"lon":5.368562,"is_reserved":false,"is_disabled":false,"rental_uris":{"android":"levelo://app?vid=c289cad0-9ba4-4708-9e84-84bf16d65a5f","ios":"levelo://app?vid=c289cad0-9ba4-4708-9e84-84bf16d65a5f"},"vehicle_type_id":"4","last_reported":1714071996,"current_range_meters":14000,"station_id":"ce4bgl92rcd13ifvqbq0","pricing_plan_id":"cebpf4jnsgd1na2vs0mg"},{"bike_id":"1a872476-553d-4fcc-ac5a-b67bc9a4c898","system_id":"levelo_inurba_marseille","lat":43.312239,"lon":5.368562,"is_reserved":false,"is_disabled":false,"rental_uris":{"android":"levelo://app?vid=1a872476-553d-4fcc-ac5a-b67bc9a4c898","ios":"levelo://app?vid=1a872476-553d-4fcc-ac5a-b67bc9a4c898"},"vehicle_type_id":"4","last_reported":1714071996,"current_range_meters":10000,"station_id":"ce4bgl92rcd13ifvqbq0","pricing_plan_id":"cebpf4jnsgd1na2vs0mg"},{"bike_id":"bfe04d9a-7390-495a-bac4-4ec94aa03129","system_id":"levelo_inurba_marseille","lat":43.31224,"lon":5.36856,"is_reserved":false,"is_disabled":false,"rental_uris":{"android":"levelo://app?vid=bfe04d9a-7390-495a-bac4-4ec94aa03129","ios":"levelo://app?vid=bfe04d9a-7390-495a-bac4-4ec94aa03129"},"vehicle_type_id":"4","last_reported":1714071996,"current_range_meters":0,"station_id":"ce4bgl92rcd13ifvqbq0","pricing_plan_id":"cebpf4jnsgd1na2vs0mg"},{"bike_id":"b6aecdf6-0e46-41c7-b1ea-de108a69d816","system_id":"levelo_inurba_marseille","lat":43.312239,"lon":5.368562,"is_reserved":false,"is_disabled":false,"rental_uris":{"android":"levelo://app?vid=b6aecdf6-0e46-41c7-b1ea-de108a69d816","ios":"levelo://app?vid=b6aecdf6-0e46-41c7-b1ea-de108a69d816"},"vehicle_type_id":"4","last_reported":1714071996,"current_range_meters":12800,"station_id":"ce4bgl92rcd13ifvqbq0","pricing_plan_id":"cebpf4jnsgd1na2vs0mg"},{"bike_id":"89d5e278-9609-4e6c-946a-97ea946849af","system_id":"levelo_inurba_marseille","lat":43.3123,"lon":5.3687,"is_reserved":false,"is_disabled":false,"rental_uris":{"android":"levelo://app?vid=89d5e278-9609-4e6c-946a-97ea946849af","ios":"levelo://app?vid=89d5e278-9609-4e6c-946a-97ea946849af"},"vehicle_type_id":"4","last_reported":1714071996,"current_range_meters":0,"station_id":"ce4bgl92rcd13ifvqbq0","pricing_plan_id":"cebpf4jnsgd1na2vs0mg"},{"bike_id":"0419197f-dc17-4598-bbff-862ca06e361d","system_id":"levelo_inurba_marseille","lat":43.312239,"lon":5.368562,"is_reserved":false,"is_disabled":false,"rental_uris":{"android":"levelo://app?vid=0419197f-dc17-4598-bbff-862ca06e361d","ios":"levelo://app?vid=0419197f-dc17-4598-bbff-862ca06e361d"},"vehicle_type_id":"4","last_reported":1714071996,"current_range_meters":24800,"station_id":"ce4bgl92rcd13ifvqbq0","pricing_plan_id":"cebpf4jnsgd1na2vs0mg"},{"bike_id":"a688304b-117c-41af-9d8a-66b81ef8c5a7","system_id":"levelo_inurba_marseille","lat":43.312239,"lon":5.368562,"is_reserved":false,"is_disabled":false,"rental_uris":{"android":"levelo://app?vid=a688304b-117c-41af-9d8a-66b81ef8c5a7","ios":"levelo://app?vid=a688304b-117c-41af-9d8a-66b81ef8c5a7"},"vehicle_type_id":"4","last_reported":1714071996,"current_range_meters":28800,"station_id":"ce4bgl92rcd13ifvqbq0","pricing_plan_id":"cebpf4jnsgd1na2vs0mg"},{"bike_id":"7533f2f2-156e-488b-9ae6-279d60e3f5e2","system_id":"levelo_inurba_marseille","lat":43.309076,"lon":5.368465,"is_reserved":false,"is_disabled":false,"rental_uris":{"android":"levelo://app?vid=7533f2f2-156e-488b-9ae6-279d60e3f5e2","ios":"levelo://app?vid=7533f2f2-156e-488b-9ae6-279d60e3f5e2"},"vehicle_type_id":"4","last_reported":1714071996,"current_range_meters":21600,"station_id":"ce4bgn92rcd13ifvqbvg","pricing_plan_id":"cebpf4jnsgd1na2vs0mg"},{"bike_id":"4cee523d-3892-4c32-a543-70eeaa819d19","system_id":"levelo_inurba_marseille","lat":43.314844,"lon":5.372997,"is_reserved":false,"is_disabled":false,"rental_uris":{"android":"levelo://app?vid=4cee523d-3892-4c32-a543-70eeaa819d19","ios":"levelo://app?vid=4cee523d-3892-4c32-a543-70eeaa819d19"},"vehicle_type_id":"4","last_reported":1714071996,"current_range_meters":0,"station_id":"ce4bgt12rcd13ifvqcd0","pricing_plan_id":"cebpf4jnsgd1na2vs0mg"},{"bike_id":"cfba13a7-fb3b-447d-9f46-3fc22d825b13","system_id":"levelo_inurba_marseille","lat":43.314811,"lon":5.373103,"is_reserved":false,"is_disabled":false,"rental_uris":{"android":"levelo://app?vid=cfba13a7-fb3b-447d-9f46-3fc22d825b13","ios":"levelo://app?vid=cfba13a7-fb3b-447d-9f46-3fc22d825b13"},"vehicle_type_id":"4","last_reported":1714071996,"current_range_meters":24000,"station_id":"ce4bgt12rcd13ifvqcd0","pricing_plan_id":"cebpf4jnsgd1na2vs0mg"},{"bike_id":"4cfd3343-c86c-457d-b5e1-68be2d4bbfac","system_id":"levelo_inurba_marseille","lat":43.314811,"lon":5.373103,"is_reserved":false,"is_disabled":false,"rental_uris":{"android":"levelo://app?vid=4cfd3343-c86c-457d-b5e1-68be2d4bbfac","ios":"levelo://app?vid=4cfd3343-c86c-457d-b5e1-68be2d4bbfac"},"vehicle_type_id":"4","last_reported":1714071996,"current_range_meters":2400,"station_id":"ce4bgt12rcd13ifvqcd0","pricing_plan_id":"cebpf4jnsgd1na2vs0mg"},{"bike_id":"c12d1915-3b58-4e26-ae24-8ea1f867b411","system_id":"levelo_inurba_marseille","lat":43.314811,"lon":5.373103,"is_reserved":false,"is_disabled":false,"rental_uris":{"android":"levelo://app?vid=c12d1915-3b58-4e26-ae24-8ea1f867b411","ios":"levelo://app?vid=c12d1915-3b58-4e26-ae24-8ea1f867b411"},"vehicle_type_id":"4","last_reported":1714071996,"current_range_meters":3200,"station_id":"ce4bgt12rcd13ifvqcd0","pricing_plan_id":"cebpf4jnsgd1na2vs0mg"},{"bike_id":"2d5ca1d9-afe8-4103-bc71-0e2c97b365cb","system_id":"levelo_inurba_marseille","lat":43.314811,"lon":5.373103,"is_reserved":false,"is_disabled":false,"rental_uris":{"android":"levelo://app?vid=2d5ca1d9-afe8-4103-bc71-0e2c97b365cb","ios":"levelo://app?vid=2d5ca1d9-afe8-4103-bc71-0e2c97b365cb"},"vehicle_type_id":"4","last_reported":1714071996,"current_range_meters":5200,"station_id":"ce4bgt12rcd13ifvqcd0","pricing_plan_id":"cebpf4jnsgd1na2vs0mg"},{"bike_id":"89bbde7a-f7a8-4fe6-af20-efbf8ad7352a","system_id":"levelo_inurba_marseille","lat":43.314811,"lon":5.373103,"is_reserved":false,"is_disabled":false,"rental_uris":{"android":"levelo://app?vid=89bbde7a-f7a8-4fe6-af20-efbf8ad7352a","ios":"levelo://app?vid=89bbde7a-f7a8-4fe6-af20-efbf8ad7352a"},"vehicle_type_id":"4","last_reported":1714071996,"current_range_meters":13200,"station_id":"ce4bgt12rcd13ifvqcd0","pricing_plan_id":"cebpf4jnsgd1na2vs0mg"},{"bike_id":"fb88706c-7cd4-41be-b4ca-e7deb61f0015","system_id":"levelo_inurba_marseille","lat":43.314811,"lon":5.373103,"is_reserved":false,"is_disabled":false,"rental_uris":{"android":"levelo://app?vid=fb88706c-7cd4-41be-b4ca-e7deb61f0015","ios":"levelo://app?vid=fb88706c-7cd4-41be-b4ca-e7deb61f0015"},"vehicle_type_id":"4","last_reported":1714071996,"current_range_meters":9600,"station_id":"ce4bgt12rcd13ifvqcd0","pricing_plan_id":"cebpf4jnsgd1na2vs0mg"},{"bike_id":"87d444d8-8c8d-46ef-99f2-2d13542235b3","system_id":"levelo_inurba_marseille","lat":43.314811,"lon":5.373103,"is_reserved":false,"is_disabled":false,"rental_uris":{"android":"levelo://app?vid=87d444d8-8c8d-46ef-99f2-2d13542235b3","ios":"levelo://app?vid=87d444d8-8c8d-46ef-99f2-2d13542235b3"},"vehicle_type_id":"4","last_reported":1714071996,"current_range_meters":16000,"station_id":"ce4bgt12rcd13ifvqcd0","pricing_plan_id":"cebpf4jnsgd1na2vs0mg"},{"bike_id":"4f8b156e-d840-4c98-ba5e-5823f7ff1365","system_id":"levelo_inurba_marseille","lat":43.313571,"lon":5.384829,"is_reserved":false,"is_disabled":false,"rental_uris":{"android":"levelo://app?vid=4f8b156e-d840-4c98-ba5e-5823f7ff1365","ios":"levelo://app?vid=4f8b156e-d840-4c98-ba5e-5823f7ff1365"},"vehicle_type_id":"4","last_reported":1714071996,"current_range_meters":800,"station_id":"ce4bgt92rcd13ifvqcf0","pricing_plan_id":"cebpf4jnsgd1na2vs0mg"},{"bike_id":"f52c225b-5149-4fb2-9059-ce6ff681d98d","system_id":"levelo_inurba_marseille","lat":43.314811,"lon":5.373103,"is_reserved":false,"is_disabled":false,"rental_uris":{"android":"levelo://app?vid=f52c225b-5149-4fb2-9059-ce6ff681d98d","ios":"levelo://app?vid=f52c225b-5149-4fb2-9059-ce6ff681d98d"},"vehicle_type_id":"4","last_reported":1714071996,"current_range_meters":12000,"station_id":"ce4bgt12rcd13ifvqcd0","pricing_plan_id":"cebpf4jnsgd1na2vs0mg"},{"bike_id":"4b2b05c4-f5cd-46ae-a965-f1f19afcebee","system_id":"levelo_inurba_marseille","lat":43.314811,"lon":5.373104,"is_reserved":false,"is_disabled":false,"rental_uris":{"android":"levelo://app?vid=4b2b05c4-f5cd-46ae-a965-f1f19afcebee","ios":"levelo://app?vid=4b2b05c4-f5cd-46ae-a965-f1f19afcebee"},"vehicle_type_id":"4","last_reported":1714071996,"current_range_meters":7200,"station_id":"ce4bgt12rcd13ifvqcd0","pricing_plan_id":"cebpf4jnsgd1na2vs0mg"},{"bike_id":"6483d9b0-4028-425b-99b1-7d926ab49a53","system_id":"levelo_inurba_marseille","lat":43.31508,"lon":5.37302,"is_reserved":false,"is_disabled":false,"rental_uris":{"android":"levelo://app?vid=6483d9b0-4028-425b-99b1-7d926ab49a53","ios":"levelo://app?vid=6483d9b0-4028-425b-99b1-7d926ab49a53"},"vehicle_type_id":"4","last_reported":1714071996,"current_range_meters":0,"station_id":"ce4bgt12rcd13ifvqcd0","pricing_plan_id":"cebpf4jnsgd1na2vs0mg"},{"bike_id":"a07ecad0-250b-4d3f-8137-9ef06730344a","system_id":"levelo_inurba_marseille","lat":43.314811,"lon":5.373104,"is_reserved":false,"is_disabled":false,"rental_uris":{"android":"levelo://app?vid=a07ecad0-250b-4d3f-8137-9ef06730344a","ios":"levelo://app?vid=a07ecad0-250b-4d3f-8137-9ef06730344a"},"vehicle_type_id":"4","last_reported":1714071996,"current_range_meters":13200,"station_id":"ce4bgt12rcd13ifvqcd0","pricing_plan_id":"cebpf4jnsgd1na2vs0mg"},{"bike_id":"d8cb0325-d5d5-4843-b2dd-ed36d3f7ef8f","system_id":"levelo_inurba_marseille","lat":43.309039,"lon":5.371797,"is_reserved":false,"is_disabled":false,"rental_uris":{"android":"levelo://app?vid=d8cb0325-d5d5-4843-b2dd-ed36d3f7ef8f","ios":"levelo://app?vid=d8cb0325-d5d5-4843-b2dd-ed36d3f7ef8f"},"vehicle_type_id":"4","last_reported":1714071996,"current_range_meters":29600,"station_id":"ce4bguh2rcd13ifvqckg","pricing_plan_id":"cebpf4jnsgd1na2vs0mg"},{"bike_id":"19cb6e2e-df35-4aeb-9552-45eb1c381056","system_id":"levelo_inurba_marseille","lat":43.309039,"lon":5.371797,"is_reserved":false,"is_disabled":false,"rental_uris":{"android":"levelo://app?vid=19cb6e2e-df35-4aeb-9552-45eb1c381056","ios":"levelo://app?vid=19cb6e2e-df35-4aeb-9552-45eb1c381056"},"vehicle_type_id":"4","last_reported":1714071996,"current_range_meters":27200,"station_id":"ce4bguh2rcd13ifvqckg","pricing_plan_id":"cebpf4jnsgd1na2vs0mg"},{"bike_id":"72e7e739-9f0b-4afc-b1a1-ef20873d243b","system_id":"levelo_inurba_marseille","lat":43.309039,"lon":5.371797,"is_reserved":false,"is_disabled":false,"rental_uris":{"android":"levelo://app?vid=72e7e739-9f0b-4afc-b1a1-ef20873d243b","ios":"levelo://app?vid=72e7e739-9f0b-4afc-b1a1-ef20873d243b"},"vehicle_type_id":"4","last_reported":1714071996,"current_range_meters":13600,"station_id":"ce4bguh2rcd13ifvqckg","pricing_plan_id":"cebpf4jnsgd1na2vs0mg"},{"bike_id":"0c1daa90-1eb2-4db1-b998-93222a1d6078","system_id":"levelo_inurba_marseille","lat":43.309034,"lon":5.371783,"is_reserved":false,"is_disabled":false,"rental_uris":{"android":"levelo://app?vid=0c1daa90-1eb2-4db1-b998-93222a1d6078","ios":"levelo://app?vid=0c1daa90-1eb2-4db1-b998-93222a1d6078"},"vehicle_type_id":"4","last_reported":1714071996,"current_range_meters":9600,"station_id":"ce4bguh2rcd13ifvqckg","pricing_plan_id":"cebpf4jnsgd1na2vs0mg"},{"bike_id":"0d5b4947-3a5b-40d3-870e-0f2bd702295f","system_id":"levelo_inurba_marseille","lat":43.309039,"lon":5.371797,"is_reserved":false,"is_disabled":false,"rental_uris":{"android":"levelo://app?vid=0d5b4947-3a5b-40d3-870e-0f2bd702295f","ios":"levelo://app?vid=0d5b4947-3a5b-40d3-870e-0f2bd702295f"},"vehicle_type_id":"4","last_reported":1714071996,"current_range_meters":14800,"station_id":"ce4bguh2rcd13ifvqckg","pricing_plan_id":"cebpf4jnsgd1na2vs0mg"},{"bike_id":"2b9c8760-8dd8-46da-9c1b-8ac1440c0ccc","system_id":"levelo_inurba_marseille","lat":43.305706,"lon":5.365654,"is_reserved":false,"is_disabled":false,"rental_uris":{"android":"levelo://app?vid=2b9c8760-8dd8-46da-9c1b-8ac1440c0ccc","ios":"levelo://app?vid=2b9c8760-8dd8-46da-9c1b-8ac1440c0ccc"},"vehicle_type_id":"4","last_reported":1714071996,"current_range_meters":16400,"station_id":"ce4bgs12rcd13ifvqcag","pricing_plan_id":"cebpf4jnsgd1na2vs0mg"},{"bike_id":"273ec9fb-e5a6-47bc-ab8d-99fd227a4ef3","system_id":"levelo_inurba_marseille","lat":43.30548,"lon":5.36537,"is_reserved":false,"is_disabled":false,"rental_uris":{"android":"levelo://app?vid=273ec9fb-e5a6-47bc-ab8d-99fd227a4ef3","ios":"levelo://app?vid=273ec9fb-e5a6-47bc-ab8d-99fd227a4ef3"},"vehicle_type_id":"4","last_reported":1714071996,"current_range_meters":0,"station_id":"ce4bgs12rcd13ifvqcag","pricing_plan_id":"cebpf4jnsgd1na2vs0mg"},{"bike_id":"bdbb002d-4887-40d7-8a35-41ff3668af77","system_id":"levelo_inurba_marseille","lat":43.30541,"lon":5.36554,"is_reserved":false,"is_disabled":false,"rental_uris":{"android":"levelo://app?vid=bdbb002d-4887-40d7-8a35-41ff3668af77","ios":"levelo://app?vid=bdbb002d-4887-40d7-8a35-41ff3668af77"},"vehicle_type_id":"4","last_reported":1714071996,"current_range_meters":19200,"station_id":"ce4bgs12rcd13ifvqcag","pricing_plan_id":"cebpf4jnsgd1na2vs0mg"},{"bike_id":"6bddcd4c-beb1-492d-ac76-35d415dc8302","system_id":"levelo_inurba_marseille","lat":43.305989,"lon":5.37225,"is_reserved":false,"is_disabled":false,"rental_uris":{"android":"levelo://app?vid=6bddcd4c-beb1-492d-ac76-35d415dc8302","ios":"levelo://app?vid=6bddcd4c-beb1-492d-ac76-35d415dc8302"},"vehicle_type_id":"4","last_reported":1714071996,"current_range_meters":0,"station_id":"ce4bgqh2rcd13ifvqc4g","pricing_plan_id":"cebpf4jnsgd1na2vs0mg"},{"bike_id":"b4209dbb-7771-4a71-b2f2-8c9d5c0b0c49","system_id":"levelo_inurba_marseille","lat":43.311125,"lon":5.377624,"is_reserved":false,"is_disabled":false,"rental_uris":{"android":"levelo://app?vid=b4209dbb-7771-4a71-b2f2-8c9d5c0b0c49","ios":"levelo://app?vid=b4209dbb-7771-4a71-b2f2-8c9d5c0b0c49"},"vehicle_type_id":"4","last_reported":1714071996,"current_range_meters":4000,"station_id":"ce4bgt92rcd13ifvqcg0","pricing_plan_id":"cebpf4jnsgd1na2vs0mg"},{"bike_id":"421af625-d939-4e75-b31c-962a304c6bca","system_id":"levelo_inurba_marseille","lat":43.308,"lon":5.37635,"is_reserved":false,"is_disabled":false,"rental_uris":{"android":"levelo://app?vid=421af625-d939-4e75-b31c-962a304c6bca","ios":"levelo://app?vid=421af625-d939-4e75-b31c-962a304c6bca"},"vehicle_type_id":"4","last_reported":1714071996,"current_range_meters":10400,"station_id":"ce4bgv92rcd13ifvqcq0","pricing_plan_id":"cebpf4jnsgd1na2vs0mg"},{"bike_id":"6cd0dc63-c6a9-4b70-a679-66b549ca9d01","system_id":"levelo_inurba_marseille","lat":43.307945,"lon":5.376487,"is_reserved":false,"is_disabled":false,"rental_uris":{"android":"levelo://app?vid=6cd0dc63-c6a9-4b70-a679-66b549ca9d01","ios":"levelo://app?vid=6cd0dc63-c6a9-4b70-a679-66b549ca9d01"},"vehicle_type_id":"4","last_reported":1714071996,"current_range_meters":6400,"station_id":"ce4bgv92rcd13ifvqcq0","pricing_plan_id":"cebpf4jnsgd1na2vs0mg"},{"bike_id":"18382e17-6a6b-4a45-a3bc-0e5895473ddc","system_id":"levelo_inurba_marseille","lat":43.307945,"lon":5.376487,"is_reserved":false,"is_disabled":false,"rental_uris":{"android":"levelo://app?vid=18382e17-6a6b-4a45-a3bc-0e5895473ddc","ios":"levelo://app?vid=18382e17-6a6b-4a45-a3bc-0e5895473ddc"},"vehicle_type_id":"4","last_reported":1714071996,"current_range_meters":15200,"station_id":"ce4bgv92rcd13ifvqcq0","pricing_plan_id":"cebpf4jnsgd1na2vs0mg"},{"bike_id":"01c8efeb-4fb7-4f8f-a731-f28ede50a3f2","system_id":"levelo_inurba_marseille","lat":43.316983,"lon":5.377337,"is_reserved":false,"is_disabled":false,"rental_uris":{"android":"levelo://app?vid=01c8efeb-4fb7-4f8f-a731-f28ede50a3f2","ios":"levelo://app?vid=01c8efeb-4fb7-4f8f-a731-f28ede50a3f2"},"vehicle_type_id":"4","last_reported":1714071996,"current_range_meters":0,"station_id":"ce4bgth2rcd13ifvqch0","pricing_plan_id":"cebpf4jnsgd1na2vs0mg"},{"bike_id":"4384296e-0b0b-42c2-b297-d14615187f1e","system_id":"levelo_inurba_marseille","lat":43.317075,"lon":5.377367,"is_reserved":false,"is_disabled":false,"rental_uris":{"android":"levelo://app?vid=4384296e-0b0b-42c2-b297-d14615187f1e","ios":"levelo://app?vid=4384296e-0b0b-42c2-b297-d14615187f1e"},"vehicle_type_id":"4","last_reported":1714071996,"current_range_meters":16000,"station_id":"ce4bgth2rcd13ifvqch0","pricing_plan_id":"cebpf4jnsgd1na2vs0mg"},{"bike_id":"c37f48fc-3c3d-4b0c-bb4a-05e02fd57fb6","system_id":"levelo_inurba_marseille","lat":43.317075,"lon":5.377367,"is_reserved":false,"is_disabled":false,"rental_uris":{"android":"levelo://app?vid=c37f48fc-3c3d-4b0c-bb4a-05e02fd57fb6","ios":"levelo://app?vid=c37f48fc-3c3d-4b0c-bb4a-05e02fd57fb6"},"vehicle_type_id":"4","last_reported":1714071996,"current_range_meters":9200,"station_id":"ce4bgth2rcd13ifvqch0","pricing_plan_id":"cebpf4jnsgd1na2vs0mg"},{"bike_id":"68b19812-56b4-488e-98dc-73863d342630","system_id":"levelo_inurba_marseille","lat":43.303225,"lon":5.36917,"is_reserved":false,"is_disabled":false,"rental_uris":{"android":"levelo://app?vid=68b19812-56b4-488e-98dc-73863d342630","ios":"levelo://app?vid=68b19812-56b4-488e-98dc-73863d342630"},"vehicle_type_id":"4","last_reported":1714071996,"current_range_meters":0,"station_id":"ce4bgqh2rcd13ifvqc5g","pricing_plan_id":"cebpf4jnsgd1na2vs0mg"},{"bike_id":"2c1ebe05-f5e8-4c5c-a618-1318eebe3aa1","system_id":"levelo_inurba_marseille","lat":43.30304,"lon":5.368987,"is_reserved":false,"is_disabled":false,"rental_uris":{"android":"levelo://app?vid=2c1ebe05-f5e8-4c5c-a618-1318eebe3aa1","ios":"levelo://app?vid=2c1ebe05-f5e8-4c5c-a618-1318eebe3aa1"},"vehicle_type_id":"4","last_reported":1714071996,"current_range_meters":29600,"station_id":"ce4bgqh2rcd13ifvqc5g","pricing_plan_id":"cebpf4jnsgd1na2vs0mg"},{"bike_id":"33e1abd5-80ff-4b2f-8654-e273c811afc3","system_id":"levelo_inurba_marseille","lat":43.299724,"lon":5.371829,"is_reserved":false,"is_disabled":false,"rental_uris":{"android":"levelo://app?vid=33e1abd5-80ff-4b2f-8654-e273c811afc3","ios":"levelo://app?vid=33e1abd5-80ff-4b2f-8654-e273c811afc3"},"vehicle_type_id":"4","last_reported":1714071996,"current_range_meters":11600,"station_id":"ce4bgr92rcd13ifvqc7g","pricing_plan_id":"cebpf4jnsgd1na2vs0mg"},{"bike_id":"7c0a0cf7-8413-4c82-9d7c-be493911591b","system_id":"levelo_inurba_marseille","lat":43.3236,"lon":5.367393,"is_reserved":false,"is_disabled":false,"rental_uris":{"android":"levelo://app?vid=7c0a0cf7-8413-4c82-9d7c-be493911591b","ios":"levelo://app?vid=7c0a0cf7-8413-4c82-9d7c-be493911591b"},"vehicle_type_id":"4","last_reported":1714071996,"current_range_meters":4800,"station_id":"","pricing_plan_id":"cebpf4jnsgd1na2vs0mg"},{"bike_id":"1fdf8c56-fd64-48ac-9450-29f6da508e40","system_id":"levelo_inurba_marseille","lat":43.301939,"lon":5.366286,"is_reserved":false,"is_disabled":false,"rental_uris":{"android":"levelo://app?vid=1fdf8c56-fd64-48ac-9450-29f6da508e40","ios":"levelo://app?vid=1fdf8c56-fd64-48ac-9450-29f6da508e40"},"vehicle_type_id":"4","last_reported":1714071996,"current_range_meters":30800,"station_id":"ce4bgrh2rcd13ifvqc8g","pricing_plan_id":"cebpf4jnsgd1na2vs0mg"},{"bike_id":"803020ad-208e-4510-9ff9-fe634837ac82","system_id":"levelo_inurba_marseille","lat":43.308012,"lon":5.381511,"is_reserved":false,"is_disabled":false,"rental_uris":{"android":"levelo://app?vid=803020ad-208e-4510-9ff9-fe634837ac82","ios":"levelo://app?vid=803020ad-208e-4510-9ff9-fe634837ac82"},"vehicle_type_id":"4","last_reported":1714071996,"current_range_meters":11600,"station_id":"ce4bgt12rcd13ifvqce0","pricing_plan_id":"cebpf4jnsgd1na2vs0mg"},{"bike_id":"a2cd4726-f697-4481-a5b0-c7956d7e3ef8","system_id":"levelo_inurba_marseille","lat":43.304606,"lon":5.379026,"is_reserved":false,"is_disabled":false,"rental_uris":{"android":"levelo://app?vid=a2cd4726-f697-4481-a5b0-c7956d7e3ef8","ios":"levelo://app?vid=a2cd4726-f697-4481-a5b0-c7956d7e3ef8"},"vehicle_type_id":"4","last_reported":1714071996,"current_range_meters":400,"station_id":"ce4bgup2rcd13ifvqcn0","pricing_plan_id":"cebpf4jnsgd1na2vs0mg"},{"bike_id":"7e970af1-b892-4ef5-bc77-e96a0eff7bb7","system_id":"levelo_inurba_marseille","lat":43.304606,"lon":5.379026,"is_reserved":false,"is_disabled":false,"rental_uris":{"android":"levelo://app?vid=7e970af1-b892-4ef5-bc77-e96a0eff7bb7","ios":"levelo://app?vid=7e970af1-b892-4ef5-bc77-e96a0eff7bb7"},"vehicle_type_id":"4","last_reported":1714071996,"current_range_meters":4800,"station_id":"ce4bgup2rcd13ifvqcn0","pricing_plan_id":"cebpf4jnsgd1na2vs0mg"},{"bike_id":"37d72b13-e1db-4410-bb95-9e26af24c3f2","system_id":"levelo_inurba_marseille","lat":43.30461,"lon":5.37905,"is_reserved":false,"is_disabled":false,"rental_uris":{"android":"levelo://app?vid=37d72b13-e1db-4410-bb95-9e26af24c3f2","ios":"levelo://app?vid=37d72b13-e1db-4410-bb95-9e26af24c3f2"},"vehicle_type_id":"4","last_reported":1714071996,"current_range_meters":24400,"station_id":"ce4bgup2rcd13ifvqcn0","pricing_plan_id":"cebpf4jnsgd1na2vs0mg"},{"bike_id":"1d9316d1-0095-461c-8e2a-6b016692cadb","system_id":"levelo_inurba_marseille","lat":43.304606,"lon":5.379026,"is_reserved":false,"is_disabled":false,"rental_uris":{"android":"levelo://app?vid=1d9316d1-0095-461c-8e2a-6b016692cadb","ios":"levelo://app?vid=1d9316d1-0095-461c-8e2a-6b016692cadb"},"vehicle_type_id":"4","last_reported":1714071996,"current_range_meters":11600,"station_id":"ce4bgup2rcd13ifvqcn0","pricing_plan_id":"cebpf4jnsgd1na2vs0mg"},{"bike_id":"af7df23e-bb38-45a7-9d3b-33ee0800c5eb","system_id":"levelo_inurba_marseille","lat":43.304606,"lon":5.379026,"is_reserved":false,"is_disabled":false,"rental_uris":{"android":"levelo://app?vid=af7df23e-bb38-45a7-9d3b-33ee0800c5eb","ios":"levelo://app?vid=af7df23e-bb38-45a7-9d3b-33ee0800c5eb"},"vehicle_type_id":"4","last_reported":1714071996,"current_range_meters":0,"station_id":"ce4bgup2rcd13ifvqcn0","pricing_plan_id":"cebpf4jnsgd1na2vs0mg"},{"bike_id":"77b055b9-7e34-45c6-81c8-91f93e9a305b","system_id":"levelo_inurba_marseille","lat":43.304606,"lon":5.379026,"is_reserved":false,"is_disabled":false,"rental_uris":{"android":"levelo://app?vid=77b055b9-7e34-45c6-81c8-91f93e9a305b","ios":"levelo://app?vid=77b055b9-7e34-45c6-81c8-91f93e9a305b"},"vehicle_type_id":"4","last_reported":1714071996,"current_range_meters":19600,"station_id":"ce4bgup2rcd13ifvqcn0","pricing_plan_id":"cebpf4jnsgd1na2vs0mg"},{"bike_id":"b4a5b306-a736-49ba-8e77-4676ed54bfc0","system_id":"levelo_inurba_marseille","lat":43.324771,"lon":5.36557,"is_reserved":false,"is_disabled":false,"rental_uris":{"android":"levelo://app?vid=b4a5b306-a736-49ba-8e77-4676ed54bfc0","ios":"levelo://app?vid=b4a5b306-a736-49ba-8e77-4676ed54bfc0"},"vehicle_type_id":"4","last_reported":1714071996,"current_range_meters":24000,"station_id":"ce4bhs12rcd13ifvqhvg","pricing_plan_id":"cebpf4jnsgd1na2vs0mg"},{"bike_id":"368ecea6-d208-4355-89eb-3edd21cf2972","system_id":"levelo_inurba_marseille","lat":43.324771,"lon":5.36557,"is_reserved":false,"is_disabled":false,"rental_uris":{"android":"levelo://app?vid=368ecea6-d208-4355-89eb-3edd21cf2972","ios":"levelo://app?vid=368ecea6-d208-4355-89eb-3edd21cf2972"},"vehicle_type_id":"4","last_reported":1714071996,"current_range_meters":23600,"station_id":"ce4bhs12rcd13ifvqhvg","pricing_plan_id":"cebpf4jnsgd1na2vs0mg"},{"bike_id":"375b50fc-ac68-40dd-ad99-add96c82b6e9","system_id":"levelo_inurba_marseille","lat":43.324771,"lon":5.36557,"is_reserved":false,"is_disabled":false,"rental_uris":{"android":"levelo://app?vid=375b50fc-ac68-40dd-ad99-add96c82b6e9","ios":"levelo://app?vid=375b50fc-ac68-40dd-ad99-add96c82b6e9"},"vehicle_type_id":"4","last_reported":1714071996,"current_range_meters":6000,"station_id":"ce4bhs12rcd13ifvqhvg","pricing_plan_id":"cebpf4jnsgd1na2vs0mg"},{"bike_id":"8f88d152-971d-4d2c-8874-d58372618b70","system_id":"levelo_inurba_marseille","lat":43.32479,"lon":5.36564,"is_reserved":false,"is_disabled":false,"rental_uris":{"android":"levelo://app?vid=8f88d152-971d-4d2c-8874-d58372618b70","ios":"levelo://app?vid=8f88d152-971d-4d2c-8874-d58372618b70"},"vehicle_type_id":"4","last_reported":1714071996,"current_range_meters":4800,"station_id":"ce4bhs12rcd13ifvqhvg","pricing_plan_id":"cebpf4jnsgd1na2vs0mg"},{"bike_id":"ca4ca187-799d-46f4-a1d1-32619e2f58ca","system_id":"levelo_inurba_marseille","lat":43.324771,"lon":5.36557,"is_reserved":false,"is_disabled":false,"rental_uris":{"android":"levelo://app?vid=ca4ca187-799d-46f4-a1d1-32619e2f58ca","ios":"levelo://app?vid=ca4ca187-799d-46f4-a1d1-32619e2f58ca"},"vehicle_type_id":"4","last_reported":1714071996,"current_range_meters":29200,"station_id":"ce4bhs12rcd13ifvqhvg","pricing_plan_id":"cebpf4jnsgd1na2vs0mg"},{"bike_id":"f49a684d-610a-4500-a8c0-16dc58fc4d13","system_id":"levelo_inurba_marseille","lat":43.324771,"lon":5.36557,"is_reserved":false,"is_disabled":false,"rental_uris":{"android":"levelo://app?vid=f49a684d-610a-4500-a8c0-16dc58fc4d13","ios":"levelo://app?vid=f49a684d-610a-4500-a8c0-16dc58fc4d13"},"vehicle_type_id":"4","last_reported":1714071996,"current_range_meters":12800,"station_id":"ce4bhs12rcd13ifvqhvg","pricing_plan_id":"cebpf4jnsgd1na2vs0mg"},{"bike_id":"e7467c82-0d42-4813-a3e5-8b0fe2f5bd7b","system_id":"levelo_inurba_marseille","lat":43.324771,"lon":5.36557,"is_reserved":false,"is_disabled":false,"rental_uris":{"android":"levelo://app?vid=e7467c82-0d42-4813-a3e5-8b0fe2f5bd7b","ios":"levelo://app?vid=e7467c82-0d42-4813-a3e5-8b0fe2f5bd7b"},"vehicle_type_id":"4","last_reported":1714071996,"current_range_meters":20800,"station_id":"ce4bhs12rcd13ifvqhvg","pricing_plan_id":"cebpf4jnsgd1na2vs0mg"},{"bike_id":"d46c7698-787b-42d7-aca4-58e471af82c1","system_id":"levelo_inurba_marseille","lat":43.324771,"lon":5.36557,"is_reserved":false,"is_disabled":false,"rental_uris":{"android":"levelo://app?vid=d46c7698-787b-42d7-aca4-58e471af82c1","ios":"levelo://app?vid=d46c7698-787b-42d7-aca4-58e471af82c1"},"vehicle_type_id":"4","last_reported":1714071996,"current_range_meters":23200,"station_id":"ce4bhs12rcd13ifvqhvg","pricing_plan_id":"cebpf4jnsgd1na2vs0mg"},{"bike_id":"40b666b2-30b2-4933-aaa5-d61dd1849f20","system_id":"levelo_inurba_marseille","lat":43.324771,"lon":5.36557,"is_reserved":false,"is_disabled":false,"rental_uris":{"android":"levelo://app?vid=40b666b2-30b2-4933-aaa5-d61dd1849f20","ios":"levelo://app?vid=40b666b2-30b2-4933-aaa5-d61dd1849f20"},"vehicle_type_id":"4","last_reported":1714071996,"current_range_meters":28800,"station_id":"ce4bhs12rcd13ifvqhvg","pricing_plan_id":"cebpf4jnsgd1na2vs0mg"},{"bike_id":"48791681-48d0-4948-be97-7a720fbe1e98","system_id":"levelo_inurba_marseille","lat":43.324771,"lon":5.36557,"is_reserved":false,"is_disabled":false,"rental_uris":{"android":"levelo://app?vid=48791681-48d0-4948-be97-7a720fbe1e98","ios":"levelo://app?vid=48791681-48d0-4948-be97-7a720fbe1e98"},"vehicle_type_id":"4","last_reported":1714071996,"current_range_meters":28800,"station_id":"ce4bhs12rcd13ifvqhvg","pricing_plan_id":"cebpf4jnsgd1na2vs0mg"},{"bike_id":"9b35fceb-4162-458b-bd5d-3a99094c76ac","system_id":"levelo_inurba_marseille","lat":43.310804,"lon":5.38359,"is_reserved":false,"is_disabled":false,"rental_uris":{"android":"levelo://app?vid=9b35fceb-4162-458b-bd5d-3a99094c76ac","ios":"levelo://app?vid=9b35fceb-4162-458b-bd5d-3a99094c76ac"},"vehicle_type_id":"4","last_reported":1714071996,"current_range_meters":0,"station_id":"ce4bgv92rcd13ifvqcr0","pricing_plan_id":"cebpf4jnsgd1na2vs0mg"},{"bike_id":"516e5cf7-9fd5-499c-ac13-c35246d1c116","system_id":"levelo_inurba_marseille","lat":43.324771,"lon":5.36557,"is_reserved":false,"is_disabled":false,"rental_uris":{"android":"levelo://app?vid=516e5cf7-9fd5-499c-ac13-c35246d1c116","ios":"levelo://app?vid=516e5cf7-9fd5-499c-ac13-c35246d1c116"},"vehicle_type_id":"4","last_reported":1714071996,"current_range_meters":10400,"station_id":"ce4bhs12rcd13ifvqhvg","pricing_plan_id":"cebpf4jnsgd1na2vs0mg"},{"bike_id":"49587430-d4a1-4231-85c4-9af5f0e154c2","system_id":"levelo_inurba_marseille","lat":43.302784,"lon":5.377158,"is_reserved":false,"is_disabled":false,"rental_uris":{"android":"levelo://app?vid=49587430-d4a1-4231-85c4-9af5f0e154c2","ios":"levelo://app?vid=49587430-d4a1-4231-85c4-9af5f0e154c2"},"vehicle_type_id":"4","last_reported":1714071996,"current_range_meters":0,"station_id":"ce4bguh2rcd13ifvqcj0","pricing_plan_id":"cebpf4jnsgd1na2vs0mg"},{"bike_id":"371ce480-326a-4569-8e56-9687cd2cf1f7","system_id":"levelo_inurba_marseille","lat":43.310804,"lon":5.38359,"is_reserved":false,"is_disabled":false,"rental_uris":{"android":"levelo://app?vid=371ce480-326a-4569-8e56-9687cd2cf1f7","ios":"levelo://app?vid=371ce480-326a-4569-8e56-9687cd2cf1f7"},"vehicle_type_id":"4","last_reported":1714071996,"current_range_meters":2800,"station_id":"ce4bgv92rcd13ifvqcr0","pricing_plan_id":"cebpf4jnsgd1na2vs0mg"},{"bike_id":"f9126dfc-64ce-4aa8-be6e-ef2a45d0480a","system_id":"levelo_inurba_marseille","lat":43.310804,"lon":5.38359,"is_reserved":false,"is_disabled":false,"rental_uris":{"android":"levelo://app?vid=f9126dfc-64ce-4aa8-be6e-ef2a45d0480a","ios":"levelo://app?vid=f9126dfc-64ce-4aa8-be6e-ef2a45d0480a"},"vehicle_type_id":"4","last_reported":1714071996,"current_range_meters":3600,"station_id":"ce4bgv92rcd13ifvqcr0","pricing_plan_id":"cebpf4jnsgd1na2vs0mg"},{"bike_id":"12327abc-c70c-4597-a0da-b7b6684bc459","system_id":"levelo_inurba_marseille","lat":43.30276,"lon":5.37703,"is_reserved":false,"is_disabled":false,"rental_uris":{"android":"levelo://app?vid=12327abc-c70c-4597-a0da-b7b6684bc459","ios":"levelo://app?vid=12327abc-c70c-4597-a0da-b7b6684bc459"},"vehicle_type_id":"4","last_reported":1714071996,"current_range_meters":8400,"station_id":"","pricing_plan_id":"cebpf4jnsgd1na2vs0mg"},{"bike_id":"a9f0373f-b434-4341-822b-c7c927c91da9","system_id":"levelo_inurba_marseille","lat":43.302784,"lon":5.377158,"is_reserved":false,"is_disabled":false,"rental_uris":{"android":"levelo://app?vid=a9f0373f-b434-4341-822b-c7c927c91da9","ios":"levelo://app?vid=a9f0373f-b434-4341-822b-c7c927c91da9"},"vehicle_type_id":"4","last_reported":1714071996,"current_range_meters":20800,"station_id":"ce4bguh2rcd13ifvqcj0","pricing_plan_id":"cebpf4jnsgd1na2vs0mg"},{"bike_id":"c4733f54-8572-4ab7-8908-30d2acd6540f","system_id":"levelo_inurba_marseille","lat":43.308012,"lon":5.381511,"is_reserved":false,"is_disabled":false,"rental_uris":{"android":"levelo://app?vid=c4733f54-8572-4ab7-8908-30d2acd6540f","ios":"levelo://app?vid=c4733f54-8572-4ab7-8908-30d2acd6540f"},"vehicle_type_id":"4","last_reported":1714071996,"current_range_meters":0,"station_id":"ce4bgt12rcd13ifvqce0","pricing_plan_id":"cebpf4jnsgd1na2vs0mg"},{"bike_id":"29f9f30c-b903-4229-9ffe-e0a7e31a386f","system_id":"levelo_inurba_marseille","lat":43.302784,"lon":5.377158,"is_reserved":false,"is_disabled":false,"rental_uris":{"android":"levelo://app?vid=29f9f30c-b903-4229-9ffe-e0a7e31a386f","ios":"levelo://app?vid=29f9f30c-b903-4229-9ffe-e0a7e31a386f"},"vehicle_type_id":"4","last_reported":1714071996,"current_range_meters":0,"station_id":"ce4bguh2rcd13ifvqcj0","pricing_plan_id":"cebpf4jnsgd1na2vs0mg"},{"bike_id":"c392d2a5-7b30-4977-9da0-86522e68a790","system_id":"levelo_inurba_marseille","lat":43.319935,"lon":5.381699,"is_reserved":false,"is_disabled":false,"rental_uris":{"android":"levelo://app?vid=c392d2a5-7b30-4977-9da0-86522e68a790","ios":"levelo://app?vid=c392d2a5-7b30-4977-9da0-86522e68a790"},"vehicle_type_id":"4","last_reported":1714071996,"current_range_meters":9600,"station_id":"ce4bhr12rcd13ifvqhpg","pricing_plan_id":"cebpf4jnsgd1na2vs0mg"},{"bike_id":"81f9b193-22d1-4841-88a9-1e6859aeb76b","system_id":"levelo_inurba_marseille","lat":43.319935,"lon":5.381699,"is_reserved":false,"is_disabled":false,"rental_uris":{"android":"levelo://app?vid=81f9b193-22d1-4841-88a9-1e6859aeb76b","ios":"levelo://app?vid=81f9b193-22d1-4841-88a9-1e6859aeb76b"},"vehicle_type_id":"4","last_reported":1714071996,"current_range_meters":21600,"station_id":"ce4bhr12rcd13ifvqhpg","pricing_plan_id":"cebpf4jnsgd1na2vs0mg"},{"bike_id":"90782db0-bb00-41c9-8354-a064793f3e54","system_id":"levelo_inurba_marseille","lat":43.319935,"lon":5.381699,"is_reserved":false,"is_disabled":false,"rental_uris":{"android":"levelo://app?vid=90782db0-bb00-41c9-8354-a064793f3e54","ios":"levelo://app?vid=90782db0-bb00-41c9-8354-a064793f3e54"},"vehicle_type_id":"4","last_reported":1714071996,"current_range_meters":18800,"station_id":"ce4bhr12rcd13ifvqhpg","pricing_plan_id":"cebpf4jnsgd1na2vs0mg"},{"bike_id":"b21fac34-f6fd-4cc9-8f65-3714ceeba8ad","system_id":"levelo_inurba_marseille","lat":43.319179,"lon":5.407725,"is_reserved":false,"is_disabled":false,"rental_uris":{"android":"levelo://app?vid=b21fac34-f6fd-4cc9-8f65-3714ceeba8ad","ios":"levelo://app?vid=b21fac34-f6fd-4cc9-8f65-3714ceeba8ad"},"vehicle_type_id":"4","last_reported":1714071996,"current_range_meters":20000,"station_id":"ce4bhq12rcd13ifvqhig","pricing_plan_id":"cebpf4jnsgd1na2vs0mg"},{"bike_id":"ab11336f-d142-4739-86fb-f7fdca2fb013","system_id":"levelo_inurba_marseille","lat":43.313571,"lon":5.384829,"is_reserved":false,"is_disabled":false,"rental_uris":{"android":"levelo://app?vid=ab11336f-d142-4739-86fb-f7fdca2fb013","ios":"levelo://app?vid=ab11336f-d142-4739-86fb-f7fdca2fb013"},"vehicle_type_id":"4","last_reported":1714071996,"current_range_meters":14400,"station_id":"ce4bgt92rcd13ifvqcf0","pricing_plan_id":"cebpf4jnsgd1na2vs0mg"},{"bike_id":"dcebdfa2-bedd-4e4d-b09a-3e7b772166bc","system_id":"levelo_inurba_marseille","lat":43.299222,"lon":5.365554,"is_reserved":false,"is_disabled":false,"rental_uris":{"android":"levelo://app?vid=dcebdfa2-bedd-4e4d-b09a-3e7b772166bc","ios":"levelo://app?vid=dcebdfa2-bedd-4e4d-b09a-3e7b772166bc"},"vehicle_type_id":"4","last_reported":1714071996,"current_range_meters":7200,"station_id":"ce4bgm92rcd13ifvqbr0","pricing_plan_id":"cebpf4jnsgd1na2vs0mg"},{"bike_id":"f3d2b81b-9450-4227-989d-3c8cc4be9364","system_id":"levelo_inurba_marseille","lat":43.299724,"lon":5.371829,"is_reserved":false,"is_disabled":false,"rental_uris":{"android":"levelo://app?vid=f3d2b81b-9450-4227-989d-3c8cc4be9364","ios":"levelo://app?vid=f3d2b81b-9450-4227-989d-3c8cc4be9364"},"vehicle_type_id":"4","last_reported":1714071996,"current_range_meters":19200,"station_id":"ce4bgr92rcd13ifvqc7g","pricing_plan_id":"cebpf4jnsgd1na2vs0mg"},{"bike_id":"e88bb27c-7a6f-457a-bd18-baf20728ceb7","system_id":"levelo_inurba_marseille","lat":43.299724,"lon":5.371829,"is_reserved":false,"is_disabled":false,"rental_uris":{"android":"levelo://app?vid=e88bb27c-7a6f-457a-bd18-baf20728ceb7","ios":"levelo://app?vid=e88bb27c-7a6f-457a-bd18-baf20728ceb7"},"vehicle_type_id":"4","last_reported":1714071996,"current_range_meters":6000,"station_id":"ce4bgr92rcd13ifvqc7g","pricing_plan_id":"cebpf4jnsgd1na2vs0mg"},{"bike_id":"ce070fc7-b747-4b1b-92f6-e9fe1b0b823b","system_id":"levelo_inurba_marseille","lat":43.299222,"lon":5.365554,"is_reserved":false,"is_disabled":false,"rental_uris":{"android":"levelo://app?vid=ce070fc7-b747-4b1b-92f6-e9fe1b0b823b","ios":"levelo://app?vid=ce070fc7-b747-4b1b-92f6-e9fe1b0b823b"},"vehicle_type_id":"4","last_reported":1714071996,"current_range_meters":2800,"station_id":"ce4bgm92rcd13ifvqbr0","pricing_plan_id":"cebpf4jnsgd1na2vs0mg"},{"bike_id":"7927cc21-8729-4efa-9ec6-46eb9bfc86f8","system_id":"levelo_inurba_marseille","lat":43.298433,"lon":5.362774,"is_reserved":false,"is_disabled":false,"rental_uris":{"android":"levelo://app?vid=7927cc21-8729-4efa-9ec6-46eb9bfc86f8","ios":"levelo://app?vid=7927cc21-8729-4efa-9ec6-46eb9bfc86f8"},"vehicle_type_id":"4","last_reported":1714071996,"current_range_meters":800,"station_id":"ce4bgpp2rcd13ifvqc3g","pricing_plan_id":"cebpf4jnsgd1na2vs0mg"},{"bike_id":"611b25c5-36d8-45f8-86e7-2cfbfef14812","system_id":"levelo_inurba_marseille","lat":43.29957,"lon":5.37376,"is_reserved":false,"is_disabled":false,"rental_uris":{"android":"levelo://app?vid=611b25c5-36d8-45f8-86e7-2cfbfef14812","ios":"levelo://app?vid=611b25c5-36d8-45f8-86e7-2cfbfef14812"},"vehicle_type_id":"4","last_reported":1714071996,"current_range_meters":20000,"station_id":"","pricing_plan_id":"cebpf4jnsgd1na2vs0mg"},{"bike_id":"cfe536c8-9fb4-4c14-95df-624e12ace35b","system_id":"levelo_inurba_marseille","lat":43.29877,"lon":5.36447,"is_reserved":false,"is_disabled":false,"rental_uris":{"android":"levelo://app?vid=cfe536c8-9fb4-4c14-95df-624e12ace35b","ios":"levelo://app?vid=cfe536c8-9fb4-4c14-95df-624e12ace35b"},"vehicle_type_id":"4","last_reported":1714071996,"current_range_meters":5600,"station_id":"ce4bgs12rcd13ifvqcag","pricing_plan_id":"cebpf4jnsgd1na2vs0mg"},{"bike_id":"1c2fa12f-df3a-41cb-9f07-5189cab895bd","system_id":"levelo_inurba_marseille","lat":43.305416,"lon":5.384291,"is_reserved":false,"is_disabled":false,"rental_uris":{"android":"levelo://app?vid=1c2fa12f-df3a-41cb-9f07-5189cab895bd","ios":"levelo://app?vid=1c2fa12f-df3a-41cb-9f07-5189cab895bd"},"vehicle_type_id":"4","last_reported":1714071996,"current_range_meters":0,"station_id":"ce4bgg92rcd13ifvqb30","pricing_plan_id":"cebpf4jnsgd1na2vs0mg"},{"bike_id":"fb629dec-5dc0-4320-a893-d1e9372f73dc","system_id":"levelo_inurba_marseille","lat":43.298433,"lon":5.362774,"is_reserved":false,"is_disabled":false,"rental_uris":{"android":"levelo://app?vid=fb629dec-5dc0-4320-a893-d1e9372f73dc","ios":"levelo://app?vid=fb629dec-5dc0-4320-a893-d1e9372f73dc"},"vehicle_type_id":"4","last_reported":1714071996,"current_range_meters":10800,"station_id":"ce4bgpp2rcd13ifvqc3g","pricing_plan_id":"cebpf4jnsgd1na2vs0mg"},{"bike_id":"31a9f66f-383d-419e-9025-ae711d9e0aec","system_id":"levelo_inurba_marseille","lat":43.305364,"lon":5.384119,"is_reserved":false,"is_disabled":false,"rental_uris":{"android":"levelo://app?vid=31a9f66f-383d-419e-9025-ae711d9e0aec","ios":"levelo://app?vid=31a9f66f-383d-419e-9025-ae711d9e0aec"},"vehicle_type_id":"4","last_reported":1714071996,"current_range_meters":800,"station_id":"ce4bgg92rcd13ifvqb30","pricing_plan_id":"cebpf4jnsgd1na2vs0mg"},{"bike_id":"58166dda-a050-46df-b19f-e82a66a32f61","system_id":"levelo_inurba_marseille","lat":43.29842,"lon":5.36271,"is_reserved":false,"is_disabled":false,"rental_uris":{"android":"levelo://app?vid=58166dda-a050-46df-b19f-e82a66a32f61","ios":"levelo://app?vid=58166dda-a050-46df-b19f-e82a66a32f61"},"vehicle_type_id":"4","last_reported":1714071996,"current_range_meters":0,"station_id":"ce4bgpp2rcd13ifvqc3g","pricing_plan_id":"cebpf4jnsgd1na2vs0mg"},{"bike_id":"481404a5-a13f-48e7-adc6-c9acb1f83cd4","system_id":"levelo_inurba_marseille","lat":43.299243,"lon":5.37481,"is_reserved":false,"is_disabled":false,"rental_uris":{"android":"levelo://app?vid=481404a5-a13f-48e7-adc6-c9acb1f83cd4","ios":"levelo://app?vid=481404a5-a13f-48e7-adc6-c9acb1f83cd4"},"vehicle_type_id":"4","last_reported":1714071996,"current_range_meters":400,"station_id":"ce4bgjh2rcd13ifvqbg0","pricing_plan_id":"cebpf4jnsgd1na2vs0mg"},{"bike_id":"d9f8a237-0adf-4e99-93db-c0cc04b5ab0d","system_id":"levelo_inurba_marseille","lat":43.299243,"lon":5.374807,"is_reserved":false,"is_disabled":false,"rental_uris":{"android":"levelo://app?vid=d9f8a237-0adf-4e99-93db-c0cc04b5ab0d","ios":"levelo://app?vid=d9f8a237-0adf-4e99-93db-c0cc04b5ab0d"},"vehicle_type_id":"4","last_reported":1714071996,"current_range_meters":3600,"station_id":"ce4bgjh2rcd13ifvqbg0","pricing_plan_id":"cebpf4jnsgd1na2vs0mg"},{"bike_id":"7f52d653-88f0-496d-bbff-0a7e601c7896","system_id":"levelo_inurba_marseille","lat":43.299243,"lon":5.37481,"is_reserved":false,"is_disabled":false,"rental_uris":{"android":"levelo://app?vid=7f52d653-88f0-496d-bbff-0a7e601c7896","ios":"levelo://app?vid=7f52d653-88f0-496d-bbff-0a7e601c7896"},"vehicle_type_id":"4","last_reported":1714071996,"current_range_meters":4800,"station_id":"ce4bgjh2rcd13ifvqbg0","pricing_plan_id":"cebpf4jnsgd1na2vs0mg"},{"bike_id":"45559035-6c24-4da3-a00f-2c6da08f30ec","system_id":"levelo_inurba_marseille","lat":43.31176,"lon":5.38718,"is_reserved":false,"is_disabled":false,"rental_uris":{"android":"levelo://app?vid=45559035-6c24-4da3-a00f-2c6da08f30ec","ios":"levelo://app?vid=45559035-6c24-4da3-a00f-2c6da08f30ec"},"vehicle_type_id":"4","last_reported":1714071996,"current_range_meters":0,"station_id":"ce4bgv12rcd13ifvqcp0","pricing_plan_id":"cebpf4jnsgd1na2vs0mg"},{"bike_id":"6dfd473e-877f-46d1-8edd-dbbf9825f5de","system_id":"levelo_inurba_marseille","lat":43.299243,"lon":5.37481,"is_reserved":false,"is_disabled":false,"rental_uris":{"android":"levelo://app?vid=6dfd473e-877f-46d1-8edd-dbbf9825f5de","ios":"levelo://app?vid=6dfd473e-877f-46d1-8edd-dbbf9825f5de"},"vehicle_type_id":"4","last_reported":1714071996,"current_range_meters":4400,"station_id":"ce4bgjh2rcd13ifvqbg0","pricing_plan_id":"cebpf4jnsgd1na2vs0mg"},{"bike_id":"67a385e5-1ef9-4656-a06c-ad6b30169780","system_id":"levelo_inurba_marseille","lat":43.311753,"lon":5.387283,"is_reserved":false,"is_disabled":false,"rental_uris":{"android":"levelo://app?vid=67a385e5-1ef9-4656-a06c-ad6b30169780","ios":"levelo://app?vid=67a385e5-1ef9-4656-a06c-ad6b30169780"},"vehicle_type_id":"4","last_reported":1714071996,"current_range_meters":0,"station_id":"ce4bgv12rcd13ifvqcp0","pricing_plan_id":"cebpf4jnsgd1na2vs0mg"},{"bike_id":"29e6b394-f93a-4afb-9adb-0b6e3b478cc2","system_id":"levelo_inurba_marseille","lat":43.297774,"lon":5.370875,"is_reserved":false,"is_disabled":false,"rental_uris":{"android":"levelo://app?vid=29e6b394-f93a-4afb-9adb-0b6e3b478cc2","ios":"levelo://app?vid=29e6b394-f93a-4afb-9adb-0b6e3b478cc2"},"vehicle_type_id":"4","last_reported":1714071996,"current_range_meters":24000,"station_id":"ce4bgop2rcd13ifvqc1g","pricing_plan_id":"cebpf4jnsgd1na2vs0mg"},{"bike_id":"53f1b87e-8eac-41c2-ad76-f19fa21971b2","system_id":"levelo_inurba_marseille","lat":43.301532,"lon":5.381084,"is_reserved":false,"is_disabled":false,"rental_uris":{"android":"levelo://app?vid=53f1b87e-8eac-41c2-ad76-f19fa21971b2","ios":"levelo://app?vid=53f1b87e-8eac-41c2-ad76-f19fa21971b2"},"vehicle_type_id":"4","last_reported":1714071996,"current_range_meters":10000,"station_id":"","pricing_plan_id":"cebpf4jnsgd1na2vs0mg"},{"bike_id":"a8e2ca69-f699-47f0-8ae7-ac0a3630abe3","system_id":"levelo_inurba_marseille","lat":43.322872,"lon":5.382756,"is_reserved":false,"is_disabled":false,"rental_uris":{"android":"levelo://app?vid=a8e2ca69-f699-47f0-8ae7-ac0a3630abe3","ios":"levelo://app?vid=a8e2ca69-f699-47f0-8ae7-ac0a3630abe3"},"vehicle_type_id":"4","last_reported":1714071996,"current_range_meters":12000,"station_id":"ce4bhr12rcd13ifvqhqg","pricing_plan_id":"cebpf4jnsgd1na2vs0mg"},{"bike_id":"3a030d44-086f-4717-80c1-f39d4835fb23","system_id":"levelo_inurba_marseille","lat":43.322872,"lon":5.382756,"is_reserved":false,"is_disabled":false,"rental_uris":{"android":"levelo://app?vid=3a030d44-086f-4717-80c1-f39d4835fb23","ios":"levelo://app?vid=3a030d44-086f-4717-80c1-f39d4835fb23"},"vehicle_type_id":"4","last_reported":1714071996,"current_range_meters":2400,"station_id":"ce4bhr12rcd13ifvqhqg","pricing_plan_id":"cebpf4jnsgd1na2vs0mg"},{"bike_id":"b1fba622-dd6c-4ee5-b1ca-a89c50289df3","system_id":"levelo_inurba_marseille","lat":43.322872,"lon":5.382756,"is_reserved":false,"is_disabled":false,"rental_uris":{"android":"levelo://app?vid=b1fba622-dd6c-4ee5-b1ca-a89c50289df3","ios":"levelo://app?vid=b1fba622-dd6c-4ee5-b1ca-a89c50289df3"},"vehicle_type_id":"4","last_reported":1714071996,"current_range_meters":4800,"station_id":"ce4bhr12rcd13ifvqhqg","pricing_plan_id":"cebpf4jnsgd1na2vs0mg"},{"bike_id":"af01b064-90cb-45ce-ba16-abcd8fc35ded","system_id":"levelo_inurba_marseille","lat":43.322872,"lon":5.382756,"is_reserved":false,"is_disabled":false,"rental_uris":{"android":"levelo://app?vid=af01b064-90cb-45ce-ba16-abcd8fc35ded","ios":"levelo://app?vid=af01b064-90cb-45ce-ba16-abcd8fc35ded"},"vehicle_type_id":"4","last_reported":1714071996,"current_range_meters":20000,"station_id":"ce4bhr12rcd13ifvqhqg","pricing_plan_id":"cebpf4jnsgd1na2vs0mg"},{"bike_id":"e47fb431-2897-499a-958a-373a9ab19ebb","system_id":"levelo_inurba_marseille","lat":43.322872,"lon":5.382756,"is_reserved":false,"is_disabled":false,"rental_uris":{"android":"levelo://app?vid=e47fb431-2897-499a-958a-373a9ab19ebb","ios":"levelo://app?vid=e47fb431-2897-499a-958a-373a9ab19ebb"},"vehicle_type_id":"4","last_reported":1714071996,"current_range_meters":6000,"station_id":"ce4bhr12rcd13ifvqhqg","pricing_plan_id":"cebpf4jnsgd1na2vs0mg"},{"bike_id":"96e24a96-325a-4c33-8b44-2f4f7494b528","system_id":"levelo_inurba_marseille","lat":43.322872,"lon":5.382756,"is_reserved":false,"is_disabled":false,"rental_uris":{"android":"levelo://app?vid=96e24a96-325a-4c33-8b44-2f4f7494b528","ios":"levelo://app?vid=96e24a96-325a-4c33-8b44-2f4f7494b528"},"vehicle_type_id":"4","last_reported":1714071996,"current_range_meters":2000,"station_id":"ce4bhr12rcd13ifvqhqg","pricing_plan_id":"cebpf4jnsgd1na2vs0mg"},{"bike_id":"71e3a9f2-64e7-4850-ab91-0ecc8e71cbb2","system_id":"levelo_inurba_marseille","lat":43.322872,"lon":5.382756,"is_reserved":false,"is_disabled":false,"rental_uris":{"android":"levelo://app?vid=71e3a9f2-64e7-4850-ab91-0ecc8e71cbb2","ios":"levelo://app?vid=71e3a9f2-64e7-4850-ab91-0ecc8e71cbb2"},"vehicle_type_id":"4","last_reported":1714071996,"current_range_meters":22800,"station_id":"ce4bhr12rcd13ifvqhqg","pricing_plan_id":"cebpf4jnsgd1na2vs0mg"},{"bike_id":"688ab85f-66af-4457-9211-0ffbe19bfef2","system_id":"levelo_inurba_marseille","lat":43.322872,"lon":5.382756,"is_reserved":false,"is_disabled":false,"rental_uris":{"android":"levelo://app?vid=688ab85f-66af-4457-9211-0ffbe19bfef2","ios":"levelo://app?vid=688ab85f-66af-4457-9211-0ffbe19bfef2"},"vehicle_type_id":"4","last_reported":1714071996,"current_range_meters":800,"station_id":"ce4bhr12rcd13ifvqhqg","pricing_plan_id":"cebpf4jnsgd1na2vs0mg"},{"bike_id":"8b506ba7-9169-46bf-b217-6300b8bf2f5a","system_id":"levelo_inurba_marseille","lat":43.322872,"lon":5.382756,"is_reserved":false,"is_disabled":false,"rental_uris":{"android":"levelo://app?vid=8b506ba7-9169-46bf-b217-6300b8bf2f5a","ios":"levelo://app?vid=8b506ba7-9169-46bf-b217-6300b8bf2f5a"},"vehicle_type_id":"4","last_reported":1714071996,"current_range_meters":31200,"station_id":"ce4bhr12rcd13ifvqhqg","pricing_plan_id":"cebpf4jnsgd1na2vs0mg"},{"bike_id":"19b1322d-078d-42b4-8e35-303febda0b31","system_id":"levelo_inurba_marseille","lat":43.29714,"lon":5.36608,"is_reserved":false,"is_disabled":false,"rental_uris":{"android":"levelo://app?vid=19b1322d-078d-42b4-8e35-303febda0b31","ios":"levelo://app?vid=19b1322d-078d-42b4-8e35-303febda0b31"},"vehicle_type_id":"4","last_reported":1714071996,"current_range_meters":0,"station_id":"ce4bgn12rcd13ifvqbt0","pricing_plan_id":"cebpf4jnsgd1na2vs0mg"},{"bike_id":"2a7e3996-2ba4-4131-90a9-f7bd2a978600","system_id":"levelo_inurba_marseille","lat":43.297163,"lon":5.365866,"is_reserved":false,"is_disabled":false,"rental_uris":{"android":"levelo://app?vid=2a7e3996-2ba4-4131-90a9-f7bd2a978600","ios":"levelo://app?vid=2a7e3996-2ba4-4131-90a9-f7bd2a978600"},"vehicle_type_id":"4","last_reported":1714071996,"current_range_meters":2400,"station_id":"ce4bgn12rcd13ifvqbt0","pricing_plan_id":"cebpf4jnsgd1na2vs0mg"},{"bike_id":"22ee16ca-a245-4dc1-ad8a-db06da73955c","system_id":"levelo_inurba_marseille","lat":43.29599,"lon":5.36902,"is_reserved":false,"is_disabled":false,"rental_uris":{"android":"levelo://app?vid=22ee16ca-a245-4dc1-ad8a-db06da73955c","ios":"levelo://app?vid=22ee16ca-a245-4dc1-ad8a-db06da73955c"},"vehicle_type_id":"4","last_reported":1714071996,"current_range_meters":2000,"station_id":"","pricing_plan_id":"cebpf4jnsgd1na2vs0mg"},{"bike_id":"80883461-20d2-4c8b-88ee-90d787796226","system_id":"levelo_inurba_marseille","lat":43.296129,"lon":5.370777,"is_reserved":false,"is_disabled":false,"rental_uris":{"android":"levelo://app?vid=80883461-20d2-4c8b-88ee-90d787796226","ios":"levelo://app?vid=80883461-20d2-4c8b-88ee-90d787796226"},"vehicle_type_id":"4","last_reported":1714071996,"current_range_meters":6400,"station_id":"ce4bgnh2rcd13ifvqc0g","pricing_plan_id":"cebpf4jnsgd1na2vs0mg"},{"bike_id":"5489616e-aa41-47ec-819e-b30f49167629","system_id":"levelo_inurba_marseille","lat":43.296129,"lon":5.370777,"is_reserved":false,"is_disabled":false,"rental_uris":{"android":"levelo://app?vid=5489616e-aa41-47ec-819e-b30f49167629","ios":"levelo://app?vid=5489616e-aa41-47ec-819e-b30f49167629"},"vehicle_type_id":"4","last_reported":1714071996,"current_range_meters":20000,"station_id":"ce4bgnh2rcd13ifvqc0g","pricing_plan_id":"cebpf4jnsgd1na2vs0mg"},{"bike_id":"f43ddb93-d508-4edf-92f9-71edec556030","system_id":"levelo_inurba_marseille","lat":43.298764,"lon":5.388973,"is_reserved":false,"is_disabled":false,"rental_uris":{"android":"levelo://app?vid=f43ddb93-d508-4edf-92f9-71edec556030","ios":"levelo://app?vid=f43ddb93-d508-4edf-92f9-71edec556030"},"vehicle_type_id":"4","last_reported":1714071996,"current_range_meters":18800,"station_id":"ce4bh392rcd13ifvqdl0","pricing_plan_id":"cebpf4jnsgd1na2vs0mg"},{"bike_id":"653edb9d-ce9a-433d-9403-f9eff8398017","system_id":"levelo_inurba_marseille","lat":43.29582,"lon":5.36761,"is_reserved":false,"is_disabled":false,"rental_uris":{"android":"levelo://app?vid=653edb9d-ce9a-433d-9403-f9eff8398017","ios":"levelo://app?vid=653edb9d-ce9a-433d-9403-f9eff8398017"},"vehicle_type_id":"4","last_reported":1714071996,"current_range_meters":2800,"station_id":"ce4bgph2rcd13ifvqc2g","pricing_plan_id":"cebpf4jnsgd1na2vs0mg"},{"bike_id":"1a92005b-a250-4f08-b1c7-95e574cf5dae","system_id":"levelo_inurba_marseille","lat":43.296935,"lon":5.376544,"is_reserved":false,"is_disabled":false,"rental_uris":{"android":"levelo://app?vid=1a92005b-a250-4f08-b1c7-95e574cf5dae","ios":"levelo://app?vid=1a92005b-a250-4f08-b1c7-95e574cf5dae"},"vehicle_type_id":"4","last_reported":1714071996,"current_range_meters":3600,"station_id":"ce4bgkh2rcd13ifvqbl0","pricing_plan_id":"cebpf4jnsgd1na2vs0mg"},{"bike_id":"0aba0fd2-f9da-44a7-b835-8ce6f7398ca2","system_id":"levelo_inurba_marseille","lat":43.29573,"lon":5.367355,"is_reserved":false,"is_disabled":false,"rental_uris":{"android":"levelo://app?vid=0aba0fd2-f9da-44a7-b835-8ce6f7398ca2","ios":"levelo://app?vid=0aba0fd2-f9da-44a7-b835-8ce6f7398ca2"},"vehicle_type_id":"4","last_reported":1714071996,"current_range_meters":22400,"station_id":"ce4bgph2rcd13ifvqc2g","pricing_plan_id":"cebpf4jnsgd1na2vs0mg"},{"bike_id":"89686cc5-013a-442c-9afe-055261518041","system_id":"levelo_inurba_marseille","lat":43.29738,"lon":5.37701,"is_reserved":false,"is_disabled":false,"rental_uris":{"android":"levelo://app?vid=89686cc5-013a-442c-9afe-055261518041","ios":"levelo://app?vid=89686cc5-013a-442c-9afe-055261518041"},"vehicle_type_id":"4","last_reported":1714071996,"current_range_meters":0,"station_id":"ce4bgkh2rcd13ifvqbl0","pricing_plan_id":"cebpf4jnsgd1na2vs0mg"},{"bike_id":"e91d3818-bfe8-419d-a8e7-46e3e66f4442","system_id":"levelo_inurba_marseille","lat":43.297255,"lon":5.376905,"is_reserved":false,"is_disabled":false,"rental_uris":{"android":"levelo://app?vid=e91d3818-bfe8-419d-a8e7-46e3e66f4442","ios":"levelo://app?vid=e91d3818-bfe8-419d-a8e7-46e3e66f4442"},"vehicle_type_id":"4","last_reported":1714071996,"current_range_meters":0,"station_id":"ce4bgkh2rcd13ifvqbl0","pricing_plan_id":"cebpf4jnsgd1na2vs0mg"},{"bike_id":"7be8c0a7-3629-4d5b-a48b-bef4b25ce70f","system_id":"levelo_inurba_marseille","lat":43.309533,"lon":5.390204,"is_reserved":false,"is_disabled":false,"rental_uris":{"android":"levelo://app?vid=7be8c0a7-3629-4d5b-a48b-bef4b25ce70f","ios":"levelo://app?vid=7be8c0a7-3629-4d5b-a48b-bef4b25ce70f"},"vehicle_type_id":"4","last_reported":1714071996,"current_range_meters":0,"station_id":"ce4bgup2rcd13ifvqco0","pricing_plan_id":"cebpf4jnsgd1na2vs0mg"},{"bike_id":"26e42a3e-1b42-4f16-89a3-515a872aee90","system_id":"levelo_inurba_marseille","lat":43.298829,"lon":5.38098,"is_reserved":false,"is_disabled":false,"rental_uris":{"android":"levelo://app?vid=26e42a3e-1b42-4f16-89a3-515a872aee90","ios":"levelo://app?vid=26e42a3e-1b42-4f16-89a3-515a872aee90"},"vehicle_type_id":"4","last_reported":1714071996,"current_range_meters":5200,"station_id":"ce4bgj12rcd13ifvqbc0","pricing_plan_id":"cebpf4jnsgd1na2vs0mg"},{"bike_id":"281d1841-6a6a-4517-9911-4a3362250aab","system_id":"levelo_inurba_marseille","lat":43.30951,"lon":5.39035,"is_reserved":false,"is_disabled":false,"rental_uris":{"android":"levelo://app?vid=281d1841-6a6a-4517-9911-4a3362250aab","ios":"levelo://app?vid=281d1841-6a6a-4517-9911-4a3362250aab"},"vehicle_type_id":"4","last_reported":1714071996,"current_range_meters":14000,"station_id":"ce4bgup2rcd13ifvqco0","pricing_plan_id":"cebpf4jnsgd1na2vs0mg"},{"bike_id":"f87aa324-5a99-4769-97d7-acf394c37742","system_id":"levelo_inurba_marseille","lat":43.309467,"lon":5.390511,"is_reserved":false,"is_disabled":false,"rental_uris":{"android":"levelo://app?vid=f87aa324-5a99-4769-97d7-acf394c37742","ios":"levelo://app?vid=f87aa324-5a99-4769-97d7-acf394c37742"},"vehicle_type_id":"4","last_reported":1714071996,"current_range_meters":8800,"station_id":"ce4bgup2rcd13ifvqco0","pricing_plan_id":"cebpf4jnsgd1na2vs0mg"},{"bike_id":"819bb36a-c005-4f6f-b488-ff59d6226ed0","system_id":"levelo_inurba_marseille","lat":43.31755,"lon":5.39012,"is_reserved":false,"is_disabled":false,"rental_uris":{"android":"levelo://app?vid=819bb36a-c005-4f6f-b488-ff59d6226ed0","ios":"levelo://app?vid=819bb36a-c005-4f6f-b488-ff59d6226ed0"},"vehicle_type_id":"4","last_reported":1714071996,"current_range_meters":11200,"station_id":"ce4bhqp2rcd13ifvqhng","pricing_plan_id":"cebpf4jnsgd1na2vs0mg"},{"bike_id":"e5772f92-a855-4044-a45b-292cd2168d34","system_id":"levelo_inurba_marseille","lat":43.31759,"lon":5.39014,"is_reserved":false,"is_disabled":false,"rental_uris":{"android":"levelo://app?vid=e5772f92-a855-4044-a45b-292cd2168d34","ios":"levelo://app?vid=e5772f92-a855-4044-a45b-292cd2168d34"},"vehicle_type_id":"4","last_reported":1714071996,"current_range_meters":18400,"station_id":"ce4bhqp2rcd13ifvqhng","pricing_plan_id":"cebpf4jnsgd1na2vs0mg"},{"bike_id":"c0cdaebe-36f5-422c-820f-0c75650afebf","system_id":"levelo_inurba_marseille","lat":43.317557,"lon":5.390173,"is_reserved":false,"is_disabled":false,"rental_uris":{"android":"levelo://app?vid=c0cdaebe-36f5-422c-820f-0c75650afebf","ios":"levelo://app?vid=c0cdaebe-36f5-422c-820f-0c75650afebf"},"vehicle_type_id":"4","last_reported":1714071996,"current_range_meters":20800,"station_id":"ce4bhqp2rcd13ifvqhng","pricing_plan_id":"cebpf4jnsgd1na2vs0mg"},{"bike_id":"500135a8-22ac-4f5e-9047-2839ad7e7f40","system_id":"levelo_inurba_marseille","lat":43.29585,"lon":5.37523,"is_reserved":false,"is_disabled":false,"rental_uris":{"android":"levelo://app?vid=500135a8-22ac-4f5e-9047-2839ad7e7f40","ios":"levelo://app?vid=500135a8-22ac-4f5e-9047-2839ad7e7f40"},"vehicle_type_id":"4","last_reported":1714071996,"current_range_meters":22000,"station_id":"","pricing_plan_id":"cebpf4jnsgd1na2vs0mg"},{"bike_id":"08862012-2de3-499e-9563-64210ecbf73c","system_id":"levelo_inurba_marseille","lat":43.298037,"lon":5.381066,"is_reserved":false,"is_disabled":false,"rental_uris":{"android":"levelo://app?vid=08862012-2de3-499e-9563-64210ecbf73c","ios":"levelo://app?vid=08862012-2de3-499e-9563-64210ecbf73c"},"vehicle_type_id":"4","last_reported":1714071996,"current_range_meters":29600,"station_id":"ce4bgip2rcd13ifvqbb0","pricing_plan_id":"cebpf4jnsgd1na2vs0mg"},{"bike_id":"25dbca93-216a-45b0-8859-add010493d24","system_id":"levelo_inurba_marseille","lat":43.296263,"lon":5.377094,"is_reserved":false,"is_disabled":false,"rental_uris":{"android":"levelo://app?vid=25dbca93-216a-45b0-8859-add010493d24","ios":"levelo://app?vid=25dbca93-216a-45b0-8859-add010493d24"},"vehicle_type_id":"4","last_reported":1714071996,"current_range_meters":3600,"station_id":"ce4bgi92rcd13ifvqb90","pricing_plan_id":"cebpf4jnsgd1na2vs0mg"},{"bike_id":"3ded34fe-1a23-419c-99ba-604b1739cb54","system_id":"levelo_inurba_marseille","lat":43.295748,"lon":5.37522,"is_reserved":false,"is_disabled":false,"rental_uris":{"android":"levelo://app?vid=3ded34fe-1a23-419c-99ba-604b1739cb54","ios":"levelo://app?vid=3ded34fe-1a23-419c-99ba-604b1739cb54"},"vehicle_type_id":"4","last_reported":1714071996,"current_range_meters":2400,"station_id":"ce4bgh92rcd13ifvqb50","pricing_plan_id":"cebpf4jnsgd1na2vs0mg"},{"bike_id":"06faa28c-c383-472a-8623-33e59a8e03a6","system_id":"levelo_inurba_marseille","lat":43.295748,"lon":5.37522,"is_reserved":false,"is_disabled":false,"rental_uris":{"android":"levelo://app?vid=06faa28c-c383-472a-8623-33e59a8e03a6","ios":"levelo://app?vid=06faa28c-c383-472a-8623-33e59a8e03a6"},"vehicle_type_id":"4","last_reported":1714071996,"current_range_meters":31200,"station_id":"ce4bgh92rcd13ifvqb50","pricing_plan_id":"cebpf4jnsgd1na2vs0mg"},{"bike_id":"5095aea3-c628-4900-abf7-ac079f5e77b5","system_id":"levelo_inurba_marseille","lat":43.295748,"lon":5.37522,"is_reserved":false,"is_disabled":false,"rental_uris":{"android":"levelo://app?vid=5095aea3-c628-4900-abf7-ac079f5e77b5","ios":"levelo://app?vid=5095aea3-c628-4900-abf7-ac079f5e77b5"},"vehicle_type_id":"4","last_reported":1714071996,"current_range_meters":21600,"station_id":"ce4bgh92rcd13ifvqb50","pricing_plan_id":"cebpf4jnsgd1na2vs0mg"},{"bike_id":"bbd6a422-8f42-4c26-9646-7bcb85377e81","system_id":"levelo_inurba_marseille","lat":43.295748,"lon":5.37522,"is_reserved":false,"is_disabled":false,"rental_uris":{"android":"levelo://app?vid=bbd6a422-8f42-4c26-9646-7bcb85377e81","ios":"levelo://app?vid=bbd6a422-8f42-4c26-9646-7bcb85377e81"},"vehicle_type_id":"4","last_reported":1714071996,"current_range_meters":30400,"station_id":"ce4bgh92rcd13ifvqb50","pricing_plan_id":"cebpf4jnsgd1na2vs0mg"},{"bike_id":"109ad591-f655-45ae-9e3f-869e36a2d9da","system_id":"levelo_inurba_marseille","lat":43.295748,"lon":5.37522,"is_reserved":false,"is_disabled":false,"rental_uris":{"android":"levelo://app?vid=109ad591-f655-45ae-9e3f-869e36a2d9da","ios":"levelo://app?vid=109ad591-f655-45ae-9e3f-869e36a2d9da"},"vehicle_type_id":"4","last_reported":1714071996,"current_range_meters":27200,"station_id":"ce4bgh92rcd13ifvqb50","pricing_plan_id":"cebpf4jnsgd1na2vs0mg"},{"bike_id":"174057a0-ee79-4c7a-877c-313d54b98ebb","system_id":"levelo_inurba_marseille","lat":43.30434,"lon":5.3889,"is_reserved":false,"is_disabled":false,"rental_uris":{"android":"levelo://app?vid=174057a0-ee79-4c7a-877c-313d54b98ebb","ios":"levelo://app?vid=174057a0-ee79-4c7a-877c-313d54b98ebb"},"vehicle_type_id":"4","last_reported":1714071996,"current_range_meters":31200,"station_id":"ce4bgk12rcd13ifvqbi0","pricing_plan_id":"cebpf4jnsgd1na2vs0mg"},{"bike_id":"5d1f3bc1-568a-4396-b8d5-03dea19f62e2","system_id":"levelo_inurba_marseille","lat":43.30429,"lon":5.38889,"is_reserved":false,"is_disabled":false,"rental_uris":{"android":"levelo://app?vid=5d1f3bc1-568a-4396-b8d5-03dea19f62e2","ios":"levelo://app?vid=5d1f3bc1-568a-4396-b8d5-03dea19f62e2"},"vehicle_type_id":"4","last_reported":1714071996,"current_range_meters":0,"station_id":"ce4bgk12rcd13ifvqbi0","pricing_plan_id":"cebpf4jnsgd1na2vs0mg"},{"bike_id":"4ec88abf-0a78-4539-bbd2-087cbf780a5d","system_id":"levelo_inurba_marseille","lat":43.29572,"lon":5.37533,"is_reserved":false,"is_disabled":false,"rental_uris":{"android":"levelo://app?vid=4ec88abf-0a78-4539-bbd2-087cbf780a5d","ios":"levelo://app?vid=4ec88abf-0a78-4539-bbd2-087cbf780a5d"},"vehicle_type_id":"4","last_reported":1714071996,"current_range_meters":14000,"station_id":"ce4bgh92rcd13ifvqb50","pricing_plan_id":"cebpf4jnsgd1na2vs0mg"},{"bike_id":"2b6d6035-e292-4d14-847f-bee9b329cb14","system_id":"levelo_inurba_marseille","lat":43.29568,"lon":5.3752,"is_reserved":false,"is_disabled":false,"rental_uris":{"android":"levelo://app?vid=2b6d6035-e292-4d14-847f-bee9b329cb14","ios":"levelo://app?vid=2b6d6035-e292-4d14-847f-bee9b329cb14"},"vehicle_type_id":"4","last_reported":1714071996,"current_range_meters":31600,"station_id":"ce4bgh92rcd13ifvqb50","pricing_plan_id":"cebpf4jnsgd1na2vs0mg"},{"bike_id":"f9a87b06-aa0c-43f9-8002-2bcb2a79748a","system_id":"levelo_inurba_marseille","lat":43.296263,"lon":5.377094,"is_reserved":false,"is_disabled":false,"rental_uris":{"android":"levelo://app?vid=f9a87b06-aa0c-43f9-8002-2bcb2a79748a","ios":"levelo://app?vid=f9a87b06-aa0c-43f9-8002-2bcb2a79748a"},"vehicle_type_id":"4","last_reported":1714071996,"current_range_meters":14800,"station_id":"ce4bgi92rcd13ifvqb90","pricing_plan_id":"cebpf4jnsgd1na2vs0mg"},{"bike_id":"f8f067c2-aaba-4698-ac0c-c756f611c19f","system_id":"levelo_inurba_marseille","lat":43.304188,"lon":5.412904,"is_reserved":false,"is_disabled":false,"rental_uris":{"android":"levelo://app?vid=f8f067c2-aaba-4698-ac0c-c756f611c19f","ios":"levelo://app?vid=f8f067c2-aaba-4698-ac0c-c756f611c19f"},"vehicle_type_id":"4","last_reported":1714071996,"current_range_meters":10800,"station_id":"ce4bhop2rcd13ifvqh8g","pricing_plan_id":"cebpf4jnsgd1na2vs0mg"},{"bike_id":"1eb60026-a798-4578-921e-71a480d1aabb","system_id":"levelo_inurba_marseille","lat":43.29622,"lon":5.37719,"is_reserved":false,"is_disabled":false,"rental_uris":{"android":"levelo://app?vid=1eb60026-a798-4578-921e-71a480d1aabb","ios":"levelo://app?vid=1eb60026-a798-4578-921e-71a480d1aabb"},"vehicle_type_id":"4","last_reported":1714071996,"current_range_meters":2800,"station_id":"ce4bgi92rcd13ifvqb90","pricing_plan_id":"cebpf4jnsgd1na2vs0mg"},{"bike_id":"ccf718f7-b5c5-466a-bbaf-6cb2e4ecd91f","system_id":"levelo_inurba_marseille","lat":43.298037,"lon":5.381066,"is_reserved":false,"is_disabled":false,"rental_uris":{"android":"levelo://app?vid=ccf718f7-b5c5-466a-bbaf-6cb2e4ecd91f","ios":"levelo://app?vid=ccf718f7-b5c5-466a-bbaf-6cb2e4ecd91f"},"vehicle_type_id":"4","last_reported":1714071996,"current_range_meters":1600,"station_id":"ce4bgip2rcd13ifvqbb0","pricing_plan_id":"cebpf4jnsgd1na2vs0mg"},{"bike_id":"5235fbb6-ab44-453b-9495-971f53170f67","system_id":"levelo_inurba_marseille","lat":43.296263,"lon":5.377094,"is_reserved":false,"is_disabled":false,"rental_uris":{"android":"levelo://app?vid=5235fbb6-ab44-453b-9495-971f53170f67","ios":"levelo://app?vid=5235fbb6-ab44-453b-9495-971f53170f67"},"vehicle_type_id":"4","last_reported":1714071996,"current_range_meters":18400,"station_id":"ce4bgi92rcd13ifvqb90","pricing_plan_id":"cebpf4jnsgd1na2vs0mg"},{"bike_id":"1a3063d2-8306-475a-b259-a6d781d97907","system_id":"levelo_inurba_marseille","lat":43.286593,"lon":5.363346,"is_reserved":false,"is_disabled":false,"rental_uris":{"android":"levelo://app?vid=1a3063d2-8306-475a-b259-a6d781d97907","ios":"levelo://app?vid=1a3063d2-8306-475a-b259-a6d781d97907"},"vehicle_type_id":"4","last_reported":1714071996,"current_range_meters":400,"station_id":"ce4bhah2rcd13ifvqej0","pricing_plan_id":"cebpf4jnsgd1na2vs0mg"},{"bike_id":"49bd71bc-cd7f-4de7-92ce-6357ff4f7ce2","system_id":"levelo_inurba_marseille","lat":43.29536,"lon":5.37508,"is_reserved":false,"is_disabled":false,"rental_uris":{"android":"levelo://app?vid=49bd71bc-cd7f-4de7-92ce-6357ff4f7ce2","ios":"levelo://app?vid=49bd71bc-cd7f-4de7-92ce-6357ff4f7ce2"},"vehicle_type_id":"4","last_reported":1714071996,"current_range_meters":3200,"station_id":"ce4bgkp2rcd13ifvqbmg","pricing_plan_id":"cebpf4jnsgd1na2vs0mg"},{"bike_id":"ac41bcf5-a5e4-403f-a99a-4a8b54012eca","system_id":"levelo_inurba_marseille","lat":43.2998,"lon":5.38488,"is_reserved":false,"is_disabled":false,"rental_uris":{"android":"levelo://app?vid=ac41bcf5-a5e4-403f-a99a-4a8b54012eca","ios":"levelo://app?vid=ac41bcf5-a5e4-403f-a99a-4a8b54012eca"},"vehicle_type_id":"4","last_reported":1714071996,"current_range_meters":27200,"station_id":"ce4bgj92rcd13ifvqbd0","pricing_plan_id":"cebpf4jnsgd1na2vs0mg"},{"bike_id":"bba7f1db-7e52-4b30-a486-97e76b503eaf","system_id":"levelo_inurba_marseille","lat":43.299761,"lon":5.38488,"is_reserved":false,"is_disabled":false,"rental_uris":{"android":"levelo://app?vid=bba7f1db-7e52-4b30-a486-97e76b503eaf","ios":"levelo://app?vid=bba7f1db-7e52-4b30-a486-97e76b503eaf"},"vehicle_type_id":"4","last_reported":1714071996,"current_range_meters":10400,"station_id":"ce4bgj92rcd13ifvqbd0","pricing_plan_id":"cebpf4jnsgd1na2vs0mg"},{"bike_id":"03a475c2-b1ee-4fec-af8e-934ab723cdae","system_id":"levelo_inurba_marseille","lat":43.299717,"lon":5.384845,"is_reserved":false,"is_disabled":false,"rental_uris":{"android":"levelo://app?vid=03a475c2-b1ee-4fec-af8e-934ab723cdae","ios":"levelo://app?vid=03a475c2-b1ee-4fec-af8e-934ab723cdae"},"vehicle_type_id":"4","last_reported":1714071996,"current_range_meters":10000,"station_id":"ce4bgj92rcd13ifvqbd0","pricing_plan_id":"cebpf4jnsgd1na2vs0mg"},{"bike_id":"3db0d31e-7d2f-4bfd-b251-1ca9f5a14d64","system_id":"levelo_inurba_marseille","lat":43.299717,"lon":5.384845,"is_reserved":false,"is_disabled":false,"rental_uris":{"android":"levelo://app?vid=3db0d31e-7d2f-4bfd-b251-1ca9f5a14d64","ios":"levelo://app?vid=3db0d31e-7d2f-4bfd-b251-1ca9f5a14d64"},"vehicle_type_id":"4","last_reported":1714071996,"current_range_meters":30800,"station_id":"ce4bgj92rcd13ifvqbd0","pricing_plan_id":"cebpf4jnsgd1na2vs0mg"},{"bike_id":"8f201149-fa08-4693-8ef8-87903db568b9","system_id":"levelo_inurba_marseille","lat":43.299717,"lon":5.384845,"is_reserved":false,"is_disabled":false,"rental_uris":{"android":"levelo://app?vid=8f201149-fa08-4693-8ef8-87903db568b9","ios":"levelo://app?vid=8f201149-fa08-4693-8ef8-87903db568b9"},"vehicle_type_id":"4","last_reported":1714071996,"current_range_meters":14000,"station_id":"ce4bgj92rcd13ifvqbd0","pricing_plan_id":"cebpf4jnsgd1na2vs0mg"},{"bike_id":"eda677d4-a4fb-4ce4-843d-2f11d12b1ab0","system_id":"levelo_inurba_marseille","lat":43.299724,"lon":5.384848,"is_reserved":false,"is_disabled":false,"rental_uris":{"android":"levelo://app?vid=eda677d4-a4fb-4ce4-843d-2f11d12b1ab0","ios":"levelo://app?vid=eda677d4-a4fb-4ce4-843d-2f11d12b1ab0"},"vehicle_type_id":"4","last_reported":1714071996,"current_range_meters":26800,"station_id":"ce4bgj92rcd13ifvqbd0","pricing_plan_id":"cebpf4jnsgd1na2vs0mg"},{"bike_id":"36b29136-7eed-46ce-9ed0-256fa6d6a6c4","system_id":"levelo_inurba_marseille","lat":43.299717,"lon":5.384845,"is_reserved":false,"is_disabled":false,"rental_uris":{"android":"levelo://app?vid=36b29136-7eed-46ce-9ed0-256fa6d6a6c4","ios":"levelo://app?vid=36b29136-7eed-46ce-9ed0-256fa6d6a6c4"},"vehicle_type_id":"4","last_reported":1714071996,"current_range_meters":24400,"station_id":"ce4bgj92rcd13ifvqbd0","pricing_plan_id":"cebpf4jnsgd1na2vs0mg"},{"bike_id":"43c45e4b-f1b8-48e3-99c9-2b8614e0645d","system_id":"levelo_inurba_marseille","lat":43.299724,"lon":5.384848,"is_reserved":false,"is_disabled":false,"rental_uris":{"android":"levelo://app?vid=43c45e4b-f1b8-48e3-99c9-2b8614e0645d","ios":"levelo://app?vid=43c45e4b-f1b8-48e3-99c9-2b8614e0645d"},"vehicle_type_id":"4","last_reported":1714071996,"current_range_meters":5600,"station_id":"ce4bgj92rcd13ifvqbd0","pricing_plan_id":"cebpf4jnsgd1na2vs0mg"},{"bike_id":"13fc53aa-4b1e-49c4-95c4-69f62defb727","system_id":"levelo_inurba_marseille","lat":43.299378,"lon":5.38495,"is_reserved":false,"is_disabled":false,"rental_uris":{"android":"levelo://app?vid=13fc53aa-4b1e-49c4-95c4-69f62defb727","ios":"levelo://app?vid=13fc53aa-4b1e-49c4-95c4-69f62defb727"},"vehicle_type_id":"4","last_reported":1714071996,"current_range_meters":16400,"station_id":"","pricing_plan_id":"cebpf4jnsgd1na2vs0mg"},{"bike_id":"a646e6c3-4eeb-4a9d-8705-deee8df0279d","system_id":"levelo_inurba_marseille","lat":43.29602,"lon":5.381084,"is_reserved":false,"is_disabled":false,"rental_uris":{"android":"levelo://app?vid=a646e6c3-4eeb-4a9d-8705-deee8df0279d","ios":"levelo://app?vid=a646e6c3-4eeb-4a9d-8705-deee8df0279d"},"vehicle_type_id":"4","last_reported":1714071996,"current_range_meters":13600,"station_id":"ce4bgl12rcd13ifvqbo0","pricing_plan_id":"cebpf4jnsgd1na2vs0mg"},{"bike_id":"84cfdeca-c76e-4761-a574-dc77d623e07f","system_id":"levelo_inurba_marseille","lat":43.29602,"lon":5.381084,"is_reserved":false,"is_disabled":false,"rental_uris":{"android":"levelo://app?vid=84cfdeca-c76e-4761-a574-dc77d623e07f","ios":"levelo://app?vid=84cfdeca-c76e-4761-a574-dc77d623e07f"},"vehicle_type_id":"4","last_reported":1714071996,"current_range_meters":5200,"station_id":"ce4bgl12rcd13ifvqbo0","pricing_plan_id":"cebpf4jnsgd1na2vs0mg"},{"bike_id":"2e193feb-045f-42e3-90c6-3d7835dc5f86","system_id":"levelo_inurba_marseille","lat":43.29601,"lon":5.381084,"is_reserved":false,"is_disabled":false,"rental_uris":{"android":"levelo://app?vid=2e193feb-045f-42e3-90c6-3d7835dc5f86","ios":"levelo://app?vid=2e193feb-045f-42e3-90c6-3d7835dc5f86"},"vehicle_type_id":"4","last_reported":1714071996,"current_range_meters":0,"station_id":"ce4bgl12rcd13ifvqbo0","pricing_plan_id":"cebpf4jnsgd1na2vs0mg"},{"bike_id":"69b81ecb-e108-4428-89ec-2d2c813b0e91","system_id":"levelo_inurba_marseille","lat":43.29602,"lon":5.381084,"is_reserved":false,"is_disabled":false,"rental_uris":{"android":"levelo://app?vid=69b81ecb-e108-4428-89ec-2d2c813b0e91","ios":"levelo://app?vid=69b81ecb-e108-4428-89ec-2d2c813b0e91"},"vehicle_type_id":"4","last_reported":1714071996,"current_range_meters":10800,"station_id":"ce4bgl12rcd13ifvqbo0","pricing_plan_id":"cebpf4jnsgd1na2vs0mg"},{"bike_id":"e318bfc9-90a9-423e-bf1b-04995180d9a0","system_id":"levelo_inurba_marseille","lat":43.29602,"lon":5.381084,"is_reserved":false,"is_disabled":false,"rental_uris":{"android":"levelo://app?vid=e318bfc9-90a9-423e-bf1b-04995180d9a0","ios":"levelo://app?vid=e318bfc9-90a9-423e-bf1b-04995180d9a0"},"vehicle_type_id":"4","last_reported":1714071996,"current_range_meters":10800,"station_id":"ce4bgl12rcd13ifvqbo0","pricing_plan_id":"cebpf4jnsgd1na2vs0mg"},{"bike_id":"fe5bf943-7807-46fe-817a-dab4728f36b1","system_id":"levelo_inurba_marseille","lat":43.29602,"lon":5.381084,"is_reserved":false,"is_disabled":false,"rental_uris":{"android":"levelo://app?vid=fe5bf943-7807-46fe-817a-dab4728f36b1","ios":"levelo://app?vid=fe5bf943-7807-46fe-817a-dab4728f36b1"},"vehicle_type_id":"4","last_reported":1714071996,"current_range_meters":14800,"station_id":"ce4bgl12rcd13ifvqbo0","pricing_plan_id":"cebpf4jnsgd1na2vs0mg"},{"bike_id":"edeabc1f-e007-46a3-a19e-a87050636288","system_id":"levelo_inurba_marseille","lat":43.293233,"lon":5.371657,"is_reserved":false,"is_disabled":false,"rental_uris":{"android":"levelo://app?vid=edeabc1f-e007-46a3-a19e-a87050636288","ios":"levelo://app?vid=edeabc1f-e007-46a3-a19e-a87050636288"},"vehicle_type_id":"4","last_reported":1714071996,"current_range_meters":25600,"station_id":"ce4bgh92rcd13ifvqb40","pricing_plan_id":"cebpf4jnsgd1na2vs0mg"},{"bike_id":"b1c1bfdd-293a-448e-98b9-f4abaee03231","system_id":"levelo_inurba_marseille","lat":43.29309,"lon":5.37164,"is_reserved":false,"is_disabled":false,"rental_uris":{"android":"levelo://app?vid=b1c1bfdd-293a-448e-98b9-f4abaee03231","ios":"levelo://app?vid=b1c1bfdd-293a-448e-98b9-f4abaee03231"},"vehicle_type_id":"4","last_reported":1714071996,"current_range_meters":0,"station_id":"ce4bgh92rcd13ifvqb40","pricing_plan_id":"cebpf4jnsgd1na2vs0mg"},{"bike_id":"305c5d8f-1c05-4e91-9daa-9d2a66acfe4c","system_id":"levelo_inurba_marseille","lat":43.2931,"lon":5.3718,"is_reserved":false,"is_disabled":false,"rental_uris":{"android":"levelo://app?vid=305c5d8f-1c05-4e91-9daa-9d2a66acfe4c","ios":"levelo://app?vid=305c5d8f-1c05-4e91-9daa-9d2a66acfe4c"},"vehicle_type_id":"4","last_reported":1714071996,"current_range_meters":15200,"station_id":"ce4bgh92rcd13ifvqb40","pricing_plan_id":"cebpf4jnsgd1na2vs0mg"},{"bike_id":"17436164-7e25-4df3-90e6-631e88ebe3ed","system_id":"levelo_inurba_marseille","lat":43.2931,"lon":5.37181,"is_reserved":false,"is_disabled":false,"rental_uris":{"android":"levelo://app?vid=17436164-7e25-4df3-90e6-631e88ebe3ed","ios":"levelo://app?vid=17436164-7e25-4df3-90e6-631e88ebe3ed"},"vehicle_type_id":"4","last_reported":1714071996,"current_range_meters":9600,"station_id":"ce4bgh92rcd13ifvqb40","pricing_plan_id":"cebpf4jnsgd1na2vs0mg"},{"bike_id":"5ec59abb-f348-4212-a7d4-1a3dfb91b71d","system_id":"levelo_inurba_marseille","lat":43.29309,"lon":5.37178,"is_reserved":false,"is_disabled":false,"rental_uris":{"android":"levelo://app?vid=5ec59abb-f348-4212-a7d4-1a3dfb91b71d","ios":"levelo://app?vid=5ec59abb-f348-4212-a7d4-1a3dfb91b71d"},"vehicle_type_id":"4","last_reported":1714071996,"current_range_meters":8400,"station_id":"ce4bgh92rcd13ifvqb40","pricing_plan_id":"cebpf4jnsgd1na2vs0mg"},{"bike_id":"a8cf6d21-2305-4ecf-a8a9-727b979f3136","system_id":"levelo_inurba_marseille","lat":43.29308,"lon":5.37174,"is_reserved":false,"is_disabled":false,"rental_uris":{"android":"levelo://app?vid=a8cf6d21-2305-4ecf-a8a9-727b979f3136","ios":"levelo://app?vid=a8cf6d21-2305-4ecf-a8a9-727b979f3136"},"vehicle_type_id":"4","last_reported":1714071996,"current_range_meters":5200,"station_id":"ce4bgh92rcd13ifvqb40","pricing_plan_id":"cebpf4jnsgd1na2vs0mg"},{"bike_id":"53a83b1d-84de-4c98-90ce-77b056857856","system_id":"levelo_inurba_marseille","lat":43.29308,"lon":5.37175,"is_reserved":false,"is_disabled":false,"rental_uris":{"android":"levelo://app?vid=53a83b1d-84de-4c98-90ce-77b056857856","ios":"levelo://app?vid=53a83b1d-84de-4c98-90ce-77b056857856"},"vehicle_type_id":"4","last_reported":1714071996,"current_range_meters":6400,"station_id":"ce4bgh92rcd13ifvqb40","pricing_plan_id":"cebpf4jnsgd1na2vs0mg"},{"bike_id":"4706ec81-8520-400d-b878-cbbfa34d49ed","system_id":"levelo_inurba_marseille","lat":43.292749,"lon":5.368402,"is_reserved":false,"is_disabled":false,"rental_uris":{"android":"levelo://app?vid=4706ec81-8520-400d-b878-cbbfa34d49ed","ios":"levelo://app?vid=4706ec81-8520-400d-b878-cbbfa34d49ed"},"vehicle_type_id":"4","last_reported":1714071996,"current_range_meters":3600,"station_id":"ce4bhbp2rcd13ifvqesg","pricing_plan_id":"cebpf4jnsgd1na2vs0mg"},{"bike_id":"77fa9a90-c5b1-4aab-a90d-e2ec370a90ba","system_id":"levelo_inurba_marseille","lat":43.29307,"lon":5.37178,"is_reserved":false,"is_disabled":false,"rental_uris":{"android":"levelo://app?vid=77fa9a90-c5b1-4aab-a90d-e2ec370a90ba","ios":"levelo://app?vid=77fa9a90-c5b1-4aab-a90d-e2ec370a90ba"},"vehicle_type_id":"4","last_reported":1714071996,"current_range_meters":0,"station_id":"ce4bgh92rcd13ifvqb40","pricing_plan_id":"cebpf4jnsgd1na2vs0mg"},{"bike_id":"c3b83bfc-ee3c-47fa-86ed-93008b3c0c40","system_id":"levelo_inurba_marseille","lat":43.29306,"lon":5.37181,"is_reserved":false,"is_disabled":false,"rental_uris":{"android":"levelo://app?vid=c3b83bfc-ee3c-47fa-86ed-93008b3c0c40","ios":"levelo://app?vid=c3b83bfc-ee3c-47fa-86ed-93008b3c0c40"},"vehicle_type_id":"4","last_reported":1714071996,"current_range_meters":10000,"station_id":"ce4bgh92rcd13ifvqb40","pricing_plan_id":"cebpf4jnsgd1na2vs0mg"},{"bike_id":"07afa7c6-768c-4d18-8e84-433755179ec7","system_id":"levelo_inurba_marseille","lat":43.292749,"lon":5.368402,"is_reserved":false,"is_disabled":false,"rental_uris":{"android":"levelo://app?vid=07afa7c6-768c-4d18-8e84-433755179ec7","ios":"levelo://app?vid=07afa7c6-768c-4d18-8e84-433755179ec7"},"vehicle_type_id":"4","last_reported":1714071996,"current_range_meters":7600,"station_id":"ce4bhbp2rcd13ifvqesg","pricing_plan_id":"cebpf4jnsgd1na2vs0mg"},{"bike_id":"3190e011-9d54-48c3-8df4-24c375041388","system_id":"levelo_inurba_marseille","lat":43.292749,"lon":5.368402,"is_reserved":false,"is_disabled":false,"rental_uris":{"android":"levelo://app?vid=3190e011-9d54-48c3-8df4-24c375041388","ios":"levelo://app?vid=3190e011-9d54-48c3-8df4-24c375041388"},"vehicle_type_id":"4","last_reported":1714071996,"current_range_meters":18000,"station_id":"ce4bhbp2rcd13ifvqesg","pricing_plan_id":"cebpf4jnsgd1na2vs0mg"},{"bike_id":"dfb04e16-d911-4e42-8da5-a593a152981e","system_id":"levelo_inurba_marseille","lat":43.292749,"lon":5.368402,"is_reserved":false,"is_disabled":false,"rental_uris":{"android":"levelo://app?vid=dfb04e16-d911-4e42-8da5-a593a152981e","ios":"levelo://app?vid=dfb04e16-d911-4e42-8da5-a593a152981e"},"vehicle_type_id":"4","last_reported":1714071996,"current_range_meters":1600,"station_id":"ce4bhbp2rcd13ifvqesg","pricing_plan_id":"cebpf4jnsgd1na2vs0mg"},{"bike_id":"79699142-d3c1-4e23-af16-6236b6589050","system_id":"levelo_inurba_marseille","lat":43.304274,"lon":5.388873,"is_reserved":false,"is_disabled":false,"rental_uris":{"android":"levelo://app?vid=79699142-d3c1-4e23-af16-6236b6589050","ios":"levelo://app?vid=79699142-d3c1-4e23-af16-6236b6589050"},"vehicle_type_id":"4","last_reported":1714071996,"current_range_meters":400,"station_id":"ce4bgk12rcd13ifvqbi0","pricing_plan_id":"cebpf4jnsgd1na2vs0mg"},{"bike_id":"2752201c-79ee-4f40-880a-866f9610d05c","system_id":"levelo_inurba_marseille","lat":43.292749,"lon":5.368402,"is_reserved":false,"is_disabled":false,"rental_uris":{"android":"levelo://app?vid=2752201c-79ee-4f40-880a-866f9610d05c","ios":"levelo://app?vid=2752201c-79ee-4f40-880a-866f9610d05c"},"vehicle_type_id":"4","last_reported":1714071996,"current_range_meters":4400,"station_id":"ce4bhbp2rcd13ifvqesg","pricing_plan_id":"cebpf4jnsgd1na2vs0mg"},{"bike_id":"dfb36066-65c6-4105-96bb-5d7376f5ca56","system_id":"levelo_inurba_marseille","lat":43.292749,"lon":5.368402,"is_reserved":false,"is_disabled":false,"rental_uris":{"android":"levelo://app?vid=dfb36066-65c6-4105-96bb-5d7376f5ca56","ios":"levelo://app?vid=dfb36066-65c6-4105-96bb-5d7376f5ca56"},"vehicle_type_id":"4","last_reported":1714071996,"current_range_meters":18000,"station_id":"ce4bhbp2rcd13ifvqesg","pricing_plan_id":"cebpf4jnsgd1na2vs0mg"},{"bike_id":"7c7ac130-f88e-42b3-ba55-9fb6cb8abd02","system_id":"levelo_inurba_marseille","lat":43.292749,"lon":5.368402,"is_reserved":false,"is_disabled":false,"rental_uris":{"android":"levelo://app?vid=7c7ac130-f88e-42b3-ba55-9fb6cb8abd02","ios":"levelo://app?vid=7c7ac130-f88e-42b3-ba55-9fb6cb8abd02"},"vehicle_type_id":"4","last_reported":1714071996,"current_range_meters":19600,"station_id":"ce4bhbp2rcd13ifvqesg","pricing_plan_id":"cebpf4jnsgd1na2vs0mg"},{"bike_id":"fda82c65-173c-4659-9b20-7fcfcae0f822","system_id":"levelo_inurba_marseille","lat":43.29269,"lon":5.36841,"is_reserved":false,"is_disabled":false,"rental_uris":{"android":"levelo://app?vid=fda82c65-173c-4659-9b20-7fcfcae0f822","ios":"levelo://app?vid=fda82c65-173c-4659-9b20-7fcfcae0f822"},"vehicle_type_id":"4","last_reported":1714071996,"current_range_meters":2000,"station_id":"ce4bhbp2rcd13ifvqesg","pricing_plan_id":"cebpf4jnsgd1na2vs0mg"},{"bike_id":"e2e6c8bd-8e99-4f3a-8d51-e4c02009ccda","system_id":"levelo_inurba_marseille","lat":43.292749,"lon":5.368398,"is_reserved":false,"is_disabled":false,"rental_uris":{"android":"levelo://app?vid=e2e6c8bd-8e99-4f3a-8d51-e4c02009ccda","ios":"levelo://app?vid=e2e6c8bd-8e99-4f3a-8d51-e4c02009ccda"},"vehicle_type_id":"4","last_reported":1714071996,"current_range_meters":19200,"station_id":"ce4bhbp2rcd13ifvqesg","pricing_plan_id":"cebpf4jnsgd1na2vs0mg"},{"bike_id":"9aba532c-8a2e-4727-ab9f-473717c067be","system_id":"levelo_inurba_marseille","lat":43.292749,"lon":5.368402,"is_reserved":false,"is_disabled":false,"rental_uris":{"android":"levelo://app?vid=9aba532c-8a2e-4727-ab9f-473717c067be","ios":"levelo://app?vid=9aba532c-8a2e-4727-ab9f-473717c067be"},"vehicle_type_id":"4","last_reported":1714071996,"current_range_meters":0,"station_id":"ce4bhbp2rcd13ifvqesg","pricing_plan_id":"cebpf4jnsgd1na2vs0mg"},{"bike_id":"a922152f-a510-4d01-8bb6-80b7d72e5fca","system_id":"levelo_inurba_marseille","lat":43.293249,"lon":5.371578,"is_reserved":false,"is_disabled":false,"rental_uris":{"android":"levelo://app?vid=a922152f-a510-4d01-8bb6-80b7d72e5fca","ios":"levelo://app?vid=a922152f-a510-4d01-8bb6-80b7d72e5fca"},"vehicle_type_id":"4","last_reported":1714071996,"current_range_meters":9200,"station_id":"ce4bgh92rcd13ifvqb40","pricing_plan_id":"cebpf4jnsgd1na2vs0mg"},{"bike_id":"d21edb1d-9d32-41b7-9d79-8f7eabc25454","system_id":"levelo_inurba_marseille","lat":43.29312,"lon":5.37464,"is_reserved":false,"is_disabled":false,"rental_uris":{"android":"levelo://app?vid=d21edb1d-9d32-41b7-9d79-8f7eabc25454","ios":"levelo://app?vid=d21edb1d-9d32-41b7-9d79-8f7eabc25454"},"vehicle_type_id":"4","last_reported":1714071996,"current_range_meters":18400,"station_id":"ce4bgi12rcd13ifvqb70","pricing_plan_id":"cebpf4jnsgd1na2vs0mg"},{"bike_id":"c77841c8-e6fc-4e11-95e7-8b419a5ab50d","system_id":"levelo_inurba_marseille","lat":43.306008,"lon":5.39358,"is_reserved":false,"is_disabled":false,"rental_uris":{"android":"levelo://app?vid=c77841c8-e6fc-4e11-95e7-8b419a5ab50d","ios":"levelo://app?vid=c77841c8-e6fc-4e11-95e7-8b419a5ab50d"},"vehicle_type_id":"4","last_reported":1714071996,"current_range_meters":0,"station_id":"ce4bh0p2rcd13ifvqd80","pricing_plan_id":"cebpf4jnsgd1na2vs0mg"},{"bike_id":"15331fb4-9a62-40fb-b13a-09adf713e79a","system_id":"levelo_inurba_marseille","lat":43.305994,"lon":5.393687,"is_reserved":false,"is_disabled":false,"rental_uris":{"android":"levelo://app?vid=15331fb4-9a62-40fb-b13a-09adf713e79a","ios":"levelo://app?vid=15331fb4-9a62-40fb-b13a-09adf713e79a"},"vehicle_type_id":"4","last_reported":1714071996,"current_range_meters":31200,"station_id":"ce4bh0p2rcd13ifvqd80","pricing_plan_id":"cebpf4jnsgd1na2vs0mg"},{"bike_id":"a402c28d-23fd-4c06-9d67-2d3696127782","system_id":"levelo_inurba_marseille","lat":43.305994,"lon":5.393687,"is_reserved":false,"is_disabled":false,"rental_uris":{"android":"levelo://app?vid=a402c28d-23fd-4c06-9d67-2d3696127782","ios":"levelo://app?vid=a402c28d-23fd-4c06-9d67-2d3696127782"},"vehicle_type_id":"4","last_reported":1714071996,"current_range_meters":17600,"station_id":"ce4bh0p2rcd13ifvqd80","pricing_plan_id":"cebpf4jnsgd1na2vs0mg"},{"bike_id":"b947b593-9064-4653-b0c4-cb69839ec0a0","system_id":"levelo_inurba_marseille","lat":43.305963,"lon":5.393617,"is_reserved":false,"is_disabled":false,"rental_uris":{"android":"levelo://app?vid=b947b593-9064-4653-b0c4-cb69839ec0a0","ios":"levelo://app?vid=b947b593-9064-4653-b0c4-cb69839ec0a0"},"vehicle_type_id":"4","last_reported":1714071996,"current_range_meters":8400,"station_id":"ce4bh0p2rcd13ifvqd80","pricing_plan_id":"cebpf4jnsgd1na2vs0mg"},{"bike_id":"e4c4084b-3ddd-47d6-b8e5-cb90518b885a","system_id":"levelo_inurba_marseille","lat":43.305994,"lon":5.393687,"is_reserved":false,"is_disabled":false,"rental_uris":{"android":"levelo://app?vid=e4c4084b-3ddd-47d6-b8e5-cb90518b885a","ios":"levelo://app?vid=e4c4084b-3ddd-47d6-b8e5-cb90518b885a"},"vehicle_type_id":"4","last_reported":1714071996,"current_range_meters":400,"station_id":"ce4bh0p2rcd13ifvqd80","pricing_plan_id":"cebpf4jnsgd1na2vs0mg"},{"bike_id":"e53b1ddc-2862-421e-8f21-6bb3b089c40a","system_id":"levelo_inurba_marseille","lat":43.305994,"lon":5.393687,"is_reserved":false,"is_disabled":false,"rental_uris":{"android":"levelo://app?vid=e53b1ddc-2862-421e-8f21-6bb3b089c40a","ios":"levelo://app?vid=e53b1ddc-2862-421e-8f21-6bb3b089c40a"},"vehicle_type_id":"4","last_reported":1714071996,"current_range_meters":29200,"station_id":"ce4bh0p2rcd13ifvqd80","pricing_plan_id":"cebpf4jnsgd1na2vs0mg"},{"bike_id":"37dd76c5-59d5-4164-b89e-421573032396","system_id":"levelo_inurba_marseille","lat":43.305994,"lon":5.393687,"is_reserved":false,"is_disabled":false,"rental_uris":{"android":"levelo://app?vid=37dd76c5-59d5-4164-b89e-421573032396","ios":"levelo://app?vid=37dd76c5-59d5-4164-b89e-421573032396"},"vehicle_type_id":"4","last_reported":1714071996,"current_range_meters":28000,"station_id":"ce4bh0p2rcd13ifvqd80","pricing_plan_id":"cebpf4jnsgd1na2vs0mg"},{"bike_id":"7805857b-88ca-44ec-ae70-4a541ff907ee","system_id":"levelo_inurba_marseille","lat":43.2936,"lon":5.37835,"is_reserved":false,"is_disabled":false,"rental_uris":{"android":"levelo://app?vid=7805857b-88ca-44ec-ae70-4a541ff907ee","ios":"levelo://app?vid=7805857b-88ca-44ec-ae70-4a541ff907ee"},"vehicle_type_id":"4","last_reported":1714071996,"current_range_meters":6800,"station_id":"ce4bgjh2rcd13ifvqbf0","pricing_plan_id":"cebpf4jnsgd1na2vs0mg"},{"bike_id":"e8aef548-5586-441e-9305-d711edc5a08d","system_id":"levelo_inurba_marseille","lat":43.2936,"lon":5.37835,"is_reserved":false,"is_disabled":false,"rental_uris":{"android":"levelo://app?vid=e8aef548-5586-441e-9305-d711edc5a08d","ios":"levelo://app?vid=e8aef548-5586-441e-9305-d711edc5a08d"},"vehicle_type_id":"4","last_reported":1714071996,"current_range_meters":2000,"station_id":"ce4bgjh2rcd13ifvqbf0","pricing_plan_id":"cebpf4jnsgd1na2vs0mg"},{"bike_id":"5e4b8906-0084-4f45-9017-3c64aea5b3dd","system_id":"levelo_inurba_marseille","lat":43.302992,"lon":5.392136,"is_reserved":false,"is_disabled":false,"rental_uris":{"android":"levelo://app?vid=5e4b8906-0084-4f45-9017-3c64aea5b3dd","ios":"levelo://app?vid=5e4b8906-0084-4f45-9017-3c64aea5b3dd"},"vehicle_type_id":"4","last_reported":1714071996,"current_range_meters":2400,"station_id":"ce4bgkh2rcd13ifvqbk0","pricing_plan_id":"cebpf4jnsgd1na2vs0mg"},{"bike_id":"1c404ffe-c47b-4284-95c0-57818318bcf5","system_id":"levelo_inurba_marseille","lat":43.2936,"lon":5.37835,"is_reserved":false,"is_disabled":false,"rental_uris":{"android":"levelo://app?vid=1c404ffe-c47b-4284-95c0-57818318bcf5","ios":"levelo://app?vid=1c404ffe-c47b-4284-95c0-57818318bcf5"},"vehicle_type_id":"4","last_reported":1714071996,"current_range_meters":28400,"station_id":"ce4bgjh2rcd13ifvqbf0","pricing_plan_id":"cebpf4jnsgd1na2vs0mg"},{"bike_id":"dcbed6a0-da46-41c1-b2ba-356fa0271e73","system_id":"levelo_inurba_marseille","lat":43.30094,"lon":5.390702,"is_reserved":false,"is_disabled":false,"rental_uris":{"android":"levelo://app?vid=dcbed6a0-da46-41c1-b2ba-356fa0271e73","ios":"levelo://app?vid=dcbed6a0-da46-41c1-b2ba-356fa0271e73"},"vehicle_type_id":"4","last_reported":1714071996,"current_range_meters":0,"station_id":"ce4bh192rcd13ifvqdb0","pricing_plan_id":"cebpf4jnsgd1na2vs0mg"},{"bike_id":"b01c7148-ef21-495a-8120-023d1daaf8d1","system_id":"levelo_inurba_marseille","lat":43.300852,"lon":5.390859,"is_reserved":false,"is_disabled":false,"rental_uris":{"android":"levelo://app?vid=b01c7148-ef21-495a-8120-023d1daaf8d1","ios":"levelo://app?vid=b01c7148-ef21-495a-8120-023d1daaf8d1"},"vehicle_type_id":"4","last_reported":1714071996,"current_range_meters":26400,"station_id":"ce4bh192rcd13ifvqdb0","pricing_plan_id":"cebpf4jnsgd1na2vs0mg"},{"bike_id":"a56ed800-d889-46b5-b212-b4ef1f41e091","system_id":"levelo_inurba_marseille","lat":43.29227,"lon":5.36059,"is_reserved":false,"is_disabled":false,"rental_uris":{"android":"levelo://app?vid=a56ed800-d889-46b5-b212-b4ef1f41e091","ios":"levelo://app?vid=a56ed800-d889-46b5-b212-b4ef1f41e091"},"vehicle_type_id":"4","last_reported":1714071996,"current_range_meters":2800,"station_id":"","pricing_plan_id":"cebpf4jnsgd1na2vs0mg"},{"bike_id":"141d7240-8076-4d62-b996-1a355559914f","system_id":"levelo_inurba_marseille","lat":43.292311,"lon":5.360731,"is_reserved":false,"is_disabled":false,"rental_uris":{"android":"levelo://app?vid=141d7240-8076-4d62-b996-1a355559914f","ios":"levelo://app?vid=141d7240-8076-4d62-b996-1a355559914f"},"vehicle_type_id":"4","last_reported":1714071996,"current_range_meters":25600,"station_id":"ce4bhbh2rcd13ifvqeqg","pricing_plan_id":"cebpf4jnsgd1na2vs0mg"},{"bike_id":"b4988ccd-b6b7-4df5-8dd2-6261e0e327c0","system_id":"levelo_inurba_marseille","lat":43.292311,"lon":5.360731,"is_reserved":false,"is_disabled":false,"rental_uris":{"android":"levelo://app?vid=b4988ccd-b6b7-4df5-8dd2-6261e0e327c0","ios":"levelo://app?vid=b4988ccd-b6b7-4df5-8dd2-6261e0e327c0"},"vehicle_type_id":"4","last_reported":1714071996,"current_range_meters":30000,"station_id":"ce4bhbh2rcd13ifvqeqg","pricing_plan_id":"cebpf4jnsgd1na2vs0mg"},{"bike_id":"9600d761-551a-424e-82a7-096b8f31f589","system_id":"levelo_inurba_marseille","lat":43.29222,"lon":5.36075,"is_reserved":false,"is_disabled":false,"rental_uris":{"android":"levelo://app?vid=9600d761-551a-424e-82a7-096b8f31f589","ios":"levelo://app?vid=9600d761-551a-424e-82a7-096b8f31f589"},"vehicle_type_id":"4","last_reported":1714071996,"current_range_meters":0,"station_id":"ce4bhbh2rcd13ifvqeqg","pricing_plan_id":"cebpf4jnsgd1na2vs0mg"},{"bike_id":"3820c8bb-8e3c-4681-a22d-e2e1d0f2c903","system_id":"levelo_inurba_marseille","lat":43.292311,"lon":5.360731,"is_reserved":false,"is_disabled":false,"rental_uris":{"android":"levelo://app?vid=3820c8bb-8e3c-4681-a22d-e2e1d0f2c903","ios":"levelo://app?vid=3820c8bb-8e3c-4681-a22d-e2e1d0f2c903"},"vehicle_type_id":"4","last_reported":1714071996,"current_range_meters":26800,"station_id":"ce4bhbh2rcd13ifvqeqg","pricing_plan_id":"cebpf4jnsgd1na2vs0mg"},{"bike_id":"bec36c1e-a06c-44b2-9a5c-edaf108cb856","system_id":"levelo_inurba_marseille","lat":43.29175,"lon":5.368995,"is_reserved":false,"is_disabled":false,"rental_uris":{"android":"levelo://app?vid=bec36c1e-a06c-44b2-9a5c-edaf108cb856","ios":"levelo://app?vid=bec36c1e-a06c-44b2-9a5c-edaf108cb856"},"vehicle_type_id":"4","last_reported":1714071996,"current_range_meters":0,"station_id":"","pricing_plan_id":"cebpf4jnsgd1na2vs0mg"},{"bike_id":"b53afe13-27b2-45b7-8522-ea3780a4f4f7","system_id":"levelo_inurba_marseille","lat":43.29272,"lon":5.376282,"is_reserved":false,"is_disabled":false,"rental_uris":{"android":"levelo://app?vid=b53afe13-27b2-45b7-8522-ea3780a4f4f7","ios":"levelo://app?vid=b53afe13-27b2-45b7-8522-ea3780a4f4f7"},"vehicle_type_id":"4","last_reported":1714071996,"current_range_meters":0,"station_id":"","pricing_plan_id":"cebpf4jnsgd1na2vs0mg"},{"bike_id":"381f976f-18d6-4bcb-92ca-8e782a1d1561","system_id":"levelo_inurba_marseille","lat":43.29265,"lon":5.37632,"is_reserved":false,"is_disabled":false,"rental_uris":{"android":"levelo://app?vid=381f976f-18d6-4bcb-92ca-8e782a1d1561","ios":"levelo://app?vid=381f976f-18d6-4bcb-92ca-8e782a1d1561"},"vehicle_type_id":"4","last_reported":1714071996,"current_range_meters":10400,"station_id":"","pricing_plan_id":"cebpf4jnsgd1na2vs0mg"},{"bike_id":"76e0122d-924d-4040-9e24-3001e861f245","system_id":"levelo_inurba_marseille","lat":43.29263,"lon":5.376265,"is_reserved":false,"is_disabled":false,"rental_uris":{"android":"levelo://app?vid=76e0122d-924d-4040-9e24-3001e861f245","ios":"levelo://app?vid=76e0122d-924d-4040-9e24-3001e861f245"},"vehicle_type_id":"4","last_reported":1714071996,"current_range_meters":18000,"station_id":"","pricing_plan_id":"cebpf4jnsgd1na2vs0mg"},{"bike_id":"c0aa8142-3d69-4be0-876b-b430ebc05242","system_id":"levelo_inurba_marseille","lat":43.291671,"lon":5.371575,"is_reserved":false,"is_disabled":false,"rental_uris":{"android":"levelo://app?vid=c0aa8142-3d69-4be0-876b-b430ebc05242","ios":"levelo://app?vid=c0aa8142-3d69-4be0-876b-b430ebc05242"},"vehicle_type_id":"4","last_reported":1714071996,"current_range_meters":15200,"station_id":"ce4bha92rcd13ifvqeh0","pricing_plan_id":"cebpf4jnsgd1na2vs0mg"},{"bike_id":"a536feda-59ac-4437-a593-b926ab6a33b6","system_id":"levelo_inurba_marseille","lat":43.291675,"lon":5.371583,"is_reserved":false,"is_disabled":false,"rental_uris":{"android":"levelo://app?vid=a536feda-59ac-4437-a593-b926ab6a33b6","ios":"levelo://app?vid=a536feda-59ac-4437-a593-b926ab6a33b6"},"vehicle_type_id":"4","last_reported":1714071996,"current_range_meters":18000,"station_id":"ce4bha92rcd13ifvqeh0","pricing_plan_id":"cebpf4jnsgd1na2vs0mg"},{"bike_id":"8065529b-791d-4fab-a617-3ce007c46bf3","system_id":"levelo_inurba_marseille","lat":43.298764,"lon":5.388973,"is_reserved":false,"is_disabled":false,"rental_uris":{"android":"levelo://app?vid=8065529b-791d-4fab-a617-3ce007c46bf3","ios":"levelo://app?vid=8065529b-791d-4fab-a617-3ce007c46bf3"},"vehicle_type_id":"4","last_reported":1714071996,"current_range_meters":31600,"station_id":"ce4bh392rcd13ifvqdl0","pricing_plan_id":"cebpf4jnsgd1na2vs0mg"},{"bike_id":"b7d1ad2a-9954-4335-8c0d-7e7ffe25f303","system_id":"levelo_inurba_marseille","lat":43.29881,"lon":5.3891,"is_reserved":false,"is_disabled":false,"rental_uris":{"android":"levelo://app?vid=b7d1ad2a-9954-4335-8c0d-7e7ffe25f303","ios":"levelo://app?vid=b7d1ad2a-9954-4335-8c0d-7e7ffe25f303"},"vehicle_type_id":"4","last_reported":1714071996,"current_range_meters":30400,"station_id":"","pricing_plan_id":"cebpf4jnsgd1na2vs0mg"},{"bike_id":"48ff7da3-b056-4cb6-aff9-950898a3dd54","system_id":"levelo_inurba_marseille","lat":43.291675,"lon":5.371583,"is_reserved":false,"is_disabled":false,"rental_uris":{"android":"levelo://app?vid=48ff7da3-b056-4cb6-aff9-950898a3dd54","ios":"levelo://app?vid=48ff7da3-b056-4cb6-aff9-950898a3dd54"},"vehicle_type_id":"4","last_reported":1714071996,"current_range_meters":800,"station_id":"ce4bha92rcd13ifvqeh0","pricing_plan_id":"cebpf4jnsgd1na2vs0mg"},{"bike_id":"e7887d02-078d-4945-961a-7f6207f952fd","system_id":"levelo_inurba_marseille","lat":43.291671,"lon":5.371575,"is_reserved":false,"is_disabled":false,"rental_uris":{"android":"levelo://app?vid=e7887d02-078d-4945-961a-7f6207f952fd","ios":"levelo://app?vid=e7887d02-078d-4945-961a-7f6207f952fd"},"vehicle_type_id":"4","last_reported":1714071996,"current_range_meters":26000,"station_id":"ce4bha92rcd13ifvqeh0","pricing_plan_id":"cebpf4jnsgd1na2vs0mg"},{"bike_id":"a594428d-037c-449f-91d1-7efc122a763c","system_id":"levelo_inurba_marseille","lat":43.298764,"lon":5.388973,"is_reserved":false,"is_disabled":false,"rental_uris":{"android":"levelo://app?vid=a594428d-037c-449f-91d1-7efc122a763c","ios":"levelo://app?vid=a594428d-037c-449f-91d1-7efc122a763c"},"vehicle_type_id":"4","last_reported":1714071996,"current_range_meters":25200,"station_id":"ce4bh392rcd13ifvqdl0","pricing_plan_id":"cebpf4jnsgd1na2vs0mg"},{"bike_id":"94fad7b1-07c7-4c8d-b886-aff5649bcc56","system_id":"levelo_inurba_marseille","lat":43.291675,"lon":5.371583,"is_reserved":false,"is_disabled":false,"rental_uris":{"android":"levelo://app?vid=94fad7b1-07c7-4c8d-b886-aff5649bcc56","ios":"levelo://app?vid=94fad7b1-07c7-4c8d-b886-aff5649bcc56"},"vehicle_type_id":"4","last_reported":1714071996,"current_range_meters":12400,"station_id":"ce4bha92rcd13ifvqeh0","pricing_plan_id":"cebpf4jnsgd1na2vs0mg"},{"bike_id":"1e826bd9-1374-43f1-a8e6-766502ad5436","system_id":"levelo_inurba_marseille","lat":43.298764,"lon":5.388973,"is_reserved":false,"is_disabled":false,"rental_uris":{"android":"levelo://app?vid=1e826bd9-1374-43f1-a8e6-766502ad5436","ios":"levelo://app?vid=1e826bd9-1374-43f1-a8e6-766502ad5436"},"vehicle_type_id":"4","last_reported":1714071996,"current_range_meters":0,"station_id":"ce4bh392rcd13ifvqdl0","pricing_plan_id":"cebpf4jnsgd1na2vs0mg"},{"bike_id":"91f0be5f-4673-4fb7-ba04-84fac2479e70","system_id":"levelo_inurba_marseille","lat":43.291994,"lon":5.357886,"is_reserved":false,"is_disabled":false,"rental_uris":{"android":"levelo://app?vid=91f0be5f-4673-4fb7-ba04-84fac2479e70","ios":"levelo://app?vid=91f0be5f-4673-4fb7-ba04-84fac2479e70"},"vehicle_type_id":"4","last_reported":1714071996,"current_range_meters":16000,"station_id":"ce4bhb12rcd13ifvqel0","pricing_plan_id":"cebpf4jnsgd1na2vs0mg"},{"bike_id":"33dc67eb-1c81-4f8b-85fb-693eec529acf","system_id":"levelo_inurba_marseille","lat":43.292005,"lon":5.357875,"is_reserved":false,"is_disabled":false,"rental_uris":{"android":"levelo://app?vid=33dc67eb-1c81-4f8b-85fb-693eec529acf","ios":"levelo://app?vid=33dc67eb-1c81-4f8b-85fb-693eec529acf"},"vehicle_type_id":"4","last_reported":1714071996,"current_range_meters":30800,"station_id":"ce4bhb12rcd13ifvqel0","pricing_plan_id":"cebpf4jnsgd1na2vs0mg"},{"bike_id":"5a486a7c-f691-4670-bd77-a6c6236963ec","system_id":"levelo_inurba_marseille","lat":43.292005,"lon":5.357875,"is_reserved":false,"is_disabled":false,"rental_uris":{"android":"levelo://app?vid=5a486a7c-f691-4670-bd77-a6c6236963ec","ios":"levelo://app?vid=5a486a7c-f691-4670-bd77-a6c6236963ec"},"vehicle_type_id":"4","last_reported":1714071996,"current_range_meters":28400,"station_id":"ce4bhb12rcd13ifvqel0","pricing_plan_id":"cebpf4jnsgd1na2vs0mg"},{"bike_id":"95c77d29-1312-4b94-ac93-de27ee931a4f","system_id":"levelo_inurba_marseille","lat":43.291994,"lon":5.357886,"is_reserved":false,"is_disabled":false,"rental_uris":{"android":"levelo://app?vid=95c77d29-1312-4b94-ac93-de27ee931a4f","ios":"levelo://app?vid=95c77d29-1312-4b94-ac93-de27ee931a4f"},"vehicle_type_id":"4","last_reported":1714071996,"current_range_meters":25600,"station_id":"ce4bhb12rcd13ifvqel0","pricing_plan_id":"cebpf4jnsgd1na2vs0mg"},{"bike_id":"20a9225a-c679-4123-b5ff-0a1feb52f227","system_id":"levelo_inurba_marseille","lat":43.31326,"lon":5.39692,"is_reserved":false,"is_disabled":false,"rental_uris":{"android":"levelo://app?vid=20a9225a-c679-4123-b5ff-0a1feb52f227","ios":"levelo://app?vid=20a9225a-c679-4123-b5ff-0a1feb52f227"},"vehicle_type_id":"4","last_reported":1714071996,"current_range_meters":0,"station_id":"ce4bgvp2rcd13ifvqcu0","pricing_plan_id":"cebpf4jnsgd1na2vs0mg"},{"bike_id":"6b976f9e-2a7c-4a91-bda7-6cfe873aa579","system_id":"levelo_inurba_marseille","lat":43.29188,"lon":5.35803,"is_reserved":false,"is_disabled":false,"rental_uris":{"android":"levelo://app?vid=6b976f9e-2a7c-4a91-bda7-6cfe873aa579","ios":"levelo://app?vid=6b976f9e-2a7c-4a91-bda7-6cfe873aa579"},"vehicle_type_id":"4","last_reported":1714071996,"current_range_meters":11600,"station_id":"ce4bhb12rcd13ifvqel0","pricing_plan_id":"cebpf4jnsgd1na2vs0mg"},{"bike_id":"fc64117d-2234-4acf-a044-61bcc3796a52","system_id":"levelo_inurba_marseille","lat":43.31326,"lon":5.39694,"is_reserved":false,"is_disabled":false,"rental_uris":{"android":"levelo://app?vid=fc64117d-2234-4acf-a044-61bcc3796a52","ios":"levelo://app?vid=fc64117d-2234-4acf-a044-61bcc3796a52"},"vehicle_type_id":"4","last_reported":1714071996,"current_range_meters":27200,"station_id":"","pricing_plan_id":"cebpf4jnsgd1na2vs0mg"},{"bike_id":"caef10bb-0c2c-45ae-8e0a-9055c0ef47d4","system_id":"levelo_inurba_marseille","lat":43.31335,"lon":5.39702,"is_reserved":false,"is_disabled":false,"rental_uris":{"android":"levelo://app?vid=caef10bb-0c2c-45ae-8e0a-9055c0ef47d4","ios":"levelo://app?vid=caef10bb-0c2c-45ae-8e0a-9055c0ef47d4"},"vehicle_type_id":"4","last_reported":1714071996,"current_range_meters":0,"station_id":"ce4bgvp2rcd13ifvqcu0","pricing_plan_id":"cebpf4jnsgd1na2vs0mg"},{"bike_id":"01c36106-4939-40a1-bcc1-9728b5b91bf9","system_id":"levelo_inurba_marseille","lat":43.309047,"lon":5.396551,"is_reserved":false,"is_disabled":false,"rental_uris":{"android":"levelo://app?vid=01c36106-4939-40a1-bcc1-9728b5b91bf9","ios":"levelo://app?vid=01c36106-4939-40a1-bcc1-9728b5b91bf9"},"vehicle_type_id":"4","last_reported":1714071996,"current_range_meters":11200,"station_id":"ce4bh012rcd13ifvqcv0","pricing_plan_id":"cebpf4jnsgd1na2vs0mg"},{"bike_id":"b0a126f5-925c-4577-a36c-54bd05e86cbe","system_id":"levelo_inurba_marseille","lat":43.309047,"lon":5.396551,"is_reserved":false,"is_disabled":false,"rental_uris":{"android":"levelo://app?vid=b0a126f5-925c-4577-a36c-54bd05e86cbe","ios":"levelo://app?vid=b0a126f5-925c-4577-a36c-54bd05e86cbe"},"vehicle_type_id":"4","last_reported":1714071996,"current_range_meters":9200,"station_id":"ce4bh012rcd13ifvqcv0","pricing_plan_id":"cebpf4jnsgd1na2vs0mg"},{"bike_id":"9591bb35-df86-4dcb-bbc7-bf97530ed58c","system_id":"levelo_inurba_marseille","lat":43.3089,"lon":5.39658,"is_reserved":false,"is_disabled":false,"rental_uris":{"android":"levelo://app?vid=9591bb35-df86-4dcb-bbc7-bf97530ed58c","ios":"levelo://app?vid=9591bb35-df86-4dcb-bbc7-bf97530ed58c"},"vehicle_type_id":"4","last_reported":1714071996,"current_range_meters":4400,"station_id":"ce4bh012rcd13ifvqcv0","pricing_plan_id":"cebpf4jnsgd1na2vs0mg"},{"bike_id":"ef9f651f-3ac9-4ca1-8fa6-488a7c1d0b8f","system_id":"levelo_inurba_marseille","lat":43.309047,"lon":5.396551,"is_reserved":false,"is_disabled":false,"rental_uris":{"android":"levelo://app?vid=ef9f651f-3ac9-4ca1-8fa6-488a7c1d0b8f","ios":"levelo://app?vid=ef9f651f-3ac9-4ca1-8fa6-488a7c1d0b8f"},"vehicle_type_id":"4","last_reported":1714071996,"current_range_meters":18000,"station_id":"ce4bh012rcd13ifvqcv0","pricing_plan_id":"cebpf4jnsgd1na2vs0mg"},{"bike_id":"f5195def-defa-443f-8865-bee7fcd5246c","system_id":"levelo_inurba_marseille","lat":43.309038,"lon":5.396546,"is_reserved":false,"is_disabled":false,"rental_uris":{"android":"levelo://app?vid=f5195def-defa-443f-8865-bee7fcd5246c","ios":"levelo://app?vid=f5195def-defa-443f-8865-bee7fcd5246c"},"vehicle_type_id":"4","last_reported":1714071996,"current_range_meters":15200,"station_id":"ce4bh012rcd13ifvqcv0","pricing_plan_id":"cebpf4jnsgd1na2vs0mg"},