{"last_updated":1731496045,"ttl":60,"version":"2.2","data":{"bikes":[{"bike_id":"38769875-a76b-4840-aa21-00daabc88410","system_id":"levelo_inurba_marseille","lat":43.29007,"lon":5.35609,"is_reserved":false,"is_disabled":false,"rental_uris":{"android":"levelo://app?vid=38769875-a76b-4840-aa21-00daabc88410","ios":"levelo://app?vid=38769875-a76b-4840-aa21-00daabc88410"},"vehicle_type_id":"4","last_reported":1731496046,"current_range_meters":25600,"station_id":"ce4bhb92rcd13ifvqen0","pricing_plan_id":"cebpf4jnsgd1na2vs0mg"},{"bike_id":"52c3b47c-4ac8-4b12-96e0-93b36678801c","system_id":"levelo_inurba_marseille","lat":43.30544,"lon":5.36531,"is_reserved":false,"is_disabled":false,"rental_uris":{"android":"levelo://app?vid=52c3b47c-4ac8-4b12-96e0-93b36678801c","ios":"levelo://app?vid=52c3b47c-4ac8-4b12-96e0-93b36678801c"},"vehicle_type_id":"4","last_reported":1731496046,"current_range_meters":38000,"station_id":"ce4bgs12rcd13ifvqcag","pricing_plan_id":"cebpf4jnsgd1na2vs0mg"},{"bike_id":"a8b5795a-f92a-4c99-951c-d3c4edb74e83","system_id":"levelo_inurba_marseille","lat":43.28465,"lon":5.35879,"is_reserved":false,"is_disabled":false,"rental_uris":{"android":"levelo://app?vid=a8b5795a-f92a-4c99-951c-d3c4edb74e83","ios":"levelo://app?vid=a8b5795a-f92a-4c99-951c-d3c4edb74e83"},"vehicle_type_id":"4","last_reported":1731496046,"current_range_meters":38400,"station_id":"ce4bhah2rcd13ifvqei0","pricing_plan_id":"cebpf4jnsgd1na2vs0mg"},{"bike_id":"d623d280-fc1a-4f2a-bcc4-997b02107290","system_id":"levelo_inurba_marseille","lat":43.29793,"lon":5.37104,"is_reserved":false,"is_disabled":false,"rental_uris":{"android":"levelo://app?vid=d623d280-fc1a-4f2a-bcc4-997b02107290","ios":"levelo://app?vid=d623d280-fc1a-4f2a-bcc4-997b02107290"},"vehicle_type_id":"4","last_reported":1731496046,"current_range_meters":35200,"station_id":"ce4bgop2rcd13ifvqc1g","pricing_plan_id":"cebpf4jnsgd1na2vs0mg"},{"bike_id":"093b143a-ecec-424e-b05a-301513aef236","system_id":"levelo_inurba_marseille","lat":43.25929,"lon":5.4091,"is_reserved":false,"is_disabled":false,"rental_uris":{"android":"levelo://app?vid=093b143a-ecec-424e-b05a-301513aef236","ios":"levelo://app?vid=093b143a-ecec-424e-b05a-301513aef236"},"vehicle_type_id":"4","last_reported":1731496046,"current_range_meters":32800,"station_id":"ce4bhm92rcd13ifvqglg","pricing_plan_id":"cebpf4jnsgd1na2vs0mg"},{"bike_id":"4626e9cc-5d09-4e6b-bb5c-0fe5bf1a9564","system_id":"levelo_inurba_marseille","lat":43.30126,"lon":5.37426,"is_reserved":false,"is_disabled":false,"rental_uris":{"android":"levelo://app?vid=4626e9cc-5d09-4e6b-bb5c-0fe5bf1a9564","ios":"levelo://app?vid=4626e9cc-5d09-4e6b-bb5c-0fe5bf1a9564"},"vehicle_type_id":"4","last_reported":1731496046,"current_range_meters":18800,"station_id":"ce4bgs92rcd13ifvqcc0","pricing_plan_id":"cebpf4jnsgd1na2vs0mg"},{"bike_id":"afe44c09-4a07-416e-be95-3d235cec367e","system_id":"levelo_inurba_marseille","lat":43.28155,"lon":5.42644,"is_reserved":false,"is_disabled":false,"rental_uris":{"android":"levelo://app?vid=afe44c09-4a07-416e-be95-3d235cec367e","ios":"levelo://app?vid=afe44c09-4a07-416e-be95-3d235cec367e"},"vehicle_type_id":"4","last_reported":1731496046,"current_range_meters":38800,"station_id":"ce4bhnh2rcd13ifvqgug","pricing_plan_id":"cebpf4jnsgd1na2vs0mg"},{"bike_id":"99388fe0-b05f-4818-bf64-abc11253e5b0","system_id":"levelo_inurba_marseille","lat":43.27833,"lon":5.39207,"is_reserved":false,"is_disabled":false,"rental_uris":{"android":"levelo://app?vid=99388fe0-b05f-4818-bf64-abc11253e5b0","ios":"levelo://app?vid=99388fe0-b05f-4818-bf64-abc11253e5b0"},"vehicle_type_id":"4","last_reported":1731496046,"current_range_meters":36000,"station_id":"ce4bhjp2rcd13ifvqga0","pricing_plan_id":"cebpf4jnsgd1na2vs0mg"},{"bike_id":"85458871-ebbe-48ac-adb8-f78b4d1f4aa8","system_id":"levelo_inurba_marseille","lat":43.28149,"lon":5.42643,"is_reserved":false,"is_disabled":false,"rental_uris":{"android":"levelo://app?vid=85458871-ebbe-48ac-adb8-f78b4d1f4aa8","ios":"levelo://app?vid=85458871-ebbe-48ac-adb8-f78b4d1f4aa8"},"vehicle_type_id":"4","last_reported":1731496046,"current_range_meters":38800,"station_id":"ce4bhnh2rcd13ifvqgug","pricing_plan_id":"cebpf4jnsgd1na2vs0mg"},{"bike_id":"ca573efc-b310-4258-adf2-46821169ec26","system_id":"levelo_inurba_marseille","lat":43.30601,"lon":5.37224,"is_reserved":false,"is_disabled":false,"rental_uris":{"android":"levelo://app?vid=ca573efc-b310-4258-adf2-46821169ec26","ios":"levelo://app?vid=ca573efc-b310-4258-adf2-46821169ec26"},"vehicle_type_id":"4","last_reported":1731496046,"current_range_meters":33200,"station_id":"ce4bgqh2rcd13ifvqc4g","pricing_plan_id":"cebpf4jnsgd1na2vs0mg"},{"bike_id":"af7feffa-dadd-4b30-b6f6-2e15bbf07dcf","system_id":"levelo_inurba_marseille","lat":43.3014,"lon":5.39841,"is_reserved":false,"is_disabled":false,"rental_uris":{"android":"levelo://app?vid=af7feffa-dadd-4b30-b6f6-2e15bbf07dcf","ios":"levelo://app?vid=af7feffa-dadd-4b30-b6f6-2e15bbf07dcf"},"vehicle_type_id":"4","last_reported":1731496046,"current_range_meters":24000,"station_id":"ce4bh0h2rcd13ifvqd40","pricing_plan_id":"cebpf4jnsgd1na2vs0mg"},{"bike_id":"bf84b230-e22e-4490-9999-1c1f6972af9a","system_id":"levelo_inurba_marseille","lat":43.31338,"lon":5.36727,"is_reserved":false,"is_disabled":false,"rental_uris":{"android":"levelo://app?vid=bf84b230-e22e-4490-9999-1c1f6972af9a","ios":"levelo://app?vid=bf84b230-e22e-4490-9999-1c1f6972af9a"},"vehicle_type_id":"4","last_reported":1731496046,"current_range_meters":37600,"station_id":"ce4bgr92rcd13ifvqc6g","pricing_plan_id":"cebpf4jnsgd1na2vs0mg"},{"bike_id":"3dac94f1-9429-4f06-b9c2-eb9ad01d1be5","system_id":"levelo_inurba_marseille","lat":43.24658,"lon":5.3816,"is_reserved":false,"is_disabled":false,"rental_uris":{"android":"levelo://app?vid=3dac94f1-9429-4f06-b9c2-eb9ad01d1be5","ios":"levelo://app?vid=3dac94f1-9429-4f06-b9c2-eb9ad01d1be5"},"vehicle_type_id":"4","last_reported":1731496046,"current_range_meters":35200,"station_id":"ce4bhih2rcd13ifvqfr0","pricing_plan_id":"cebpf4jnsgd1na2vs0mg"},{"bike_id":"18a18826-cb50-4d04-a4cd-048654ee8c8b","system_id":"levelo_inurba_marseille","lat":43.31887,"lon":5.4074,"is_reserved":false,"is_disabled":false,"rental_uris":{"android":"levelo://app?vid=18a18826-cb50-4d04-a4cd-048654ee8c8b","ios":"levelo://app?vid=18a18826-cb50-4d04-a4cd-048654ee8c8b"},"vehicle_type_id":"4","last_reported":1731496046,"current_range_meters":38800,"station_id":"ce4bhq12rcd13ifvqhig","pricing_plan_id":"cebpf4jnsgd1na2vs0mg"},{"bike_id":"d6cad3cb-6daf-40e2-a972-ee4bde288410","system_id":"levelo_inurba_marseille","lat":43.29874,"lon":5.39727,"is_reserved":false,"is_disabled":false,"rental_uris":{"android":"levelo://app?vid=d6cad3cb-6daf-40e2-a972-ee4bde288410","ios":"levelo://app?vid=d6cad3cb-6daf-40e2-a972-ee4bde288410"},"vehicle_type_id":"4","last_reported":1731496046,"current_range_meters":9600,"station_id":"ce4bh0h2rcd13ifvqd50","pricing_plan_id":"cebpf4jnsgd1na2vs0mg"},{"bike_id":"993a2407-dea1-4de6-b3ec-4b72998a4778","system_id":"levelo_inurba_marseille","lat":43.30147,"lon":5.37418,"is_reserved":false,"is_disabled":false,"rental_uris":{"android":"levelo://app?vid=993a2407-dea1-4de6-b3ec-4b72998a4778","ios":"levelo://app?vid=993a2407-dea1-4de6-b3ec-4b72998a4778"},"vehicle_type_id":"4","last_reported":1731496046,"current_range_meters":8400,"station_id":"ce4bgs92rcd13ifvqcc0","pricing_plan_id":"cebpf4jnsgd1na2vs0mg"},{"bike_id":"7feadc2c-8e73-4931-934f-fbac622b389d","system_id":"levelo_inurba_marseille","lat":43.31231,"lon":5.3686,"is_reserved":false,"is_disabled":false,"rental_uris":{"android":"levelo://app?vid=7feadc2c-8e73-4931-934f-fbac622b389d","ios":"levelo://app?vid=7feadc2c-8e73-4931-934f-fbac622b389d"},"vehicle_type_id":"4","last_reported":1731496046,"current_range_meters":29600,"station_id":"ce4bgl92rcd13ifvqbq0","pricing_plan_id":"cebpf4jnsgd1na2vs0mg"},{"bike_id":"55d2d8b2-0246-4eea-b604-9e80591018f2","system_id":"levelo_inurba_marseille","lat":43.2318,"lon":5.39984,"is_reserved":false,"is_disabled":false,"rental_uris":{"android":"levelo://app?vid=55d2d8b2-0246-4eea-b604-9e80591018f2","ios":"levelo://app?vid=55d2d8b2-0246-4eea-b604-9e80591018f2"},"vehicle_type_id":"4","last_reported":1731496046,"current_range_meters":21600,"station_id":"ce4bhn12rcd13ifvqgqg","pricing_plan_id":"cebpf4jnsgd1na2vs0mg"},{"bike_id":"006c2d36-da0a-46e8-bbc3-f99c04e00114","system_id":"levelo_inurba_marseille","lat":43.29584,"lon":5.36742,"is_reserved":false,"is_disabled":false,"rental_uris":{"android":"levelo://app?vid=006c2d36-da0a-46e8-bbc3-f99c04e00114","ios":"levelo://app?vid=006c2d36-da0a-46e8-bbc3-f99c04e00114"},"vehicle_type_id":"4","last_reported":1731496046,"current_range_meters":38000,"station_id":"ce4bgph2rcd13ifvqc2g","pricing_plan_id":"cebpf4jnsgd1na2vs0mg"},{"bike_id":"42a2832a-f9b2-498b-ac2d-d997dbbc57e9","system_id":"levelo_inurba_marseille","lat":43.297913,"lon":5.381034,"is_reserved":false,"is_disabled":false,"rental_uris":{"android":"levelo://app?vid=42a2832a-f9b2-498b-ac2d-d997dbbc57e9","ios":"levelo://app?vid=42a2832a-f9b2-498b-ac2d-d997dbbc57e9"},"vehicle_type_id":"4","last_reported":1731496046,"current_range_meters":22400,"station_id":"","pricing_plan_id":"cebpf4jnsgd1na2vs0mg"},{"bike_id":"2afec22c-5bf5-4558-b822-abfa5f6f9c75","system_id":"levelo_inurba_marseille","lat":43.29254,"lon":5.40912,"is_reserved":false,"is_disabled":false,"rental_uris":{"android":"levelo://app?vid=2afec22c-5bf5-4558-b822-abfa5f6f9c75","ios":"levelo://app?vid=2afec22c-5bf5-4558-b822-abfa5f6f9c75"},"vehicle_type_id":"4","last_reported":1731496046,"current_range_meters":30800,"station_id":"ce4bh192rcd13ifvqdc0","pricing_plan_id":"cebpf4jnsgd1na2vs0mg"},{"bike_id":"47f64b9b-a9da-45fa-a0ac-50e17b6af1d3","system_id":"levelo_inurba_marseille","lat":43.24175,"lon":5.39713,"is_reserved":false,"is_disabled":false,"rental_uris":{"android":"levelo://app?vid=47f64b9b-a9da-45fa-a0ac-50e17b6af1d3","ios":"levelo://app?vid=47f64b9b-a9da-45fa-a0ac-50e17b6af1d3"},"vehicle_type_id":"4","last_reported":1731496046,"current_range_meters":28800,"station_id":"ce4bhn12rcd13ifvqgpg","pricing_plan_id":"cebpf4jnsgd1na2vs0mg"},{"bike_id":"f1062cdc-79b1-44b8-93e8-69e6121b2972","system_id":"levelo_inurba_marseille","lat":43.29168,"lon":5.37161,"is_reserved":false,"is_disabled":false,"rental_uris":{"android":"levelo://app?vid=f1062cdc-79b1-44b8-93e8-69e6121b2972","ios":"levelo://app?vid=f1062cdc-79b1-44b8-93e8-69e6121b2972"},"vehicle_type_id":"4","last_reported":1731496046,"current_range_meters":38800,"station_id":"ce4bha92rcd13ifvqeh0","pricing_plan_id":"cebpf4jnsgd1na2vs0mg"},{"bike_id":"3d16c9a0-b8f5-4e0d-9a01-f81d2c832574","system_id":"levelo_inurba_marseille","lat":43.285675,"lon":5.359941,"is_reserved":false,"is_disabled":false,"rental_uris":{"android":"levelo://app?vid=3d16c9a0-b8f5-4e0d-9a01-f81d2c832574","ios":"levelo://app?vid=3d16c9a0-b8f5-4e0d-9a01-f81d2c832574"},"vehicle_type_id":"4","last_reported":1731496046,"current_range_meters":39200,"station_id":"ce4bhah2rcd13ifvqei0","pricing_plan_id":"cebpf4jnsgd1na2vs0mg"},{"bike_id":"c40070b7-bb99-494d-be4f-0b86775f9124","system_id":"levelo_inurba_marseille","lat":43.29619,"lon":5.37164,"is_reserved":false,"is_disabled":false,"rental_uris":{"android":"levelo://app?vid=c40070b7-bb99-494d-be4f-0b86775f9124","ios":"levelo://app?vid=c40070b7-bb99-494d-be4f-0b86775f9124"},"vehicle_type_id":"4","last_reported":1731496046,"current_range_meters":38800,"station_id":"ce4bgnh2rcd13ifvqc0g","pricing_plan_id":"cebpf4jnsgd1na2vs0mg"},{"bike_id":"b59a3fca-f496-4ca4-9d76-d0f4b2c8fc3f","system_id":"levelo_inurba_marseille","lat":43.30148,"lon":5.3743,"is_reserved":false,"is_disabled":false,"rental_uris":{"android":"levelo://app?vid=b59a3fca-f496-4ca4-9d76-d0f4b2c8fc3f","ios":"levelo://app?vid=b59a3fca-f496-4ca4-9d76-d0f4b2c8fc3f"},"vehicle_type_id":"4","last_reported":1731496046,"current_range_meters":39200,"station_id":"ce4bgs92rcd13ifvqcc0","pricing_plan_id":"cebpf4jnsgd1na2vs0mg"},{"bike_id":"84b8d1c8-a971-478e-a611-06f69db9d1cc","system_id":"levelo_inurba_marseille","lat":43.337444,"lon":5.374475,"is_reserved":false,"is_disabled":false,"rental_uris":{"android":"levelo://app?vid=84b8d1c8-a971-478e-a611-06f69db9d1cc","ios":"levelo://app?vid=84b8d1c8-a971-478e-a611-06f69db9d1cc"},"vehicle_type_id":"4","last_reported":1731496046,"current_range_meters":37600,"station_id":"","pricing_plan_id":"cebpf4jnsgd1na2vs0mg"},{"bike_id":"67f5c242-e08e-4b76-994c-f2a8da6a8b36","system_id":"levelo_inurba_marseille","lat":43.2465,"lon":5.3889,"is_reserved":false,"is_disabled":false,"rental_uris":{"android":"levelo://app?vid=67f5c242-e08e-4b76-994c-f2a8da6a8b36","ios":"levelo://app?vid=67f5c242-e08e-4b76-994c-f2a8da6a8b36"},"vehicle_type_id":"4","last_reported":1731496046,"current_range_meters":24400,"station_id":"ce4bhg12rcd13ifvqf60","pricing_plan_id":"cebpf4jnsgd1na2vs0mg"},{"bike_id":"8bb17e11-1e6d-4f2c-98da-2e996aaa735a","system_id":"levelo_inurba_marseille","lat":43.268,"lon":5.40267,"is_reserved":false,"is_disabled":false,"rental_uris":{"android":"levelo://app?vid=8bb17e11-1e6d-4f2c-98da-2e996aaa735a","ios":"levelo://app?vid=8bb17e11-1e6d-4f2c-98da-2e996aaa735a"},"vehicle_type_id":"4","last_reported":1731496046,"current_range_meters":18800,"station_id":"ce501612rcd8frsf0b60","pricing_plan_id":"cebpf4jnsgd1na2vs0mg"},{"bike_id":"2c2701bb-82f7-42d4-83a5-c5a2f7e8fbc7","system_id":"levelo_inurba_marseille","lat":43.32033,"lon":5.41555,"is_reserved":false,"is_disabled":false,"rental_uris":{"android":"levelo://app?vid=2c2701bb-82f7-42d4-83a5-c5a2f7e8fbc7","ios":"levelo://app?vid=2c2701bb-82f7-42d4-83a5-c5a2f7e8fbc7"},"vehicle_type_id":"4","last_reported":1731496046,"current_range_meters":36800,"station_id":"ce4bhq92rcd13ifvqhkg","pricing_plan_id":"cebpf4jnsgd1na2vs0mg"},{"bike_id":"a05252be-63a4-41f8-b5a4-1a81d89d0c3c","system_id":"levelo_inurba_marseille","lat":43.23191,"lon":5.39991,"is_reserved":false,"is_disabled":false,"rental_uris":{"android":"levelo://app?vid=a05252be-63a4-41f8-b5a4-1a81d89d0c3c","ios":"levelo://app?vid=a05252be-63a4-41f8-b5a4-1a81d89d0c3c"},"vehicle_type_id":"4","last_reported":1731496046,"current_range_meters":8400,"station_id":"ce4bhn12rcd13ifvqgqg","pricing_plan_id":"cebpf4jnsgd1na2vs0mg"},{"bike_id":"3c6977a3-ad89-4857-9daf-69a0e32f55ed","system_id":"levelo_inurba_marseille","lat":43.29867,"lon":5.39729,"is_reserved":false,"is_disabled":false,"rental_uris":{"android":"levelo://app?vid=3c6977a3-ad89-4857-9daf-69a0e32f55ed","ios":"levelo://app?vid=3c6977a3-ad89-4857-9daf-69a0e32f55ed"},"vehicle_type_id":"4","last_reported":1731496046,"current_range_meters":27600,"station_id":"ce4bh0h2rcd13ifvqd50","pricing_plan_id":"cebpf4jnsgd1na2vs0mg"},{"bike_id":"41ff89e3-1e18-495b-b5e1-08b420470989","system_id":"levelo_inurba_marseille","lat":43.22928,"lon":5.35377,"is_reserved":false,"is_disabled":false,"rental_uris":{"android":"levelo://app?vid=41ff89e3-1e18-495b-b5e1-08b420470989","ios":"levelo://app?vid=41ff89e3-1e18-495b-b5e1-08b420470989"},"vehicle_type_id":"4","last_reported":1731496046,"current_range_meters":18800,"station_id":"cpo3532slgdg3j2ikp40","pricing_plan_id":"cebpf4jnsgd1na2vs0mg"},{"bike_id":"82fa6206-06e0-4097-8c4e-86ae4f57f7f0","system_id":"levelo_inurba_marseille","lat":43.2962,"lon":5.37154,"is_reserved":false,"is_disabled":false,"rental_uris":{"android":"levelo://app?vid=82fa6206-06e0-4097-8c4e-86ae4f57f7f0","ios":"levelo://app?vid=82fa6206-06e0-4097-8c4e-86ae4f57f7f0"},"vehicle_type_id":"4","last_reported":1731496046,"current_range_meters":38800,"station_id":"ce4bgnh2rcd13ifvqc0g","pricing_plan_id":"cebpf4jnsgd1na2vs0mg"},{"bike_id":"07c8c8c8-6752-44e3-99f9-3bd686fbfac2","system_id":"levelo_inurba_marseille","lat":43.2803,"lon":5.3695,"is_reserved":false,"is_disabled":false,"rental_uris":{"android":"levelo://app?vid=07c8c8c8-6752-44e3-99f9-3bd686fbfac2","ios":"levelo://app?vid=07c8c8c8-6752-44e3-99f9-3bd686fbfac2"},"vehicle_type_id":"4","last_reported":1731496046,"current_range_meters":38800,"station_id":"ce4bha12rcd13ifvqef0","pricing_plan_id":"cebpf4jnsgd1na2vs0mg"},{"bike_id":"2018a6f0-ead7-4ace-b852-7d5b4b3532eb","system_id":"levelo_inurba_marseille","lat":43.32028,"lon":5.41543,"is_reserved":false,"is_disabled":false,"rental_uris":{"android":"levelo://app?vid=2018a6f0-ead7-4ace-b852-7d5b4b3532eb","ios":"levelo://app?vid=2018a6f0-ead7-4ace-b852-7d5b4b3532eb"},"vehicle_type_id":"4","last_reported":1731496046,"current_range_meters":12400,"station_id":"ce4bhq92rcd13ifvqhkg","pricing_plan_id":"cebpf4jnsgd1na2vs0mg"},{"bike_id":"07593388-1396-48b8-b53d-f99ad9d41363","system_id":"levelo_inurba_marseille","lat":43.30145,"lon":5.38085,"is_reserved":false,"is_disabled":false,"rental_uris":{"android":"levelo://app?vid=07593388-1396-48b8-b53d-f99ad9d41363","ios":"levelo://app?vid=07593388-1396-48b8-b53d-f99ad9d41363"},"vehicle_type_id":"4","last_reported":1731496046,"current_range_meters":35600,"station_id":"ce4bgjp2rcd13ifvqbh0","pricing_plan_id":"cebpf4jnsgd1na2vs0mg"},{"bike_id":"c8a6f988-0b2c-4030-aad3-736001817708","system_id":"levelo_inurba_marseille","lat":43.288452,"lon":5.393076,"is_reserved":false,"is_disabled":false,"rental_uris":{"android":"levelo://app?vid=c8a6f988-0b2c-4030-aad3-736001817708","ios":"levelo://app?vid=c8a6f988-0b2c-4030-aad3-736001817708"},"vehicle_type_id":"4","last_reported":1731496046,"current_range_meters":31200,"station_id":"ce4bh2p2rcd13ifvqdi0","pricing_plan_id":"cebpf4jnsgd1na2vs0mg"},{"bike_id":"cf8b6b27-4e91-4aab-88fe-209c9cd47765","system_id":"levelo_inurba_marseille","lat":43.30097,"lon":5.3907,"is_reserved":false,"is_disabled":false,"rental_uris":{"android":"levelo://app?vid=cf8b6b27-4e91-4aab-88fe-209c9cd47765","ios":"levelo://app?vid=cf8b6b27-4e91-4aab-88fe-209c9cd47765"},"vehicle_type_id":"4","last_reported":1731496046,"current_range_meters":33200,"station_id":"ce4bh192rcd13ifvqdb0","pricing_plan_id":"cebpf4jnsgd1na2vs0mg"},{"bike_id":"a43ce929-d285-49d3-ad1c-83088c4207a8","system_id":"levelo_inurba_marseille","lat":43.27993,"lon":5.40012,"is_reserved":false,"is_disabled":false,"rental_uris":{"android":"levelo://app?vid=a43ce929-d285-49d3-ad1c-83088c4207a8","ios":"levelo://app?vid=a43ce929-d285-49d3-ad1c-83088c4207a8"},"vehicle_type_id":"4","last_reported":1731496046,"current_range_meters":2800,"station_id":"ce4bho92rcd13ifvqh4g","pricing_plan_id":"cebpf4jnsgd1na2vs0mg"},{"bike_id":"ad8ac9aa-aaf2-42d8-816e-14739a51908e","system_id":"levelo_inurba_marseille","lat":43.30579,"lon":5.36722,"is_reserved":false,"is_disabled":false,"rental_uris":{"android":"levelo://app?vid=ad8ac9aa-aaf2-42d8-816e-14739a51908e","ios":"levelo://app?vid=ad8ac9aa-aaf2-42d8-816e-14739a51908e"},"vehicle_type_id":"4","last_reported":1731496046,"current_range_meters":38400,"station_id":"ce4bgrp2rcd13ifvqc9g","pricing_plan_id":"cebpf4jnsgd1na2vs0mg"},{"bike_id":"2eedc177-66d3-43ad-8e2d-78e60ce845e8","system_id":"levelo_inurba_marseille","lat":43.22936,"lon":5.35376,"is_reserved":false,"is_disabled":false,"rental_uris":{"android":"levelo://app?vid=2eedc177-66d3-43ad-8e2d-78e60ce845e8","ios":"levelo://app?vid=2eedc177-66d3-43ad-8e2d-78e60ce845e8"},"vehicle_type_id":"4","last_reported":1731496046,"current_range_meters":38800,"station_id":"cpo3532slgdg3j2ikp40","pricing_plan_id":"cebpf4jnsgd1na2vs0mg"},{"bike_id":"632df92a-8745-46a3-94d3-89fd8a400289","system_id":"levelo_inurba_marseille","lat":43.29193,"lon":5.35795,"is_reserved":false,"is_disabled":false,"rental_uris":{"android":"levelo://app?vid=632df92a-8745-46a3-94d3-89fd8a400289","ios":"levelo://app?vid=632df92a-8745-46a3-94d3-89fd8a400289"},"vehicle_type_id":"4","last_reported":1731496046,"current_range_meters":21600,"station_id":"ce4bhb12rcd13ifvqel0","pricing_plan_id":"cebpf4jnsgd1na2vs0mg"},{"bike_id":"4d3db180-7b09-4241-99c3-a50935cba1fb","system_id":"levelo_inurba_marseille","lat":43.33025,"lon":5.39044,"is_reserved":false,"is_disabled":false,"rental_uris":{"android":"levelo://app?vid=4d3db180-7b09-4241-99c3-a50935cba1fb","ios":"levelo://app?vid=4d3db180-7b09-4241-99c3-a50935cba1fb"},"vehicle_type_id":"4","last_reported":1731496046,"current_range_meters":25200,"station_id":"ce4bhr92rcd13ifvqhrg","pricing_plan_id":"cebpf4jnsgd1na2vs0mg"},{"bike_id":"b28e2713-3e1d-43af-856b-ecc5748cc99e","system_id":"levelo_inurba_marseille","lat":43.30882,"lon":5.37193,"is_reserved":false,"is_disabled":false,"rental_uris":{"android":"levelo://app?vid=b28e2713-3e1d-43af-856b-ecc5748cc99e","ios":"levelo://app?vid=b28e2713-3e1d-43af-856b-ecc5748cc99e"},"vehicle_type_id":"4","last_reported":1731496046,"current_range_meters":36400,"station_id":"ce4bguh2rcd13ifvqckg","pricing_plan_id":"cebpf4jnsgd1na2vs0mg"},{"bike_id":"4d2f475b-1638-4691-8d5a-d976640dc564","system_id":"levelo_inurba_marseille","lat":43.27171,"lon":5.40994,"is_reserved":false,"is_disabled":false,"rental_uris":{"android":"levelo://app?vid=4d2f475b-1638-4691-8d5a-d976640dc564","ios":"levelo://app?vid=4d2f475b-1638-4691-8d5a-d976640dc564"},"vehicle_type_id":"4","last_reported":1731496046,"current_range_meters":38800,"station_id":"ce4bhl12rcd13ifvqgf0","pricing_plan_id":"cebpf4jnsgd1na2vs0mg"},{"bike_id":"85b728ef-7c62-4a7f-a060-7f65da2ca2d6","system_id":"levelo_inurba_marseille","lat":43.33602,"lon":5.41027,"is_reserved":false,"is_disabled":false,"rental_uris":{"android":"levelo://app?vid=85b728ef-7c62-4a7f-a060-7f65da2ca2d6","ios":"levelo://app?vid=85b728ef-7c62-4a7f-a060-7f65da2ca2d6"},"vehicle_type_id":"4","last_reported":1731496046,"current_range_meters":23200,"station_id":"ce4bhqh2rcd13ifvqhmg","pricing_plan_id":"cebpf4jnsgd1na2vs0mg"},{"bike_id":"197990db-9d96-4e77-b9f8-91d93b36d4cd","system_id":"levelo_inurba_marseille","lat":43.27618,"lon":5.36101,"is_reserved":false,"is_disabled":false,"rental_uris":{"android":"levelo://app?vid=197990db-9d96-4e77-b9f8-91d93b36d4cd","ios":"levelo://app?vid=197990db-9d96-4e77-b9f8-91d93b36d4cd"},"vehicle_type_id":"4","last_reported":1731496046,"current_range_meters":30800,"station_id":"ce4bgj92rcd13ifvqbe0","pricing_plan_id":"cebpf4jnsgd1na2vs0mg"},{"bike_id":"57e0e4a6-869a-487a-b79e-645fb1111e3a","system_id":"levelo_inurba_marseille","lat":43.32658,"lon":5.40993,"is_reserved":false,"is_disabled":false,"rental_uris":{"android":"levelo://app?vid=57e0e4a6-869a-487a-b79e-645fb1111e3a","ios":"levelo://app?vid=57e0e4a6-869a-487a-b79e-645fb1111e3a"},"vehicle_type_id":"4","last_reported":1731496046,"current_range_meters":20400,"station_id":"ce4bhpp2rcd13ifvqhgg","pricing_plan_id":"cebpf4jnsgd1na2vs0mg"},{"bike_id":"d613380b-eed5-4626-94fb-426e1f3606a2","system_id":"levelo_inurba_marseille","lat":43.28468,"lon":5.35878,"is_reserved":false,"is_disabled":false,"rental_uris":{"android":"levelo://app?vid=d613380b-eed5-4626-94fb-426e1f3606a2","ios":"levelo://app?vid=d613380b-eed5-4626-94fb-426e1f3606a2"},"vehicle_type_id":"4","last_reported":1731496046,"current_range_meters":38800,"station_id":"ce4bhah2rcd13ifvqei0","pricing_plan_id":"cebpf4jnsgd1na2vs0mg"},{"bike_id":"1c53b899-7ad3-4d52-8636-ea4a31313297","system_id":"levelo_inurba_marseille","lat":43.30531,"lon":5.36542,"is_reserved":false,"is_disabled":false,"rental_uris":{"android":"levelo://app?vid=1c53b899-7ad3-4d52-8636-ea4a31313297","ios":"levelo://app?vid=1c53b899-7ad3-4d52-8636-ea4a31313297"},"vehicle_type_id":"4","last_reported":1731496046,"current_range_meters":33200,"station_id":"ce4bgs12rcd13ifvqcag","pricing_plan_id":"cebpf4jnsgd1na2vs0mg"},{"bike_id":"dd03fdf3-120f-4eb9-8b86-8f10891e2dfe","system_id":"levelo_inurba_marseille","lat":43.29366,"lon":5.37841,"is_reserved":false,"is_disabled":false,"rental_uris":{"android":"levelo://app?vid=dd03fdf3-120f-4eb9-8b86-8f10891e2dfe","ios":"levelo://app?vid=dd03fdf3-120f-4eb9-8b86-8f10891e2dfe"},"vehicle_type_id":"4","last_reported":1731496046,"current_range_meters":38800,"station_id":"ce4bgjh2rcd13ifvqbf0","pricing_plan_id":"cebpf4jnsgd1na2vs0mg"},{"bike_id":"b5cc48b3-a48f-456e-a027-d47cac81188c","system_id":"levelo_inurba_marseille","lat":43.29881,"lon":5.39739,"is_reserved":false,"is_disabled":false,"rental_uris":{"android":"levelo://app?vid=b5cc48b3-a48f-456e-a027-d47cac81188c","ios":"levelo://app?vid=b5cc48b3-a48f-456e-a027-d47cac81188c"},"vehicle_type_id":"4","last_reported":1731496046,"current_range_meters":20000,"station_id":"ce4bh0h2rcd13ifvqd50","pricing_plan_id":"cebpf4jnsgd1na2vs0mg"},{"bike_id":"125d40ac-02f8-444a-9648-cee5bdc4ef8d","system_id":"levelo_inurba_marseille","lat":43.23959,"lon":5.36641,"is_reserved":false,"is_disabled":false,"rental_uris":{"android":"levelo://app?vid=125d40ac-02f8-444a-9648-cee5bdc4ef8d","ios":"levelo://app?vid=125d40ac-02f8-444a-9648-cee5bdc4ef8d"},"vehicle_type_id":"4","last_reported":1731496046,"current_range_meters":31200,"station_id":"ce4bhi12rcd13ifvqfp0","pricing_plan_id":"cebpf4jnsgd1na2vs0mg"},{"bike_id":"d11cbdd0-60ca-4f06-855a-291a1c9824f5","system_id":"levelo_inurba_marseille","lat":43.28608,"lon":5.35105,"is_reserved":false,"is_disabled":false,"rental_uris":{"android":"levelo://app?vid=d11cbdd0-60ca-4f06-855a-291a1c9824f5","ios":"levelo://app?vid=d11cbdd0-60ca-4f06-855a-291a1c9824f5"},"vehicle_type_id":"4","last_reported":1731496046,"current_range_meters":28800,"station_id":"ce4bhch2rcd13ifvqeug","pricing_plan_id":"cebpf4jnsgd1na2vs0mg"},{"bike_id":"d939a8d3-7886-485f-80ff-eaccf3fd8656","system_id":"levelo_inurba_marseille","lat":43.23147,"lon":5.43709,"is_reserved":false,"is_disabled":false,"rental_uris":{"android":"levelo://app?vid=d939a8d3-7886-485f-80ff-eaccf3fd8656","ios":"levelo://app?vid=d939a8d3-7886-485f-80ff-eaccf3fd8656"},"vehicle_type_id":"4","last_reported":1731496046,"current_range_meters":14400,"station_id":"ce4bhmp2rcd13ifvqgog","pricing_plan_id":"cebpf4jnsgd1na2vs0mg"},{"bike_id":"ee2f998b-2776-4f42-ab69-67b4cf3c8c5f","system_id":"levelo_inurba_marseille","lat":43.27421,"lon":5.39407,"is_reserved":false,"is_disabled":false,"rental_uris":{"android":"levelo://app?vid=ee2f998b-2776-4f42-ab69-67b4cf3c8c5f","ios":"levelo://app?vid=ee2f998b-2776-4f42-ab69-67b4cf3c8c5f"},"vehicle_type_id":"4","last_reported":1731496046,"current_range_meters":33600,"station_id":"ce4bhdp2rcd13ifvqf20","pricing_plan_id":"cebpf4jnsgd1na2vs0mg"},{"bike_id":"b01f14ad-1c18-4774-a114-f5ad20e62224","system_id":"levelo_inurba_marseille","lat":43.32362,"lon":5.38871,"is_reserved":false,"is_disabled":false,"rental_uris":{"android":"levelo://app?vid=b01f14ad-1c18-4774-a114-f5ad20e62224","ios":"levelo://app?vid=b01f14ad-1c18-4774-a114-f5ad20e62224"},"vehicle_type_id":"4","last_reported":1731496046,"current_range_meters":32400,"station_id":"ce4bhqp2rcd13ifvqhog","pricing_plan_id":"cebpf4jnsgd1na2vs0mg"},{"bike_id":"7b3c27eb-f609-4995-afd3-a1ce7a9845fc","system_id":"levelo_inurba_marseille","lat":43.28145,"lon":5.42637,"is_reserved":false,"is_disabled":false,"rental_uris":{"android":"levelo://app?vid=7b3c27eb-f609-4995-afd3-a1ce7a9845fc","ios":"levelo://app?vid=7b3c27eb-f609-4995-afd3-a1ce7a9845fc"},"vehicle_type_id":"4","last_reported":1731496046,"current_range_meters":34000,"station_id":"ce4bhnh2rcd13ifvqgug","pricing_plan_id":"cebpf4jnsgd1na2vs0mg"},{"bike_id":"f5ece678-b072-4ba3-ab68-e3d8de280e15","system_id":"levelo_inurba_marseille","lat":43.32657,"lon":5.40994,"is_reserved":false,"is_disabled":false,"rental_uris":{"android":"levelo://app?vid=f5ece678-b072-4ba3-ab68-e3d8de280e15","ios":"levelo://app?vid=f5ece678-b072-4ba3-ab68-e3d8de280e15"},"vehicle_type_id":"4","last_reported":1731496046,"current_range_meters":38800,"station_id":"ce4bhpp2rcd13ifvqhgg","pricing_plan_id":"cebpf4jnsgd1na2vs0mg"},{"bike_id":"1b32835d-d790-4d05-9266-c8f334c89fb5","system_id":"levelo_inurba_marseille","lat":43.30146,"lon":5.38086,"is_reserved":false,"is_disabled":false,"rental_uris":{"android":"levelo://app?vid=1b32835d-d790-4d05-9266-c8f334c89fb5","ios":"levelo://app?vid=1b32835d-d790-4d05-9266-c8f334c89fb5"},"vehicle_type_id":"4","last_reported":1731496046,"current_range_meters":32400,"station_id":"ce4bgjp2rcd13ifvqbh0","pricing_plan_id":"cebpf4jnsgd1na2vs0mg"},{"bike_id":"6df86b4a-c49a-46a5-9e2f-7cf3f164c5d4","system_id":"levelo_inurba_marseille","lat":43.25944,"lon":5.40902,"is_reserved":false,"is_disabled":false,"rental_uris":{"android":"levelo://app?vid=6df86b4a-c49a-46a5-9e2f-7cf3f164c5d4","ios":"levelo://app?vid=6df86b4a-c49a-46a5-9e2f-7cf3f164c5d4"},"vehicle_type_id":"4","last_reported":1731496046,"current_range_meters":30000,"station_id":"ce4bhm92rcd13ifvqglg","pricing_plan_id":"cebpf4jnsgd1na2vs0mg"},{"bike_id":"32896d7f-68a8-4fca-bc22-6f7c962389f1","system_id":"levelo_inurba_marseille","lat":43.31343,"lon":5.36719,"is_reserved":false,"is_disabled":false,"rental_uris":{"android":"levelo://app?vid=32896d7f-68a8-4fca-bc22-6f7c962389f1","ios":"levelo://app?vid=32896d7f-68a8-4fca-bc22-6f7c962389f1"},"vehicle_type_id":"4","last_reported":1731496046,"current_range_meters":38000,"station_id":"ce4bgr92rcd13ifvqc6g","pricing_plan_id":"cebpf4jnsgd1na2vs0mg"},{"bike_id":"708cd971-9d29-4c98-b204-7a699fd77c97","system_id":"levelo_inurba_marseille","lat":43.29009,"lon":5.35607,"is_reserved":false,"is_disabled":false,"rental_uris":{"android":"levelo://app?vid=708cd971-9d29-4c98-b204-7a699fd77c97","ios":"levelo://app?vid=708cd971-9d29-4c98-b204-7a699fd77c97"},"vehicle_type_id":"4","last_reported":1731496046,"current_range_meters":29600,"station_id":"ce4bhb92rcd13ifvqen0","pricing_plan_id":"cebpf4jnsgd1na2vs0mg"},{"bike_id":"89f8f5d9-8dcb-4f1b-a669-421fb541683a","system_id":"levelo_inurba_marseille","lat":43.33024,"lon":5.39036,"is_reserved":false,"is_disabled":false,"rental_uris":{"android":"levelo://app?vid=89f8f5d9-8dcb-4f1b-a669-421fb541683a","ios":"levelo://app?vid=89f8f5d9-8dcb-4f1b-a669-421fb541683a"},"vehicle_type_id":"4","last_reported":1731496046,"current_range_meters":5600,"station_id":"ce4bhr92rcd13ifvqhrg","pricing_plan_id":"cebpf4jnsgd1na2vs0mg"},{"bike_id":"dd08ca8d-818d-47ed-af6f-470825a18de5","system_id":"levelo_inurba_marseille","lat":43.29298,"lon":5.37169,"is_reserved":false,"is_disabled":false,"rental_uris":{"android":"levelo://app?vid=dd08ca8d-818d-47ed-af6f-470825a18de5","ios":"levelo://app?vid=dd08ca8d-818d-47ed-af6f-470825a18de5"},"vehicle_type_id":"4","last_reported":1731496046,"current_range_meters":26800,"station_id":"ce4bgh92rcd13ifvqb40","pricing_plan_id":"cebpf4jnsgd1na2vs0mg"},{"bike_id":"f4228df4-5a0a-47cb-920e-db2c90c10d64","system_id":"levelo_inurba_marseille","lat":43.3009,"lon":5.39074,"is_reserved":false,"is_disabled":false,"rental_uris":{"android":"levelo://app?vid=f4228df4-5a0a-47cb-920e-db2c90c10d64","ios":"levelo://app?vid=f4228df4-5a0a-47cb-920e-db2c90c10d64"},"vehicle_type_id":"4","last_reported":1731496046,"current_range_meters":35600,"station_id":"ce4bh192rcd13ifvqdb0","pricing_plan_id":"cebpf4jnsgd1na2vs0mg"},{"bike_id":"95fa7c15-6c4b-45e8-b918-7b50209077bb","system_id":"levelo_inurba_marseille","lat":43.27373,"lon":5.36255,"is_reserved":false,"is_disabled":false,"rental_uris":{"android":"levelo://app?vid=95fa7c15-6c4b-45e8-b918-7b50209077bb","ios":"levelo://app?vid=95fa7c15-6c4b-45e8-b918-7b50209077bb"},"vehicle_type_id":"4","last_reported":1731496046,"current_range_meters":30400,"station_id":"ce4bhbh2rcd13ifvqeo0","pricing_plan_id":"cebpf4jnsgd1na2vs0mg"},{"bike_id":"8963f262-bdcb-43f5-9e37-237198779ba8","system_id":"levelo_inurba_marseille","lat":43.33773,"lon":5.37442,"is_reserved":false,"is_disabled":false,"rental_uris":{"android":"levelo://app?vid=8963f262-bdcb-43f5-9e37-237198779ba8","ios":"levelo://app?vid=8963f262-bdcb-43f5-9e37-237198779ba8"},"vehicle_type_id":"4","last_reported":1731496046,"current_range_meters":38400,"station_id":"","pricing_plan_id":"cebpf4jnsgd1na2vs0mg"},{"bike_id":"9e206ec4-3bc2-4292-bb12-90ccf987d885","system_id":"levelo_inurba_marseille","lat":43.337444,"lon":5.374475,"is_reserved":false,"is_disabled":false,"rental_uris":{"android":"levelo://app?vid=9e206ec4-3bc2-4292-bb12-90ccf987d885","ios":"levelo://app?vid=9e206ec4-3bc2-4292-bb12-90ccf987d885"},"vehicle_type_id":"4","last_reported":1731496046,"current_range_meters":38000,"station_id":"","pricing_plan_id":"cebpf4jnsgd1na2vs0mg"},{"bike_id":"398b47b3-a042-4cec-b1dd-254773a78263","system_id":"levelo_inurba_marseille","lat":43.27409,"lon":5.38949,"is_reserved":false,"is_disabled":false,"rental_uris":{"android":"levelo://app?vid=398b47b3-a042-4cec-b1dd-254773a78263","ios":"levelo://app?vid=398b47b3-a042-4cec-b1dd-254773a78263"},"vehicle_type_id":"4","last_reported":1731496046,"current_range_meters":9600,"station_id":"","pricing_plan_id":"cebpf4jnsgd1na2vs0mg"},{"bike_id":"6be28529-08bd-462c-b8c6-34796e1f9d99","system_id":"levelo_inurba_marseille","lat":43.295959,"lon":5.405177,"is_reserved":false,"is_disabled":false,"rental_uris":{"android":"levelo://app?vid=6be28529-08bd-462c-b8c6-34796e1f9d99","ios":"levelo://app?vid=6be28529-08bd-462c-b8c6-34796e1f9d99"},"vehicle_type_id":"4","last_reported":1731496046,"current_range_meters":20000,"station_id":"ce4bh0h2rcd13ifvqd60","pricing_plan_id":"cebpf4jnsgd1na2vs0mg"},{"bike_id":"53b1ee1d-7fb0-4e26-b308-f96e793654d4","system_id":"levelo_inurba_marseille","lat":43.31487,"lon":5.37318,"is_reserved":false,"is_disabled":false,"rental_uris":{"android":"levelo://app?vid=53b1ee1d-7fb0-4e26-b308-f96e793654d4","ios":"levelo://app?vid=53b1ee1d-7fb0-4e26-b308-f96e793654d4"},"vehicle_type_id":"4","last_reported":1731496046,"current_range_meters":9600,"station_id":"ce4bgt12rcd13ifvqcd0","pricing_plan_id":"cebpf4jnsgd1na2vs0mg"},{"bike_id":"4fb9fb42-7013-4787-b11f-5dced0c2c358","system_id":"levelo_inurba_marseille","lat":43.30595,"lon":5.37213,"is_reserved":false,"is_disabled":false,"rental_uris":{"android":"levelo://app?vid=4fb9fb42-7013-4787-b11f-5dced0c2c358","ios":"levelo://app?vid=4fb9fb42-7013-4787-b11f-5dced0c2c358"},"vehicle_type_id":"4","last_reported":1731496046,"current_range_meters":16800,"station_id":"ce4bgqh2rcd13ifvqc4g","pricing_plan_id":"cebpf4jnsgd1na2vs0mg"},{"bike_id":"92e3ad17-17c9-4714-a148-ef9436ad6113","system_id":"levelo_inurba_marseille","lat":43.2294,"lon":5.35379,"is_reserved":false,"is_disabled":false,"rental_uris":{"android":"levelo://app?vid=92e3ad17-17c9-4714-a148-ef9436ad6113","ios":"levelo://app?vid=92e3ad17-17c9-4714-a148-ef9436ad6113"},"vehicle_type_id":"4","last_reported":1731496046,"current_range_meters":37600,"station_id":"cpo3532slgdg3j2ikp40","pricing_plan_id":"cebpf4jnsgd1na2vs0mg"},{"bike_id":"b82d4b5d-3873-4b38-a9da-7bcda2794ed1","system_id":"levelo_inurba_marseille","lat":43.30528,"lon":5.36546,"is_reserved":false,"is_disabled":false,"rental_uris":{"android":"levelo://app?vid=b82d4b5d-3873-4b38-a9da-7bcda2794ed1","ios":"levelo://app?vid=b82d4b5d-3873-4b38-a9da-7bcda2794ed1"},"vehicle_type_id":"4","last_reported":1731496046,"current_range_meters":38000,"station_id":"ce4bgs12rcd13ifvqcag","pricing_plan_id":"cebpf4jnsgd1na2vs0mg"},{"bike_id":"14979d0f-d768-4ff0-a3b8-7528de05ba2f","system_id":"levelo_inurba_marseille","lat":43.31075,"lon":5.40098,"is_reserved":false,"is_disabled":false,"rental_uris":{"android":"levelo://app?vid=14979d0f-d768-4ff0-a3b8-7528de05ba2f","ios":"levelo://app?vid=14979d0f-d768-4ff0-a3b8-7528de05ba2f"},"vehicle_type_id":"4","last_reported":1731496046,"current_range_meters":38800,"station_id":"","pricing_plan_id":"cebpf4jnsgd1na2vs0mg"},{"bike_id":"9b318ec0-f4cc-4e60-af95-e2dced4e1b2d","system_id":"levelo_inurba_marseille","lat":43.25001,"lon":5.38925,"is_reserved":false,"is_disabled":false,"rental_uris":{"android":"levelo://app?vid=9b318ec0-f4cc-4e60-af95-e2dced4e1b2d","ios":"levelo://app?vid=9b318ec0-f4cc-4e60-af95-e2dced4e1b2d"},"vehicle_type_id":"4","last_reported":1731496046,"current_range_meters":39200,"station_id":"ce4bhgp2rcd13ifvqfd0","pricing_plan_id":"cebpf4jnsgd1na2vs0mg"},{"bike_id":"a0bffd38-f529-4b37-9227-fb3819a7a32a","system_id":"levelo_inurba_marseille","lat":43.29552,"lon":5.42281,"is_reserved":false,"is_disabled":false,"rental_uris":{"android":"levelo://app?vid=a0bffd38-f529-4b37-9227-fb3819a7a32a","ios":"levelo://app?vid=a0bffd38-f529-4b37-9227-fb3819a7a32a"},"vehicle_type_id":"4","last_reported":1731496046,"current_range_meters":35200,"station_id":"ce4bhph2rcd13ifvqhdg","pricing_plan_id":"cebpf4jnsgd1na2vs0mg"},{"bike_id":"beb7b9bd-a544-4d0c-b0ee-a6204f3f5108","system_id":"levelo_inurba_marseille","lat":43.291962,"lon":5.385193,"is_reserved":false,"is_disabled":false,"rental_uris":{"android":"levelo://app?vid=beb7b9bd-a544-4d0c-b0ee-a6204f3f5108","ios":"levelo://app?vid=beb7b9bd-a544-4d0c-b0ee-a6204f3f5108"},"vehicle_type_id":"4","last_reported":1731496046,"current_range_meters":29600,"station_id":"","pricing_plan_id":"cebpf4jnsgd1na2vs0mg"},{"bike_id":"82f309e6-c4ae-421f-89cb-1d64a8e0ef10","system_id":"levelo_inurba_marseille","lat":43.337444,"lon":5.374475,"is_reserved":false,"is_disabled":false,"rental_uris":{"android":"levelo://app?vid=82f309e6-c4ae-421f-89cb-1d64a8e0ef10","ios":"levelo://app?vid=82f309e6-c4ae-421f-89cb-1d64a8e0ef10"},"vehicle_type_id":"4","last_reported":1731496046,"current_range_meters":37600,"station_id":"","pricing_plan_id":"cebpf4jnsgd1na2vs0mg"},{"bike_id":"d2423466-98bc-4d3a-a5fc-c0d33f6c410d","system_id":"levelo_inurba_marseille","lat":43.337444,"lon":5.374475,"is_reserved":false,"is_disabled":false,"rental_uris":{"android":"levelo://app?vid=d2423466-98bc-4d3a-a5fc-c0d33f6c410d","ios":"levelo://app?vid=d2423466-98bc-4d3a-a5fc-c0d33f6c410d"},"vehicle_type_id":"4","last_reported":1731496046,"current_range_meters":37600,"station_id":"","pricing_plan_id":"cebpf4jnsgd1na2vs0mg"},{"bike_id":"e8cc31e8-880f-4b8d-8ec4-492eb181f840","system_id":"levelo_inurba_marseille","lat":43.23153,"lon":5.43711,"is_reserved":false,"is_disabled":false,"rental_uris":{"android":"levelo://app?vid=e8cc31e8-880f-4b8d-8ec4-492eb181f840","ios":"levelo://app?vid=e8cc31e8-880f-4b8d-8ec4-492eb181f840"},"vehicle_type_id":"4","last_reported":1731496046,"current_range_meters":15200,"station_id":"ce4bhmp2rcd13ifvqgog","pricing_plan_id":"cebpf4jnsgd1na2vs0mg"},{"bike_id":"71cdf89e-b161-4da7-b7b9-9b4999ce54a2","system_id":"levelo_inurba_marseille","lat":43.3054,"lon":5.36519,"is_reserved":false,"is_disabled":false,"rental_uris":{"android":"levelo://app?vid=71cdf89e-b161-4da7-b7b9-9b4999ce54a2","ios":"levelo://app?vid=71cdf89e-b161-4da7-b7b9-9b4999ce54a2"},"vehicle_type_id":"4","last_reported":1731496046,"current_range_meters":27200,"station_id":"ce4bgs12rcd13ifvqcag","pricing_plan_id":"cebpf4jnsgd1na2vs0mg"},{"bike_id":"b1f50a4e-bf80-417b-be95-adf7b4bc4b3b","system_id":"levelo_inurba_marseille","lat":43.30401,"lon":5.36992,"is_reserved":false,"is_disabled":false,"rental_uris":{"android":"levelo://app?vid=b1f50a4e-bf80-417b-be95-adf7b4bc4b3b","ios":"levelo://app?vid=b1f50a4e-bf80-417b-be95-adf7b4bc4b3b"},"vehicle_type_id":"4","last_reported":1731496046,"current_range_meters":30800,"station_id":"","pricing_plan_id":"cebpf4jnsgd1na2vs0mg"},{"bike_id":"9c08f545-35a8-4fea-81bf-d6bb60b0f911","system_id":"levelo_inurba_marseille","lat":43.24168,"lon":5.39366,"is_reserved":false,"is_disabled":false,"rental_uris":{"android":"levelo://app?vid=9c08f545-35a8-4fea-81bf-d6bb60b0f911","ios":"levelo://app?vid=9c08f545-35a8-4fea-81bf-d6bb60b0f911"},"vehicle_type_id":"4","last_reported":1731496046,"current_range_meters":24000,"station_id":"ce4bhhh2rcd13ifvqfk0","pricing_plan_id":"cebpf4jnsgd1na2vs0mg"},{"bike_id":"85718261-3746-4a85-9f1e-84adac851f6a","system_id":"levelo_inurba_marseille","lat":43.26029,"lon":5.37548,"is_reserved":false,"is_disabled":false,"rental_uris":{"android":"levelo://app?vid=85718261-3746-4a85-9f1e-84adac851f6a","ios":"levelo://app?vid=85718261-3746-4a85-9f1e-84adac851f6a"},"vehicle_type_id":"4","last_reported":1731496046,"current_range_meters":39200,"station_id":"ce4bhgh2rcd13ifvqfa0","pricing_plan_id":"cebpf4jnsgd1na2vs0mg"},{"bike_id":"9217fd7b-2849-4b14-8c8d-3a0f76cda9b1","system_id":"levelo_inurba_marseille","lat":43.26028,"lon":5.3755,"is_reserved":false,"is_disabled":false,"rental_uris":{"android":"levelo://app?vid=9217fd7b-2849-4b14-8c8d-3a0f76cda9b1","ios":"levelo://app?vid=9217fd7b-2849-4b14-8c8d-3a0f76cda9b1"},"vehicle_type_id":"4","last_reported":1731496046,"current_range_meters":37600,"station_id":"ce4bhgh2rcd13ifvqfa0","pricing_plan_id":"cebpf4jnsgd1na2vs0mg"},{"bike_id":"bd3a2ce1-48ec-4e74-a1a7-9bd3007cb483","system_id":"levelo_inurba_marseille","lat":43.25935,"lon":5.40893,"is_reserved":false,"is_disabled":false,"rental_uris":{"android":"levelo://app?vid=bd3a2ce1-48ec-4e74-a1a7-9bd3007cb483","ios":"levelo://app?vid=bd3a2ce1-48ec-4e74-a1a7-9bd3007cb483"},"vehicle_type_id":"4","last_reported":1731496046,"current_range_meters":32000,"station_id":"ce4bhm92rcd13ifvqglg","pricing_plan_id":"cebpf4jnsgd1na2vs0mg"},{"bike_id":"07c77f58-408b-456e-9c32-22bcf4293005","system_id":"levelo_inurba_marseille","lat":43.31164,"lon":5.38713,"is_reserved":false,"is_disabled":false,"rental_uris":{"android":"levelo://app?vid=07c77f58-408b-456e-9c32-22bcf4293005","ios":"levelo://app?vid=07c77f58-408b-456e-9c32-22bcf4293005"},"vehicle_type_id":"4","last_reported":1731496046,"current_range_meters":38800,"station_id":"ce4bgv12rcd13ifvqcp0","pricing_plan_id":"cebpf4jnsgd1na2vs0mg"},{"bike_id":"c16aad60-bed9-4b48-81c0-51e917c7cb08","system_id":"levelo_inurba_marseille","lat":43.30181,"lon":5.36612,"is_reserved":false,"is_disabled":false,"rental_uris":{"android":"levelo://app?vid=c16aad60-bed9-4b48-81c0-51e917c7cb08","ios":"levelo://app?vid=c16aad60-bed9-4b48-81c0-51e917c7cb08"},"vehicle_type_id":"4","last_reported":1731496046,"current_range_meters":38800,"station_id":"ce4bgrh2rcd13ifvqc8g","pricing_plan_id":"cebpf4jnsgd1na2vs0mg"},{"bike_id":"158757d0-f89c-452d-9746-6ab2aad19887","system_id":"levelo_inurba_marseille","lat":43.31231,"lon":5.36858,"is_reserved":false,"is_disabled":false,"rental_uris":{"android":"levelo://app?vid=158757d0-f89c-452d-9746-6ab2aad19887","ios":"levelo://app?vid=158757d0-f89c-452d-9746-6ab2aad19887"},"vehicle_type_id":"4","last_reported":1731496046,"current_range_meters":36400,"station_id":"ce4bgl92rcd13ifvqbq0","pricing_plan_id":"cebpf4jnsgd1na2vs0mg"},{"bike_id":"f3642bb6-25ef-4c90-aabf-947f0b48a558","system_id":"levelo_inurba_marseille","lat":43.29869,"lon":5.39736,"is_reserved":false,"is_disabled":false,"rental_uris":{"android":"levelo://app?vid=f3642bb6-25ef-4c90-aabf-947f0b48a558","ios":"levelo://app?vid=f3642bb6-25ef-4c90-aabf-947f0b48a558"},"vehicle_type_id":"4","last_reported":1731496046,"current_range_meters":24000,"station_id":"ce4bh0h2rcd13ifvqd50","pricing_plan_id":"cebpf4jnsgd1na2vs0mg"},{"bike_id":"9111b3c4-7ddd-4e5e-9f57-7a2241ab6dea","system_id":"levelo_inurba_marseille","lat":43.33023,"lon":5.39036,"is_reserved":false,"is_disabled":false,"rental_uris":{"android":"levelo://app?vid=9111b3c4-7ddd-4e5e-9f57-7a2241ab6dea","ios":"levelo://app?vid=9111b3c4-7ddd-4e5e-9f57-7a2241ab6dea"},"vehicle_type_id":"4","last_reported":1731496046,"current_range_meters":24800,"station_id":"ce4bhr92rcd13ifvqhrg","pricing_plan_id":"cebpf4jnsgd1na2vs0mg"},{"bike_id":"ebad3fe3-45c6-49ab-a9a7-bd5380241ddd","system_id":"levelo_inurba_marseille","lat":43.27068,"lon":5.42278,"is_reserved":false,"is_disabled":false,"rental_uris":{"android":"levelo://app?vid=ebad3fe3-45c6-49ab-a9a7-bd5380241ddd","ios":"levelo://app?vid=ebad3fe3-45c6-49ab-a9a7-bd5380241ddd"},"vehicle_type_id":"4","last_reported":1731496046,"current_range_meters":27200,"station_id":"ce4bhk92rcd13ifvqgb0","pricing_plan_id":"cebpf4jnsgd1na2vs0mg"},{"bike_id":"7ebf81d7-097f-476e-b5f0-a938e3068cb7","system_id":"levelo_inurba_marseille","lat":43.26782,"lon":5.39431,"is_reserved":false,"is_disabled":false,"rental_uris":{"android":"levelo://app?vid=7ebf81d7-097f-476e-b5f0-a938e3068cb7","ios":"levelo://app?vid=7ebf81d7-097f-476e-b5f0-a938e3068cb7"},"vehicle_type_id":"4","last_reported":1731496046,"current_range_meters":38800,"station_id":"ce4bhh12rcd13ifvqfg0","pricing_plan_id":"cebpf4jnsgd1na2vs0mg"},{"bike_id":"4c5dcb1b-c96f-4209-a02e-05bce2591523","system_id":"levelo_inurba_marseille","lat":43.29881,"lon":5.38898,"is_reserved":false,"is_disabled":false,"rental_uris":{"android":"levelo://app?vid=4c5dcb1b-c96f-4209-a02e-05bce2591523","ios":"levelo://app?vid=4c5dcb1b-c96f-4209-a02e-05bce2591523"},"vehicle_type_id":"4","last_reported":1731496046,"current_range_meters":20000,"station_id":"ce4bh392rcd13ifvqdl0","pricing_plan_id":"cebpf4jnsgd1na2vs0mg"},{"bike_id":"3d8cceee-e8ae-48df-9d20-ed8626b0c570","system_id":"levelo_inurba_marseille","lat":43.33024,"lon":5.39033,"is_reserved":false,"is_disabled":false,"rental_uris":{"android":"levelo://app?vid=3d8cceee-e8ae-48df-9d20-ed8626b0c570","ios":"levelo://app?vid=3d8cceee-e8ae-48df-9d20-ed8626b0c570"},"vehicle_type_id":"4","last_reported":1731496046,"current_range_meters":34000,"station_id":"ce4bhr92rcd13ifvqhrg","pricing_plan_id":"cebpf4jnsgd1na2vs0mg"},{"bike_id":"92a7a4b8-71a2-4d89-a912-8ce23346a0d1","system_id":"levelo_inurba_marseille","lat":43.28258,"lon":5.44406,"is_reserved":false,"is_disabled":false,"rental_uris":{"android":"levelo://app?vid=92a7a4b8-71a2-4d89-a912-8ce23346a0d1","ios":"levelo://app?vid=92a7a4b8-71a2-4d89-a912-8ce23346a0d1"},"vehicle_type_id":"4","last_reported":1731496046,"current_range_meters":16800,"station_id":"","pricing_plan_id":"cebpf4jnsgd1na2vs0mg"},{"bike_id":"59ab4c3d-d580-439c-997c-0faf46e9228d","system_id":"levelo_inurba_marseille","lat":43.2694,"lon":5.40241,"is_reserved":false,"is_disabled":false,"rental_uris":{"android":"levelo://app?vid=59ab4c3d-d580-439c-997c-0faf46e9228d","ios":"levelo://app?vid=59ab4c3d-d580-439c-997c-0faf46e9228d"},"vehicle_type_id":"4","last_reported":1731496046,"current_range_meters":11200,"station_id":"cjm6bp8fraef2m0cb0m0","pricing_plan_id":"cebpf4jnsgd1na2vs0mg"},{"bike_id":"698f9470-ad94-493b-8dbd-d4831d7a0078","system_id":"levelo_inurba_marseille","lat":43.30534,"lon":5.367,"is_reserved":false,"is_disabled":false,"rental_uris":{"android":"levelo://app?vid=698f9470-ad94-493b-8dbd-d4831d7a0078","ios":"levelo://app?vid=698f9470-ad94-493b-8dbd-d4831d7a0078"},"vehicle_type_id":"4","last_reported":1731496046,"current_range_meters":27600,"station_id":"ce4bgrp2rcd13ifvqc9g","pricing_plan_id":"cebpf4jnsgd1na2vs0mg"},{"bike_id":"77ab44b7-4460-4a96-b6d3-a90ea09f2ced","system_id":"levelo_inurba_marseille","lat":43.23948,"lon":5.36624,"is_reserved":false,"is_disabled":false,"rental_uris":{"android":"levelo://app?vid=77ab44b7-4460-4a96-b6d3-a90ea09f2ced","ios":"levelo://app?vid=77ab44b7-4460-4a96-b6d3-a90ea09f2ced"},"vehicle_type_id":"4","last_reported":1731496046,"current_range_meters":33200,"station_id":"ce4bhi12rcd13ifvqfp0","pricing_plan_id":"cebpf4jnsgd1na2vs0mg"},{"bike_id":"47fdd3bf-4cb5-4eed-812e-3770c79fd243","system_id":"levelo_inurba_marseille","lat":43.32107,"lon":5.3678,"is_reserved":false,"is_disabled":false,"rental_uris":{"android":"levelo://app?vid=47fdd3bf-4cb5-4eed-812e-3770c79fd243","ios":"levelo://app?vid=47fdd3bf-4cb5-4eed-812e-3770c79fd243"},"vehicle_type_id":"4","last_reported":1731496046,"current_range_meters":16400,"station_id":"ce4bhrh2rcd13ifvqhug","pricing_plan_id":"cebpf4jnsgd1na2vs0mg"},{"bike_id":"cd6489fe-a1f3-41e8-afe8-e5b9bcb0c046","system_id":"levelo_inurba_marseille","lat":43.3014,"lon":5.37409,"is_reserved":false,"is_disabled":false,"rental_uris":{"android":"levelo://app?vid=cd6489fe-a1f3-41e8-afe8-e5b9bcb0c046","ios":"levelo://app?vid=cd6489fe-a1f3-41e8-afe8-e5b9bcb0c046"},"vehicle_type_id":"4","last_reported":1731496046,"current_range_meters":24400,"station_id":"ce4bgs92rcd13ifvqcc0","pricing_plan_id":"cebpf4jnsgd1na2vs0mg"},{"bike_id":"20c37854-b17a-4446-84d0-62892f69ee02","system_id":"levelo_inurba_marseille","lat":43.31689,"lon":5.40488,"is_reserved":false,"is_disabled":false,"rental_uris":{"android":"levelo://app?vid=20c37854-b17a-4446-84d0-62892f69ee02","ios":"levelo://app?vid=20c37854-b17a-4446-84d0-62892f69ee02"},"vehicle_type_id":"4","last_reported":1731496046,"current_range_meters":4800,"station_id":"ce4bh012rcd13ifvqd00","pricing_plan_id":"cebpf4jnsgd1na2vs0mg"},{"bike_id":"06380225-2059-4a1b-ab66-74996d31bff2","system_id":"levelo_inurba_marseille","lat":43.31348,"lon":5.36724,"is_reserved":false,"is_disabled":false,"rental_uris":{"android":"levelo://app?vid=06380225-2059-4a1b-ab66-74996d31bff2","ios":"levelo://app?vid=06380225-2059-4a1b-ab66-74996d31bff2"},"vehicle_type_id":"4","last_reported":1731496046,"current_range_meters":14400,"station_id":"ce4bgr92rcd13ifvqc6g","pricing_plan_id":"cebpf4jnsgd1na2vs0mg"},{"bike_id":"ff5b8e6a-125d-4196-a85f-4552e7cfc99a","system_id":"levelo_inurba_marseille","lat":43.243235,"lon":5.368873,"is_reserved":false,"is_disabled":false,"rental_uris":{"android":"levelo://app?vid=ff5b8e6a-125d-4196-a85f-4552e7cfc99a","ios":"levelo://app?vid=ff5b8e6a-125d-4196-a85f-4552e7cfc99a"},"vehicle_type_id":"4","last_reported":1731496046,"current_range_meters":14800,"station_id":"ce4bhi12rcd13ifvqfp0","pricing_plan_id":"cebpf4jnsgd1na2vs0mg"},{"bike_id":"5e96f609-2d16-41e9-86d3-411db3ae9987","system_id":"levelo_inurba_marseille","lat":43.336,"lon":5.41025,"is_reserved":false,"is_disabled":false,"rental_uris":{"android":"levelo://app?vid=5e96f609-2d16-41e9-86d3-411db3ae9987","ios":"levelo://app?vid=5e96f609-2d16-41e9-86d3-411db3ae9987"},"vehicle_type_id":"4","last_reported":1731496046,"current_range_meters":8000,"station_id":"ce4bhqh2rcd13ifvqhmg","pricing_plan_id":"cebpf4jnsgd1na2vs0mg"},{"bike_id":"9cd4ab93-2f70-4411-91b2-66122de72ac9","system_id":"levelo_inurba_marseille","lat":43.30141,"lon":5.37411,"is_reserved":false,"is_disabled":false,"rental_uris":{"android":"levelo://app?vid=9cd4ab93-2f70-4411-91b2-66122de72ac9","ios":"levelo://app?vid=9cd4ab93-2f70-4411-91b2-66122de72ac9"},"vehicle_type_id":"4","last_reported":1731496046,"current_range_meters":32400,"station_id":"ce4bgs92rcd13ifvqcc0","pricing_plan_id":"cebpf4jnsgd1na2vs0mg"},{"bike_id":"26a03bdd-cd97-4229-bb58-db6597e3b5d2","system_id":"levelo_inurba_marseille","lat":43.29285,"lon":5.38549,"is_reserved":false,"is_disabled":false,"rental_uris":{"android":"levelo://app?vid=26a03bdd-cd97-4229-bb58-db6597e3b5d2","ios":"levelo://app?vid=26a03bdd-cd97-4229-bb58-db6597e3b5d2"},"vehicle_type_id":"4","last_reported":1731496046,"current_range_meters":8400,"station_id":"ce4bgv12rcd13ifvqcp0","pricing_plan_id":"cebpf4jnsgd1na2vs0mg"},{"bike_id":"70e78c93-084e-4ab7-a814-465f1ec8a7f0","system_id":"levelo_inurba_marseille","lat":43.23152,"lon":5.43696,"is_reserved":false,"is_disabled":false,"rental_uris":{"android":"levelo://app?vid=70e78c93-084e-4ab7-a814-465f1ec8a7f0","ios":"levelo://app?vid=70e78c93-084e-4ab7-a814-465f1ec8a7f0"},"vehicle_type_id":"4","last_reported":1731496046,"current_range_meters":29600,"station_id":"ce4bhmp2rcd13ifvqgog","pricing_plan_id":"cebpf4jnsgd1na2vs0mg"},{"bike_id":"0ddb8513-9d85-4af3-ba4d-76d4a8ae38df","system_id":"levelo_inurba_marseille","lat":43.27621,"lon":5.36109,"is_reserved":false,"is_disabled":false,"rental_uris":{"android":"levelo://app?vid=0ddb8513-9d85-4af3-ba4d-76d4a8ae38df","ios":"levelo://app?vid=0ddb8513-9d85-4af3-ba4d-76d4a8ae38df"},"vehicle_type_id":"4","last_reported":1731496046,"current_range_meters":30000,"station_id":"ce4bgj92rcd13ifvqbe0","pricing_plan_id":"cebpf4jnsgd1na2vs0mg"},{"bike_id":"f2ff6cb7-9c75-4268-983c-1e09bc9ab498","system_id":"levelo_inurba_marseille","lat":43.337444,"lon":5.374475,"is_reserved":false,"is_disabled":false,"rental_uris":{"android":"levelo://app?vid=f2ff6cb7-9c75-4268-983c-1e09bc9ab498","ios":"levelo://app?vid=f2ff6cb7-9c75-4268-983c-1e09bc9ab498"},"vehicle_type_id":"4","last_reported":1731496046,"current_range_meters":38000,"station_id":"","pricing_plan_id":"cebpf4jnsgd1na2vs0mg"},{"bike_id":"5945b09f-8735-4358-ad3e-01166b87c0b9","system_id":"levelo_inurba_marseille","lat":43.30598,"lon":5.37222,"is_reserved":false,"is_disabled":false,"rental_uris":{"android":"levelo://app?vid=5945b09f-8735-4358-ad3e-01166b87c0b9","ios":"levelo://app?vid=5945b09f-8735-4358-ad3e-01166b87c0b9"},"vehicle_type_id":"4","last_reported":1731496046,"current_range_meters":30400,"station_id":"ce4bgqh2rcd13ifvqc4g","pricing_plan_id":"cebpf4jnsgd1na2vs0mg"},{"bike_id":"a1dcc4f6-dce8-4425-b084-7b55073d3773","system_id":"levelo_inurba_marseille","lat":43.27992,"lon":5.40012,"is_reserved":false,"is_disabled":false,"rental_uris":{"android":"levelo://app?vid=a1dcc4f6-dce8-4425-b084-7b55073d3773","ios":"levelo://app?vid=a1dcc4f6-dce8-4425-b084-7b55073d3773"},"vehicle_type_id":"4","last_reported":1731496046,"current_range_meters":31200,"station_id":"ce4bho92rcd13ifvqh4g","pricing_plan_id":"cebpf4jnsgd1na2vs0mg"},{"bike_id":"d2111ce7-fd97-4b4a-a88d-36160ab4cec8","system_id":"levelo_inurba_marseille","lat":43.24181,"lon":5.39722,"is_reserved":false,"is_disabled":false,"rental_uris":{"android":"levelo://app?vid=d2111ce7-fd97-4b4a-a88d-36160ab4cec8","ios":"levelo://app?vid=d2111ce7-fd97-4b4a-a88d-36160ab4cec8"},"vehicle_type_id":"4","last_reported":1731496046,"current_range_meters":6800,"station_id":"ce4bhn12rcd13ifvqgpg","pricing_plan_id":"cebpf4jnsgd1na2vs0mg"},{"bike_id":"58e12413-d879-4dff-a084-333be006c499","system_id":"levelo_inurba_marseille","lat":43.29545,"lon":5.4227,"is_reserved":false,"is_disabled":false,"rental_uris":{"android":"levelo://app?vid=58e12413-d879-4dff-a084-333be006c499","ios":"levelo://app?vid=58e12413-d879-4dff-a084-333be006c499"},"vehicle_type_id":"4","last_reported":1731496046,"current_range_meters":30400,"station_id":"ce4bhph2rcd13ifvqhdg","pricing_plan_id":"cebpf4jnsgd1na2vs0mg"},{"bike_id":"f1bbdc17-5b02-4493-a9aa-74503dc6fc94","system_id":"levelo_inurba_marseille","lat":43.27947,"lon":5.41038,"is_reserved":false,"is_disabled":false,"rental_uris":{"android":"levelo://app?vid=f1bbdc17-5b02-4493-a9aa-74503dc6fc94","ios":"levelo://app?vid=f1bbdc17-5b02-4493-a9aa-74503dc6fc94"},"vehicle_type_id":"4","last_reported":1731496046,"current_range_meters":22400,"station_id":"ce4bhnp2rcd13ifvqh0g","pricing_plan_id":"cebpf4jnsgd1na2vs0mg"},{"bike_id":"a9f33929-61c0-47ae-9831-4cb0ef2b78db","system_id":"levelo_inurba_marseille","lat":43.26205,"lon":5.37443,"is_reserved":false,"is_disabled":false,"rental_uris":{"android":"levelo://app?vid=a9f33929-61c0-47ae-9831-4cb0ef2b78db","ios":"levelo://app?vid=a9f33929-61c0-47ae-9831-4cb0ef2b78db"},"vehicle_type_id":"4","last_reported":1731496046,"current_range_meters":24400,"station_id":"ce4bhgp2rcd13ifvqfc0","pricing_plan_id":"cebpf4jnsgd1na2vs0mg"},{"bike_id":"d5597fb2-f576-4ef2-a10a-8be5a6ee8530","system_id":"levelo_inurba_marseille","lat":43.291718,"lon":5.371576,"is_reserved":false,"is_disabled":false,"rental_uris":{"android":"levelo://app?vid=d5597fb2-f576-4ef2-a10a-8be5a6ee8530","ios":"levelo://app?vid=d5597fb2-f576-4ef2-a10a-8be5a6ee8530"},"vehicle_type_id":"4","last_reported":1731496046,"current_range_meters":16800,"station_id":"ce4bgt92rcd13ifvqcg0","pricing_plan_id":"cebpf4jnsgd1na2vs0mg"},{"bike_id":"be70f28d-93f0-416d-82e0-c2cd2f1ffa5c","system_id":"levelo_inurba_marseille","lat":43.30905,"lon":5.36848,"is_reserved":false,"is_disabled":false,"rental_uris":{"android":"levelo://app?vid=be70f28d-93f0-416d-82e0-c2cd2f1ffa5c","ios":"levelo://app?vid=be70f28d-93f0-416d-82e0-c2cd2f1ffa5c"},"vehicle_type_id":"4","last_reported":1731496046,"current_range_meters":38800,"station_id":"ce4bgn92rcd13ifvqbvg","pricing_plan_id":"cebpf4jnsgd1na2vs0mg"},{"bike_id":"6a74bd13-2f0d-4293-a500-24db67983d5b","system_id":"levelo_inurba_marseille","lat":43.23067,"lon":5.35493,"is_reserved":false,"is_disabled":false,"rental_uris":{"android":"levelo://app?vid=6a74bd13-2f0d-4293-a500-24db67983d5b","ios":"levelo://app?vid=6a74bd13-2f0d-4293-a500-24db67983d5b"},"vehicle_type_id":"4","last_reported":1731496046,"current_range_meters":36800,"station_id":"cpo3342slgdg3j2ifvpg","pricing_plan_id":"cebpf4jnsgd1na2vs0mg"},{"bike_id":"a9e36ff8-4aa4-4e14-a62e-0319d2ad2e8a","system_id":"levelo_inurba_marseille","lat":43.27807,"lon":5.4071,"is_reserved":false,"is_disabled":false,"rental_uris":{"android":"levelo://app?vid=a9e36ff8-4aa4-4e14-a62e-0319d2ad2e8a","ios":"levelo://app?vid=a9e36ff8-4aa4-4e14-a62e-0319d2ad2e8a"},"vehicle_type_id":"4","last_reported":1731496046,"current_range_meters":36000,"station_id":"ce4bhnh2rcd13ifvqgtg","pricing_plan_id":"cebpf4jnsgd1na2vs0mg"},{"bike_id":"a2ace688-d0a6-43f5-a9fd-af80a98512ab","system_id":"levelo_inurba_marseille","lat":43.24659,"lon":5.38162,"is_reserved":false,"is_disabled":false,"rental_uris":{"android":"levelo://app?vid=a2ace688-d0a6-43f5-a9fd-af80a98512ab","ios":"levelo://app?vid=a2ace688-d0a6-43f5-a9fd-af80a98512ab"},"vehicle_type_id":"4","last_reported":1731496046,"current_range_meters":8800,"station_id":"ce4bhih2rcd13ifvqfr0","pricing_plan_id":"cebpf4jnsgd1na2vs0mg"},{"bike_id":"ddf51a43-0fff-4948-ad10-6f7a6747dc95","system_id":"levelo_inurba_marseille","lat":43.26939,"lon":5.40249,"is_reserved":false,"is_disabled":false,"rental_uris":{"android":"levelo://app?vid=ddf51a43-0fff-4948-ad10-6f7a6747dc95","ios":"levelo://app?vid=ddf51a43-0fff-4948-ad10-6f7a6747dc95"},"vehicle_type_id":"4","last_reported":1731496046,"current_range_meters":26000,"station_id":"cjm6bp8fraef2m0cb0m0","pricing_plan_id":"cebpf4jnsgd1na2vs0mg"},{"bike_id":"bf94e288-257a-425c-8cac-6aa3c06a4541","system_id":"levelo_inurba_marseille","lat":43.29372,"lon":5.37846,"is_reserved":false,"is_disabled":false,"rental_uris":{"android":"levelo://app?vid=bf94e288-257a-425c-8cac-6aa3c06a4541","ios":"levelo://app?vid=bf94e288-257a-425c-8cac-6aa3c06a4541"},"vehicle_type_id":"4","last_reported":1731496046,"current_range_meters":30000,"station_id":"ce4bgjh2rcd13ifvqbf0","pricing_plan_id":"cebpf4jnsgd1na2vs0mg"},{"bike_id":"36d53520-c7e3-464c-b836-eecedd4879f9","system_id":"levelo_inurba_marseille","lat":43.29552,"lon":5.42286,"is_reserved":false,"is_disabled":false,"rental_uris":{"android":"levelo://app?vid=36d53520-c7e3-464c-b836-eecedd4879f9","ios":"levelo://app?vid=36d53520-c7e3-464c-b836-eecedd4879f9"},"vehicle_type_id":"4","last_reported":1731496046,"current_range_meters":24000,"station_id":"ce4bhph2rcd13ifvqhdg","pricing_plan_id":"cebpf4jnsgd1na2vs0mg"},{"bike_id":"591523be-2f12-4a7f-b680-93790f1e72f3","system_id":"levelo_inurba_marseille","lat":43.24997,"lon":5.38935,"is_reserved":false,"is_disabled":false,"rental_uris":{"android":"levelo://app?vid=591523be-2f12-4a7f-b680-93790f1e72f3","ios":"levelo://app?vid=591523be-2f12-4a7f-b680-93790f1e72f3"},"vehicle_type_id":"4","last_reported":1731496046,"current_range_meters":17200,"station_id":"ce4bhgp2rcd13ifvqfd0","pricing_plan_id":"cebpf4jnsgd1na2vs0mg"},{"bike_id":"d51dd9a0-f4f8-4aea-9ec3-306b3343b27a","system_id":"levelo_inurba_marseille","lat":43.30946,"lon":5.39043,"is_reserved":false,"is_disabled":false,"rental_uris":{"android":"levelo://app?vid=d51dd9a0-f4f8-4aea-9ec3-306b3343b27a","ios":"levelo://app?vid=d51dd9a0-f4f8-4aea-9ec3-306b3343b27a"},"vehicle_type_id":"4","last_reported":1731496046,"current_range_meters":17200,"station_id":"ce4bgup2rcd13ifvqco0","pricing_plan_id":"cebpf4jnsgd1na2vs0mg"},{"bike_id":"69ccb773-8021-4bb0-a69e-7e324132b89e","system_id":"levelo_inurba_marseille","lat":43.29717,"lon":5.37702,"is_reserved":false,"is_disabled":false,"rental_uris":{"android":"levelo://app?vid=69ccb773-8021-4bb0-a69e-7e324132b89e","ios":"levelo://app?vid=69ccb773-8021-4bb0-a69e-7e324132b89e"},"vehicle_type_id":"4","last_reported":1731496046,"current_range_meters":14800,"station_id":"ce4bgkh2rcd13ifvqbl0","pricing_plan_id":"cebpf4jnsgd1na2vs0mg"},{"bike_id":"49f5c11f-cb38-46cf-abca-b09395599aa6","system_id":"levelo_inurba_marseille","lat":43.31275,"lon":5.40164,"is_reserved":false,"is_disabled":false,"rental_uris":{"android":"levelo://app?vid=49f5c11f-cb38-46cf-abca-b09395599aa6","ios":"levelo://app?vid=49f5c11f-cb38-46cf-abca-b09395599aa6"},"vehicle_type_id":"4","last_reported":1731496046,"current_range_meters":6800,"station_id":"ce4bh092rcd13ifvqd30","pricing_plan_id":"cebpf4jnsgd1na2vs0mg"},{"bike_id":"9d21ff4a-d516-4d71-a226-ead22ace12fd","system_id":"levelo_inurba_marseille","lat":43.25938,"lon":5.40899,"is_reserved":false,"is_disabled":false,"rental_uris":{"android":"levelo://app?vid=9d21ff4a-d516-4d71-a226-ead22ace12fd","ios":"levelo://app?vid=9d21ff4a-d516-4d71-a226-ead22ace12fd"},"vehicle_type_id":"4","last_reported":1731496046,"current_range_meters":18800,"station_id":"ce4bhm92rcd13ifvqglg","pricing_plan_id":"cebpf4jnsgd1na2vs0mg"},{"bike_id":"c616ab5c-1a4a-4305-969d-018947353a15","system_id":"levelo_inurba_marseille","lat":43.29678,"lon":5.37288,"is_reserved":false,"is_disabled":false,"rental_uris":{"android":"levelo://app?vid=c616ab5c-1a4a-4305-969d-018947353a15","ios":"levelo://app?vid=c616ab5c-1a4a-4305-969d-018947353a15"},"vehicle_type_id":"4","last_reported":1731496046,"current_range_meters":28400,"station_id":"ce4bgk12rcd13ifvqbj0","pricing_plan_id":"cebpf4jnsgd1na2vs0mg"},{"bike_id":"75f92660-36ba-4bb5-a6b6-0de1b0077b53","system_id":"levelo_inurba_marseille","lat":43.31299,"lon":5.40202,"is_reserved":false,"is_disabled":false,"rental_uris":{"android":"levelo://app?vid=75f92660-36ba-4bb5-a6b6-0de1b0077b53","ios":"levelo://app?vid=75f92660-36ba-4bb5-a6b6-0de1b0077b53"},"vehicle_type_id":"4","last_reported":1731496046,"current_range_meters":8000,"station_id":"","pricing_plan_id":"cebpf4jnsgd1na2vs0mg"},{"bike_id":"ecb7c274-90d0-4e95-92a1-62c481d46dcf","system_id":"levelo_inurba_marseille","lat":43.30526,"lon":5.36538,"is_reserved":false,"is_disabled":false,"rental_uris":{"android":"levelo://app?vid=ecb7c274-90d0-4e95-92a1-62c481d46dcf","ios":"levelo://app?vid=ecb7c274-90d0-4e95-92a1-62c481d46dcf"},"vehicle_type_id":"4","last_reported":1731496046,"current_range_meters":22000,"station_id":"ce4bgs12rcd13ifvqcag","pricing_plan_id":"cebpf4jnsgd1na2vs0mg"},{"bike_id":"ab02f532-58e6-4cd1-8c1b-88c778664811","system_id":"levelo_inurba_marseille","lat":43.31075,"lon":5.38349,"is_reserved":false,"is_disabled":false,"rental_uris":{"android":"levelo://app?vid=ab02f532-58e6-4cd1-8c1b-88c778664811","ios":"levelo://app?vid=ab02f532-58e6-4cd1-8c1b-88c778664811"},"vehicle_type_id":"4","last_reported":1731496046,"current_range_meters":34800,"station_id":"ce4bgv92rcd13ifvqcr0","pricing_plan_id":"cebpf4jnsgd1na2vs0mg"},{"bike_id":"f2f5f8a4-2807-4d2a-b405-e5154f4177df","system_id":"levelo_inurba_marseille","lat":43.26939,"lon":5.40246,"is_reserved":false,"is_disabled":false,"rental_uris":{"android":"levelo://app?vid=f2f5f8a4-2807-4d2a-b405-e5154f4177df","ios":"levelo://app?vid=f2f5f8a4-2807-4d2a-b405-e5154f4177df"},"vehicle_type_id":"4","last_reported":1731496046,"current_range_meters":36800,"station_id":"cjm6bp8fraef2m0cb0m0","pricing_plan_id":"cebpf4jnsgd1na2vs0mg"},{"bike_id":"151f9e6e-f9d5-40f4-8bbf-706fc2119638","system_id":"levelo_inurba_marseille","lat":43.30543,"lon":5.36531,"is_reserved":false,"is_disabled":false,"rental_uris":{"android":"levelo://app?vid=151f9e6e-f9d5-40f4-8bbf-706fc2119638","ios":"levelo://app?vid=151f9e6e-f9d5-40f4-8bbf-706fc2119638"},"vehicle_type_id":"4","last_reported":1731496046,"current_range_meters":33600,"station_id":"ce4bgs12rcd13ifvqcag","pricing_plan_id":"cebpf4jnsgd1na2vs0mg"},{"bike_id":"682f3376-9e98-4a0a-b45e-0332998c0048","system_id":"levelo_inurba_marseille","lat":43.3013,"lon":5.39864,"is_reserved":false,"is_disabled":false,"rental_uris":{"android":"levelo://app?vid=682f3376-9e98-4a0a-b45e-0332998c0048","ios":"levelo://app?vid=682f3376-9e98-4a0a-b45e-0332998c0048"},"vehicle_type_id":"4","last_reported":1731496046,"current_range_meters":35600,"station_id":"ce4bh0h2rcd13ifvqd40","pricing_plan_id":"cebpf4jnsgd1na2vs0mg"},{"bike_id":"5c7a005c-8705-49b2-8d7b-9d8f37ab7fce","system_id":"levelo_inurba_marseille","lat":43.248749,"lon":5.374797,"is_reserved":false,"is_disabled":false,"rental_uris":{"android":"levelo://app?vid=5c7a005c-8705-49b2-8d7b-9d8f37ab7fce","ios":"levelo://app?vid=5c7a005c-8705-49b2-8d7b-9d8f37ab7fce"},"vehicle_type_id":"4","last_reported":1731496046,"current_range_meters":30000,"station_id":"","pricing_plan_id":"cebpf4jnsgd1na2vs0mg"},{"bike_id":"88bda773-8a20-4b04-9a4d-d765138497c4","system_id":"levelo_inurba_marseille","lat":43.30272,"lon":5.36747,"is_reserved":false,"is_disabled":false,"rental_uris":{"android":"levelo://app?vid=88bda773-8a20-4b04-9a4d-d765138497c4","ios":"levelo://app?vid=88bda773-8a20-4b04-9a4d-d765138497c4"},"vehicle_type_id":"4","last_reported":1731496046,"current_range_meters":27200,"station_id":"","pricing_plan_id":"cebpf4jnsgd1na2vs0mg"},{"bike_id":"42ca7792-2925-42d4-a779-724a29fe96b8","system_id":"levelo_inurba_marseille","lat":43.24079,"lon":5.37731,"is_reserved":false,"is_disabled":false,"rental_uris":{"android":"levelo://app?vid=42ca7792-2925-42d4-a779-724a29fe96b8","ios":"levelo://app?vid=42ca7792-2925-42d4-a779-724a29fe96b8"},"vehicle_type_id":"4","last_reported":1731496046,"current_range_meters":8400,"station_id":"ce4bhnp2rcd13ifvqgvg","pricing_plan_id":"cebpf4jnsgd1na2vs0mg"},{"bike_id":"876d09ce-2269-4e21-a6c5-815dc7639960","system_id":"levelo_inurba_marseille","lat":43.30542,"lon":5.36554,"is_reserved":false,"is_disabled":false,"rental_uris":{"android":"levelo://app?vid=876d09ce-2269-4e21-a6c5-815dc7639960","ios":"levelo://app?vid=876d09ce-2269-4e21-a6c5-815dc7639960"},"vehicle_type_id":"4","last_reported":1731496046,"current_range_meters":7200,"station_id":"ce4bgs12rcd13ifvqcag","pricing_plan_id":"cebpf4jnsgd1na2vs0mg"},{"bike_id":"7668f886-0fd0-47cd-951e-1b1f646fc483","system_id":"levelo_inurba_marseille","lat":43.28,"lon":5.40014,"is_reserved":false,"is_disabled":false,"rental_uris":{"android":"levelo://app?vid=7668f886-0fd0-47cd-951e-1b1f646fc483","ios":"levelo://app?vid=7668f886-0fd0-47cd-951e-1b1f646fc483"},"vehicle_type_id":"4","last_reported":1731496046,"current_range_meters":38800,"station_id":"ce4bho92rcd13ifvqh4g","pricing_plan_id":"cebpf4jnsgd1na2vs0mg"},{"bike_id":"afe30839-fc49-4bd4-9fcd-96fb31fa1164","system_id":"levelo_inurba_marseille","lat":43.30277,"lon":5.37703,"is_reserved":false,"is_disabled":false,"rental_uris":{"android":"levelo://app?vid=afe30839-fc49-4bd4-9fcd-96fb31fa1164","ios":"levelo://app?vid=afe30839-fc49-4bd4-9fcd-96fb31fa1164"},"vehicle_type_id":"4","last_reported":1731496046,"current_range_meters":22800,"station_id":"ce4bguh2rcd13ifvqcj0","pricing_plan_id":"cebpf4jnsgd1na2vs0mg"},{"bike_id":"f351d4fe-361a-483d-b7c8-5602b3e3f638","system_id":"levelo_inurba_marseille","lat":43.31319,"lon":5.39704,"is_reserved":false,"is_disabled":false,"rental_uris":{"android":"levelo://app?vid=f351d4fe-361a-483d-b7c8-5602b3e3f638","ios":"levelo://app?vid=f351d4fe-361a-483d-b7c8-5602b3e3f638"},"vehicle_type_id":"4","last_reported":1731496046,"current_range_meters":34800,"station_id":"ce4bgvp2rcd13ifvqcu0","pricing_plan_id":"cebpf4jnsgd1na2vs0mg"},{"bike_id":"a6bbcb03-4306-47b1-a034-6214825afd1f","system_id":"levelo_inurba_marseille","lat":43.3054,"lon":5.36697,"is_reserved":false,"is_disabled":false,"rental_uris":{"android":"levelo://app?vid=a6bbcb03-4306-47b1-a034-6214825afd1f","ios":"levelo://app?vid=a6bbcb03-4306-47b1-a034-6214825afd1f"},"vehicle_type_id":"4","last_reported":1731496046,"current_range_meters":36000,"station_id":"ce4bgrp2rcd13ifvqc9g","pricing_plan_id":"cebpf4jnsgd1na2vs0mg"},{"bike_id":"54619ed1-39d1-40fb-bae6-9aeea3be5f1f","system_id":"levelo_inurba_marseille","lat":43.29616,"lon":5.37727,"is_reserved":false,"is_disabled":false,"rental_uris":{"android":"levelo://app?vid=54619ed1-39d1-40fb-bae6-9aeea3be5f1f","ios":"levelo://app?vid=54619ed1-39d1-40fb-bae6-9aeea3be5f1f"},"vehicle_type_id":"4","last_reported":1731496046,"current_range_meters":31200,"station_id":"ce4bgi92rcd13ifvqb90","pricing_plan_id":"cebpf4jnsgd1na2vs0mg"},{"bike_id":"ef64163f-5bc1-4988-9c95-855e4b6b89df","system_id":"levelo_inurba_marseille","lat":43.29575,"lon":5.37498,"is_reserved":false,"is_disabled":false,"rental_uris":{"android":"levelo://app?vid=ef64163f-5bc1-4988-9c95-855e4b6b89df","ios":"levelo://app?vid=ef64163f-5bc1-4988-9c95-855e4b6b89df"},"vehicle_type_id":"4","last_reported":1731496046,"current_range_meters":30000,"station_id":"ce4bgh92rcd13ifvqb50","pricing_plan_id":"cebpf4jnsgd1na2vs0mg"},{"bike_id":"d944b9cc-f4b7-43b0-90b9-d6547e39c362","system_id":"levelo_inurba_marseille","lat":43.23145,"lon":5.43722,"is_reserved":false,"is_disabled":false,"rental_uris":{"android":"levelo://app?vid=d944b9cc-f4b7-43b0-90b9-d6547e39c362","ios":"levelo://app?vid=d944b9cc-f4b7-43b0-90b9-d6547e39c362"},"vehicle_type_id":"4","last_reported":1731496046,"current_range_meters":30400,"station_id":"ce4bhmp2rcd13ifvqgog","pricing_plan_id":"cebpf4jnsgd1na2vs0mg"},{"bike_id":"2c3259f6-ceef-45be-96b5-228e6aa038d6","system_id":"levelo_inurba_marseille","lat":43.27808,"lon":5.40722,"is_reserved":false,"is_disabled":false,"rental_uris":{"android":"levelo://app?vid=2c3259f6-ceef-45be-96b5-228e6aa038d6","ios":"levelo://app?vid=2c3259f6-ceef-45be-96b5-228e6aa038d6"},"vehicle_type_id":"4","last_reported":1731496046,"current_range_meters":34800,"station_id":"ce4bhnh2rcd13ifvqgtg","pricing_plan_id":"cebpf4jnsgd1na2vs0mg"},{"bike_id":"fa2332b8-4394-4983-aedf-45254edcd0e3","system_id":"levelo_inurba_marseille","lat":43.31486,"lon":5.37305,"is_reserved":false,"is_disabled":false,"rental_uris":{"android":"levelo://app?vid=fa2332b8-4394-4983-aedf-45254edcd0e3","ios":"levelo://app?vid=fa2332b8-4394-4983-aedf-45254edcd0e3"},"vehicle_type_id":"4","last_reported":1731496046,"current_range_meters":9600,"station_id":"ce4bgt12rcd13ifvqcd0","pricing_plan_id":"cebpf4jnsgd1na2vs0mg"},{"bike_id":"888d78ec-114f-4c17-9c14-c82bca33a261","system_id":"levelo_inurba_marseille","lat":43.30606,"lon":5.37226,"is_reserved":false,"is_disabled":false,"rental_uris":{"android":"levelo://app?vid=888d78ec-114f-4c17-9c14-c82bca33a261","ios":"levelo://app?vid=888d78ec-114f-4c17-9c14-c82bca33a261"},"vehicle_type_id":"4","last_reported":1731496046,"current_range_meters":39200,"station_id":"ce4bgqh2rcd13ifvqc4g","pricing_plan_id":"cebpf4jnsgd1na2vs0mg"},{"bike_id":"f6fd65a2-7641-46a9-bf44-a1f1cd152375","system_id":"levelo_inurba_marseille","lat":43.23154,"lon":5.43721,"is_reserved":false,"is_disabled":false,"rental_uris":{"android":"levelo://app?vid=f6fd65a2-7641-46a9-bf44-a1f1cd152375","ios":"levelo://app?vid=f6fd65a2-7641-46a9-bf44-a1f1cd152375"},"vehicle_type_id":"4","last_reported":1731496046,"current_range_meters":33600,"station_id":"ce4bhmp2rcd13ifvqgog","pricing_plan_id":"cebpf4jnsgd1na2vs0mg"},{"bike_id":"5427ec44-65b5-4156-9be1-ec87130aec0f","system_id":"levelo_inurba_marseille","lat":43.3374,"lon":5.37415,"is_reserved":false,"is_disabled":false,"rental_uris":{"android":"levelo://app?vid=5427ec44-65b5-4156-9be1-ec87130aec0f","ios":"levelo://app?vid=5427ec44-65b5-4156-9be1-ec87130aec0f"},"vehicle_type_id":"4","last_reported":1731496046,"current_range_meters":25200,"station_id":"","pricing_plan_id":"cebpf4jnsgd1na2vs0mg"},{"bike_id":"082e9e38-ed1e-4cc1-a3df-a88469374fe0","system_id":"levelo_inurba_marseille","lat":43.31227,"lon":5.36862,"is_reserved":false,"is_disabled":false,"rental_uris":{"android":"levelo://app?vid=082e9e38-ed1e-4cc1-a3df-a88469374fe0","ios":"levelo://app?vid=082e9e38-ed1e-4cc1-a3df-a88469374fe0"},"vehicle_type_id":"4","last_reported":1731496046,"current_range_meters":24400,"station_id":"ce4bgl92rcd13ifvqbq0","pricing_plan_id":"cebpf4jnsgd1na2vs0mg"},{"bike_id":"876741b3-360a-4ea8-a072-e61ecc49f8fa","system_id":"levelo_inurba_marseille","lat":43.29189,"lon":5.35799,"is_reserved":false,"is_disabled":false,"rental_uris":{"android":"levelo://app?vid=876741b3-360a-4ea8-a072-e61ecc49f8fa","ios":"levelo://app?vid=876741b3-360a-4ea8-a072-e61ecc49f8fa"},"vehicle_type_id":"4","last_reported":1731496046,"current_range_meters":10800,"station_id":"ce4bhb12rcd13ifvqel0","pricing_plan_id":"cebpf4jnsgd1na2vs0mg"},{"bike_id":"bf5aaa73-f7c4-4dec-b371-6b64c740a432","system_id":"levelo_inurba_marseille","lat":43.30277,"lon":5.37692,"is_reserved":false,"is_disabled":false,"rental_uris":{"android":"levelo://app?vid=bf5aaa73-f7c4-4dec-b371-6b64c740a432","ios":"levelo://app?vid=bf5aaa73-f7c4-4dec-b371-6b64c740a432"},"vehicle_type_id":"4","last_reported":1731496046,"current_range_meters":28800,"station_id":"ce4bguh2rcd13ifvqcj0","pricing_plan_id":"cebpf4jnsgd1na2vs0mg"},{"bike_id":"7c705f1c-ff65-4114-a279-65a36a25ead3","system_id":"levelo_inurba_marseille","lat":43.32661,"lon":5.40986,"is_reserved":false,"is_disabled":false,"rental_uris":{"android":"levelo://app?vid=7c705f1c-ff65-4114-a279-65a36a25ead3","ios":"levelo://app?vid=7c705f1c-ff65-4114-a279-65a36a25ead3"},"vehicle_type_id":"4","last_reported":1731496046,"current_range_meters":38000,"station_id":"ce4bhpp2rcd13ifvqhgg","pricing_plan_id":"cebpf4jnsgd1na2vs0mg"},{"bike_id":"e96a31e5-ea53-4f5a-a60f-2d835756685c","system_id":"levelo_inurba_marseille","lat":43.30544,"lon":5.3653,"is_reserved":false,"is_disabled":false,"rental_uris":{"android":"levelo://app?vid=e96a31e5-ea53-4f5a-a60f-2d835756685c","ios":"levelo://app?vid=e96a31e5-ea53-4f5a-a60f-2d835756685c"},"vehicle_type_id":"4","last_reported":1731496046,"current_range_meters":36800,"station_id":"ce4bgs12rcd13ifvqcag","pricing_plan_id":"cebpf4jnsgd1na2vs0mg"},{"bike_id":"6f86d31b-8031-4e3b-beed-59264a72d830","system_id":"levelo_inurba_marseille","lat":43.301483,"lon":5.380772,"is_reserved":false,"is_disabled":false,"rental_uris":{"android":"levelo://app?vid=6f86d31b-8031-4e3b-beed-59264a72d830","ios":"levelo://app?vid=6f86d31b-8031-4e3b-beed-59264a72d830"},"vehicle_type_id":"4","last_reported":1731496046,"current_range_meters":30000,"station_id":"ce4bh4p2rcd13ifvqe1g","pricing_plan_id":"cebpf4jnsgd1na2vs0mg"},{"bike_id":"c692eb4c-e56f-431b-abf1-b1db8462d4da","system_id":"levelo_inurba_marseille","lat":43.287,"lon":5.39978,"is_reserved":false,"is_disabled":false,"rental_uris":{"android":"levelo://app?vid=c692eb4c-e56f-431b-abf1-b1db8462d4da","ios":"levelo://app?vid=c692eb4c-e56f-431b-abf1-b1db8462d4da"},"vehicle_type_id":"4","last_reported":1731496046,"current_range_meters":29600,"station_id":"ce4bho92rcd13ifvqh3g","pricing_plan_id":"cebpf4jnsgd1na2vs0mg"},{"bike_id":"a249744d-84d4-4fa8-a6cb-4941aaf23288","system_id":"levelo_inurba_marseille","lat":43.24549,"lon":5.39524,"is_reserved":false,"is_disabled":false,"rental_uris":{"android":"levelo://app?vid=a249744d-84d4-4fa8-a6cb-4941aaf23288","ios":"levelo://app?vid=a249744d-84d4-4fa8-a6cb-4941aaf23288"},"vehicle_type_id":"4","last_reported":1731496046,"current_range_meters":38800,"station_id":"ce4bhlp2rcd13ifvqgjg","pricing_plan_id":"cebpf4jnsgd1na2vs0mg"},{"bike_id":"5dfed2c3-25d3-4c9a-bf8e-389efd00bf69","system_id":"levelo_inurba_marseille","lat":43.29722,"lon":5.37695,"is_reserved":false,"is_disabled":false,"rental_uris":{"android":"levelo://app?vid=5dfed2c3-25d3-4c9a-bf8e-389efd00bf69","ios":"levelo://app?vid=5dfed2c3-25d3-4c9a-bf8e-389efd00bf69"},"vehicle_type_id":"4","last_reported":1731496046,"current_range_meters":24400,"station_id":"ce4bgkh2rcd13ifvqbl0","pricing_plan_id":"cebpf4jnsgd1na2vs0mg"},{"bike_id":"f56ff641-dcdc-4be0-8bb0-c2e77410c782","system_id":"levelo_inurba_marseille","lat":43.336,"lon":5.41007,"is_reserved":false,"is_disabled":false,"rental_uris":{"android":"levelo://app?vid=f56ff641-dcdc-4be0-8bb0-c2e77410c782","ios":"levelo://app?vid=f56ff641-dcdc-4be0-8bb0-c2e77410c782"},"vehicle_type_id":"4","last_reported":1731496046,"current_range_meters":38800,"station_id":"ce4bhqh2rcd13ifvqhmg","pricing_plan_id":"cebpf4jnsgd1na2vs0mg"},{"bike_id":"c3c14c12-7734-406b-803f-dbe7a7fb811d","system_id":"levelo_inurba_marseille","lat":43.33597,"lon":5.41026,"is_reserved":false,"is_disabled":false,"rental_uris":{"android":"levelo://app?vid=c3c14c12-7734-406b-803f-dbe7a7fb811d","ios":"levelo://app?vid=c3c14c12-7734-406b-803f-dbe7a7fb811d"},"vehicle_type_id":"4","last_reported":1731496046,"current_range_meters":37600,"station_id":"ce4bhqh2rcd13ifvqhmg","pricing_plan_id":"cebpf4jnsgd1na2vs0mg"},{"bike_id":"9b452118-9baf-4509-918d-f235cbada501","system_id":"levelo_inurba_marseille","lat":43.30274,"lon":5.37702,"is_reserved":false,"is_disabled":false,"rental_uris":{"android":"levelo://app?vid=9b452118-9baf-4509-918d-f235cbada501","ios":"levelo://app?vid=9b452118-9baf-4509-918d-f235cbada501"},"vehicle_type_id":"4","last_reported":1731496046,"current_range_meters":32000,"station_id":"ce4bguh2rcd13ifvqcj0","pricing_plan_id":"cebpf4jnsgd1na2vs0mg"},{"bike_id":"cc15d1a7-9382-422b-8d7c-74eb084cd6cd","system_id":"levelo_inurba_marseille","lat":43.23177,"lon":5.39988,"is_reserved":false,"is_disabled":false,"rental_uris":{"android":"levelo://app?vid=cc15d1a7-9382-422b-8d7c-74eb084cd6cd","ios":"levelo://app?vid=cc15d1a7-9382-422b-8d7c-74eb084cd6cd"},"vehicle_type_id":"4","last_reported":1731496046,"current_range_meters":38000,"station_id":"ce4bhn12rcd13ifvqgqg","pricing_plan_id":"cebpf4jnsgd1na2vs0mg"},{"bike_id":"32bff4c9-9e24-4055-bdf4-09829843cde3","system_id":"levelo_inurba_marseille","lat":43.28402,"lon":5.34986,"is_reserved":false,"is_disabled":false,"rental_uris":{"android":"levelo://app?vid=32bff4c9-9e24-4055-bdf4-09829843cde3","ios":"levelo://app?vid=32bff4c9-9e24-4055-bdf4-09829843cde3"},"vehicle_type_id":"4","last_reported":1731496046,"current_range_meters":38000,"station_id":"ce4bhbh2rcd13ifvqepg","pricing_plan_id":"cebpf4jnsgd1na2vs0mg"},{"bike_id":"b9b9ca99-abc1-4d74-b34d-2422c7c3d10f","system_id":"levelo_inurba_marseille","lat":43.32352,"lon":5.36747,"is_reserved":false,"is_disabled":false,"rental_uris":{"android":"levelo://app?vid=b9b9ca99-abc1-4d74-b34d-2422c7c3d10f","ios":"levelo://app?vid=b9b9ca99-abc1-4d74-b34d-2422c7c3d10f"},"vehicle_type_id":"4","last_reported":1731496046,"current_range_meters":32400,"station_id":"ce4bhsh2rcd13ifvqi2g","pricing_plan_id":"cebpf4jnsgd1na2vs0mg"},{"bike_id":"1e81698c-171f-442f-931a-5df778902baf","system_id":"levelo_inurba_marseille","lat":43.32363,"lon":5.38882,"is_reserved":false,"is_disabled":false,"rental_uris":{"android":"levelo://app?vid=1e81698c-171f-442f-931a-5df778902baf","ios":"levelo://app?vid=1e81698c-171f-442f-931a-5df778902baf"},"vehicle_type_id":"4","last_reported":1731496046,"current_range_meters":24800,"station_id":"ce4bhqp2rcd13ifvqhog","pricing_plan_id":"cebpf4jnsgd1na2vs0mg"},{"bike_id":"1b6aedf9-aa79-4e62-b4b6-0d4304a12219","system_id":"levelo_inurba_marseille","lat":43.31231,"lon":5.36856,"is_reserved":false,"is_disabled":false,"rental_uris":{"android":"levelo://app?vid=1b6aedf9-aa79-4e62-b4b6-0d4304a12219","ios":"levelo://app?vid=1b6aedf9-aa79-4e62-b4b6-0d4304a12219"},"vehicle_type_id":"4","last_reported":1731496046,"current_range_meters":17200,"station_id":"ce4bgl92rcd13ifvqbq0","pricing_plan_id":"cebpf4jnsgd1na2vs0mg"},{"bike_id":"27227666-be7d-4f0d-b6ab-7d496af6f3eb","system_id":"levelo_inurba_marseille","lat":43.337444,"lon":5.374475,"is_reserved":false,"is_disabled":false,"rental_uris":{"android":"levelo://app?vid=27227666-be7d-4f0d-b6ab-7d496af6f3eb","ios":"levelo://app?vid=27227666-be7d-4f0d-b6ab-7d496af6f3eb"},"vehicle_type_id":"4","last_reported":1731496046,"current_range_meters":38400,"station_id":"","pricing_plan_id":"cebpf4jnsgd1na2vs0mg"},{"bike_id":"0abc7890-6052-4899-9333-58f0b9531924","system_id":"levelo_inurba_marseille","lat":43.28152,"lon":5.42655,"is_reserved":false,"is_disabled":false,"rental_uris":{"android":"levelo://app?vid=0abc7890-6052-4899-9333-58f0b9531924","ios":"levelo://app?vid=0abc7890-6052-4899-9333-58f0b9531924"},"vehicle_type_id":"4","last_reported":1731496046,"current_range_meters":8000,"station_id":"ce4bhnh2rcd13ifvqgug","pricing_plan_id":"cebpf4jnsgd1na2vs0mg"},{"bike_id":"05c26f81-b8f0-49d3-bce0-555a007a2b7c","system_id":"levelo_inurba_marseille","lat":43.25931,"lon":5.40915,"is_reserved":false,"is_disabled":false,"rental_uris":{"android":"levelo://app?vid=05c26f81-b8f0-49d3-bce0-555a007a2b7c","ios":"levelo://app?vid=05c26f81-b8f0-49d3-bce0-555a007a2b7c"},"vehicle_type_id":"4","last_reported":1731496046,"current_range_meters":30000,"station_id":"ce4bhm92rcd13ifvqglg","pricing_plan_id":"cebpf4jnsgd1na2vs0mg"},{"bike_id":"857cf3b8-a499-4f71-a4af-951511031286","system_id":"levelo_inurba_marseille","lat":43.32485,"lon":5.36572,"is_reserved":false,"is_disabled":false,"rental_uris":{"android":"levelo://app?vid=857cf3b8-a499-4f71-a4af-951511031286","ios":"levelo://app?vid=857cf3b8-a499-4f71-a4af-951511031286"},"vehicle_type_id":"4","last_reported":1731496046,"current_range_meters":38000,"station_id":"ce4bhs12rcd13ifvqhvg","pricing_plan_id":"cebpf4jnsgd1na2vs0mg"},{"bike_id":"06d0e6a7-19f7-460e-b8cc-f9a66e584415","system_id":"levelo_inurba_marseille","lat":43.26561,"lon":5.39004,"is_reserved":false,"is_disabled":false,"rental_uris":{"android":"levelo://app?vid=06d0e6a7-19f7-460e-b8cc-f9a66e584415","ios":"levelo://app?vid=06d0e6a7-19f7-460e-b8cc-f9a66e584415"},"vehicle_type_id":"4","last_reported":1731496046,"current_range_meters":38800,"station_id":"ce4bhe12rcd13ifvqf30","pricing_plan_id":"cebpf4jnsgd1na2vs0mg"},{"bike_id":"61307e19-76e0-4e7b-b49a-0e1df84e9e7c","system_id":"levelo_inurba_marseille","lat":43.28719,"lon":5.36089,"is_reserved":false,"is_disabled":false,"rental_uris":{"android":"levelo://app?vid=61307e19-76e0-4e7b-b49a-0e1df84e9e7c","ios":"levelo://app?vid=61307e19-76e0-4e7b-b49a-0e1df84e9e7c"},"vehicle_type_id":"4","last_reported":1731496046,"current_range_meters":28400,"station_id":"cki0cbj6b192h4jlfktg","pricing_plan_id":"cebpf4jnsgd1na2vs0mg"},{"bike_id":"2baa5d60-52b4-47b5-9521-77790ea643fc","system_id":"levelo_inurba_marseille","lat":43.28607,"lon":5.37068,"is_reserved":false,"is_disabled":false,"rental_uris":{"android":"levelo://app?vid=2baa5d60-52b4-47b5-9521-77790ea643fc","ios":"levelo://app?vid=2baa5d60-52b4-47b5-9521-77790ea643fc"},"vehicle_type_id":"4","last_reported":1731496046,"current_range_meters":38400,"station_id":"ce4bht12rcd13ifvqi60","pricing_plan_id":"cebpf4jnsgd1na2vs0mg"},{"bike_id":"4aed7d47-090b-464a-a186-6ccb8eb001ad","system_id":"levelo_inurba_marseille","lat":43.25583,"lon":5.38242,"is_reserved":false,"is_disabled":false,"rental_uris":{"android":"levelo://app?vid=4aed7d47-090b-464a-a186-6ccb8eb001ad","ios":"levelo://app?vid=4aed7d47-090b-464a-a186-6ccb8eb001ad"},"vehicle_type_id":"4","last_reported":1731496046,"current_range_meters":8800,"station_id":"ce4bhih2rcd13ifvqfs0","pricing_plan_id":"cebpf4jnsgd1na2vs0mg"},{"bike_id":"4d4e0ddc-77a9-49c1-918d-dc60d748c331","system_id":"levelo_inurba_marseille","lat":43.26206,"lon":5.37446,"is_reserved":false,"is_disabled":false,"rental_uris":{"android":"levelo://app?vid=4d4e0ddc-77a9-49c1-918d-dc60d748c331","ios":"levelo://app?vid=4d4e0ddc-77a9-49c1-918d-dc60d748c331"},"vehicle_type_id":"4","last_reported":1731496046,"current_range_meters":36400,"station_id":"ce4bhgp2rcd13ifvqfc0","pricing_plan_id":"cebpf4jnsgd1na2vs0mg"},{"bike_id":"0704affa-a43a-46c2-bfd8-d879d5323253","system_id":"levelo_inurba_marseille","lat":43.26683,"lon":5.38275,"is_reserved":false,"is_disabled":false,"rental_uris":{"android":"levelo://app?vid=0704affa-a43a-46c2-bfd8-d879d5323253","ios":"levelo://app?vid=0704affa-a43a-46c2-bfd8-d879d5323253"},"vehicle_type_id":"4","last_reported":1731496046,"current_range_meters":7200,"station_id":"ce4bhg92rcd13ifvqf90","pricing_plan_id":"cebpf4jnsgd1na2vs0mg"},{"bike_id":"b55fe61e-e2db-4c8d-940b-61d116c0d2b9","system_id":"levelo_inurba_marseille","lat":43.29185,"lon":5.35799,"is_reserved":false,"is_disabled":false,"rental_uris":{"android":"levelo://app?vid=b55fe61e-e2db-4c8d-940b-61d116c0d2b9","ios":"levelo://app?vid=b55fe61e-e2db-4c8d-940b-61d116c0d2b9"},"vehicle_type_id":"4","last_reported":1731496046,"current_range_meters":30400,"station_id":"ce4bhb12rcd13ifvqel0","pricing_plan_id":"cebpf4jnsgd1na2vs0mg"},{"bike_id":"ac6cf911-e0a0-4e3e-9f38-c5126ef93711","system_id":"levelo_inurba_marseille","lat":43.25821,"lon":5.39428,"is_reserved":false,"is_disabled":false,"rental_uris":{"android":"levelo://app?vid=ac6cf911-e0a0-4e3e-9f38-c5126ef93711","ios":"levelo://app?vid=ac6cf911-e0a0-4e3e-9f38-c5126ef93711"},"vehicle_type_id":"4","last_reported":1731496046,"current_range_meters":38400,"station_id":"ce4bhip2rcd13ifvqft0","pricing_plan_id":"cebpf4jnsgd1na2vs0mg"},{"bike_id":"d2adbe1a-0329-4cad-bd65-4c11fede9299","system_id":"levelo_inurba_marseille","lat":43.2397,"lon":5.36633,"is_reserved":false,"is_disabled":false,"rental_uris":{"android":"levelo://app?vid=d2adbe1a-0329-4cad-bd65-4c11fede9299","ios":"levelo://app?vid=d2adbe1a-0329-4cad-bd65-4c11fede9299"},"vehicle_type_id":"4","last_reported":1731496046,"current_range_meters":38800,"station_id":"ce4bhi12rcd13ifvqfp0","pricing_plan_id":"cebpf4jnsgd1na2vs0mg"},{"bike_id":"5d1f4316-b04e-4ffe-949b-df676969a7da","system_id":"levelo_inurba_marseille","lat":43.27364,"lon":5.36242,"is_reserved":false,"is_disabled":false,"rental_uris":{"android":"levelo://app?vid=5d1f4316-b04e-4ffe-949b-df676969a7da","ios":"levelo://app?vid=5d1f4316-b04e-4ffe-949b-df676969a7da"},"vehicle_type_id":"4","last_reported":1731496046,"current_range_meters":39200,"station_id":"ce4bhbh2rcd13ifvqeo0","pricing_plan_id":"cebpf4jnsgd1na2vs0mg"},{"bike_id":"aac6894c-cd35-49e9-9f01-f9e8d8484c59","system_id":"levelo_inurba_marseille","lat":43.22929,"lon":5.35375,"is_reserved":false,"is_disabled":false,"rental_uris":{"android":"levelo://app?vid=aac6894c-cd35-49e9-9f01-f9e8d8484c59","ios":"levelo://app?vid=aac6894c-cd35-49e9-9f01-f9e8d8484c59"},"vehicle_type_id":"4","last_reported":1731496046,"current_range_meters":37600,"station_id":"cpo3532slgdg3j2ikp40","pricing_plan_id":"cebpf4jnsgd1na2vs0mg"},{"bike_id":"9613dd1a-bd7a-4888-bb49-4b8b286b96bb","system_id":"levelo_inurba_marseille","lat":43.2861,"lon":5.37062,"is_reserved":false,"is_disabled":false,"rental_uris":{"android":"levelo://app?vid=9613dd1a-bd7a-4888-bb49-4b8b286b96bb","ios":"levelo://app?vid=9613dd1a-bd7a-4888-bb49-4b8b286b96bb"},"vehicle_type_id":"4","last_reported":1731496046,"current_range_meters":38800,"station_id":"ce4bht12rcd13ifvqi60","pricing_plan_id":"cebpf4jnsgd1na2vs0mg"},{"bike_id":"f6edf606-16d2-423e-bed1-ba33d150bbe6","system_id":"levelo_inurba_marseille","lat":43.32287,"lon":5.38266,"is_reserved":false,"is_disabled":false,"rental_uris":{"android":"levelo://app?vid=f6edf606-16d2-423e-bed1-ba33d150bbe6","ios":"levelo://app?vid=f6edf606-16d2-423e-bed1-ba33d150bbe6"},"vehicle_type_id":"4","last_reported":1731496046,"current_range_meters":24400,"station_id":"ce4bhr12rcd13ifvqhqg","pricing_plan_id":"cebpf4jnsgd1na2vs0mg"},{"bike_id":"92885f01-41c7-46c8-83a8-31f8d3f31721","system_id":"levelo_inurba_marseille","lat":43.29554,"lon":5.4229,"is_reserved":false,"is_disabled":false,"rental_uris":{"android":"levelo://app?vid=92885f01-41c7-46c8-83a8-31f8d3f31721","ios":"levelo://app?vid=92885f01-41c7-46c8-83a8-31f8d3f31721"},"vehicle_type_id":"4","last_reported":1731496046,"current_range_meters":27200,"station_id":"ce4bhph2rcd13ifvqhdg","pricing_plan_id":"cebpf4jnsgd1na2vs0mg"},{"bike_id":"44694aa3-4bdd-4d1c-ba1e-acb1339bbc9e","system_id":"levelo_inurba_marseille","lat":43.31271,"lon":5.40168,"is_reserved":false,"is_disabled":false,"rental_uris":{"android":"levelo://app?vid=44694aa3-4bdd-4d1c-ba1e-acb1339bbc9e","ios":"levelo://app?vid=44694aa3-4bdd-4d1c-ba1e-acb1339bbc9e"},"vehicle_type_id":"4","last_reported":1731496046,"current_range_meters":38800,"station_id":"ce4bh092rcd13ifvqd30","pricing_plan_id":"cebpf4jnsgd1na2vs0mg"},{"bike_id":"4eda264a-c30d-4a08-980f-e8e91ab8af96","system_id":"levelo_inurba_marseille","lat":43.262,"lon":5.37933,"is_reserved":false,"is_disabled":false,"rental_uris":{"android":"levelo://app?vid=4eda264a-c30d-4a08-980f-e8e91ab8af96","ios":"levelo://app?vid=4eda264a-c30d-4a08-980f-e8e91ab8af96"},"vehicle_type_id":"4","last_reported":1731496046,"current_range_meters":10000,"station_id":"ce4bhjp2rcd13ifvqg90","pricing_plan_id":"cebpf4jnsgd1na2vs0mg"},{"bike_id":"7fde4880-a632-4b7a-b68b-f64a3c432e3f","system_id":"levelo_inurba_marseille","lat":43.29581,"lon":5.36743,"is_reserved":false,"is_disabled":false,"rental_uris":{"android":"levelo://app?vid=7fde4880-a632-4b7a-b68b-f64a3c432e3f","ios":"levelo://app?vid=7fde4880-a632-4b7a-b68b-f64a3c432e3f"},"vehicle_type_id":"4","last_reported":1731496046,"current_range_meters":38000,"station_id":"ce4bgph2rcd13ifvqc2g","pricing_plan_id":"cebpf4jnsgd1na2vs0mg"},{"bike_id":"625ed384-9e7e-480e-b62e-a62e55153520","system_id":"levelo_inurba_marseille","lat":43.3266,"lon":5.40989,"is_reserved":false,"is_disabled":false,"rental_uris":{"android":"levelo://app?vid=625ed384-9e7e-480e-b62e-a62e55153520","ios":"levelo://app?vid=625ed384-9e7e-480e-b62e-a62e55153520"},"vehicle_type_id":"4","last_reported":1731496046,"current_range_meters":34000,"station_id":"ce4bhpp2rcd13ifvqhgg","pricing_plan_id":"cebpf4jnsgd1na2vs0mg"},{"bike_id":"b484fe8e-dcc7-48a2-81ca-7cf06c1cf078","system_id":"levelo_inurba_marseille","lat":43.28263,"lon":5.35064,"is_reserved":false,"is_disabled":false,"rental_uris":{"android":"levelo://app?vid=b484fe8e-dcc7-48a2-81ca-7cf06c1cf078","ios":"levelo://app?vid=b484fe8e-dcc7-48a2-81ca-7cf06c1cf078"},"vehicle_type_id":"4","last_reported":1731496046,"current_range_meters":31200,"station_id":"ce4bhbp2rcd13ifvqerg","pricing_plan_id":"cebpf4jnsgd1na2vs0mg"},{"bike_id":"77611f2f-2c01-4fba-b80c-54ce6a5eeb56","system_id":"levelo_inurba_marseille","lat":43.24168,"lon":5.36401,"is_reserved":false,"is_disabled":false,"rental_uris":{"android":"levelo://app?vid=77611f2f-2c01-4fba-b80c-54ce6a5eeb56","ios":"levelo://app?vid=77611f2f-2c01-4fba-b80c-54ce6a5eeb56"},"vehicle_type_id":"4","last_reported":1731496046,"current_range_meters":36800,"station_id":"cpo36qri1sfpv3e86is0","pricing_plan_id":"cebpf4jnsgd1na2vs0mg"},{"bike_id":"386171ad-5213-4a67-8a64-11cb717a6a70","system_id":"levelo_inurba_marseille","lat":43.28267,"lon":5.35073,"is_reserved":false,"is_disabled":false,"rental_uris":{"android":"levelo://app?vid=386171ad-5213-4a67-8a64-11cb717a6a70","ios":"levelo://app?vid=386171ad-5213-4a67-8a64-11cb717a6a70"},"vehicle_type_id":"4","last_reported":1731496046,"current_range_meters":32000,"station_id":"ce4bhbp2rcd13ifvqerg","pricing_plan_id":"cebpf4jnsgd1na2vs0mg"},{"bike_id":"ecc84d84-713e-4717-a947-4a2923fbcdc5","system_id":"levelo_inurba_marseille","lat":43.30948,"lon":5.39028,"is_reserved":false,"is_disabled":false,"rental_uris":{"android":"levelo://app?vid=ecc84d84-713e-4717-a947-4a2923fbcdc5","ios":"levelo://app?vid=ecc84d84-713e-4717-a947-4a2923fbcdc5"},"vehicle_type_id":"4","last_reported":1731496046,"current_range_meters":19600,"station_id":"ce4bgup2rcd13ifvqco0","pricing_plan_id":"cebpf4jnsgd1na2vs0mg"},{"bike_id":"82177570-77c8-45db-bec7-ab2b10dc4402","system_id":"levelo_inurba_marseille","lat":43.23151,"lon":5.43723,"is_reserved":false,"is_disabled":false,"rental_uris":{"android":"levelo://app?vid=82177570-77c8-45db-bec7-ab2b10dc4402","ios":"levelo://app?vid=82177570-77c8-45db-bec7-ab2b10dc4402"},"vehicle_type_id":"4","last_reported":1731496046,"current_range_meters":28800,"station_id":"ce4bhmp2rcd13ifvqgog","pricing_plan_id":"cebpf4jnsgd1na2vs0mg"},{"bike_id":"8f4d92ae-0222-4237-978d-920ba49e7c8f","system_id":"levelo_inurba_marseille","lat":43.2319,"lon":5.35555,"is_reserved":false,"is_disabled":false,"rental_uris":{"android":"levelo://app?vid=8f4d92ae-0222-4237-978d-920ba49e7c8f","ios":"levelo://app?vid=8f4d92ae-0222-4237-978d-920ba49e7c8f"},"vehicle_type_id":"4","last_reported":1731496046,"current_range_meters":36000,"station_id":"ce4bhu92rcd13ifvqi70","pricing_plan_id":"cebpf4jnsgd1na2vs0mg"},{"bike_id":"3fd4fb49-1010-4f36-a81b-624718498aad","system_id":"levelo_inurba_marseille","lat":43.27492,"lon":5.42447,"is_reserved":false,"is_disabled":false,"rental_uris":{"android":"levelo://app?vid=3fd4fb49-1010-4f36-a81b-624718498aad","ios":"levelo://app?vid=3fd4fb49-1010-4f36-a81b-624718498aad"},"vehicle_type_id":"4","last_reported":1731496046,"current_range_meters":14400,"station_id":"ce4bhn92rcd13ifvqgrg","pricing_plan_id":"cebpf4jnsgd1na2vs0mg"},{"bike_id":"69b02fdd-f0e5-44a7-9b8c-007018621578","system_id":"levelo_inurba_marseille","lat":43.239657,"lon":5.366193,"is_reserved":false,"is_disabled":false,"rental_uris":{"android":"levelo://app?vid=69b02fdd-f0e5-44a7-9b8c-007018621578","ios":"levelo://app?vid=69b02fdd-f0e5-44a7-9b8c-007018621578"},"vehicle_type_id":"4","last_reported":1731496046,"current_range_meters":38800,"station_id":"ce4bhi12rcd13ifvqfp0","pricing_plan_id":"cebpf4jnsgd1na2vs0mg"},{"bike_id":"8ff3daf9-97e9-480f-95f9-4d1d61792a54","system_id":"levelo_inurba_marseille","lat":43.33758,"lon":5.37471,"is_reserved":false,"is_disabled":false,"rental_uris":{"android":"levelo://app?vid=8ff3daf9-97e9-480f-95f9-4d1d61792a54","ios":"levelo://app?vid=8ff3daf9-97e9-480f-95f9-4d1d61792a54"},"vehicle_type_id":"4","last_reported":1731496046,"current_range_meters":35600,"station_id":"","pricing_plan_id":"cebpf4jnsgd1na2vs0mg"},{"bike_id":"a85e301e-215f-486d-a04d-cbdb39b07142","system_id":"levelo_inurba_marseille","lat":43.26213,"lon":5.37439,"is_reserved":false,"is_disabled":false,"rental_uris":{"android":"levelo://app?vid=a85e301e-215f-486d-a04d-cbdb39b07142","ios":"levelo://app?vid=a85e301e-215f-486d-a04d-cbdb39b07142"},"vehicle_type_id":"4","last_reported":1731496046,"current_range_meters":36800,"station_id":"ce4bhgp2rcd13ifvqfc0","pricing_plan_id":"cebpf4jnsgd1na2vs0mg"},{"bike_id":"ddd15fcf-da4b-4639-bbe7-c9127fb5befc","system_id":"levelo_inurba_marseille","lat":43.337444,"lon":5.374475,"is_reserved":false,"is_disabled":false,"rental_uris":{"android":"levelo://app?vid=ddd15fcf-da4b-4639-bbe7-c9127fb5befc","ios":"levelo://app?vid=ddd15fcf-da4b-4639-bbe7-c9127fb5befc"},"vehicle_type_id":"4","last_reported":1731496046,"current_range_meters":34800,"station_id":"","pricing_plan_id":"cebpf4jnsgd1na2vs0mg"},{"bike_id":"abe8a42f-5f77-45ff-8191-32e5838db053","system_id":"levelo_inurba_marseille","lat":43.26934,"lon":5.38922,"is_reserved":false,"is_disabled":false,"rental_uris":{"android":"levelo://app?vid=abe8a42f-5f77-45ff-8191-32e5838db053","ios":"levelo://app?vid=abe8a42f-5f77-45ff-8191-32e5838db053"},"vehicle_type_id":"4","last_reported":1731496046,"current_range_meters":18000,"station_id":"ce4bhhh2rcd13ifvqfl0","pricing_plan_id":"cebpf4jnsgd1na2vs0mg"},{"bike_id":"cad992db-d68b-4587-9175-f5567df2cf4e","system_id":"levelo_inurba_marseille","lat":43.29607,"lon":5.37711,"is_reserved":false,"is_disabled":false,"rental_uris":{"android":"levelo://app?vid=cad992db-d68b-4587-9175-f5567df2cf4e","ios":"levelo://app?vid=cad992db-d68b-4587-9175-f5567df2cf4e"},"vehicle_type_id":"4","last_reported":1731496046,"current_range_meters":27600,"station_id":"ce4bgi92rcd13ifvqb90","pricing_plan_id":"cebpf4jnsgd1na2vs0mg"},{"bike_id":"a8c64a7c-f27b-431d-aeb2-1be9205e2e22","system_id":"levelo_inurba_marseille","lat":43.2293,"lon":5.35374,"is_reserved":false,"is_disabled":false,"rental_uris":{"android":"levelo://app?vid=a8c64a7c-f27b-431d-aeb2-1be9205e2e22","ios":"levelo://app?vid=a8c64a7c-f27b-431d-aeb2-1be9205e2e22"},"vehicle_type_id":"4","last_reported":1731496046,"current_range_meters":30000,"station_id":"cpo3532slgdg3j2ikp40","pricing_plan_id":"cebpf4jnsgd1na2vs0mg"},{"bike_id":"f27adf17-2df4-4c16-8720-bbe1f5c9607b","system_id":"levelo_inurba_marseille","lat":43.336,"lon":5.41031,"is_reserved":false,"is_disabled":false,"rental_uris":{"android":"levelo://app?vid=f27adf17-2df4-4c16-8720-bbe1f5c9607b","ios":"levelo://app?vid=f27adf17-2df4-4c16-8720-bbe1f5c9607b"},"vehicle_type_id":"4","last_reported":1731496046,"current_range_meters":32000,"station_id":"ce4bhqh2rcd13ifvqhmg","pricing_plan_id":"cebpf4jnsgd1na2vs0mg"},{"bike_id":"ff5e2fd2-7bc8-4257-88da-3088ee7c4b7e","system_id":"levelo_inurba_marseille","lat":43.27067,"lon":5.42275,"is_reserved":false,"is_disabled":false,"rental_uris":{"android":"levelo://app?vid=ff5e2fd2-7bc8-4257-88da-3088ee7c4b7e","ios":"levelo://app?vid=ff5e2fd2-7bc8-4257-88da-3088ee7c4b7e"},"vehicle_type_id":"4","last_reported":1731496046,"current_range_meters":32000,"station_id":"ce4bhk92rcd13ifvqgb0","pricing_plan_id":"cebpf4jnsgd1na2vs0mg"},{"bike_id":"5a7ada83-8bd9-435c-927f-15b749117ee3","system_id":"levelo_inurba_marseille","lat":43.30544,"lon":5.36531,"is_reserved":false,"is_disabled":false,"rental_uris":{"android":"levelo://app?vid=5a7ada83-8bd9-435c-927f-15b749117ee3","ios":"levelo://app?vid=5a7ada83-8bd9-435c-927f-15b749117ee3"},"vehicle_type_id":"4","last_reported":1731496046,"current_range_meters":27600,"station_id":"ce4bgs12rcd13ifvqcag","pricing_plan_id":"cebpf4jnsgd1na2vs0mg"},{"bike_id":"d09a69b4-a6cd-4352-9b70-237c7ec2c287","system_id":"levelo_inurba_marseille","lat":43.29667,"lon":5.37679,"is_reserved":false,"is_disabled":false,"rental_uris":{"android":"levelo://app?vid=d09a69b4-a6cd-4352-9b70-237c7ec2c287","ios":"levelo://app?vid=d09a69b4-a6cd-4352-9b70-237c7ec2c287"},"vehicle_type_id":"4","last_reported":1731496046,"current_range_meters":26800,"station_id":"ce4bgkh2rcd13ifvqbl0","pricing_plan_id":"cebpf4jnsgd1na2vs0mg"},{"bike_id":"1b0a3af7-179a-4053-9a8f-6b1dc28886f5","system_id":"levelo_inurba_marseille","lat":43.28726,"lon":5.36086,"is_reserved":false,"is_disabled":false,"rental_uris":{"android":"levelo://app?vid=1b0a3af7-179a-4053-9a8f-6b1dc28886f5","ios":"levelo://app?vid=1b0a3af7-179a-4053-9a8f-6b1dc28886f5"},"vehicle_type_id":"4","last_reported":1731496046,"current_range_meters":38800,"station_id":"cki0cbj6b192h4jlfktg","pricing_plan_id":"cebpf4jnsgd1na2vs0mg"},{"bike_id":"477d84ca-086a-401e-9bed-1bd812855e4f","system_id":"levelo_inurba_marseille","lat":43.31219,"lon":5.36867,"is_reserved":false,"is_disabled":false,"rental_uris":{"android":"levelo://app?vid=477d84ca-086a-401e-9bed-1bd812855e4f","ios":"levelo://app?vid=477d84ca-086a-401e-9bed-1bd812855e4f"},"vehicle_type_id":"4","last_reported":1731496046,"current_range_meters":6400,"station_id":"ce4bgl92rcd13ifvqbq0","pricing_plan_id":"cebpf4jnsgd1na2vs0mg"},{"bike_id":"15b53686-ca95-46a3-bd05-a0ad1be5aa68","system_id":"levelo_inurba_marseille","lat":43.29225,"lon":5.36063,"is_reserved":false,"is_disabled":false,"rental_uris":{"android":"levelo://app?vid=15b53686-ca95-46a3-bd05-a0ad1be5aa68","ios":"levelo://app?vid=15b53686-ca95-46a3-bd05-a0ad1be5aa68"},"vehicle_type_id":"4","last_reported":1731496046,"current_range_meters":37600,"station_id":"ce4bhbh2rcd13ifvqeqg","pricing_plan_id":"cebpf4jnsgd1na2vs0mg"},{"bike_id":"2ba9f7e9-412c-4e8d-a7cb-cefa7326c415","system_id":"levelo_inurba_marseille","lat":43.32476,"lon":5.36568,"is_reserved":false,"is_disabled":false,"rental_uris":{"android":"levelo://app?vid=2ba9f7e9-412c-4e8d-a7cb-cefa7326c415","ios":"levelo://app?vid=2ba9f7e9-412c-4e8d-a7cb-cefa7326c415"},"vehicle_type_id":"4","last_reported":1731496046,"current_range_meters":38800,"station_id":"ce4bhs12rcd13ifvqhvg","pricing_plan_id":"cebpf4jnsgd1na2vs0mg"},{"bike_id":"4e5685ad-3b9b-4660-9504-650dfb3e90b2","system_id":"levelo_inurba_marseille","lat":43.31364,"lon":5.3671,"is_reserved":false,"is_disabled":false,"rental_uris":{"android":"levelo://app?vid=4e5685ad-3b9b-4660-9504-650dfb3e90b2","ios":"levelo://app?vid=4e5685ad-3b9b-4660-9504-650dfb3e90b2"},"vehicle_type_id":"4","last_reported":1731496046,"current_range_meters":38800,"station_id":"ce4bgr92rcd13ifvqc6g","pricing_plan_id":"cebpf4jnsgd1na2vs0mg"},{"bike_id":"4e6c3c61-7cf6-4851-8c15-6783bc29ac97","system_id":"levelo_inurba_marseille","lat":43.308,"lon":5.38149,"is_reserved":false,"is_disabled":false,"rental_uris":{"android":"levelo://app?vid=4e6c3c61-7cf6-4851-8c15-6783bc29ac97","ios":"levelo://app?vid=4e6c3c61-7cf6-4851-8c15-6783bc29ac97"},"vehicle_type_id":"4","last_reported":1731496046,"current_range_meters":35200,"station_id":"ce4bgt12rcd13ifvqce0","pricing_plan_id":"cebpf4jnsgd1na2vs0mg"},{"bike_id":"1906a47b-4e11-4381-9b86-d862b8be8a3e","system_id":"levelo_inurba_marseille","lat":43.31233,"lon":5.3685,"is_reserved":false,"is_disabled":false,"rental_uris":{"android":"levelo://app?vid=1906a47b-4e11-4381-9b86-d862b8be8a3e","ios":"levelo://app?vid=1906a47b-4e11-4381-9b86-d862b8be8a3e"},"vehicle_type_id":"4","last_reported":1731496046,"current_range_meters":32800,"station_id":"ce4bgl92rcd13ifvqbq0","pricing_plan_id":"cebpf4jnsgd1na2vs0mg"},